~Version Information
 VERS.                  2.0:   CWLS log ASCII Standard -VERSION 2.0
 WRAP.                   NO:   One line per depth step
~Well Information Block
#MNEM.UNIT     VALUE/NAME     DESCRIPTION
#---------     -----------    ---------------------------
 STRT.S             10:41:06 19-Jul-21: START TIME 10:41:06 19-Jul-21
 STOP.S             10:48:00 19-Jul-21: STOP TIME  10:48:00 19-Jul-21
 STEP.S                   0.00: STEP TIME
 NULL.                 -999.25: NULL VALUE
 MDS .        Operator Entered:  MAG DATA SOURCE
 PDAT.          Mean Sea Level:  PERMANENT DATUM
 UNIT.                     N/A:  LOGGING EQUIPMENT ID
 DCON.         Sperry Drilling:  DIRECTNL CONTR
 DOE .                     N/A:  DOE NUMBER
 RIG .              West Azeri:  RIG NAME
 JOBN.        AZ-XX-0906997913:  JOB TICKET NUMB
 WELL.                     C41:  WELL NAME
 MWDS.                    Baku:  MWD SHOP
 SRVC.          Turan Drilling:  CONTRACTOR
 FLD .                     ACG:  FIELD NAME
 CTRY.              Azerbaijan:  COUNTRY NAME
 PROV.                    Baku:  PROVINCE
 STAT.                    Baku:  STATE NAME
 REGN.                   EESSA:  REGION
 BASE.              Azerbaijan:  LOGGING EQUIPMENT BASE LOCATION
 UWI .                     N/A:  UNIQUE WELL IDENTIFIER
 API .                     N/A:  API NUMBER
 COMP.     BP Exploration (Caspian Sea) Ltd.:  COMPANY
 WTYP.                Deviated:  WELL TYPE
 SON .        AZ-XX-0906997913:  JOB NUMBER
 FTOP.          Formation Tops:  FORM TOPS DESC
 ILTD.               Lithology:  INTERP LTH DESC
 SVYD.                  Survey:  SURVEY DESC
 DMOD.             Drill Model:  DRILL MOD DESC
 HPTY.       Minimum Curvature:  HOLE POS TYPE
 NREF.                    Grid:  NORTH REFERENCE
 SPUD.               16-May-21:  SPUD DATE
 DATE.      21.11.28 17-May-21:  END TIME
 STIM.      21.11.28 17-May-21:  START TIME
 DMF .             Drill Floor:  DRILL MEAS FROM
 DFST.                        :  DIST FSL TEXT
 DFWT.                        :  DIST FWL TEXT
 CNTY.                        :  COUNTY
 LOC .                        :  LOCATION
 LMF .             Drill Floor:  LOG MEASURED FROM
 AGAP.m                  43.42:  AIR GAP
 VSNS.m                  -2.16:  VERT SEC N/S
 VSEW.m                  -6.24:  VERT SEC E/W
 APD .m                  43.42:  DEPTH ABOVE PD
 WDMS.m                 118.27:  WD ELEV
 EGL .m                   0.00:  GROUND ELEVATION
 EPD .m                   0.00:  ELEVATION
 AZTC.deg                 6.29:  AZM TOTAL CORR
 GRDC.deg                 0.18:  GRID CORRECTION
 MDEC.deg                 6.47:  MAGNETIC DECL
 MDIP.deg                59.54:  MAGNETIC DIP
 MFLD.nT              50337.00:  MAGNETIC FIELD
 GVFD.g                   1.00:  GRAVITY FIELD
 VSDR.deg               226.99:  VERT SEC DIRECT
 TDD .m                   0.00:  TOTAL DEPTH (DRILLER)
 SDEP.m                 448.00:  START DEPTH
 DFSL.m                   0.00:  DISTANCE FSL
 DFWL.m                   0.00:  DISTANCE FWL
 UTMY.m             4435799.96:  UTM Y
 UTMX.m              526265.35:  UTM X
 WHEW.m                  -6.24:  WELL HEAD E/W
 WHNS.m                  -2.16:  WELL HEAD N/S
 LONG.deg                51.31:  LONGITUDE
 LATI.deg                40.06:  LATITUDE
 TVDS.m                  43.42:  TVDSS CORRECTN
 EKB .m                  43.42:  KB ELEVATION
 EDF .m                  43.42:  DF ELEVATION
 TDL .m                 288.00:  TOTAL DEPTH (LOGGER)
 MAGU.                 1851863:  MAGUTM CHECKSUM
 VSC .                       0:  VS TO CLOSURE
~Parameter Information Block
#MNEM.UNIT       Value        Description
#---------     -----------    ---------------------------
 AV  .mps                 0.40:  Ann Velocity 
 AVMX.mps                 0.63:  Max Ann Veloc 
 AZIF.deg               158.76:  Azm, Final 
 BHAT.        Rotary Steerable:  BHA Type 
 BROT.°/30m               0.68:  Build Rotating 
 BS  .in                  8.50:  Bit Size 
 BSZ .in                  8.50:  Bit Size 
 BTPL.psig              712.00:  Bit Press Loss 
 CABU.                      No:  Customer Abuse 
 COMM.                     ÄòJ:  Run Comments 1 
 TCS .hr                 90.66:  Time Ciculation Ended 
 CV  .mps                 2.02:  Crit Velocity 
 CVMX.mps                 2.14:  Max Crit Veloc 
 DD1 .            Aziz Aliyevu:  Direct Drillr 1 
 DD2 .             Samir Abbas:  Direct Drillr 2 
 DD3 .           Teymur Aliyev:  Direct Drillr 3 
 DDSV.                 iCruise:  DD Service 
 DEFF.%                  85.10:  % Det Eff 
 DLRX.°/30m               1.05:  Dogleg Rot Max 
 DLSO.°/30m               1.01:  Dogleg Oriented 
 DLSX.°/30m               1.05:  Dogleg Str Max 
 DRET.      07.45.00 18-Jul-21:  Drill End Time 
 DRST.      15.00.00 16-Jul-21:  Drill Start Tim 
 DTIM.hr                 23.46:  Time Drilling 
 EDEP.m                4603.00:  End Depth 
 ENG1.       Seymur Iskandarov:  Engineer 1 
 ENG2.         Yevgeniy Ulikov:  Engineer 2 
 ENG3.         Bahruz Mehdiyev:  Engineer 3 
 ENG4.         Elchin Mammadov:  Engineer 4 
 ETIM.      14.00.00 23-Jul-21:  End Time 
 FLOI.gpm               500.00:  Flow In 
 FLON.gpm               450.00:  Flow In Min 
 FLOS.cptm                0.00:  Fluid Loss 
 FLOX.gpm               560.00:  Flow In Max 
 DFT .        Mineral Oil Base:  Mud Type 
 FTRO.       Formation Presure:  FTWD Run Obj 
 HFLO.                      No:  High Flow 
 HPRE.                      No:  High Pressure 
 HTEM.                      No:  High Temp 
 HYDO.m                   1.80:  Hydro Offset 
 IFIN.deg                40.22:  Inc, Final 
 IMAX.deg                40.54:  Inc Max 
 IMIN.deg                39.44:  Inc Min 
 IMND.m                4361.17:  Inc Min Depth 
 IMXD.m                4417.92:  Inc Max Depth 
 JARR.                      No:  Jarring 
 LETM.      07.45.00 18-Jul-21:  Log End Time 
 LOST.hr                    16:  Lost Rig Time 
 LSTM.      15.00.00 16-Jul-21:  Log Start Time 
 MDCL.ppm             36500.00:  Mud Chlorides 
 MDES.     Inversion Oil/Synthetic:  Mud Desc 
 DFD .sg                  1.42:  Mud Density 
 MDMN.sg                  1.42:  Dens Mud Min 
 MDMX.sg                  1.43:  Dens Mud Max 
 MOIL.                      56:  Run Mud Oil % 
 MOWR.                   71:29:  Run Mud OWR 
 MSND.                     0.5:  Run Mud Sand % 
 MSOL.                      21:  Run Mud Solids% 
 DFV .spqt               78.00:  Mud Viscosity 
 MWOD.in                  6.75:  MWD Tool OD 
 MWSI.                     Yes:  Serv Intrp, MWD 
 OTIM.hr                200.73:  Time Operating 
 PCON.           Look Like New:  Pad Condition 
 PMAX.psia            11069.93:  Press Op, Max 
 PV  .cP                 32.00:  Mud PV 
 RUN .                     700:  Run Number 
 ROPA.m/hr               10.00:  ROP Avg 
 ROPN.m/hr                9.00:  ROP Min 
 ROPX.m/hr               16.00:  ROP Max 
 RPMA.rpm               116.00:  RPM Surface Avg 
 RPMN.rpm                80.00:  RPM Surface Min 
 RPMX.rpm               120.00:  RPM Surface Max 
 RRUN.                    L605:  Rig Run Number 
 RTIM.hr                 45.00:  Time Reaming 
 SAZI.deg               159.86:  Azm, Start 
 SDEP.m                4315.00:  Start Depth 
 SIDD.                      No:  Serv Intrp, DD 
 SINC.deg                39.86:  Inc, Start 
 SPPA.psig             3300.00:  SPP Avg 
 SPPN.psig             3040.00:  SPP Min 
 SPPX.psig             3645.00:  SPP Max 
 STIM.      01.00.00 15-Jul-21:  Start Time 
 SVCS.                 DD, MWD:  Services 
 SVER.                    9.20:  Sperry Version 
 TDAT.m                 288.00:  Tot Depth Attmp 
 TDDF.                      No:  Trip for DD 
 TDLG.m                 288.00:  Tot Depth Loggd 
 TFF .                      No:  Trip for Fail 
 TQAA.f-kp               19.00:  Torque Abs Avg 
 TQAN.f-kp               18.00:  Torque Abs Min 
 TQAX.f-kp               21.00:  Torque Abs Max 
 TRRT.°/30m               0.45:  Turn Rotating 
 MRT .                    HCIM:  Maximum Recorded Temperature 
 TTMX.degC               88.24:  Max Tool Temp 
 VS01.                90649157:  Virtual Str1 SN 
 VS02.                90652483:  Virtual Str2 SN 
 VS03.                11671987:  Virtual Str3 SN 
 VS04.                90643411:  Virtual Str4 SN 
 VS05.                90652478:  Virtual Str5 SN 
 VS06.                    6111:  Virtual Str6 SN 
 WBMN.klb                 9.50:  WOB Min 
 WITN.        Grigoriy Sarayev:  Customer Rep 
 WITN.          Rufat Huseynov:  Customer Rep 2 
 WOBA.klb                11.00:  WOB Avg 
 WOBX.klb                15.00:  WOB Max 
 YP  .lhf2               28.00:  Yield Point 
~Curve Information Block
#MNEM.UNIT                 API CODE     Curve Description
#---------               -----------    ---------------------------
 TIME.HHMMSS            00 000 000 000:  GT Time & Date
 GTDEPTH.m              00 000 000 000:  GT Depth
 GTPQH.psia             00 000 000 000:  GT HR Quartz Pressure
 GTTQ.degC              00 000 000 000:  GT Quartz Temperature
 GTTN.NONE              00 000 000 000:  GT Test Number
 GTET.sec               00 000 000 000:  GT Elapsed Test Time
 GTTVD.m                00 000 000 000:  GT True Vertical Depth
#Other Information
#
#WARRANTY: Halliburton will use its best efforts to furnish customers with 
#accurate information and interpretations that are part of, and incident to, the services 
#provided.  However, Halliburton cannot and does not warrant the accuracy 
#or correctness of such information and interpretations.  Under no circumstances should any 
#such information or interpretation be relied upon as the sole basis for any drilling, 
#completion, production, or financial decision or any procedure involving any risk to the 
#safety of any drilling venture, drilling rig or its crew or any other third party.  The 
#Customer has full responsibility for all drilling, completion and production operation.  
#Halliburton makes no representations or warranties, either expressed or 
#implied, including, but not limited to, the implied warranties of merchantability or fitness 
#for a particular purpose, with respect to the services rendered.  In no event will 
#Halliburton be liable for failure to obtain any particular results or for 
#any damages, including, but not limited to, indirect, special or consequential damages, 
#resulting from the use of any information or interpretation provided by Halliburton.
#
~A           TIME           GTDEPTH  GTPQH  GTTQ  GTTN   GTET   GTTVD  
   10:41:06.138.19-Jul-2021 4492.50 6470.40 70.61 23.00   0.00 2694.52
   10:41:06.338.19-Jul-2021 4492.50 6470.40 70.61 23.00   0.20 2694.52
   10:41:06.538.19-Jul-2021 4492.50 6470.47 70.61 23.00   0.40 2694.52
   10:41:06.738.19-Jul-2021 4492.50 6479.50 70.61 23.00   0.60 2694.52
   10:41:06.938.19-Jul-2021 4492.50 6478.75 70.61 23.00   0.80 2694.52
   10:41:07.138.19-Jul-2021 4492.50 6480.63 70.61 23.00   1.00 2694.52
   10:41:07.338.19-Jul-2021 4492.50 6480.63 70.61 23.00   1.20 2694.52
   10:41:07.539.19-Jul-2021 4492.50 6471.38 70.61 23.00   1.40 2694.52
   10:41:07.739.19-Jul-2021 4492.50 6486.50 70.61 23.00   1.60 2694.52
   10:41:07.939.19-Jul-2021 4492.50 6492.01 70.61 23.00   1.80 2694.52
   10:41:08.139.19-Jul-2021 4492.50 6486.20 70.61 23.00   2.00 2694.52
   10:41:08.339.19-Jul-2021 4492.50 6486.20 70.61 23.00   2.20 2694.52
   10:41:08.539.19-Jul-2021 4492.50 6479.75 70.61 23.00   2.40 2694.52
   10:41:08.739.19-Jul-2021 4492.50 6493.44 70.61 23.00   2.60 2694.52
   10:41:08.939.19-Jul-2021 4492.50 6504.10 70.61 23.00   2.80 2694.52
   10:41:09.139.19-Jul-2021 4492.50 6487.92 70.61 23.00   3.00 2694.52
   10:41:09.339.19-Jul-2021 4492.50 6487.92 70.61 23.00   3.20 2694.52
   10:41:09.539.19-Jul-2021 4492.50 6494.42 70.61 23.00   3.40 2694.52
   10:41:09.739.19-Jul-2021 4492.50 6492.96 70.61 23.00   3.60 2694.52
   10:41:09.939.19-Jul-2021 4492.50 6485.71 70.61 23.00   3.80 2694.52
   10:41:10.139.19-Jul-2021 4492.50 6486.28 70.61 23.00   4.00 2694.52
   10:41:10.340.19-Jul-2021 4492.50 6486.28 70.61 23.00   4.20 2694.52
   10:41:10.540.19-Jul-2021 4492.50 6497.92 70.61 23.00   4.40 2694.52
   10:41:10.740.19-Jul-2021 4492.50 6492.15 70.61 23.00   4.60 2694.52
   10:41:10.940.19-Jul-2021 4492.50 6487.73 70.61 23.00   4.80 2694.52
   10:41:11.140.19-Jul-2021 4492.50 6487.99 70.61 23.00   5.00 2694.52
   10:41:11.340.19-Jul-2021 4492.50 6487.99 70.61 23.00   5.20 2694.52
   10:41:11.540.19-Jul-2021 4492.50 6487.10 70.61 23.00   5.40 2694.52
   10:41:11.740.19-Jul-2021 4492.50 6487.80 70.61 23.00   5.60 2694.52
   10:41:11.940.19-Jul-2021 4492.50 6486.62 70.61 23.00   5.80 2694.52
   10:41:12.140.19-Jul-2021 4492.50 6485.51 70.61 23.00   6.00 2694.52
   10:41:12.340.19-Jul-2021 4492.50 6485.51 70.61 23.00   6.20 2694.52
   10:41:12.540.19-Jul-2021 4492.50 6486.68 70.61 23.00   6.40 2694.52
   10:41:12.740.19-Jul-2021 4492.50 6487.37 70.61 23.00   6.60 2694.52
   10:41:12.941.19-Jul-2021 4492.50 6487.58 70.61 23.00   6.80 2694.52
   10:41:13.141.19-Jul-2021 4492.50 6494.07 70.61 23.00   7.00 2694.52
   10:41:13.341.19-Jul-2021 4492.50 6494.07 70.61 23.00   7.20 2694.52
   10:41:13.541.19-Jul-2021 4492.50 6500.34 70.61 23.00   7.40 2694.52
   10:41:13.741.19-Jul-2021 4492.50 6492.63 70.61 23.00   7.60 2694.52
   10:41:13.941.19-Jul-2021 4492.50 6491.43 70.61 23.00   7.80 2694.52
   10:41:14.141.19-Jul-2021 4492.50 6489.71 70.61 23.00   8.00 2694.52
   10:41:14.341.19-Jul-2021 4492.50 6489.71 70.61 23.00   8.20 2694.52
   10:41:14.541.19-Jul-2021 4492.50 6489.62 70.61 23.00   8.40 2694.52
   10:41:14.741.19-Jul-2021 4492.50 6488.80 70.61 23.00   8.60 2694.52
   10:41:14.941.19-Jul-2021 4492.50 6487.79 70.61 23.00   8.80 2694.52
   10:41:15.141.19-Jul-2021 4492.50 6487.12 70.61 23.00   9.00 2694.52
   10:41:15.341.19-Jul-2021 4492.50 6487.12 70.61 23.00   9.20 2694.52
   10:41:15.541.19-Jul-2021 4492.50 6487.18 70.61 23.00   9.40 2694.52
   10:41:15.742.19-Jul-2021 4492.50 6487.13 70.61 23.00   9.60 2694.52
   10:41:15.942.19-Jul-2021 4492.50 6506.68 70.61 23.00   9.80 2694.52
   10:41:16.142.19-Jul-2021 4492.50 6489.70 70.61 23.00  10.00 2694.52
   10:41:16.342.19-Jul-2021 4492.50 6489.70 70.61 23.00  10.20 2694.52
   10:41:16.542.19-Jul-2021 4492.50 6491.44 70.61 23.00  10.40 2694.52
   10:41:16.742.19-Jul-2021 4492.50 6496.62 70.61 23.00  10.60 2694.52
   10:41:16.942.19-Jul-2021 4492.50 6496.80 70.61 23.00  10.80 2694.52
   10:41:17.142.19-Jul-2021 4492.50 6499.35 70.61 23.00  11.00 2694.52
   10:41:17.342.19-Jul-2021 4492.50 6499.35 70.61 23.00  11.20 2694.52
   10:41:17.542.19-Jul-2021 4492.50 6493.10 70.61 23.00  11.40 2694.52
   10:41:17.742.19-Jul-2021 4492.50 6512.23 70.61 23.00  11.60 2694.52
   10:41:17.942.19-Jul-2021 4492.50 6491.85 70.61 23.00  11.80 2694.52
   10:41:18.142.19-Jul-2021 4492.50 6494.77 70.61 23.00  12.00 2694.52
   10:41:18.343.19-Jul-2021 4492.50 6494.77 70.61 23.00  12.20 2694.52
   10:41:18.543.19-Jul-2021 4492.50 6514.57 70.61 23.00  12.40 2694.52
   10:41:18.743.19-Jul-2021 4492.50 6488.80 70.61 23.00  12.60 2694.52
   10:41:18.943.19-Jul-2021 4492.50 6503.42 70.61 23.00  12.80 2694.52
   10:41:19.143.19-Jul-2021 4492.50 6514.38 70.61 23.00  13.00 2694.52
   10:41:19.343.19-Jul-2021 4492.50 6514.38 70.61 23.00  13.20 2694.52
   10:41:19.543.19-Jul-2021 4492.50 6514.38 70.61 23.00  13.40 2694.52
   10:41:19.743.19-Jul-2021 4492.50 6514.38 70.61 23.00  13.61 2694.52
   10:41:19.943.19-Jul-2021 4492.50 6497.14 70.61 23.00  13.81 2694.52
   10:41:20.143.19-Jul-2021 4492.50 6513.16 70.61 23.00  14.01 2694.52
   10:41:20.343.19-Jul-2021 4492.50 6513.16 70.61 23.00  14.21 2694.52
   10:41:20.543.19-Jul-2021 4492.50 6508.99 70.61 23.00  14.41 2694.52
   10:41:20.743.19-Jul-2021 4492.50 6501.28 70.61 23.00  14.61 2694.52
   10:41:20.943.19-Jul-2021 4492.50 6501.81 70.61 23.00  14.81 2694.52
   10:41:21.144.19-Jul-2021 4492.50 6500.30 70.61 23.00  15.01 2694.52
   10:41:21.344.19-Jul-2021 4492.50 6500.30 70.61 23.00  15.21 2694.52
   10:41:21.544.19-Jul-2021 4492.50 6501.41 70.61 23.00  15.41 2694.52
   10:41:21.744.19-Jul-2021 4492.50 6499.97 70.61 23.00  15.61 2694.52
   10:41:21.944.19-Jul-2021 4492.50 6498.09 70.61 23.00  15.81 2694.52
   10:41:22.144.19-Jul-2021 4492.50 6497.79 70.61 23.00  16.01 2694.52
   10:41:22.344.19-Jul-2021 4492.50 6497.79 70.61 23.00  16.21 2694.52
   10:41:22.544.19-Jul-2021 4492.50 6497.81 70.61 23.00  16.41 2694.52
   10:41:22.744.19-Jul-2021 4492.50 6497.20 70.61 23.00  16.61 2694.52
   10:41:22.944.19-Jul-2021 4492.50 6503.44 70.61 23.00  16.81 2694.52
   10:41:23.144.19-Jul-2021 4492.50 6504.72 70.61 23.00  17.01 2694.52
   10:41:23.344.19-Jul-2021 4492.50 6504.72 70.61 23.00  17.21 2694.52
   10:41:23.544.19-Jul-2021 4492.50 6501.39 70.61 23.00  17.41 2694.52
   10:41:23.744.19-Jul-2021 4492.50 6501.88 70.61 23.00  17.61 2694.52
   10:41:23.945.19-Jul-2021 4492.50 6502.36 70.61 23.00  17.81 2694.52
   10:41:24.145.19-Jul-2021 4492.50 6500.84 70.61 23.00  18.01 2694.52
   10:41:24.345.19-Jul-2021 4492.50 6500.84 70.61 23.00  18.21 2694.52
   10:41:24.545.19-Jul-2021 4492.50 6499.36 70.61 23.00  18.41 2694.52
   10:41:24.745.19-Jul-2021 4492.50 6498.71 70.61 23.00  18.61 2694.52
   10:41:24.945.19-Jul-2021 4492.50 6500.42 70.61 23.00  18.81 2694.52
   10:41:25.145.19-Jul-2021 4492.50 6501.69 70.61 23.00  19.01 2694.52
   10:41:25.345.19-Jul-2021 4492.50 6501.69 70.61 23.00  19.21 2694.52
   10:41:25.545.19-Jul-2021 4492.50 6498.38 70.61 23.00  19.41 2694.52
   10:41:25.745.19-Jul-2021 4492.50 6513.53 70.61 23.00  19.61 2694.52
   10:41:25.945.19-Jul-2021 4492.50 6509.27 70.61 23.00  19.81 2694.52
   10:41:26.145.19-Jul-2021 4492.50 6510.34 70.61 23.00  20.01 2694.52
   10:41:26.345.19-Jul-2021 4492.50 6510.34 70.61 23.00  20.21 2694.52
   10:41:26.546.19-Jul-2021 4492.50 6511.41 70.61 23.00  20.41 2694.52
   10:41:26.746.19-Jul-2021 4492.50 6522.09 70.61 23.00  20.61 2694.52
   10:41:26.946.19-Jul-2021 4492.50 6503.21 70.61 23.00  20.81 2694.52
   10:41:27.146.19-Jul-2021 4492.50 6516.75 70.61 23.00  21.01 2694.52
   10:41:27.346.19-Jul-2021 4492.50 6516.75 70.61 23.00  21.21 2694.52
   10:41:27.546.19-Jul-2021 4492.50 6505.34 70.61 23.00  21.41 2694.52
   10:41:27.746.19-Jul-2021 4492.50 6502.80 70.61 23.00  21.61 2694.52
   10:41:27.946.19-Jul-2021 4492.50 6520.53 70.61 23.00  21.81 2694.52
   10:41:28.146.19-Jul-2021 4492.50 6504.74 70.61 23.00  22.01 2694.52
   10:41:28.346.19-Jul-2021 4492.50 6504.74 70.61 23.00  22.21 2694.52
   10:41:28.546.19-Jul-2021 4492.50 6516.36 70.61 23.00  22.41 2694.52
