~Version Information
 VERS.                  2.0:   CWLS log ASCII Standard -VERSION 2.0
 WRAP.                   NO:   One line per depth step
~Well Information Block
#MNEM.UNIT     VALUE/NAME     DESCRIPTION
#---------     -----------    ---------------------------
 STRT.S             16:45:59 18-Jul-21: START TIME 16:45:59 18-Jul-21
 STOP.S             16:52:30 18-Jul-21: STOP TIME  16:52:30 18-Jul-21
 STEP.S                   0.00: STEP TIME
 NULL.                 -999.25: NULL VALUE
 MDS .        Operator Entered:  MAG DATA SOURCE
 PDAT.          Mean Sea Level:  PERMANENT DATUM
 UNIT.                     N/A:  LOGGING EQUIPMENT ID
 DCON.         Sperry Drilling:  DIRECTNL CONTR
 DOE .                     N/A:  DOE NUMBER
 RIG .              West Azeri:  RIG NAME
 JOBN.        AZ-XX-0906997913:  JOB TICKET NUMB
 WELL.                     C41:  WELL NAME
 MWDS.                    Baku:  MWD SHOP
 SRVC.          Turan Drilling:  CONTRACTOR
 FLD .                     ACG:  FIELD NAME
 CTRY.              Azerbaijan:  COUNTRY NAME
 PROV.                    Baku:  PROVINCE
 STAT.                    Baku:  STATE NAME
 REGN.                   EESSA:  REGION
 BASE.              Azerbaijan:  LOGGING EQUIPMENT BASE LOCATION
 UWI .                     N/A:  UNIQUE WELL IDENTIFIER
 API .                     N/A:  API NUMBER
 COMP.     BP Exploration (Caspian Sea) Ltd.:  COMPANY
 WTYP.                Deviated:  WELL TYPE
 SON .        AZ-XX-0906997913:  JOB NUMBER
 FTOP.          Formation Tops:  FORM TOPS DESC
 ILTD.               Lithology:  INTERP LTH DESC
 SVYD.                  Survey:  SURVEY DESC
 DMOD.             Drill Model:  DRILL MOD DESC
 HPTY.       Minimum Curvature:  HOLE POS TYPE
 NREF.                    Grid:  NORTH REFERENCE
 SPUD.               16-May-21:  SPUD DATE
 DATE.      21.11.28 17-May-21:  END TIME
 STIM.      21.11.28 17-May-21:  START TIME
 DMF .             Drill Floor:  DRILL MEAS FROM
 DFST.                        :  DIST FSL TEXT
 DFWT.                        :  DIST FWL TEXT
 CNTY.                        :  COUNTY
 LOC .                        :  LOCATION
 LMF .             Drill Floor:  LOG MEASURED FROM
 AGAP.m                  43.42:  AIR GAP
 VSNS.m                  -2.16:  VERT SEC N/S
 VSEW.m                  -6.24:  VERT SEC E/W
 APD .m                  43.42:  DEPTH ABOVE PD
 WDMS.m                 118.27:  WD ELEV
 EGL .m                   0.00:  GROUND ELEVATION
 EPD .m                   0.00:  ELEVATION
 AZTC.deg                 6.29:  AZM TOTAL CORR
 GRDC.deg                 0.18:  GRID CORRECTION
 MDEC.deg                 6.47:  MAGNETIC DECL
 MDIP.deg                59.54:  MAGNETIC DIP
 MFLD.nT              50337.00:  MAGNETIC FIELD
 GVFD.g                   1.00:  GRAVITY FIELD
 VSDR.deg               226.99:  VERT SEC DIRECT
 TDD .m                   0.00:  TOTAL DEPTH (DRILLER)
 SDEP.m                 448.00:  START DEPTH
 DFSL.m                   0.00:  DISTANCE FSL
 DFWL.m                   0.00:  DISTANCE FWL
 UTMY.m             4435799.96:  UTM Y
 UTMX.m              526265.35:  UTM X
 WHEW.m                  -6.24:  WELL HEAD E/W
 WHNS.m                  -2.16:  WELL HEAD N/S
 LONG.deg                51.31:  LONGITUDE
 LATI.deg                40.06:  LATITUDE
 TVDS.m                  43.42:  TVDSS CORRECTN
 EKB .m                  43.42:  KB ELEVATION
 EDF .m                  43.42:  DF ELEVATION
 TDL .m                 288.00:  TOTAL DEPTH (LOGGER)
 MAGU.                 1851863:  MAGUTM CHECKSUM
 VSC .                       0:  VS TO CLOSURE
~Parameter Information Block
#MNEM.UNIT       Value        Description
#---------     -----------    ---------------------------
 AV  .mps                 0.40:  Ann Velocity 
 AVMX.mps                 0.63:  Max Ann Veloc 
 AZIF.deg               158.76:  Azm, Final 
 BHAT.        Rotary Steerable:  BHA Type 
 BROT.∞/30m               0.68:  Build Rotating 
 BS  .in                  8.50:  Bit Size 
 BSZ .in                  8.50:  Bit Size 
 BTPL.psig              712.00:  Bit Press Loss 
 CABU.                      No:  Customer Abuse 
 COMM.                     ,èr:  Run Comments 1 
 TCS .hr                 90.66:  Time Ciculation Ended 
 CV  .mps                 2.02:  Crit Velocity 
 CVMX.mps                 2.14:  Max Crit Veloc 
 DD1 .            Aziz Aliyevu:  Direct Drillr 1 
 DD2 .             Samir Abbas:  Direct Drillr 2 
 DD3 .           Teymur Aliyev:  Direct Drillr 3 
 DDSV.                 iCruise:  DD Service 
 DEFF.%                  85.10:  % Det Eff 
 DLRX.∞/30m               1.05:  Dogleg Rot Max 
 DLSO.∞/30m               1.01:  Dogleg Oriented 
 DLSX.∞/30m               1.05:  Dogleg Str Max 
 DRET.      07.45.00 18-Jul-21:  Drill End Time 
 DRST.      15.00.00 16-Jul-21:  Drill Start Tim 
 DTIM.hr                 23.46:  Time Drilling 
 EDEP.m                4603.00:  End Depth 
 ENG1.       Seymur Iskandarov:  Engineer 1 
 ENG2.         Yevgeniy Ulikov:  Engineer 2 
 ENG3.         Bahruz Mehdiyev:  Engineer 3 
 ENG4.         Elchin Mammadov:  Engineer 4 
 ETIM.      14.00.00 23-Jul-21:  End Time 
 FLOI.gpm               500.00:  Flow In 
 FLON.gpm               450.00:  Flow In Min 
 FLOS.cptm                0.00:  Fluid Loss 
 FLOX.gpm               560.00:  Flow In Max 
 DFT .        Mineral Oil Base:  Mud Type 
 FTRO.       Formation Presure:  FTWD Run Obj 
 HFLO.                      No:  High Flow 
 HPRE.                      No:  High Pressure 
 HTEM.                      No:  High Temp 
 HYDO.m                   1.80:  Hydro Offset 
 IFIN.deg                40.22:  Inc, Final 
 IMAX.deg                40.54:  Inc Max 
 IMIN.deg                39.44:  Inc Min 
 IMND.m                4361.17:  Inc Min Depth 
 IMXD.m                4417.92:  Inc Max Depth 
 JARR.                      No:  Jarring 
 LETM.      07.45.00 18-Jul-21:  Log End Time 
 LOST.hr                    16:  Lost Rig Time 
 LSTM.      15.00.00 16-Jul-21:  Log Start Time 
 MDCL.ppm             36500.00:  Mud Chlorides 
 MDES.     Inversion Oil/Synthetic:  Mud Desc 
 DFD .sg                  1.42:  Mud Density 
 MDMN.sg                  1.42:  Dens Mud Min 
 MDMX.sg                  1.43:  Dens Mud Max 
 MOIL.                      56:  Run Mud Oil % 
 MOWR.                   71:29:  Run Mud OWR 
 MSND.                     0.5:  Run Mud Sand % 
 MSOL.                      21:  Run Mud Solids% 
 DFV .spqt               78.00:  Mud Viscosity 
 MWOD.in                  6.75:  MWD Tool OD 
 MWSI.                     Yes:  Serv Intrp, MWD 
 OTIM.hr                200.73:  Time Operating 
 PCON.           Look Like New:  Pad Condition 
 PMAX.psia            11069.93:  Press Op, Max 
 PV  .cP                 32.00:  Mud PV 
 RUN .                     700:  Run Number 
 ROPA.m/hr               10.00:  ROP Avg 
 ROPN.m/hr                9.00:  ROP Min 
 ROPX.m/hr               16.00:  ROP Max 
 RPMA.rpm               116.00:  RPM Surface Avg 
 RPMN.rpm                80.00:  RPM Surface Min 
 RPMX.rpm               120.00:  RPM Surface Max 
 RRUN.                    L605:  Rig Run Number 
 RTIM.hr                 45.00:  Time Reaming 
 SAZI.deg               159.86:  Azm, Start 
 SDEP.m                4315.00:  Start Depth 
 SIDD.                      No:  Serv Intrp, DD 
 SINC.deg                39.86:  Inc, Start 
 SPPA.psig             3300.00:  SPP Avg 
 SPPN.psig             3040.00:  SPP Min 
 SPPX.psig             3645.00:  SPP Max 
 STIM.      01.00.00 15-Jul-21:  Start Time 
 SVCS.                 DD, MWD:  Services 
 SVER.                    9.20:  Sperry Version 
 TDAT.m                 288.00:  Tot Depth Attmp 
 TDDF.                      No:  Trip for DD 
 TDLG.m                 288.00:  Tot Depth Loggd 
 TFF .                      No:  Trip for Fail 
 TQAA.f-kp               19.00:  Torque Abs Avg 
 TQAN.f-kp               18.00:  Torque Abs Min 
 TQAX.f-kp               21.00:  Torque Abs Max 
 TRRT.∞/30m               0.45:  Turn Rotating 
 MRT .                    HCIM:  Maximum Recorded Temperature 
 TTMX.degC               88.24:  Max Tool Temp 
 VS01.                90649157:  Virtual Str1 SN 
 VS02.                90652483:  Virtual Str2 SN 
 VS03.                11671987:  Virtual Str3 SN 
 VS04.                90643411:  Virtual Str4 SN 
 VS05.                90652478:  Virtual Str5 SN 
 VS06.                    6111:  Virtual Str6 SN 
 WBMN.klb                 9.50:  WOB Min 
 WITN.        Grigoriy Sarayev:  Customer Rep 
 WITN.          Rufat Huseynov:  Customer Rep 2 
 WOBA.klb                11.00:  WOB Avg 
 WOBX.klb                15.00:  WOB Max 
 YP  .lhf2               28.00:  Yield Point 
~Curve Information Block
#MNEM.UNIT                 API CODE     Curve Description
#---------               -----------    ---------------------------
 TIME.HHMMSS            00 000 000 000:  GT Time & Date
 GTDEPTH.m              00 000 000 000:  GT Depth
 GTPQH.psia             00 000 000 000:  GT HR Quartz Pressure
 GTTQ.degC              00 000 000 000:  GT Quartz Temperature
 GTTN.NONE              00 000 000 000:  GT Test Number
 GTET.sec               00 000 000 000:  GT Elapsed Test Time
 GTTVD.m                00 000 000 000:  GT True Vertical Depth
#Other Information
#
#WARRANTY: Halliburton will use its best efforts to furnish customers with 
#accurate information and interpretations that are part of, and incident to, the services 
#provided.  However, Halliburton cannot and does not warrant the accuracy 
#or correctness of such information and interpretations.  Under no circumstances should any 
#such information or interpretation be relied upon as the sole basis for any drilling, 
#completion, production, or financial decision or any procedure involving any risk to the 
#safety of any drilling venture, drilling rig or its crew or any other third party.  The 
#Customer has full responsibility for all drilling, completion and production operation.  
#Halliburton makes no representations or warranties, either expressed or 
#implied, including, but not limited to, the implied warranties of merchantability or fitness 
#for a particular purpose, with respect to the services rendered.  In no event will 
#Halliburton be liable for failure to obtain any particular results or for 
#any damages, including, but not limited to, indirect, special or consequential damages, 
#resulting from the use of any information or interpretation provided by Halliburton.
#
~A           TIME           GTDEPTH  GTPQH  GTTQ  GTTN  GTET   GTTVD  
# ...
   16:49:26.462.18-Jul-2021 4545.00 5673.13 74.93 6.00 207.08 2734.68
   16:49:26.662.18-Jul-2021 4545.00 5673.13 74.93 6.00 207.28 2734.68
   16:49:26.862.18-Jul-2021 4545.00 5671.45 74.93 6.00 207.48 2734.68
   16:49:27.062.18-Jul-2021 4545.00 5672.53 74.93 6.00 207.68 2734.68
   16:49:27.263.18-Jul-2021 4545.00 5671.95 74.93 6.00 207.88 2734.68
   16:49:27.463.18-Jul-2021 4545.00 5672.33 74.93 6.00 208.08 2734.68
   16:49:27.663.18-Jul-2021 4545.00 5672.33 74.93 6.00 208.28 2734.68
   16:49:27.863.18-Jul-2021 4545.00 5672.60 74.93 6.00 208.48 2734.68
   16:49:28.063.18-Jul-2021 4545.00 5671.97 74.93 6.00 208.68 2734.68
   16:49:28.263.18-Jul-2021 4545.00 5672.55 74.93 6.00 208.88 2734.68
   16:49:28.463.18-Jul-2021 4545.00 5672.13 74.93 6.00 209.08 2734.68
   16:49:28.663.18-Jul-2021 4545.00 5672.13 74.93 6.00 209.28 2734.68
   16:49:28.863.18-Jul-2021 4545.00 5672.40 74.93 6.00 209.48 2734.68
   16:49:29.063.18-Jul-2021 4545.00 5672.43 74.93 6.00 209.68 2734.68
   16:49:29.263.18-Jul-2021 4545.00 5672.39 74.93 6.00 209.88 2734.68
   16:49:29.463.18-Jul-2021 4545.00 5672.38 74.93 6.00 210.08 2734.68
   16:49:29.663.18-Jul-2021 4545.00 5672.38 74.93 6.00 210.28 2734.68
   16:49:29.863.18-Jul-2021 4545.00 5672.46 74.93 6.00 210.48 2734.68
   16:49:30.064.18-Jul-2021 4545.00 5672.46 74.93 6.00 210.68 2734.68
   16:49:30.264.18-Jul-2021 4545.00 5672.38 74.93 6.00 210.88 2734.68
   16:49:30.464.18-Jul-2021 4545.00 5671.79 74.93 6.00 211.08 2734.68
   16:49:30.664.18-Jul-2021 4545.00 5671.79 74.93 6.00 211.28 2734.68
   16:49:30.864.18-Jul-2021 4545.00 5672.63 74.93 6.00 211.48 2734.68
   16:49:31.064.18-Jul-2021 4545.00 5673.07 74.93 6.00 211.68 2734.68
   16:49:31.264.18-Jul-2021 4545.00 5672.69 74.93 6.00 211.88 2734.68
   16:49:31.464.18-Jul-2021 4545.00 5672.76 74.93 6.00 212.08 2734.68
   16:49:31.664.18-Jul-2021 4545.00 5672.76 74.93 6.00 212.28 2734.68
   16:49:31.864.18-Jul-2021 4545.00 5672.74 74.93 6.00 212.48 2734.68
   16:49:32.064.18-Jul-2021 4545.00 5672.64 74.93 6.00 212.68 2734.68
   16:49:32.264.18-Jul-2021 4545.00 5672.69 74.93 6.00 212.88 2734.68
   16:49:32.464.18-Jul-2021 4545.00 5672.64 74.93 6.00 213.08 2734.68
   16:49:32.665.18-Jul-2021 4545.00 5672.64 74.93 6.00 213.28 2734.68
   16:49:32.865.18-Jul-2021 4545.00 5672.71 74.93 6.00 213.48 2734.68
   16:49:33.065.18-Jul-2021 4545.00 5671.41 74.93 6.00 213.68 2734.68
   16:49:33.265.18-Jul-2021 4545.00 5673.80 74.93 6.00 213.88 2734.68
   16:49:33.465.18-Jul-2021 4545.00 5672.78 74.93 6.00 214.08 2734.68
   16:49:33.665.18-Jul-2021 4545.00 5672.78 74.93 6.00 214.28 2734.68
   16:49:33.865.18-Jul-2021 4545.00 5673.22 74.93 6.00 214.48 2734.68
   16:49:34.065.18-Jul-2021 4545.00 5672.59 74.93 6.00 214.68 2734.68
   16:49:34.265.18-Jul-2021 4545.00 5672.99 74.93 6.00 214.88 2734.68
   16:49:34.465.18-Jul-2021 4545.00 5672.09 74.93 6.00 215.08 2734.68
   16:49:34.665.18-Jul-2021 4545.00 5672.09 74.93 6.00 215.28 2734.68
   16:49:34.865.18-Jul-2021 4545.00 5671.26 74.93 6.00 215.48 2734.68
   16:49:35.065.18-Jul-2021 4545.00 5673.50 74.93 6.00 215.68 2734.68
   16:49:35.265.18-Jul-2021 4545.00 5672.63 74.93 6.00 215.88 2734.68
   16:49:35.466.18-Jul-2021 4545.00 5672.73 74.93 6.00 216.08 2734.68
   16:49:35.666.18-Jul-2021 4545.00 5672.73 74.93 6.00 216.28 2734.68
   16:49:35.866.18-Jul-2021 4545.00 5673.32 74.93 6.00 216.48 2734.68
   16:49:36.066.18-Jul-2021 4545.00 5672.71 74.93 6.00 216.68 2734.68
   16:49:36.266.18-Jul-2021 4545.00 5672.72 74.93 6.00 216.88 2734.68
   16:49:36.466.18-Jul-2021 4545.00 5672.73 74.93 6.00 217.08 2734.68
   16:49:36.666.18-Jul-2021 4545.00 5672.73 74.93 6.00 217.28 2734.68
   16:49:36.866.18-Jul-2021 4545.00 5672.96 74.93 6.00 217.48 2734.68
   16:49:37.066.18-Jul-2021 4545.00 5673.04 74.93 6.00 217.68 2734.68
   16:49:37.266.18-Jul-2021 4545.00 5673.09 74.93 6.00 217.88 2734.68
   16:49:37.466.18-Jul-2021 4545.00 5673.12 74.93 6.00 218.08 2734.68
   16:49:37.666.18-Jul-2021 4545.00 5673.12 74.93 6.00 218.28 2734.68
   16:49:37.866.18-Jul-2021 4545.00 5673.20 74.93 6.00 218.48 2734.68
   16:49:38.067.18-Jul-2021 4545.00 5673.28 74.93 6.00 218.68 2734.68
   16:49:38.267.18-Jul-2021 4545.00 5673.19 74.93 6.00 218.88 2734.68
   16:49:38.467.18-Jul-2021 4545.00 5672.21 74.93 6.00 219.08 2734.68
   16:49:38.667.18-Jul-2021 4545.00 5672.21 74.93 6.00 219.28 2734.68
   16:49:38.867.18-Jul-2021 4545.00 5673.72 74.93 6.00 219.48 2734.68
   16:49:39.067.18-Jul-2021 4545.00 5673.68 74.92 6.00 219.68 2734.68
   16:49:39.267.18-Jul-2021 4545.00 5673.63 74.92 6.00 219.88 2734.68
   16:49:39.467.18-Jul-2021 4545.00 5673.58 74.92 6.00 220.08 2734.68
   16:49:39.667.18-Jul-2021 4545.00 5673.58 74.92 6.00 220.28 2734.68
   16:49:39.867.18-Jul-2021 4545.00 5673.56 74.92 6.00 220.48 2734.68
   16:49:40.067.18-Jul-2021 4545.00 5673.61 74.92 6.00 220.68 2734.68
   16:49:40.267.18-Jul-2021 4545.00 5673.51 74.92 6.00 220.88 2734.68
   16:49:40.467.18-Jul-2021 4545.00 5673.46 74.92 6.00 221.08 2734.68
   16:49:40.667.18-Jul-2021 4545.00 5673.46 74.92 6.00 221.28 2734.68
   16:49:40.868.18-Jul-2021 4545.00 5673.46 74.92 6.00 221.48 2734.68
   16:49:41.068.18-Jul-2021 4545.00 5673.37 74.92 6.00 221.68 2734.68
   16:49:41.268.18-Jul-2021 4545.00 5672.78 74.92 6.00 221.88 2734.68
   16:49:41.468.18-Jul-2021 4545.00 5674.03 74.92 6.00 222.08 2734.68
   16:49:41.668.18-Jul-2021 4545.00 5674.03 74.92 6.00 222.28 2734.68
   16:49:41.868.18-Jul-2021 4545.00 5674.16 74.92 6.00 222.48 2734.68
   16:49:42.068.18-Jul-2021 4545.00 5673.17 74.92 6.00 222.68 2734.68
   16:49:42.268.18-Jul-2021 4545.00 5673.35 74.92 6.00 222.88 2734.68
   16:49:42.468.18-Jul-2021 4545.00 5671.81 74.92 6.00 223.08 2734.68
   16:49:42.668.18-Jul-2021 4545.00 5671.81 74.92 6.00 223.28 2734.68
   16:49:42.868.18-Jul-2021 4545.00 5672.98 74.92 6.00 223.48 2734.68
   16:49:43.068.18-Jul-2021 4545.00 5672.43 74.92 6.00 223.68 2734.68
   16:49:43.268.18-Jul-2021 4545.00 5673.65 74.92 6.00 223.88 2734.68
   16:49:43.469.18-Jul-2021 4545.00 5673.05 74.92 6.00 224.08 2734.68
   16:49:43.669.18-Jul-2021 4545.00 5673.05 74.92 6.00 224.28 2734.68
   16:49:43.869.18-Jul-2021 4545.00 5673.42 74.92 6.00 224.48 2734.68
   16:49:44.069.18-Jul-2021 4545.00 5672.41 74.92 6.00 224.68 2734.68
   16:49:44.269.18-Jul-2021 4545.00 5673.27 74.92 6.00 224.88 2734.68
   16:49:44.469.18-Jul-2021 4545.00 5673.10 74.92 6.00 225.08 2734.68
   16:49:44.669.18-Jul-2021 4545.00 5673.10 74.92 6.00 225.28 2734.68
   16:49:44.869.18-Jul-2021 4545.00 5673.40 74.92 6.00 225.48 2734.68
   16:49:45.069.18-Jul-2021 4545.00 5673.27 74.92 6.00 225.68 2734.68
   16:49:45.269.18-Jul-2021 4545.00 5673.35 74.92 6.00 225.88 2734.68
   16:49:45.469.18-Jul-2021 4545.00 5673.37 74.92 6.00 226.08 2734.68
   16:49:45.669.18-Jul-2021 4545.00 5673.37 74.92 6.00 226.28 2734.68
   16:49:45.869.18-Jul-2021 4545.00 5673.47 74.92 6.00 226.48 2734.68
   16:49:46.069.18-Jul-2021 4545.00 5673.53 74.92 6.00 226.68 2734.68
   16:49:46.270.18-Jul-2021 4545.00 5673.55 74.92 6.00 226.88 2734.68
   16:49:46.470.18-Jul-2021 4545.00 5673.67 74.92 6.00 227.08 2734.68
   16:49:46.670.18-Jul-2021 4545.00 5673.67 74.92 6.00 227.28 2734.68
   16:49:46.870.18-Jul-2021 4545.00 5672.74 74.92 6.00 227.48 2734.68
   16:49:47.070.18-Jul-2021 4545.00 5673.93 74.92 6.00 227.68 2734.68
   16:49:47.270.18-Jul-2021 4545.00 5673.68 74.92 6.00 227.88 2734.68
   16:49:47.470.18-Jul-2021 4545.00 5674.00 74.92 6.00 228.08 2734.68
   16:49:47.670.18-Jul-2021 4545.00 5674.00 74.92 6.00 228.28 2734.68
   16:49:47.870.18-Jul-2021 4545.00 5673.71 74.92 6.00 228.48 2734.68
   16:49:48.070.18-Jul-2021 4545.00 5673.78 74.92 6.00 228.68 2734.68
   16:49:48.270.18-Jul-2021 4545.00 5673.77 74.92 6.00 228.88 2734.68
   16:49:48.470.18-Jul-2021 4545.00 5673.72 74.92 6.00 229.08 2734.68
   16:49:48.670.18-Jul-2021 4545.00 5673.72 74.92 6.00 229.28 2734.68
   16:49:48.870.18-Jul-2021 4545.00 5673.81 74.92 6.00 229.48 2734.68
   16:49:49.071.18-Jul-2021 4545.00 5673.79 74.92 6.00 229.68 2734.68
   16:49:49.271.18-Jul-2021 4545.00 5673.93 74.92 6.00 229.88 2734.68
