~Version Information
 VERS.                  2.0:   CWLS log ASCII Standard -VERSION 2.0
 WRAP.                   NO:   One line per depth step
~Well Information Block
#MNEM.UNIT     VALUE/NAME     DESCRIPTION
#---------     -----------    ---------------------------
 STRT.S             13:07:56 19-Jul-21: START TIME 13:07:56 19-Jul-21
 STOP.S             13:14:51 19-Jul-21: STOP TIME  13:14:51 19-Jul-21
 STEP.S                   0.00: STEP TIME
 NULL.                 -999.25: NULL VALUE
 MDS .        Operator Entered:  MAG DATA SOURCE
 PDAT.          Mean Sea Level:  PERMANENT DATUM
 UNIT.                     N/A:  LOGGING EQUIPMENT ID
 DCON.         Sperry Drilling:  DIRECTNL CONTR
 DOE .                     N/A:  DOE NUMBER
 RIG .              West Azeri:  RIG NAME
 JOBN.        AZ-XX-0906997913:  JOB TICKET NUMB
 WELL.                     C41:  WELL NAME
 MWDS.                    Baku:  MWD SHOP
 SRVC.          Turan Drilling:  CONTRACTOR
 FLD .                     ACG:  FIELD NAME
 CTRY.              Azerbaijan:  COUNTRY NAME
 PROV.                    Baku:  PROVINCE
 STAT.                    Baku:  STATE NAME
 REGN.                   EESSA:  REGION
 BASE.              Azerbaijan:  LOGGING EQUIPMENT BASE LOCATION
 UWI .                     N/A:  UNIQUE WELL IDENTIFIER
 API .                     N/A:  API NUMBER
 COMP.     BP Exploration (Caspian Sea) Ltd.:  COMPANY
 WTYP.                Deviated:  WELL TYPE
 SON .        AZ-XX-0906997913:  JOB NUMBER
 FTOP.          Formation Tops:  FORM TOPS DESC
 ILTD.               Lithology:  INTERP LTH DESC
 SVYD.                  Survey:  SURVEY DESC
 DMOD.             Drill Model:  DRILL MOD DESC
 HPTY.       Minimum Curvature:  HOLE POS TYPE
 NREF.                    Grid:  NORTH REFERENCE
 SPUD.               16-May-21:  SPUD DATE
 DATE.      21.11.28 17-May-21:  END TIME
 STIM.      21.11.28 17-May-21:  START TIME
 DMF .             Drill Floor:  DRILL MEAS FROM
 DFST.                        :  DIST FSL TEXT
 DFWT.                        :  DIST FWL TEXT
 CNTY.                        :  COUNTY
 LOC .                        :  LOCATION
 LMF .             Drill Floor:  LOG MEASURED FROM
 AGAP.m                  43.42:  AIR GAP
 VSNS.m                  -2.16:  VERT SEC N/S
 VSEW.m                  -6.24:  VERT SEC E/W
 APD .m                  43.42:  DEPTH ABOVE PD
 WDMS.m                 118.27:  WD ELEV
 EGL .m                   0.00:  GROUND ELEVATION
 EPD .m                   0.00:  ELEVATION
 AZTC.deg                 6.29:  AZM TOTAL CORR
 GRDC.deg                 0.18:  GRID CORRECTION
 MDEC.deg                 6.47:  MAGNETIC DECL
 MDIP.deg                59.54:  MAGNETIC DIP
 MFLD.nT              50337.00:  MAGNETIC FIELD
 GVFD.g                   1.00:  GRAVITY FIELD
 VSDR.deg               226.99:  VERT SEC DIRECT
 TDD .m                   0.00:  TOTAL DEPTH (DRILLER)
 SDEP.m                 448.00:  START DEPTH
 DFSL.m                   0.00:  DISTANCE FSL
 DFWL.m                   0.00:  DISTANCE FWL
 UTMY.m             4435799.96:  UTM Y
 UTMX.m              526265.35:  UTM X
 WHEW.m                  -6.24:  WELL HEAD E/W
 WHNS.m                  -2.16:  WELL HEAD N/S
 LONG.deg                51.31:  LONGITUDE
 LATI.deg                40.06:  LATITUDE
 TVDS.m                  43.42:  TVDSS CORRECTN
 EKB .m                  43.42:  KB ELEVATION
 EDF .m                  43.42:  DF ELEVATION
 TDL .m                 288.00:  TOTAL DEPTH (LOGGER)
 MAGU.                 1851863:  MAGUTM CHECKSUM
 VSC .                       0:  VS TO CLOSURE
~Parameter Information Block
#MNEM.UNIT       Value        Description
#---------     -----------    ---------------------------
 AV  .mps                 0.40:  Ann Velocity 
 AVMX.mps                 0.63:  Max Ann Veloc 
 AZIF.deg               158.76:  Azm, Final 
 BHAT.        Rotary Steerable:  BHA Type 
 BROT.°/30m               0.68:  Build Rotating 
 BS  .in                  8.50:  Bit Size 
 BSZ .in                  8.50:  Bit Size 
 BTPL.psig              712.00:  Bit Press Loss 
 CABU.                      No:  Customer Abuse 
 COMM.                     „e:  Run Comments 1 
 TCS .hr                 90.66:  Time Ciculation Ended 
 CV  .mps                 2.02:  Crit Velocity 
 CVMX.mps                 2.14:  Max Crit Veloc 
 DD1 .            Aziz Aliyevu:  Direct Drillr 1 
 DD2 .             Samir Abbas:  Direct Drillr 2 
 DD3 .           Teymur Aliyev:  Direct Drillr 3 
 DDSV.                 iCruise:  DD Service 
 DEFF.%                  85.10:  % Det Eff 
 DLRX.°/30m               1.05:  Dogleg Rot Max 
 DLSO.°/30m               1.01:  Dogleg Oriented 
 DLSX.°/30m               1.05:  Dogleg Str Max 
 DRET.      07.45.00 18-Jul-21:  Drill End Time 
 DRST.      15.00.00 16-Jul-21:  Drill Start Tim 
 DTIM.hr                 23.46:  Time Drilling 
 EDEP.m                4603.00:  End Depth 
 ENG1.       Seymur Iskandarov:  Engineer 1 
 ENG2.         Yevgeniy Ulikov:  Engineer 2 
 ENG3.         Bahruz Mehdiyev:  Engineer 3 
 ENG4.         Elchin Mammadov:  Engineer 4 
 ETIM.      14.00.00 23-Jul-21:  End Time 
 FLOI.gpm               500.00:  Flow In 
 FLON.gpm               450.00:  Flow In Min 
 FLOS.cptm                0.00:  Fluid Loss 
 FLOX.gpm               560.00:  Flow In Max 
 DFT .        Mineral Oil Base:  Mud Type 
 FTRO.       Formation Presure:  FTWD Run Obj 
 HFLO.                      No:  High Flow 
 HPRE.                      No:  High Pressure 
 HTEM.                      No:  High Temp 
 HYDO.m                   1.80:  Hydro Offset 
 IFIN.deg                40.22:  Inc, Final 
 IMAX.deg                40.54:  Inc Max 
 IMIN.deg                39.44:  Inc Min 
 IMND.m                4361.17:  Inc Min Depth 
 IMXD.m                4417.92:  Inc Max Depth 
 JARR.                      No:  Jarring 
 LETM.      07.45.00 18-Jul-21:  Log End Time 
 LOST.hr                    16:  Lost Rig Time 
 LSTM.      15.00.00 16-Jul-21:  Log Start Time 
 MDCL.ppm             36500.00:  Mud Chlorides 
 MDES.     Inversion Oil/Synthetic:  Mud Desc 
 DFD .sg                  1.42:  Mud Density 
 MDMN.sg                  1.42:  Dens Mud Min 
 MDMX.sg                  1.43:  Dens Mud Max 
 MOIL.                      56:  Run Mud Oil % 
 MOWR.                   71:29:  Run Mud OWR 
 MSND.                     0.5:  Run Mud Sand % 
 MSOL.                      21:  Run Mud Solids% 
 DFV .spqt               78.00:  Mud Viscosity 
 MWOD.in                  6.75:  MWD Tool OD 
 MWSI.                     Yes:  Serv Intrp, MWD 
 OTIM.hr                200.73:  Time Operating 
 PCON.           Look Like New:  Pad Condition 
 PMAX.psia            11069.93:  Press Op, Max 
 PV  .cP                 32.00:  Mud PV 
 RUN .                     700:  Run Number 
 ROPA.m/hr               10.00:  ROP Avg 
 ROPN.m/hr                9.00:  ROP Min 
 ROPX.m/hr               16.00:  ROP Max 
 RPMA.rpm               116.00:  RPM Surface Avg 
 RPMN.rpm                80.00:  RPM Surface Min 
 RPMX.rpm               120.00:  RPM Surface Max 
 RRUN.                    L605:  Rig Run Number 
 RTIM.hr                 45.00:  Time Reaming 
 SAZI.deg               159.86:  Azm, Start 
 SDEP.m                4315.00:  Start Depth 
 SIDD.                      No:  Serv Intrp, DD 
 SINC.deg                39.86:  Inc, Start 
 SPPA.psig             3300.00:  SPP Avg 
 SPPN.psig             3040.00:  SPP Min 
 SPPX.psig             3645.00:  SPP Max 
 STIM.      01.00.00 15-Jul-21:  Start Time 
 SVCS.                 DD, MWD:  Services 
 SVER.                    9.20:  Sperry Version 
 TDAT.m                 288.00:  Tot Depth Attmp 
 TDDF.                      No:  Trip for DD 
 TDLG.m                 288.00:  Tot Depth Loggd 
 TFF .                      No:  Trip for Fail 
 TQAA.f-kp               19.00:  Torque Abs Avg 
 TQAN.f-kp               18.00:  Torque Abs Min 
 TQAX.f-kp               21.00:  Torque Abs Max 
 TRRT.°/30m               0.45:  Turn Rotating 
 MRT .                    HCIM:  Maximum Recorded Temperature 
 TTMX.degC               88.24:  Max Tool Temp 
 VS01.                90649157:  Virtual Str1 SN 
 VS02.                90652483:  Virtual Str2 SN 
 VS03.                11671987:  Virtual Str3 SN 
 VS04.                90643411:  Virtual Str4 SN 
 VS05.                90652478:  Virtual Str5 SN 
 VS06.                    6111:  Virtual Str6 SN 
 WBMN.klb                 9.50:  WOB Min 
 WITN.        Grigoriy Sarayev:  Customer Rep 
 WITN.          Rufat Huseynov:  Customer Rep 2 
 WOBA.klb                11.00:  WOB Avg 
 WOBX.klb                15.00:  WOB Max 
 YP  .lhf2               28.00:  Yield Point 
~Curve Information Block
#MNEM.UNIT                 API CODE     Curve Description
#---------               -----------    ---------------------------
 TIME.HHMMSS            00 000 000 000:  GT Time & Date
 GTDEPTH.m              00 000 000 000:  GT Depth
 GTPQH.psia             00 000 000 000:  GT HR Quartz Pressure
 GTTQ.degC              00 000 000 000:  GT Quartz Temperature
 GTTN.NONE              00 000 000 000:  GT Test Number
 GTET.sec               00 000 000 000:  GT Elapsed Test Time
 GTTVD.m                00 000 000 000:  GT True Vertical Depth
#Other Information
#
#WARRANTY: Halliburton will use its best efforts to furnish customers with 
#accurate information and interpretations that are part of, and incident to, the services 
#provided.  However, Halliburton cannot and does not warrant the accuracy 
#or correctness of such information and interpretations.  Under no circumstances should any 
#such information or interpretation be relied upon as the sole basis for any drilling, 
#completion, production, or financial decision or any procedure involving any risk to the 
#safety of any drilling venture, drilling rig or its crew or any other third party.  The 
#Customer has full responsibility for all drilling, completion and production operation.  
#Halliburton makes no representations or warranties, either expressed or 
#implied, including, but not limited to, the implied warranties of merchantability or fitness 
#for a particular purpose, with respect to the services rendered.  In no event will 
#Halliburton be liable for failure to obtain any particular results or for 
#any damages, including, but not limited to, indirect, special or consequential damages, 
#resulting from the use of any information or interpretation provided by Halliburton.
#
~A           TIME           GTDEPTH  GTPQH  GTTQ  GTTN   GTET   GTTVD  
# ...
   13:08:41.599.19-Jul-2021 4553.00 3509.94 71.05 28.00  45.22 2740.81
   13:08:41.799.19-Jul-2021 4553.00 3511.18 71.05 28.00  45.42 2740.81
   13:08:41.999.19-Jul-2021 4553.00 3510.06 71.05 28.00  45.62 2740.81
   13:08:42.199.19-Jul-2021 4553.00 3509.31 71.05 28.00  45.82 2740.81
   13:08:42.399.19-Jul-2021 4553.00 3511.10 71.05 28.00  46.02 2740.81
   13:08:42.599.19-Jul-2021 4553.00 3511.10 71.05 28.00  46.22 2740.81
   13:08:42.799.19-Jul-2021 4553.00 3510.75 71.05 28.00  46.42 2740.81
   13:08:42.999.19-Jul-2021 4553.00 3511.00 71.05 28.00  46.62 2740.81
   13:08:43.199.19-Jul-2021 4553.00 3511.48 71.05 28.00  46.82 2740.81
   13:08:43.399.19-Jul-2021 4553.00 3585.35 71.04 28.00  47.02 2740.81
   13:08:43.599.19-Jul-2021 4553.00 3585.35 71.04 28.00  47.22 2740.81
   13:08:43.799.19-Jul-2021 4553.00 3611.24 71.04 28.00  47.42 2740.81
   13:08:44.000.19-Jul-2021 4553.00 3611.37 71.04 28.00  47.62 2740.81
   13:08:44.200.19-Jul-2021 4553.00 3611.49 71.04 28.00  47.82 2740.81
   13:08:44.400.19-Jul-2021 4553.00 3611.59 71.04 28.00  48.02 2740.81
   13:08:44.600.19-Jul-2021 4553.00 3611.59 71.04 28.00  48.22 2740.81
   13:08:44.800.19-Jul-2021 4553.00 3611.64 71.04 28.00  48.42 2740.81
   13:08:45.000.19-Jul-2021 4553.00 3612.31 71.04 28.00  48.62 2740.81
   13:08:45.200.19-Jul-2021 4553.00 3612.00 71.04 28.00  48.82 2740.81
   13:08:45.400.19-Jul-2021 4553.00 3611.76 71.04 28.00  49.02 2740.81
   13:08:45.600.19-Jul-2021 4553.00 3611.76 71.04 28.00  49.22 2740.81
   13:08:45.800.19-Jul-2021 4553.00 3611.97 71.04 28.00  49.42 2740.81
   13:08:46.000.19-Jul-2021 4553.00 3612.21 71.04 28.00  49.62 2740.81
   13:08:46.200.19-Jul-2021 4553.00 3611.95 71.04 28.00  49.82 2740.81
   13:08:46.400.19-Jul-2021 4553.00 3611.94 71.04 28.00  50.02 2740.81
   13:08:46.601.19-Jul-2021 4553.00 3611.94 71.04 28.00  50.22 2740.81
   13:08:46.801.19-Jul-2021 4553.00 3612.13 71.04 28.00  50.42 2740.81
   13:08:47.001.19-Jul-2021 4553.00 3612.09 71.04 28.00  50.62 2740.81
   13:08:47.201.19-Jul-2021 4553.00 3612.04 71.04 28.00  50.82 2740.81
   13:08:47.401.19-Jul-2021 4553.00 3612.27 71.04 28.00  51.02 2740.81
   13:08:47.601.19-Jul-2021 4553.00 3612.27 71.04 28.00  51.22 2740.81
   13:08:47.801.19-Jul-2021 4553.00 3612.21 71.04 28.00  51.42 2740.81
   13:08:48.001.19-Jul-2021 4553.00 3612.25 71.04 28.00  51.62 2740.81
   13:08:48.201.19-Jul-2021 4553.00 3612.20 71.04 28.00  51.82 2740.81
   13:08:48.401.19-Jul-2021 4553.00 3612.08 71.04 28.00  52.02 2740.81
   13:08:48.601.19-Jul-2021 4553.00 3612.08 71.04 28.00  52.22 2740.81
   13:08:48.801.19-Jul-2021 4553.00 3612.18 71.04 28.00  52.42 2740.81
   13:08:49.001.19-Jul-2021 4553.00 3612.22 71.04 28.00  52.62 2740.81
   13:08:49.201.19-Jul-2021 4553.00 3612.24 71.04 28.00  52.82 2740.81
   13:08:49.402.19-Jul-2021 4553.00 3612.26 71.03 28.00  53.02 2740.81
   13:08:49.602.19-Jul-2021 4553.00 3612.26 71.03 28.00  53.22 2740.81
   13:08:49.802.19-Jul-2021 4553.00 3612.29 71.03 28.00  53.42 2740.81
   13:08:50.002.19-Jul-2021 4553.00 3612.30 71.03 28.00  53.62 2740.81
   13:08:50.202.19-Jul-2021 4553.00 3612.32 71.03 28.00  53.82 2740.81
   13:08:50.402.19-Jul-2021 4553.00 3612.35 71.03 28.00  54.02 2740.81
   13:08:50.602.19-Jul-2021 4553.00 3612.35 71.03 28.00  54.22 2740.81
   13:08:50.802.19-Jul-2021 4553.00 3612.27 71.03 28.00  54.42 2740.81
   13:08:51.002.19-Jul-2021 4553.00 3612.50 71.03 28.00  54.62 2740.81
   13:08:51.202.19-Jul-2021 4553.00 3612.30 71.03 28.00  54.82 2740.81
   13:08:51.402.19-Jul-2021 4553.00 3612.34 71.03 28.00  55.02 2740.81
   13:08:51.602.19-Jul-2021 4553.00 3612.34 71.03 28.00  55.22 2740.81
   13:08:51.802.19-Jul-2021 4553.00 3612.36 71.03 28.00  55.42 2740.81
   13:08:52.003.19-Jul-2021 4553.00 3612.37 71.03 28.00  55.62 2740.81
   13:08:52.203.19-Jul-2021 4553.00 3612.39 71.03 28.00  55.82 2740.81
   13:08:52.403.19-Jul-2021 4553.00 3612.43 71.03 28.00  56.02 2740.81
   13:08:52.603.19-Jul-2021 4553.00 3612.43 71.03 28.00  56.22 2740.81
   13:08:52.803.19-Jul-2021 4553.00 3612.45 71.03 28.00  56.42 2740.81
   13:08:53.003.19-Jul-2021 4553.00 3612.47 71.03 28.00  56.62 2740.81
   13:08:53.203.19-Jul-2021 4553.00 3612.49 71.03 28.00  56.82 2740.81
   13:08:53.403.19-Jul-2021 4553.00 3612.34 71.03 28.00  57.02 2740.81
   13:08:53.603.19-Jul-2021 4553.00 3612.50 71.03 28.00  57.22 2740.81
   13:08:53.803.19-Jul-2021 4553.00 3612.50 71.03 28.00  57.42 2740.81
   13:08:54.003.19-Jul-2021 4553.00 3612.77 71.03 28.00  57.62 2740.81
   13:08:54.203.19-Jul-2021 4553.00 3612.40 71.03 28.00  57.82 2740.81
   13:08:54.403.19-Jul-2021 4553.00 3612.43 71.03 28.00  58.02 2740.81
   13:08:54.603.19-Jul-2021 4553.00 3612.43 71.03 28.00  58.22 2740.81
   13:08:54.804.19-Jul-2021 4553.00 3612.46 71.03 28.00  58.42 2740.81
   13:08:55.004.19-Jul-2021 4553.00 3612.50 71.03 28.00  58.62 2740.81
   13:08:55.204.19-Jul-2021 4553.00 3612.53 71.03 28.00  58.82 2740.81
   13:08:55.404.19-Jul-2021 4553.00 3612.38 71.04 28.00  59.02 2740.81
   13:08:55.604.19-Jul-2021 4553.00 3612.38 71.04 28.00  59.22 2740.81
   13:08:55.804.19-Jul-2021 4553.00 3612.69 71.03 28.00  59.42 2740.81
   13:08:56.004.19-Jul-2021 4553.00 3612.46 71.04 28.00  59.62 2740.81
   13:08:56.204.19-Jul-2021 4553.00 3612.51 71.04 28.00  59.82 2740.81
   13:08:56.404.19-Jul-2021 4553.00 3612.51 71.04 28.00  60.02 2740.81
   13:08:56.604.19-Jul-2021 4553.00 3612.51 71.04 28.00  60.22 2740.81
   13:08:56.804.19-Jul-2021 4553.00 3612.51 71.04 28.00  60.42 2740.81
   13:08:57.004.19-Jul-2021 4553.00 3612.63 71.04 28.00  60.62 2740.81
   13:08:57.204.19-Jul-2021 4553.00 3612.58 71.04 28.00  60.82 2740.81
   13:08:57.404.19-Jul-2021 4553.00 3612.54 71.04 28.00  61.02 2740.81
   13:08:57.605.19-Jul-2021 4553.00 3612.54 71.04 28.00  61.22 2740.81
   13:08:57.805.19-Jul-2021 4553.00 3612.63 71.04 28.00  61.42 2740.81
   13:08:58.005.19-Jul-2021 4553.00 3612.63 71.04 28.00  61.62 2740.81
   13:08:58.205.19-Jul-2021 4553.00 3612.64 71.04 28.00  61.82 2740.81
   13:08:58.405.19-Jul-2021 4553.00 3612.66 71.04 28.00  62.02 2740.81
   13:08:58.605.19-Jul-2021 4553.00 3612.66 71.04 28.00  62.22 2740.81
   13:08:58.805.19-Jul-2021 4553.00 3612.69 71.04 28.00  62.42 2740.81
   13:08:59.005.19-Jul-2021 4553.00 3612.69 71.04 28.00  62.62 2740.81
   13:08:59.205.19-Jul-2021 4553.00 3612.70 71.04 28.00  62.82 2740.81
   13:08:59.405.19-Jul-2021 4553.00 3612.70 71.04 28.00  63.02 2740.81
   13:08:59.605.19-Jul-2021 4553.00 3612.70 71.04 28.00  63.22 2740.81
   13:08:59.805.19-Jul-2021 4553.00 3612.54 71.04 28.00  63.42 2740.81
   13:09:00.005.19-Jul-2021 4553.00 3612.78 71.04 28.00  63.62 2740.81
   13:09:00.206.19-Jul-2021 4553.00 3612.64 71.04 28.00  63.82 2740.81
   13:09:00.406.19-Jul-2021 4553.00 3612.68 71.04 28.00  64.02 2740.81
   13:09:00.606.19-Jul-2021 4553.00 3612.68 71.04 28.00  64.22 2740.81
   13:09:00.806.19-Jul-2021 4553.00 3612.71 71.04 28.00  64.42 2740.81
   13:09:01.006.19-Jul-2021 4553.00 3612.72 71.04 28.00  64.62 2740.81
   13:09:01.206.19-Jul-2021 4553.00 3612.73 71.04 28.00  64.82 2740.81
   13:09:01.406.19-Jul-2021 4553.00 3612.75 71.04 28.00  65.02 2740.81
   13:09:01.606.19-Jul-2021 4553.00 3612.75 71.04 28.00  65.22 2740.81
   13:09:01.806.19-Jul-2021 4553.00 3612.68 71.04 28.00  65.42 2740.81
   13:09:02.006.19-Jul-2021 4553.00 3612.83 71.04 28.00  65.62 2740.81
   13:09:02.206.19-Jul-2021 4553.00 3612.71 71.04 28.00  65.82 2740.81
   13:09:02.406.19-Jul-2021 4553.00 3612.51 71.04 28.00  66.02 2740.81
   13:09:02.606.19-Jul-2021 4553.00 3612.51 71.04 28.00  66.22 2740.81
   13:09:02.806.19-Jul-2021 4553.00 3612.57 71.04 28.00  66.42 2740.81
   13:09:03.007.19-Jul-2021 4553.00 3612.65 71.04 28.00  66.62 2740.81
   13:09:03.207.19-Jul-2021 4553.00 3613.57 71.04 28.00  66.82 2740.81
   13:09:03.407.19-Jul-2021 4553.00 3613.00 71.04 28.00  67.02 2740.81
   13:09:03.607.19-Jul-2021 4553.00 3613.00 71.04 28.00  67.22 2740.81
   13:09:03.807.19-Jul-2021 4553.00 3612.64 71.04 28.00  67.42 2740.81
   13:09:04.007.19-Jul-2021 4553.00 3612.90 71.04 28.00  67.62 2740.81
