~Version Information
 VERS.                  2.0:   CWLS log ASCII Standard -VERSION 2.0
 WRAP.                   NO:   One line per depth step
~Well Information Block
#MNEM.UNIT     VALUE/NAME     DESCRIPTION
#---------     -----------    ---------------------------
 STRT.S             07:16:19 19-Jul-21: START TIME 07:16:19 19-Jul-21
 STOP.S             07:23:16 19-Jul-21: STOP TIME  07:23:16 19-Jul-21
 STEP.S                   0.00: STEP TIME
 NULL.                 -999.25: NULL VALUE
 MDS .        Operator Entered:  MAG DATA SOURCE
 PDAT.          Mean Sea Level:  PERMANENT DATUM
 UNIT.                     N/A:  LOGGING EQUIPMENT ID
 DCON.         Sperry Drilling:  DIRECTNL CONTR
 DOE .                     N/A:  DOE NUMBER
 RIG .              West Azeri:  RIG NAME
 JOBN.        AZ-XX-0906997913:  JOB TICKET NUMB
 WELL.                     C41:  WELL NAME
 MWDS.                    Baku:  MWD SHOP
 SRVC.          Turan Drilling:  CONTRACTOR
 FLD .                     ACG:  FIELD NAME
 CTRY.              Azerbaijan:  COUNTRY NAME
 PROV.                    Baku:  PROVINCE
 STAT.                    Baku:  STATE NAME
 REGN.                   EESSA:  REGION
 BASE.              Azerbaijan:  LOGGING EQUIPMENT BASE LOCATION
 UWI .                     N/A:  UNIQUE WELL IDENTIFIER
 API .                     N/A:  API NUMBER
 COMP.     BP Exploration (Caspian Sea) Ltd.:  COMPANY
 WTYP.                Deviated:  WELL TYPE
 SON .        AZ-XX-0906997913:  JOB NUMBER
 FTOP.          Formation Tops:  FORM TOPS DESC
 ILTD.               Lithology:  INTERP LTH DESC
 SVYD.                  Survey:  SURVEY DESC
 DMOD.             Drill Model:  DRILL MOD DESC
 HPTY.       Minimum Curvature:  HOLE POS TYPE
 NREF.                    Grid:  NORTH REFERENCE
 SPUD.               16-May-21:  SPUD DATE
 DATE.      21.11.28 17-May-21:  END TIME
 STIM.      21.11.28 17-May-21:  START TIME
 DMF .             Drill Floor:  DRILL MEAS FROM
 DFST.                        :  DIST FSL TEXT
 DFWT.                        :  DIST FWL TEXT
 CNTY.                        :  COUNTY
 LOC .                        :  LOCATION
 LMF .             Drill Floor:  LOG MEASURED FROM
 AGAP.m                  43.42:  AIR GAP
 VSNS.m                  -2.16:  VERT SEC N/S
 VSEW.m                  -6.24:  VERT SEC E/W
 APD .m                  43.42:  DEPTH ABOVE PD
 WDMS.m                 118.27:  WD ELEV
 EGL .m                   0.00:  GROUND ELEVATION
 EPD .m                   0.00:  ELEVATION
 AZTC.deg                 6.29:  AZM TOTAL CORR
 GRDC.deg                 0.18:  GRID CORRECTION
 MDEC.deg                 6.47:  MAGNETIC DECL
 MDIP.deg                59.54:  MAGNETIC DIP
 MFLD.nT              50337.00:  MAGNETIC FIELD
 GVFD.g                   1.00:  GRAVITY FIELD
 VSDR.deg               226.99:  VERT SEC DIRECT
 TDD .m                   0.00:  TOTAL DEPTH (DRILLER)
 SDEP.m                 448.00:  START DEPTH
 DFSL.m                   0.00:  DISTANCE FSL
 DFWL.m                   0.00:  DISTANCE FWL
 UTMY.m             4435799.96:  UTM Y
 UTMX.m              526265.35:  UTM X
 WHEW.m                  -6.24:  WELL HEAD E/W
 WHNS.m                  -2.16:  WELL HEAD N/S
 LONG.deg                51.31:  LONGITUDE
 LATI.deg                40.06:  LATITUDE
 TVDS.m                  43.42:  TVDSS CORRECTN
 EKB .m                  43.42:  KB ELEVATION
 EDF .m                  43.42:  DF ELEVATION
 TDL .m                 288.00:  TOTAL DEPTH (LOGGER)
 MAGU.                 1851863:  MAGUTM CHECKSUM
 VSC .                       0:  VS TO CLOSURE
~Parameter Information Block
#MNEM.UNIT       Value        Description
#---------     -----------    ---------------------------
 AV  .mps                 0.40:  Ann Velocity 
 AVMX.mps                 0.63:  Max Ann Veloc 
 AZIF.deg               158.76:  Azm, Final 
 BHAT.        Rotary Steerable:  BHA Type 
 BROT.°/30m               0.68:  Build Rotating 
 BS  .in                  8.50:  Bit Size 
 BSZ .in                  8.50:  Bit Size 
 BTPL.psig              712.00:  Bit Press Loss 
 CABU.                      No:  Customer Abuse 
 COMM.                     ôK:  Run Comments 1 
 TCS .hr                 90.66:  Time Ciculation Ended 
 CV  .mps                 2.02:  Crit Velocity 
 CVMX.mps                 2.14:  Max Crit Veloc 
 DD1 .            Aziz Aliyevu:  Direct Drillr 1 
 DD2 .             Samir Abbas:  Direct Drillr 2 
 DD3 .           Teymur Aliyev:  Direct Drillr 3 
 DDSV.                 iCruise:  DD Service 
 DEFF.%                  85.10:  % Det Eff 
 DLRX.°/30m               1.05:  Dogleg Rot Max 
 DLSO.°/30m               1.01:  Dogleg Oriented 
 DLSX.°/30m               1.05:  Dogleg Str Max 
 DRET.      07.45.00 18-Jul-21:  Drill End Time 
 DRST.      15.00.00 16-Jul-21:  Drill Start Tim 
 DTIM.hr                 23.46:  Time Drilling 
 EDEP.m                4603.00:  End Depth 
 ENG1.       Seymur Iskandarov:  Engineer 1 
 ENG2.         Yevgeniy Ulikov:  Engineer 2 
 ENG3.         Bahruz Mehdiyev:  Engineer 3 
 ENG4.         Elchin Mammadov:  Engineer 4 
 ETIM.      14.00.00 23-Jul-21:  End Time 
 FLOI.gpm               500.00:  Flow In 
 FLON.gpm               450.00:  Flow In Min 
 FLOS.cptm                0.00:  Fluid Loss 
 FLOX.gpm               560.00:  Flow In Max 
 DFT .        Mineral Oil Base:  Mud Type 
 FTRO.       Formation Presure:  FTWD Run Obj 
 HFLO.                      No:  High Flow 
 HPRE.                      No:  High Pressure 
 HTEM.                      No:  High Temp 
 HYDO.m                   1.80:  Hydro Offset 
 IFIN.deg                40.22:  Inc, Final 
 IMAX.deg                40.54:  Inc Max 
 IMIN.deg                39.44:  Inc Min 
 IMND.m                4361.17:  Inc Min Depth 
 IMXD.m                4417.92:  Inc Max Depth 
 JARR.                      No:  Jarring 
 LETM.      07.45.00 18-Jul-21:  Log End Time 
 LOST.hr                    16:  Lost Rig Time 
 LSTM.      15.00.00 16-Jul-21:  Log Start Time 
 MDCL.ppm             36500.00:  Mud Chlorides 
 MDES.     Inversion Oil/Synthetic:  Mud Desc 
 DFD .sg                  1.42:  Mud Density 
 MDMN.sg                  1.42:  Dens Mud Min 
 MDMX.sg                  1.43:  Dens Mud Max 
 MOIL.                      56:  Run Mud Oil % 
 MOWR.                   71:29:  Run Mud OWR 
 MSND.                     0.5:  Run Mud Sand % 
 MSOL.                      21:  Run Mud Solids% 
 DFV .spqt               78.00:  Mud Viscosity 
 MWOD.in                  6.75:  MWD Tool OD 
 MWSI.                     Yes:  Serv Intrp, MWD 
 OTIM.hr                200.73:  Time Operating 
 PCON.           Look Like New:  Pad Condition 
 PMAX.psia            11069.93:  Press Op, Max 
 PV  .cP                 32.00:  Mud PV 
 RUN .                     700:  Run Number 
 ROPA.m/hr               10.00:  ROP Avg 
 ROPN.m/hr                9.00:  ROP Min 
 ROPX.m/hr               16.00:  ROP Max 
 RPMA.rpm               116.00:  RPM Surface Avg 
 RPMN.rpm                80.00:  RPM Surface Min 
 RPMX.rpm               120.00:  RPM Surface Max 
 RRUN.                    L605:  Rig Run Number 
 RTIM.hr                 45.00:  Time Reaming 
 SAZI.deg               159.86:  Azm, Start 
 SDEP.m                4315.00:  Start Depth 
 SIDD.                      No:  Serv Intrp, DD 
 SINC.deg                39.86:  Inc, Start 
 SPPA.psig             3300.00:  SPP Avg 
 SPPN.psig             3040.00:  SPP Min 
 SPPX.psig             3645.00:  SPP Max 
 STIM.      01.00.00 15-Jul-21:  Start Time 
 SVCS.                 DD, MWD:  Services 
 SVER.                    9.20:  Sperry Version 
 TDAT.m                 288.00:  Tot Depth Attmp 
 TDDF.                      No:  Trip for DD 
 TDLG.m                 288.00:  Tot Depth Loggd 
 TFF .                      No:  Trip for Fail 
 TQAA.f-kp               19.00:  Torque Abs Avg 
 TQAN.f-kp               18.00:  Torque Abs Min 
 TQAX.f-kp               21.00:  Torque Abs Max 
 TRRT.°/30m               0.45:  Turn Rotating 
 MRT .                    HCIM:  Maximum Recorded Temperature 
 TTMX.degC               88.24:  Max Tool Temp 
 VS01.                90649157:  Virtual Str1 SN 
 VS02.                90652483:  Virtual Str2 SN 
 VS03.                11671987:  Virtual Str3 SN 
 VS04.                90643411:  Virtual Str4 SN 
 VS05.                90652478:  Virtual Str5 SN 
 VS06.                    6111:  Virtual Str6 SN 
 WBMN.klb                 9.50:  WOB Min 
 WITN.        Grigoriy Sarayev:  Customer Rep 
 WITN.          Rufat Huseynov:  Customer Rep 2 
 WOBA.klb                11.00:  WOB Avg 
 WOBX.klb                15.00:  WOB Max 
 YP  .lhf2               28.00:  Yield Point 
~Curve Information Block
#MNEM.UNIT                 API CODE     Curve Description
#---------               -----------    ---------------------------
 TIME.HHMMSS            00 000 000 000:  GT Time & Date
 GTDEPTH.m              00 000 000 000:  GT Depth
 GTPQH.psia             00 000 000 000:  GT HR Quartz Pressure
 GTTQ.degC              00 000 000 000:  GT Quartz Temperature
 GTTN.NONE              00 000 000 000:  GT Test Number
 GTET.sec               00 000 000 000:  GT Elapsed Test Time
 GTTVD.m                00 000 000 000:  GT True Vertical Depth
#Other Information
#
#WARRANTY: Halliburton will use its best efforts to furnish customers with 
#accurate information and interpretations that are part of, and incident to, the services 
#provided.  However, Halliburton cannot and does not warrant the accuracy 
#or correctness of such information and interpretations.  Under no circumstances should any 
#such information or interpretation be relied upon as the sole basis for any drilling, 
#completion, production, or financial decision or any procedure involving any risk to the 
#safety of any drilling venture, drilling rig or its crew or any other third party.  The 
#Customer has full responsibility for all drilling, completion and production operation.  
#Halliburton makes no representations or warranties, either expressed or 
#implied, including, but not limited to, the implied warranties of merchantability or fitness 
#for a particular purpose, with respect to the services rendered.  In no event will 
#Halliburton be liable for failure to obtain any particular results or for 
#any damages, including, but not limited to, indirect, special or consequential damages, 
#resulting from the use of any information or interpretation provided by Halliburton.
#
~A           TIME           GTDEPTH  GTPQH  GTTQ  GTTN   GTET   GTTVD  
# ...
   07:16:42.222.19-Jul-2021 4406.50 6363.21 69.82 15.00  22.61 2628.90
   07:16:42.422.19-Jul-2021 4406.50 6358.94 69.82 15.00  22.81 2628.90
   07:16:42.622.19-Jul-2021 4406.50 6362.73 69.82 15.00  23.01 2628.90
   07:16:42.823.19-Jul-2021 4406.50 6362.73 69.82 15.00  23.21 2628.90
   07:16:43.023.19-Jul-2021 4406.50 6376.81 69.82 15.00  23.41 2628.90
   07:16:43.223.19-Jul-2021 4406.50 6361.49 69.82 15.00  23.61 2628.90
   07:16:43.423.19-Jul-2021 4406.50 6365.22 69.82 15.00  23.81 2628.90
   07:16:43.623.19-Jul-2021 4406.50 6363.72 69.82 15.00  24.01 2628.90
   07:16:43.823.19-Jul-2021 4406.50 6363.72 69.82 15.00  24.21 2628.90
   07:16:44.023.19-Jul-2021 4406.50 6363.20 69.82 15.00  24.41 2628.90
   07:16:44.223.19-Jul-2021 4406.50 6362.43 69.82 15.00  24.61 2628.90
   07:16:44.423.19-Jul-2021 4406.50 6362.75 69.82 15.00  24.81 2628.90
   07:16:44.623.19-Jul-2021 4406.50 6362.80 69.82 15.00  25.01 2628.90
   07:16:44.823.19-Jul-2021 4406.50 6362.80 69.82 15.00  25.21 2628.90
   07:16:45.023.19-Jul-2021 4406.50 6363.36 69.82 15.00  25.41 2628.90
   07:16:45.223.19-Jul-2021 4406.50 6362.79 69.82 15.00  25.61 2628.90
   07:16:45.423.19-Jul-2021 4406.50 6361.73 69.82 15.00  25.81 2628.90
   07:16:45.624.19-Jul-2021 4406.50 6360.98 69.82 15.00  26.01 2628.90
   07:16:45.824.19-Jul-2021 4406.50 6360.98 69.82 15.00  26.21 2628.90
   07:16:46.024.19-Jul-2021 4406.50 6360.84 69.82 15.00  26.41 2628.90
   07:16:46.224.19-Jul-2021 4406.50 6365.13 69.82 15.00  26.61 2628.90
   07:16:46.424.19-Jul-2021 4406.50 6364.16 69.82 15.00  26.81 2628.90
   07:16:46.624.19-Jul-2021 4406.50 6363.39 69.82 15.00  27.01 2628.90
   07:16:46.824.19-Jul-2021 4406.50 6363.39 69.82 15.00  27.21 2628.90
   07:16:47.024.19-Jul-2021 4406.50 6362.55 69.82 15.00  27.41 2628.90
   07:16:47.224.19-Jul-2021 4406.50 6362.86 69.82 15.00  27.61 2628.90
   07:16:47.424.19-Jul-2021 4406.50 6362.96 69.82 15.00  27.81 2628.90
   07:16:47.624.19-Jul-2021 4406.50 6363.51 69.82 15.00  28.01 2628.90
   07:16:47.824.19-Jul-2021 4406.50 6363.51 69.82 15.00  28.21 2628.90
   07:16:48.024.19-Jul-2021 4406.50 6364.00 69.82 15.00  28.41 2628.90
   07:16:48.225.19-Jul-2021 4406.50 6363.18 69.82 15.00  28.61 2628.90
   07:16:48.425.19-Jul-2021 4406.50 6384.44 69.82 15.00  28.81 2628.90
   07:16:48.625.19-Jul-2021 4406.50 6362.58 69.82 15.00  29.01 2628.90
   07:16:48.825.19-Jul-2021 4406.50 6362.58 69.82 15.00  29.21 2628.90
   07:16:49.025.19-Jul-2021 4406.50 6163.53 69.82 15.00  29.41 2628.90
   07:16:49.225.19-Jul-2021 4406.50 6087.83 69.82 15.00  29.61 2628.90
   07:16:49.425.19-Jul-2021 4406.50 6036.88 69.82 15.00  29.81 2628.90
   07:16:49.625.19-Jul-2021 4406.50 5984.25 69.82 15.00  30.01 2628.90
   07:16:49.825.19-Jul-2021 4406.50 5984.25 69.82 15.00  30.21 2628.90
   07:16:50.025.19-Jul-2021 4406.50 5876.11 69.82 15.00  30.41 2628.90
   07:16:50.225.19-Jul-2021 4406.50 5820.12 69.82 15.00  30.61 2628.90
   07:16:50.425.19-Jul-2021 4406.50 5770.14 69.82 15.00  30.81 2628.90
   07:16:50.625.19-Jul-2021 4406.50 5735.14 69.82 15.00  31.01 2628.90
   07:16:50.825.19-Jul-2021 4406.50 5735.14 69.82 15.00  31.21 2628.90
   07:16:51.026.19-Jul-2021 4406.50 5666.90 69.82 15.00  31.41 2628.90
   07:16:51.226.19-Jul-2021 4406.50 5638.49 69.82 15.00  31.61 2628.90
   07:16:51.426.19-Jul-2021 4406.50 5610.74 69.82 15.00  31.81 2628.90
   07:16:51.626.19-Jul-2021 4406.50 5587.23 69.82 15.00  32.01 2628.90
   07:16:51.826.19-Jul-2021 4406.50 5587.23 69.82 15.00  32.21 2628.90
   07:16:52.026.19-Jul-2021 4406.50 5555.70 69.82 15.00  32.41 2628.90
   07:16:52.226.19-Jul-2021 4406.50 5515.39 69.82 15.00  32.61 2628.90
   07:16:52.426.19-Jul-2021 4406.50 5500.87 69.82 15.00  32.81 2628.90
   07:16:52.626.19-Jul-2021 4406.50 5487.67 69.82 15.00  33.01 2628.90
   07:16:52.826.19-Jul-2021 4406.50 5487.67 69.82 15.00  33.21 2628.90
   07:16:53.026.19-Jul-2021 4406.50 5416.25 69.81 15.00  33.41 2628.90
   07:16:53.226.19-Jul-2021 4406.50 5365.43 69.81 15.00  33.61 2628.90
   07:16:53.426.19-Jul-2021 4406.50 5313.06 69.81 15.00  33.81 2628.90
   07:16:53.627.19-Jul-2021 4406.50 5257.95 69.81 15.00  34.01 2628.90
   07:16:53.827.19-Jul-2021 4406.50 5257.95 69.81 15.00  34.21 2628.90
   07:16:54.027.19-Jul-2021 4406.50 5149.40 69.81 15.00  34.41 2628.90
   07:16:54.227.19-Jul-2021 4406.50 5099.50 69.81 15.00  34.61 2628.90
   07:16:54.427.19-Jul-2021 4406.50 5060.54 69.81 15.00  34.81 2628.90
   07:16:54.627.19-Jul-2021 4406.50 5030.13 69.81 15.00  35.01 2628.90
   07:16:54.827.19-Jul-2021 4406.50 5030.13 69.81 15.00  35.21 2628.90
   07:16:55.027.19-Jul-2021 4406.50 4986.21 69.81 15.00  35.41 2628.90
   07:16:55.227.19-Jul-2021 4406.50 4970.49 69.81 15.00  35.61 2628.90
   07:16:55.427.19-Jul-2021 4406.50 4958.73 69.81 15.00  35.81 2628.90
   07:16:55.627.19-Jul-2021 4406.50 4948.87 69.81 15.00  36.01 2628.90
   07:16:55.827.19-Jul-2021 4406.50 4948.87 69.81 15.00  36.21 2628.90
   07:16:56.027.19-Jul-2021 4406.50 4941.24 69.81 15.00  36.41 2628.90
   07:16:56.227.19-Jul-2021 4406.50 4929.98 69.80 15.00  36.61 2628.90
   07:16:56.428.19-Jul-2021 4406.50 4925.87 69.80 15.00  36.81 2628.90
   07:16:56.628.19-Jul-2021 4406.50 4922.26 69.80 15.00  37.01 2628.90
   07:16:56.828.19-Jul-2021 4406.50 4922.26 69.80 15.00  37.21 2628.90
   07:16:57.028.19-Jul-2021 4406.50 4916.03 69.80 15.00  37.41 2628.90
   07:16:57.228.19-Jul-2021 4406.50 4910.86 69.80 15.00  37.61 2628.90
   07:16:57.428.19-Jul-2021 4406.50 4903.52 69.80 15.00  37.81 2628.90
   07:16:57.628.19-Jul-2021 4406.50 4897.81 69.80 15.00  38.01 2628.90
   07:16:57.828.19-Jul-2021 4406.50 4897.81 69.80 15.00  38.21 2628.90
   07:16:58.028.19-Jul-2021 4406.50 4884.33 69.80 15.00  38.41 2628.90
   07:16:58.228.19-Jul-2021 4406.50 4877.76 69.80 15.00  38.61 2628.90
   07:16:58.428.19-Jul-2021 4406.50 4870.48 69.80 15.00  38.81 2628.90
   07:16:58.628.19-Jul-2021 4406.50 4881.04 69.80 15.00  39.01 2628.90
   07:16:58.828.19-Jul-2021 4406.50 4881.04 69.80 15.00  39.21 2628.90
   07:16:59.029.19-Jul-2021 4406.50 4152.58 69.79 15.00  39.41 2628.90
   07:16:59.229.19-Jul-2021 4406.50 4179.78 69.79 15.00  39.61 2628.90
   07:16:59.429.19-Jul-2021 4406.50 4187.00 69.79 15.00  39.81 2628.90
   07:16:59.629.19-Jul-2021 4406.50 4191.95 69.79 15.00  40.01 2628.90
   07:16:59.829.19-Jul-2021 4406.50 4191.95 69.79 15.00  40.21 2628.90
   07:17:00.029.19-Jul-2021 4406.50 4192.41 69.79 15.00  40.41 2628.90
   07:17:00.229.19-Jul-2021 4406.50 4192.42 69.79 15.00  40.61 2628.90
   07:17:00.429.19-Jul-2021 4406.50 4193.09 69.79 15.00  40.82 2628.90
   07:17:00.629.19-Jul-2021 4406.50 4192.99 69.79 15.00  41.02 2628.90
   07:17:00.829.19-Jul-2021 4406.50 4192.99 69.79 15.00  41.22 2628.90
   07:17:01.029.19-Jul-2021 4406.50 4192.00 69.79 15.00  41.42 2628.90
   07:17:01.229.19-Jul-2021 4406.50 4190.67 69.79 15.00  41.62 2628.90
   07:17:01.429.19-Jul-2021 4406.50 4192.95 69.78 15.00  41.82 2628.90
   07:17:01.629.19-Jul-2021 4406.50 4190.53 69.78 15.00  42.02 2628.90
   07:17:01.830.19-Jul-2021 4406.50 4190.53 69.78 15.00  42.22 2628.90
   07:17:02.030.19-Jul-2021 4406.50 4193.41 69.78 15.00  42.42 2628.90
   07:17:02.230.19-Jul-2021 4406.50 4190.05 69.78 15.00  42.62 2628.90
   07:17:02.430.19-Jul-2021 4406.50 4189.42 69.78 15.00  42.82 2628.90
   07:17:02.630.19-Jul-2021 4406.50 4190.67 69.78 15.00  43.02 2628.90
   07:17:02.830.19-Jul-2021 4406.50 4190.67 69.78 15.00  43.22 2628.90
   07:17:03.030.19-Jul-2021 4406.50 4189.77 69.78 15.00  43.42 2628.90
   07:17:03.230.19-Jul-2021 4406.50 4189.30 69.78 15.00  43.62 2628.90
   07:17:03.430.19-Jul-2021 4406.50 4189.67 69.78 15.00  43.82 2628.90
   07:17:03.630.19-Jul-2021 4406.50 4190.94 69.78 15.00  44.02 2628.90
   07:17:03.830.19-Jul-2021 4406.50 4190.94 69.78 15.00  44.22 2628.90
   07:17:04.030.19-Jul-2021 4406.50 4190.43 69.78 15.00  44.42 2628.90
   07:17:04.230.19-Jul-2021 4406.50 4192.19 69.77 15.00  44.62 2628.90
   07:17:04.430.19-Jul-2021 4406.50 4191.37 69.77 15.00  44.82 2628.90
   07:17:04.631.19-Jul-2021 4406.50 4195.38 69.77 15.00  45.02 2628.90
