~Version Information
 VERS.                  2.0:   CWLS log ASCII Standard -VERSION 2.0
 WRAP.                   NO:   One line per depth step
~Well Information Block
#MNEM.UNIT     VALUE/NAME     DESCRIPTION
#---------     -----------    ---------------------------
 STRT.S             12:46:21 18-Jul-21: START TIME 12:46:21 18-Jul-21
 STOP.S             12:52:54 18-Jul-21: STOP TIME  12:52:54 18-Jul-21
 STEP.S                   0.00: STEP TIME
 NULL.                 -999.25: NULL VALUE
 MDS .        Operator Entered:  MAG DATA SOURCE
 PDAT.          Mean Sea Level:  PERMANENT DATUM
 UNIT.                     N/A:  LOGGING EQUIPMENT ID
 DCON.         Sperry Drilling:  DIRECTNL CONTR
 DOE .                     N/A:  DOE NUMBER
 RIG .              West Azeri:  RIG NAME
 JOBN.        AZ-XX-0906997913:  JOB TICKET NUMB
 WELL.                     C41:  WELL NAME
 MWDS.                    Baku:  MWD SHOP
 SRVC.          Turan Drilling:  CONTRACTOR
 FLD .                     ACG:  FIELD NAME
 CTRY.              Azerbaijan:  COUNTRY NAME
 PROV.                    Baku:  PROVINCE
 STAT.                    Baku:  STATE NAME
 REGN.                   EESSA:  REGION
 BASE.              Azerbaijan:  LOGGING EQUIPMENT BASE LOCATION
 UWI .                     N/A:  UNIQUE WELL IDENTIFIER
 API .                     N/A:  API NUMBER
 COMP.     BP Exploration (Caspian Sea) Ltd.:  COMPANY
 WTYP.                Deviated:  WELL TYPE
 SON .        AZ-XX-0906997913:  JOB NUMBER
 FTOP.          Formation Tops:  FORM TOPS DESC
 ILTD.               Lithology:  INTERP LTH DESC
 SVYD.                  Survey:  SURVEY DESC
 DMOD.             Drill Model:  DRILL MOD DESC
 HPTY.       Minimum Curvature:  HOLE POS TYPE
 NREF.                    Grid:  NORTH REFERENCE
 SPUD.               16-May-21:  SPUD DATE
 DATE.      21.11.28 17-May-21:  END TIME
 STIM.      21.11.28 17-May-21:  START TIME
 DMF .             Drill Floor:  DRILL MEAS FROM
 DFST.                        :  DIST FSL TEXT
 DFWT.                        :  DIST FWL TEXT
 CNTY.                        :  COUNTY
 LOC .                        :  LOCATION
 LMF .             Drill Floor:  LOG MEASURED FROM
 AGAP.m                  43.42:  AIR GAP
 VSNS.m                  -2.16:  VERT SEC N/S
 VSEW.m                  -6.24:  VERT SEC E/W
 APD .m                  43.42:  DEPTH ABOVE PD
 WDMS.m                 118.27:  WD ELEV
 EGL .m                   0.00:  GROUND ELEVATION
 EPD .m                   0.00:  ELEVATION
 AZTC.deg                 6.29:  AZM TOTAL CORR
 GRDC.deg                 0.18:  GRID CORRECTION
 MDEC.deg                 6.47:  MAGNETIC DECL
 MDIP.deg                59.54:  MAGNETIC DIP
 MFLD.nT              50337.00:  MAGNETIC FIELD
 GVFD.g                   1.00:  GRAVITY FIELD
 VSDR.deg               226.99:  VERT SEC DIRECT
 TDD .m                   0.00:  TOTAL DEPTH (DRILLER)
 SDEP.m                 448.00:  START DEPTH
 DFSL.m                   0.00:  DISTANCE FSL
 DFWL.m                   0.00:  DISTANCE FWL
 UTMY.m             4435799.96:  UTM Y
 UTMX.m              526265.35:  UTM X
 WHEW.m                  -6.24:  WELL HEAD E/W
 WHNS.m                  -2.16:  WELL HEAD N/S
 LONG.deg                51.31:  LONGITUDE
 LATI.deg                40.06:  LATITUDE
 TVDS.m                  43.42:  TVDSS CORRECTN
 EKB .m                  43.42:  KB ELEVATION
 EDF .m                  43.42:  DF ELEVATION
 TDL .m                 288.00:  TOTAL DEPTH (LOGGER)
 MAGU.                 1851863:  MAGUTM CHECKSUM
 VSC .                       0:  VS TO CLOSURE
~Parameter Information Block
#MNEM.UNIT       Value        Description
#---------     -----------    ---------------------------
 AV  .mps                 0.40:  Ann Velocity 
 AVMX.mps                 0.63:  Max Ann Veloc 
 AZIF.deg               158.76:  Azm, Final 
 BHAT.        Rotary Steerable:  BHA Type 
 BROT.°/30m               0.68:  Build Rotating 
 BS  .in                  8.50:  Bit Size 
 BSZ .in                  8.50:  Bit Size 
 BTPL.psig              712.00:  Bit Press Loss 
 CABU.                      No:  Customer Abuse 
 COMM.                     üëZ:  Run Comments 1 
 TCS .hr                 90.66:  Time Ciculation Ended 
 CV  .mps                 2.02:  Crit Velocity 
 CVMX.mps                 2.14:  Max Crit Veloc 
 DD1 .            Aziz Aliyevu:  Direct Drillr 1 
 DD2 .             Samir Abbas:  Direct Drillr 2 
 DD3 .           Teymur Aliyev:  Direct Drillr 3 
 DDSV.                 iCruise:  DD Service 
 DEFF.%                  85.10:  % Det Eff 
 DLRX.°/30m               1.05:  Dogleg Rot Max 
 DLSO.°/30m               1.01:  Dogleg Oriented 
 DLSX.°/30m               1.05:  Dogleg Str Max 
 DRET.      07.45.00 18-Jul-21:  Drill End Time 
 DRST.      15.00.00 16-Jul-21:  Drill Start Tim 
 DTIM.hr                 23.46:  Time Drilling 
 EDEP.m                4603.00:  End Depth 
 ENG1.       Seymur Iskandarov:  Engineer 1 
 ENG2.         Yevgeniy Ulikov:  Engineer 2 
 ENG3.         Bahruz Mehdiyev:  Engineer 3 
 ENG4.         Elchin Mammadov:  Engineer 4 
 ETIM.      14.00.00 23-Jul-21:  End Time 
 FLOI.gpm               500.00:  Flow In 
 FLON.gpm               450.00:  Flow In Min 
 FLOS.cptm                0.00:  Fluid Loss 
 FLOX.gpm               560.00:  Flow In Max 
 DFT .        Mineral Oil Base:  Mud Type 
 FTRO.       Formation Presure:  FTWD Run Obj 
 HFLO.                      No:  High Flow 
 HPRE.                      No:  High Pressure 
 HTEM.                      No:  High Temp 
 HYDO.m                   1.80:  Hydro Offset 
 IFIN.deg                40.22:  Inc, Final 
 IMAX.deg                40.54:  Inc Max 
 IMIN.deg                39.44:  Inc Min 
 IMND.m                4361.17:  Inc Min Depth 
 IMXD.m                4417.92:  Inc Max Depth 
 JARR.                      No:  Jarring 
 LETM.      07.45.00 18-Jul-21:  Log End Time 
 LOST.hr                    16:  Lost Rig Time 
 LSTM.      15.00.00 16-Jul-21:  Log Start Time 
 MDCL.ppm             36500.00:  Mud Chlorides 
 MDES.     Inversion Oil/Synthetic:  Mud Desc 
 DFD .sg                  1.42:  Mud Density 
 MDMN.sg                  1.42:  Dens Mud Min 
 MDMX.sg                  1.43:  Dens Mud Max 
 MOIL.                      56:  Run Mud Oil % 
 MOWR.                   71:29:  Run Mud OWR 
 MSND.                     0.5:  Run Mud Sand % 
 MSOL.                      21:  Run Mud Solids% 
 DFV .spqt               78.00:  Mud Viscosity 
 MWOD.in                  6.75:  MWD Tool OD 
 MWSI.                     Yes:  Serv Intrp, MWD 
 OTIM.hr                200.73:  Time Operating 
 PCON.           Look Like New:  Pad Condition 
 PMAX.psia            11069.93:  Press Op, Max 
 PV  .cP                 32.00:  Mud PV 
 RUN .                     700:  Run Number 
 ROPA.m/hr               10.00:  ROP Avg 
 ROPN.m/hr                9.00:  ROP Min 
 ROPX.m/hr               16.00:  ROP Max 
 RPMA.rpm               116.00:  RPM Surface Avg 
 RPMN.rpm                80.00:  RPM Surface Min 
 RPMX.rpm               120.00:  RPM Surface Max 
 RRUN.                    L605:  Rig Run Number 
 RTIM.hr                 45.00:  Time Reaming 
 SAZI.deg               159.86:  Azm, Start 
 SDEP.m                4315.00:  Start Depth 
 SIDD.                      No:  Serv Intrp, DD 
 SINC.deg                39.86:  Inc, Start 
 SPPA.psig             3300.00:  SPP Avg 
 SPPN.psig             3040.00:  SPP Min 
 SPPX.psig             3645.00:  SPP Max 
 STIM.      01.00.00 15-Jul-21:  Start Time 
 SVCS.                 DD, MWD:  Services 
 SVER.                    9.20:  Sperry Version 
 TDAT.m                 288.00:  Tot Depth Attmp 
 TDDF.                      No:  Trip for DD 
 TDLG.m                 288.00:  Tot Depth Loggd 
 TFF .                      No:  Trip for Fail 
 TQAA.f-kp               19.00:  Torque Abs Avg 
 TQAN.f-kp               18.00:  Torque Abs Min 
 TQAX.f-kp               21.00:  Torque Abs Max 
 TRRT.°/30m               0.45:  Turn Rotating 
 MRT .                    HCIM:  Maximum Recorded Temperature 
 TTMX.degC               88.24:  Max Tool Temp 
 VS01.                90649157:  Virtual Str1 SN 
 VS02.                90652483:  Virtual Str2 SN 
 VS03.                11671987:  Virtual Str3 SN 
 VS04.                90643411:  Virtual Str4 SN 
 VS05.                90652478:  Virtual Str5 SN 
 VS06.                    6111:  Virtual Str6 SN 
 WBMN.klb                 9.50:  WOB Min 
 WITN.        Grigoriy Sarayev:  Customer Rep 
 WITN.          Rufat Huseynov:  Customer Rep 2 
 WOBA.klb                11.00:  WOB Avg 
 WOBX.klb                15.00:  WOB Max 
 YP  .lhf2               28.00:  Yield Point 
~Curve Information Block
#MNEM.UNIT                 API CODE     Curve Description
#---------               -----------    ---------------------------
 TIME.HHMMSS            00 000 000 000:  GT Time & Date
 GTDEPTH.m              00 000 000 000:  GT Depth
 GTPQH.psia             00 000 000 000:  GT HR Quartz Pressure
 GTTQ.degC              00 000 000 000:  GT Quartz Temperature
 GTTN.NONE              00 000 000 000:  GT Test Number
 GTET.sec               00 000 000 000:  GT Elapsed Test Time
 GTTVD.m                00 000 000 000:  GT True Vertical Depth
#Other Information
#
#WARRANTY: Halliburton will use its best efforts to furnish customers with 
#accurate information and interpretations that are part of, and incident to, the services 
#provided.  However, Halliburton cannot and does not warrant the accuracy 
#or correctness of such information and interpretations.  Under no circumstances should any 
#such information or interpretation be relied upon as the sole basis for any drilling, 
#completion, production, or financial decision or any procedure involving any risk to the 
#safety of any drilling venture, drilling rig or its crew or any other third party.  The 
#Customer has full responsibility for all drilling, completion and production operation.  
#Halliburton makes no representations or warranties, either expressed or 
#implied, including, but not limited to, the implied warranties of merchantability or fitness 
#for a particular purpose, with respect to the services rendered.  In no event will 
#Halliburton be liable for failure to obtain any particular results or for 
#any damages, including, but not limited to, indirect, special or consequential damages, 
#resulting from the use of any information or interpretation provided by Halliburton.
#
~A           TIME           GTDEPTH  GTPQH  GTTQ  GTTN  GTET   GTTVD  
# ...
   12:52:06.219.18-Jul-2021 4561.50 6651.27 76.43 1.00 345.13 2747.31
   12:52:06.419.18-Jul-2021 4561.50 6651.27 76.43 1.00 345.33 2747.31
   12:52:06.619.18-Jul-2021 4561.50 6650.22 76.43 1.00 345.53 2747.31
   12:52:06.819.18-Jul-2021 4561.50 6655.99 76.43 1.00 345.73 2747.31
   12:52:07.019.18-Jul-2021 4561.50 6656.09 76.43 1.00 345.93 2747.31
   12:52:07.219.18-Jul-2021 4561.50 6652.39 76.43 1.00 346.13 2747.31
   12:52:07.419.18-Jul-2021 4561.50 6652.39 76.43 1.00 346.33 2747.31
   12:52:07.619.18-Jul-2021 4561.50 6652.33 76.43 1.00 346.53 2747.31
   12:52:07.819.18-Jul-2021 4561.50 6652.53 76.43 1.00 346.73 2747.31
   12:52:08.020.18-Jul-2021 4561.50 6659.48 76.43 1.00 346.93 2747.31
   12:52:08.220.18-Jul-2021 4561.50 6652.01 76.43 1.00 347.13 2747.31
   12:52:08.420.18-Jul-2021 4561.50 6652.01 76.43 1.00 347.33 2747.31
   12:52:08.620.18-Jul-2021 4561.50 6654.29 76.43 1.00 347.53 2747.31
   12:52:08.820.18-Jul-2021 4561.50 6651.35 76.43 1.00 347.73 2747.31
   12:52:09.020.18-Jul-2021 4561.50 6652.02 76.43 1.00 347.93 2747.31
   12:52:09.220.18-Jul-2021 4561.50 6651.97 76.43 1.00 348.13 2747.31
   12:52:09.420.18-Jul-2021 4561.50 6651.97 76.43 1.00 348.33 2747.31
   12:52:09.620.18-Jul-2021 4561.50 6651.91 76.43 1.00 348.53 2747.31
   12:52:09.820.18-Jul-2021 4561.50 6651.82 76.43 1.00 348.73 2747.31
   12:52:10.020.18-Jul-2021 4561.50 6651.71 76.43 1.00 348.93 2747.31
   12:52:10.220.18-Jul-2021 4561.50 6651.36 76.43 1.00 349.13 2747.31
   12:52:10.420.18-Jul-2021 4561.50 6651.36 76.43 1.00 349.33 2747.31
   12:52:10.620.18-Jul-2021 4561.50 6651.55 76.43 1.00 349.53 2747.31
   12:52:10.821.18-Jul-2021 4561.50 6656.47 76.43 1.00 349.73 2747.31
   12:52:11.021.18-Jul-2021 4561.50 6654.62 76.43 1.00 349.93 2747.31
   12:52:11.221.18-Jul-2021 4561.50 6652.07 76.43 1.00 350.13 2747.31
   12:52:11.421.18-Jul-2021 4561.50 6652.07 76.43 1.00 350.33 2747.31
   12:52:11.621.18-Jul-2021 4561.50 6652.32 76.43 1.00 350.53 2747.31
   12:52:11.821.18-Jul-2021 4561.50 6651.71 76.43 1.00 350.73 2747.31
   12:52:12.021.18-Jul-2021 4561.50 6651.18 76.43 1.00 350.93 2747.31
   12:52:12.221.18-Jul-2021 4561.50 6651.86 76.43 1.00 351.13 2747.31
   12:52:12.421.18-Jul-2021 4561.50 6651.86 76.43 1.00 351.33 2747.31
   12:52:12.621.18-Jul-2021 4561.50 6651.06 76.43 1.00 351.53 2747.31
   12:52:12.821.18-Jul-2021 4561.50 6650.42 76.43 1.00 351.73 2747.31
   12:52:13.021.18-Jul-2021 4561.50 6649.58 76.43 1.00 351.93 2747.31
   12:52:13.221.18-Jul-2021 4561.50 6650.91 76.43 1.00 352.13 2747.31
   12:52:13.421.18-Jul-2021 4561.50 6650.91 76.43 1.00 352.33 2747.31
   12:52:13.622.18-Jul-2021 4561.50 6655.25 76.43 1.00 352.53 2747.31
   12:52:13.822.18-Jul-2021 4561.50 6649.00 76.43 1.00 352.73 2747.31
   12:52:14.022.18-Jul-2021 4561.50 6660.21 76.43 1.00 352.93 2747.31
   12:52:14.222.18-Jul-2021 4561.50 6654.31 76.43 1.00 353.13 2747.31
   12:52:14.422.18-Jul-2021 4561.50 6654.31 76.43 1.00 353.33 2747.31
   12:52:14.622.18-Jul-2021 4561.50 6649.75 76.43 1.00 353.53 2747.31
   12:52:14.822.18-Jul-2021 4561.50 6648.69 76.43 1.00 353.73 2747.31
   12:52:15.022.18-Jul-2021 4561.50 6651.63 76.43 1.00 353.93 2747.31
   12:52:15.222.18-Jul-2021 4561.50 6657.99 76.43 1.00 354.13 2747.31
   12:52:15.422.18-Jul-2021 4561.50 6657.99 76.43 1.00 354.33 2747.31
   12:52:15.622.18-Jul-2021 4561.50 6650.02 76.43 1.00 354.53 2747.31
   12:52:15.822.18-Jul-2021 4561.50 6652.10 76.43 1.00 354.73 2747.31
   12:52:16.022.18-Jul-2021 4561.50 6650.26 76.43 1.00 354.93 2747.31
   12:52:16.223.18-Jul-2021 4561.50 6658.95 76.43 1.00 355.13 2747.31
   12:52:16.423.18-Jul-2021 4561.50 6658.95 76.43 1.00 355.33 2747.31
   12:52:16.623.18-Jul-2021 4561.50 6651.51 76.43 1.00 355.53 2747.31
   12:52:16.823.18-Jul-2021 4561.50 6652.23 76.43 1.00 355.73 2747.31
   12:52:17.023.18-Jul-2021 4561.50 6651.30 76.43 1.00 355.93 2747.31
   12:52:17.223.18-Jul-2021 4561.50 6654.50 76.43 1.00 356.13 2747.31
   12:52:17.423.18-Jul-2021 4561.50 6654.50 76.43 1.00 356.33 2747.31
   12:52:17.623.18-Jul-2021 4561.50 6656.08 76.43 1.00 356.53 2747.31
   12:52:17.823.18-Jul-2021 4561.50 6652.75 76.43 1.00 356.73 2747.31
   12:52:18.023.18-Jul-2021 4561.50 6652.71 76.43 1.00 356.93 2747.31
   12:52:18.223.18-Jul-2021 4561.50 6652.01 76.43 1.00 357.13 2747.31
   12:52:18.423.18-Jul-2021 4561.50 6652.01 76.43 1.00 357.33 2747.31
   12:52:18.623.18-Jul-2021 4561.50 6651.15 76.43 1.00 357.53 2747.31
   12:52:18.823.18-Jul-2021 4561.50 6651.41 76.43 1.00 357.73 2747.31
   12:52:19.024.18-Jul-2021 4561.50 6652.10 76.43 1.00 357.93 2747.31
   12:52:19.224.18-Jul-2021 4561.50 6652.06 76.43 1.00 358.13 2747.31
   12:52:19.424.18-Jul-2021 4561.50 6652.06 76.43 1.00 358.33 2747.31
   12:52:19.624.18-Jul-2021 4561.50 6672.52 76.43 1.00 358.53 2747.31
   12:52:19.824.18-Jul-2021 4561.50 6683.93 76.43 1.00 358.73 2747.31
   12:52:20.024.18-Jul-2021 4561.50 6690.09 76.43 1.00 358.93 2747.31
   12:52:20.224.18-Jul-2021 4561.50 6674.92 76.43 1.00 359.13 2747.31
   12:52:20.424.18-Jul-2021 4561.50 6674.92 76.43 1.00 359.33 2747.31
   12:52:20.624.18-Jul-2021 4561.50 6529.03 76.43 1.00 359.53 2747.31
   12:52:20.824.18-Jul-2021 4561.50 6531.53 76.43 1.00 359.73 2747.31
   12:52:21.024.18-Jul-2021 4561.50 6524.55 76.43 1.00 359.93 2747.31
   12:52:21.224.18-Jul-2021 4561.50 6525.70 76.43 1.00 360.13 2747.31
   12:52:21.424.18-Jul-2021 4561.50 6525.70 76.43 1.00 360.33 2747.31
   12:52:21.625.18-Jul-2021 4561.50 6526.23 76.43 1.00 360.53 2747.31
   12:52:21.825.18-Jul-2021 4561.50 6527.65 76.43 1.00 360.73 2747.31
   12:52:22.025.18-Jul-2021 4561.50 6526.12 76.43 1.00 360.93 2747.31
   12:52:22.225.18-Jul-2021 4561.50 6524.03 76.43 1.00 361.13 2747.31
   12:52:22.425.18-Jul-2021 4561.50 6524.03 76.43 1.00 361.33 2747.31
   12:52:22.625.18-Jul-2021 4561.50 6530.60 76.43 1.00 361.53 2747.31
   12:52:22.825.18-Jul-2021 4561.50 6541.21 76.43 1.00 361.73 2747.31
   12:52:23.025.18-Jul-2021 4561.50 6519.88 76.43 1.00 361.93 2747.31
   12:52:23.225.18-Jul-2021 4561.50 6539.94 76.43 1.00 362.13 2747.31
   12:52:23.425.18-Jul-2021 4561.50 6539.94 76.43 1.00 362.33 2747.31
   12:52:23.625.18-Jul-2021 4561.50 6521.72 76.43 1.00 362.53 2747.31
   12:52:23.825.18-Jul-2021 4561.50 6522.78 76.43 1.00 362.73 2747.31
   12:52:24.025.18-Jul-2021 4561.50 6525.66 76.43 1.00 362.93 2747.31
   12:52:24.225.18-Jul-2021 4561.50 6521.09 76.43 1.00 363.13 2747.31
   12:52:24.426.18-Jul-2021 4561.50 6521.09 76.43 1.00 363.33 2747.31
   12:52:24.626.18-Jul-2021 4561.50 6533.17 76.42 1.00 363.53 2747.31
   12:52:24.826.18-Jul-2021 4561.50 6522.41 76.42 1.00 363.73 2747.31
   12:52:25.026.18-Jul-2021 4561.50 6525.52 76.42 1.00 363.93 2747.31
   12:52:25.226.18-Jul-2021 4561.50 6522.48 76.42 1.00 364.13 2747.31
   12:52:25.426.18-Jul-2021 4561.50 6522.48 76.42 1.00 364.33 2747.31
   12:52:25.626.18-Jul-2021 4561.50 6542.47 76.42 1.00 364.53 2747.31
   12:52:25.826.18-Jul-2021 4561.50 6522.47 76.42 1.00 364.73 2747.31
   12:52:26.026.18-Jul-2021 4561.50 6523.09 76.42 1.00 364.93 2747.31
   12:52:26.226.18-Jul-2021 4561.50 6523.46 76.42 1.00 365.13 2747.31
   12:52:26.426.18-Jul-2021 4561.50 6523.46 76.42 1.00 365.33 2747.31
   12:52:26.626.18-Jul-2021 4561.50 6544.25 76.42 1.00 365.53 2747.31
   12:52:26.826.18-Jul-2021 4561.50 6529.69 76.42 1.00 365.73 2747.31
   12:52:27.027.18-Jul-2021 4561.50 6523.55 76.42 1.00 365.93 2747.31
   12:52:27.227.18-Jul-2021 4561.50 6530.42 76.42 1.00 366.13 2747.31
   12:52:27.427.18-Jul-2021 4561.50 6530.42 76.42 1.00 366.33 2747.31
   12:52:27.627.18-Jul-2021 4561.50 6524.68 76.42 1.00 366.53 2747.31
   12:52:27.827.18-Jul-2021 4561.50 6525.04 76.42 1.00 366.74 2747.31
   12:52:28.027.18-Jul-2021 4561.50 6526.28 76.42 1.00 366.94 2747.31
   12:52:28.227.18-Jul-2021 4561.50 6526.28 76.42 1.00 367.14 2747.31
   12:52:28.427.18-Jul-2021 4561.50 6526.28 76.42 1.00 367.34 2747.31
   12:52:28.627.18-Jul-2021 4561.50 6527.81 76.42 1.00 367.54 2747.31
   12:52:28.827.18-Jul-2021 4561.50 6524.44 76.42 1.00 367.74 2747.31
   12:52:29.027.18-Jul-2021 4561.50 6522.26 76.42 1.00 367.94 2747.31
