~Version Information
 VERS.                  2.0:   CWLS log ASCII Standard -VERSION 2.0
 WRAP.                   NO:   One line per depth step
~Well Information Block
#MNEM.UNIT     VALUE/NAME     DESCRIPTION
#---------     -----------    ---------------------------
 STRT.S             23:00:58 18-Jul-21: START TIME 23:00:58 18-Jul-21
 STOP.S             23:07:34 18-Jul-21: STOP TIME  23:07:34 18-Jul-21
 STEP.S                   0.00: STEP TIME
 NULL.                 -999.25: NULL VALUE
 MDS .        Operator Entered:  MAG DATA SOURCE
 PDAT.          Mean Sea Level:  PERMANENT DATUM
 UNIT.                     N/A:  LOGGING EQUIPMENT ID
 DCON.         Sperry Drilling:  DIRECTNL CONTR
 DOE .                     N/A:  DOE NUMBER
 RIG .              West Azeri:  RIG NAME
 JOBN.        AZ-XX-0906997913:  JOB TICKET NUMB
 WELL.                     C41:  WELL NAME
 MWDS.                    Baku:  MWD SHOP
 SRVC.          Turan Drilling:  CONTRACTOR
 FLD .                     ACG:  FIELD NAME
 CTRY.              Azerbaijan:  COUNTRY NAME
 PROV.                    Baku:  PROVINCE
 STAT.                    Baku:  STATE NAME
 REGN.                   EESSA:  REGION
 BASE.              Azerbaijan:  LOGGING EQUIPMENT BASE LOCATION
 UWI .                     N/A:  UNIQUE WELL IDENTIFIER
 API .                     N/A:  API NUMBER
 COMP.     BP Exploration (Caspian Sea) Ltd.:  COMPANY
 WTYP.                Deviated:  WELL TYPE
 SON .        AZ-XX-0906997913:  JOB NUMBER
 FTOP.          Formation Tops:  FORM TOPS DESC
 ILTD.               Lithology:  INTERP LTH DESC
 SVYD.                  Survey:  SURVEY DESC
 DMOD.             Drill Model:  DRILL MOD DESC
 HPTY.       Minimum Curvature:  HOLE POS TYPE
 NREF.                    Grid:  NORTH REFERENCE
 SPUD.               16-May-21:  SPUD DATE
 DATE.      21.11.28 17-May-21:  END TIME
 STIM.      21.11.28 17-May-21:  START TIME
 DMF .             Drill Floor:  DRILL MEAS FROM
 DFST.                        :  DIST FSL TEXT
 DFWT.                        :  DIST FWL TEXT
 CNTY.                        :  COUNTY
 LOC .                        :  LOCATION
 LMF .             Drill Floor:  LOG MEASURED FROM
 AGAP.m                  43.42:  AIR GAP
 VSNS.m                  -2.16:  VERT SEC N/S
 VSEW.m                  -6.24:  VERT SEC E/W
 APD .m                  43.42:  DEPTH ABOVE PD
 WDMS.m                 118.27:  WD ELEV
 EGL .m                   0.00:  GROUND ELEVATION
 EPD .m                   0.00:  ELEVATION
 AZTC.deg                 6.29:  AZM TOTAL CORR
 GRDC.deg                 0.18:  GRID CORRECTION
 MDEC.deg                 6.47:  MAGNETIC DECL
 MDIP.deg                59.54:  MAGNETIC DIP
 MFLD.nT              50337.00:  MAGNETIC FIELD
 GVFD.g                   1.00:  GRAVITY FIELD
 VSDR.deg               226.99:  VERT SEC DIRECT
 TDD .m                   0.00:  TOTAL DEPTH (DRILLER)
 SDEP.m                 448.00:  START DEPTH
 DFSL.m                   0.00:  DISTANCE FSL
 DFWL.m                   0.00:  DISTANCE FWL
 UTMY.m             4435799.96:  UTM Y
 UTMX.m              526265.35:  UTM X
 WHEW.m                  -6.24:  WELL HEAD E/W
 WHNS.m                  -2.16:  WELL HEAD N/S
 LONG.deg                51.31:  LONGITUDE
 LATI.deg                40.06:  LATITUDE
 TVDS.m                  43.42:  TVDSS CORRECTN
 EKB .m                  43.42:  KB ELEVATION
 EDF .m                  43.42:  DF ELEVATION
 TDL .m                 288.00:  TOTAL DEPTH (LOGGER)
 MAGU.                 1851863:  MAGUTM CHECKSUM
 VSC .                       0:  VS TO CLOSURE
~Parameter Information Block
#MNEM.UNIT       Value        Description
#---------     -----------    ---------------------------
 AV  .mps                 0.40:  Ann Velocity 
 AVMX.mps                 0.63:  Max Ann Veloc 
 AZIF.deg               158.76:  Azm, Final 
 BHAT.        Rotary Steerable:  BHA Type 
 BROT.°/30m               0.68:  Build Rotating 
 BS  .in                  8.50:  Bit Size 
 BSZ .in                  8.50:  Bit Size 
 BTPL.psig              712.00:  Bit Press Loss 
 CABU.                      No:  Customer Abuse 
 COMM.                     ¼2`:  Run Comments 1 
 TCS .hr                 90.66:  Time Ciculation Ended 
 CV  .mps                 2.02:  Crit Velocity 
 CVMX.mps                 2.14:  Max Crit Veloc 
 DD1 .            Aziz Aliyevu:  Direct Drillr 1 
 DD2 .             Samir Abbas:  Direct Drillr 2 
 DD3 .           Teymur Aliyev:  Direct Drillr 3 
 DDSV.                 iCruise:  DD Service 
 DEFF.%                  85.10:  % Det Eff 
 DLRX.°/30m               1.05:  Dogleg Rot Max 
 DLSO.°/30m               1.01:  Dogleg Oriented 
 DLSX.°/30m               1.05:  Dogleg Str Max 
 DRET.      07.45.00 18-Jul-21:  Drill End Time 
 DRST.      15.00.00 16-Jul-21:  Drill Start Tim 
 DTIM.hr                 23.46:  Time Drilling 
 EDEP.m                4603.00:  End Depth 
 ENG1.       Seymur Iskandarov:  Engineer 1 
 ENG2.         Yevgeniy Ulikov:  Engineer 2 
 ENG3.         Bahruz Mehdiyev:  Engineer 3 
 ENG4.         Elchin Mammadov:  Engineer 4 
 ETIM.      14.00.00 23-Jul-21:  End Time 
 FLOI.gpm               500.00:  Flow In 
 FLON.gpm               450.00:  Flow In Min 
 FLOS.cptm                0.00:  Fluid Loss 
 FLOX.gpm               560.00:  Flow In Max 
 DFT .        Mineral Oil Base:  Mud Type 
 FTRO.       Formation Presure:  FTWD Run Obj 
 HFLO.                      No:  High Flow 
 HPRE.                      No:  High Pressure 
 HTEM.                      No:  High Temp 
 HYDO.m                   1.80:  Hydro Offset 
 IFIN.deg                40.22:  Inc, Final 
 IMAX.deg                40.54:  Inc Max 
 IMIN.deg                39.44:  Inc Min 
 IMND.m                4361.17:  Inc Min Depth 
 IMXD.m                4417.92:  Inc Max Depth 
 JARR.                      No:  Jarring 
 LETM.      07.45.00 18-Jul-21:  Log End Time 
 LOST.hr                    16:  Lost Rig Time 
 LSTM.      15.00.00 16-Jul-21:  Log Start Time 
 MDCL.ppm             36500.00:  Mud Chlorides 
 MDES.     Inversion Oil/Synthetic:  Mud Desc 
 DFD .sg                  1.42:  Mud Density 
 MDMN.sg                  1.42:  Dens Mud Min 
 MDMX.sg                  1.43:  Dens Mud Max 
 MOIL.                      56:  Run Mud Oil % 
 MOWR.                   71:29:  Run Mud OWR 
 MSND.                     0.5:  Run Mud Sand % 
 MSOL.                      21:  Run Mud Solids% 
 DFV .spqt               78.00:  Mud Viscosity 
 MWOD.in                  6.75:  MWD Tool OD 
 MWSI.                     Yes:  Serv Intrp, MWD 
 OTIM.hr                200.73:  Time Operating 
 PCON.           Look Like New:  Pad Condition 
 PMAX.psia            11069.93:  Press Op, Max 
 PV  .cP                 32.00:  Mud PV 
 RUN .                     700:  Run Number 
 ROPA.m/hr               10.00:  ROP Avg 
 ROPN.m/hr                9.00:  ROP Min 
 ROPX.m/hr               16.00:  ROP Max 
 RPMA.rpm               116.00:  RPM Surface Avg 
 RPMN.rpm                80.00:  RPM Surface Min 
 RPMX.rpm               120.00:  RPM Surface Max 
 RRUN.                    L605:  Rig Run Number 
 RTIM.hr                 45.00:  Time Reaming 
 SAZI.deg               159.86:  Azm, Start 
 SDEP.m                4315.00:  Start Depth 
 SIDD.                      No:  Serv Intrp, DD 
 SINC.deg                39.86:  Inc, Start 
 SPPA.psig             3300.00:  SPP Avg 
 SPPN.psig             3040.00:  SPP Min 
 SPPX.psig             3645.00:  SPP Max 
 STIM.      01.00.00 15-Jul-21:  Start Time 
 SVCS.                 DD, MWD:  Services 
 SVER.                    9.20:  Sperry Version 
 TDAT.m                 288.00:  Tot Depth Attmp 
 TDDF.                      No:  Trip for DD 
 TDLG.m                 288.00:  Tot Depth Loggd 
 TFF .                      No:  Trip for Fail 
 TQAA.f-kp               19.00:  Torque Abs Avg 
 TQAN.f-kp               18.00:  Torque Abs Min 
 TQAX.f-kp               21.00:  Torque Abs Max 
 TRRT.°/30m               0.45:  Turn Rotating 
 MRT .                    HCIM:  Maximum Recorded Temperature 
 TTMX.degC               88.24:  Max Tool Temp 
 VS01.                90649157:  Virtual Str1 SN 
 VS02.                90652483:  Virtual Str2 SN 
 VS03.                11671987:  Virtual Str3 SN 
 VS04.                90643411:  Virtual Str4 SN 
 VS05.                90652478:  Virtual Str5 SN 
 VS06.                    6111:  Virtual Str6 SN 
 WBMN.klb                 9.50:  WOB Min 
 WITN.        Grigoriy Sarayev:  Customer Rep 
 WITN.          Rufat Huseynov:  Customer Rep 2 
 WOBA.klb                11.00:  WOB Avg 
 WOBX.klb                15.00:  WOB Max 
 YP  .lhf2               28.00:  Yield Point 
~Curve Information Block
#MNEM.UNIT                 API CODE     Curve Description
#---------               -----------    ---------------------------
 TIME.HHMMSS            00 000 000 000:  GT Time & Date
 GTDEPTH.m              00 000 000 000:  GT Depth
 GTPQH.psia             00 000 000 000:  GT HR Quartz Pressure
 GTTQ.degC              00 000 000 000:  GT Quartz Temperature
 GTTN.NONE              00 000 000 000:  GT Test Number
 GTET.sec               00 000 000 000:  GT Elapsed Test Time
 GTTVD.m                00 000 000 000:  GT True Vertical Depth
#Other Information
#
#WARRANTY: Halliburton will use its best efforts to furnish customers with 
#accurate information and interpretations that are part of, and incident to, the services 
#provided.  However, Halliburton cannot and does not warrant the accuracy 
#or correctness of such information and interpretations.  Under no circumstances should any 
#such information or interpretation be relied upon as the sole basis for any drilling, 
#completion, production, or financial decision or any procedure involving any risk to the 
#safety of any drilling venture, drilling rig or its crew or any other third party.  The 
#Customer has full responsibility for all drilling, completion and production operation.  
#Halliburton makes no representations or warranties, either expressed or 
#implied, including, but not limited to, the implied warranties of merchantability or fitness 
#for a particular purpose, with respect to the services rendered.  In no event will 
#Halliburton be liable for failure to obtain any particular results or for 
#any damages, including, but not limited to, indirect, special or consequential damages, 
#resulting from the use of any information or interpretation provided by Halliburton.
#
~A           TIME           GTDEPTH  GTPQH  GTTQ  GTTN  GTET   GTTVD  
   23:00:58.670.18-Jul-2021 4247.58 6236.57 69.68 8.00   0.00 2507.04
   23:00:58.871.18-Jul-2021 4247.58 6236.57 69.68 8.00   0.20 2507.04
   23:00:59.071.18-Jul-2021 4247.58 6231.39 69.68 8.00   0.40 2507.04
   23:00:59.271.18-Jul-2021 4247.58 6229.81 69.68 8.00   0.60 2507.04
   23:00:59.471.18-Jul-2021 4247.58 6229.50 69.68 8.00   0.80 2507.04
   23:00:59.671.18-Jul-2021 4247.58 6229.68 69.68 8.00   1.00 2507.04
   23:00:59.871.18-Jul-2021 4247.58 6229.68 69.68 8.00   1.20 2507.04
   23:01:00.071.18-Jul-2021 4247.58 6228.22 69.68 8.00   1.40 2507.04
   23:01:00.271.18-Jul-2021 4247.58 6228.41 69.68 8.00   1.60 2507.04
   23:01:00.471.18-Jul-2021 4247.58 6229.43 69.68 8.00   1.80 2507.04
   23:01:00.671.18-Jul-2021 4247.58 6254.64 69.68 8.00   2.00 2507.04
   23:01:00.871.18-Jul-2021 4247.58 6254.64 69.68 8.00   2.20 2507.04
   23:01:01.071.18-Jul-2021 4247.58 6230.15 69.68 8.00   2.40 2507.04
   23:01:01.271.18-Jul-2021 4247.58 6230.27 69.68 8.00   2.60 2507.04
   23:01:01.471.18-Jul-2021 4247.58 6235.69 69.68 8.00   2.80 2507.04
   23:01:01.672.18-Jul-2021 4247.58 6229.65 69.68 8.00   3.00 2507.04
   23:01:01.872.18-Jul-2021 4247.58 6229.65 69.68 8.00   3.20 2507.04
   23:01:02.072.18-Jul-2021 4247.58 6233.38 69.68 8.00   3.40 2507.04
   23:01:02.272.18-Jul-2021 4247.58 6228.80 69.68 8.00   3.60 2507.04
   23:01:02.472.18-Jul-2021 4247.58 6229.09 69.68 8.00   3.80 2507.04
   23:01:02.672.18-Jul-2021 4247.58 6231.29 69.68 8.00   4.00 2507.04
   23:01:02.872.18-Jul-2021 4247.58 6231.29 69.68 8.00   4.20 2507.04
   23:01:03.072.18-Jul-2021 4247.58 6230.96 69.68 8.00   4.40 2507.04
   23:01:03.272.18-Jul-2021 4247.58 6257.41 69.68 8.00   4.60 2507.04
   23:01:03.472.18-Jul-2021 4247.58 6222.52 69.68 8.00   4.80 2507.04
   23:01:03.672.18-Jul-2021 4247.58 6232.25 69.68 8.00   5.00 2507.04
   23:01:03.872.18-Jul-2021 4247.58 6232.25 69.68 8.00   5.20 2507.04
   23:01:04.072.18-Jul-2021 4247.58 6233.88 69.68 8.00   5.40 2507.04
   23:01:04.273.18-Jul-2021 4247.58 6233.71 69.68 8.00   5.60 2507.04
   23:01:04.473.18-Jul-2021 4247.58 6262.09 69.68 8.00   5.80 2507.04
   23:01:04.673.18-Jul-2021 4247.58 6236.34 69.68 8.00   6.00 2507.04
   23:01:04.873.18-Jul-2021 4247.58 6236.34 69.68 8.00   6.20 2507.04
   23:01:05.073.18-Jul-2021 4247.58 6236.38 69.68 8.00   6.40 2507.04
   23:01:05.273.18-Jul-2021 4247.58 6246.08 69.68 8.00   6.60 2507.04
   23:01:05.473.18-Jul-2021 4247.58 6257.09 69.68 8.00   6.80 2507.04
   23:01:05.673.18-Jul-2021 4247.58 6238.41 69.68 8.00   7.00 2507.04
   23:01:05.873.18-Jul-2021 4247.58 6238.41 69.68 8.00   7.20 2507.04
   23:01:06.073.18-Jul-2021 4247.58 6269.45 69.68 8.00   7.40 2507.04
   23:01:06.273.18-Jul-2021 4247.58 6237.98 69.68 8.00   7.60 2507.04
   23:01:06.473.18-Jul-2021 4247.58 6240.47 69.68 8.00   7.80 2507.04
   23:01:06.673.18-Jul-2021 4247.58 6244.61 69.68 8.00   8.00 2507.04
   23:01:06.873.18-Jul-2021 4247.58 6244.61 69.68 8.00   8.20 2507.04
   23:01:07.074.18-Jul-2021 4247.58 6249.25 69.68 8.00   8.40 2507.04
   23:01:07.274.18-Jul-2021 4247.58 6243.94 69.68 8.00   8.60 2507.04
   23:01:07.474.18-Jul-2021 4247.58 6243.57 69.68 8.00   8.80 2507.04
   23:01:07.674.18-Jul-2021 4247.58 6242.55 69.68 8.00   9.00 2507.04
   23:01:07.874.18-Jul-2021 4247.58 6242.55 69.68 8.00   9.20 2507.04
   23:01:08.074.18-Jul-2021 4247.58 6242.70 69.68 8.00   9.40 2507.04
   23:01:08.274.18-Jul-2021 4247.58 6242.82 69.68 8.00   9.60 2507.04
   23:01:08.474.18-Jul-2021 4247.58 6242.14 69.68 8.00   9.80 2507.04
   23:01:08.674.18-Jul-2021 4247.58 6241.15 69.68 8.00  10.00 2507.04
   23:01:08.874.18-Jul-2021 4247.58 6241.15 69.68 8.00  10.20 2507.04
   23:01:09.074.18-Jul-2021 4247.58 6242.80 69.68 8.00  10.40 2507.04
   23:01:09.274.18-Jul-2021 4247.58 6240.96 69.68 8.00  10.60 2507.04
   23:01:09.474.18-Jul-2021 4247.58 6245.81 69.68 8.00  10.80 2507.04
   23:01:09.675.18-Jul-2021 4247.58 6246.89 69.68 8.00  11.00 2507.04
   23:01:09.875.18-Jul-2021 4247.58 6246.89 69.68 8.00  11.20 2507.04
   23:01:10.075.18-Jul-2021 4247.58 6244.65 69.68 8.00  11.40 2507.04
   23:01:10.275.18-Jul-2021 4247.58 6243.71 69.68 8.00  11.60 2507.04
   23:01:10.475.18-Jul-2021 4247.58 6243.71 69.68 8.00  11.80 2507.04
   23:01:10.675.18-Jul-2021 4247.58 6244.48 69.68 8.00  12.00 2507.04
   23:01:10.875.18-Jul-2021 4247.58 6244.48 69.68 8.00  12.20 2507.04
   23:01:11.075.18-Jul-2021 4247.58 6245.40 69.68 8.00  12.40 2507.04
   23:01:11.275.18-Jul-2021 4247.58 6244.19 69.68 8.00  12.60 2507.04
   23:01:11.475.18-Jul-2021 4247.58 6273.12 69.68 8.00  12.80 2507.04
   23:01:11.675.18-Jul-2021 4247.58 6237.73 69.68 8.00  13.00 2507.04
   23:01:11.875.18-Jul-2021 4247.58 6237.73 69.68 8.00  13.20 2507.04
   23:01:12.075.18-Jul-2021 4247.58 6237.73 69.68 8.00  13.40 2507.04
   23:01:12.275.18-Jul-2021 4247.58 6253.57 69.68 8.00  13.61 2507.04
   23:01:12.476.18-Jul-2021 4247.58 6263.90 69.68 8.00  13.81 2507.04
   23:01:12.676.18-Jul-2021 4247.58 6246.38 69.68 8.00  14.01 2507.04
   23:01:12.876.18-Jul-2021 4247.58 6246.38 69.68 8.00  14.21 2507.04
   23:01:13.076.18-Jul-2021 4247.58 6248.97 69.68 8.00  14.41 2507.04
   23:01:13.276.18-Jul-2021 4247.58 6277.17 69.68 8.00  14.61 2507.04
   23:01:13.476.18-Jul-2021 4247.58 6240.14 69.68 8.00  14.81 2507.04
   23:01:13.676.18-Jul-2021 4247.58 6251.29 69.68 8.00  15.01 2507.04
   23:01:13.876.18-Jul-2021 4247.58 6251.29 69.68 8.00  15.21 2507.04
   23:01:14.076.18-Jul-2021 4247.58 6275.94 69.68 8.00  15.41 2507.04
   23:01:14.276.18-Jul-2021 4247.58 6248.76 69.68 8.00  15.61 2507.04
   23:01:14.476.18-Jul-2021 4247.58 6251.59 69.68 8.00  15.81 2507.04
   23:01:14.676.18-Jul-2021 4247.58 6281.49 69.68 8.00  16.01 2507.04
   23:01:14.876.18-Jul-2021 4247.58 6281.49 69.68 8.00  16.21 2507.04
   23:01:15.076.18-Jul-2021 4247.58 6253.98 69.68 8.00  16.41 2507.04
   23:01:15.277.18-Jul-2021 4247.58 6252.62 69.68 8.00  16.61 2507.04
   23:01:15.477.18-Jul-2021 4247.58 6265.05 69.68 8.00  16.81 2507.04
   23:01:15.677.18-Jul-2021 4247.58 6262.82 69.68 8.00  17.01 2507.04
   23:01:15.877.18-Jul-2021 4247.58 6262.82 69.68 8.00  17.21 2507.04
   23:01:16.077.18-Jul-2021 4247.58 6257.18 69.68 8.00  17.41 2507.04
   23:01:16.277.18-Jul-2021 4247.58 6256.85 69.68 8.00  17.61 2507.04
   23:01:16.477.18-Jul-2021 4247.58 6261.69 69.68 8.00  17.81 2507.04
   23:01:16.677.18-Jul-2021 4247.58 6257.19 69.68 8.00  18.01 2507.04
   23:01:16.877.18-Jul-2021 4247.58 6257.19 69.68 8.00  18.21 2507.04
   23:01:17.077.18-Jul-2021 4247.58 6257.36 69.68 8.00  18.41 2507.04
   23:01:17.277.18-Jul-2021 4247.58 6254.99 69.68 8.00  18.61 2507.04
   23:01:17.477.18-Jul-2021 4247.58 6253.52 69.68 8.00  18.81 2507.04
   23:01:17.677.18-Jul-2021 4247.58 6253.60 69.67 8.00  19.01 2507.04
   23:01:17.878.18-Jul-2021 4247.58 6253.60 69.67 8.00  19.21 2507.04
   23:01:18.078.18-Jul-2021 4247.58 6254.08 69.68 8.00  19.41 2507.04
   23:01:18.278.18-Jul-2021 4247.58 6253.72 69.67 8.00  19.61 2507.04
   23:01:18.478.18-Jul-2021 4247.58 6254.15 69.68 8.00  19.81 2507.04
   23:01:18.678.18-Jul-2021 4247.58 6273.14 69.67 8.00  20.01 2507.04
   23:01:18.878.18-Jul-2021 4247.58 6273.14 69.67 8.00  20.21 2507.04
   23:01:19.078.18-Jul-2021 4247.58 6256.92 69.67 8.00  20.41 2507.04
   23:01:19.278.18-Jul-2021 4247.58 6262.21 69.67 8.00  20.61 2507.04
   23:01:19.478.18-Jul-2021 4247.58 6260.79 69.67 8.00  20.81 2507.04
   23:01:19.678.18-Jul-2021 4247.58 6257.77 69.67 8.00  21.01 2507.04
   23:01:19.878.18-Jul-2021 4247.58 6257.77 69.67 8.00  21.21 2507.04
   23:01:20.078.18-Jul-2021 4247.58 6258.12 69.67 8.00  21.41 2507.04
   23:01:20.278.18-Jul-2021 4247.58 6256.32 69.67 8.00  21.61 2507.04
   23:01:20.478.18-Jul-2021 4247.58 6255.58 69.67 8.00  21.81 2507.04
   23:01:20.679.18-Jul-2021 4247.58 6256.55 69.67 8.00  22.01 2507.04
   23:01:20.879.18-Jul-2021 4247.58 6256.55 69.67 8.00  22.21 2507.04
   23:01:21.079.18-Jul-2021 4247.58 6255.57 69.67 8.00  22.41 2507.04
   23:01:21.279.18-Jul-2021 4247.58 6271.64 69.67 8.00  22.61 2507.04
   23:01:21.479.18-Jul-2021 4247.58 6256.92 69.67 8.00  22.81 2507.04
