~Version Information
 VERS.                  2.0:   CWLS log ASCII Standard -VERSION 2.0
 WRAP.                   NO:   One line per depth step
~Well Information Block
#MNEM.UNIT     VALUE/NAME     DESCRIPTION
#---------     -----------    ---------------------------
 STRT.S             13:07:56 19-Jul-21: START TIME 13:07:56 19-Jul-21
 STOP.S             13:14:51 19-Jul-21: STOP TIME  13:14:51 19-Jul-21
 STEP.S                   0.00: STEP TIME
 NULL.                 -999.25: NULL VALUE
 MDS .        Operator Entered:  MAG DATA SOURCE
 PDAT.          Mean Sea Level:  PERMANENT DATUM
 UNIT.                     N/A:  LOGGING EQUIPMENT ID
 DCON.         Sperry Drilling:  DIRECTNL CONTR
 DOE .                     N/A:  DOE NUMBER
 RIG .              West Azeri:  RIG NAME
 JOBN.        AZ-XX-0906997913:  JOB TICKET NUMB
 WELL.                     C41:  WELL NAME
 MWDS.                    Baku:  MWD SHOP
 SRVC.          Turan Drilling:  CONTRACTOR
 FLD .                     ACG:  FIELD NAME
 CTRY.              Azerbaijan:  COUNTRY NAME
 PROV.                    Baku:  PROVINCE
 STAT.                    Baku:  STATE NAME
 REGN.                   EESSA:  REGION
 BASE.              Azerbaijan:  LOGGING EQUIPMENT BASE LOCATION
 UWI .                     N/A:  UNIQUE WELL IDENTIFIER
 API .                     N/A:  API NUMBER
 COMP.     BP Exploration (Caspian Sea) Ltd.:  COMPANY
 WTYP.                Deviated:  WELL TYPE
 SON .        AZ-XX-0906997913:  JOB NUMBER
 FTOP.          Formation Tops:  FORM TOPS DESC
 ILTD.               Lithology:  INTERP LTH DESC
 SVYD.                  Survey:  SURVEY DESC
 DMOD.             Drill Model:  DRILL MOD DESC
 HPTY.       Minimum Curvature:  HOLE POS TYPE
 NREF.                    Grid:  NORTH REFERENCE
 SPUD.               16-May-21:  SPUD DATE
 DATE.      21.11.28 17-May-21:  END TIME
 STIM.      21.11.28 17-May-21:  START TIME
 DMF .             Drill Floor:  DRILL MEAS FROM
 DFST.                        :  DIST FSL TEXT
 DFWT.                        :  DIST FWL TEXT
 CNTY.                        :  COUNTY
 LOC .                        :  LOCATION
 LMF .             Drill Floor:  LOG MEASURED FROM
 AGAP.m                  43.42:  AIR GAP
 VSNS.m                  -2.16:  VERT SEC N/S
 VSEW.m                  -6.24:  VERT SEC E/W
 APD .m                  43.42:  DEPTH ABOVE PD
 WDMS.m                 118.27:  WD ELEV
 EGL .m                   0.00:  GROUND ELEVATION
 EPD .m                   0.00:  ELEVATION
 AZTC.deg                 6.29:  AZM TOTAL CORR
 GRDC.deg                 0.18:  GRID CORRECTION
 MDEC.deg                 6.47:  MAGNETIC DECL
 MDIP.deg                59.54:  MAGNETIC DIP
 MFLD.nT              50337.00:  MAGNETIC FIELD
 GVFD.g                   1.00:  GRAVITY FIELD
 VSDR.deg               226.99:  VERT SEC DIRECT
 TDD .m                   0.00:  TOTAL DEPTH (DRILLER)
 SDEP.m                 448.00:  START DEPTH
 DFSL.m                   0.00:  DISTANCE FSL
 DFWL.m                   0.00:  DISTANCE FWL
 UTMY.m             4435799.96:  UTM Y
 UTMX.m              526265.35:  UTM X
 WHEW.m                  -6.24:  WELL HEAD E/W
 WHNS.m                  -2.16:  WELL HEAD N/S
 LONG.deg                51.31:  LONGITUDE
 LATI.deg                40.06:  LATITUDE
 TVDS.m                  43.42:  TVDSS CORRECTN
 EKB .m                  43.42:  KB ELEVATION
 EDF .m                  43.42:  DF ELEVATION
 TDL .m                 288.00:  TOTAL DEPTH (LOGGER)
 MAGU.                 1851863:  MAGUTM CHECKSUM
 VSC .                       0:  VS TO CLOSURE
~Parameter Information Block
#MNEM.UNIT       Value        Description
#---------     -----------    ---------------------------
 AV  .mps                 0.40:  Ann Velocity 
 AVMX.mps                 0.63:  Max Ann Veloc 
 AZIF.deg               158.76:  Azm, Final 
 BHAT.        Rotary Steerable:  BHA Type 
 BROT.°/30m               0.68:  Build Rotating 
 BS  .in                  8.50:  Bit Size 
 BSZ .in                  8.50:  Bit Size 
 BTPL.psig              712.00:  Bit Press Loss 
 CABU.                      No:  Customer Abuse 
 COMM.                     „e:  Run Comments 1 
 TCS .hr                 90.66:  Time Ciculation Ended 
 CV  .mps                 2.02:  Crit Velocity 
 CVMX.mps                 2.14:  Max Crit Veloc 
 DD1 .            Aziz Aliyevu:  Direct Drillr 1 
 DD2 .             Samir Abbas:  Direct Drillr 2 
 DD3 .           Teymur Aliyev:  Direct Drillr 3 
 DDSV.                 iCruise:  DD Service 
 DEFF.%                  85.10:  % Det Eff 
 DLRX.°/30m               1.05:  Dogleg Rot Max 
 DLSO.°/30m               1.01:  Dogleg Oriented 
 DLSX.°/30m               1.05:  Dogleg Str Max 
 DRET.      07.45.00 18-Jul-21:  Drill End Time 
 DRST.      15.00.00 16-Jul-21:  Drill Start Tim 
 DTIM.hr                 23.46:  Time Drilling 
 EDEP.m                4603.00:  End Depth 
 ENG1.       Seymur Iskandarov:  Engineer 1 
 ENG2.         Yevgeniy Ulikov:  Engineer 2 
 ENG3.         Bahruz Mehdiyev:  Engineer 3 
 ENG4.         Elchin Mammadov:  Engineer 4 
 ETIM.      14.00.00 23-Jul-21:  End Time 
 FLOI.gpm               500.00:  Flow In 
 FLON.gpm               450.00:  Flow In Min 
 FLOS.cptm                0.00:  Fluid Loss 
 FLOX.gpm               560.00:  Flow In Max 
 DFT .        Mineral Oil Base:  Mud Type 
 FTRO.       Formation Presure:  FTWD Run Obj 
 HFLO.                      No:  High Flow 
 HPRE.                      No:  High Pressure 
 HTEM.                      No:  High Temp 
 HYDO.m                   1.80:  Hydro Offset 
 IFIN.deg                40.22:  Inc, Final 
 IMAX.deg                40.54:  Inc Max 
 IMIN.deg                39.44:  Inc Min 
 IMND.m                4361.17:  Inc Min Depth 
 IMXD.m                4417.92:  Inc Max Depth 
 JARR.                      No:  Jarring 
 LETM.      07.45.00 18-Jul-21:  Log End Time 
 LOST.hr                    16:  Lost Rig Time 
 LSTM.      15.00.00 16-Jul-21:  Log Start Time 
 MDCL.ppm             36500.00:  Mud Chlorides 
 MDES.     Inversion Oil/Synthetic:  Mud Desc 
 DFD .sg                  1.42:  Mud Density 
 MDMN.sg                  1.42:  Dens Mud Min 
 MDMX.sg                  1.43:  Dens Mud Max 
 MOIL.                      56:  Run Mud Oil % 
 MOWR.                   71:29:  Run Mud OWR 
 MSND.                     0.5:  Run Mud Sand % 
 MSOL.                      21:  Run Mud Solids% 
 DFV .spqt               78.00:  Mud Viscosity 
 MWOD.in                  6.75:  MWD Tool OD 
 MWSI.                     Yes:  Serv Intrp, MWD 
 OTIM.hr                200.73:  Time Operating 
 PCON.           Look Like New:  Pad Condition 
 PMAX.psia            11069.93:  Press Op, Max 
 PV  .cP                 32.00:  Mud PV 
 RUN .                     700:  Run Number 
 ROPA.m/hr               10.00:  ROP Avg 
 ROPN.m/hr                9.00:  ROP Min 
 ROPX.m/hr               16.00:  ROP Max 
 RPMA.rpm               116.00:  RPM Surface Avg 
 RPMN.rpm                80.00:  RPM Surface Min 
 RPMX.rpm               120.00:  RPM Surface Max 
 RRUN.                    L605:  Rig Run Number 
 RTIM.hr                 45.00:  Time Reaming 
 SAZI.deg               159.86:  Azm, Start 
 SDEP.m                4315.00:  Start Depth 
 SIDD.                      No:  Serv Intrp, DD 
 SINC.deg                39.86:  Inc, Start 
 SPPA.psig             3300.00:  SPP Avg 
 SPPN.psig             3040.00:  SPP Min 
 SPPX.psig             3645.00:  SPP Max 
 STIM.      01.00.00 15-Jul-21:  Start Time 
 SVCS.                 DD, MWD:  Services 
 SVER.                    9.20:  Sperry Version 
 TDAT.m                 288.00:  Tot Depth Attmp 
 TDDF.                      No:  Trip for DD 
 TDLG.m                 288.00:  Tot Depth Loggd 
 TFF .                      No:  Trip for Fail 
 TQAA.f-kp               19.00:  Torque Abs Avg 
 TQAN.f-kp               18.00:  Torque Abs Min 
 TQAX.f-kp               21.00:  Torque Abs Max 
 TRRT.°/30m               0.45:  Turn Rotating 
 MRT .                    HCIM:  Maximum Recorded Temperature 
 TTMX.degC               88.24:  Max Tool Temp 
 VS01.                90649157:  Virtual Str1 SN 
 VS02.                90652483:  Virtual Str2 SN 
 VS03.                11671987:  Virtual Str3 SN 
 VS04.                90643411:  Virtual Str4 SN 
 VS05.                90652478:  Virtual Str5 SN 
 VS06.                    6111:  Virtual Str6 SN 
 WBMN.klb                 9.50:  WOB Min 
 WITN.        Grigoriy Sarayev:  Customer Rep 
 WITN.          Rufat Huseynov:  Customer Rep 2 
 WOBA.klb                11.00:  WOB Avg 
 WOBX.klb                15.00:  WOB Max 
 YP  .lhf2               28.00:  Yield Point 
~Curve Information Block
#MNEM.UNIT                 API CODE     Curve Description
#---------               -----------    ---------------------------
 TIME.HHMMSS            00 000 000 000:  GT Time & Date
 GTDEPTH.m              00 000 000 000:  GT Depth
 GTPQH.psia             00 000 000 000:  GT HR Quartz Pressure
 GTTQ.degC              00 000 000 000:  GT Quartz Temperature
 GTTN.NONE              00 000 000 000:  GT Test Number
 GTET.sec               00 000 000 000:  GT Elapsed Test Time
 GTTVD.m                00 000 000 000:  GT True Vertical Depth
#Other Information
#
#WARRANTY: Halliburton will use its best efforts to furnish customers with 
#accurate information and interpretations that are part of, and incident to, the services 
#provided.  However, Halliburton cannot and does not warrant the accuracy 
#or correctness of such information and interpretations.  Under no circumstances should any 
#such information or interpretation be relied upon as the sole basis for any drilling, 
#completion, production, or financial decision or any procedure involving any risk to the 
#safety of any drilling venture, drilling rig or its crew or any other third party.  The 
#Customer has full responsibility for all drilling, completion and production operation.  
#Halliburton makes no representations or warranties, either expressed or 
#implied, including, but not limited to, the implied warranties of merchantability or fitness 
#for a particular purpose, with respect to the services rendered.  In no event will 
#Halliburton be liable for failure to obtain any particular results or for 
#any damages, including, but not limited to, indirect, special or consequential damages, 
#resulting from the use of any information or interpretation provided by Halliburton.
#
~A           TIME           GTDEPTH  GTPQH  GTTQ  GTTN   GTET   GTTVD  
# ...
   13:14:20.724.19-Jul-2021 4553.00 6662.37 71.15 28.00 384.34 2740.81
   13:14:20.924.19-Jul-2021 4553.00 6661.23 71.15 28.00 384.54 2740.81
   13:14:21.124.19-Jul-2021 4553.00 6660.68 71.15 28.00 384.74 2740.81
   13:14:21.324.19-Jul-2021 4553.00 6660.26 71.15 28.00 384.94 2740.81
   13:14:21.524.19-Jul-2021 4553.00 6660.15 71.15 28.00 385.14 2740.81
   13:14:21.724.19-Jul-2021 4553.00 6660.15 71.15 28.00 385.34 2740.81
   13:14:21.924.19-Jul-2021 4553.00 6659.63 71.15 28.00 385.54 2740.81
   13:14:22.124.19-Jul-2021 4553.00 6684.73 71.15 28.00 385.74 2740.81
   13:14:22.324.19-Jul-2021 4553.00 6667.70 71.15 28.00 385.94 2740.81
   13:14:22.524.19-Jul-2021 4553.00 6655.04 71.15 28.00 386.14 2740.81
   13:14:22.724.19-Jul-2021 4553.00 6655.04 71.15 28.00 386.34 2740.81
   13:14:22.924.19-Jul-2021 4553.00 6663.55 71.15 28.00 386.54 2740.81
   13:14:23.124.19-Jul-2021 4553.00 6658.86 71.15 28.00 386.74 2740.81
   13:14:23.325.19-Jul-2021 4553.00 6659.70 71.15 28.00 386.94 2740.81
   13:14:23.525.19-Jul-2021 4553.00 6660.99 71.15 28.00 387.14 2740.81
   13:14:23.725.19-Jul-2021 4553.00 6660.99 71.15 28.00 387.34 2740.81
   13:14:23.925.19-Jul-2021 4553.00 6659.95 71.15 28.00 387.54 2740.81
   13:14:24.125.19-Jul-2021 4553.00 6660.14 71.15 28.00 387.74 2740.81
   13:14:24.325.19-Jul-2021 4553.00 6660.03 71.15 28.00 387.94 2740.81
   13:14:24.525.19-Jul-2021 4553.00 6660.19 71.15 28.00 388.14 2740.81
   13:14:24.725.19-Jul-2021 4553.00 6660.19 71.15 28.00 388.34 2740.81
   13:14:24.925.19-Jul-2021 4553.00 6668.15 71.14 28.00 388.54 2740.81
   13:14:25.125.19-Jul-2021 4553.00 6655.27 71.14 28.00 388.74 2740.81
   13:14:25.325.19-Jul-2021 4553.00 6684.26 71.14 28.00 388.94 2740.81
   13:14:25.525.19-Jul-2021 4553.00 6674.30 71.14 28.00 389.14 2740.81
   13:14:25.725.19-Jul-2021 4553.00 6674.30 71.14 28.00 389.34 2740.81
   13:14:25.925.19-Jul-2021 4553.00 6690.01 71.14 28.00 389.54 2740.81
   13:14:26.126.19-Jul-2021 4553.00 6670.68 71.14 28.00 389.74 2740.81
   13:14:26.326.19-Jul-2021 4553.00 6657.79 71.14 28.00 389.94 2740.81
   13:14:26.526.19-Jul-2021 4553.00 6677.05 71.14 28.00 390.14 2740.81
   13:14:26.726.19-Jul-2021 4553.00 6677.05 71.14 28.00 390.34 2740.81
   13:14:26.926.19-Jul-2021 4553.00 6657.00 71.14 28.00 390.54 2740.81
   13:14:27.126.19-Jul-2021 4553.00 6685.51 71.14 28.00 390.74 2740.81
   13:14:27.326.19-Jul-2021 4553.00 6675.02 71.14 28.00 390.94 2740.81
   13:14:27.526.19-Jul-2021 4553.00 6660.37 71.14 28.00 391.14 2740.81
   13:14:27.726.19-Jul-2021 4553.00 6660.37 71.14 28.00 391.34 2740.81
   13:14:27.926.19-Jul-2021 4553.00 6664.61 71.14 28.00 391.54 2740.81
   13:14:28.126.19-Jul-2021 4553.00 6660.12 71.14 28.00 391.74 2740.81
   13:14:28.326.19-Jul-2021 4553.00 6660.59 71.14 28.00 391.94 2740.81
   13:14:28.526.19-Jul-2021 4553.00 6662.39 71.14 28.00 392.14 2740.81
   13:14:28.726.19-Jul-2021 4553.00 6662.39 71.14 28.00 392.34 2740.81
   13:14:28.927.19-Jul-2021 4553.00 6660.75 71.14 28.00 392.54 2740.81
   13:14:29.127.19-Jul-2021 4553.00 6659.64 71.14 28.00 392.74 2740.81
   13:14:29.327.19-Jul-2021 4553.00 6659.03 71.14 28.00 392.94 2740.81
   13:14:29.527.19-Jul-2021 4553.00 6659.04 71.14 28.00 393.14 2740.81
   13:14:29.727.19-Jul-2021 4553.00 6659.04 71.14 28.00 393.34 2740.81
   13:14:29.927.19-Jul-2021 4553.00 6668.64 71.14 28.00 393.54 2740.81
   13:14:30.127.19-Jul-2021 4553.00 6677.89 71.14 28.00 393.74 2740.81
   13:14:30.327.19-Jul-2021 4553.00 6661.97 71.14 28.00 393.95 2740.81
   13:14:30.527.19-Jul-2021 4553.00 6663.85 71.14 28.00 394.15 2740.81
   13:14:30.727.19-Jul-2021 4553.00 6663.85 71.14 28.00 394.35 2740.81
   13:14:30.927.19-Jul-2021 4553.00 6655.79 71.14 28.00 394.55 2740.81
   13:14:31.127.19-Jul-2021 4553.00 6657.78 71.14 28.00 394.75 2740.81
   13:14:31.327.19-Jul-2021 4553.00 6658.99 71.14 28.00 394.95 2740.81
   13:14:31.528.19-Jul-2021 4553.00 6660.05 71.14 28.00 395.15 2740.81
   13:14:31.728.19-Jul-2021 4553.00 6660.05 71.14 28.00 395.35 2740.81
   13:14:31.928.19-Jul-2021 4553.00 6659.15 71.14 28.00 395.55 2740.81
   13:14:32.128.19-Jul-2021 4553.00 6659.70 71.14 28.00 395.75 2740.81
   13:14:32.328.19-Jul-2021 4553.00 6659.42 71.14 28.00 395.95 2740.81
   13:14:32.528.19-Jul-2021 4553.00 6669.33 71.14 28.00 396.15 2740.81
   13:14:32.728.19-Jul-2021 4553.00 6669.33 71.14 28.00 396.35 2740.81
   13:14:32.928.19-Jul-2021 4553.00 6662.87 71.14 28.00 396.55 2740.81
   13:14:33.128.19-Jul-2021 4553.00 6684.08 71.14 28.00 396.75 2740.81
   13:14:33.328.19-Jul-2021 4553.00 6675.73 71.14 28.00 396.95 2740.81
   13:14:33.528.19-Jul-2021 4553.00 6657.60 71.14 28.00 397.15 2740.81
   13:14:33.728.19-Jul-2021 4553.00 6657.60 71.14 28.00 397.35 2740.81
   13:14:33.928.19-Jul-2021 4553.00 6673.27 71.14 28.00 397.55 2740.81
   13:14:34.128.19-Jul-2021 4553.00 6658.03 71.14 28.00 397.75 2740.81
   13:14:34.329.19-Jul-2021 4553.00 6686.15 71.14 28.00 397.95 2740.81
   13:14:34.529.19-Jul-2021 4553.00 6673.88 71.14 28.00 398.15 2740.81
   13:14:34.729.19-Jul-2021 4553.00 6673.88 71.14 28.00 398.35 2740.81
   13:14:34.929.19-Jul-2021 4553.00 6668.09 71.14 28.00 398.55 2740.81
   13:14:35.129.19-Jul-2021 4553.00 6663.17 71.14 28.00 398.75 2740.81
   13:14:35.329.19-Jul-2021 4553.00 6677.90 71.14 28.00 398.95 2740.81
   13:14:35.529.19-Jul-2021 4553.00 6671.44 71.14 28.00 399.15 2740.81
   13:14:35.729.19-Jul-2021 4553.00 6671.44 71.14 28.00 399.35 2740.81
   13:14:35.929.19-Jul-2021 4553.00 6663.25 71.14 28.00 399.55 2740.81
   13:14:36.129.19-Jul-2021 4553.00 6667.81 71.14 28.00 399.75 2740.81
   13:14:36.329.19-Jul-2021 4553.00 6660.96 71.14 28.00 399.95 2740.81
   13:14:36.529.19-Jul-2021 4553.00 6662.12 71.14 28.00 400.15 2740.81
   13:14:36.729.19-Jul-2021 4553.00 6662.12 71.14 28.00 400.35 2740.81
   13:14:36.930.19-Jul-2021 4553.00 6661.90 71.14 28.00 400.55 2740.81
   13:14:37.130.19-Jul-2021 4553.00 6661.16 71.14 28.00 400.75 2740.81
   13:14:37.330.19-Jul-2021 4553.00 6660.16 71.14 28.00 400.95 2740.81
   13:14:37.530.19-Jul-2021 4553.00 6660.08 71.14 28.00 401.15 2740.81
   13:14:37.730.19-Jul-2021 4553.00 6660.08 71.14 28.00 401.35 2740.81
   13:14:37.930.19-Jul-2021 4553.00 6658.43 70.83 28.00 401.55 2740.81
   13:14:38.130.19-Jul-2021 4553.00 6659.91 71.14 28.00 401.75 2740.81
   13:14:38.330.19-Jul-2021 4553.00 6682.82 71.14 28.00 401.95 2740.81
   13:14:38.530.19-Jul-2021 4553.00 6667.45 71.14 28.00 402.15 2740.81
   13:14:38.730.19-Jul-2021 4553.00 6667.45 71.14 28.00 402.35 2740.81
   13:14:38.930.19-Jul-2021 4553.00 6664.43 71.14 28.00 402.55 2740.81
   13:14:39.130.19-Jul-2021 4553.00 6659.18 71.14 28.00 402.75 2740.81
   13:14:39.330.19-Jul-2021 4553.00 6658.44 71.14 28.00 402.95 2740.81
   13:14:39.530.19-Jul-2021 4553.00 6658.76 71.14 28.00 403.15 2740.81
   13:14:39.731.19-Jul-2021 4553.00 6658.76 71.14 28.00 403.35 2740.81
   13:14:39.931.19-Jul-2021 4553.00 6658.68 71.14 28.00 403.55 2740.81
   13:14:40.131.19-Jul-2021 4553.00 6658.81 71.14 28.00 403.75 2740.81
   13:14:40.331.19-Jul-2021 4553.00 6658.55 71.14 28.00 403.95 2740.81
   13:14:40.531.19-Jul-2021 4553.00 6659.07 71.14 28.00 404.15 2740.81
   13:14:40.731.19-Jul-2021 4553.00 6659.07 71.14 28.00 404.35 2740.81
   13:14:40.931.19-Jul-2021 4553.00 6683.29 71.14 28.00 404.55 2740.81
   13:14:41.131.19-Jul-2021 4553.00 6667.36 71.14 28.00 404.75 2740.81
   13:14:41.331.19-Jul-2021 4553.00 6667.21 71.14 28.00 404.95 2740.81
   13:14:41.531.19-Jul-2021 4553.00 6685.62 71.14 28.00 405.15 2740.81
   13:14:41.731.19-Jul-2021 4553.00 6685.62 71.14 28.00 405.35 2740.81
   13:14:41.931.19-Jul-2021 4553.00 6684.63 71.14 28.00 405.55 2740.81
   13:14:42.131.19-Jul-2021 4553.00 6674.85 71.14 28.00 405.75 2740.81
   13:14:42.332.19-Jul-2021 4553.00 6655.30 71.14 28.00 405.95 2740.81
   13:14:42.532.19-Jul-2021 4553.00 6662.70 71.14 28.00 406.15 2740.81
   13:14:42.732.19-Jul-2021 4553.00 6662.70 71.14 28.00 406.35 2740.81
   13:14:42.932.19-Jul-2021 4553.00 6664.10 71.14 28.00 406.55 2740.81
   13:14:43.132.19-Jul-2021 4553.00 6655.67 71.14 28.00 406.75 2740.81
