~Version Information
 VERS.                  2.0:   CWLS log ASCII Standard -VERSION 2.0
 WRAP.                   NO:   One line per depth step
~Well Information Block
#MNEM.UNIT     VALUE/NAME     DESCRIPTION
#---------     -----------    ---------------------------
 STRT.S             16:45:59 18-Jul-21: START TIME 16:45:59 18-Jul-21
 STOP.S             16:52:30 18-Jul-21: STOP TIME  16:52:30 18-Jul-21
 STEP.S                   0.00: STEP TIME
 NULL.                 -999.25: NULL VALUE
 MDS .        Operator Entered:  MAG DATA SOURCE
 PDAT.          Mean Sea Level:  PERMANENT DATUM
 UNIT.                     N/A:  LOGGING EQUIPMENT ID
 DCON.         Sperry Drilling:  DIRECTNL CONTR
 DOE .                     N/A:  DOE NUMBER
 RIG .              West Azeri:  RIG NAME
 JOBN.        AZ-XX-0906997913:  JOB TICKET NUMB
 WELL.                     C41:  WELL NAME
 MWDS.                    Baku:  MWD SHOP
 SRVC.          Turan Drilling:  CONTRACTOR
 FLD .                     ACG:  FIELD NAME
 CTRY.              Azerbaijan:  COUNTRY NAME
 PROV.                    Baku:  PROVINCE
 STAT.                    Baku:  STATE NAME
 REGN.                   EESSA:  REGION
 BASE.              Azerbaijan:  LOGGING EQUIPMENT BASE LOCATION
 UWI .                     N/A:  UNIQUE WELL IDENTIFIER
 API .                     N/A:  API NUMBER
 COMP.     BP Exploration (Caspian Sea) Ltd.:  COMPANY
 WTYP.                Deviated:  WELL TYPE
 SON .        AZ-XX-0906997913:  JOB NUMBER
 FTOP.          Formation Tops:  FORM TOPS DESC
 ILTD.               Lithology:  INTERP LTH DESC
 SVYD.                  Survey:  SURVEY DESC
 DMOD.             Drill Model:  DRILL MOD DESC
 HPTY.       Minimum Curvature:  HOLE POS TYPE
 NREF.                    Grid:  NORTH REFERENCE
 SPUD.               16-May-21:  SPUD DATE
 DATE.      21.11.28 17-May-21:  END TIME
 STIM.      21.11.28 17-May-21:  START TIME
 DMF .             Drill Floor:  DRILL MEAS FROM
 DFST.                        :  DIST FSL TEXT
 DFWT.                        :  DIST FWL TEXT
 CNTY.                        :  COUNTY
 LOC .                        :  LOCATION
 LMF .             Drill Floor:  LOG MEASURED FROM
 AGAP.m                  43.42:  AIR GAP
 VSNS.m                  -2.16:  VERT SEC N/S
 VSEW.m                  -6.24:  VERT SEC E/W
 APD .m                  43.42:  DEPTH ABOVE PD
 WDMS.m                 118.27:  WD ELEV
 EGL .m                   0.00:  GROUND ELEVATION
 EPD .m                   0.00:  ELEVATION
 AZTC.deg                 6.29:  AZM TOTAL CORR
 GRDC.deg                 0.18:  GRID CORRECTION
 MDEC.deg                 6.47:  MAGNETIC DECL
 MDIP.deg                59.54:  MAGNETIC DIP
 MFLD.nT              50337.00:  MAGNETIC FIELD
 GVFD.g                   1.00:  GRAVITY FIELD
 VSDR.deg               226.99:  VERT SEC DIRECT
 TDD .m                   0.00:  TOTAL DEPTH (DRILLER)
 SDEP.m                 448.00:  START DEPTH
 DFSL.m                   0.00:  DISTANCE FSL
 DFWL.m                   0.00:  DISTANCE FWL
 UTMY.m             4435799.96:  UTM Y
 UTMX.m              526265.35:  UTM X
 WHEW.m                  -6.24:  WELL HEAD E/W
 WHNS.m                  -2.16:  WELL HEAD N/S
 LONG.deg                51.31:  LONGITUDE
 LATI.deg                40.06:  LATITUDE
 TVDS.m                  43.42:  TVDSS CORRECTN
 EKB .m                  43.42:  KB ELEVATION
 EDF .m                  43.42:  DF ELEVATION
 TDL .m                 288.00:  TOTAL DEPTH (LOGGER)
 MAGU.                 1851863:  MAGUTM CHECKSUM
 VSC .                       0:  VS TO CLOSURE
~Parameter Information Block
#MNEM.UNIT       Value        Description
#---------     -----------    ---------------------------
 AV  .mps                 0.40:  Ann Velocity 
 AVMX.mps                 0.63:  Max Ann Veloc 
 AZIF.deg               158.76:  Azm, Final 
 BHAT.        Rotary Steerable:  BHA Type 
 BROT.∞/30m               0.68:  Build Rotating 
 BS  .in                  8.50:  Bit Size 
 BSZ .in                  8.50:  Bit Size 
 BTPL.psig              712.00:  Bit Press Loss 
 CABU.                      No:  Customer Abuse 
 COMM.                     ,èr:  Run Comments 1 
 TCS .hr                 90.66:  Time Ciculation Ended 
 CV  .mps                 2.02:  Crit Velocity 
 CVMX.mps                 2.14:  Max Crit Veloc 
 DD1 .            Aziz Aliyevu:  Direct Drillr 1 
 DD2 .             Samir Abbas:  Direct Drillr 2 
 DD3 .           Teymur Aliyev:  Direct Drillr 3 
 DDSV.                 iCruise:  DD Service 
 DEFF.%                  85.10:  % Det Eff 
 DLRX.∞/30m               1.05:  Dogleg Rot Max 
 DLSO.∞/30m               1.01:  Dogleg Oriented 
 DLSX.∞/30m               1.05:  Dogleg Str Max 
 DRET.      07.45.00 18-Jul-21:  Drill End Time 
 DRST.      15.00.00 16-Jul-21:  Drill Start Tim 
 DTIM.hr                 23.46:  Time Drilling 
 EDEP.m                4603.00:  End Depth 
 ENG1.       Seymur Iskandarov:  Engineer 1 
 ENG2.         Yevgeniy Ulikov:  Engineer 2 
 ENG3.         Bahruz Mehdiyev:  Engineer 3 
 ENG4.         Elchin Mammadov:  Engineer 4 
 ETIM.      14.00.00 23-Jul-21:  End Time 
 FLOI.gpm               500.00:  Flow In 
 FLON.gpm               450.00:  Flow In Min 
 FLOS.cptm                0.00:  Fluid Loss 
 FLOX.gpm               560.00:  Flow In Max 
 DFT .        Mineral Oil Base:  Mud Type 
 FTRO.       Formation Presure:  FTWD Run Obj 
 HFLO.                      No:  High Flow 
 HPRE.                      No:  High Pressure 
 HTEM.                      No:  High Temp 
 HYDO.m                   1.80:  Hydro Offset 
 IFIN.deg                40.22:  Inc, Final 
 IMAX.deg                40.54:  Inc Max 
 IMIN.deg                39.44:  Inc Min 
 IMND.m                4361.17:  Inc Min Depth 
 IMXD.m                4417.92:  Inc Max Depth 
 JARR.                      No:  Jarring 
 LETM.      07.45.00 18-Jul-21:  Log End Time 
 LOST.hr                    16:  Lost Rig Time 
 LSTM.      15.00.00 16-Jul-21:  Log Start Time 
 MDCL.ppm             36500.00:  Mud Chlorides 
 MDES.     Inversion Oil/Synthetic:  Mud Desc 
 DFD .sg                  1.42:  Mud Density 
 MDMN.sg                  1.42:  Dens Mud Min 
 MDMX.sg                  1.43:  Dens Mud Max 
 MOIL.                      56:  Run Mud Oil % 
 MOWR.                   71:29:  Run Mud OWR 
 MSND.                     0.5:  Run Mud Sand % 
 MSOL.                      21:  Run Mud Solids% 
 DFV .spqt               78.00:  Mud Viscosity 
 MWOD.in                  6.75:  MWD Tool OD 
 MWSI.                     Yes:  Serv Intrp, MWD 
 OTIM.hr                200.73:  Time Operating 
 PCON.           Look Like New:  Pad Condition 
 PMAX.psia            11069.93:  Press Op, Max 
 PV  .cP                 32.00:  Mud PV 
 RUN .                     700:  Run Number 
 ROPA.m/hr               10.00:  ROP Avg 
 ROPN.m/hr                9.00:  ROP Min 
 ROPX.m/hr               16.00:  ROP Max 
 RPMA.rpm               116.00:  RPM Surface Avg 
 RPMN.rpm                80.00:  RPM Surface Min 
 RPMX.rpm               120.00:  RPM Surface Max 
 RRUN.                    L605:  Rig Run Number 
 RTIM.hr                 45.00:  Time Reaming 
 SAZI.deg               159.86:  Azm, Start 
 SDEP.m                4315.00:  Start Depth 
 SIDD.                      No:  Serv Intrp, DD 
 SINC.deg                39.86:  Inc, Start 
 SPPA.psig             3300.00:  SPP Avg 
 SPPN.psig             3040.00:  SPP Min 
 SPPX.psig             3645.00:  SPP Max 
 STIM.      01.00.00 15-Jul-21:  Start Time 
 SVCS.                 DD, MWD:  Services 
 SVER.                    9.20:  Sperry Version 
 TDAT.m                 288.00:  Tot Depth Attmp 
 TDDF.                      No:  Trip for DD 
 TDLG.m                 288.00:  Tot Depth Loggd 
 TFF .                      No:  Trip for Fail 
 TQAA.f-kp               19.00:  Torque Abs Avg 
 TQAN.f-kp               18.00:  Torque Abs Min 
 TQAX.f-kp               21.00:  Torque Abs Max 
 TRRT.∞/30m               0.45:  Turn Rotating 
 MRT .                    HCIM:  Maximum Recorded Temperature 
 TTMX.degC               88.24:  Max Tool Temp 
 VS01.                90649157:  Virtual Str1 SN 
 VS02.                90652483:  Virtual Str2 SN 
 VS03.                11671987:  Virtual Str3 SN 
 VS04.                90643411:  Virtual Str4 SN 
 VS05.                90652478:  Virtual Str5 SN 
 VS06.                    6111:  Virtual Str6 SN 
 WBMN.klb                 9.50:  WOB Min 
 WITN.        Grigoriy Sarayev:  Customer Rep 
 WITN.          Rufat Huseynov:  Customer Rep 2 
 WOBA.klb                11.00:  WOB Avg 
 WOBX.klb                15.00:  WOB Max 
 YP  .lhf2               28.00:  Yield Point 
~Curve Information Block
#MNEM.UNIT                 API CODE     Curve Description
#---------               -----------    ---------------------------
 TIME.HHMMSS            00 000 000 000:  GT Time & Date
 GTDEPTH.m              00 000 000 000:  GT Depth
 GTPQH.psia             00 000 000 000:  GT HR Quartz Pressure
 GTTQ.degC              00 000 000 000:  GT Quartz Temperature
 GTTN.NONE              00 000 000 000:  GT Test Number
 GTET.sec               00 000 000 000:  GT Elapsed Test Time
 GTTVD.m                00 000 000 000:  GT True Vertical Depth
#Other Information
#
#WARRANTY: Halliburton will use its best efforts to furnish customers with 
#accurate information and interpretations that are part of, and incident to, the services 
#provided.  However, Halliburton cannot and does not warrant the accuracy 
#or correctness of such information and interpretations.  Under no circumstances should any 
#such information or interpretation be relied upon as the sole basis for any drilling, 
#completion, production, or financial decision or any procedure involving any risk to the 
#safety of any drilling venture, drilling rig or its crew or any other third party.  The 
#Customer has full responsibility for all drilling, completion and production operation.  
#Halliburton makes no representations or warranties, either expressed or 
#implied, including, but not limited to, the implied warranties of merchantability or fitness 
#for a particular purpose, with respect to the services rendered.  In no event will 
#Halliburton be liable for failure to obtain any particular results or for 
#any damages, including, but not limited to, indirect, special or consequential damages, 
#resulting from the use of any information or interpretation provided by Halliburton.
#
~A           TIME           GTDEPTH  GTPQH  GTTQ  GTTN  GTET   GTTVD  
# ...
   16:46:22.394.18-Jul-2021 4545.00 6634.74 75.04 6.00  23.01 2734.68
   16:46:22.595.18-Jul-2021 4545.00 6634.74 75.04 6.00  23.21 2734.68
   16:46:22.795.18-Jul-2021 4545.00 6651.77 75.04 6.00  23.41 2734.68
   16:46:22.995.18-Jul-2021 4545.00 6632.50 75.04 6.00  23.61 2734.68
   16:46:23.195.18-Jul-2021 4545.00 6620.64 75.04 6.00  23.81 2734.68
   16:46:23.395.18-Jul-2021 4545.00 6625.17 75.04 6.00  24.01 2734.68
   16:46:23.595.18-Jul-2021 4545.00 6625.17 75.04 6.00  24.21 2734.68
   16:46:23.795.18-Jul-2021 4545.00 6625.14 75.04 6.00  24.41 2734.68
   16:46:23.995.18-Jul-2021 4545.00 6625.58 75.04 6.00  24.61 2734.68
   16:46:24.195.18-Jul-2021 4545.00 6625.95 75.04 6.00  24.81 2734.68
   16:46:24.395.18-Jul-2021 4545.00 6626.04 75.04 6.00  25.01 2734.68
   16:46:24.595.18-Jul-2021 4545.00 6626.04 75.04 6.00  25.21 2734.68
   16:46:24.795.18-Jul-2021 4545.00 6627.17 75.04 6.00  25.41 2734.68
   16:46:24.995.18-Jul-2021 4545.00 6627.71 75.04 6.00  25.61 2734.68
   16:46:25.195.18-Jul-2021 4545.00 6627.97 75.04 6.00  25.81 2734.68
   16:46:25.396.18-Jul-2021 4545.00 6628.49 75.04 6.00  26.01 2734.68
   16:46:25.596.18-Jul-2021 4545.00 6628.49 75.04 6.00  26.21 2734.68
   16:46:25.796.18-Jul-2021 4545.00 6637.67 75.04 6.00  26.41 2734.68
   16:46:25.996.18-Jul-2021 4545.00 6627.80 75.04 6.00  26.61 2734.68
   16:46:26.196.18-Jul-2021 4545.00 6627.80 75.04 6.00  26.81 2734.68
   16:46:26.396.18-Jul-2021 4545.00 6631.36 75.04 6.00  27.01 2734.68
   16:46:26.596.18-Jul-2021 4545.00 6631.36 75.04 6.00  27.21 2734.68
   16:46:26.796.18-Jul-2021 4545.00 6627.03 75.04 6.00  27.41 2734.68
   16:46:26.996.18-Jul-2021 4545.00 6626.31 75.04 6.00  27.61 2734.68
   16:46:27.196.18-Jul-2021 4545.00 6626.42 75.04 6.00  27.81 2734.68
   16:46:27.396.18-Jul-2021 4545.00 6626.11 75.04 6.00  28.01 2734.68
   16:46:27.596.18-Jul-2021 4545.00 6626.11 75.04 6.00  28.21 2734.68
   16:46:27.796.18-Jul-2021 4545.00 6626.27 75.03 6.00  28.41 2734.68
   16:46:27.997.18-Jul-2021 4545.00 6626.44 75.03 6.00  28.61 2734.68
   16:46:28.197.18-Jul-2021 4545.00 6639.04 75.03 6.00  28.81 2734.68
   16:46:28.397.18-Jul-2021 4545.00 6644.91 75.03 6.00  29.01 2734.68
   16:46:28.597.18-Jul-2021 4545.00 6644.91 75.03 6.00  29.21 2734.68
   16:46:28.797.18-Jul-2021 4545.00 6651.11 75.03 6.00  29.41 2734.68
   16:46:28.997.18-Jul-2021 4545.00 6643.76 75.03 6.00  29.61 2734.68
   16:46:29.197.18-Jul-2021 4545.00 6627.02 75.03 6.00  29.81 2734.68
   16:46:29.397.18-Jul-2021 4545.00 6601.01 75.03 6.00  30.01 2734.68
   16:46:29.597.18-Jul-2021 4545.00 6601.01 75.03 6.00  30.21 2734.68
   16:46:29.797.18-Jul-2021 4545.00 6589.55 75.03 6.00  30.41 2734.68
   16:46:29.997.18-Jul-2021 4545.00 6568.39 75.03 6.00  30.61 2734.68
   16:46:30.197.18-Jul-2021 4545.00 6559.98 75.03 6.00  30.81 2734.68
   16:46:30.397.18-Jul-2021 4545.00 6558.06 75.03 6.00  31.01 2734.68
   16:46:30.597.18-Jul-2021 4545.00 6558.06 75.03 6.00  31.21 2734.68
   16:46:30.798.18-Jul-2021 4545.00 6551.52 75.03 6.00  31.41 2734.68
   16:46:30.998.18-Jul-2021 4545.00 6519.82 75.03 6.00  31.61 2734.68
   16:46:31.198.18-Jul-2021 4545.00 6496.34 75.03 6.00  31.81 2734.68
   16:46:31.398.18-Jul-2021 4545.00 6474.60 75.03 6.00  32.01 2734.68
   16:46:31.598.18-Jul-2021 4545.00 6474.60 75.03 6.00  32.21 2734.68
   16:46:31.798.18-Jul-2021 4545.00 6398.78 75.03 6.00  32.41 2734.68
   16:46:31.998.18-Jul-2021 4545.00 6349.67 75.03 6.00  32.61 2734.68
   16:46:32.198.18-Jul-2021 4545.00 6297.87 75.03 6.00  32.81 2734.68
   16:46:32.398.18-Jul-2021 4545.00 6252.25 75.03 6.00  33.01 2734.68
   16:46:32.598.18-Jul-2021 4545.00 6252.25 75.03 6.00  33.21 2734.68
   16:46:32.798.18-Jul-2021 4545.00 6193.83 75.03 6.00  33.41 2734.68
   16:46:32.998.18-Jul-2021 4545.00 6177.21 75.03 6.00  33.61 2734.68
   16:46:33.198.18-Jul-2021 4545.00 6166.11 75.03 6.00  33.81 2734.68
   16:46:33.399.18-Jul-2021 4545.00 6158.67 75.03 6.00  34.01 2734.68
   16:46:33.599.18-Jul-2021 4545.00 6158.67 75.03 6.00  34.21 2734.68
   16:46:33.799.18-Jul-2021 4545.00 6147.54 75.03 6.00  34.41 2734.68
   16:46:33.999.18-Jul-2021 4545.00 6144.37 75.03 6.00  34.61 2734.68
   16:46:34.199.18-Jul-2021 4545.00 6141.47 75.03 6.00  34.81 2734.68
   16:46:34.399.18-Jul-2021 4545.00 6139.50 75.03 6.00  35.01 2734.68
   16:46:34.599.18-Jul-2021 4545.00 6139.50 75.03 6.00  35.21 2734.68
   16:46:34.799.18-Jul-2021 4545.00 6139.50 75.03 6.00  35.41 2734.68
   16:46:34.999.18-Jul-2021 4545.00 6122.42 75.03 6.00  35.61 2734.68
   16:46:35.199.18-Jul-2021 4545.00 6118.24 75.03 6.00  35.81 2734.68
   16:46:35.399.18-Jul-2021 4545.00 6113.21 75.03 6.00  36.01 2734.68
   16:46:35.599.18-Jul-2021 4545.00 6113.21 75.03 6.00  36.21 2734.68
   16:46:35.799.18-Jul-2021 4545.00 6104.24 75.03 6.00  36.41 2734.68
   16:46:35.999.18-Jul-2021 4545.00 6100.55 75.03 6.00  36.61 2734.68
   16:46:36.200.18-Jul-2021 4545.00 6096.87 75.03 6.00  36.81 2734.68
   16:46:36.400.18-Jul-2021 4545.00 6095.15 75.02 6.00  37.01 2734.68
   16:46:36.600.18-Jul-2021 4545.00 6095.15 75.02 6.00  37.21 2734.68
   16:46:36.800.18-Jul-2021 4545.00 6087.06 75.02 6.00  37.41 2734.68
   16:46:37.000.18-Jul-2021 4545.00 6084.02 75.02 6.00  37.61 2734.68
   16:46:37.200.18-Jul-2021 4545.00 6080.00 75.02 6.00  37.81 2734.68
   16:46:37.400.18-Jul-2021 4545.00 6074.82 75.02 6.00  38.01 2734.68
   16:46:37.600.18-Jul-2021 4545.00 6074.82 75.02 6.00  38.21 2734.68
   16:46:37.800.18-Jul-2021 4545.00 6059.87 75.02 6.00  38.41 2734.68
   16:46:38.000.18-Jul-2021 4545.00 6055.56 75.02 6.00  38.61 2734.68
   16:46:38.200.18-Jul-2021 4545.00 6049.84 75.02 6.00  38.81 2734.68
   16:46:38.400.18-Jul-2021 4545.00 6041.13 75.02 6.00  39.01 2734.68
   16:46:38.600.18-Jul-2021 4545.00 6041.13 75.02 6.00  39.21 2734.68
   16:46:38.801.18-Jul-2021 4545.00 6029.61 75.02 6.00  39.41 2734.68
   16:46:39.001.18-Jul-2021 4545.00 6024.06 75.02 6.00  39.61 2734.68
   16:46:39.201.18-Jul-2021 4545.00 6018.47 75.02 6.00  39.81 2734.68
   16:46:39.401.18-Jul-2021 4545.00 6010.34 75.02 6.00  40.01 2734.68
   16:46:39.601.18-Jul-2021 4545.00 6010.34 75.02 6.00  40.21 2734.68
   16:46:39.801.18-Jul-2021 4545.00 6000.58 75.02 6.00  40.41 2734.68
   16:46:40.001.18-Jul-2021 4545.00 5996.92 75.02 6.00  40.61 2734.68
   16:46:40.201.18-Jul-2021 4545.00 5990.24 75.02 6.00  40.82 2734.68
   16:46:40.401.18-Jul-2021 4545.00 5985.62 75.02 6.00  41.02 2734.68
   16:46:40.601.18-Jul-2021 4545.00 5985.62 75.02 6.00  41.22 2734.68
   16:46:40.801.18-Jul-2021 4545.00 5971.06 75.02 6.00  41.42 2734.68
   16:46:41.001.18-Jul-2021 4545.00 5966.89 75.02 6.00  41.62 2734.68
   16:46:41.201.18-Jul-2021 4545.00 5963.26 75.02 6.00  41.82 2734.68
   16:46:41.401.18-Jul-2021 4545.00 5960.27 75.02 6.00  42.02 2734.68
   16:46:41.602.18-Jul-2021 4545.00 5960.27 75.02 6.00  42.22 2734.68
   16:46:41.802.18-Jul-2021 4545.00 5953.07 75.02 6.00  42.42 2734.68
   16:46:42.002.18-Jul-2021 4545.00 5952.48 75.01 6.00  42.62 2734.68
   16:46:42.202.18-Jul-2021 4545.00 5953.04 75.01 6.00  42.82 2734.68
   16:46:42.402.18-Jul-2021 4545.00 5952.90 75.01 6.00  43.02 2734.68
   16:46:42.602.18-Jul-2021 4545.00 5952.90 75.01 6.00  43.22 2734.68
   16:46:42.802.18-Jul-2021 4545.00 5953.29 75.01 6.00  43.42 2734.68
   16:46:43.002.18-Jul-2021 4545.00 5953.21 75.01 6.00  43.62 2734.68
   16:46:43.202.18-Jul-2021 4545.00 5952.95 75.01 6.00  43.82 2734.68
   16:46:43.402.18-Jul-2021 4545.00 5952.96 75.01 6.00  44.02 2734.68
   16:46:43.602.18-Jul-2021 4545.00 5952.96 75.01 6.00  44.22 2734.68
   16:46:43.802.18-Jul-2021 4545.00 5953.06 75.01 6.00  44.42 2734.68
   16:46:44.002.18-Jul-2021 4545.00 5953.05 75.01 6.00  44.62 2734.68
   16:46:44.202.18-Jul-2021 4545.00 5952.65 75.01 6.00  44.82 2734.68
   16:46:44.403.18-Jul-2021 4545.00 5950.20 75.01 6.00  45.02 2734.68
   16:46:44.603.18-Jul-2021 4545.00 5950.20 75.01 6.00  45.22 2734.68
   16:46:44.803.18-Jul-2021 4545.00 5948.81 75.01 6.00  45.42 2734.68
   16:46:45.003.18-Jul-2021 4545.00 5949.15 75.01 6.00  45.62 2734.68
   16:46:45.203.18-Jul-2021 4545.00 5948.64 75.01 6.00  45.82 2734.68
