~Version Information
 VERS.                  2.0:   CWLS log ASCII Standard -VERSION 2.0
 WRAP.                   NO:   One line per depth step
~Well Information Block
#MNEM.UNIT     VALUE/NAME     DESCRIPTION
#---------     -----------    ---------------------------
 STRT.S             08:29:33 19-Jul-21: START TIME 08:29:33 19-Jul-21
 STOP.S             08:36:27 19-Jul-21: STOP TIME  08:36:27 19-Jul-21
 STEP.S                   0.00: STEP TIME
 NULL.                 -999.25: NULL VALUE
 MDS .        Operator Entered:  MAG DATA SOURCE
 PDAT.          Mean Sea Level:  PERMANENT DATUM
 UNIT.                     N/A:  LOGGING EQUIPMENT ID
 DCON.         Sperry Drilling:  DIRECTNL CONTR
 DOE .                     N/A:  DOE NUMBER
 RIG .              West Azeri:  RIG NAME
 JOBN.        AZ-XX-0906997913:  JOB TICKET NUMB
 WELL.                     C41:  WELL NAME
 MWDS.                    Baku:  MWD SHOP
 SRVC.          Turan Drilling:  CONTRACTOR
 FLD .                     ACG:  FIELD NAME
 CTRY.              Azerbaijan:  COUNTRY NAME
 PROV.                    Baku:  PROVINCE
 STAT.                    Baku:  STATE NAME
 REGN.                   EESSA:  REGION
 BASE.              Azerbaijan:  LOGGING EQUIPMENT BASE LOCATION
 UWI .                     N/A:  UNIQUE WELL IDENTIFIER
 API .                     N/A:  API NUMBER
 COMP.     BP Exploration (Caspian Sea) Ltd.:  COMPANY
 WTYP.                Deviated:  WELL TYPE
 SON .        AZ-XX-0906997913:  JOB NUMBER
 FTOP.          Formation Tops:  FORM TOPS DESC
 ILTD.               Lithology:  INTERP LTH DESC
 SVYD.                  Survey:  SURVEY DESC
 DMOD.             Drill Model:  DRILL MOD DESC
 HPTY.       Minimum Curvature:  HOLE POS TYPE
 NREF.                    Grid:  NORTH REFERENCE
 SPUD.               16-May-21:  SPUD DATE
 DATE.      21.11.28 17-May-21:  END TIME
 STIM.      21.11.28 17-May-21:  START TIME
 DMF .             Drill Floor:  DRILL MEAS FROM
 DFST.                        :  DIST FSL TEXT
 DFWT.                        :  DIST FWL TEXT
 CNTY.                        :  COUNTY
 LOC .                        :  LOCATION
 LMF .             Drill Floor:  LOG MEASURED FROM
 AGAP.m                  43.42:  AIR GAP
 VSNS.m                  -2.16:  VERT SEC N/S
 VSEW.m                  -6.24:  VERT SEC E/W
 APD .m                  43.42:  DEPTH ABOVE PD
 WDMS.m                 118.27:  WD ELEV
 EGL .m                   0.00:  GROUND ELEVATION
 EPD .m                   0.00:  ELEVATION
 AZTC.deg                 6.29:  AZM TOTAL CORR
 GRDC.deg                 0.18:  GRID CORRECTION
 MDEC.deg                 6.47:  MAGNETIC DECL
 MDIP.deg                59.54:  MAGNETIC DIP
 MFLD.nT              50337.00:  MAGNETIC FIELD
 GVFD.g                   1.00:  GRAVITY FIELD
 VSDR.deg               226.99:  VERT SEC DIRECT
 TDD .m                   0.00:  TOTAL DEPTH (DRILLER)
 SDEP.m                 448.00:  START DEPTH
 DFSL.m                   0.00:  DISTANCE FSL
 DFWL.m                   0.00:  DISTANCE FWL
 UTMY.m             4435799.96:  UTM Y
 UTMX.m              526265.35:  UTM X
 WHEW.m                  -6.24:  WELL HEAD E/W
 WHNS.m                  -2.16:  WELL HEAD N/S
 LONG.deg                51.31:  LONGITUDE
 LATI.deg                40.06:  LATITUDE
 TVDS.m                  43.42:  TVDSS CORRECTN
 EKB .m                  43.42:  KB ELEVATION
 EDF .m                  43.42:  DF ELEVATION
 TDL .m                 288.00:  TOTAL DEPTH (LOGGER)
 MAGU.                 1851863:  MAGUTM CHECKSUM
 VSC .                       0:  VS TO CLOSURE
~Parameter Information Block
#MNEM.UNIT       Value        Description
#---------     -----------    ---------------------------
 AV  .mps                 0.40:  Ann Velocity 
 AVMX.mps                 0.63:  Max Ann Veloc 
 AZIF.deg               158.76:  Azm, Final 
 BHAT.        Rotary Steerable:  BHA Type 
 BROT.°/30m               0.68:  Build Rotating 
 BS  .in                  8.50:  Bit Size 
 BSZ .in                  8.50:  Bit Size 
 BTPL.psig              712.00:  Bit Press Loss 
 CABU.                      No:  Customer Abuse 
 COMM.                     ìk:  Run Comments 1 
 TCS .hr                 90.66:  Time Ciculation Ended 
 CV  .mps                 2.02:  Crit Velocity 
 CVMX.mps                 2.14:  Max Crit Veloc 
 DD1 .            Aziz Aliyevu:  Direct Drillr 1 
 DD2 .             Samir Abbas:  Direct Drillr 2 
 DD3 .           Teymur Aliyev:  Direct Drillr 3 
 DDSV.                 iCruise:  DD Service 
 DEFF.%                  85.10:  % Det Eff 
 DLRX.°/30m               1.05:  Dogleg Rot Max 
 DLSO.°/30m               1.01:  Dogleg Oriented 
 DLSX.°/30m               1.05:  Dogleg Str Max 
 DRET.      07.45.00 18-Jul-21:  Drill End Time 
 DRST.      15.00.00 16-Jul-21:  Drill Start Tim 
 DTIM.hr                 23.46:  Time Drilling 
 EDEP.m                4603.00:  End Depth 
 ENG1.       Seymur Iskandarov:  Engineer 1 
 ENG2.         Yevgeniy Ulikov:  Engineer 2 
 ENG3.         Bahruz Mehdiyev:  Engineer 3 
 ENG4.         Elchin Mammadov:  Engineer 4 
 ETIM.      14.00.00 23-Jul-21:  End Time 
 FLOI.gpm               500.00:  Flow In 
 FLON.gpm               450.00:  Flow In Min 
 FLOS.cptm                0.00:  Fluid Loss 
 FLOX.gpm               560.00:  Flow In Max 
 DFT .        Mineral Oil Base:  Mud Type 
 FTRO.       Formation Presure:  FTWD Run Obj 
 HFLO.                      No:  High Flow 
 HPRE.                      No:  High Pressure 
 HTEM.                      No:  High Temp 
 HYDO.m                   1.80:  Hydro Offset 
 IFIN.deg                40.22:  Inc, Final 
 IMAX.deg                40.54:  Inc Max 
 IMIN.deg                39.44:  Inc Min 
 IMND.m                4361.17:  Inc Min Depth 
 IMXD.m                4417.92:  Inc Max Depth 
 JARR.                      No:  Jarring 
 LETM.      07.45.00 18-Jul-21:  Log End Time 
 LOST.hr                    16:  Lost Rig Time 
 LSTM.      15.00.00 16-Jul-21:  Log Start Time 
 MDCL.ppm             36500.00:  Mud Chlorides 
 MDES.     Inversion Oil/Synthetic:  Mud Desc 
 DFD .sg                  1.42:  Mud Density 
 MDMN.sg                  1.42:  Dens Mud Min 
 MDMX.sg                  1.43:  Dens Mud Max 
 MOIL.                      56:  Run Mud Oil % 
 MOWR.                   71:29:  Run Mud OWR 
 MSND.                     0.5:  Run Mud Sand % 
 MSOL.                      21:  Run Mud Solids% 
 DFV .spqt               78.00:  Mud Viscosity 
 MWOD.in                  6.75:  MWD Tool OD 
 MWSI.                     Yes:  Serv Intrp, MWD 
 OTIM.hr                200.73:  Time Operating 
 PCON.           Look Like New:  Pad Condition 
 PMAX.psia            11069.93:  Press Op, Max 
 PV  .cP                 32.00:  Mud PV 
 RUN .                     700:  Run Number 
 ROPA.m/hr               10.00:  ROP Avg 
 ROPN.m/hr                9.00:  ROP Min 
 ROPX.m/hr               16.00:  ROP Max 
 RPMA.rpm               116.00:  RPM Surface Avg 
 RPMN.rpm                80.00:  RPM Surface Min 
 RPMX.rpm               120.00:  RPM Surface Max 
 RRUN.                    L605:  Rig Run Number 
 RTIM.hr                 45.00:  Time Reaming 
 SAZI.deg               159.86:  Azm, Start 
 SDEP.m                4315.00:  Start Depth 
 SIDD.                      No:  Serv Intrp, DD 
 SINC.deg                39.86:  Inc, Start 
 SPPA.psig             3300.00:  SPP Avg 
 SPPN.psig             3040.00:  SPP Min 
 SPPX.psig             3645.00:  SPP Max 
 STIM.      01.00.00 15-Jul-21:  Start Time 
 SVCS.                 DD, MWD:  Services 
 SVER.                    9.20:  Sperry Version 
 TDAT.m                 288.00:  Tot Depth Attmp 
 TDDF.                      No:  Trip for DD 
 TDLG.m                 288.00:  Tot Depth Loggd 
 TFF .                      No:  Trip for Fail 
 TQAA.f-kp               19.00:  Torque Abs Avg 
 TQAN.f-kp               18.00:  Torque Abs Min 
 TQAX.f-kp               21.00:  Torque Abs Max 
 TRRT.°/30m               0.45:  Turn Rotating 
 MRT .                    HCIM:  Maximum Recorded Temperature 
 TTMX.degC               88.24:  Max Tool Temp 
 VS01.                90649157:  Virtual Str1 SN 
 VS02.                90652483:  Virtual Str2 SN 
 VS03.                11671987:  Virtual Str3 SN 
 VS04.                90643411:  Virtual Str4 SN 
 VS05.                90652478:  Virtual Str5 SN 
 VS06.                    6111:  Virtual Str6 SN 
 WBMN.klb                 9.50:  WOB Min 
 WITN.        Grigoriy Sarayev:  Customer Rep 
 WITN.          Rufat Huseynov:  Customer Rep 2 
 WOBA.klb                11.00:  WOB Avg 
 WOBX.klb                15.00:  WOB Max 
 YP  .lhf2               28.00:  Yield Point 
~Curve Information Block
#MNEM.UNIT                 API CODE     Curve Description
#---------               -----------    ---------------------------
 TIME.HHMMSS            00 000 000 000:  GT Time & Date
 GTDEPTH.m              00 000 000 000:  GT Depth
 GTPQH.psia             00 000 000 000:  GT HR Quartz Pressure
 GTTQ.degC              00 000 000 000:  GT Quartz Temperature
 GTTN.NONE              00 000 000 000:  GT Test Number
 GTET.sec               00 000 000 000:  GT Elapsed Test Time
 GTTVD.m                00 000 000 000:  GT True Vertical Depth
#Other Information
#
#WARRANTY: Halliburton will use its best efforts to furnish customers with 
#accurate information and interpretations that are part of, and incident to, the services 
#provided.  However, Halliburton cannot and does not warrant the accuracy 
#or correctness of such information and interpretations.  Under no circumstances should any 
#such information or interpretation be relied upon as the sole basis for any drilling, 
#completion, production, or financial decision or any procedure involving any risk to the 
#safety of any drilling venture, drilling rig or its crew or any other third party.  The 
#Customer has full responsibility for all drilling, completion and production operation.  
#Halliburton makes no representations or warranties, either expressed or 
#implied, including, but not limited to, the implied warranties of merchantability or fitness 
#for a particular purpose, with respect to the services rendered.  In no event will 
#Halliburton be liable for failure to obtain any particular results or for 
#any damages, including, but not limited to, indirect, special or consequential damages, 
#resulting from the use of any information or interpretation provided by Halliburton.
#
~A           TIME           GTDEPTH  GTPQH  GTTQ  GTTN   GTET   GTTVD  
# ...
   08:29:55.840.19-Jul-2021 4431.00 6405.41 70.28 18.00  22.61 2647.54
   08:29:56.040.19-Jul-2021 4431.00 6405.98 70.28 18.00  22.81 2647.54
   08:29:56.240.19-Jul-2021 4431.00 6404.39 70.28 18.00  23.01 2647.54
   08:29:56.440.19-Jul-2021 4431.00 6404.39 70.28 18.00  23.21 2647.54
   08:29:56.640.19-Jul-2021 4431.00 6402.50 70.28 18.00  23.41 2647.54
   08:29:56.840.19-Jul-2021 4431.00 6401.37 70.28 18.00  23.61 2647.54
   08:29:57.041.19-Jul-2021 4431.00 6400.76 70.28 18.00  23.81 2647.54
   08:29:57.241.19-Jul-2021 4431.00 6401.94 70.28 18.00  24.01 2647.54
   08:29:57.441.19-Jul-2021 4431.00 6401.94 70.28 18.00  24.21 2647.54
   08:29:57.641.19-Jul-2021 4431.00 6401.84 70.28 18.00  24.41 2647.54
   08:29:57.841.19-Jul-2021 4431.00 6400.42 70.28 18.00  24.61 2647.54
   08:29:58.041.19-Jul-2021 4431.00 6401.64 70.28 18.00  24.81 2647.54
   08:29:58.241.19-Jul-2021 4431.00 6414.73 70.28 18.00  25.01 2647.54
   08:29:58.441.19-Jul-2021 4431.00 6414.73 70.28 18.00  25.21 2647.54
   08:29:58.641.19-Jul-2021 4431.00 6404.90 70.28 18.00  25.41 2647.54
   08:29:58.841.19-Jul-2021 4431.00 6407.80 70.28 18.00  25.61 2647.54
   08:29:59.041.19-Jul-2021 4431.00 6405.12 70.28 18.00  25.81 2647.54
   08:29:59.241.19-Jul-2021 4431.00 6403.00 70.28 18.00  26.01 2647.54
   08:29:59.441.19-Jul-2021 4431.00 6403.00 70.28 18.00  26.21 2647.54
   08:29:59.641.19-Jul-2021 4431.00 6404.22 70.28 18.00  26.41 2647.54
   08:29:59.842.19-Jul-2021 4431.00 6404.16 70.28 18.00  26.61 2647.54
   08:30:00.042.19-Jul-2021 4431.00 6404.79 70.28 18.00  26.81 2647.54
   08:30:00.242.19-Jul-2021 4431.00 6404.30 70.28 18.00  27.01 2647.54
   08:30:00.442.19-Jul-2021 4431.00 6404.30 70.28 18.00  27.21 2647.54
   08:30:00.642.19-Jul-2021 4431.00 6404.91 70.28 18.00  27.41 2647.54
   08:30:00.842.19-Jul-2021 4431.00 6416.58 70.28 18.00  27.61 2647.54
   08:30:01.042.19-Jul-2021 4431.00 6406.83 70.28 18.00  27.81 2647.54
   08:30:01.242.19-Jul-2021 4431.00 6416.62 70.28 18.00  28.01 2647.54
   08:30:01.442.19-Jul-2021 4431.00 6416.62 70.28 18.00  28.21 2647.54
   08:30:01.642.19-Jul-2021 4431.00 6412.52 70.28 18.00  28.41 2647.54
   08:30:01.842.19-Jul-2021 4431.00 6407.18 70.28 18.00  28.61 2647.54
   08:30:02.042.19-Jul-2021 4431.00 6409.39 70.28 18.00  28.81 2647.54
   08:30:02.242.19-Jul-2021 4431.00 6406.89 70.28 18.00  29.01 2647.54
   08:30:02.443.19-Jul-2021 4431.00 6406.89 70.28 18.00  29.21 2647.54
   08:30:02.643.19-Jul-2021 4431.00 6407.20 70.28 18.00  29.41 2647.54
   08:30:02.843.19-Jul-2021 4431.00 6410.69 70.28 18.00  29.61 2647.54
   08:30:03.043.19-Jul-2021 4431.00 6410.24 70.28 18.00  29.81 2647.54
   08:30:03.243.19-Jul-2021 4431.00 6406.74 70.28 18.00  30.01 2647.54
   08:30:03.443.19-Jul-2021 4431.00 6406.74 70.28 18.00  30.21 2647.54
   08:30:03.643.19-Jul-2021 4431.00 6452.74 70.28 18.00  30.41 2647.54
   08:30:03.843.19-Jul-2021 4431.00 6459.45 70.28 18.00  30.61 2647.54
   08:30:04.043.19-Jul-2021 4431.00 6458.61 70.28 18.00  30.81 2647.54
   08:30:04.243.19-Jul-2021 4431.00 6455.36 70.28 18.00  31.01 2647.54
   08:30:04.443.19-Jul-2021 4431.00 6455.36 70.28 18.00  31.21 2647.54
   08:30:04.643.19-Jul-2021 4431.00 6459.84 70.28 18.00  31.41 2647.54
   08:30:04.843.19-Jul-2021 4431.00 6453.90 70.28 18.00  31.61 2647.54
   08:30:05.043.19-Jul-2021 4431.00 6442.17 70.28 18.00  31.81 2647.54
   08:30:05.244.19-Jul-2021 4431.00 6413.13 70.28 18.00  32.01 2647.54
   08:30:05.444.19-Jul-2021 4431.00 6413.13 70.28 18.00  32.21 2647.54
   08:30:05.644.19-Jul-2021 4431.00 6378.54 70.28 18.00  32.41 2647.54
   08:30:05.844.19-Jul-2021 4431.00 6369.75 70.28 18.00  32.61 2647.54
   08:30:06.044.19-Jul-2021 4431.00 6364.56 70.28 18.00  32.81 2647.54
   08:30:06.244.19-Jul-2021 4431.00 6360.56 70.28 18.00  33.01 2647.54
   08:30:06.444.19-Jul-2021 4431.00 6360.56 70.28 18.00  33.21 2647.54
   08:30:06.644.19-Jul-2021 4431.00 6354.92 70.28 18.00  33.41 2647.54
   08:30:06.844.19-Jul-2021 4431.00 6353.27 70.28 18.00  33.61 2647.54
   08:30:07.044.19-Jul-2021 4431.00 6352.08 70.28 18.00  33.81 2647.54
   08:30:07.244.19-Jul-2021 4431.00 6353.37 70.28 18.00  34.01 2647.54
   08:30:07.444.19-Jul-2021 4431.00 6353.37 70.28 18.00  34.21 2647.54
   08:30:07.644.19-Jul-2021 4431.00 6345.05 70.28 18.00  34.41 2647.54
   08:30:07.845.19-Jul-2021 4431.00 6343.10 70.28 18.00  34.61 2647.54
   08:30:08.045.19-Jul-2021 4431.00 6341.23 70.28 18.00  34.81 2647.54
   08:30:08.245.19-Jul-2021 4431.00 6340.20 70.28 18.00  35.01 2647.54
   08:30:08.445.19-Jul-2021 4431.00 6340.20 70.28 18.00  35.21 2647.54
   08:30:08.645.19-Jul-2021 4431.00 6338.75 70.28 18.00  35.41 2647.54
   08:30:08.845.19-Jul-2021 4431.00 6338.01 70.28 18.00  35.61 2647.54
   08:30:09.045.19-Jul-2021 4431.00 6337.11 70.28 18.00  35.81 2647.54
   08:30:09.245.19-Jul-2021 4431.00 6336.24 70.28 18.00  36.01 2647.54
   08:30:09.445.19-Jul-2021 4431.00 6336.24 70.28 18.00  36.21 2647.54
   08:30:09.645.19-Jul-2021 4431.00 6343.01 70.28 18.00  36.41 2647.54
   08:30:09.845.19-Jul-2021 4431.00 5949.69 70.28 18.00  36.61 2647.54
   08:30:10.045.19-Jul-2021 4431.00 4987.22 70.28 18.00  36.81 2647.54
   08:30:10.245.19-Jul-2021 4431.00 3992.60 70.28 18.00  37.01 2647.54
   08:30:10.445.19-Jul-2021 4431.00 3992.60 70.28 18.00  37.21 2647.54
   08:30:10.646.19-Jul-2021 4431.00 3564.77 70.28 18.00  37.41 2647.54
   08:30:10.846.19-Jul-2021 4431.00 3566.00 70.28 18.00  37.61 2647.54
   08:30:11.046.19-Jul-2021 4431.00 3564.69 70.28 18.00  37.81 2647.54
   08:30:11.246.19-Jul-2021 4431.00 3564.66 70.28 18.00  38.01 2647.54
   08:30:11.446.19-Jul-2021 4431.00 3564.66 70.28 18.00  38.21 2647.54
   08:30:11.646.19-Jul-2021 4431.00 3562.50 70.27 18.00  38.41 2647.54
   08:30:11.846.19-Jul-2021 4431.00 3562.30 70.27 18.00  38.61 2647.54
   08:30:12.046.19-Jul-2021 4431.00 3561.82 70.27 18.00  38.81 2647.54
   08:30:12.246.19-Jul-2021 4431.00 3562.06 70.27 18.00  39.01 2647.54
   08:30:12.446.19-Jul-2021 4431.00 3562.06 70.27 18.00  39.21 2647.54
   08:30:12.646.19-Jul-2021 4431.00 3562.84 70.27 18.00  39.41 2647.54
   08:30:12.846.19-Jul-2021 4431.00 3560.88 70.26 18.00  39.61 2647.54
   08:30:13.046.19-Jul-2021 4431.00 3561.48 70.26 18.00  39.81 2647.54
   08:30:13.246.19-Jul-2021 4431.00 3561.34 70.26 18.00  40.01 2647.54
   08:30:13.447.19-Jul-2021 4431.00 3561.34 70.26 18.00  40.21 2647.54
   08:30:13.647.19-Jul-2021 4431.00 3560.95 70.26 18.00  40.41 2647.54
   08:30:13.847.19-Jul-2021 4431.00 3560.47 70.26 18.00  40.61 2647.54
   08:30:14.047.19-Jul-2021 4431.00 3560.77 70.25 18.00  40.82 2647.54
   08:30:14.247.19-Jul-2021 4431.00 3560.62 70.25 18.00  41.02 2647.54
   08:30:14.447.19-Jul-2021 4431.00 3560.62 70.25 18.00  41.22 2647.54
   08:30:14.647.19-Jul-2021 4431.00 3560.42 70.25 18.00  41.42 2647.54
   08:30:14.847.19-Jul-2021 4431.00 3560.22 70.25 18.00  41.62 2647.54
   08:30:15.047.19-Jul-2021 4431.00 3560.31 70.25 18.00  41.82 2647.54
   08:30:15.247.19-Jul-2021 4431.00 3560.24 70.24 18.00  42.02 2647.54
   08:30:15.447.19-Jul-2021 4431.00 3560.24 70.24 18.00  42.22 2647.54
   08:30:15.647.19-Jul-2021 4431.00 3560.26 70.24 18.00  42.42 2647.54
   08:30:15.847.19-Jul-2021 4431.00 3559.99 70.24 18.00  42.62 2647.54
   08:30:16.048.19-Jul-2021 4431.00 3560.33 70.24 18.00  42.82 2647.54
   08:30:16.248.19-Jul-2021 4431.00 3560.08 70.24 18.00  43.02 2647.54
   08:30:16.448.19-Jul-2021 4431.00 3560.08 70.24 18.00  43.22 2647.54
   08:30:16.648.19-Jul-2021 4431.00 3560.11 70.24 18.00  43.42 2647.54
   08:30:16.848.19-Jul-2021 4431.00 3560.10 70.23 18.00  43.62 2647.54
   08:30:17.048.19-Jul-2021 4431.00 3560.12 70.23 18.00  43.82 2647.54
   08:30:17.248.19-Jul-2021 4431.00 3560.23 70.23 18.00  44.02 2647.54
   08:30:17.448.19-Jul-2021 4431.00 3560.23 70.23 18.00  44.22 2647.54
   08:30:17.648.19-Jul-2021 4431.00 3560.06 70.23 18.00  44.42 2647.54
   08:30:17.848.19-Jul-2021 4431.00 3560.25 70.23 18.00  44.62 2647.54
   08:30:18.048.19-Jul-2021 4431.00 3560.42 70.23 18.00  44.82 2647.54
   08:30:18.248.19-Jul-2021 4431.00 3559.86 70.23 18.00  45.02 2647.54
