~Version Information
 VERS.                  2.0:   CWLS log ASCII Standard -VERSION 2.0
 WRAP.                   NO:   One line per depth step
~Well Information Block
#MNEM.UNIT     VALUE/NAME     DESCRIPTION
#---------     -----------    ---------------------------
 STRT.S             23:00:58 18-Jul-21: START TIME 23:00:58 18-Jul-21
 STOP.S             23:07:34 18-Jul-21: STOP TIME  23:07:34 18-Jul-21
 STEP.S                   0.00: STEP TIME
 NULL.                 -999.25: NULL VALUE
 MDS .        Operator Entered:  MAG DATA SOURCE
 PDAT.          Mean Sea Level:  PERMANENT DATUM
 UNIT.                     N/A:  LOGGING EQUIPMENT ID
 DCON.         Sperry Drilling:  DIRECTNL CONTR
 DOE .                     N/A:  DOE NUMBER
 RIG .              West Azeri:  RIG NAME
 JOBN.        AZ-XX-0906997913:  JOB TICKET NUMB
 WELL.                     C41:  WELL NAME
 MWDS.                    Baku:  MWD SHOP
 SRVC.          Turan Drilling:  CONTRACTOR
 FLD .                     ACG:  FIELD NAME
 CTRY.              Azerbaijan:  COUNTRY NAME
 PROV.                    Baku:  PROVINCE
 STAT.                    Baku:  STATE NAME
 REGN.                   EESSA:  REGION
 BASE.              Azerbaijan:  LOGGING EQUIPMENT BASE LOCATION
 UWI .                     N/A:  UNIQUE WELL IDENTIFIER
 API .                     N/A:  API NUMBER
 COMP.     BP Exploration (Caspian Sea) Ltd.:  COMPANY
 WTYP.                Deviated:  WELL TYPE
 SON .        AZ-XX-0906997913:  JOB NUMBER
 FTOP.          Formation Tops:  FORM TOPS DESC
 ILTD.               Lithology:  INTERP LTH DESC
 SVYD.                  Survey:  SURVEY DESC
 DMOD.             Drill Model:  DRILL MOD DESC
 HPTY.       Minimum Curvature:  HOLE POS TYPE
 NREF.                    Grid:  NORTH REFERENCE
 SPUD.               16-May-21:  SPUD DATE
 DATE.      21.11.28 17-May-21:  END TIME
 STIM.      21.11.28 17-May-21:  START TIME
 DMF .             Drill Floor:  DRILL MEAS FROM
 DFST.                        :  DIST FSL TEXT
 DFWT.                        :  DIST FWL TEXT
 CNTY.                        :  COUNTY
 LOC .                        :  LOCATION
 LMF .             Drill Floor:  LOG MEASURED FROM
 AGAP.m                  43.42:  AIR GAP
 VSNS.m                  -2.16:  VERT SEC N/S
 VSEW.m                  -6.24:  VERT SEC E/W
 APD .m                  43.42:  DEPTH ABOVE PD
 WDMS.m                 118.27:  WD ELEV
 EGL .m                   0.00:  GROUND ELEVATION
 EPD .m                   0.00:  ELEVATION
 AZTC.deg                 6.29:  AZM TOTAL CORR
 GRDC.deg                 0.18:  GRID CORRECTION
 MDEC.deg                 6.47:  MAGNETIC DECL
 MDIP.deg                59.54:  MAGNETIC DIP
 MFLD.nT              50337.00:  MAGNETIC FIELD
 GVFD.g                   1.00:  GRAVITY FIELD
 VSDR.deg               226.99:  VERT SEC DIRECT
 TDD .m                   0.00:  TOTAL DEPTH (DRILLER)
 SDEP.m                 448.00:  START DEPTH
 DFSL.m                   0.00:  DISTANCE FSL
 DFWL.m                   0.00:  DISTANCE FWL
 UTMY.m             4435799.96:  UTM Y
 UTMX.m              526265.35:  UTM X
 WHEW.m                  -6.24:  WELL HEAD E/W
 WHNS.m                  -2.16:  WELL HEAD N/S
 LONG.deg                51.31:  LONGITUDE
 LATI.deg                40.06:  LATITUDE
 TVDS.m                  43.42:  TVDSS CORRECTN
 EKB .m                  43.42:  KB ELEVATION
 EDF .m                  43.42:  DF ELEVATION
 TDL .m                 288.00:  TOTAL DEPTH (LOGGER)
 MAGU.                 1851863:  MAGUTM CHECKSUM
 VSC .                       0:  VS TO CLOSURE
~Parameter Information Block
#MNEM.UNIT       Value        Description
#---------     -----------    ---------------------------
 AV  .mps                 0.40:  Ann Velocity 
 AVMX.mps                 0.63:  Max Ann Veloc 
 AZIF.deg               158.76:  Azm, Final 
 BHAT.        Rotary Steerable:  BHA Type 
 BROT.°/30m               0.68:  Build Rotating 
 BS  .in                  8.50:  Bit Size 
 BSZ .in                  8.50:  Bit Size 
 BTPL.psig              712.00:  Bit Press Loss 
 CABU.                      No:  Customer Abuse 
 COMM.                     ¼2`:  Run Comments 1 
 TCS .hr                 90.66:  Time Ciculation Ended 
 CV  .mps                 2.02:  Crit Velocity 
 CVMX.mps                 2.14:  Max Crit Veloc 
 DD1 .            Aziz Aliyevu:  Direct Drillr 1 
 DD2 .             Samir Abbas:  Direct Drillr 2 
 DD3 .           Teymur Aliyev:  Direct Drillr 3 
 DDSV.                 iCruise:  DD Service 
 DEFF.%                  85.10:  % Det Eff 
 DLRX.°/30m               1.05:  Dogleg Rot Max 
 DLSO.°/30m               1.01:  Dogleg Oriented 
 DLSX.°/30m               1.05:  Dogleg Str Max 
 DRET.      07.45.00 18-Jul-21:  Drill End Time 
 DRST.      15.00.00 16-Jul-21:  Drill Start Tim 
 DTIM.hr                 23.46:  Time Drilling 
 EDEP.m                4603.00:  End Depth 
 ENG1.       Seymur Iskandarov:  Engineer 1 
 ENG2.         Yevgeniy Ulikov:  Engineer 2 
 ENG3.         Bahruz Mehdiyev:  Engineer 3 
 ENG4.         Elchin Mammadov:  Engineer 4 
 ETIM.      14.00.00 23-Jul-21:  End Time 
 FLOI.gpm               500.00:  Flow In 
 FLON.gpm               450.00:  Flow In Min 
 FLOS.cptm                0.00:  Fluid Loss 
 FLOX.gpm               560.00:  Flow In Max 
 DFT .        Mineral Oil Base:  Mud Type 
 FTRO.       Formation Presure:  FTWD Run Obj 
 HFLO.                      No:  High Flow 
 HPRE.                      No:  High Pressure 
 HTEM.                      No:  High Temp 
 HYDO.m                   1.80:  Hydro Offset 
 IFIN.deg                40.22:  Inc, Final 
 IMAX.deg                40.54:  Inc Max 
 IMIN.deg                39.44:  Inc Min 
 IMND.m                4361.17:  Inc Min Depth 
 IMXD.m                4417.92:  Inc Max Depth 
 JARR.                      No:  Jarring 
 LETM.      07.45.00 18-Jul-21:  Log End Time 
 LOST.hr                    16:  Lost Rig Time 
 LSTM.      15.00.00 16-Jul-21:  Log Start Time 
 MDCL.ppm             36500.00:  Mud Chlorides 
 MDES.     Inversion Oil/Synthetic:  Mud Desc 
 DFD .sg                  1.42:  Mud Density 
 MDMN.sg                  1.42:  Dens Mud Min 
 MDMX.sg                  1.43:  Dens Mud Max 
 MOIL.                      56:  Run Mud Oil % 
 MOWR.                   71:29:  Run Mud OWR 
 MSND.                     0.5:  Run Mud Sand % 
 MSOL.                      21:  Run Mud Solids% 
 DFV .spqt               78.00:  Mud Viscosity 
 MWOD.in                  6.75:  MWD Tool OD 
 MWSI.                     Yes:  Serv Intrp, MWD 
 OTIM.hr                200.73:  Time Operating 
 PCON.           Look Like New:  Pad Condition 
 PMAX.psia            11069.93:  Press Op, Max 
 PV  .cP                 32.00:  Mud PV 
 RUN .                     700:  Run Number 
 ROPA.m/hr               10.00:  ROP Avg 
 ROPN.m/hr                9.00:  ROP Min 
 ROPX.m/hr               16.00:  ROP Max 
 RPMA.rpm               116.00:  RPM Surface Avg 
 RPMN.rpm                80.00:  RPM Surface Min 
 RPMX.rpm               120.00:  RPM Surface Max 
 RRUN.                    L605:  Rig Run Number 
 RTIM.hr                 45.00:  Time Reaming 
 SAZI.deg               159.86:  Azm, Start 
 SDEP.m                4315.00:  Start Depth 
 SIDD.                      No:  Serv Intrp, DD 
 SINC.deg                39.86:  Inc, Start 
 SPPA.psig             3300.00:  SPP Avg 
 SPPN.psig             3040.00:  SPP Min 
 SPPX.psig             3645.00:  SPP Max 
 STIM.      01.00.00 15-Jul-21:  Start Time 
 SVCS.                 DD, MWD:  Services 
 SVER.                    9.20:  Sperry Version 
 TDAT.m                 288.00:  Tot Depth Attmp 
 TDDF.                      No:  Trip for DD 
 TDLG.m                 288.00:  Tot Depth Loggd 
 TFF .                      No:  Trip for Fail 
 TQAA.f-kp               19.00:  Torque Abs Avg 
 TQAN.f-kp               18.00:  Torque Abs Min 
 TQAX.f-kp               21.00:  Torque Abs Max 
 TRRT.°/30m               0.45:  Turn Rotating 
 MRT .                    HCIM:  Maximum Recorded Temperature 
 TTMX.degC               88.24:  Max Tool Temp 
 VS01.                90649157:  Virtual Str1 SN 
 VS02.                90652483:  Virtual Str2 SN 
 VS03.                11671987:  Virtual Str3 SN 
 VS04.                90643411:  Virtual Str4 SN 
 VS05.                90652478:  Virtual Str5 SN 
 VS06.                    6111:  Virtual Str6 SN 
 WBMN.klb                 9.50:  WOB Min 
 WITN.        Grigoriy Sarayev:  Customer Rep 
 WITN.          Rufat Huseynov:  Customer Rep 2 
 WOBA.klb                11.00:  WOB Avg 
 WOBX.klb                15.00:  WOB Max 
 YP  .lhf2               28.00:  Yield Point 
~Curve Information Block
#MNEM.UNIT                 API CODE     Curve Description
#---------               -----------    ---------------------------
 TIME.HHMMSS            00 000 000 000:  GT Time & Date
 GTDEPTH.m              00 000 000 000:  GT Depth
 GTPQH.psia             00 000 000 000:  GT HR Quartz Pressure
 GTTQ.degC              00 000 000 000:  GT Quartz Temperature
 GTTN.NONE              00 000 000 000:  GT Test Number
 GTET.sec               00 000 000 000:  GT Elapsed Test Time
 GTTVD.m                00 000 000 000:  GT True Vertical Depth
#Other Information
#
#WARRANTY: Halliburton will use its best efforts to furnish customers with 
#accurate information and interpretations that are part of, and incident to, the services 
#provided.  However, Halliburton cannot and does not warrant the accuracy 
#or correctness of such information and interpretations.  Under no circumstances should any 
#such information or interpretation be relied upon as the sole basis for any drilling, 
#completion, production, or financial decision or any procedure involving any risk to the 
#safety of any drilling venture, drilling rig or its crew or any other third party.  The 
#Customer has full responsibility for all drilling, completion and production operation.  
#Halliburton makes no representations or warranties, either expressed or 
#implied, including, but not limited to, the implied warranties of merchantability or fitness 
#for a particular purpose, with respect to the services rendered.  In no event will 
#Halliburton be liable for failure to obtain any particular results or for 
#any damages, including, but not limited to, indirect, special or consequential damages, 
#resulting from the use of any information or interpretation provided by Halliburton.
#
~A           TIME           GTDEPTH  GTPQH  GTTQ  GTTN  GTET   GTTVD  
# ...
   23:02:30.704.18-Jul-2021 4247.58 6014.80 69.66 8.00  92.03 2507.04
   23:02:30.904.18-Jul-2021 4247.58 6014.80 69.66 8.00  92.23 2507.04
   23:02:31.104.18-Jul-2021 4247.58 6010.45 69.66 8.00  92.43 2507.04
   23:02:31.305.18-Jul-2021 4247.58 6016.14 69.66 8.00  92.63 2507.04
   23:02:31.505.18-Jul-2021 4247.58 6012.74 69.66 8.00  92.83 2507.04
   23:02:31.705.18-Jul-2021 4247.58 6009.98 69.66 8.00  93.03 2507.04
   23:02:31.905.18-Jul-2021 4247.58 6009.98 69.66 8.00  93.23 2507.04
   23:02:32.105.18-Jul-2021 4247.58 6014.28 69.66 8.00  93.43 2507.04
   23:02:32.305.18-Jul-2021 4247.58 6018.66 69.66 8.00  93.63 2507.04
   23:02:32.505.18-Jul-2021 4247.58 6011.88 69.66 8.00  93.83 2507.04
   23:02:32.705.18-Jul-2021 4247.58 6017.10 69.66 8.00  94.03 2507.04
   23:02:32.905.18-Jul-2021 4247.58 6017.10 69.66 8.00  94.23 2507.04
   23:02:33.105.18-Jul-2021 4247.58 6012.15 69.66 8.00  94.43 2507.04
   23:02:33.305.18-Jul-2021 4247.58 6010.22 69.66 8.00  94.63 2507.04
   23:02:33.505.18-Jul-2021 4247.58 6013.83 69.66 8.00  94.83 2507.04
   23:02:33.705.18-Jul-2021 4247.58 6016.95 69.66 8.00  95.03 2507.04
   23:02:33.906.18-Jul-2021 4247.58 6016.95 69.66 8.00  95.24 2507.04
   23:02:34.106.18-Jul-2021 4247.58 6011.04 69.66 8.00  95.44 2507.04
   23:02:34.306.18-Jul-2021 4247.58 6013.14 69.66 8.00  95.64 2507.04
   23:02:34.506.18-Jul-2021 4247.58 6012.88 69.66 8.00  95.84 2507.04
   23:02:34.706.18-Jul-2021 4247.58 6012.37 69.66 8.00  96.04 2507.04
   23:02:34.906.18-Jul-2021 4247.58 6012.37 69.66 8.00  96.24 2507.04
   23:02:35.106.18-Jul-2021 4247.58 6013.01 69.66 8.00  96.44 2507.04
   23:02:35.306.18-Jul-2021 4247.58 6013.93 69.66 8.00  96.64 2507.04
   23:02:35.506.18-Jul-2021 4247.58 6013.44 69.66 8.00  96.84 2507.04
   23:02:35.706.18-Jul-2021 4247.58 6013.83 69.66 8.00  97.04 2507.04
   23:02:35.906.18-Jul-2021 4247.58 6013.83 69.66 8.00  97.24 2507.04
   23:02:36.106.18-Jul-2021 4247.58 6012.94 69.66 8.00  97.44 2507.04
   23:02:36.306.18-Jul-2021 4247.58 6012.76 69.66 8.00  97.64 2507.04
   23:02:36.506.18-Jul-2021 4247.58 6015.70 69.66 8.00  97.84 2507.04
   23:02:36.707.18-Jul-2021 4247.58 6009.85 69.66 8.00  98.04 2507.04
   23:02:36.907.18-Jul-2021 4247.58 6009.85 69.66 8.00  98.24 2507.04
   23:02:37.107.18-Jul-2021 4247.58 6012.29 69.66 8.00  98.44 2507.04
   23:02:37.307.18-Jul-2021 4247.58 6012.85 69.66 8.00  98.64 2507.04
   23:02:37.507.18-Jul-2021 4247.58 6011.67 69.66 8.00  98.84 2507.04
   23:02:37.707.18-Jul-2021 4247.58 6012.36 69.66 8.00  99.04 2507.04
   23:02:37.907.18-Jul-2021 4247.58 6012.36 69.66 8.00  99.24 2507.04
   23:02:38.107.18-Jul-2021 4247.58 6011.91 69.66 8.00  99.44 2507.04
   23:02:38.307.18-Jul-2021 4247.58 6011.35 69.66 8.00  99.64 2507.04
   23:02:38.507.18-Jul-2021 4247.58 6012.07 69.66 8.00  99.84 2507.04
   23:02:38.707.18-Jul-2021 4247.58 6011.22 69.66 8.00 100.04 2507.04
   23:02:38.907.18-Jul-2021 4247.58 6011.22 69.66 8.00 100.24 2507.04
   23:02:39.107.18-Jul-2021 4247.58 6016.10 69.66 8.00 100.44 2507.04
   23:02:39.308.18-Jul-2021 4247.58 6007.32 69.66 8.00 100.64 2507.04
   23:02:39.508.18-Jul-2021 4247.58 6006.85 69.66 8.00 100.84 2507.04
   23:02:39.708.18-Jul-2021 4247.58 6014.84 69.66 8.00 101.04 2507.04
   23:02:39.908.18-Jul-2021 4247.58 6014.84 69.66 8.00 101.24 2507.04
   23:02:40.108.18-Jul-2021 4247.58 6005.15 69.66 8.00 101.44 2507.04
   23:02:40.308.18-Jul-2021 4247.58 6006.46 69.66 8.00 101.64 2507.04
   23:02:40.508.18-Jul-2021 4247.58 6018.50 69.66 8.00 101.84 2507.04
   23:02:40.708.18-Jul-2021 4247.58 6005.03 69.66 8.00 102.04 2507.04
   23:02:40.908.18-Jul-2021 4247.58 6005.03 69.66 8.00 102.24 2507.04
   23:02:41.108.18-Jul-2021 4247.58 6009.30 69.66 8.00 102.44 2507.04
   23:02:41.308.18-Jul-2021 4247.58 6009.87 69.66 8.00 102.64 2507.04
   23:02:41.508.18-Jul-2021 4247.58 6011.02 69.66 8.00 102.84 2507.04
   23:02:41.708.18-Jul-2021 4247.58 6005.88 69.66 8.00 103.04 2507.04
   23:02:41.908.18-Jul-2021 4247.58 6005.88 69.66 8.00 103.24 2507.04
   23:02:42.109.18-Jul-2021 4247.58 6006.35 69.66 8.00 103.44 2507.04
   23:02:42.309.18-Jul-2021 4247.58 6008.23 69.66 8.00 103.64 2507.04
   23:02:42.509.18-Jul-2021 4247.58 6013.20 69.66 8.00 103.84 2507.04
   23:02:42.709.18-Jul-2021 4247.58 6003.29 69.66 8.00 104.04 2507.04
   23:02:42.909.18-Jul-2021 4247.58 6003.29 69.66 8.00 104.24 2507.04
   23:02:43.109.18-Jul-2021 4247.58 6008.51 69.66 8.00 104.44 2507.04
   23:02:43.309.18-Jul-2021 4247.58 6009.48 69.66 8.00 104.64 2507.04
   23:02:43.509.18-Jul-2021 4247.58 6008.51 69.66 8.00 104.84 2507.04
   23:02:43.709.18-Jul-2021 4247.58 6008.61 69.66 8.00 105.04 2507.04
   23:02:43.909.18-Jul-2021 4247.58 6008.61 69.66 8.00 105.24 2507.04
   23:02:44.109.18-Jul-2021 4247.58 6008.76 69.66 8.00 105.44 2507.04
   23:02:44.309.18-Jul-2021 4247.58 6009.61 69.66 8.00 105.64 2507.04
   23:02:44.509.18-Jul-2021 4247.58 6009.06 69.66 8.00 105.84 2507.04
   23:02:44.709.18-Jul-2021 4247.58 6007.92 69.66 8.00 106.04 2507.04
   23:02:44.910.18-Jul-2021 4247.58 6007.92 69.66 8.00 106.24 2507.04
   23:02:45.110.18-Jul-2021 4247.58 6009.39 69.66 8.00 106.44 2507.04
   23:02:45.310.18-Jul-2021 4247.58 6012.43 69.66 8.00 106.64 2507.04
   23:02:45.510.18-Jul-2021 4247.58 6003.74 69.66 8.00 106.84 2507.04
   23:02:45.710.18-Jul-2021 4247.58 6005.17 69.66 8.00 107.04 2507.04
   23:02:45.910.18-Jul-2021 4247.58 6005.17 69.66 8.00 107.24 2507.04
   23:02:46.110.18-Jul-2021 4247.58 6008.19 69.66 8.00 107.44 2507.04
   23:02:46.310.18-Jul-2021 4247.58 6008.48 69.66 8.00 107.64 2507.04
   23:02:46.510.18-Jul-2021 4247.58 6008.07 69.66 8.00 107.84 2507.04
   23:02:46.710.18-Jul-2021 4247.58 6008.82 69.66 8.00 108.04 2507.04
   23:02:46.910.18-Jul-2021 4247.58 6008.82 69.66 8.00 108.24 2507.04
   23:02:47.110.18-Jul-2021 4247.58 6007.58 69.66 8.00 108.44 2507.04
   23:02:47.310.18-Jul-2021 4247.58 6008.76 69.66 8.00 108.64 2507.04
   23:02:47.511.18-Jul-2021 4247.58 6008.01 69.66 8.00 108.84 2507.04
   23:02:47.711.18-Jul-2021 4247.58 6007.34 69.66 8.00 109.04 2507.04
   23:02:47.911.18-Jul-2021 4247.58 6007.34 69.66 8.00 109.24 2507.04
   23:02:48.111.18-Jul-2021 4247.58 6009.93 69.66 8.00 109.44 2507.04
   23:02:48.311.18-Jul-2021 4247.58 6003.81 69.66 8.00 109.64 2507.04
   23:02:48.511.18-Jul-2021 4247.58 6005.34 69.66 8.00 109.84 2507.04
   23:02:48.711.18-Jul-2021 4247.58 6009.90 69.66 8.00 110.04 2507.04
   23:02:48.911.18-Jul-2021 4247.58 6009.90 69.66 8.00 110.24 2507.04
   23:02:49.111.18-Jul-2021 4247.58 6003.17 69.66 8.00 110.44 2507.04
   23:02:49.311.18-Jul-2021 4247.58 6012.00 69.66 8.00 110.64 2507.04
   23:02:49.511.18-Jul-2021 4247.58 6004.20 69.66 8.00 110.84 2507.04
   23:02:49.711.18-Jul-2021 4247.58 6004.24 69.66 8.00 111.04 2507.04
   23:02:49.911.18-Jul-2021 4247.58 6004.24 69.66 8.00 111.24 2507.04
   23:02:50.111.18-Jul-2021 4247.58 6009.13 69.66 8.00 111.44 2507.04
   23:02:50.312.18-Jul-2021 4247.58 6006.60 69.66 8.00 111.64 2507.04
   23:02:50.512.18-Jul-2021 4247.58 6008.38 69.66 8.00 111.84 2507.04
   23:02:50.712.18-Jul-2021 4247.58 6003.64 69.66 8.00 112.04 2507.04
   23:02:50.912.18-Jul-2021 4247.58 6003.64 69.66 8.00 112.24 2507.04
   23:02:51.112.18-Jul-2021 4247.58 6006.33 69.66 8.00 112.44 2507.04
   23:02:51.312.18-Jul-2021 4247.58 6007.66 69.66 8.00 112.64 2507.04
   23:02:51.512.18-Jul-2021 4247.58 6005.74 69.66 8.00 112.84 2507.04
   23:02:51.712.18-Jul-2021 4247.58 5999.95 69.66 8.00 113.04 2507.04
   23:02:51.912.18-Jul-2021 4247.58 5999.95 69.66 8.00 113.24 2507.04
   23:02:52.112.18-Jul-2021 4247.58 6003.97 69.66 8.00 113.44 2507.04
   23:02:52.312.18-Jul-2021 4247.58 6003.64 69.66 8.00 113.64 2507.04
   23:02:52.512.18-Jul-2021 4247.58 6002.87 69.66 8.00 113.84 2507.04
   23:02:52.712.18-Jul-2021 4247.58 6004.52 69.66 8.00 114.04 2507.04
   23:02:52.913.18-Jul-2021 4247.58 6004.52 69.66 8.00 114.24 2507.04
   23:02:53.113.18-Jul-2021 4247.58 6004.00 69.66 8.00 114.44 2507.04
   23:02:53.313.18-Jul-2021 4247.58 6002.56 69.66 8.00 114.64 2507.04
   23:02:53.513.18-Jul-2021 4247.58 6003.18 69.66 8.00 114.84 2507.04
