~Version Information
 VERS.                  2.0:   CWLS log ASCII Standard -VERSION 2.0
 WRAP.                   NO:   One line per depth step
~Well Information Block
#MNEM.UNIT     VALUE/NAME     DESCRIPTION
#---------     -----------    ---------------------------
 STRT.S             07:55:35 19-Jul-21: START TIME 07:55:35 19-Jul-21
 STOP.S             08:02:29 19-Jul-21: STOP TIME  08:02:29 19-Jul-21
 STEP.S                   0.00: STEP TIME
 NULL.                 -999.25: NULL VALUE
 MDS .        Operator Entered:  MAG DATA SOURCE
 PDAT.          Mean Sea Level:  PERMANENT DATUM
 UNIT.                     N/A:  LOGGING EQUIPMENT ID
 DCON.         Sperry Drilling:  DIRECTNL CONTR
 DOE .                     N/A:  DOE NUMBER
 RIG .              West Azeri:  RIG NAME
 JOBN.        AZ-XX-0906997913:  JOB TICKET NUMB
 WELL.                     C41:  WELL NAME
 MWDS.                    Baku:  MWD SHOP
 SRVC.          Turan Drilling:  CONTRACTOR
 FLD .                     ACG:  FIELD NAME
 CTRY.              Azerbaijan:  COUNTRY NAME
 PROV.                    Baku:  PROVINCE
 STAT.                    Baku:  STATE NAME
 REGN.                   EESSA:  REGION
 BASE.              Azerbaijan:  LOGGING EQUIPMENT BASE LOCATION
 UWI .                     N/A:  UNIQUE WELL IDENTIFIER
 API .                     N/A:  API NUMBER
 COMP.     BP Exploration (Caspian Sea) Ltd.:  COMPANY
 WTYP.                Deviated:  WELL TYPE
 SON .        AZ-XX-0906997913:  JOB NUMBER
 FTOP.          Formation Tops:  FORM TOPS DESC
 ILTD.               Lithology:  INTERP LTH DESC
 SVYD.                  Survey:  SURVEY DESC
 DMOD.             Drill Model:  DRILL MOD DESC
 HPTY.       Minimum Curvature:  HOLE POS TYPE
 NREF.                    Grid:  NORTH REFERENCE
 SPUD.               16-May-21:  SPUD DATE
 DATE.      21.11.28 17-May-21:  END TIME
 STIM.      21.11.28 17-May-21:  START TIME
 DMF .             Drill Floor:  DRILL MEAS FROM
 DFST.                        :  DIST FSL TEXT
 DFWT.                        :  DIST FWL TEXT
 CNTY.                        :  COUNTY
 LOC .                        :  LOCATION
 LMF .             Drill Floor:  LOG MEASURED FROM
 AGAP.m                  43.42:  AIR GAP
 VSNS.m                  -2.16:  VERT SEC N/S
 VSEW.m                  -6.24:  VERT SEC E/W
 APD .m                  43.42:  DEPTH ABOVE PD
 WDMS.m                 118.27:  WD ELEV
 EGL .m                   0.00:  GROUND ELEVATION
 EPD .m                   0.00:  ELEVATION
 AZTC.deg                 6.29:  AZM TOTAL CORR
 GRDC.deg                 0.18:  GRID CORRECTION
 MDEC.deg                 6.47:  MAGNETIC DECL
 MDIP.deg                59.54:  MAGNETIC DIP
 MFLD.nT              50337.00:  MAGNETIC FIELD
 GVFD.g                   1.00:  GRAVITY FIELD
 VSDR.deg               226.99:  VERT SEC DIRECT
 TDD .m                   0.00:  TOTAL DEPTH (DRILLER)
 SDEP.m                 448.00:  START DEPTH
 DFSL.m                   0.00:  DISTANCE FSL
 DFWL.m                   0.00:  DISTANCE FWL
 UTMY.m             4435799.96:  UTM Y
 UTMX.m              526265.35:  UTM X
 WHEW.m                  -6.24:  WELL HEAD E/W
 WHNS.m                  -2.16:  WELL HEAD N/S
 LONG.deg                51.31:  LONGITUDE
 LATI.deg                40.06:  LATITUDE
 TVDS.m                  43.42:  TVDSS CORRECTN
 EKB .m                  43.42:  KB ELEVATION
 EDF .m                  43.42:  DF ELEVATION
 TDL .m                 288.00:  TOTAL DEPTH (LOGGER)
 MAGU.                 1851863:  MAGUTM CHECKSUM
 VSC .                       0:  VS TO CLOSURE
~Parameter Information Block
#MNEM.UNIT       Value        Description
#---------     -----------    ---------------------------
 AV  .mps                 0.40:  Ann Velocity 
 AVMX.mps                 0.63:  Max Ann Veloc 
 AZIF.deg               158.76:  Azm, Final 
 BHAT.        Rotary Steerable:  BHA Type 
 BROT.°/30m               0.68:  Build Rotating 
 BS  .in                  8.50:  Bit Size 
 BSZ .in                  8.50:  Bit Size 
 BTPL.psig              712.00:  Bit Press Loss 
 CABU.                      No:  Customer Abuse 
 COMM.                     ,°M:  Run Comments 1 
 TCS .hr                 90.66:  Time Ciculation Ended 
 CV  .mps                 2.02:  Crit Velocity 
 CVMX.mps                 2.14:  Max Crit Veloc 
 DD1 .            Aziz Aliyevu:  Direct Drillr 1 
 DD2 .             Samir Abbas:  Direct Drillr 2 
 DD3 .           Teymur Aliyev:  Direct Drillr 3 
 DDSV.                 iCruise:  DD Service 
 DEFF.%                  85.10:  % Det Eff 
 DLRX.°/30m               1.05:  Dogleg Rot Max 
 DLSO.°/30m               1.01:  Dogleg Oriented 
 DLSX.°/30m               1.05:  Dogleg Str Max 
 DRET.      07.45.00 18-Jul-21:  Drill End Time 
 DRST.      15.00.00 16-Jul-21:  Drill Start Tim 
 DTIM.hr                 23.46:  Time Drilling 
 EDEP.m                4603.00:  End Depth 
 ENG1.       Seymur Iskandarov:  Engineer 1 
 ENG2.         Yevgeniy Ulikov:  Engineer 2 
 ENG3.         Bahruz Mehdiyev:  Engineer 3 
 ENG4.         Elchin Mammadov:  Engineer 4 
 ETIM.      14.00.00 23-Jul-21:  End Time 
 FLOI.gpm               500.00:  Flow In 
 FLON.gpm               450.00:  Flow In Min 
 FLOS.cptm                0.00:  Fluid Loss 
 FLOX.gpm               560.00:  Flow In Max 
 DFT .        Mineral Oil Base:  Mud Type 
 FTRO.       Formation Presure:  FTWD Run Obj 
 HFLO.                      No:  High Flow 
 HPRE.                      No:  High Pressure 
 HTEM.                      No:  High Temp 
 HYDO.m                   1.80:  Hydro Offset 
 IFIN.deg                40.22:  Inc, Final 
 IMAX.deg                40.54:  Inc Max 
 IMIN.deg                39.44:  Inc Min 
 IMND.m                4361.17:  Inc Min Depth 
 IMXD.m                4417.92:  Inc Max Depth 
 JARR.                      No:  Jarring 
 LETM.      07.45.00 18-Jul-21:  Log End Time 
 LOST.hr                    16:  Lost Rig Time 
 LSTM.      15.00.00 16-Jul-21:  Log Start Time 
 MDCL.ppm             36500.00:  Mud Chlorides 
 MDES.     Inversion Oil/Synthetic:  Mud Desc 
 DFD .sg                  1.42:  Mud Density 
 MDMN.sg                  1.42:  Dens Mud Min 
 MDMX.sg                  1.43:  Dens Mud Max 
 MOIL.                      56:  Run Mud Oil % 
 MOWR.                   71:29:  Run Mud OWR 
 MSND.                     0.5:  Run Mud Sand % 
 MSOL.                      21:  Run Mud Solids% 
 DFV .spqt               78.00:  Mud Viscosity 
 MWOD.in                  6.75:  MWD Tool OD 
 MWSI.                     Yes:  Serv Intrp, MWD 
 OTIM.hr                200.73:  Time Operating 
 PCON.           Look Like New:  Pad Condition 
 PMAX.psia            11069.93:  Press Op, Max 
 PV  .cP                 32.00:  Mud PV 
 RUN .                     700:  Run Number 
 ROPA.m/hr               10.00:  ROP Avg 
 ROPN.m/hr                9.00:  ROP Min 
 ROPX.m/hr               16.00:  ROP Max 
 RPMA.rpm               116.00:  RPM Surface Avg 
 RPMN.rpm                80.00:  RPM Surface Min 
 RPMX.rpm               120.00:  RPM Surface Max 
 RRUN.                    L605:  Rig Run Number 
 RTIM.hr                 45.00:  Time Reaming 
 SAZI.deg               159.86:  Azm, Start 
 SDEP.m                4315.00:  Start Depth 
 SIDD.                      No:  Serv Intrp, DD 
 SINC.deg                39.86:  Inc, Start 
 SPPA.psig             3300.00:  SPP Avg 
 SPPN.psig             3040.00:  SPP Min 
 SPPX.psig             3645.00:  SPP Max 
 STIM.      01.00.00 15-Jul-21:  Start Time 
 SVCS.                 DD, MWD:  Services 
 SVER.                    9.20:  Sperry Version 
 TDAT.m                 288.00:  Tot Depth Attmp 
 TDDF.                      No:  Trip for DD 
 TDLG.m                 288.00:  Tot Depth Loggd 
 TFF .                      No:  Trip for Fail 
 TQAA.f-kp               19.00:  Torque Abs Avg 
 TQAN.f-kp               18.00:  Torque Abs Min 
 TQAX.f-kp               21.00:  Torque Abs Max 
 TRRT.°/30m               0.45:  Turn Rotating 
 MRT .                    HCIM:  Maximum Recorded Temperature 
 TTMX.degC               88.24:  Max Tool Temp 
 VS01.                90649157:  Virtual Str1 SN 
 VS02.                90652483:  Virtual Str2 SN 
 VS03.                11671987:  Virtual Str3 SN 
 VS04.                90643411:  Virtual Str4 SN 
 VS05.                90652478:  Virtual Str5 SN 
 VS06.                    6111:  Virtual Str6 SN 
 WBMN.klb                 9.50:  WOB Min 
 WITN.        Grigoriy Sarayev:  Customer Rep 
 WITN.          Rufat Huseynov:  Customer Rep 2 
 WOBA.klb                11.00:  WOB Avg 
 WOBX.klb                15.00:  WOB Max 
 YP  .lhf2               28.00:  Yield Point 
~Curve Information Block
#MNEM.UNIT                 API CODE     Curve Description
#---------               -----------    ---------------------------
 TIME.HHMMSS            00 000 000 000:  GT Time & Date
 GTDEPTH.m              00 000 000 000:  GT Depth
 GTPQH.psia             00 000 000 000:  GT HR Quartz Pressure
 GTTQ.degC              00 000 000 000:  GT Quartz Temperature
 GTTN.NONE              00 000 000 000:  GT Test Number
 GTET.sec               00 000 000 000:  GT Elapsed Test Time
 GTTVD.m                00 000 000 000:  GT True Vertical Depth
#Other Information
#
#WARRANTY: Halliburton will use its best efforts to furnish customers with 
#accurate information and interpretations that are part of, and incident to, the services 
#provided.  However, Halliburton cannot and does not warrant the accuracy 
#or correctness of such information and interpretations.  Under no circumstances should any 
#such information or interpretation be relied upon as the sole basis for any drilling, 
#completion, production, or financial decision or any procedure involving any risk to the 
#safety of any drilling venture, drilling rig or its crew or any other third party.  The 
#Customer has full responsibility for all drilling, completion and production operation.  
#Halliburton makes no representations or warranties, either expressed or 
#implied, including, but not limited to, the implied warranties of merchantability or fitness 
#for a particular purpose, with respect to the services rendered.  In no event will 
#Halliburton be liable for failure to obtain any particular results or for 
#any damages, including, but not limited to, indirect, special or consequential damages, 
#resulting from the use of any information or interpretation provided by Halliburton.
#
~A           TIME           GTDEPTH  GTPQH  GTTQ  GTTN   GTET   GTTVD  
# ...
   08:01:14.606.19-Jul-2021 4420.00 3651.77 70.17 17.00 339.12 2639.17
   08:01:14.806.19-Jul-2021 4420.00 3651.77 70.17 17.00 339.32 2639.17
   08:01:15.006.19-Jul-2021 4420.00 3652.14 70.17 17.00 339.53 2639.17
   08:01:15.207.19-Jul-2021 4420.00 3652.07 70.17 17.00 339.73 2639.17
   08:01:15.407.19-Jul-2021 4420.00 3652.08 70.17 17.00 339.93 2639.17
   08:01:15.607.19-Jul-2021 4420.00 3652.22 70.17 17.00 340.13 2639.17
   08:01:15.807.19-Jul-2021 4420.00 3652.22 70.17 17.00 340.33 2639.17
   08:01:16.007.19-Jul-2021 4420.00 3652.17 70.17 17.00 340.53 2639.17
   08:01:16.207.19-Jul-2021 4420.00 3652.10 70.17 17.00 340.73 2639.17
   08:01:16.407.19-Jul-2021 4420.00 3652.10 70.17 17.00 340.93 2639.17
   08:01:16.607.19-Jul-2021 4420.00 3652.13 70.17 17.00 341.13 2639.17
   08:01:16.807.19-Jul-2021 4420.00 3652.13 70.17 17.00 341.33 2639.17
   08:01:17.007.19-Jul-2021 4420.00 3652.14 70.17 17.00 341.53 2639.17
   08:01:17.207.19-Jul-2021 4420.00 3652.12 70.17 17.00 341.73 2639.17
   08:01:17.407.19-Jul-2021 4420.00 3652.14 70.17 17.00 341.93 2639.17
   08:01:17.607.19-Jul-2021 4420.00 3652.12 70.17 17.00 342.13 2639.17
   08:01:17.807.19-Jul-2021 4420.00 3652.12 70.17 17.00 342.33 2639.17
   08:01:18.008.19-Jul-2021 4420.00 3652.13 70.17 17.00 342.53 2639.17
   08:01:18.208.19-Jul-2021 4420.00 3652.33 70.17 17.00 342.73 2639.17
   08:01:18.408.19-Jul-2021 4420.00 3652.04 70.17 17.00 342.93 2639.17
   08:01:18.608.19-Jul-2021 4420.00 3652.01 70.17 17.00 343.13 2639.17
   08:01:18.808.19-Jul-2021 4420.00 3652.01 70.17 17.00 343.33 2639.17
   08:01:19.008.19-Jul-2021 4420.00 3652.09 70.17 17.00 343.53 2639.17
   08:01:19.208.19-Jul-2021 4420.00 3652.16 70.17 17.00 343.73 2639.17
   08:01:19.408.19-Jul-2021 4420.00 3652.12 70.17 17.00 343.93 2639.17
   08:01:19.608.19-Jul-2021 4420.00 3652.12 70.17 17.00 344.13 2639.17
   08:01:19.808.19-Jul-2021 4420.00 3652.12 70.17 17.00 344.33 2639.17
   08:01:20.008.19-Jul-2021 4420.00 3652.10 70.17 17.00 344.53 2639.17
   08:01:20.208.19-Jul-2021 4420.00 3652.13 70.17 17.00 344.73 2639.17
   08:01:20.408.19-Jul-2021 4420.00 3652.13 70.17 17.00 344.93 2639.17
   08:01:20.609.19-Jul-2021 4420.00 3652.11 70.17 17.00 345.13 2639.17
   08:01:20.809.19-Jul-2021 4420.00 3652.11 70.17 17.00 345.33 2639.17
   08:01:21.009.19-Jul-2021 4420.00 3652.20 70.17 17.00 345.53 2639.17
   08:01:21.209.19-Jul-2021 4420.00 3651.99 70.17 17.00 345.73 2639.17
   08:01:21.409.19-Jul-2021 4420.00 3652.34 70.17 17.00 345.93 2639.17
   08:01:21.609.19-Jul-2021 4420.00 3652.13 70.17 17.00 346.13 2639.17
   08:01:21.809.19-Jul-2021 4420.00 3652.13 70.17 17.00 346.33 2639.17
   08:01:22.009.19-Jul-2021 4420.00 3652.00 70.17 17.00 346.53 2639.17
   08:01:22.209.19-Jul-2021 4420.00 3652.01 70.17 17.00 346.73 2639.17
   08:01:22.409.19-Jul-2021 4420.00 3652.12 70.17 17.00 346.93 2639.17
   08:01:22.609.19-Jul-2021 4420.00 3652.06 70.17 17.00 347.13 2639.17
   08:01:22.809.19-Jul-2021 4420.00 3652.06 70.17 17.00 347.33 2639.17
   08:01:23.009.19-Jul-2021 4420.00 3652.21 70.17 17.00 347.53 2639.17
   08:01:23.209.19-Jul-2021 4420.00 3652.09 70.17 17.00 347.73 2639.17
   08:01:23.410.19-Jul-2021 4420.00 3652.15 70.17 17.00 347.93 2639.17
   08:01:23.610.19-Jul-2021 4420.00 3651.98 70.17 17.00 348.13 2639.17
   08:01:23.810.19-Jul-2021 4420.00 3651.98 70.17 17.00 348.33 2639.17
   08:01:24.010.19-Jul-2021 4420.00 3652.17 70.17 17.00 348.53 2639.17
   08:01:24.210.19-Jul-2021 4420.00 3652.18 70.17 17.00 348.73 2639.17
   08:01:24.410.19-Jul-2021 4420.00 3652.05 70.17 17.00 348.93 2639.17
   08:01:24.610.19-Jul-2021 4420.00 3652.12 70.17 17.00 349.13 2639.17
   08:01:24.810.19-Jul-2021 4420.00 3652.12 70.17 17.00 349.33 2639.17
   08:01:25.010.19-Jul-2021 4420.00 3652.13 70.17 17.00 349.53 2639.17
   08:01:25.210.19-Jul-2021 4420.00 3652.12 70.17 17.00 349.73 2639.17
   08:01:25.410.19-Jul-2021 4420.00 3652.14 70.17 17.00 349.93 2639.17
   08:01:25.610.19-Jul-2021 4420.00 3652.13 70.17 17.00 350.13 2639.17
   08:01:25.810.19-Jul-2021 4420.00 3652.13 70.17 17.00 350.33 2639.17
   08:01:26.011.19-Jul-2021 4420.00 3652.15 70.17 17.00 350.53 2639.17
   08:01:26.211.19-Jul-2021 4420.00 3652.12 70.17 17.00 350.73 2639.17
   08:01:26.411.19-Jul-2021 4420.00 3652.12 70.17 17.00 350.93 2639.17
   08:01:26.611.19-Jul-2021 4420.00 3652.50 70.17 17.00 351.13 2639.17
   08:01:26.811.19-Jul-2021 4420.00 3652.50 70.17 17.00 351.33 2639.17
   08:01:27.011.19-Jul-2021 4420.00 3652.12 70.17 17.00 351.53 2639.17
   08:01:27.211.19-Jul-2021 4420.00 3652.15 70.17 17.00 351.73 2639.17
   08:01:27.411.19-Jul-2021 4420.00 3652.10 70.17 17.00 351.93 2639.17
   08:01:27.611.19-Jul-2021 4420.00 3652.11 70.17 17.00 352.13 2639.17
   08:01:27.811.19-Jul-2021 4420.00 3652.11 70.17 17.00 352.33 2639.17
   08:01:28.011.19-Jul-2021 4420.00 3652.16 70.17 17.00 352.53 2639.17
   08:01:28.211.19-Jul-2021 4420.00 3652.13 70.17 17.00 352.73 2639.17
   08:01:28.411.19-Jul-2021 4420.00 3652.16 70.17 17.00 352.93 2639.17
   08:01:28.611.19-Jul-2021 4420.00 3652.11 70.17 17.00 353.13 2639.17
   08:01:28.812.19-Jul-2021 4420.00 3652.11 70.17 17.00 353.33 2639.17
   08:01:29.012.19-Jul-2021 4420.00 3652.04 70.17 17.00 353.53 2639.17
   08:01:29.212.19-Jul-2021 4420.00 3652.25 70.17 17.00 353.73 2639.17
   08:01:29.412.19-Jul-2021 4420.00 3652.16 70.17 17.00 353.93 2639.17
   08:01:29.612.19-Jul-2021 4420.00 3652.49 70.17 17.00 354.13 2639.17
   08:01:29.812.19-Jul-2021 4420.00 3652.49 70.17 17.00 354.33 2639.17
   08:01:30.012.19-Jul-2021 4420.00 3652.19 70.17 17.00 354.53 2639.17
   08:01:30.212.19-Jul-2021 4420.00 3652.42 70.17 17.00 354.73 2639.17
   08:01:30.412.19-Jul-2021 4420.00 3651.76 70.17 17.00 354.93 2639.17
   08:01:30.612.19-Jul-2021 4420.00 3652.16 70.17 17.00 355.13 2639.17
   08:01:30.812.19-Jul-2021 4420.00 3652.16 70.17 17.00 355.33 2639.17
   08:01:31.012.19-Jul-2021 4420.00 3651.96 70.17 17.00 355.53 2639.17
   08:01:31.212.19-Jul-2021 4420.00 3652.23 70.17 17.00 355.73 2639.17
   08:01:31.413.19-Jul-2021 4420.00 3652.14 70.17 17.00 355.93 2639.17
   08:01:31.613.19-Jul-2021 4420.00 3652.19 70.17 17.00 356.13 2639.17
   08:01:31.813.19-Jul-2021 4420.00 3652.19 70.17 17.00 356.33 2639.17
   08:01:32.013.19-Jul-2021 4420.00 3652.04 70.17 17.00 356.53 2639.17
   08:01:32.213.19-Jul-2021 4420.00 3651.87 70.17 17.00 356.73 2639.17
   08:01:32.413.19-Jul-2021 4420.00 3652.22 70.17 17.00 356.93 2639.17
   08:01:32.613.19-Jul-2021 4420.00 3651.55 70.17 17.00 357.13 2639.17
   08:01:32.813.19-Jul-2021 4420.00 3651.55 70.17 17.00 357.33 2639.17
   08:01:33.013.19-Jul-2021 4420.00 3679.97 70.17 17.00 357.53 2639.17
   08:01:33.213.19-Jul-2021 4420.00 4489.15 70.17 17.00 357.73 2639.17
   08:01:33.413.19-Jul-2021 4420.00 6419.26 70.17 17.00 357.93 2639.17
   08:01:33.613.19-Jul-2021 4420.00 6415.64 70.17 17.00 358.13 2639.17
   08:01:33.813.19-Jul-2021 4420.00 6415.64 70.17 17.00 358.33 2639.17
   08:01:34.013.19-Jul-2021 4420.00 6415.73 70.18 17.00 358.53 2639.17
   08:01:34.214.19-Jul-2021 4420.00 6415.67 70.18 17.00 358.73 2639.17
   08:01:34.414.19-Jul-2021 4420.00 6417.42 70.18 17.00 358.93 2639.17
   08:01:34.614.19-Jul-2021 4420.00 6418.05 70.18 17.00 359.13 2639.17
   08:01:34.814.19-Jul-2021 4420.00 6418.05 70.18 17.00 359.33 2639.17
   08:01:35.014.19-Jul-2021 4420.00 6439.11 70.18 17.00 359.53 2639.17
   08:01:35.214.19-Jul-2021 4420.00 6422.00 70.18 17.00 359.73 2639.17
   08:01:35.414.19-Jul-2021 4420.00 6421.09 70.18 17.00 359.93 2639.17
   08:01:35.614.19-Jul-2021 4420.00 6422.36 70.19 17.00 360.13 2639.17
   08:01:35.814.19-Jul-2021 4420.00 6422.36 70.19 17.00 360.33 2639.17
   08:01:36.014.19-Jul-2021 4420.00 6420.67 70.19 17.00 360.53 2639.17
   08:01:36.214.19-Jul-2021 4420.00 6420.51 70.19 17.00 360.73 2639.17
   08:01:36.414.19-Jul-2021 4420.00 6420.51 70.19 17.00 360.93 2639.17
   08:01:36.614.19-Jul-2021 4420.00 6420.22 70.19 17.00 361.13 2639.17
   08:01:36.814.19-Jul-2021 4420.00 6420.22 70.19 17.00 361.33 2639.17
   08:01:37.015.19-Jul-2021 4420.00 6421.16 70.20 17.00 361.53 2639.17
