~Version Information
 VERS.                  2.0:   CWLS log ASCII Standard -VERSION 2.0
 WRAP.                   NO:   One line per depth step
~Well Information Block
#MNEM.UNIT     VALUE/NAME     DESCRIPTION
#---------     -----------    ---------------------------
 STRT.S             16:45:59 18-Jul-21: START TIME 16:45:59 18-Jul-21
 STOP.S             16:52:30 18-Jul-21: STOP TIME  16:52:30 18-Jul-21
 STEP.S                   0.00: STEP TIME
 NULL.                 -999.25: NULL VALUE
 MDS .        Operator Entered:  MAG DATA SOURCE
 PDAT.          Mean Sea Level:  PERMANENT DATUM
 UNIT.                     N/A:  LOGGING EQUIPMENT ID
 DCON.         Sperry Drilling:  DIRECTNL CONTR
 DOE .                     N/A:  DOE NUMBER
 RIG .              West Azeri:  RIG NAME
 JOBN.        AZ-XX-0906997913:  JOB TICKET NUMB
 WELL.                     C41:  WELL NAME
 MWDS.                    Baku:  MWD SHOP
 SRVC.          Turan Drilling:  CONTRACTOR
 FLD .                     ACG:  FIELD NAME
 CTRY.              Azerbaijan:  COUNTRY NAME
 PROV.                    Baku:  PROVINCE
 STAT.                    Baku:  STATE NAME
 REGN.                   EESSA:  REGION
 BASE.              Azerbaijan:  LOGGING EQUIPMENT BASE LOCATION
 UWI .                     N/A:  UNIQUE WELL IDENTIFIER
 API .                     N/A:  API NUMBER
 COMP.     BP Exploration (Caspian Sea) Ltd.:  COMPANY
 WTYP.                Deviated:  WELL TYPE
 SON .        AZ-XX-0906997913:  JOB NUMBER
 FTOP.          Formation Tops:  FORM TOPS DESC
 ILTD.               Lithology:  INTERP LTH DESC
 SVYD.                  Survey:  SURVEY DESC
 DMOD.             Drill Model:  DRILL MOD DESC
 HPTY.       Minimum Curvature:  HOLE POS TYPE
 NREF.                    Grid:  NORTH REFERENCE
 SPUD.               16-May-21:  SPUD DATE
 DATE.      21.11.28 17-May-21:  END TIME
 STIM.      21.11.28 17-May-21:  START TIME
 DMF .             Drill Floor:  DRILL MEAS FROM
 DFST.                        :  DIST FSL TEXT
 DFWT.                        :  DIST FWL TEXT
 CNTY.                        :  COUNTY
 LOC .                        :  LOCATION
 LMF .             Drill Floor:  LOG MEASURED FROM
 AGAP.m                  43.42:  AIR GAP
 VSNS.m                  -2.16:  VERT SEC N/S
 VSEW.m                  -6.24:  VERT SEC E/W
 APD .m                  43.42:  DEPTH ABOVE PD
 WDMS.m                 118.27:  WD ELEV
 EGL .m                   0.00:  GROUND ELEVATION
 EPD .m                   0.00:  ELEVATION
 AZTC.deg                 6.29:  AZM TOTAL CORR
 GRDC.deg                 0.18:  GRID CORRECTION
 MDEC.deg                 6.47:  MAGNETIC DECL
 MDIP.deg                59.54:  MAGNETIC DIP
 MFLD.nT              50337.00:  MAGNETIC FIELD
 GVFD.g                   1.00:  GRAVITY FIELD
 VSDR.deg               226.99:  VERT SEC DIRECT
 TDD .m                   0.00:  TOTAL DEPTH (DRILLER)
 SDEP.m                 448.00:  START DEPTH
 DFSL.m                   0.00:  DISTANCE FSL
 DFWL.m                   0.00:  DISTANCE FWL
 UTMY.m             4435799.96:  UTM Y
 UTMX.m              526265.35:  UTM X
 WHEW.m                  -6.24:  WELL HEAD E/W
 WHNS.m                  -2.16:  WELL HEAD N/S
 LONG.deg                51.31:  LONGITUDE
 LATI.deg                40.06:  LATITUDE
 TVDS.m                  43.42:  TVDSS CORRECTN
 EKB .m                  43.42:  KB ELEVATION
 EDF .m                  43.42:  DF ELEVATION
 TDL .m                 288.00:  TOTAL DEPTH (LOGGER)
 MAGU.                 1851863:  MAGUTM CHECKSUM
 VSC .                       0:  VS TO CLOSURE
~Parameter Information Block
#MNEM.UNIT       Value        Description
#---------     -----------    ---------------------------
 AV  .mps                 0.40:  Ann Velocity 
 AVMX.mps                 0.63:  Max Ann Veloc 
 AZIF.deg               158.76:  Azm, Final 
 BHAT.        Rotary Steerable:  BHA Type 
 BROT.∞/30m               0.68:  Build Rotating 
 BS  .in                  8.50:  Bit Size 
 BSZ .in                  8.50:  Bit Size 
 BTPL.psig              712.00:  Bit Press Loss 
 CABU.                      No:  Customer Abuse 
 COMM.                     ,èr:  Run Comments 1 
 TCS .hr                 90.66:  Time Ciculation Ended 
 CV  .mps                 2.02:  Crit Velocity 
 CVMX.mps                 2.14:  Max Crit Veloc 
 DD1 .            Aziz Aliyevu:  Direct Drillr 1 
 DD2 .             Samir Abbas:  Direct Drillr 2 
 DD3 .           Teymur Aliyev:  Direct Drillr 3 
 DDSV.                 iCruise:  DD Service 
 DEFF.%                  85.10:  % Det Eff 
 DLRX.∞/30m               1.05:  Dogleg Rot Max 
 DLSO.∞/30m               1.01:  Dogleg Oriented 
 DLSX.∞/30m               1.05:  Dogleg Str Max 
 DRET.      07.45.00 18-Jul-21:  Drill End Time 
 DRST.      15.00.00 16-Jul-21:  Drill Start Tim 
 DTIM.hr                 23.46:  Time Drilling 
 EDEP.m                4603.00:  End Depth 
 ENG1.       Seymur Iskandarov:  Engineer 1 
 ENG2.         Yevgeniy Ulikov:  Engineer 2 
 ENG3.         Bahruz Mehdiyev:  Engineer 3 
 ENG4.         Elchin Mammadov:  Engineer 4 
 ETIM.      14.00.00 23-Jul-21:  End Time 
 FLOI.gpm               500.00:  Flow In 
 FLON.gpm               450.00:  Flow In Min 
 FLOS.cptm                0.00:  Fluid Loss 
 FLOX.gpm               560.00:  Flow In Max 
 DFT .        Mineral Oil Base:  Mud Type 
 FTRO.       Formation Presure:  FTWD Run Obj 
 HFLO.                      No:  High Flow 
 HPRE.                      No:  High Pressure 
 HTEM.                      No:  High Temp 
 HYDO.m                   1.80:  Hydro Offset 
 IFIN.deg                40.22:  Inc, Final 
 IMAX.deg                40.54:  Inc Max 
 IMIN.deg                39.44:  Inc Min 
 IMND.m                4361.17:  Inc Min Depth 
 IMXD.m                4417.92:  Inc Max Depth 
 JARR.                      No:  Jarring 
 LETM.      07.45.00 18-Jul-21:  Log End Time 
 LOST.hr                    16:  Lost Rig Time 
 LSTM.      15.00.00 16-Jul-21:  Log Start Time 
 MDCL.ppm             36500.00:  Mud Chlorides 
 MDES.     Inversion Oil/Synthetic:  Mud Desc 
 DFD .sg                  1.42:  Mud Density 
 MDMN.sg                  1.42:  Dens Mud Min 
 MDMX.sg                  1.43:  Dens Mud Max 
 MOIL.                      56:  Run Mud Oil % 
 MOWR.                   71:29:  Run Mud OWR 
 MSND.                     0.5:  Run Mud Sand % 
 MSOL.                      21:  Run Mud Solids% 
 DFV .spqt               78.00:  Mud Viscosity 
 MWOD.in                  6.75:  MWD Tool OD 
 MWSI.                     Yes:  Serv Intrp, MWD 
 OTIM.hr                200.73:  Time Operating 
 PCON.           Look Like New:  Pad Condition 
 PMAX.psia            11069.93:  Press Op, Max 
 PV  .cP                 32.00:  Mud PV 
 RUN .                     700:  Run Number 
 ROPA.m/hr               10.00:  ROP Avg 
 ROPN.m/hr                9.00:  ROP Min 
 ROPX.m/hr               16.00:  ROP Max 
 RPMA.rpm               116.00:  RPM Surface Avg 
 RPMN.rpm                80.00:  RPM Surface Min 
 RPMX.rpm               120.00:  RPM Surface Max 
 RRUN.                    L605:  Rig Run Number 
 RTIM.hr                 45.00:  Time Reaming 
 SAZI.deg               159.86:  Azm, Start 
 SDEP.m                4315.00:  Start Depth 
 SIDD.                      No:  Serv Intrp, DD 
 SINC.deg                39.86:  Inc, Start 
 SPPA.psig             3300.00:  SPP Avg 
 SPPN.psig             3040.00:  SPP Min 
 SPPX.psig             3645.00:  SPP Max 
 STIM.      01.00.00 15-Jul-21:  Start Time 
 SVCS.                 DD, MWD:  Services 
 SVER.                    9.20:  Sperry Version 
 TDAT.m                 288.00:  Tot Depth Attmp 
 TDDF.                      No:  Trip for DD 
 TDLG.m                 288.00:  Tot Depth Loggd 
 TFF .                      No:  Trip for Fail 
 TQAA.f-kp               19.00:  Torque Abs Avg 
 TQAN.f-kp               18.00:  Torque Abs Min 
 TQAX.f-kp               21.00:  Torque Abs Max 
 TRRT.∞/30m               0.45:  Turn Rotating 
 MRT .                    HCIM:  Maximum Recorded Temperature 
 TTMX.degC               88.24:  Max Tool Temp 
 VS01.                90649157:  Virtual Str1 SN 
 VS02.                90652483:  Virtual Str2 SN 
 VS03.                11671987:  Virtual Str3 SN 
 VS04.                90643411:  Virtual Str4 SN 
 VS05.                90652478:  Virtual Str5 SN 
 VS06.                    6111:  Virtual Str6 SN 
 WBMN.klb                 9.50:  WOB Min 
 WITN.        Grigoriy Sarayev:  Customer Rep 
 WITN.          Rufat Huseynov:  Customer Rep 2 
 WOBA.klb                11.00:  WOB Avg 
 WOBX.klb                15.00:  WOB Max 
 YP  .lhf2               28.00:  Yield Point 
~Curve Information Block
#MNEM.UNIT                 API CODE     Curve Description
#---------               -----------    ---------------------------
 TIME.HHMMSS            00 000 000 000:  GT Time & Date
 GTDEPTH.m              00 000 000 000:  GT Depth
 GTPQH.psia             00 000 000 000:  GT HR Quartz Pressure
 GTTQ.degC              00 000 000 000:  GT Quartz Temperature
 GTTN.NONE              00 000 000 000:  GT Test Number
 GTET.sec               00 000 000 000:  GT Elapsed Test Time
 GTTVD.m                00 000 000 000:  GT True Vertical Depth
#Other Information
#
#WARRANTY: Halliburton will use its best efforts to furnish customers with 
#accurate information and interpretations that are part of, and incident to, the services 
#provided.  However, Halliburton cannot and does not warrant the accuracy 
#or correctness of such information and interpretations.  Under no circumstances should any 
#such information or interpretation be relied upon as the sole basis for any drilling, 
#completion, production, or financial decision or any procedure involving any risk to the 
#safety of any drilling venture, drilling rig or its crew or any other third party.  The 
#Customer has full responsibility for all drilling, completion and production operation.  
#Halliburton makes no representations or warranties, either expressed or 
#implied, including, but not limited to, the implied warranties of merchantability or fitness 
#for a particular purpose, with respect to the services rendered.  In no event will 
#Halliburton be liable for failure to obtain any particular results or for 
#any damages, including, but not limited to, indirect, special or consequential damages, 
#resulting from the use of any information or interpretation provided by Halliburton.
#
~A           TIME           GTDEPTH  GTPQH  GTTQ  GTTN  GTET   GTTVD  
# ...
   16:52:07.522.18-Jul-2021 4545.00 6666.94 74.88 6.00 368.14 2734.68
   16:52:07.722.18-Jul-2021 4545.00 6666.94 74.88 6.00 368.34 2734.68
   16:52:07.922.18-Jul-2021 4545.00 6690.13 74.88 6.00 368.54 2734.68
   16:52:08.122.18-Jul-2021 4545.00 6680.24 74.88 6.00 368.74 2734.68
   16:52:08.322.18-Jul-2021 4545.00 6679.39 74.88 6.00 368.94 2734.68
   16:52:08.522.18-Jul-2021 4545.00 6690.37 74.88 6.00 369.14 2734.68
   16:52:08.722.18-Jul-2021 4545.00 6690.37 74.88 6.00 369.34 2734.68
   16:52:08.922.18-Jul-2021 4545.00 6696.28 74.88 6.00 369.54 2734.68
   16:52:09.122.18-Jul-2021 4545.00 6678.86 74.88 6.00 369.74 2734.68
   16:52:09.322.18-Jul-2021 4545.00 6667.22 74.88 6.00 369.94 2734.68
   16:52:09.522.18-Jul-2021 4545.00 6669.81 74.88 6.00 370.14 2734.68
   16:52:09.722.18-Jul-2021 4545.00 6669.81 74.88 6.00 370.34 2734.68
   16:52:09.922.18-Jul-2021 4545.00 6673.27 74.88 6.00 370.54 2734.68
   16:52:10.123.18-Jul-2021 4545.00 6666.42 74.88 6.00 370.74 2734.68
   16:52:10.323.18-Jul-2021 4545.00 6668.36 74.88 6.00 370.94 2734.68
   16:52:10.523.18-Jul-2021 4545.00 6672.71 74.88 6.00 371.14 2734.68
   16:52:10.723.18-Jul-2021 4545.00 6672.71 74.88 6.00 371.34 2734.68
   16:52:10.923.18-Jul-2021 4545.00 6687.55 74.88 6.00 371.54 2734.68
   16:52:11.123.18-Jul-2021 4545.00 6676.98 74.88 6.00 371.74 2734.68
   16:52:11.323.18-Jul-2021 4545.00 6669.96 74.88 6.00 371.94 2734.68
   16:52:11.523.18-Jul-2021 4545.00 6674.75 74.88 6.00 372.14 2734.68
   16:52:11.723.18-Jul-2021 4545.00 6674.75 74.88 6.00 372.34 2734.68
   16:52:11.923.18-Jul-2021 4545.00 6670.26 74.88 6.00 372.54 2734.68
   16:52:12.123.18-Jul-2021 4545.00 6670.21 74.88 6.00 372.74 2734.68
   16:52:12.323.18-Jul-2021 4545.00 6670.55 74.88 6.00 372.94 2734.68
   16:52:12.523.18-Jul-2021 4545.00 6670.09 74.88 6.00 373.14 2734.68
   16:52:12.723.18-Jul-2021 4545.00 6670.09 74.88 6.00 373.34 2734.68
   16:52:12.924.18-Jul-2021 4545.00 6669.36 74.88 6.00 373.54 2734.68
   16:52:13.124.18-Jul-2021 4545.00 6668.42 74.88 6.00 373.74 2734.68
   16:52:13.324.18-Jul-2021 4545.00 6669.23 74.87 6.00 373.94 2734.68
   16:52:13.524.18-Jul-2021 4545.00 6669.45 74.88 6.00 374.14 2734.68
   16:52:13.724.18-Jul-2021 4545.00 6669.45 74.88 6.00 374.34 2734.68
   16:52:13.924.18-Jul-2021 4545.00 6669.45 74.88 6.00 374.54 2734.68
   16:52:14.124.18-Jul-2021 4545.00 6666.48 74.87 6.00 374.74 2734.68
   16:52:14.324.18-Jul-2021 4545.00 6671.06 74.87 6.00 374.94 2734.68
   16:52:14.524.18-Jul-2021 4545.00 6672.30 74.87 6.00 375.14 2734.68
   16:52:14.724.18-Jul-2021 4545.00 6672.30 74.87 6.00 375.34 2734.68
   16:52:14.924.18-Jul-2021 4545.00 6667.16 74.87 6.00 375.54 2734.68
   16:52:15.124.18-Jul-2021 4545.00 6667.18 74.87 6.00 375.74 2734.68
   16:52:15.324.18-Jul-2021 4545.00 6667.24 74.87 6.00 375.94 2734.68
   16:52:15.524.18-Jul-2021 4545.00 6667.49 74.87 6.00 376.14 2734.68
   16:52:15.725.18-Jul-2021 4545.00 6667.49 74.87 6.00 376.34 2734.68
   16:52:15.925.18-Jul-2021 4545.00 6668.95 74.87 6.00 376.54 2734.68
   16:52:16.125.18-Jul-2021 4545.00 6670.03 74.87 6.00 376.74 2734.68
   16:52:16.325.18-Jul-2021 4545.00 6696.14 74.87 6.00 376.94 2734.68
   16:52:16.525.18-Jul-2021 4545.00 6672.53 74.87 6.00 377.14 2734.68
   16:52:16.725.18-Jul-2021 4545.00 6672.53 74.87 6.00 377.34 2734.68
   16:52:16.925.18-Jul-2021 4545.00 6694.50 74.87 6.00 377.54 2734.68
   16:52:17.125.18-Jul-2021 4545.00 6682.90 74.87 6.00 377.74 2734.68
   16:52:17.325.18-Jul-2021 4545.00 6668.73 74.87 6.00 377.94 2734.68
   16:52:17.525.18-Jul-2021 4545.00 6693.23 74.87 6.00 378.14 2734.68
   16:52:17.725.18-Jul-2021 4545.00 6693.23 74.87 6.00 378.34 2734.68
   16:52:17.925.18-Jul-2021 4545.00 6666.62 74.87 6.00 378.54 2734.68
   16:52:18.125.18-Jul-2021 4545.00 6699.58 74.87 6.00 378.74 2734.68
   16:52:18.326.18-Jul-2021 4545.00 6675.19 74.87 6.00 378.94 2734.68
   16:52:18.526.18-Jul-2021 4545.00 6663.64 74.87 6.00 379.14 2734.68
   16:52:18.726.18-Jul-2021 4545.00 6663.64 74.87 6.00 379.34 2734.68
   16:52:18.926.18-Jul-2021 4545.00 6694.53 74.87 6.00 379.54 2734.68
   16:52:19.126.18-Jul-2021 4545.00 6681.17 74.87 6.00 379.74 2734.68
   16:52:19.326.18-Jul-2021 4545.00 6670.75 74.87 6.00 379.94 2734.68
   16:52:19.526.18-Jul-2021 4545.00 6672.24 74.87 6.00 380.14 2734.68
   16:52:19.726.18-Jul-2021 4545.00 6672.24 74.87 6.00 380.34 2734.68
   16:52:19.926.18-Jul-2021 4545.00 6669.06 74.87 6.00 380.54 2734.68
   16:52:20.126.18-Jul-2021 4545.00 6670.59 74.87 6.00 380.74 2734.68
   16:52:20.326.18-Jul-2021 4545.00 6671.36 74.87 6.00 380.94 2734.68
   16:52:20.526.18-Jul-2021 4545.00 6669.89 74.87 6.00 381.14 2734.68
   16:52:20.726.18-Jul-2021 4545.00 6669.89 74.87 6.00 381.34 2734.68
   16:52:20.926.18-Jul-2021 4545.00 6669.40 74.87 6.00 381.54 2734.68
   16:52:21.127.18-Jul-2021 4545.00 6669.55 74.87 6.00 381.74 2734.68
   16:52:21.327.18-Jul-2021 4545.00 6669.19 74.87 6.00 381.94 2734.68
   16:52:21.527.18-Jul-2021 4545.00 6668.64 74.87 6.00 382.14 2734.68
   16:52:21.727.18-Jul-2021 4545.00 6668.64 74.87 6.00 382.34 2734.68
   16:52:21.927.18-Jul-2021 4545.00 6678.93 74.87 6.00 382.54 2734.68
   16:52:22.127.18-Jul-2021 4545.00 6672.21 74.87 6.00 382.74 2734.68
   16:52:22.327.18-Jul-2021 4545.00 6670.08 74.87 6.00 382.94 2734.68
   16:52:22.527.18-Jul-2021 4545.00 6670.47 74.87 6.00 383.14 2734.68
   16:52:22.727.18-Jul-2021 4545.00 6670.47 74.87 6.00 383.34 2734.68
   16:52:22.927.18-Jul-2021 4545.00 6667.54 74.87 6.00 383.54 2734.68
   16:52:23.127.18-Jul-2021 4545.00 6667.81 74.87 6.00 383.74 2734.68
   16:52:23.327.18-Jul-2021 4545.00 6667.23 74.87 6.00 383.94 2734.68
   16:52:23.527.18-Jul-2021 4545.00 6666.13 74.87 6.00 384.14 2734.68
   16:52:23.728.18-Jul-2021 4545.00 6666.13 74.87 6.00 384.34 2734.68
   16:52:23.928.18-Jul-2021 4545.00 6667.05 74.87 6.00 384.54 2734.68
   16:52:24.128.18-Jul-2021 4545.00 6667.43 74.87 6.00 384.74 2734.68
   16:52:24.328.18-Jul-2021 4545.00 6688.56 74.87 6.00 384.94 2734.68
   16:52:24.528.18-Jul-2021 4545.00 6678.49 74.87 6.00 385.14 2734.68
   16:52:24.728.18-Jul-2021 4545.00 6678.49 74.87 6.00 385.34 2734.68
   16:52:24.928.18-Jul-2021 4545.00 6698.42 74.87 6.00 385.54 2734.68
   16:52:25.128.18-Jul-2021 4545.00 6678.27 74.87 6.00 385.74 2734.68
   16:52:25.328.18-Jul-2021 4545.00 6669.78 74.87 6.00 385.94 2734.68
   16:52:25.528.18-Jul-2021 4545.00 6698.19 74.87 6.00 386.14 2734.68
   16:52:25.728.18-Jul-2021 4545.00 6698.19 74.87 6.00 386.34 2734.68
   16:52:25.928.18-Jul-2021 4545.00 6668.25 74.87 6.00 386.54 2734.68
   16:52:26.128.18-Jul-2021 4545.00 6690.09 74.87 6.00 386.74 2734.68
   16:52:26.328.18-Jul-2021 4545.00 6680.49 74.87 6.00 386.94 2734.68
   16:52:26.529.18-Jul-2021 4545.00 6669.46 74.87 6.00 387.14 2734.68
   16:52:26.729.18-Jul-2021 4545.00 6669.46 74.87 6.00 387.34 2734.68
   16:52:26.929.18-Jul-2021 4545.00 6696.76 74.87 6.00 387.54 2734.68
   16:52:27.129.18-Jul-2021 4545.00 6673.66 74.87 6.00 387.74 2734.68
   16:52:27.329.18-Jul-2021 4545.00 6669.23 74.87 6.00 387.94 2734.68
   16:52:27.529.18-Jul-2021 4545.00 6670.81 74.87 6.00 388.14 2734.68
   16:52:27.729.18-Jul-2021 4545.00 6670.81 74.87 6.00 388.34 2734.68
   16:52:27.929.18-Jul-2021 4545.00 6668.29 74.87 6.00 388.54 2734.68
   16:52:28.129.18-Jul-2021 4545.00 6669.64 74.87 6.00 388.74 2734.68
   16:52:28.329.18-Jul-2021 4545.00 6670.56 74.86 6.00 388.94 2734.68
   16:52:28.529.18-Jul-2021 4545.00 6670.08 74.86 6.00 389.14 2734.68
   16:52:28.729.18-Jul-2021 4545.00 6670.08 74.86 6.00 389.34 2734.68
   16:52:28.929.18-Jul-2021 4545.00 6670.35 74.86 6.00 389.54 2734.68
   16:52:29.129.18-Jul-2021 4545.00 6670.40 74.86 6.00 389.74 2734.68
   16:52:29.330.18-Jul-2021 4545.00 6670.32 74.86 6.00 389.94 2734.68
   16:52:29.530.18-Jul-2021 4545.00 6669.70 74.86 6.00 390.14 2734.68
   16:52:29.730.18-Jul-2021 4545.00 6669.70 74.86 6.00 390.34 2734.68
   16:52:29.930.18-Jul-2021 4545.00 6686.09 74.86 6.00 390.54 2734.68
   16:52:30.130.18-Jul-2021 4545.00 6676.32 74.86 6.00 390.74 2734.68
   16:52:30.330.18-Jul-2021 4545.00 6670.20 74.86 6.00 390.94 2734.68
