~Version Information
 VERS.                  2.0:   CWLS log ASCII Standard -VERSION 2.0
 WRAP.                   NO:   One line per depth step
~Well Information Block
#MNEM.UNIT     VALUE/NAME     DESCRIPTION
#---------     -----------    ---------------------------
 STRT.S             05:02:49 19-Jul-21: START TIME 05:02:49 19-Jul-21
 STOP.S             05:09:40 19-Jul-21: STOP TIME  05:09:40 19-Jul-21
 STEP.S                   0.00: STEP TIME
 NULL.                 -999.25: NULL VALUE
 MDS .        Operator Entered:  MAG DATA SOURCE
 PDAT.          Mean Sea Level:  PERMANENT DATUM
 UNIT.                     N/A:  LOGGING EQUIPMENT ID
 DCON.         Sperry Drilling:  DIRECTNL CONTR
 DOE .                     N/A:  DOE NUMBER
 RIG .              West Azeri:  RIG NAME
 JOBN.        AZ-XX-0906997913:  JOB TICKET NUMB
 WELL.                     C41:  WELL NAME
 MWDS.                    Baku:  MWD SHOP
 SRVC.          Turan Drilling:  CONTRACTOR
 FLD .                     ACG:  FIELD NAME
 CTRY.              Azerbaijan:  COUNTRY NAME
 PROV.                    Baku:  PROVINCE
 STAT.                    Baku:  STATE NAME
 REGN.                   EESSA:  REGION
 BASE.              Azerbaijan:  LOGGING EQUIPMENT BASE LOCATION
 UWI .                     N/A:  UNIQUE WELL IDENTIFIER
 API .                     N/A:  API NUMBER
 COMP.     BP Exploration (Caspian Sea) Ltd.:  COMPANY
 WTYP.                Deviated:  WELL TYPE
 SON .        AZ-XX-0906997913:  JOB NUMBER
 FTOP.          Formation Tops:  FORM TOPS DESC
 ILTD.               Lithology:  INTERP LTH DESC
 SVYD.                  Survey:  SURVEY DESC
 DMOD.             Drill Model:  DRILL MOD DESC
 HPTY.       Minimum Curvature:  HOLE POS TYPE
 NREF.                    Grid:  NORTH REFERENCE
 SPUD.               16-May-21:  SPUD DATE
 DATE.      21.11.28 17-May-21:  END TIME
 STIM.      21.11.28 17-May-21:  START TIME
 DMF .             Drill Floor:  DRILL MEAS FROM
 DFST.                        :  DIST FSL TEXT
 DFWT.                        :  DIST FWL TEXT
 CNTY.                        :  COUNTY
 LOC .                        :  LOCATION
 LMF .             Drill Floor:  LOG MEASURED FROM
 AGAP.m                  43.42:  AIR GAP
 VSNS.m                  -2.16:  VERT SEC N/S
 VSEW.m                  -6.24:  VERT SEC E/W
 APD .m                  43.42:  DEPTH ABOVE PD
 WDMS.m                 118.27:  WD ELEV
 EGL .m                   0.00:  GROUND ELEVATION
 EPD .m                   0.00:  ELEVATION
 AZTC.deg                 6.29:  AZM TOTAL CORR
 GRDC.deg                 0.18:  GRID CORRECTION
 MDEC.deg                 6.47:  MAGNETIC DECL
 MDIP.deg                59.54:  MAGNETIC DIP
 MFLD.nT              50337.00:  MAGNETIC FIELD
 GVFD.g                   1.00:  GRAVITY FIELD
 VSDR.deg               226.99:  VERT SEC DIRECT
 TDD .m                   0.00:  TOTAL DEPTH (DRILLER)
 SDEP.m                 448.00:  START DEPTH
 DFSL.m                   0.00:  DISTANCE FSL
 DFWL.m                   0.00:  DISTANCE FWL
 UTMY.m             4435799.96:  UTM Y
 UTMX.m              526265.35:  UTM X
 WHEW.m                  -6.24:  WELL HEAD E/W
 WHNS.m                  -2.16:  WELL HEAD N/S
 LONG.deg                51.31:  LONGITUDE
 LATI.deg                40.06:  LATITUDE
 TVDS.m                  43.42:  TVDSS CORRECTN
 EKB .m                  43.42:  KB ELEVATION
 EDF .m                  43.42:  DF ELEVATION
 TDL .m                 288.00:  TOTAL DEPTH (LOGGER)
 MAGU.                 1851863:  MAGUTM CHECKSUM
 VSC .                       0:  VS TO CLOSURE
~Parameter Information Block
#MNEM.UNIT       Value        Description
#---------     -----------    ---------------------------
 AV  .mps                 0.40:  Ann Velocity 
 AVMX.mps                 0.63:  Max Ann Veloc 
 AZIF.deg               158.76:  Azm, Final 
 BHAT.        Rotary Steerable:  BHA Type 
 BROT.°/30m               0.68:  Build Rotating 
 BS  .in                  8.50:  Bit Size 
 BSZ .in                  8.50:  Bit Size 
 BTPL.psig              712.00:  Bit Press Loss 
 CABU.                      No:  Customer Abuse 
 COMM.                     'i:  Run Comments 1 
 TCS .hr                 90.66:  Time Ciculation Ended 
 CV  .mps                 2.02:  Crit Velocity 
 CVMX.mps                 2.14:  Max Crit Veloc 
 DD1 .            Aziz Aliyevu:  Direct Drillr 1 
 DD2 .             Samir Abbas:  Direct Drillr 2 
 DD3 .           Teymur Aliyev:  Direct Drillr 3 
 DDSV.                 iCruise:  DD Service 
 DEFF.%                  85.10:  % Det Eff 
 DLRX.°/30m               1.05:  Dogleg Rot Max 
 DLSO.°/30m               1.01:  Dogleg Oriented 
 DLSX.°/30m               1.05:  Dogleg Str Max 
 DRET.      07.45.00 18-Jul-21:  Drill End Time 
 DRST.      15.00.00 16-Jul-21:  Drill Start Tim 
 DTIM.hr                 23.46:  Time Drilling 
 EDEP.m                4603.00:  End Depth 
 ENG1.       Seymur Iskandarov:  Engineer 1 
 ENG2.         Yevgeniy Ulikov:  Engineer 2 
 ENG3.         Bahruz Mehdiyev:  Engineer 3 
 ENG4.         Elchin Mammadov:  Engineer 4 
 ETIM.      14.00.00 23-Jul-21:  End Time 
 FLOI.gpm               500.00:  Flow In 
 FLON.gpm               450.00:  Flow In Min 
 FLOS.cptm                0.00:  Fluid Loss 
 FLOX.gpm               560.00:  Flow In Max 
 DFT .        Mineral Oil Base:  Mud Type 
 FTRO.       Formation Presure:  FTWD Run Obj 
 HFLO.                      No:  High Flow 
 HPRE.                      No:  High Pressure 
 HTEM.                      No:  High Temp 
 HYDO.m                   1.80:  Hydro Offset 
 IFIN.deg                40.22:  Inc, Final 
 IMAX.deg                40.54:  Inc Max 
 IMIN.deg                39.44:  Inc Min 
 IMND.m                4361.17:  Inc Min Depth 
 IMXD.m                4417.92:  Inc Max Depth 
 JARR.                      No:  Jarring 
 LETM.      07.45.00 18-Jul-21:  Log End Time 
 LOST.hr                    16:  Lost Rig Time 
 LSTM.      15.00.00 16-Jul-21:  Log Start Time 
 MDCL.ppm             36500.00:  Mud Chlorides 
 MDES.     Inversion Oil/Synthetic:  Mud Desc 
 DFD .sg                  1.42:  Mud Density 
 MDMN.sg                  1.42:  Dens Mud Min 
 MDMX.sg                  1.43:  Dens Mud Max 
 MOIL.                      56:  Run Mud Oil % 
 MOWR.                   71:29:  Run Mud OWR 
 MSND.                     0.5:  Run Mud Sand % 
 MSOL.                      21:  Run Mud Solids% 
 DFV .spqt               78.00:  Mud Viscosity 
 MWOD.in                  6.75:  MWD Tool OD 
 MWSI.                     Yes:  Serv Intrp, MWD 
 OTIM.hr                200.73:  Time Operating 
 PCON.           Look Like New:  Pad Condition 
 PMAX.psia            11069.93:  Press Op, Max 
 PV  .cP                 32.00:  Mud PV 
 RUN .                     700:  Run Number 
 ROPA.m/hr               10.00:  ROP Avg 
 ROPN.m/hr                9.00:  ROP Min 
 ROPX.m/hr               16.00:  ROP Max 
 RPMA.rpm               116.00:  RPM Surface Avg 
 RPMN.rpm                80.00:  RPM Surface Min 
 RPMX.rpm               120.00:  RPM Surface Max 
 RRUN.                    L605:  Rig Run Number 
 RTIM.hr                 45.00:  Time Reaming 
 SAZI.deg               159.86:  Azm, Start 
 SDEP.m                4315.00:  Start Depth 
 SIDD.                      No:  Serv Intrp, DD 
 SINC.deg                39.86:  Inc, Start 
 SPPA.psig             3300.00:  SPP Avg 
 SPPN.psig             3040.00:  SPP Min 
 SPPX.psig             3645.00:  SPP Max 
 STIM.      01.00.00 15-Jul-21:  Start Time 
 SVCS.                 DD, MWD:  Services 
 SVER.                    9.20:  Sperry Version 
 TDAT.m                 288.00:  Tot Depth Attmp 
 TDDF.                      No:  Trip for DD 
 TDLG.m                 288.00:  Tot Depth Loggd 
 TFF .                      No:  Trip for Fail 
 TQAA.f-kp               19.00:  Torque Abs Avg 
 TQAN.f-kp               18.00:  Torque Abs Min 
 TQAX.f-kp               21.00:  Torque Abs Max 
 TRRT.°/30m               0.45:  Turn Rotating 
 MRT .                    HCIM:  Maximum Recorded Temperature 
 TTMX.degC               88.24:  Max Tool Temp 
 VS01.                90649157:  Virtual Str1 SN 
 VS02.                90652483:  Virtual Str2 SN 
 VS03.                11671987:  Virtual Str3 SN 
 VS04.                90643411:  Virtual Str4 SN 
 VS05.                90652478:  Virtual Str5 SN 
 VS06.                    6111:  Virtual Str6 SN 
 WBMN.klb                 9.50:  WOB Min 
 WITN.        Grigoriy Sarayev:  Customer Rep 
 WITN.          Rufat Huseynov:  Customer Rep 2 
 WOBA.klb                11.00:  WOB Avg 
 WOBX.klb                15.00:  WOB Max 
 YP  .lhf2               28.00:  Yield Point 
~Curve Information Block
#MNEM.UNIT                 API CODE     Curve Description
#---------               -----------    ---------------------------
 TIME.HHMMSS            00 000 000 000:  GT Time & Date
 GTDEPTH.m              00 000 000 000:  GT Depth
 GTPQH.psia             00 000 000 000:  GT HR Quartz Pressure
 GTTQ.degC              00 000 000 000:  GT Quartz Temperature
 GTTN.NONE              00 000 000 000:  GT Test Number
 GTET.sec               00 000 000 000:  GT Elapsed Test Time
 GTTVD.m                00 000 000 000:  GT True Vertical Depth
#Other Information
#
#WARRANTY: Halliburton will use its best efforts to furnish customers with 
#accurate information and interpretations that are part of, and incident to, the services 
#provided.  However, Halliburton cannot and does not warrant the accuracy 
#or correctness of such information and interpretations.  Under no circumstances should any 
#such information or interpretation be relied upon as the sole basis for any drilling, 
#completion, production, or financial decision or any procedure involving any risk to the 
#safety of any drilling venture, drilling rig or its crew or any other third party.  The 
#Customer has full responsibility for all drilling, completion and production operation.  
#Halliburton makes no representations or warranties, either expressed or 
#implied, including, but not limited to, the implied warranties of merchantability or fitness 
#for a particular purpose, with respect to the services rendered.  In no event will 
#Halliburton be liable for failure to obtain any particular results or for 
#any damages, including, but not limited to, indirect, special or consequential damages, 
#resulting from the use of any information or interpretation provided by Halliburton.
#
~A           TIME           GTDEPTH  GTPQH  GTTQ  GTTN   GTET   GTTVD  
# ...
   05:03:12.273.19-Jul-2021 4356.00 6306.70 68.84 12.00  22.61 2590.09
   05:03:12.473.19-Jul-2021 4356.00 6306.97 68.84 12.00  22.81 2590.09
   05:03:12.673.19-Jul-2021 4356.00 6306.78 68.84 12.00  23.01 2590.09
   05:03:12.873.19-Jul-2021 4356.00 6306.78 68.84 12.00  23.21 2590.09
   05:03:13.073.19-Jul-2021 4356.00 6306.77 68.84 12.00  23.41 2590.09
   05:03:13.273.19-Jul-2021 4356.00 6322.96 68.84 12.00  23.61 2590.09
   05:03:13.473.19-Jul-2021 4356.00 6309.77 68.84 12.00  23.81 2590.09
   05:03:13.673.19-Jul-2021 4356.00 6308.43 68.84 12.00  24.01 2590.09
   05:03:13.874.19-Jul-2021 4356.00 6308.43 68.84 12.00  24.21 2590.09
   05:03:14.074.19-Jul-2021 4356.00 6310.38 68.84 12.00  24.41 2590.09
   05:03:14.274.19-Jul-2021 4356.00 6310.89 68.84 12.00  24.61 2590.09
   05:03:14.474.19-Jul-2021 4356.00 6310.83 68.84 12.00  24.81 2590.09
   05:03:14.674.19-Jul-2021 4356.00 6309.20 68.84 12.00  25.01 2590.09
   05:03:14.874.19-Jul-2021 4356.00 6309.20 68.84 12.00  25.21 2590.09
   05:03:15.074.19-Jul-2021 4356.00 6309.14 68.84 12.00  25.41 2590.09
   05:03:15.274.19-Jul-2021 4356.00 6308.33 68.84 12.00  25.61 2590.09
   05:03:15.474.19-Jul-2021 4356.00 6307.18 68.84 12.00  25.81 2590.09
   05:03:15.674.19-Jul-2021 4356.00 6307.90 68.84 12.00  26.01 2590.09
   05:03:15.874.19-Jul-2021 4356.00 6307.90 68.84 12.00  26.21 2590.09
   05:03:16.074.19-Jul-2021 4356.00 6309.46 68.84 12.00  26.41 2590.09
   05:03:16.274.19-Jul-2021 4356.00 6306.14 68.84 12.00  26.61 2590.09
   05:03:16.475.19-Jul-2021 4356.00 6339.34 68.84 12.00  26.81 2590.09
   05:03:16.675.19-Jul-2021 4356.00 6303.29 68.84 12.00  27.01 2590.09
   05:03:16.875.19-Jul-2021 4356.00 6303.29 68.84 12.00  27.21 2590.09
   05:03:17.075.19-Jul-2021 4356.00 6319.79 68.84 12.00  27.41 2590.09
   05:03:17.275.19-Jul-2021 4356.00 6309.31 68.84 12.00  27.61 2590.09
   05:03:17.475.19-Jul-2021 4356.00 6332.11 68.84 12.00  27.81 2590.09
   05:03:17.675.19-Jul-2021 4356.00 6307.91 68.84 12.00  28.01 2590.09
   05:03:17.875.19-Jul-2021 4356.00 6307.91 68.84 12.00  28.21 2590.09
   05:03:18.075.19-Jul-2021 4356.00 6315.20 68.84 12.00  28.41 2590.09
   05:03:18.275.19-Jul-2021 4356.00 6331.61 68.84 12.00  28.61 2590.09
   05:03:18.475.19-Jul-2021 4356.00 6312.59 68.84 12.00  28.81 2590.09
   05:03:18.675.19-Jul-2021 4356.00 6311.38 68.84 12.00  29.01 2590.09
   05:03:18.875.19-Jul-2021 4356.00 6311.38 68.84 12.00  29.21 2590.09
   05:03:19.075.19-Jul-2021 4356.00 6311.91 68.84 12.00  29.41 2590.09
   05:03:19.276.19-Jul-2021 4356.00 6337.37 68.84 12.00  29.61 2590.09
   05:03:19.476.19-Jul-2021 4356.00 6306.37 68.84 12.00  29.81 2590.09
   05:03:19.676.19-Jul-2021 4356.00 6311.52 68.84 12.00  30.01 2590.09
   05:03:19.876.19-Jul-2021 4356.00 6311.52 68.84 12.00  30.21 2590.09
   05:03:20.076.19-Jul-2021 4356.00 6316.64 68.84 12.00  30.41 2590.09
   05:03:20.276.19-Jul-2021 4356.00 6305.40 68.84 12.00  30.61 2590.09
   05:03:20.476.19-Jul-2021 4356.00 6286.20 68.84 12.00  30.81 2590.09
   05:03:20.676.19-Jul-2021 4356.00 6269.34 68.84 12.00  31.01 2590.09
   05:03:20.876.19-Jul-2021 4356.00 6269.34 68.84 12.00  31.21 2590.09
   05:03:21.076.19-Jul-2021 4356.00 6234.08 68.84 12.00  31.41 2590.09
   05:03:21.276.19-Jul-2021 4356.00 6213.07 68.84 12.00  31.61 2590.09
   05:03:21.476.19-Jul-2021 4356.00 6189.28 68.84 12.00  31.81 2590.09
   05:03:21.676.19-Jul-2021 4356.00 6171.23 68.84 12.00  32.01 2590.09
   05:03:21.877.19-Jul-2021 4356.00 6171.23 68.84 12.00  32.21 2590.09
   05:03:22.077.19-Jul-2021 4356.00 6137.29 68.84 12.00  32.41 2590.09
   05:03:22.277.19-Jul-2021 4356.00 6100.83 68.84 12.00  32.61 2590.09
   05:03:22.477.19-Jul-2021 4356.00 6072.71 68.84 12.00  32.81 2590.09
   05:03:22.677.19-Jul-2021 4356.00 6055.31 68.84 12.00  33.01 2590.09
   05:03:22.877.19-Jul-2021 4356.00 6055.31 68.84 12.00  33.21 2590.09
   05:03:23.077.19-Jul-2021 4356.00 6041.65 68.84 12.00  33.41 2590.09
   05:03:23.277.19-Jul-2021 4356.00 5990.68 68.84 12.00  33.61 2590.09
   05:03:23.477.19-Jul-2021 4356.00 5945.80 68.84 12.00  33.81 2590.09
   05:03:23.677.19-Jul-2021 4356.00 5895.54 68.84 12.00  34.01 2590.09
   05:03:23.877.19-Jul-2021 4356.00 5895.54 68.84 12.00  34.21 2590.09
   05:03:24.077.19-Jul-2021 4356.00 5807.78 68.84 12.00  34.41 2590.09
   05:03:24.277.19-Jul-2021 4356.00 5756.03 68.84 12.00  34.61 2590.09
   05:03:24.477.19-Jul-2021 4356.00 5708.26 68.84 12.00  34.81 2590.09
   05:03:24.678.19-Jul-2021 4356.00 5662.98 68.84 12.00  35.01 2590.09
   05:03:24.878.19-Jul-2021 4356.00 5662.98 68.84 12.00  35.21 2590.09
   05:03:25.078.19-Jul-2021 4356.00 5576.67 68.84 12.00  35.41 2590.09
   05:03:25.278.19-Jul-2021 4356.00 5544.48 68.83 12.00  35.61 2590.09
   05:03:25.478.19-Jul-2021 4356.00 5511.07 68.83 12.00  35.81 2590.09
   05:03:25.678.19-Jul-2021 4356.00 5488.28 68.83 12.00  36.01 2590.09
   05:03:25.878.19-Jul-2021 4356.00 5488.28 68.83 12.00  36.21 2590.09
   05:03:26.078.19-Jul-2021 4356.00 5458.69 68.83 12.00  36.41 2590.09
   05:03:26.278.19-Jul-2021 4356.00 5446.13 68.83 12.00  36.61 2590.09
   05:03:26.478.19-Jul-2021 4356.00 5430.28 68.83 12.00  36.81 2590.09
   05:03:26.678.19-Jul-2021 4356.00 5419.00 68.83 12.00  37.01 2590.09
   05:03:26.878.19-Jul-2021 4356.00 5419.00 68.83 12.00  37.21 2590.09
   05:03:27.078.19-Jul-2021 4356.00 5394.44 68.83 12.00  37.41 2590.09
   05:03:27.279.19-Jul-2021 4356.00 5384.09 68.83 12.00  37.61 2590.09
   05:03:27.479.19-Jul-2021 4356.00 5376.10 68.83 12.00  37.81 2590.09
   05:03:27.679.19-Jul-2021 4356.00 5370.63 68.83 12.00  38.01 2590.09
   05:03:27.879.19-Jul-2021 4356.00 5370.63 68.83 12.00  38.21 2590.09
   05:03:28.079.19-Jul-2021 4356.00 5350.31 68.83 12.00  38.41 2590.09
   05:03:28.279.19-Jul-2021 4356.00 5344.83 68.83 12.00  38.61 2590.09
   05:03:28.479.19-Jul-2021 4356.00 5340.65 68.83 12.00  38.81 2590.09
   05:03:28.679.19-Jul-2021 4356.00 5336.73 68.83 12.00  39.01 2590.09
   05:03:28.879.19-Jul-2021 4356.00 5336.73 68.83 12.00  39.21 2590.09
   05:03:29.079.19-Jul-2021 4356.00 5333.22 68.83 12.00  39.41 2590.09
   05:03:29.279.19-Jul-2021 4356.00 5205.48 68.82 12.00  39.61 2590.09
   05:03:29.479.19-Jul-2021 4356.00 4274.85 68.82 12.00  39.81 2590.09
   05:03:29.679.19-Jul-2021 4356.00 3296.88 68.82 12.00  40.01 2590.09
   05:03:29.879.19-Jul-2021 4356.00 3296.88 68.82 12.00  40.21 2590.09
   05:03:30.080.19-Jul-2021 4356.00 1719.54 68.82 12.00  40.41 2590.09
   05:03:30.280.19-Jul-2021 4356.00 1125.04 68.82 12.00  40.61 2590.09
   05:03:30.480.19-Jul-2021 4356.00  879.77 68.82 12.00  40.82 2590.09
   05:03:30.680.19-Jul-2021 4356.00  904.04 68.82 12.00  41.02 2590.09
   05:03:30.880.19-Jul-2021 4356.00  904.04 68.82 12.00  41.22 2590.09
   05:03:31.080.19-Jul-2021 4356.00  910.96 68.81 12.00  41.42 2590.09
   05:03:31.280.19-Jul-2021 4356.00  925.83 68.81 12.00  41.62 2590.09
   05:03:31.480.19-Jul-2021 4356.00  980.59 68.81 12.00  41.82 2590.09
   05:03:31.680.19-Jul-2021 4356.00 1129.09 68.81 12.00  42.02 2590.09
   05:03:31.880.19-Jul-2021 4356.00 1129.09 68.81 12.00  42.22 2590.09
   05:03:32.080.19-Jul-2021 4356.00 1194.15 68.80 12.00  42.42 2590.09
   05:03:32.280.19-Jul-2021 4356.00 1205.16 68.80 12.00  42.62 2590.09
   05:03:32.480.19-Jul-2021 4356.00 1205.54 68.80 12.00  42.82 2590.09
   05:03:32.680.19-Jul-2021 4356.00 1217.71 68.79 12.00  43.02 2590.09
   05:03:32.881.19-Jul-2021 4356.00 1217.71 68.79 12.00  43.22 2590.09
   05:03:33.081.19-Jul-2021 4356.00 1232.63 68.79 12.00  43.42 2590.09
   05:03:33.281.19-Jul-2021 4356.00 1245.35 68.78 12.00  43.62 2590.09
   05:03:33.481.19-Jul-2021 4356.00 1246.10 68.78 12.00  43.82 2590.09
   05:03:33.681.19-Jul-2021 4356.00 1258.02 68.78 12.00  44.02 2590.09
   05:03:33.881.19-Jul-2021 4356.00 1258.02 68.78 12.00  44.22 2590.09
   05:03:34.081.19-Jul-2021 4356.00 1206.99 68.77 12.00  44.42 2590.09
   05:03:34.281.19-Jul-2021 4356.00 1210.42 68.77 12.00  44.62 2590.09
   05:03:34.481.19-Jul-2021 4356.00 1177.21 68.77 12.00  44.82 2590.09
   05:03:34.681.19-Jul-2021 4356.00 1181.78 68.77 12.00  45.02 2590.09
