~Version Information
 VERS.                  2.0:   CWLS log ASCII Standard -VERSION 2.0
 WRAP.                   NO:   One line per depth step
~Well Information Block
#MNEM.UNIT     VALUE/NAME     DESCRIPTION
#---------     -----------    ---------------------------
 STRT.S             14:01:43 18-Jul-21: START TIME 14:01:43 18-Jul-21
 STOP.S             14:08:15 18-Jul-21: STOP TIME  14:08:15 18-Jul-21
 STEP.S                   0.00: STEP TIME
 NULL.                 -999.25: NULL VALUE
 MDS .        Operator Entered:  MAG DATA SOURCE
 PDAT.          Mean Sea Level:  PERMANENT DATUM
 UNIT.                     N/A:  LOGGING EQUIPMENT ID
 DCON.         Sperry Drilling:  DIRECTNL CONTR
 DOE .                     N/A:  DOE NUMBER
 RIG .              West Azeri:  RIG NAME
 JOBN.        AZ-XX-0906997913:  JOB TICKET NUMB
 WELL.                     C41:  WELL NAME
 MWDS.                    Baku:  MWD SHOP
 SRVC.          Turan Drilling:  CONTRACTOR
 FLD .                     ACG:  FIELD NAME
 CTRY.              Azerbaijan:  COUNTRY NAME
 PROV.                    Baku:  PROVINCE
 STAT.                    Baku:  STATE NAME
 REGN.                   EESSA:  REGION
 BASE.              Azerbaijan:  LOGGING EQUIPMENT BASE LOCATION
 UWI .                     N/A:  UNIQUE WELL IDENTIFIER
 API .                     N/A:  API NUMBER
 COMP.     BP Exploration (Caspian Sea) Ltd.:  COMPANY
 WTYP.                Deviated:  WELL TYPE
 SON .        AZ-XX-0906997913:  JOB NUMBER
 FTOP.          Formation Tops:  FORM TOPS DESC
 ILTD.               Lithology:  INTERP LTH DESC
 SVYD.                  Survey:  SURVEY DESC
 DMOD.             Drill Model:  DRILL MOD DESC
 HPTY.       Minimum Curvature:  HOLE POS TYPE
 NREF.                    Grid:  NORTH REFERENCE
 SPUD.               16-May-21:  SPUD DATE
 DATE.      21.11.28 17-May-21:  END TIME
 STIM.      21.11.28 17-May-21:  START TIME
 DMF .             Drill Floor:  DRILL MEAS FROM
 DFST.                        :  DIST FSL TEXT
 DFWT.                        :  DIST FWL TEXT
 CNTY.                        :  COUNTY
 LOC .                        :  LOCATION
 LMF .             Drill Floor:  LOG MEASURED FROM
 AGAP.m                  43.42:  AIR GAP
 VSNS.m                  -2.16:  VERT SEC N/S
 VSEW.m                  -6.24:  VERT SEC E/W
 APD .m                  43.42:  DEPTH ABOVE PD
 WDMS.m                 118.27:  WD ELEV
 EGL .m                   0.00:  GROUND ELEVATION
 EPD .m                   0.00:  ELEVATION
 AZTC.deg                 6.29:  AZM TOTAL CORR
 GRDC.deg                 0.18:  GRID CORRECTION
 MDEC.deg                 6.47:  MAGNETIC DECL
 MDIP.deg                59.54:  MAGNETIC DIP
 MFLD.nT              50337.00:  MAGNETIC FIELD
 GVFD.g                   1.00:  GRAVITY FIELD
 VSDR.deg               226.99:  VERT SEC DIRECT
 TDD .m                   0.00:  TOTAL DEPTH (DRILLER)
 SDEP.m                 448.00:  START DEPTH
 DFSL.m                   0.00:  DISTANCE FSL
 DFWL.m                   0.00:  DISTANCE FWL
 UTMY.m             4435799.96:  UTM Y
 UTMX.m              526265.35:  UTM X
 WHEW.m                  -6.24:  WELL HEAD E/W
 WHNS.m                  -2.16:  WELL HEAD N/S
 LONG.deg                51.31:  LONGITUDE
 LATI.deg                40.06:  LATITUDE
 TVDS.m                  43.42:  TVDSS CORRECTN
 EKB .m                  43.42:  KB ELEVATION
 EDF .m                  43.42:  DF ELEVATION
 TDL .m                 288.00:  TOTAL DEPTH (LOGGER)
 MAGU.                 1851863:  MAGUTM CHECKSUM
 VSC .                       0:  VS TO CLOSURE
~Parameter Information Block
#MNEM.UNIT       Value        Description
#---------     -----------    ---------------------------
 AV  .mps                 0.40:  Ann Velocity 
 AVMX.mps                 0.63:  Max Ann Veloc 
 AZIF.deg               158.76:  Azm, Final 
 BHAT.        Rotary Steerable:  BHA Type 
 BROT.°/30m               0.68:  Build Rotating 
 BS  .in                  8.50:  Bit Size 
 BSZ .in                  8.50:  Bit Size 
 BTPL.psig              712.00:  Bit Press Loss 
 CABU.                      No:  Customer Abuse 
 COMM.                     <©Q:  Run Comments 1 
 TCS .hr                 90.66:  Time Ciculation Ended 
 CV  .mps                 2.02:  Crit Velocity 
 CVMX.mps                 2.14:  Max Crit Veloc 
 DD1 .            Aziz Aliyevu:  Direct Drillr 1 
 DD2 .             Samir Abbas:  Direct Drillr 2 
 DD3 .           Teymur Aliyev:  Direct Drillr 3 
 DDSV.                 iCruise:  DD Service 
 DEFF.%                  85.10:  % Det Eff 
 DLRX.°/30m               1.05:  Dogleg Rot Max 
 DLSO.°/30m               1.01:  Dogleg Oriented 
 DLSX.°/30m               1.05:  Dogleg Str Max 
 DRET.      07.45.00 18-Jul-21:  Drill End Time 
 DRST.      15.00.00 16-Jul-21:  Drill Start Tim 
 DTIM.hr                 23.46:  Time Drilling 
 EDEP.m                4603.00:  End Depth 
 ENG1.       Seymur Iskandarov:  Engineer 1 
 ENG2.         Yevgeniy Ulikov:  Engineer 2 
 ENG3.         Bahruz Mehdiyev:  Engineer 3 
 ENG4.         Elchin Mammadov:  Engineer 4 
 ETIM.      14.00.00 23-Jul-21:  End Time 
 FLOI.gpm               500.00:  Flow In 
 FLON.gpm               450.00:  Flow In Min 
 FLOS.cptm                0.00:  Fluid Loss 
 FLOX.gpm               560.00:  Flow In Max 
 DFT .        Mineral Oil Base:  Mud Type 
 FTRO.       Formation Presure:  FTWD Run Obj 
 HFLO.                      No:  High Flow 
 HPRE.                      No:  High Pressure 
 HTEM.                      No:  High Temp 
 HYDO.m                   1.80:  Hydro Offset 
 IFIN.deg                40.22:  Inc, Final 
 IMAX.deg                40.54:  Inc Max 
 IMIN.deg                39.44:  Inc Min 
 IMND.m                4361.17:  Inc Min Depth 
 IMXD.m                4417.92:  Inc Max Depth 
 JARR.                      No:  Jarring 
 LETM.      07.45.00 18-Jul-21:  Log End Time 
 LOST.hr                    16:  Lost Rig Time 
 LSTM.      15.00.00 16-Jul-21:  Log Start Time 
 MDCL.ppm             36500.00:  Mud Chlorides 
 MDES.     Inversion Oil/Synthetic:  Mud Desc 
 DFD .sg                  1.42:  Mud Density 
 MDMN.sg                  1.42:  Dens Mud Min 
 MDMX.sg                  1.43:  Dens Mud Max 
 MOIL.                      56:  Run Mud Oil % 
 MOWR.                   71:29:  Run Mud OWR 
 MSND.                     0.5:  Run Mud Sand % 
 MSOL.                      21:  Run Mud Solids% 
 DFV .spqt               78.00:  Mud Viscosity 
 MWOD.in                  6.75:  MWD Tool OD 
 MWSI.                     Yes:  Serv Intrp, MWD 
 OTIM.hr                200.73:  Time Operating 
 PCON.           Look Like New:  Pad Condition 
 PMAX.psia            11069.93:  Press Op, Max 
 PV  .cP                 32.00:  Mud PV 
 RUN .                     700:  Run Number 
 ROPA.m/hr               10.00:  ROP Avg 
 ROPN.m/hr                9.00:  ROP Min 
 ROPX.m/hr               16.00:  ROP Max 
 RPMA.rpm               116.00:  RPM Surface Avg 
 RPMN.rpm                80.00:  RPM Surface Min 
 RPMX.rpm               120.00:  RPM Surface Max 
 RRUN.                    L605:  Rig Run Number 
 RTIM.hr                 45.00:  Time Reaming 
 SAZI.deg               159.86:  Azm, Start 
 SDEP.m                4315.00:  Start Depth 
 SIDD.                      No:  Serv Intrp, DD 
 SINC.deg                39.86:  Inc, Start 
 SPPA.psig             3300.00:  SPP Avg 
 SPPN.psig             3040.00:  SPP Min 
 SPPX.psig             3645.00:  SPP Max 
 STIM.      01.00.00 15-Jul-21:  Start Time 
 SVCS.                 DD, MWD:  Services 
 SVER.                    9.20:  Sperry Version 
 TDAT.m                 288.00:  Tot Depth Attmp 
 TDDF.                      No:  Trip for DD 
 TDLG.m                 288.00:  Tot Depth Loggd 
 TFF .                      No:  Trip for Fail 
 TQAA.f-kp               19.00:  Torque Abs Avg 
 TQAN.f-kp               18.00:  Torque Abs Min 
 TQAX.f-kp               21.00:  Torque Abs Max 
 TRRT.°/30m               0.45:  Turn Rotating 
 MRT .                    HCIM:  Maximum Recorded Temperature 
 TTMX.degC               88.24:  Max Tool Temp 
 VS01.                90649157:  Virtual Str1 SN 
 VS02.                90652483:  Virtual Str2 SN 
 VS03.                11671987:  Virtual Str3 SN 
 VS04.                90643411:  Virtual Str4 SN 
 VS05.                90652478:  Virtual Str5 SN 
 VS06.                    6111:  Virtual Str6 SN 
 WBMN.klb                 9.50:  WOB Min 
 WITN.        Grigoriy Sarayev:  Customer Rep 
 WITN.          Rufat Huseynov:  Customer Rep 2 
 WOBA.klb                11.00:  WOB Avg 
 WOBX.klb                15.00:  WOB Max 
 YP  .lhf2               28.00:  Yield Point 
~Curve Information Block
#MNEM.UNIT                 API CODE     Curve Description
#---------               -----------    ---------------------------
 TIME.HHMMSS            00 000 000 000:  GT Time & Date
 GTDEPTH.m              00 000 000 000:  GT Depth
 GTPQH.psia             00 000 000 000:  GT HR Quartz Pressure
 GTTQ.degC              00 000 000 000:  GT Quartz Temperature
 GTTN.NONE              00 000 000 000:  GT Test Number
 GTET.sec               00 000 000 000:  GT Elapsed Test Time
 GTTVD.m                00 000 000 000:  GT True Vertical Depth
#Other Information
#
#WARRANTY: Halliburton will use its best efforts to furnish customers with 
#accurate information and interpretations that are part of, and incident to, the services 
#provided.  However, Halliburton cannot and does not warrant the accuracy 
#or correctness of such information and interpretations.  Under no circumstances should any 
#such information or interpretation be relied upon as the sole basis for any drilling, 
#completion, production, or financial decision or any procedure involving any risk to the 
#safety of any drilling venture, drilling rig or its crew or any other third party.  The 
#Customer has full responsibility for all drilling, completion and production operation.  
#Halliburton makes no representations or warranties, either expressed or 
#implied, including, but not limited to, the implied warranties of merchantability or fitness 
#for a particular purpose, with respect to the services rendered.  In no event will 
#Halliburton be liable for failure to obtain any particular results or for 
#any damages, including, but not limited to, indirect, special or consequential damages, 
#resulting from the use of any information or interpretation provided by Halliburton.
#
~A           TIME           GTDEPTH  GTPQH  GTTQ  GTTN  GTET   GTTVD  
# ...
   14:02:06.766.18-Jul-2021 4559.00 6648.68 75.24 3.00  23.01 2745.40
   14:02:06.966.18-Jul-2021 4559.00 6648.68 75.24 3.00  23.21 2745.40
   14:02:07.166.18-Jul-2021 4559.00 6627.82 75.24 3.00  23.41 2745.40
   14:02:07.366.18-Jul-2021 4559.00 6632.07 75.24 3.00  23.61 2745.40
   14:02:07.566.18-Jul-2021 4559.00 6649.34 75.24 3.00  23.81 2745.40
   14:02:07.766.18-Jul-2021 4559.00 6634.45 75.24 3.00  24.01 2745.40
   14:02:07.966.18-Jul-2021 4559.00 6634.45 75.24 3.00  24.21 2745.40
   14:02:08.166.18-Jul-2021 4559.00 6635.27 75.24 3.00  24.41 2745.40
   14:02:08.366.18-Jul-2021 4559.00 6630.58 75.24 3.00  24.61 2745.40
   14:02:08.566.18-Jul-2021 4559.00 6628.55 75.24 3.00  24.81 2745.40
   14:02:08.766.18-Jul-2021 4559.00 6629.31 75.24 3.00  25.01 2745.40
   14:02:08.966.18-Jul-2021 4559.00 6629.31 75.24 3.00  25.21 2745.40
   14:02:09.166.18-Jul-2021 4559.00 6630.40 75.24 3.00  25.41 2745.40
   14:02:09.366.18-Jul-2021 4559.00 6630.29 75.24 3.00  25.61 2745.40
   14:02:09.567.18-Jul-2021 4559.00 6630.31 75.24 3.00  25.81 2745.40
   14:02:09.767.18-Jul-2021 4559.00 6631.07 75.24 3.00  26.01 2745.40
   14:02:09.967.18-Jul-2021 4559.00 6631.07 75.24 3.00  26.21 2745.40
   14:02:10.167.18-Jul-2021 4559.00 6632.56 75.24 3.00  26.41 2745.40
   14:02:10.367.18-Jul-2021 4559.00 6652.56 75.24 3.00  26.61 2745.40
   14:02:10.567.18-Jul-2021 4559.00 6637.44 75.24 3.00  26.81 2745.40
   14:02:10.767.18-Jul-2021 4559.00 6630.12 75.24 3.00  27.01 2745.40
   14:02:10.967.18-Jul-2021 4559.00 6630.12 75.24 3.00  27.21 2745.40
   14:02:11.167.18-Jul-2021 4559.00 6636.04 75.24 3.00  27.41 2745.40
   14:02:11.367.18-Jul-2021 4559.00 6631.63 75.24 3.00  27.61 2745.40
   14:02:11.567.18-Jul-2021 4559.00 6631.08 75.24 3.00  27.81 2745.40
   14:02:11.767.18-Jul-2021 4559.00 6631.91 75.24 3.00  28.01 2745.40
   14:02:11.967.18-Jul-2021 4559.00 6631.91 75.24 3.00  28.21 2745.40
   14:02:12.168.18-Jul-2021 4559.00 6630.48 75.24 3.00  28.41 2745.40
   14:02:12.368.18-Jul-2021 4559.00 6630.63 75.24 3.00  28.61 2745.40
   14:02:12.568.18-Jul-2021 4559.00 6632.53 75.24 3.00  28.81 2745.40
   14:02:12.768.18-Jul-2021 4559.00 6632.58 75.24 3.00  29.01 2745.40
   14:02:12.968.18-Jul-2021 4559.00 6632.58 75.24 3.00  29.21 2745.40
   14:02:13.168.18-Jul-2021 4559.00 6642.42 75.24 3.00  29.41 2745.40
   14:02:13.368.18-Jul-2021 4559.00 6630.93 75.24 3.00  29.61 2745.40
   14:02:13.568.18-Jul-2021 4559.00 6656.52 75.24 3.00  29.81 2745.40
   14:02:13.768.18-Jul-2021 4559.00 6644.21 75.24 3.00  30.01 2745.40
   14:02:13.968.18-Jul-2021 4559.00 6644.21 75.24 3.00  30.21 2745.40
   14:02:14.168.18-Jul-2021 4559.00 6638.12 75.24 3.00  30.41 2745.40
   14:02:14.368.18-Jul-2021 4559.00 6635.80 75.24 3.00  30.61 2745.40
   14:02:14.568.18-Jul-2021 4559.00 6751.41 75.24 3.00  30.81 2745.40
   14:02:14.768.18-Jul-2021 4559.00 6931.63 75.24 3.00  31.01 2745.40
   14:02:14.969.18-Jul-2021 4559.00 6931.63 75.24 3.00  31.21 2745.40
   14:02:15.169.18-Jul-2021 4559.00 6890.53 75.24 3.00  31.41 2745.40
   14:02:15.369.18-Jul-2021 4559.00 6888.57 75.24 3.00  31.61 2745.40
   14:02:15.569.18-Jul-2021 4559.00 6828.20 75.24 3.00  31.81 2745.40
   14:02:15.769.18-Jul-2021 4559.00 6691.57 75.24 3.00  32.01 2745.40
   14:02:15.969.18-Jul-2021 4559.00 6691.57 75.24 3.00  32.21 2745.40
   14:02:16.169.18-Jul-2021 4559.00 6726.70 75.24 3.00  32.41 2745.40
   14:02:16.369.18-Jul-2021 4559.00 6744.67 75.24 3.00  32.61 2745.40
   14:02:16.569.18-Jul-2021 4559.00 6772.33 75.24 3.00  32.81 2745.40
   14:02:16.769.18-Jul-2021 4559.00 6790.47 75.24 3.00  33.01 2745.40
   14:02:16.969.18-Jul-2021 4559.00 6790.47 75.24 3.00  33.21 2745.40
   14:02:17.169.18-Jul-2021 4559.00 6805.91 75.25 3.00  33.41 2745.40
   14:02:17.369.18-Jul-2021 4559.00 6801.40 75.25 3.00  33.61 2745.40
   14:02:17.570.18-Jul-2021 4559.00 6798.47 75.25 3.00  33.81 2745.40
   14:02:17.770.18-Jul-2021 4559.00 6795.78 75.25 3.00  34.01 2745.40
   14:02:17.970.18-Jul-2021 4559.00 6795.78 75.25 3.00  34.21 2745.40
   14:02:18.170.18-Jul-2021 4559.00 6791.34 75.25 3.00  34.41 2745.40
   14:02:18.370.18-Jul-2021 4559.00 6789.36 75.25 3.00  34.61 2745.40
   14:02:18.570.18-Jul-2021 4559.00 6788.41 75.25 3.00  34.81 2745.40
   14:02:18.770.18-Jul-2021 4559.00 6787.41 75.25 3.00  35.01 2745.40
   14:02:18.970.18-Jul-2021 4559.00 6787.41 75.25 3.00  35.21 2745.40
   14:02:19.170.18-Jul-2021 4559.00 6787.28 75.25 3.00  35.41 2745.40
   14:02:19.370.18-Jul-2021 4559.00 6790.23 75.25 3.00  35.61 2745.40
   14:02:19.570.18-Jul-2021 4559.00 6785.91 75.25 3.00  35.81 2745.40
   14:02:19.770.18-Jul-2021 4559.00 6786.80 75.25 3.00  36.01 2745.40
   14:02:19.970.18-Jul-2021 4559.00 6786.80 75.25 3.00  36.21 2745.40
   14:02:20.170.18-Jul-2021 4559.00 6784.63 75.25 3.00  36.41 2745.40
   14:02:20.371.18-Jul-2021 4559.00 6783.29 75.25 3.00  36.61 2745.40
   14:02:20.571.18-Jul-2021 4559.00 6786.00 75.25 3.00  36.81 2745.40
   14:02:20.771.18-Jul-2021 4559.00 6778.21 75.25 3.00  37.01 2745.40
   14:02:20.971.18-Jul-2021 4559.00 6778.21 75.25 3.00  37.21 2745.40
   14:02:21.171.18-Jul-2021 4559.00 6777.09 75.25 3.00  37.41 2745.40
   14:02:21.371.18-Jul-2021 4559.00 6776.23 75.25 3.00  37.61 2745.40
   14:02:21.571.18-Jul-2021 4559.00 6775.90 75.25 3.00  37.81 2745.40
   14:02:21.771.18-Jul-2021 4559.00 6773.95 75.25 3.00  38.01 2745.40
   14:02:21.971.18-Jul-2021 4559.00 6773.95 75.25 3.00  38.21 2745.40
   14:02:22.171.18-Jul-2021 4559.00 6774.19 75.25 3.00  38.41 2745.40
   14:02:22.371.18-Jul-2021 4559.00 6771.92 75.25 3.00  38.61 2745.40
   14:02:22.571.18-Jul-2021 4559.00 6772.71 75.25 3.00  38.81 2745.40
   14:02:22.771.18-Jul-2021 4559.00 6773.28 75.25 3.00  39.01 2745.40
   14:02:22.971.18-Jul-2021 4559.00 6773.28 75.25 3.00  39.21 2745.40
   14:02:23.172.18-Jul-2021 4559.00 6771.88 75.25 3.00  39.41 2745.40
   14:02:23.372.18-Jul-2021 4559.00 6772.10 75.25 3.00  39.61 2745.40
   14:02:23.572.18-Jul-2021 4559.00 6771.16 75.25 3.00  39.81 2745.40
   14:02:23.772.18-Jul-2021 4559.00 6776.65 75.25 3.00  40.01 2745.40
   14:02:23.972.18-Jul-2021 4559.00 6776.65 75.25 3.00  40.21 2745.40
   14:02:24.172.18-Jul-2021 4559.00 6771.34 75.25 3.00  40.41 2745.40
   14:02:24.372.18-Jul-2021 4559.00 6771.99 75.25 3.00  40.61 2745.40
   14:02:24.572.18-Jul-2021 4559.00 6774.53 75.25 3.00  40.82 2745.40
   14:02:24.772.18-Jul-2021 4559.00 6774.49 75.25 3.00  41.02 2745.40
   14:02:24.972.18-Jul-2021 4559.00 6774.49 75.25 3.00  41.22 2745.40
   14:02:25.172.18-Jul-2021 4559.00 6777.79 75.25 3.00  41.42 2745.40
   14:02:25.372.18-Jul-2021 4559.00 6772.52 75.25 3.00  41.62 2745.40
   14:02:25.572.18-Jul-2021 4559.00 6771.69 75.25 3.00  41.82 2745.40
   14:02:25.773.18-Jul-2021 4559.00 6772.93 75.25 3.00  42.02 2745.40
   14:02:25.973.18-Jul-2021 4559.00 6772.93 75.25 3.00  42.22 2745.40
   14:02:26.173.18-Jul-2021 4559.00 6774.50 75.25 3.00  42.42 2745.40
   14:02:26.373.18-Jul-2021 4559.00 6773.23 75.25 3.00  42.62 2745.40
   14:02:26.573.18-Jul-2021 4559.00 6770.98 75.25 3.00  42.82 2745.40
   14:02:26.773.18-Jul-2021 4559.00 6772.88 75.25 3.00  43.02 2745.40
   14:02:26.973.18-Jul-2021 4559.00 6772.88 75.25 3.00  43.22 2745.40
   14:02:27.173.18-Jul-2021 4559.00 6771.34 75.25 3.00  43.42 2745.40
   14:02:27.373.18-Jul-2021 4559.00 6771.28 75.25 3.00  43.62 2745.40
   14:02:27.573.18-Jul-2021 4559.00 6771.79 75.25 3.00  43.82 2745.40
   14:02:27.773.18-Jul-2021 4559.00 6770.89 75.25 3.00  44.02 2745.40
   14:02:27.973.18-Jul-2021 4559.00 6770.89 75.25 3.00  44.22 2745.40
   14:02:28.173.18-Jul-2021 4559.00 6770.51 75.25 3.00  44.42 2745.40
   14:02:28.373.18-Jul-2021 4559.00 6769.88 75.25 3.00  44.62 2745.40
   14:02:28.574.18-Jul-2021 4559.00 6770.28 75.25 3.00  44.82 2745.40
   14:02:28.774.18-Jul-2021 4559.00 6769.68 75.25 3.00  45.02 2745.40
   14:02:28.974.18-Jul-2021 4559.00 6769.68 75.25 3.00  45.22 2745.40
   14:02:29.174.18-Jul-2021 4559.00 6773.80 75.25 3.00  45.42 2745.40
   14:02:29.374.18-Jul-2021 4559.00 6771.02 75.25 3.00  45.62 2745.40
   14:02:29.574.18-Jul-2021 4559.00 6770.61 75.25 3.00  45.82 2745.40
