~Version Information
 VERS.                  2.0:   CWLS log ASCII Standard -VERSION 2.0
 WRAP.                   NO:   One line per depth step
~Well Information Block
#MNEM.UNIT     VALUE/NAME     DESCRIPTION
#---------     -----------    ---------------------------
 STRT.S             23:00:58 18-Jul-21: START TIME 23:00:58 18-Jul-21
 STOP.S             23:07:34 18-Jul-21: STOP TIME  23:07:34 18-Jul-21
 STEP.S                   0.00: STEP TIME
 NULL.                 -999.25: NULL VALUE
 MDS .        Operator Entered:  MAG DATA SOURCE
 PDAT.          Mean Sea Level:  PERMANENT DATUM
 UNIT.                     N/A:  LOGGING EQUIPMENT ID
 DCON.         Sperry Drilling:  DIRECTNL CONTR
 DOE .                     N/A:  DOE NUMBER
 RIG .              West Azeri:  RIG NAME
 JOBN.        AZ-XX-0906997913:  JOB TICKET NUMB
 WELL.                     C41:  WELL NAME
 MWDS.                    Baku:  MWD SHOP
 SRVC.          Turan Drilling:  CONTRACTOR
 FLD .                     ACG:  FIELD NAME
 CTRY.              Azerbaijan:  COUNTRY NAME
 PROV.                    Baku:  PROVINCE
 STAT.                    Baku:  STATE NAME
 REGN.                   EESSA:  REGION
 BASE.              Azerbaijan:  LOGGING EQUIPMENT BASE LOCATION
 UWI .                     N/A:  UNIQUE WELL IDENTIFIER
 API .                     N/A:  API NUMBER
 COMP.     BP Exploration (Caspian Sea) Ltd.:  COMPANY
 WTYP.                Deviated:  WELL TYPE
 SON .        AZ-XX-0906997913:  JOB NUMBER
 FTOP.          Formation Tops:  FORM TOPS DESC
 ILTD.               Lithology:  INTERP LTH DESC
 SVYD.                  Survey:  SURVEY DESC
 DMOD.             Drill Model:  DRILL MOD DESC
 HPTY.       Minimum Curvature:  HOLE POS TYPE
 NREF.                    Grid:  NORTH REFERENCE
 SPUD.               16-May-21:  SPUD DATE
 DATE.      21.11.28 17-May-21:  END TIME
 STIM.      21.11.28 17-May-21:  START TIME
 DMF .             Drill Floor:  DRILL MEAS FROM
 DFST.                        :  DIST FSL TEXT
 DFWT.                        :  DIST FWL TEXT
 CNTY.                        :  COUNTY
 LOC .                        :  LOCATION
 LMF .             Drill Floor:  LOG MEASURED FROM
 AGAP.m                  43.42:  AIR GAP
 VSNS.m                  -2.16:  VERT SEC N/S
 VSEW.m                  -6.24:  VERT SEC E/W
 APD .m                  43.42:  DEPTH ABOVE PD
 WDMS.m                 118.27:  WD ELEV
 EGL .m                   0.00:  GROUND ELEVATION
 EPD .m                   0.00:  ELEVATION
 AZTC.deg                 6.29:  AZM TOTAL CORR
 GRDC.deg                 0.18:  GRID CORRECTION
 MDEC.deg                 6.47:  MAGNETIC DECL
 MDIP.deg                59.54:  MAGNETIC DIP
 MFLD.nT              50337.00:  MAGNETIC FIELD
 GVFD.g                   1.00:  GRAVITY FIELD
 VSDR.deg               226.99:  VERT SEC DIRECT
 TDD .m                   0.00:  TOTAL DEPTH (DRILLER)
 SDEP.m                 448.00:  START DEPTH
 DFSL.m                   0.00:  DISTANCE FSL
 DFWL.m                   0.00:  DISTANCE FWL
 UTMY.m             4435799.96:  UTM Y
 UTMX.m              526265.35:  UTM X
 WHEW.m                  -6.24:  WELL HEAD E/W
 WHNS.m                  -2.16:  WELL HEAD N/S
 LONG.deg                51.31:  LONGITUDE
 LATI.deg                40.06:  LATITUDE
 TVDS.m                  43.42:  TVDSS CORRECTN
 EKB .m                  43.42:  KB ELEVATION
 EDF .m                  43.42:  DF ELEVATION
 TDL .m                 288.00:  TOTAL DEPTH (LOGGER)
 MAGU.                 1851863:  MAGUTM CHECKSUM
 VSC .                       0:  VS TO CLOSURE
~Parameter Information Block
#MNEM.UNIT       Value        Description
#---------     -----------    ---------------------------
 AV  .mps                 0.40:  Ann Velocity 
 AVMX.mps                 0.63:  Max Ann Veloc 
 AZIF.deg               158.76:  Azm, Final 
 BHAT.        Rotary Steerable:  BHA Type 
 BROT.°/30m               0.68:  Build Rotating 
 BS  .in                  8.50:  Bit Size 
 BSZ .in                  8.50:  Bit Size 
 BTPL.psig              712.00:  Bit Press Loss 
 CABU.                      No:  Customer Abuse 
 COMM.                     ¼2`:  Run Comments 1 
 TCS .hr                 90.66:  Time Ciculation Ended 
 CV  .mps                 2.02:  Crit Velocity 
 CVMX.mps                 2.14:  Max Crit Veloc 
 DD1 .            Aziz Aliyevu:  Direct Drillr 1 
 DD2 .             Samir Abbas:  Direct Drillr 2 
 DD3 .           Teymur Aliyev:  Direct Drillr 3 
 DDSV.                 iCruise:  DD Service 
 DEFF.%                  85.10:  % Det Eff 
 DLRX.°/30m               1.05:  Dogleg Rot Max 
 DLSO.°/30m               1.01:  Dogleg Oriented 
 DLSX.°/30m               1.05:  Dogleg Str Max 
 DRET.      07.45.00 18-Jul-21:  Drill End Time 
 DRST.      15.00.00 16-Jul-21:  Drill Start Tim 
 DTIM.hr                 23.46:  Time Drilling 
 EDEP.m                4603.00:  End Depth 
 ENG1.       Seymur Iskandarov:  Engineer 1 
 ENG2.         Yevgeniy Ulikov:  Engineer 2 
 ENG3.         Bahruz Mehdiyev:  Engineer 3 
 ENG4.         Elchin Mammadov:  Engineer 4 
 ETIM.      14.00.00 23-Jul-21:  End Time 
 FLOI.gpm               500.00:  Flow In 
 FLON.gpm               450.00:  Flow In Min 
 FLOS.cptm                0.00:  Fluid Loss 
 FLOX.gpm               560.00:  Flow In Max 
 DFT .        Mineral Oil Base:  Mud Type 
 FTRO.       Formation Presure:  FTWD Run Obj 
 HFLO.                      No:  High Flow 
 HPRE.                      No:  High Pressure 
 HTEM.                      No:  High Temp 
 HYDO.m                   1.80:  Hydro Offset 
 IFIN.deg                40.22:  Inc, Final 
 IMAX.deg                40.54:  Inc Max 
 IMIN.deg                39.44:  Inc Min 
 IMND.m                4361.17:  Inc Min Depth 
 IMXD.m                4417.92:  Inc Max Depth 
 JARR.                      No:  Jarring 
 LETM.      07.45.00 18-Jul-21:  Log End Time 
 LOST.hr                    16:  Lost Rig Time 
 LSTM.      15.00.00 16-Jul-21:  Log Start Time 
 MDCL.ppm             36500.00:  Mud Chlorides 
 MDES.     Inversion Oil/Synthetic:  Mud Desc 
 DFD .sg                  1.42:  Mud Density 
 MDMN.sg                  1.42:  Dens Mud Min 
 MDMX.sg                  1.43:  Dens Mud Max 
 MOIL.                      56:  Run Mud Oil % 
 MOWR.                   71:29:  Run Mud OWR 
 MSND.                     0.5:  Run Mud Sand % 
 MSOL.                      21:  Run Mud Solids% 
 DFV .spqt               78.00:  Mud Viscosity 
 MWOD.in                  6.75:  MWD Tool OD 
 MWSI.                     Yes:  Serv Intrp, MWD 
 OTIM.hr                200.73:  Time Operating 
 PCON.           Look Like New:  Pad Condition 
 PMAX.psia            11069.93:  Press Op, Max 
 PV  .cP                 32.00:  Mud PV 
 RUN .                     700:  Run Number 
 ROPA.m/hr               10.00:  ROP Avg 
 ROPN.m/hr                9.00:  ROP Min 
 ROPX.m/hr               16.00:  ROP Max 
 RPMA.rpm               116.00:  RPM Surface Avg 
 RPMN.rpm                80.00:  RPM Surface Min 
 RPMX.rpm               120.00:  RPM Surface Max 
 RRUN.                    L605:  Rig Run Number 
 RTIM.hr                 45.00:  Time Reaming 
 SAZI.deg               159.86:  Azm, Start 
 SDEP.m                4315.00:  Start Depth 
 SIDD.                      No:  Serv Intrp, DD 
 SINC.deg                39.86:  Inc, Start 
 SPPA.psig             3300.00:  SPP Avg 
 SPPN.psig             3040.00:  SPP Min 
 SPPX.psig             3645.00:  SPP Max 
 STIM.      01.00.00 15-Jul-21:  Start Time 
 SVCS.                 DD, MWD:  Services 
 SVER.                    9.20:  Sperry Version 
 TDAT.m                 288.00:  Tot Depth Attmp 
 TDDF.                      No:  Trip for DD 
 TDLG.m                 288.00:  Tot Depth Loggd 
 TFF .                      No:  Trip for Fail 
 TQAA.f-kp               19.00:  Torque Abs Avg 
 TQAN.f-kp               18.00:  Torque Abs Min 
 TQAX.f-kp               21.00:  Torque Abs Max 
 TRRT.°/30m               0.45:  Turn Rotating 
 MRT .                    HCIM:  Maximum Recorded Temperature 
 TTMX.degC               88.24:  Max Tool Temp 
 VS01.                90649157:  Virtual Str1 SN 
 VS02.                90652483:  Virtual Str2 SN 
 VS03.                11671987:  Virtual Str3 SN 
 VS04.                90643411:  Virtual Str4 SN 
 VS05.                90652478:  Virtual Str5 SN 
 VS06.                    6111:  Virtual Str6 SN 
 WBMN.klb                 9.50:  WOB Min 
 WITN.        Grigoriy Sarayev:  Customer Rep 
 WITN.          Rufat Huseynov:  Customer Rep 2 
 WOBA.klb                11.00:  WOB Avg 
 WOBX.klb                15.00:  WOB Max 
 YP  .lhf2               28.00:  Yield Point 
~Curve Information Block
#MNEM.UNIT                 API CODE     Curve Description
#---------               -----------    ---------------------------
 TIME.HHMMSS            00 000 000 000:  GT Time & Date
 GTDEPTH.m              00 000 000 000:  GT Depth
 GTPQH.psia             00 000 000 000:  GT HR Quartz Pressure
 GTTQ.degC              00 000 000 000:  GT Quartz Temperature
 GTTN.NONE              00 000 000 000:  GT Test Number
 GTET.sec               00 000 000 000:  GT Elapsed Test Time
 GTTVD.m                00 000 000 000:  GT True Vertical Depth
#Other Information
#
#WARRANTY: Halliburton will use its best efforts to furnish customers with 
#accurate information and interpretations that are part of, and incident to, the services 
#provided.  However, Halliburton cannot and does not warrant the accuracy 
#or correctness of such information and interpretations.  Under no circumstances should any 
#such information or interpretation be relied upon as the sole basis for any drilling, 
#completion, production, or financial decision or any procedure involving any risk to the 
#safety of any drilling venture, drilling rig or its crew or any other third party.  The 
#Customer has full responsibility for all drilling, completion and production operation.  
#Halliburton makes no representations or warranties, either expressed or 
#implied, including, but not limited to, the implied warranties of merchantability or fitness 
#for a particular purpose, with respect to the services rendered.  In no event will 
#Halliburton be liable for failure to obtain any particular results or for 
#any damages, including, but not limited to, indirect, special or consequential damages, 
#resulting from the use of any information or interpretation provided by Halliburton.
#
~A           TIME           GTDEPTH  GTPQH  GTTQ  GTTN  GTET   GTTVD  
# ...
   23:01:21.679.18-Jul-2021 4247.58 6264.25 69.67 8.00  23.01 2507.04
   23:01:21.879.18-Jul-2021 4247.58 6264.25 69.67 8.00  23.21 2507.04
   23:01:22.079.18-Jul-2021 4247.58 6259.53 69.67 8.00  23.41 2507.04
   23:01:22.279.18-Jul-2021 4247.58 6259.73 69.67 8.00  23.61 2507.04
   23:01:22.479.18-Jul-2021 4247.58 6294.73 69.67 8.00  23.81 2507.04
   23:01:22.679.18-Jul-2021 4247.58 6254.61 69.67 8.00  24.01 2507.04
   23:01:22.879.18-Jul-2021 4247.58 6254.61 69.67 8.00  24.21 2507.04
   23:01:23.079.18-Jul-2021 4247.58 6257.76 69.67 8.00  24.41 2507.04
   23:01:23.280.18-Jul-2021 4247.58 6276.98 69.67 8.00  24.61 2507.04
   23:01:23.480.18-Jul-2021 4247.58 6275.12 69.67 8.00  24.81 2507.04
   23:01:23.680.18-Jul-2021 4247.58 6261.45 69.67 8.00  25.01 2507.04
   23:01:23.880.18-Jul-2021 4247.58 6261.45 69.67 8.00  25.21 2507.04
   23:01:24.080.18-Jul-2021 4247.58 6269.35 69.67 8.00  25.41 2507.04
   23:01:24.280.18-Jul-2021 4247.58 6264.27 69.67 8.00  25.61 2507.04
   23:01:24.480.18-Jul-2021 4247.58 6286.81 69.67 8.00  25.81 2507.04
   23:01:24.680.18-Jul-2021 4247.58 6258.64 69.67 8.00  26.01 2507.04
   23:01:24.880.18-Jul-2021 4247.58 6258.64 69.67 8.00  26.21 2507.04
   23:01:25.080.18-Jul-2021 4247.58 6266.77 69.67 8.00  26.41 2507.04
   23:01:25.280.18-Jul-2021 4247.58 6271.17 69.67 8.00  26.61 2507.04
   23:01:25.480.18-Jul-2021 4247.58 6265.04 69.67 8.00  26.81 2507.04
   23:01:25.680.18-Jul-2021 4247.58 6265.76 69.67 8.00  27.01 2507.04
   23:01:25.880.18-Jul-2021 4247.58 6265.76 69.67 8.00  27.21 2507.04
   23:01:26.081.18-Jul-2021 4247.58 6265.87 69.67 8.00  27.41 2507.04
   23:01:26.281.18-Jul-2021 4247.58 6265.47 69.67 8.00  27.61 2507.04
   23:01:26.481.18-Jul-2021 4247.58 6264.66 69.67 8.00  27.81 2507.04
   23:01:26.681.18-Jul-2021 4247.58 6263.74 69.67 8.00  28.01 2507.04
   23:01:26.881.18-Jul-2021 4247.58 6263.74 69.67 8.00  28.21 2507.04
   23:01:27.081.18-Jul-2021 4247.58 6263.89 69.67 8.00  28.41 2507.04
   23:01:27.281.18-Jul-2021 4247.58 6289.73 69.67 8.00  28.61 2507.04
   23:01:27.481.18-Jul-2021 4247.58 6254.50 69.67 8.00  28.81 2507.04
   23:01:27.681.18-Jul-2021 4247.58 6263.40 69.67 8.00  29.01 2507.04
   23:01:27.881.18-Jul-2021 4247.58 6263.40 69.67 8.00  29.21 2507.04
   23:01:28.081.18-Jul-2021 4247.58 6271.57 69.67 8.00  29.41 2507.04
   23:01:28.281.18-Jul-2021 4247.58 6265.18 69.67 8.00  29.61 2507.04
   23:01:28.481.18-Jul-2021 4247.58 6263.87 69.67 8.00  29.81 2507.04
   23:01:28.681.18-Jul-2021 4247.58 6267.44 69.67 8.00  30.01 2507.04
   23:01:28.882.18-Jul-2021 4247.58 6267.44 69.67 8.00  30.21 2507.04
   23:01:29.082.18-Jul-2021 4247.58 6263.71 69.67 8.00  30.41 2507.04
   23:01:29.282.18-Jul-2021 4247.58 6264.84 69.67 8.00  30.61 2507.04
   23:01:29.482.18-Jul-2021 4247.58 6265.46 69.67 8.00  30.81 2507.04
   23:01:29.682.18-Jul-2021 4247.58 6263.46 69.67 8.00  31.01 2507.04
   23:01:29.882.18-Jul-2021 4247.58 6263.46 69.67 8.00  31.21 2507.04
   23:01:30.082.18-Jul-2021 4247.58 6256.63 69.67 8.00  31.41 2507.04
   23:01:30.282.18-Jul-2021 4247.58 6264.64 69.67 8.00  31.61 2507.04
   23:01:30.482.18-Jul-2021 4247.58 6290.18 69.67 8.00  31.81 2507.04
   23:01:30.682.18-Jul-2021 4247.58 6264.49 69.67 8.00  32.01 2507.04
   23:01:30.882.18-Jul-2021 4247.58 6264.49 69.67 8.00  32.21 2507.04
   23:01:31.082.18-Jul-2021 4247.58 6202.34 69.67 8.00  32.41 2507.04
   23:01:31.282.18-Jul-2021 4247.58 6153.25 69.67 8.00  32.61 2507.04
   23:01:31.483.18-Jul-2021 4247.58 6133.64 69.67 8.00  32.81 2507.04
   23:01:31.683.18-Jul-2021 4247.58 6135.52 69.67 8.00  33.01 2507.04
   23:01:31.883.18-Jul-2021 4247.58 6135.52 69.67 8.00  33.21 2507.04
   23:01:32.083.18-Jul-2021 4247.58 6138.71 69.67 8.00  33.41 2507.04
   23:01:32.283.18-Jul-2021 4247.58 6138.55 69.67 8.00  33.61 2507.04
   23:01:32.483.18-Jul-2021 4247.58 6125.82 69.67 8.00  33.81 2507.04
   23:01:32.683.18-Jul-2021 4247.58 6124.27 69.67 8.00  34.01 2507.04
   23:01:32.883.18-Jul-2021 4247.58 6124.27 69.67 8.00  34.21 2507.04
   23:01:33.083.18-Jul-2021 4247.58 6114.71 69.67 8.00  34.41 2507.04
   23:01:33.283.18-Jul-2021 4247.58 6104.81 69.67 8.00  34.61 2507.04
   23:01:33.483.18-Jul-2021 4247.58 6104.49 69.67 8.00  34.81 2507.04
   23:01:33.683.18-Jul-2021 4247.58 6101.59 69.67 8.00  35.01 2507.04
   23:01:33.883.18-Jul-2021 4247.58 6101.59 69.67 8.00  35.21 2507.04
   23:01:34.083.18-Jul-2021 4247.58 6080.53 69.67 8.00  35.41 2507.04
   23:01:34.284.18-Jul-2021 4247.58 6075.23 69.67 8.00  35.61 2507.04
   23:01:34.484.18-Jul-2021 4247.58 6079.27 69.67 8.00  35.81 2507.04
   23:01:34.684.18-Jul-2021 4247.58 6076.85 69.67 8.00  36.01 2507.04
   23:01:34.884.18-Jul-2021 4247.58 6076.85 69.67 8.00  36.21 2507.04
   23:01:35.084.18-Jul-2021 4247.58 6073.98 69.67 8.00  36.41 2507.04
   23:01:35.284.18-Jul-2021 4247.58 6072.37 69.67 8.00  36.61 2507.04
   23:01:35.484.18-Jul-2021 4247.58 6072.67 69.67 8.00  36.81 2507.04
   23:01:35.684.18-Jul-2021 4247.58 6080.83 69.67 8.00  37.01 2507.04
   23:01:35.884.18-Jul-2021 4247.58 6080.83 69.67 8.00  37.21 2507.04
   23:01:36.084.18-Jul-2021 4247.58 6069.32 69.67 8.00  37.41 2507.04
   23:01:36.284.18-Jul-2021 4247.58 6069.73 69.67 8.00  37.61 2507.04
   23:01:36.484.18-Jul-2021 4247.58 6070.69 69.67 8.00  37.81 2507.04
   23:01:36.684.18-Jul-2021 4247.58 6071.18 69.67 8.00  38.01 2507.04
   23:01:36.885.18-Jul-2021 4247.58 6071.18 69.67 8.00  38.21 2507.04
   23:01:37.085.18-Jul-2021 4247.58 6077.52 69.67 8.00  38.41 2507.04
   23:01:37.285.18-Jul-2021 4247.58 6076.96 69.67 8.00  38.61 2507.04
   23:01:37.485.18-Jul-2021 4247.58 6077.71 69.67 8.00  38.81 2507.04
   23:01:37.685.18-Jul-2021 4247.58 6077.51 69.67 8.00  39.01 2507.04
   23:01:37.885.18-Jul-2021 4247.58 6077.51 69.67 8.00  39.21 2507.04
   23:01:38.085.18-Jul-2021 4247.58 6078.31 69.67 8.00  39.41 2507.04
   23:01:38.285.18-Jul-2021 4247.58 6079.34 69.67 8.00  39.61 2507.04
   23:01:38.485.18-Jul-2021 4247.58 6082.24 69.67 8.00  39.81 2507.04
   23:01:38.685.18-Jul-2021 4247.58 6075.91 69.67 8.00  40.01 2507.04
   23:01:38.885.18-Jul-2021 4247.58 6075.91 69.67 8.00  40.21 2507.04
   23:01:39.085.18-Jul-2021 4247.58 6075.94 69.67 8.00  40.41 2507.04
   23:01:39.285.18-Jul-2021 4247.58 6075.24 69.67 8.00  40.61 2507.04
   23:01:39.485.18-Jul-2021 4247.58 6059.28 69.67 8.00  40.82 2507.04
   23:01:39.686.18-Jul-2021 4247.58 6060.35 69.67 8.00  41.02 2507.04
   23:01:39.886.18-Jul-2021 4247.58 6060.35 69.67 8.00  41.22 2507.04
   23:01:40.086.18-Jul-2021 4247.58 6062.34 69.67 8.00  41.42 2507.04
   23:01:40.286.18-Jul-2021 4247.58 6063.77 69.67 8.00  41.62 2507.04
   23:01:40.486.18-Jul-2021 4247.58 6056.47 69.67 8.00  41.82 2507.04
   23:01:40.686.18-Jul-2021 4247.58 6057.38 69.67 8.00  42.02 2507.04
   23:01:40.886.18-Jul-2021 4247.58 6057.38 69.67 8.00  42.22 2507.04
   23:01:41.086.18-Jul-2021 4247.58 6060.20 69.67 8.00  42.42 2507.04
   23:01:41.286.18-Jul-2021 4247.58 6051.70 69.67 8.00  42.62 2507.04
   23:01:41.486.18-Jul-2021 4247.58 6052.04 69.67 8.00  42.82 2507.04
   23:01:41.686.18-Jul-2021 4247.58 6056.15 69.67 8.00  43.02 2507.04
   23:01:41.886.18-Jul-2021 4247.58 6056.15 69.67 8.00  43.22 2507.04
   23:01:42.086.18-Jul-2021 4247.58 6045.33 69.67 8.00  43.42 2507.04
   23:01:42.287.18-Jul-2021 4247.58 6048.39 69.67 8.00  43.62 2507.04
   23:01:42.487.18-Jul-2021 4247.58 6048.10 69.67 8.00  43.82 2507.04
   23:01:42.687.18-Jul-2021 4247.58 6055.06 69.67 8.00  44.02 2507.04
   23:01:42.887.18-Jul-2021 4247.58 6055.06 69.67 8.00  44.22 2507.04
   23:01:43.087.18-Jul-2021 4247.58 6043.56 69.67 8.00  44.42 2507.04
   23:01:43.287.18-Jul-2021 4247.58 6044.85 69.67 8.00  44.62 2507.04
   23:01:43.487.18-Jul-2021 4247.58 6045.64 69.67 8.00  44.82 2507.04
   23:01:43.687.18-Jul-2021 4247.58 6042.64 69.67 8.00  45.02 2507.04
   23:01:43.887.18-Jul-2021 4247.58 6042.64 69.67 8.00  45.22 2507.04
   23:01:44.087.18-Jul-2021 4247.58 6045.01 69.67 8.00  45.42 2507.04
   23:01:44.287.18-Jul-2021 4247.58 6044.51 69.67 8.00  45.62 2507.04
   23:01:44.487.18-Jul-2021 4247.58 6044.19 69.67 8.00  45.82 2507.04
