~Version Information
 VERS.                  2.0:   CWLS log ASCII Standard -VERSION 2.0
 WRAP.                   NO:   One line per depth step
~Well Information Block
#MNEM.UNIT     VALUE/NAME     DESCRIPTION
#---------     -----------    ---------------------------
 STRT.S             14:22:27 18-Jul-21: START TIME 14:22:27 18-Jul-21
 STOP.S             14:29:00 18-Jul-21: STOP TIME  14:29:00 18-Jul-21
 STEP.S                   0.00: STEP TIME
 NULL.                 -999.25: NULL VALUE
 MDS .        Operator Entered:  MAG DATA SOURCE
 PDAT.          Mean Sea Level:  PERMANENT DATUM
 UNIT.                     N/A:  LOGGING EQUIPMENT ID
 DCON.         Sperry Drilling:  DIRECTNL CONTR
 DOE .                     N/A:  DOE NUMBER
 RIG .              West Azeri:  RIG NAME
 JOBN.        AZ-XX-0906997913:  JOB TICKET NUMB
 WELL.                     C41:  WELL NAME
 MWDS.                    Baku:  MWD SHOP
 SRVC.          Turan Drilling:  CONTRACTOR
 FLD .                     ACG:  FIELD NAME
 CTRY.              Azerbaijan:  COUNTRY NAME
 PROV.                    Baku:  PROVINCE
 STAT.                    Baku:  STATE NAME
 REGN.                   EESSA:  REGION
 BASE.              Azerbaijan:  LOGGING EQUIPMENT BASE LOCATION
 UWI .                     N/A:  UNIQUE WELL IDENTIFIER
 API .                     N/A:  API NUMBER
 COMP.     BP Exploration (Caspian Sea) Ltd.:  COMPANY
 WTYP.                Deviated:  WELL TYPE
 SON .        AZ-XX-0906997913:  JOB NUMBER
 FTOP.          Formation Tops:  FORM TOPS DESC
 ILTD.               Lithology:  INTERP LTH DESC
 SVYD.                  Survey:  SURVEY DESC
 DMOD.             Drill Model:  DRILL MOD DESC
 HPTY.       Minimum Curvature:  HOLE POS TYPE
 NREF.                    Grid:  NORTH REFERENCE
 SPUD.               16-May-21:  SPUD DATE
 DATE.      21.11.28 17-May-21:  END TIME
 STIM.      21.11.28 17-May-21:  START TIME
 DMF .             Drill Floor:  DRILL MEAS FROM
 DFST.                        :  DIST FSL TEXT
 DFWT.                        :  DIST FWL TEXT
 CNTY.                        :  COUNTY
 LOC .                        :  LOCATION
 LMF .             Drill Floor:  LOG MEASURED FROM
 AGAP.m                  43.42:  AIR GAP
 VSNS.m                  -2.16:  VERT SEC N/S
 VSEW.m                  -6.24:  VERT SEC E/W
 APD .m                  43.42:  DEPTH ABOVE PD
 WDMS.m                 118.27:  WD ELEV
 EGL .m                   0.00:  GROUND ELEVATION
 EPD .m                   0.00:  ELEVATION
 AZTC.deg                 6.29:  AZM TOTAL CORR
 GRDC.deg                 0.18:  GRID CORRECTION
 MDEC.deg                 6.47:  MAGNETIC DECL
 MDIP.deg                59.54:  MAGNETIC DIP
 MFLD.nT              50337.00:  MAGNETIC FIELD
 GVFD.g                   1.00:  GRAVITY FIELD
 VSDR.deg               226.99:  VERT SEC DIRECT
 TDD .m                   0.00:  TOTAL DEPTH (DRILLER)
 SDEP.m                 448.00:  START DEPTH
 DFSL.m                   0.00:  DISTANCE FSL
 DFWL.m                   0.00:  DISTANCE FWL
 UTMY.m             4435799.96:  UTM Y
 UTMX.m              526265.35:  UTM X
 WHEW.m                  -6.24:  WELL HEAD E/W
 WHNS.m                  -2.16:  WELL HEAD N/S
 LONG.deg                51.31:  LONGITUDE
 LATI.deg                40.06:  LATITUDE
 TVDS.m                  43.42:  TVDSS CORRECTN
 EKB .m                  43.42:  KB ELEVATION
 EDF .m                  43.42:  DF ELEVATION
 TDL .m                 288.00:  TOTAL DEPTH (LOGGER)
 MAGU.                 1851863:  MAGUTM CHECKSUM
 VSC .                       0:  VS TO CLOSURE
~Parameter Information Block
#MNEM.UNIT       Value        Description
#---------     -----------    ---------------------------
 AV  .mps                 0.40:  Ann Velocity 
 AVMX.mps                 0.63:  Max Ann Veloc 
 AZIF.deg               158.76:  Azm, Final 
 BHAT.        Rotary Steerable:  BHA Type 
 BROT.°/30m               0.68:  Build Rotating 
 BS  .in                  8.50:  Bit Size 
 BSZ .in                  8.50:  Bit Size 
 BTPL.psig              712.00:  Bit Press Loss 
 CABU.                      No:  Customer Abuse 
 COMM.                     |«g:  Run Comments 1 
 TCS .hr                 90.66:  Time Ciculation Ended 
 CV  .mps                 2.02:  Crit Velocity 
 CVMX.mps                 2.14:  Max Crit Veloc 
 DD1 .            Aziz Aliyevu:  Direct Drillr 1 
 DD2 .             Samir Abbas:  Direct Drillr 2 
 DD3 .           Teymur Aliyev:  Direct Drillr 3 
 DDSV.                 iCruise:  DD Service 
 DEFF.%                  85.10:  % Det Eff 
 DLRX.°/30m               1.05:  Dogleg Rot Max 
 DLSO.°/30m               1.01:  Dogleg Oriented 
 DLSX.°/30m               1.05:  Dogleg Str Max 
 DRET.      07.45.00 18-Jul-21:  Drill End Time 
 DRST.      15.00.00 16-Jul-21:  Drill Start Tim 
 DTIM.hr                 23.46:  Time Drilling 
 EDEP.m                4603.00:  End Depth 
 ENG1.       Seymur Iskandarov:  Engineer 1 
 ENG2.         Yevgeniy Ulikov:  Engineer 2 
 ENG3.         Bahruz Mehdiyev:  Engineer 3 
 ENG4.         Elchin Mammadov:  Engineer 4 
 ETIM.      14.00.00 23-Jul-21:  End Time 
 FLOI.gpm               500.00:  Flow In 
 FLON.gpm               450.00:  Flow In Min 
 FLOS.cptm                0.00:  Fluid Loss 
 FLOX.gpm               560.00:  Flow In Max 
 DFT .        Mineral Oil Base:  Mud Type 
 FTRO.       Formation Presure:  FTWD Run Obj 
 HFLO.                      No:  High Flow 
 HPRE.                      No:  High Pressure 
 HTEM.                      No:  High Temp 
 HYDO.m                   1.80:  Hydro Offset 
 IFIN.deg                40.22:  Inc, Final 
 IMAX.deg                40.54:  Inc Max 
 IMIN.deg                39.44:  Inc Min 
 IMND.m                4361.17:  Inc Min Depth 
 IMXD.m                4417.92:  Inc Max Depth 
 JARR.                      No:  Jarring 
 LETM.      07.45.00 18-Jul-21:  Log End Time 
 LOST.hr                    16:  Lost Rig Time 
 LSTM.      15.00.00 16-Jul-21:  Log Start Time 
 MDCL.ppm             36500.00:  Mud Chlorides 
 MDES.     Inversion Oil/Synthetic:  Mud Desc 
 DFD .sg                  1.42:  Mud Density 
 MDMN.sg                  1.42:  Dens Mud Min 
 MDMX.sg                  1.43:  Dens Mud Max 
 MOIL.                      56:  Run Mud Oil % 
 MOWR.                   71:29:  Run Mud OWR 
 MSND.                     0.5:  Run Mud Sand % 
 MSOL.                      21:  Run Mud Solids% 
 DFV .spqt               78.00:  Mud Viscosity 
 MWOD.in                  6.75:  MWD Tool OD 
 MWSI.                     Yes:  Serv Intrp, MWD 
 OTIM.hr                200.73:  Time Operating 
 PCON.           Look Like New:  Pad Condition 
 PMAX.psia            11069.93:  Press Op, Max 
 PV  .cP                 32.00:  Mud PV 
 RUN .                     700:  Run Number 
 ROPA.m/hr               10.00:  ROP Avg 
 ROPN.m/hr                9.00:  ROP Min 
 ROPX.m/hr               16.00:  ROP Max 
 RPMA.rpm               116.00:  RPM Surface Avg 
 RPMN.rpm                80.00:  RPM Surface Min 
 RPMX.rpm               120.00:  RPM Surface Max 
 RRUN.                    L605:  Rig Run Number 
 RTIM.hr                 45.00:  Time Reaming 
 SAZI.deg               159.86:  Azm, Start 
 SDEP.m                4315.00:  Start Depth 
 SIDD.                      No:  Serv Intrp, DD 
 SINC.deg                39.86:  Inc, Start 
 SPPA.psig             3300.00:  SPP Avg 
 SPPN.psig             3040.00:  SPP Min 
 SPPX.psig             3645.00:  SPP Max 
 STIM.      01.00.00 15-Jul-21:  Start Time 
 SVCS.                 DD, MWD:  Services 
 SVER.                    9.20:  Sperry Version 
 TDAT.m                 288.00:  Tot Depth Attmp 
 TDDF.                      No:  Trip for DD 
 TDLG.m                 288.00:  Tot Depth Loggd 
 TFF .                      No:  Trip for Fail 
 TQAA.f-kp               19.00:  Torque Abs Avg 
 TQAN.f-kp               18.00:  Torque Abs Min 
 TQAX.f-kp               21.00:  Torque Abs Max 
 TRRT.°/30m               0.45:  Turn Rotating 
 MRT .                    HCIM:  Maximum Recorded Temperature 
 TTMX.degC               88.24:  Max Tool Temp 
 VS01.                90649157:  Virtual Str1 SN 
 VS02.                90652483:  Virtual Str2 SN 
 VS03.                11671987:  Virtual Str3 SN 
 VS04.                90643411:  Virtual Str4 SN 
 VS05.                90652478:  Virtual Str5 SN 
 VS06.                    6111:  Virtual Str6 SN 
 WBMN.klb                 9.50:  WOB Min 
 WITN.        Grigoriy Sarayev:  Customer Rep 
 WITN.          Rufat Huseynov:  Customer Rep 2 
 WOBA.klb                11.00:  WOB Avg 
 WOBX.klb                15.00:  WOB Max 
 YP  .lhf2               28.00:  Yield Point 
~Curve Information Block
#MNEM.UNIT                 API CODE     Curve Description
#---------               -----------    ---------------------------
 TIME.HHMMSS            00 000 000 000:  GT Time & Date
 GTDEPTH.m              00 000 000 000:  GT Depth
 GTPQH.psia             00 000 000 000:  GT HR Quartz Pressure
 GTTQ.degC              00 000 000 000:  GT Quartz Temperature
 GTTN.NONE              00 000 000 000:  GT Test Number
 GTET.sec               00 000 000 000:  GT Elapsed Test Time
 GTTVD.m                00 000 000 000:  GT True Vertical Depth
#Other Information
#
#WARRANTY: Halliburton will use its best efforts to furnish customers with 
#accurate information and interpretations that are part of, and incident to, the services 
#provided.  However, Halliburton cannot and does not warrant the accuracy 
#or correctness of such information and interpretations.  Under no circumstances should any 
#such information or interpretation be relied upon as the sole basis for any drilling, 
#completion, production, or financial decision or any procedure involving any risk to the 
#safety of any drilling venture, drilling rig or its crew or any other third party.  The 
#Customer has full responsibility for all drilling, completion and production operation.  
#Halliburton makes no representations or warranties, either expressed or 
#implied, including, but not limited to, the implied warranties of merchantability or fitness 
#for a particular purpose, with respect to the services rendered.  In no event will 
#Halliburton be liable for failure to obtain any particular results or for 
#any damages, including, but not limited to, indirect, special or consequential damages, 
#resulting from the use of any information or interpretation provided by Halliburton.
#
~A           TIME           GTDEPTH  GTPQH  GTTQ  GTTN  GTET   GTTVD  
# ...
   14:24:45.266.18-Jul-2021 4558.50 6658.20 75.33 4.00 138.05 2745.02
   14:24:45.466.18-Jul-2021 4558.50 6658.20 75.33 4.00 138.25 2745.02
   14:24:45.666.18-Jul-2021 4558.50 6656.43 75.33 4.00 138.45 2745.02
   14:24:45.866.18-Jul-2021 4558.50 6656.55 75.33 4.00 138.65 2745.02
   14:24:46.066.18-Jul-2021 4558.50 6656.91 75.33 4.00 138.85 2745.02
   14:24:46.266.18-Jul-2021 4558.50 6656.20 75.33 4.00 139.05 2745.02
   14:24:46.466.18-Jul-2021 4558.50 6656.20 75.33 4.00 139.25 2745.02
   14:24:46.666.18-Jul-2021 4558.50 6655.80 75.33 4.00 139.45 2745.02
   14:24:46.866.18-Jul-2021 4558.50 6655.08 75.33 4.00 139.65 2745.02
   14:24:47.066.18-Jul-2021 4558.50 6655.74 75.33 4.00 139.85 2745.02
   14:24:47.266.18-Jul-2021 4558.50 6659.32 75.33 4.00 140.05 2745.02
   14:24:47.467.18-Jul-2021 4558.50 6659.32 75.33 4.00 140.25 2745.02
   14:24:47.667.18-Jul-2021 4558.50 6656.52 75.33 4.00 140.45 2745.02
   14:24:47.867.18-Jul-2021 4558.50 6661.05 75.33 4.00 140.65 2745.02
   14:24:48.067.18-Jul-2021 4558.50 6658.71 75.33 4.00 140.85 2745.02
   14:24:48.267.18-Jul-2021 4558.50 6658.26 75.33 4.00 141.05 2745.02
   14:24:48.467.18-Jul-2021 4558.50 6658.26 75.33 4.00 141.25 2745.02
   14:24:48.667.18-Jul-2021 4558.50 6657.92 75.33 4.00 141.45 2745.02
   14:24:48.867.18-Jul-2021 4558.50 6660.83 75.33 4.00 141.65 2745.02
   14:24:49.067.18-Jul-2021 4558.50 6659.27 75.33 4.00 141.85 2745.02
   14:24:49.267.18-Jul-2021 4558.50 6657.09 75.33 4.00 142.05 2745.02
   14:24:49.467.18-Jul-2021 4558.50 6657.09 75.33 4.00 142.25 2745.02
   14:24:49.667.18-Jul-2021 4558.50 6658.29 75.33 4.00 142.45 2745.02
   14:24:49.867.18-Jul-2021 4558.50 6659.28 75.33 4.00 142.65 2745.02
   14:24:50.068.18-Jul-2021 4558.50 6656.55 75.33 4.00 142.85 2745.02
   14:24:50.268.18-Jul-2021 4558.50 6657.29 75.33 4.00 143.05 2745.02
   14:24:50.468.18-Jul-2021 4558.50 6657.29 75.33 4.00 143.25 2745.02
   14:24:50.668.18-Jul-2021 4558.50 6655.57 75.33 4.00 143.45 2745.02
   14:24:50.868.18-Jul-2021 4558.50 6655.73 75.33 4.00 143.65 2745.02
   14:24:51.068.18-Jul-2021 4558.50 6655.98 75.33 4.00 143.85 2745.02
   14:24:51.268.18-Jul-2021 4558.50 6655.63 75.33 4.00 144.05 2745.02
   14:24:51.468.18-Jul-2021 4558.50 6655.63 75.33 4.00 144.25 2745.02
   14:24:51.668.18-Jul-2021 4558.50 6652.12 75.33 4.00 144.45 2745.02
   14:24:51.868.18-Jul-2021 4558.50 6651.13 75.33 4.00 144.65 2745.02
   14:24:52.068.18-Jul-2021 4558.50 6650.80 75.33 4.00 144.85 2745.02
   14:24:52.268.18-Jul-2021 4558.50 6650.23 75.33 4.00 145.05 2745.02
   14:24:52.468.18-Jul-2021 4558.50 6650.23 75.33 4.00 145.25 2745.02
   14:24:52.668.18-Jul-2021 4558.50 6655.95 75.33 4.00 145.45 2745.02
   14:24:52.869.18-Jul-2021 4558.50 6652.64 75.33 4.00 145.65 2745.02
   14:24:53.069.18-Jul-2021 4558.50 6652.70 75.33 4.00 145.85 2745.02
   14:24:53.269.18-Jul-2021 4558.50 6652.97 75.33 4.00 146.05 2745.02
   14:24:53.469.18-Jul-2021 4558.50 6652.97 75.33 4.00 146.25 2745.02
   14:24:53.669.18-Jul-2021 4558.50 6651.98 75.33 4.00 146.45 2745.02
   14:24:53.869.18-Jul-2021 4558.50 6651.83 75.33 4.00 146.65 2745.02
   14:24:54.069.18-Jul-2021 4558.50 6651.94 75.33 4.00 146.85 2745.02
   14:24:54.269.18-Jul-2021 4558.50 6651.58 75.33 4.00 147.05 2745.02
   14:24:54.469.18-Jul-2021 4558.50 6651.58 75.33 4.00 147.25 2745.02
   14:24:54.669.18-Jul-2021 4558.50 6651.45 75.33 4.00 147.45 2745.02
   14:24:54.869.18-Jul-2021 4558.50 6651.18 75.33 4.00 147.65 2745.02
   14:24:55.069.18-Jul-2021 4558.50 6651.22 75.33 4.00 147.85 2745.02
   14:24:55.269.18-Jul-2021 4558.50 6654.84 75.33 4.00 148.05 2745.02
   14:24:55.469.18-Jul-2021 4558.50 6654.84 75.33 4.00 148.25 2745.02
   14:24:55.670.18-Jul-2021 4558.50 6653.54 75.33 4.00 148.45 2745.02
   14:24:55.870.18-Jul-2021 4558.50 6656.25 75.33 4.00 148.65 2745.02
   14:24:56.070.18-Jul-2021 4558.50 6652.03 75.33 4.00 148.85 2745.02
   14:24:56.270.18-Jul-2021 4558.50 6655.16 75.33 4.00 149.05 2745.02
   14:24:56.470.18-Jul-2021 4558.50 6655.16 75.33 4.00 149.25 2745.02
   14:24:56.670.18-Jul-2021 4558.50 6652.17 75.33 4.00 149.46 2745.02
   14:24:56.870.18-Jul-2021 4558.50 6656.93 75.33 4.00 149.66 2745.02
   14:24:57.070.18-Jul-2021 4558.50 6652.65 75.33 4.00 149.86 2745.02
   14:24:57.270.18-Jul-2021 4558.50 6652.03 75.33 4.00 150.06 2745.02
   14:24:57.470.18-Jul-2021 4558.50 6652.03 75.33 4.00 150.26 2745.02
   14:24:57.670.18-Jul-2021 4558.50 6653.44 75.33 4.00 150.46 2745.02
   14:24:57.870.18-Jul-2021 4558.50 6653.02 75.33 4.00 150.66 2745.02
   14:24:58.070.18-Jul-2021 4558.50 6651.00 75.33 4.00 150.86 2745.02
   14:24:58.271.18-Jul-2021 4558.50 6652.05 75.33 4.00 151.06 2745.02
   14:24:58.471.18-Jul-2021 4558.50 6652.05 75.33 4.00 151.26 2745.02
   14:24:58.671.18-Jul-2021 4558.50 6650.38 75.33 4.00 151.46 2745.02
   14:24:58.871.18-Jul-2021 4558.50 6650.85 75.33 4.00 151.66 2745.02
   14:24:59.071.18-Jul-2021 4558.50 6651.03 75.33 4.00 151.86 2745.02
   14:24:59.271.18-Jul-2021 4558.50 6650.76 75.33 4.00 152.06 2745.02
   14:24:59.471.18-Jul-2021 4558.50 6650.76 75.33 4.00 152.26 2745.02
   14:24:59.671.18-Jul-2021 4558.50 6650.85 75.33 4.00 152.46 2745.02
   14:24:59.871.18-Jul-2021 4558.50 6651.04 75.33 4.00 152.66 2745.02
   14:25:00.071.18-Jul-2021 4558.50 6651.10 75.33 4.00 152.86 2745.02
   14:25:00.271.18-Jul-2021 4558.50 6651.11 75.33 4.00 153.06 2745.02
   14:25:00.471.18-Jul-2021 4558.50 6651.11 75.33 4.00 153.26 2745.02
   14:25:00.671.18-Jul-2021 4558.50 6653.96 75.33 4.00 153.46 2745.02
   14:25:00.871.18-Jul-2021 4558.50 6652.15 75.33 4.00 153.66 2745.02
   14:25:01.072.18-Jul-2021 4558.50 6653.30 75.33 4.00 153.86 2745.02
   14:25:01.272.18-Jul-2021 4558.50 6651.98 75.33 4.00 154.06 2745.02
   14:25:01.472.18-Jul-2021 4558.50 6651.98 75.33 4.00 154.26 2745.02
   14:25:01.672.18-Jul-2021 4558.50 6651.37 75.33 4.00 154.46 2745.02
   14:25:01.872.18-Jul-2021 4558.50 6651.54 75.33 4.00 154.66 2745.02
   14:25:02.072.18-Jul-2021 4558.50 6651.66 75.33 4.00 154.86 2745.02
   14:25:02.272.18-Jul-2021 4558.50 6652.43 75.33 4.00 155.06 2745.02
   14:25:02.472.18-Jul-2021 4558.50 6652.43 75.33 4.00 155.26 2745.02
   14:25:02.672.18-Jul-2021 4558.50 6652.50 75.33 4.00 155.46 2745.02
   14:25:02.872.18-Jul-2021 4558.50 6652.78 75.33 4.00 155.66 2745.02
   14:25:03.072.18-Jul-2021 4558.50 6654.30 75.33 4.00 155.86 2745.02
   14:25:03.272.18-Jul-2021 4558.50 6655.36 75.33 4.00 156.06 2745.02
   14:25:03.472.18-Jul-2021 4558.50 6655.36 75.33 4.00 156.26 2745.02
   14:25:03.673.18-Jul-2021 4558.50 6656.70 75.33 4.00 156.46 2745.02
   14:25:03.873.18-Jul-2021 4558.50 6656.35 75.33 4.00 156.66 2745.02
   14:25:04.073.18-Jul-2021 4558.50 6653.91 75.33 4.00 156.86 2745.02
   14:25:04.273.18-Jul-2021 4558.50 6654.71 75.33 4.00 157.06 2745.02
   14:25:04.473.18-Jul-2021 4558.50 6654.71 75.33 4.00 157.26 2745.02
   14:25:04.673.18-Jul-2021 4558.50 6653.45 75.33 4.00 157.46 2745.02
   14:25:04.873.18-Jul-2021 4558.50 6657.54 75.33 4.00 157.66 2745.02
   14:25:05.073.18-Jul-2021 4558.50 6654.19 75.33 4.00 157.86 2745.02
   14:25:05.273.18-Jul-2021 4558.50 6654.06 75.33 4.00 158.06 2745.02
   14:25:05.473.18-Jul-2021 4558.50 6654.06 75.33 4.00 158.26 2745.02
   14:25:05.673.18-Jul-2021 4558.50 6653.06 75.33 4.00 158.46 2745.02
   14:25:05.873.18-Jul-2021 4558.50 6657.90 75.33 4.00 158.66 2745.02
   14:25:06.073.18-Jul-2021 4558.50 6654.45 75.33 4.00 158.86 2745.02
   14:25:06.273.18-Jul-2021 4558.50 6653.90 75.33 4.00 159.06 2745.02
   14:25:06.474.18-Jul-2021 4558.50 6653.90 75.33 4.00 159.26 2745.02
   14:25:06.674.18-Jul-2021 4558.50 6653.56 75.33 4.00 159.46 2745.02
   14:25:06.874.18-Jul-2021 4558.50 6657.03 75.33 4.00 159.66 2745.02
   14:25:07.074.18-Jul-2021 4558.50 6656.42 75.33 4.00 159.86 2745.02
   14:25:07.274.18-Jul-2021 4558.50 6654.49 75.33 4.00 160.06 2745.02
   14:25:07.474.18-Jul-2021 4558.50 6654.49 75.33 4.00 160.26 2745.02
   14:25:07.674.18-Jul-2021 4558.50 6654.88 75.33 4.00 160.46 2745.02
   14:25:07.874.18-Jul-2021 4558.50 6654.55 75.33 4.00 160.66 2745.02
   14:25:08.074.18-Jul-2021 4558.50 6654.54 75.33 4.00 160.86 2745.02
