~Version Information
 VERS.                  2.0:   CWLS log ASCII Standard -VERSION 2.0
 WRAP.                   NO:   One line per depth step
~Well Information Block
#MNEM.UNIT     VALUE/NAME     DESCRIPTION
#---------     -----------    ---------------------------
 STRT.S             23:00:58 18-Jul-21: START TIME 23:00:58 18-Jul-21
 STOP.S             23:07:34 18-Jul-21: STOP TIME  23:07:34 18-Jul-21
 STEP.S                   0.00: STEP TIME
 NULL.                 -999.25: NULL VALUE
 MDS .        Operator Entered:  MAG DATA SOURCE
 PDAT.          Mean Sea Level:  PERMANENT DATUM
 UNIT.                     N/A:  LOGGING EQUIPMENT ID
 DCON.         Sperry Drilling:  DIRECTNL CONTR
 DOE .                     N/A:  DOE NUMBER
 RIG .              West Azeri:  RIG NAME
 JOBN.        AZ-XX-0906997913:  JOB TICKET NUMB
 WELL.                     C41:  WELL NAME
 MWDS.                    Baku:  MWD SHOP
 SRVC.          Turan Drilling:  CONTRACTOR
 FLD .                     ACG:  FIELD NAME
 CTRY.              Azerbaijan:  COUNTRY NAME
 PROV.                    Baku:  PROVINCE
 STAT.                    Baku:  STATE NAME
 REGN.                   EESSA:  REGION
 BASE.              Azerbaijan:  LOGGING EQUIPMENT BASE LOCATION
 UWI .                     N/A:  UNIQUE WELL IDENTIFIER
 API .                     N/A:  API NUMBER
 COMP.     BP Exploration (Caspian Sea) Ltd.:  COMPANY
 WTYP.                Deviated:  WELL TYPE
 SON .        AZ-XX-0906997913:  JOB NUMBER
 FTOP.          Formation Tops:  FORM TOPS DESC
 ILTD.               Lithology:  INTERP LTH DESC
 SVYD.                  Survey:  SURVEY DESC
 DMOD.             Drill Model:  DRILL MOD DESC
 HPTY.       Minimum Curvature:  HOLE POS TYPE
 NREF.                    Grid:  NORTH REFERENCE
 SPUD.               16-May-21:  SPUD DATE
 DATE.      21.11.28 17-May-21:  END TIME
 STIM.      21.11.28 17-May-21:  START TIME
 DMF .             Drill Floor:  DRILL MEAS FROM
 DFST.                        :  DIST FSL TEXT
 DFWT.                        :  DIST FWL TEXT
 CNTY.                        :  COUNTY
 LOC .                        :  LOCATION
 LMF .             Drill Floor:  LOG MEASURED FROM
 AGAP.m                  43.42:  AIR GAP
 VSNS.m                  -2.16:  VERT SEC N/S
 VSEW.m                  -6.24:  VERT SEC E/W
 APD .m                  43.42:  DEPTH ABOVE PD
 WDMS.m                 118.27:  WD ELEV
 EGL .m                   0.00:  GROUND ELEVATION
 EPD .m                   0.00:  ELEVATION
 AZTC.deg                 6.29:  AZM TOTAL CORR
 GRDC.deg                 0.18:  GRID CORRECTION
 MDEC.deg                 6.47:  MAGNETIC DECL
 MDIP.deg                59.54:  MAGNETIC DIP
 MFLD.nT              50337.00:  MAGNETIC FIELD
 GVFD.g                   1.00:  GRAVITY FIELD
 VSDR.deg               226.99:  VERT SEC DIRECT
 TDD .m                   0.00:  TOTAL DEPTH (DRILLER)
 SDEP.m                 448.00:  START DEPTH
 DFSL.m                   0.00:  DISTANCE FSL
 DFWL.m                   0.00:  DISTANCE FWL
 UTMY.m             4435799.96:  UTM Y
 UTMX.m              526265.35:  UTM X
 WHEW.m                  -6.24:  WELL HEAD E/W
 WHNS.m                  -2.16:  WELL HEAD N/S
 LONG.deg                51.31:  LONGITUDE
 LATI.deg                40.06:  LATITUDE
 TVDS.m                  43.42:  TVDSS CORRECTN
 EKB .m                  43.42:  KB ELEVATION
 EDF .m                  43.42:  DF ELEVATION
 TDL .m                 288.00:  TOTAL DEPTH (LOGGER)
 MAGU.                 1851863:  MAGUTM CHECKSUM
 VSC .                       0:  VS TO CLOSURE
~Parameter Information Block
#MNEM.UNIT       Value        Description
#---------     -----------    ---------------------------
 AV  .mps                 0.40:  Ann Velocity 
 AVMX.mps                 0.63:  Max Ann Veloc 
 AZIF.deg               158.76:  Azm, Final 
 BHAT.        Rotary Steerable:  BHA Type 
 BROT.°/30m               0.68:  Build Rotating 
 BS  .in                  8.50:  Bit Size 
 BSZ .in                  8.50:  Bit Size 
 BTPL.psig              712.00:  Bit Press Loss 
 CABU.                      No:  Customer Abuse 
 COMM.                     ¼2`:  Run Comments 1 
 TCS .hr                 90.66:  Time Ciculation Ended 
 CV  .mps                 2.02:  Crit Velocity 
 CVMX.mps                 2.14:  Max Crit Veloc 
 DD1 .            Aziz Aliyevu:  Direct Drillr 1 
 DD2 .             Samir Abbas:  Direct Drillr 2 
 DD3 .           Teymur Aliyev:  Direct Drillr 3 
 DDSV.                 iCruise:  DD Service 
 DEFF.%                  85.10:  % Det Eff 
 DLRX.°/30m               1.05:  Dogleg Rot Max 
 DLSO.°/30m               1.01:  Dogleg Oriented 
 DLSX.°/30m               1.05:  Dogleg Str Max 
 DRET.      07.45.00 18-Jul-21:  Drill End Time 
 DRST.      15.00.00 16-Jul-21:  Drill Start Tim 
 DTIM.hr                 23.46:  Time Drilling 
 EDEP.m                4603.00:  End Depth 
 ENG1.       Seymur Iskandarov:  Engineer 1 
 ENG2.         Yevgeniy Ulikov:  Engineer 2 
 ENG3.         Bahruz Mehdiyev:  Engineer 3 
 ENG4.         Elchin Mammadov:  Engineer 4 
 ETIM.      14.00.00 23-Jul-21:  End Time 
 FLOI.gpm               500.00:  Flow In 
 FLON.gpm               450.00:  Flow In Min 
 FLOS.cptm                0.00:  Fluid Loss 
 FLOX.gpm               560.00:  Flow In Max 
 DFT .        Mineral Oil Base:  Mud Type 
 FTRO.       Formation Presure:  FTWD Run Obj 
 HFLO.                      No:  High Flow 
 HPRE.                      No:  High Pressure 
 HTEM.                      No:  High Temp 
 HYDO.m                   1.80:  Hydro Offset 
 IFIN.deg                40.22:  Inc, Final 
 IMAX.deg                40.54:  Inc Max 
 IMIN.deg                39.44:  Inc Min 
 IMND.m                4361.17:  Inc Min Depth 
 IMXD.m                4417.92:  Inc Max Depth 
 JARR.                      No:  Jarring 
 LETM.      07.45.00 18-Jul-21:  Log End Time 
 LOST.hr                    16:  Lost Rig Time 
 LSTM.      15.00.00 16-Jul-21:  Log Start Time 
 MDCL.ppm             36500.00:  Mud Chlorides 
 MDES.     Inversion Oil/Synthetic:  Mud Desc 
 DFD .sg                  1.42:  Mud Density 
 MDMN.sg                  1.42:  Dens Mud Min 
 MDMX.sg                  1.43:  Dens Mud Max 
 MOIL.                      56:  Run Mud Oil % 
 MOWR.                   71:29:  Run Mud OWR 
 MSND.                     0.5:  Run Mud Sand % 
 MSOL.                      21:  Run Mud Solids% 
 DFV .spqt               78.00:  Mud Viscosity 
 MWOD.in                  6.75:  MWD Tool OD 
 MWSI.                     Yes:  Serv Intrp, MWD 
 OTIM.hr                200.73:  Time Operating 
 PCON.           Look Like New:  Pad Condition 
 PMAX.psia            11069.93:  Press Op, Max 
 PV  .cP                 32.00:  Mud PV 
 RUN .                     700:  Run Number 
 ROPA.m/hr               10.00:  ROP Avg 
 ROPN.m/hr                9.00:  ROP Min 
 ROPX.m/hr               16.00:  ROP Max 
 RPMA.rpm               116.00:  RPM Surface Avg 
 RPMN.rpm                80.00:  RPM Surface Min 
 RPMX.rpm               120.00:  RPM Surface Max 
 RRUN.                    L605:  Rig Run Number 
 RTIM.hr                 45.00:  Time Reaming 
 SAZI.deg               159.86:  Azm, Start 
 SDEP.m                4315.00:  Start Depth 
 SIDD.                      No:  Serv Intrp, DD 
 SINC.deg                39.86:  Inc, Start 
 SPPA.psig             3300.00:  SPP Avg 
 SPPN.psig             3040.00:  SPP Min 
 SPPX.psig             3645.00:  SPP Max 
 STIM.      01.00.00 15-Jul-21:  Start Time 
 SVCS.                 DD, MWD:  Services 
 SVER.                    9.20:  Sperry Version 
 TDAT.m                 288.00:  Tot Depth Attmp 
 TDDF.                      No:  Trip for DD 
 TDLG.m                 288.00:  Tot Depth Loggd 
 TFF .                      No:  Trip for Fail 
 TQAA.f-kp               19.00:  Torque Abs Avg 
 TQAN.f-kp               18.00:  Torque Abs Min 
 TQAX.f-kp               21.00:  Torque Abs Max 
 TRRT.°/30m               0.45:  Turn Rotating 
 MRT .                    HCIM:  Maximum Recorded Temperature 
 TTMX.degC               88.24:  Max Tool Temp 
 VS01.                90649157:  Virtual Str1 SN 
 VS02.                90652483:  Virtual Str2 SN 
 VS03.                11671987:  Virtual Str3 SN 
 VS04.                90643411:  Virtual Str4 SN 
 VS05.                90652478:  Virtual Str5 SN 
 VS06.                    6111:  Virtual Str6 SN 
 WBMN.klb                 9.50:  WOB Min 
 WITN.        Grigoriy Sarayev:  Customer Rep 
 WITN.          Rufat Huseynov:  Customer Rep 2 
 WOBA.klb                11.00:  WOB Avg 
 WOBX.klb                15.00:  WOB Max 
 YP  .lhf2               28.00:  Yield Point 
~Curve Information Block
#MNEM.UNIT                 API CODE     Curve Description
#---------               -----------    ---------------------------
 TIME.HHMMSS            00 000 000 000:  GT Time & Date
 GTDEPTH.m              00 000 000 000:  GT Depth
 GTPQH.psia             00 000 000 000:  GT HR Quartz Pressure
 GTTQ.degC              00 000 000 000:  GT Quartz Temperature
 GTTN.NONE              00 000 000 000:  GT Test Number
 GTET.sec               00 000 000 000:  GT Elapsed Test Time
 GTTVD.m                00 000 000 000:  GT True Vertical Depth
#Other Information
#
#WARRANTY: Halliburton will use its best efforts to furnish customers with 
#accurate information and interpretations that are part of, and incident to, the services 
#provided.  However, Halliburton cannot and does not warrant the accuracy 
#or correctness of such information and interpretations.  Under no circumstances should any 
#such information or interpretation be relied upon as the sole basis for any drilling, 
#completion, production, or financial decision or any procedure involving any risk to the 
#safety of any drilling venture, drilling rig or its crew or any other third party.  The 
#Customer has full responsibility for all drilling, completion and production operation.  
#Halliburton makes no representations or warranties, either expressed or 
#implied, including, but not limited to, the implied warranties of merchantability or fitness 
#for a particular purpose, with respect to the services rendered.  In no event will 
#Halliburton be liable for failure to obtain any particular results or for 
#any damages, including, but not limited to, indirect, special or consequential damages, 
#resulting from the use of any information or interpretation provided by Halliburton.
#
~A           TIME           GTDEPTH  GTPQH  GTTQ  GTTN  GTET   GTTVD  
# ...
   23:06:43.798.18-Jul-2021 4247.58 5959.19 69.67 8.00 345.13 2507.04
   23:06:43.998.18-Jul-2021 4247.58 5959.19 69.67 8.00 345.33 2507.04
   23:06:44.198.18-Jul-2021 4247.58 5957.60 69.67 8.00 345.53 2507.04
   23:06:44.398.18-Jul-2021 4247.58 5957.88 69.67 8.00 345.73 2507.04
   23:06:44.598.18-Jul-2021 4247.58 5957.79 69.67 8.00 345.93 2507.04
   23:06:44.798.18-Jul-2021 4247.58 5957.47 69.67 8.00 346.13 2507.04
   23:06:44.998.18-Jul-2021 4247.58 5957.47 69.67 8.00 346.33 2507.04
   23:06:45.198.18-Jul-2021 4247.58 5957.40 69.67 8.00 346.53 2507.04
   23:06:45.398.18-Jul-2021 4247.58 5957.75 69.67 8.00 346.73 2507.04
   23:06:45.598.18-Jul-2021 4247.58 5957.50 69.67 8.00 346.93 2507.04
   23:06:45.798.18-Jul-2021 4247.58 5958.53 69.67 8.00 347.13 2507.04
   23:06:45.998.18-Jul-2021 4247.58 5958.53 69.67 8.00 347.33 2507.04
   23:06:46.198.18-Jul-2021 4247.58 5954.01 69.67 8.00 347.53 2507.04
   23:06:46.398.18-Jul-2021 4247.58 5955.39 69.67 8.00 347.73 2507.04
   23:06:46.599.18-Jul-2021 4247.58 5957.79 69.67 8.00 347.93 2507.04
   23:06:46.799.18-Jul-2021 4247.58 5957.27 69.67 8.00 348.13 2507.04
   23:06:46.999.18-Jul-2021 4247.58 5957.27 69.67 8.00 348.33 2507.04
   23:06:47.199.18-Jul-2021 4247.58 5958.99 69.67 8.00 348.53 2507.04
   23:06:47.399.18-Jul-2021 4247.58 5958.31 69.67 8.00 348.73 2507.04
   23:06:47.599.18-Jul-2021 4247.58 5958.30 69.67 8.00 348.93 2507.04
   23:06:47.799.18-Jul-2021 4247.58 5959.47 69.67 8.00 349.13 2507.04
   23:06:47.999.18-Jul-2021 4247.58 5959.47 69.67 8.00 349.33 2507.04
   23:06:48.199.18-Jul-2021 4247.58 5958.08 69.67 8.00 349.53 2507.04
   23:06:48.399.18-Jul-2021 4247.58 5958.85 69.67 8.00 349.73 2507.04
   23:06:48.599.18-Jul-2021 4247.58 5961.85 69.67 8.00 349.93 2507.04
   23:06:48.799.18-Jul-2021 4247.58 5951.83 69.67 8.00 350.13 2507.04
   23:06:48.999.18-Jul-2021 4247.58 5951.83 69.67 8.00 350.33 2507.04
   23:06:49.200.18-Jul-2021 4247.58 5960.63 69.67 8.00 350.53 2507.04
   23:06:49.400.18-Jul-2021 4247.58 5952.58 69.67 8.00 350.73 2507.04
   23:06:49.600.18-Jul-2021 4247.58 5956.74 69.67 8.00 350.93 2507.04
   23:06:49.800.18-Jul-2021 4247.58 5959.54 69.67 8.00 351.13 2507.04
   23:06:50.000.18-Jul-2021 4247.58 5959.54 69.67 8.00 351.33 2507.04
   23:06:50.200.18-Jul-2021 4247.58 5956.17 69.67 8.00 351.53 2507.04
   23:06:50.400.18-Jul-2021 4247.58 5959.73 69.67 8.00 351.73 2507.04
   23:06:50.600.18-Jul-2021 4247.58 5963.07 69.67 8.00 351.93 2507.04
   23:06:50.800.18-Jul-2021 4247.58 5956.15 69.67 8.00 352.13 2507.04
   23:06:51.000.18-Jul-2021 4247.58 5956.15 69.67 8.00 352.33 2507.04
   23:06:51.200.18-Jul-2021 4247.58 5957.95 69.67 8.00 352.53 2507.04
   23:06:51.400.18-Jul-2021 4247.58 5960.21 69.67 8.00 352.73 2507.04
   23:06:51.600.18-Jul-2021 4247.58 5958.73 69.67 8.00 352.93 2507.04
   23:06:51.800.18-Jul-2021 4247.58 5955.54 69.67 8.00 353.13 2507.04
   23:06:52.001.18-Jul-2021 4247.58 5955.54 69.67 8.00 353.33 2507.04
   23:06:52.201.18-Jul-2021 4247.58 5959.52 69.67 8.00 353.53 2507.04
   23:06:52.401.18-Jul-2021 4247.58 5957.93 69.67 8.00 353.73 2507.04
   23:06:52.601.18-Jul-2021 4247.58 5959.05 69.67 8.00 353.93 2507.04
   23:06:52.801.18-Jul-2021 4247.58 5959.31 69.67 8.00 354.13 2507.04
   23:06:53.001.18-Jul-2021 4247.58 5959.31 69.67 8.00 354.33 2507.04
   23:06:53.201.18-Jul-2021 4247.58 5958.15 69.67 8.00 354.53 2507.04
   23:06:53.401.18-Jul-2021 4247.58 5958.14 69.67 8.00 354.73 2507.04
   23:06:53.601.18-Jul-2021 4247.58 5958.22 69.67 8.00 354.93 2507.04
   23:06:53.801.18-Jul-2021 4247.58 5958.20 69.67 8.00 355.13 2507.04
   23:06:54.001.18-Jul-2021 4247.58 5958.20 69.67 8.00 355.33 2507.04
   23:06:54.201.18-Jul-2021 4247.58 5960.02 69.67 8.00 355.53 2507.04
   23:06:54.401.18-Jul-2021 4247.58 5959.22 69.67 8.00 355.73 2507.04
   23:06:54.602.18-Jul-2021 4247.58 5954.52 69.67 8.00 355.93 2507.04
   23:06:54.802.18-Jul-2021 4247.58 5955.65 69.67 8.00 356.13 2507.04
   23:06:55.002.18-Jul-2021 4247.58 5955.65 69.67 8.00 356.33 2507.04
   23:06:55.202.18-Jul-2021 4247.58 5957.71 69.67 8.00 356.53 2507.04
   23:06:55.402.18-Jul-2021 4247.58 5957.12 69.67 8.00 356.73 2507.04
   23:06:55.602.18-Jul-2021 4247.58 5958.19 69.67 8.00 356.93 2507.04
   23:06:55.802.18-Jul-2021 4247.58 5958.65 69.67 8.00 357.13 2507.04
   23:06:56.002.18-Jul-2021 4247.58 5958.65 69.67 8.00 357.33 2507.04
   23:06:56.202.18-Jul-2021 4247.58 5958.43 69.67 8.00 357.53 2507.04
   23:06:56.402.18-Jul-2021 4247.58 5959.06 69.67 8.00 357.73 2507.04
   23:06:56.602.18-Jul-2021 4247.58 5959.33 69.67 8.00 357.93 2507.04
   23:06:56.802.18-Jul-2021 4247.58 5959.37 69.67 8.00 358.13 2507.04
   23:06:57.002.18-Jul-2021 4247.58 5959.37 69.67 8.00 358.33 2507.04
   23:06:57.202.18-Jul-2021 4247.58 5951.79 69.67 8.00 358.53 2507.04
   23:06:57.403.18-Jul-2021 4247.58 5954.89 69.67 8.00 358.73 2507.04
   23:06:57.603.18-Jul-2021 4247.58 5959.69 69.67 8.00 358.93 2507.04
   23:06:57.803.18-Jul-2021 4247.58 5952.88 69.67 8.00 359.13 2507.04
   23:06:58.003.18-Jul-2021 4247.58 5952.88 69.67 8.00 359.33 2507.04
   23:06:58.203.18-Jul-2021 4247.58 5956.72 69.67 8.00 359.53 2507.04
   23:06:58.403.18-Jul-2021 4247.58 5957.01 69.67 8.00 359.73 2507.04
   23:06:58.603.18-Jul-2021 4247.58 5956.73 69.67 8.00 359.93 2507.04
   23:06:58.803.18-Jul-2021 4247.58 5960.06 69.67 8.00 360.13 2507.04
   23:06:59.003.18-Jul-2021 4247.58 5960.06 69.67 8.00 360.33 2507.04
   23:06:59.203.18-Jul-2021 4247.58 5953.30 69.67 8.00 360.53 2507.04
   23:06:59.403.18-Jul-2021 4247.58 5956.51 69.67 8.00 360.73 2507.04
   23:06:59.603.18-Jul-2021 4247.58 5959.16 69.67 8.00 360.93 2507.04
   23:06:59.803.18-Jul-2021 4247.58 5964.51 69.67 8.00 361.13 2507.04
   23:07:00.003.18-Jul-2021 4247.58 5964.51 69.67 8.00 361.33 2507.04
   23:07:00.204.18-Jul-2021 4247.58 5967.21 69.67 8.00 361.53 2507.04
   23:07:00.404.18-Jul-2021 4247.58 5969.39 69.67 8.00 361.73 2507.04
   23:07:00.604.18-Jul-2021 4247.58 6273.87 69.67 8.00 361.93 2507.04
   23:07:00.804.18-Jul-2021 4247.58 6291.34 69.67 8.00 362.13 2507.04
   23:07:01.004.18-Jul-2021 4247.58 6291.34 69.67 8.00 362.33 2507.04
   23:07:01.204.18-Jul-2021 4247.58 6290.98 69.67 8.00 362.53 2507.04
   23:07:01.404.18-Jul-2021 4247.58 6288.04 69.67 8.00 362.73 2507.04
   23:07:01.604.18-Jul-2021 4247.58 6288.15 69.67 8.00 362.93 2507.04
   23:07:01.804.18-Jul-2021 4247.58 6289.98 69.67 8.00 363.13 2507.04
   23:07:02.004.18-Jul-2021 4247.58 6289.98 69.67 8.00 363.33 2507.04
   23:07:02.204.18-Jul-2021 4247.58 6286.45 69.67 8.00 363.53 2507.04
   23:07:02.404.18-Jul-2021 4247.58 6286.40 69.67 8.00 363.73 2507.04
   23:07:02.604.18-Jul-2021 4247.58 6307.78 69.67 8.00 363.93 2507.04
   23:07:02.805.18-Jul-2021 4247.58 6283.83 69.67 8.00 364.13 2507.04
   23:07:03.005.18-Jul-2021 4247.58 6283.83 69.67 8.00 364.33 2507.04
   23:07:03.205.18-Jul-2021 4247.58 6287.76 69.67 8.00 364.53 2507.04
   23:07:03.405.18-Jul-2021 4247.58 6293.83 69.67 8.00 364.73 2507.04
   23:07:03.605.18-Jul-2021 4247.58 6289.62 69.67 8.00 364.93 2507.04
   23:07:03.805.18-Jul-2021 4247.58 6285.58 69.67 8.00 365.13 2507.04
   23:07:04.005.18-Jul-2021 4247.58 6285.58 69.67 8.00 365.33 2507.04
   23:07:04.205.18-Jul-2021 4247.58 6286.48 69.67 8.00 365.53 2507.04
   23:07:04.405.18-Jul-2021 4247.58 6286.58 69.67 8.00 365.73 2507.04
   23:07:04.605.18-Jul-2021 4247.58 6287.18 69.67 8.00 365.93 2507.04
   23:07:04.805.18-Jul-2021 4247.58 6286.13 69.67 8.00 366.13 2507.04
   23:07:05.005.18-Jul-2021 4247.58 6286.13 69.67 8.00 366.33 2507.04
   23:07:05.205.18-Jul-2021 4247.58 6286.17 69.68 8.00 366.53 2507.04
   23:07:05.405.18-Jul-2021 4247.58 6311.64 69.68 8.00 366.74 2507.04
   23:07:05.606.18-Jul-2021 4247.58 6278.65 69.68 8.00 366.94 2507.04
   23:07:05.806.18-Jul-2021 4247.58 6285.42 69.68 8.00 367.14 2507.04
   23:07:06.006.18-Jul-2021 4247.58 6285.42 69.68 8.00 367.34 2507.04
   23:07:06.206.18-Jul-2021 4247.58 6293.85 69.68 8.00 367.54 2507.04
   23:07:06.406.18-Jul-2021 4247.58 6295.40 69.68 8.00 367.74 2507.04
   23:07:06.606.18-Jul-2021 4247.58 6307.71 69.68 8.00 367.94 2507.04
