~Version Information
 VERS.                  2.0:   CWLS log ASCII Standard -VERSION 2.0
 WRAP.                   NO:   One line per depth step
~Well Information Block
#MNEM.UNIT     VALUE/NAME     DESCRIPTION
#---------     -----------    ---------------------------
 STRT.S             08:29:33 19-Jul-21: START TIME 08:29:33 19-Jul-21
 STOP.S             08:36:27 19-Jul-21: STOP TIME  08:36:27 19-Jul-21
 STEP.S                   0.00: STEP TIME
 NULL.                 -999.25: NULL VALUE
 MDS .        Operator Entered:  MAG DATA SOURCE
 PDAT.          Mean Sea Level:  PERMANENT DATUM
 UNIT.                     N/A:  LOGGING EQUIPMENT ID
 DCON.         Sperry Drilling:  DIRECTNL CONTR
 DOE .                     N/A:  DOE NUMBER
 RIG .              West Azeri:  RIG NAME
 JOBN.        AZ-XX-0906997913:  JOB TICKET NUMB
 WELL.                     C41:  WELL NAME
 MWDS.                    Baku:  MWD SHOP
 SRVC.          Turan Drilling:  CONTRACTOR
 FLD .                     ACG:  FIELD NAME
 CTRY.              Azerbaijan:  COUNTRY NAME
 PROV.                    Baku:  PROVINCE
 STAT.                    Baku:  STATE NAME
 REGN.                   EESSA:  REGION
 BASE.              Azerbaijan:  LOGGING EQUIPMENT BASE LOCATION
 UWI .                     N/A:  UNIQUE WELL IDENTIFIER
 API .                     N/A:  API NUMBER
 COMP.     BP Exploration (Caspian Sea) Ltd.:  COMPANY
 WTYP.                Deviated:  WELL TYPE
 SON .        AZ-XX-0906997913:  JOB NUMBER
 FTOP.          Formation Tops:  FORM TOPS DESC
 ILTD.               Lithology:  INTERP LTH DESC
 SVYD.                  Survey:  SURVEY DESC
 DMOD.             Drill Model:  DRILL MOD DESC
 HPTY.       Minimum Curvature:  HOLE POS TYPE
 NREF.                    Grid:  NORTH REFERENCE
 SPUD.               16-May-21:  SPUD DATE
 DATE.      21.11.28 17-May-21:  END TIME
 STIM.      21.11.28 17-May-21:  START TIME
 DMF .             Drill Floor:  DRILL MEAS FROM
 DFST.                        :  DIST FSL TEXT
 DFWT.                        :  DIST FWL TEXT
 CNTY.                        :  COUNTY
 LOC .                        :  LOCATION
 LMF .             Drill Floor:  LOG MEASURED FROM
 AGAP.m                  43.42:  AIR GAP
 VSNS.m                  -2.16:  VERT SEC N/S
 VSEW.m                  -6.24:  VERT SEC E/W
 APD .m                  43.42:  DEPTH ABOVE PD
 WDMS.m                 118.27:  WD ELEV
 EGL .m                   0.00:  GROUND ELEVATION
 EPD .m                   0.00:  ELEVATION
 AZTC.deg                 6.29:  AZM TOTAL CORR
 GRDC.deg                 0.18:  GRID CORRECTION
 MDEC.deg                 6.47:  MAGNETIC DECL
 MDIP.deg                59.54:  MAGNETIC DIP
 MFLD.nT              50337.00:  MAGNETIC FIELD
 GVFD.g                   1.00:  GRAVITY FIELD
 VSDR.deg               226.99:  VERT SEC DIRECT
 TDD .m                   0.00:  TOTAL DEPTH (DRILLER)
 SDEP.m                 448.00:  START DEPTH
 DFSL.m                   0.00:  DISTANCE FSL
 DFWL.m                   0.00:  DISTANCE FWL
 UTMY.m             4435799.96:  UTM Y
 UTMX.m              526265.35:  UTM X
 WHEW.m                  -6.24:  WELL HEAD E/W
 WHNS.m                  -2.16:  WELL HEAD N/S
 LONG.deg                51.31:  LONGITUDE
 LATI.deg                40.06:  LATITUDE
 TVDS.m                  43.42:  TVDSS CORRECTN
 EKB .m                  43.42:  KB ELEVATION
 EDF .m                  43.42:  DF ELEVATION
 TDL .m                 288.00:  TOTAL DEPTH (LOGGER)
 MAGU.                 1851863:  MAGUTM CHECKSUM
 VSC .                       0:  VS TO CLOSURE
~Parameter Information Block
#MNEM.UNIT       Value        Description
#---------     -----------    ---------------------------
 AV  .mps                 0.40:  Ann Velocity 
 AVMX.mps                 0.63:  Max Ann Veloc 
 AZIF.deg               158.76:  Azm, Final 
 BHAT.        Rotary Steerable:  BHA Type 
 BROT.°/30m               0.68:  Build Rotating 
 BS  .in                  8.50:  Bit Size 
 BSZ .in                  8.50:  Bit Size 
 BTPL.psig              712.00:  Bit Press Loss 
 CABU.                      No:  Customer Abuse 
 COMM.                     ìk:  Run Comments 1 
 TCS .hr                 90.66:  Time Ciculation Ended 
 CV  .mps                 2.02:  Crit Velocity 
 CVMX.mps                 2.14:  Max Crit Veloc 
 DD1 .            Aziz Aliyevu:  Direct Drillr 1 
 DD2 .             Samir Abbas:  Direct Drillr 2 
 DD3 .           Teymur Aliyev:  Direct Drillr 3 
 DDSV.                 iCruise:  DD Service 
 DEFF.%                  85.10:  % Det Eff 
 DLRX.°/30m               1.05:  Dogleg Rot Max 
 DLSO.°/30m               1.01:  Dogleg Oriented 
 DLSX.°/30m               1.05:  Dogleg Str Max 
 DRET.      07.45.00 18-Jul-21:  Drill End Time 
 DRST.      15.00.00 16-Jul-21:  Drill Start Tim 
 DTIM.hr                 23.46:  Time Drilling 
 EDEP.m                4603.00:  End Depth 
 ENG1.       Seymur Iskandarov:  Engineer 1 
 ENG2.         Yevgeniy Ulikov:  Engineer 2 
 ENG3.         Bahruz Mehdiyev:  Engineer 3 
 ENG4.         Elchin Mammadov:  Engineer 4 
 ETIM.      14.00.00 23-Jul-21:  End Time 
 FLOI.gpm               500.00:  Flow In 
 FLON.gpm               450.00:  Flow In Min 
 FLOS.cptm                0.00:  Fluid Loss 
 FLOX.gpm               560.00:  Flow In Max 
 DFT .        Mineral Oil Base:  Mud Type 
 FTRO.       Formation Presure:  FTWD Run Obj 
 HFLO.                      No:  High Flow 
 HPRE.                      No:  High Pressure 
 HTEM.                      No:  High Temp 
 HYDO.m                   1.80:  Hydro Offset 
 IFIN.deg                40.22:  Inc, Final 
 IMAX.deg                40.54:  Inc Max 
 IMIN.deg                39.44:  Inc Min 
 IMND.m                4361.17:  Inc Min Depth 
 IMXD.m                4417.92:  Inc Max Depth 
 JARR.                      No:  Jarring 
 LETM.      07.45.00 18-Jul-21:  Log End Time 
 LOST.hr                    16:  Lost Rig Time 
 LSTM.      15.00.00 16-Jul-21:  Log Start Time 
 MDCL.ppm             36500.00:  Mud Chlorides 
 MDES.     Inversion Oil/Synthetic:  Mud Desc 
 DFD .sg                  1.42:  Mud Density 
 MDMN.sg                  1.42:  Dens Mud Min 
 MDMX.sg                  1.43:  Dens Mud Max 
 MOIL.                      56:  Run Mud Oil % 
 MOWR.                   71:29:  Run Mud OWR 
 MSND.                     0.5:  Run Mud Sand % 
 MSOL.                      21:  Run Mud Solids% 
 DFV .spqt               78.00:  Mud Viscosity 
 MWOD.in                  6.75:  MWD Tool OD 
 MWSI.                     Yes:  Serv Intrp, MWD 
 OTIM.hr                200.73:  Time Operating 
 PCON.           Look Like New:  Pad Condition 
 PMAX.psia            11069.93:  Press Op, Max 
 PV  .cP                 32.00:  Mud PV 
 RUN .                     700:  Run Number 
 ROPA.m/hr               10.00:  ROP Avg 
 ROPN.m/hr                9.00:  ROP Min 
 ROPX.m/hr               16.00:  ROP Max 
 RPMA.rpm               116.00:  RPM Surface Avg 
 RPMN.rpm                80.00:  RPM Surface Min 
 RPMX.rpm               120.00:  RPM Surface Max 
 RRUN.                    L605:  Rig Run Number 
 RTIM.hr                 45.00:  Time Reaming 
 SAZI.deg               159.86:  Azm, Start 
 SDEP.m                4315.00:  Start Depth 
 SIDD.                      No:  Serv Intrp, DD 
 SINC.deg                39.86:  Inc, Start 
 SPPA.psig             3300.00:  SPP Avg 
 SPPN.psig             3040.00:  SPP Min 
 SPPX.psig             3645.00:  SPP Max 
 STIM.      01.00.00 15-Jul-21:  Start Time 
 SVCS.                 DD, MWD:  Services 
 SVER.                    9.20:  Sperry Version 
 TDAT.m                 288.00:  Tot Depth Attmp 
 TDDF.                      No:  Trip for DD 
 TDLG.m                 288.00:  Tot Depth Loggd 
 TFF .                      No:  Trip for Fail 
 TQAA.f-kp               19.00:  Torque Abs Avg 
 TQAN.f-kp               18.00:  Torque Abs Min 
 TQAX.f-kp               21.00:  Torque Abs Max 
 TRRT.°/30m               0.45:  Turn Rotating 
 MRT .                    HCIM:  Maximum Recorded Temperature 
 TTMX.degC               88.24:  Max Tool Temp 
 VS01.                90649157:  Virtual Str1 SN 
 VS02.                90652483:  Virtual Str2 SN 
 VS03.                11671987:  Virtual Str3 SN 
 VS04.                90643411:  Virtual Str4 SN 
 VS05.                90652478:  Virtual Str5 SN 
 VS06.                    6111:  Virtual Str6 SN 
 WBMN.klb                 9.50:  WOB Min 
 WITN.        Grigoriy Sarayev:  Customer Rep 
 WITN.          Rufat Huseynov:  Customer Rep 2 
 WOBA.klb                11.00:  WOB Avg 
 WOBX.klb                15.00:  WOB Max 
 YP  .lhf2               28.00:  Yield Point 
~Curve Information Block
#MNEM.UNIT                 API CODE     Curve Description
#---------               -----------    ---------------------------
 TIME.HHMMSS            00 000 000 000:  GT Time & Date
 GTDEPTH.m              00 000 000 000:  GT Depth
 GTPQH.psia             00 000 000 000:  GT HR Quartz Pressure
 GTTQ.degC              00 000 000 000:  GT Quartz Temperature
 GTTN.NONE              00 000 000 000:  GT Test Number
 GTET.sec               00 000 000 000:  GT Elapsed Test Time
 GTTVD.m                00 000 000 000:  GT True Vertical Depth
#Other Information
#
#WARRANTY: Halliburton will use its best efforts to furnish customers with 
#accurate information and interpretations that are part of, and incident to, the services 
#provided.  However, Halliburton cannot and does not warrant the accuracy 
#or correctness of such information and interpretations.  Under no circumstances should any 
#such information or interpretation be relied upon as the sole basis for any drilling, 
#completion, production, or financial decision or any procedure involving any risk to the 
#safety of any drilling venture, drilling rig or its crew or any other third party.  The 
#Customer has full responsibility for all drilling, completion and production operation.  
#Halliburton makes no representations or warranties, either expressed or 
#implied, including, but not limited to, the implied warranties of merchantability or fitness 
#for a particular purpose, with respect to the services rendered.  In no event will 
#Halliburton be liable for failure to obtain any particular results or for 
#any damages, including, but not limited to, indirect, special or consequential damages, 
#resulting from the use of any information or interpretation provided by Halliburton.
#
~A           TIME           GTDEPTH  GTPQH  GTTQ  GTTN   GTET   GTTVD  
# ...
   08:35:34.965.19-Jul-2021 4431.00 6441.51 70.32 18.00 361.73 2647.54
   08:35:35.165.19-Jul-2021 4431.00 6441.59 70.32 18.00 361.93 2647.54
   08:35:35.365.19-Jul-2021 4431.00 6439.91 70.32 18.00 362.13 2647.54
   08:35:35.565.19-Jul-2021 4431.00 6439.91 70.32 18.00 362.33 2647.54
   08:35:35.765.19-Jul-2021 4431.00 6437.53 70.33 18.00 362.53 2647.54
   08:35:35.965.19-Jul-2021 4431.00 6446.93 70.33 18.00 362.73 2647.54
   08:35:36.165.19-Jul-2021 4431.00 6446.13 70.33 18.00 362.93 2647.54
   08:35:36.365.19-Jul-2021 4431.00 6441.52 70.33 18.00 363.13 2647.54
   08:35:36.566.19-Jul-2021 4431.00 6441.52 70.33 18.00 363.33 2647.54
   08:35:36.766.19-Jul-2021 4431.00 6442.94 70.34 18.00 363.53 2647.54
   08:35:36.966.19-Jul-2021 4431.00 6441.58 70.34 18.00 363.73 2647.54
   08:35:37.166.19-Jul-2021 4431.00 6442.66 70.34 18.00 363.93 2647.54
   08:35:37.366.19-Jul-2021 4431.00 6442.92 70.34 18.00 364.13 2647.54
   08:35:37.566.19-Jul-2021 4431.00 6442.92 70.34 18.00 364.33 2647.54
   08:35:37.766.19-Jul-2021 4431.00 6441.45 70.34 18.00 364.53 2647.54
   08:35:37.966.19-Jul-2021 4431.00 6440.64 70.34 18.00 364.73 2647.54
   08:35:38.166.19-Jul-2021 4431.00 6458.72 70.35 18.00 364.93 2647.54
   08:35:38.366.19-Jul-2021 4431.00 6440.60 70.35 18.00 365.13 2647.54
   08:35:38.566.19-Jul-2021 4431.00 6440.60 70.35 18.00 365.33 2647.54
   08:35:38.766.19-Jul-2021 4431.00 6460.16 70.35 18.00 365.53 2647.54
   08:35:38.966.19-Jul-2021 4431.00 6445.09 70.35 18.00 365.73 2647.54
   08:35:39.167.19-Jul-2021 4431.00 6445.59 70.35 18.00 365.93 2647.54
   08:35:39.367.19-Jul-2021 4431.00 6447.00 70.35 18.00 366.13 2647.54
   08:35:39.567.19-Jul-2021 4431.00 6447.00 70.35 18.00 366.33 2647.54
   08:35:39.767.19-Jul-2021 4431.00 6457.45 70.35 18.00 366.53 2647.54
   08:35:39.967.19-Jul-2021 4431.00 6444.00 70.36 18.00 366.74 2647.54
   08:35:40.167.19-Jul-2021 4431.00 6447.96 70.36 18.00 366.94 2647.54
   08:35:40.367.19-Jul-2021 4431.00 6447.63 70.36 18.00 367.14 2647.54
   08:35:40.567.19-Jul-2021 4431.00 6447.63 70.36 18.00 367.34 2647.54
   08:35:40.767.19-Jul-2021 4431.00 6462.55 70.36 18.00 367.54 2647.54
   08:35:40.967.19-Jul-2021 4431.00 6445.32 70.36 18.00 367.74 2647.54
   08:35:41.167.19-Jul-2021 4431.00 6447.93 70.36 18.00 367.94 2647.54
   08:35:41.367.19-Jul-2021 4431.00 6470.14 70.36 18.00 368.14 2647.54
   08:35:41.567.19-Jul-2021 4431.00 6470.14 70.36 18.00 368.34 2647.54
   08:35:41.767.19-Jul-2021 4431.00 6449.89 70.36 18.00 368.54 2647.54
   08:35:41.968.19-Jul-2021 4431.00 6448.33 70.36 18.00 368.74 2647.54
   08:35:42.168.19-Jul-2021 4431.00 6442.94 70.36 18.00 368.94 2647.54
   08:35:42.368.19-Jul-2021 4431.00 6446.37 70.36 18.00 369.14 2647.54
   08:35:42.568.19-Jul-2021 4431.00 6446.37 70.36 18.00 369.34 2647.54
   08:35:42.768.19-Jul-2021 4431.00 6442.77 70.36 18.00 369.54 2647.54
   08:35:42.968.19-Jul-2021 4431.00 6443.20 70.37 18.00 369.74 2647.54
   08:35:43.168.19-Jul-2021 4431.00 6442.85 70.37 18.00 369.94 2647.54
   08:35:43.368.19-Jul-2021 4431.00 6442.57 70.37 18.00 370.14 2647.54
   08:35:43.568.19-Jul-2021 4431.00 6442.57 70.37 18.00 370.34 2647.54
   08:35:43.768.19-Jul-2021 4431.00 6442.85 70.37 18.00 370.54 2647.54
   08:35:43.968.19-Jul-2021 4431.00 6441.05 70.37 18.00 370.74 2647.54
   08:35:44.168.19-Jul-2021 4431.00 6460.01 70.37 18.00 370.94 2647.54
   08:35:44.368.19-Jul-2021 4431.00 6439.62 70.37 18.00 371.14 2647.54
   08:35:44.568.19-Jul-2021 4431.00 6439.62 70.37 18.00 371.34 2647.54
   08:35:44.769.19-Jul-2021 4431.00 6444.48 70.37 18.00 371.54 2647.54
   08:35:44.969.19-Jul-2021 4431.00 6443.30 70.37 18.00 371.74 2647.54
   08:35:45.169.19-Jul-2021 4431.00 6446.02 70.37 18.00 371.94 2647.54
   08:35:45.369.19-Jul-2021 4431.00 6442.67 70.37 18.00 372.14 2647.54
   08:35:45.569.19-Jul-2021 4431.00 6442.67 70.37 18.00 372.34 2647.54
   08:35:45.769.19-Jul-2021 4431.00 6442.34 70.37 18.00 372.54 2647.54
   08:35:45.969.19-Jul-2021 4431.00 6441.77 70.37 18.00 372.74 2647.54
   08:35:46.169.19-Jul-2021 4431.00 6442.34 70.37 18.00 372.94 2647.54
   08:35:46.369.19-Jul-2021 4431.00 6441.56 70.37 18.00 373.14 2647.54
   08:35:46.569.19-Jul-2021 4431.00 6441.56 70.37 18.00 373.34 2647.54
   08:35:46.769.19-Jul-2021 4431.00 6452.17 70.37 18.00 373.54 2647.54
   08:35:46.969.19-Jul-2021 4431.00 6445.51 70.37 18.00 373.74 2647.54
   08:35:47.169.19-Jul-2021 4431.00 6446.14 70.37 18.00 373.94 2647.54
   08:35:47.370.19-Jul-2021 4431.00 6463.25 70.37 18.00 374.14 2647.54
   08:35:47.570.19-Jul-2021 4431.00 6463.25 70.37 18.00 374.34 2647.54
   08:35:47.770.19-Jul-2021 4431.00 6454.12 70.37 18.00 374.54 2647.54
   08:35:47.970.19-Jul-2021 4431.00 6443.13 70.37 18.00 374.74 2647.54
   08:35:48.170.19-Jul-2021 4431.00 6463.14 70.37 18.00 374.94 2647.54
   08:35:48.370.19-Jul-2021 4431.00 6443.84 70.37 18.00 375.14 2647.54
   08:35:48.570.19-Jul-2021 4431.00 6443.84 70.37 18.00 375.34 2647.54
   08:35:48.770.19-Jul-2021 4431.00 6463.71 70.37 18.00 375.54 2647.54
   08:35:48.970.19-Jul-2021 4431.00 6446.10 70.37 18.00 375.74 2647.54
   08:35:49.170.19-Jul-2021 4431.00 6452.29 70.37 18.00 375.94 2647.54
   08:35:49.370.19-Jul-2021 4431.00 6450.96 70.37 18.00 376.14 2647.54
   08:35:49.570.19-Jul-2021 4431.00 6450.96 70.37 18.00 376.34 2647.54
   08:35:49.770.19-Jul-2021 4431.00 6449.36 70.37 18.00 376.54 2647.54
   08:35:49.970.19-Jul-2021 4431.00 6447.46 70.37 18.00 376.74 2647.54
   08:35:50.171.19-Jul-2021 4431.00 6448.37 70.37 18.00 376.94 2647.54
   08:35:50.371.19-Jul-2021 4431.00 6445.09 70.37 18.00 377.14 2647.54
   08:35:50.571.19-Jul-2021 4431.00 6445.09 70.37 18.00 377.34 2647.54
   08:35:50.771.19-Jul-2021 4431.00 6444.11 70.37 18.00 377.54 2647.54
   08:35:50.971.19-Jul-2021 4431.00 6443.27 70.37 18.00 377.74 2647.54
   08:35:51.171.19-Jul-2021 4431.00 6443.15 70.37 18.00 377.94 2647.54
   08:35:51.371.19-Jul-2021 4431.00 6443.59 70.37 18.00 378.14 2647.54
   08:35:51.571.19-Jul-2021 4431.00 6443.59 70.37 18.00 378.34 2647.54
   08:35:51.771.19-Jul-2021 4431.00 6443.18 70.37 18.00 378.54 2647.54
   08:35:51.971.19-Jul-2021 4431.00 6442.99 70.37 18.00 378.74 2647.54
   08:35:52.171.19-Jul-2021 4431.00 6443.55 70.37 18.00 378.94 2647.54
   08:35:52.371.19-Jul-2021 4431.00 6461.55 70.37 18.00 379.14 2647.54
   08:35:52.571.19-Jul-2021 4431.00 6461.55 70.37 18.00 379.34 2647.54
   08:35:52.772.19-Jul-2021 4431.00 6446.51 70.37 18.00 379.54 2647.54
   08:35:52.972.19-Jul-2021 4431.00 6445.73 70.37 18.00 379.74 2647.54
   08:35:53.172.19-Jul-2021 4431.00 6440.86 70.37 18.00 379.94 2647.54
   08:35:53.372.19-Jul-2021 4431.00 6441.59 70.37 18.00 380.14 2647.54
   08:35:53.572.19-Jul-2021 4431.00 6441.59 70.37 18.00 380.34 2647.54
   08:35:53.772.19-Jul-2021 4431.00 6439.72 70.37 18.00 380.54 2647.54
   08:35:53.972.19-Jul-2021 4431.00 6440.05 70.37 18.00 380.74 2647.54
   08:35:54.172.19-Jul-2021 4431.00 6439.94 70.37 18.00 380.94 2647.54
   08:35:54.372.19-Jul-2021 4431.00 6439.44 70.37 18.00 381.14 2647.54
   08:35:54.572.19-Jul-2021 4431.00 6439.44 70.37 18.00 381.34 2647.54
   08:35:54.772.19-Jul-2021 4431.00 6440.76 70.37 18.00 381.54 2647.54
   08:35:54.972.19-Jul-2021 4431.00 6463.60 70.37 18.00 381.74 2647.54
   08:35:55.172.19-Jul-2021 4431.00 6437.67 70.37 18.00 381.94 2647.54
   08:35:55.372.19-Jul-2021 4431.00 6447.10 70.37 18.00 382.14 2647.54
   08:35:55.573.19-Jul-2021 4431.00 6447.10 70.37 18.00 382.34 2647.54
   08:35:55.773.19-Jul-2021 4431.00 6441.58 70.37 18.00 382.54 2647.54
   08:35:55.973.19-Jul-2021 4431.00 6449.48 70.37 18.00 382.74 2647.54
   08:35:56.173.19-Jul-2021 4431.00 6449.27 70.37 18.00 382.94 2647.54
   08:35:56.373.19-Jul-2021 4431.00 6456.83 70.37 18.00 383.14 2647.54
   08:35:56.573.19-Jul-2021 4431.00 6456.83 70.37 18.00 383.34 2647.54
   08:35:56.773.19-Jul-2021 4431.00 6447.46 70.37 18.00 383.54 2647.54
   08:35:56.973.19-Jul-2021 4431.00 6461.51 70.37 18.00 383.74 2647.54
   08:35:57.173.19-Jul-2021 4431.00 6447.17 70.37 18.00 383.94 2647.54
   08:35:57.373.19-Jul-2021 4431.00 6443.95 70.37 18.00 384.14 2647.54
