~Version Information
 VERS.                  2.0:   CWLS log ASCII Standard -VERSION 2.0
 WRAP.                   NO:   One line per depth step
~Well Information Block
#MNEM.UNIT     VALUE/NAME     DESCRIPTION
#---------     -----------    ---------------------------
 STRT.S             12:46:21 18-Jul-21: START TIME 12:46:21 18-Jul-21
 STOP.S             12:52:54 18-Jul-21: STOP TIME  12:52:54 18-Jul-21
 STEP.S                   0.00: STEP TIME
 NULL.                 -999.25: NULL VALUE
 MDS .        Operator Entered:  MAG DATA SOURCE
 PDAT.          Mean Sea Level:  PERMANENT DATUM
 UNIT.                     N/A:  LOGGING EQUIPMENT ID
 DCON.         Sperry Drilling:  DIRECTNL CONTR
 DOE .                     N/A:  DOE NUMBER
 RIG .              West Azeri:  RIG NAME
 JOBN.        AZ-XX-0906997913:  JOB TICKET NUMB
 WELL.                     C41:  WELL NAME
 MWDS.                    Baku:  MWD SHOP
 SRVC.          Turan Drilling:  CONTRACTOR
 FLD .                     ACG:  FIELD NAME
 CTRY.              Azerbaijan:  COUNTRY NAME
 PROV.                    Baku:  PROVINCE
 STAT.                    Baku:  STATE NAME
 REGN.                   EESSA:  REGION
 BASE.              Azerbaijan:  LOGGING EQUIPMENT BASE LOCATION
 UWI .                     N/A:  UNIQUE WELL IDENTIFIER
 API .                     N/A:  API NUMBER
 COMP.     BP Exploration (Caspian Sea) Ltd.:  COMPANY
 WTYP.                Deviated:  WELL TYPE
 SON .        AZ-XX-0906997913:  JOB NUMBER
 FTOP.          Formation Tops:  FORM TOPS DESC
 ILTD.               Lithology:  INTERP LTH DESC
 SVYD.                  Survey:  SURVEY DESC
 DMOD.             Drill Model:  DRILL MOD DESC
 HPTY.       Minimum Curvature:  HOLE POS TYPE
 NREF.                    Grid:  NORTH REFERENCE
 SPUD.               16-May-21:  SPUD DATE
 DATE.      21.11.28 17-May-21:  END TIME
 STIM.      21.11.28 17-May-21:  START TIME
 DMF .             Drill Floor:  DRILL MEAS FROM
 DFST.                        :  DIST FSL TEXT
 DFWT.                        :  DIST FWL TEXT
 CNTY.                        :  COUNTY
 LOC .                        :  LOCATION
 LMF .             Drill Floor:  LOG MEASURED FROM
 AGAP.m                  43.42:  AIR GAP
 VSNS.m                  -2.16:  VERT SEC N/S
 VSEW.m                  -6.24:  VERT SEC E/W
 APD .m                  43.42:  DEPTH ABOVE PD
 WDMS.m                 118.27:  WD ELEV
 EGL .m                   0.00:  GROUND ELEVATION
 EPD .m                   0.00:  ELEVATION
 AZTC.deg                 6.29:  AZM TOTAL CORR
 GRDC.deg                 0.18:  GRID CORRECTION
 MDEC.deg                 6.47:  MAGNETIC DECL
 MDIP.deg                59.54:  MAGNETIC DIP
 MFLD.nT              50337.00:  MAGNETIC FIELD
 GVFD.g                   1.00:  GRAVITY FIELD
 VSDR.deg               226.99:  VERT SEC DIRECT
 TDD .m                   0.00:  TOTAL DEPTH (DRILLER)
 SDEP.m                 448.00:  START DEPTH
 DFSL.m                   0.00:  DISTANCE FSL
 DFWL.m                   0.00:  DISTANCE FWL
 UTMY.m             4435799.96:  UTM Y
 UTMX.m              526265.35:  UTM X
 WHEW.m                  -6.24:  WELL HEAD E/W
 WHNS.m                  -2.16:  WELL HEAD N/S
 LONG.deg                51.31:  LONGITUDE
 LATI.deg                40.06:  LATITUDE
 TVDS.m                  43.42:  TVDSS CORRECTN
 EKB .m                  43.42:  KB ELEVATION
 EDF .m                  43.42:  DF ELEVATION
 TDL .m                 288.00:  TOTAL DEPTH (LOGGER)
 MAGU.                 1851863:  MAGUTM CHECKSUM
 VSC .                       0:  VS TO CLOSURE
~Parameter Information Block
#MNEM.UNIT       Value        Description
#---------     -----------    ---------------------------
 AV  .mps                 0.40:  Ann Velocity 
 AVMX.mps                 0.63:  Max Ann Veloc 
 AZIF.deg               158.76:  Azm, Final 
 BHAT.        Rotary Steerable:  BHA Type 
 BROT.°/30m               0.68:  Build Rotating 
 BS  .in                  8.50:  Bit Size 
 BSZ .in                  8.50:  Bit Size 
 BTPL.psig              712.00:  Bit Press Loss 
 CABU.                      No:  Customer Abuse 
 COMM.                     üëZ:  Run Comments 1 
 TCS .hr                 90.66:  Time Ciculation Ended 
 CV  .mps                 2.02:  Crit Velocity 
 CVMX.mps                 2.14:  Max Crit Veloc 
 DD1 .            Aziz Aliyevu:  Direct Drillr 1 
 DD2 .             Samir Abbas:  Direct Drillr 2 
 DD3 .           Teymur Aliyev:  Direct Drillr 3 
 DDSV.                 iCruise:  DD Service 
 DEFF.%                  85.10:  % Det Eff 
 DLRX.°/30m               1.05:  Dogleg Rot Max 
 DLSO.°/30m               1.01:  Dogleg Oriented 
 DLSX.°/30m               1.05:  Dogleg Str Max 
 DRET.      07.45.00 18-Jul-21:  Drill End Time 
 DRST.      15.00.00 16-Jul-21:  Drill Start Tim 
 DTIM.hr                 23.46:  Time Drilling 
 EDEP.m                4603.00:  End Depth 
 ENG1.       Seymur Iskandarov:  Engineer 1 
 ENG2.         Yevgeniy Ulikov:  Engineer 2 
 ENG3.         Bahruz Mehdiyev:  Engineer 3 
 ENG4.         Elchin Mammadov:  Engineer 4 
 ETIM.      14.00.00 23-Jul-21:  End Time 
 FLOI.gpm               500.00:  Flow In 
 FLON.gpm               450.00:  Flow In Min 
 FLOS.cptm                0.00:  Fluid Loss 
 FLOX.gpm               560.00:  Flow In Max 
 DFT .        Mineral Oil Base:  Mud Type 
 FTRO.       Formation Presure:  FTWD Run Obj 
 HFLO.                      No:  High Flow 
 HPRE.                      No:  High Pressure 
 HTEM.                      No:  High Temp 
 HYDO.m                   1.80:  Hydro Offset 
 IFIN.deg                40.22:  Inc, Final 
 IMAX.deg                40.54:  Inc Max 
 IMIN.deg                39.44:  Inc Min 
 IMND.m                4361.17:  Inc Min Depth 
 IMXD.m                4417.92:  Inc Max Depth 
 JARR.                      No:  Jarring 
 LETM.      07.45.00 18-Jul-21:  Log End Time 
 LOST.hr                    16:  Lost Rig Time 
 LSTM.      15.00.00 16-Jul-21:  Log Start Time 
 MDCL.ppm             36500.00:  Mud Chlorides 
 MDES.     Inversion Oil/Synthetic:  Mud Desc 
 DFD .sg                  1.42:  Mud Density 
 MDMN.sg                  1.42:  Dens Mud Min 
 MDMX.sg                  1.43:  Dens Mud Max 
 MOIL.                      56:  Run Mud Oil % 
 MOWR.                   71:29:  Run Mud OWR 
 MSND.                     0.5:  Run Mud Sand % 
 MSOL.                      21:  Run Mud Solids% 
 DFV .spqt               78.00:  Mud Viscosity 
 MWOD.in                  6.75:  MWD Tool OD 
 MWSI.                     Yes:  Serv Intrp, MWD 
 OTIM.hr                200.73:  Time Operating 
 PCON.           Look Like New:  Pad Condition 
 PMAX.psia            11069.93:  Press Op, Max 
 PV  .cP                 32.00:  Mud PV 
 RUN .                     700:  Run Number 
 ROPA.m/hr               10.00:  ROP Avg 
 ROPN.m/hr                9.00:  ROP Min 
 ROPX.m/hr               16.00:  ROP Max 
 RPMA.rpm               116.00:  RPM Surface Avg 
 RPMN.rpm                80.00:  RPM Surface Min 
 RPMX.rpm               120.00:  RPM Surface Max 
 RRUN.                    L605:  Rig Run Number 
 RTIM.hr                 45.00:  Time Reaming 
 SAZI.deg               159.86:  Azm, Start 
 SDEP.m                4315.00:  Start Depth 
 SIDD.                      No:  Serv Intrp, DD 
 SINC.deg                39.86:  Inc, Start 
 SPPA.psig             3300.00:  SPP Avg 
 SPPN.psig             3040.00:  SPP Min 
 SPPX.psig             3645.00:  SPP Max 
 STIM.      01.00.00 15-Jul-21:  Start Time 
 SVCS.                 DD, MWD:  Services 
 SVER.                    9.20:  Sperry Version 
 TDAT.m                 288.00:  Tot Depth Attmp 
 TDDF.                      No:  Trip for DD 
 TDLG.m                 288.00:  Tot Depth Loggd 
 TFF .                      No:  Trip for Fail 
 TQAA.f-kp               19.00:  Torque Abs Avg 
 TQAN.f-kp               18.00:  Torque Abs Min 
 TQAX.f-kp               21.00:  Torque Abs Max 
 TRRT.°/30m               0.45:  Turn Rotating 
 MRT .                    HCIM:  Maximum Recorded Temperature 
 TTMX.degC               88.24:  Max Tool Temp 
 VS01.                90649157:  Virtual Str1 SN 
 VS02.                90652483:  Virtual Str2 SN 
 VS03.                11671987:  Virtual Str3 SN 
 VS04.                90643411:  Virtual Str4 SN 
 VS05.                90652478:  Virtual Str5 SN 
 VS06.                    6111:  Virtual Str6 SN 
 WBMN.klb                 9.50:  WOB Min 
 WITN.        Grigoriy Sarayev:  Customer Rep 
 WITN.          Rufat Huseynov:  Customer Rep 2 
 WOBA.klb                11.00:  WOB Avg 
 WOBX.klb                15.00:  WOB Max 
 YP  .lhf2               28.00:  Yield Point 
~Curve Information Block
#MNEM.UNIT                 API CODE     Curve Description
#---------               -----------    ---------------------------
 TIME.HHMMSS            00 000 000 000:  GT Time & Date
 GTDEPTH.m              00 000 000 000:  GT Depth
 GTPQH.psia             00 000 000 000:  GT HR Quartz Pressure
 GTTQ.degC              00 000 000 000:  GT Quartz Temperature
 GTTN.NONE              00 000 000 000:  GT Test Number
 GTET.sec               00 000 000 000:  GT Elapsed Test Time
 GTTVD.m                00 000 000 000:  GT True Vertical Depth
#Other Information
#
#WARRANTY: Halliburton will use its best efforts to furnish customers with 
#accurate information and interpretations that are part of, and incident to, the services 
#provided.  However, Halliburton cannot and does not warrant the accuracy 
#or correctness of such information and interpretations.  Under no circumstances should any 
#such information or interpretation be relied upon as the sole basis for any drilling, 
#completion, production, or financial decision or any procedure involving any risk to the 
#safety of any drilling venture, drilling rig or its crew or any other third party.  The 
#Customer has full responsibility for all drilling, completion and production operation.  
#Halliburton makes no representations or warranties, either expressed or 
#implied, including, but not limited to, the implied warranties of merchantability or fitness 
#for a particular purpose, with respect to the services rendered.  In no event will 
#Halliburton be liable for failure to obtain any particular results or for 
#any damages, including, but not limited to, indirect, special or consequential damages, 
#resulting from the use of any information or interpretation provided by Halliburton.
#
~A           TIME           GTDEPTH  GTPQH  GTTQ  GTTN  GTET   GTTVD  
# ...
   12:50:57.193.18-Jul-2021 4561.50 6658.07 76.46 1.00 276.10 2747.31
   12:50:57.393.18-Jul-2021 4561.50 6658.07 76.46 1.00 276.30 2747.31
   12:50:57.594.18-Jul-2021 4561.50 6658.31 76.46 1.00 276.50 2747.31
   12:50:57.794.18-Jul-2021 4561.50 6658.79 76.46 1.00 276.70 2747.31
   12:50:57.994.18-Jul-2021 4561.50 6658.34 76.46 1.00 276.90 2747.31
   12:50:58.194.18-Jul-2021 4561.50 6658.90 76.46 1.00 277.10 2747.31
   12:50:58.394.18-Jul-2021 4561.50 6658.90 76.46 1.00 277.30 2747.31
   12:50:58.594.18-Jul-2021 4561.50 6657.08 76.46 1.00 277.50 2747.31
   12:50:58.794.18-Jul-2021 4561.50 6661.65 76.46 1.00 277.70 2747.31
   12:50:58.994.18-Jul-2021 4561.50 6663.79 76.46 1.00 277.90 2747.31
   12:50:59.194.18-Jul-2021 4561.50 6656.91 76.46 1.00 278.10 2747.31
   12:50:59.394.18-Jul-2021 4561.50 6656.91 76.46 1.00 278.30 2747.31
   12:50:59.594.18-Jul-2021 4561.50 6665.89 76.46 1.00 278.50 2747.31
   12:50:59.794.18-Jul-2021 4561.50 6657.88 76.46 1.00 278.70 2747.31
   12:50:59.994.18-Jul-2021 4561.50 6666.41 76.46 1.00 278.90 2747.31
   12:51:00.195.18-Jul-2021 4561.50 6660.80 76.46 1.00 279.10 2747.31
   12:51:00.395.18-Jul-2021 4561.50 6660.80 76.46 1.00 279.30 2747.31
   12:51:00.595.18-Jul-2021 4561.50 6669.11 76.46 1.00 279.50 2747.31
   12:51:00.795.18-Jul-2021 4561.50 6658.43 76.46 1.00 279.70 2747.31
   12:51:00.995.18-Jul-2021 4561.50 6657.17 76.46 1.00 279.90 2747.31
   12:51:01.195.18-Jul-2021 4561.50 6660.87 76.46 1.00 280.10 2747.31
   12:51:01.395.18-Jul-2021 4561.50 6660.87 76.46 1.00 280.30 2747.31
   12:51:01.595.18-Jul-2021 4561.50 6657.74 76.46 1.00 280.50 2747.31
   12:51:01.795.18-Jul-2021 4561.50 6659.01 76.46 1.00 280.70 2747.31
   12:51:01.995.18-Jul-2021 4561.50 6659.08 76.46 1.00 280.90 2747.31
   12:51:02.195.18-Jul-2021 4561.50 6659.48 76.46 1.00 281.10 2747.31
   12:51:02.395.18-Jul-2021 4561.50 6659.48 76.46 1.00 281.30 2747.31
   12:51:02.595.18-Jul-2021 4561.50 6657.57 76.46 1.00 281.50 2747.31
   12:51:02.795.18-Jul-2021 4561.50 6656.68 76.46 1.00 281.70 2747.31
   12:51:02.996.18-Jul-2021 4561.50 6657.33 76.46 1.00 281.90 2747.31
   12:51:03.196.18-Jul-2021 4561.50 6657.41 76.46 1.00 282.10 2747.31
   12:51:03.396.18-Jul-2021 4561.50 6657.41 76.46 1.00 282.30 2747.31
   12:51:03.596.18-Jul-2021 4561.50 6656.93 76.46 1.00 282.50 2747.31
   12:51:03.796.18-Jul-2021 4561.50 6657.21 76.46 1.00 282.70 2747.31
   12:51:03.996.18-Jul-2021 4561.50 6658.10 76.46 1.00 282.90 2747.31
   12:51:04.196.18-Jul-2021 4561.50 6657.32 76.46 1.00 283.10 2747.31
   12:51:04.396.18-Jul-2021 4561.50 6657.32 76.46 1.00 283.30 2747.31
   12:51:04.596.18-Jul-2021 4561.50 6664.70 76.46 1.00 283.50 2747.31
   12:51:04.796.18-Jul-2021 4561.50 6659.09 76.46 1.00 283.70 2747.31
   12:51:04.996.18-Jul-2021 4561.50 6659.66 76.46 1.00 283.90 2747.31
   12:51:05.196.18-Jul-2021 4561.50 6659.38 76.46 1.00 284.10 2747.31
   12:51:05.396.18-Jul-2021 4561.50 6659.38 76.46 1.00 284.30 2747.31
   12:51:05.597.18-Jul-2021 4561.50 6657.15 76.46 1.00 284.50 2747.31
   12:51:05.797.18-Jul-2021 4561.50 6657.45 76.46 1.00 284.70 2747.31
   12:51:05.997.18-Jul-2021 4561.50 6658.31 76.46 1.00 284.90 2747.31
   12:51:06.197.18-Jul-2021 4561.50 6657.08 76.46 1.00 285.10 2747.31
   12:51:06.397.18-Jul-2021 4561.50 6657.08 76.46 1.00 285.31 2747.31
   12:51:06.597.18-Jul-2021 4561.50 6656.57 76.46 1.00 285.51 2747.31
   12:51:06.797.18-Jul-2021 4561.50 6656.65 76.46 1.00 285.71 2747.31
   12:51:06.997.18-Jul-2021 4561.50 6663.44 76.46 1.00 285.91 2747.31
   12:51:07.197.18-Jul-2021 4561.50 6660.32 76.46 1.00 286.11 2747.31
   12:51:07.397.18-Jul-2021 4561.50 6660.32 76.46 1.00 286.31 2747.31
   12:51:07.597.18-Jul-2021 4561.50 6665.60 76.46 1.00 286.51 2747.31
   12:51:07.797.18-Jul-2021 4561.50 6659.44 76.46 1.00 286.71 2747.31
   12:51:07.997.18-Jul-2021 4561.50 6658.60 76.46 1.00 286.91 2747.31
   12:51:08.197.18-Jul-2021 4561.50 6669.14 76.46 1.00 287.11 2747.31
   12:51:08.398.18-Jul-2021 4561.50 6669.14 76.46 1.00 287.31 2747.31
   12:51:08.598.18-Jul-2021 4561.50 6661.85 76.46 1.00 287.51 2747.31
   12:51:08.798.18-Jul-2021 4561.50 6664.98 76.46 1.00 287.71 2747.31
   12:51:08.998.18-Jul-2021 4561.50 6657.05 76.46 1.00 287.91 2747.31
   12:51:09.198.18-Jul-2021 4561.50 6658.59 76.46 1.00 288.11 2747.31
   12:51:09.398.18-Jul-2021 4561.50 6658.59 76.46 1.00 288.31 2747.31
   12:51:09.598.18-Jul-2021 4561.50 6657.01 76.46 1.00 288.51 2747.31
   12:51:09.798.18-Jul-2021 4561.50 6662.12 76.46 1.00 288.71 2747.31
   12:51:09.998.18-Jul-2021 4561.50 6657.90 76.46 1.00 288.91 2747.31
   12:51:10.198.18-Jul-2021 4561.50 6657.10 76.46 1.00 289.11 2747.31
   12:51:10.398.18-Jul-2021 4561.50 6657.10 76.46 1.00 289.31 2747.31
   12:51:10.598.18-Jul-2021 4561.50 6656.59 76.46 1.00 289.51 2747.31
   12:51:10.798.18-Jul-2021 4561.50 6656.55 76.46 1.00 289.71 2747.31
   12:51:10.999.18-Jul-2021 4561.50 6656.75 76.46 1.00 289.91 2747.31
   12:51:11.199.18-Jul-2021 4561.50 6656.74 76.46 1.00 290.11 2747.31
   12:51:11.399.18-Jul-2021 4561.50 6656.74 76.46 1.00 290.31 2747.31
   12:51:11.599.18-Jul-2021 4561.50 6657.03 76.46 1.00 290.51 2747.31
   12:51:11.799.18-Jul-2021 4561.50 6657.06 76.46 1.00 290.71 2747.31
   12:51:11.999.18-Jul-2021 4561.50 6656.91 76.46 1.00 290.91 2747.31
   12:51:12.199.18-Jul-2021 4561.50 6656.44 76.46 1.00 291.11 2747.31
   12:51:12.399.18-Jul-2021 4561.50 6656.44 76.46 1.00 291.31 2747.31
   12:51:12.599.18-Jul-2021 4561.50 6666.62 76.46 1.00 291.51 2747.31
   12:51:12.799.18-Jul-2021 4561.50 6658.03 76.46 1.00 291.71 2747.31
   12:51:12.999.18-Jul-2021 4561.50 6657.62 76.46 1.00 291.91 2747.31
   12:51:13.199.18-Jul-2021 4561.50 6659.46 76.46 1.00 292.11 2747.31
   12:51:13.399.18-Jul-2021 4561.50 6659.46 76.46 1.00 292.31 2747.31
   12:51:13.599.18-Jul-2021 4561.50 6656.24 76.46 1.00 292.51 2747.31
   12:51:13.800.18-Jul-2021 4561.50 6655.60 76.46 1.00 292.71 2747.31
   12:51:14.000.18-Jul-2021 4561.50 6657.47 76.46 1.00 292.91 2747.31
   12:51:14.200.18-Jul-2021 4561.50 6656.33 76.46 1.00 293.11 2747.31
   12:51:14.400.18-Jul-2021 4561.50 6656.33 76.46 1.00 293.31 2747.31
   12:51:14.600.18-Jul-2021 4561.50 6656.56 76.46 1.00 293.51 2747.31
   12:51:14.800.18-Jul-2021 4561.50 6656.62 76.46 1.00 293.71 2747.31
   12:51:15.000.18-Jul-2021 4561.50 6655.81 76.46 1.00 293.91 2747.31
   12:51:15.200.18-Jul-2021 4561.50 6664.95 76.46 1.00 294.11 2747.31
   12:51:15.400.18-Jul-2021 4561.50 6664.95 76.46 1.00 294.31 2747.31
   12:51:15.600.18-Jul-2021 4561.50 6660.02 76.46 1.00 294.51 2747.31
   12:51:15.800.18-Jul-2021 4561.50 6665.65 76.46 1.00 294.71 2747.31
   12:51:16.000.18-Jul-2021 4561.50 6656.95 76.46 1.00 294.91 2747.31
   12:51:16.200.18-Jul-2021 4561.50 6661.43 76.46 1.00 295.11 2747.31
   12:51:16.400.18-Jul-2021 4561.50 6661.43 76.46 1.00 295.31 2747.31
   12:51:16.601.18-Jul-2021 4561.50 6656.84 76.46 1.00 295.51 2747.31
   12:51:16.801.18-Jul-2021 4561.50 6662.91 76.45 1.00 295.71 2747.31
   12:51:17.001.18-Jul-2021 4561.50 6662.76 76.46 1.00 295.91 2747.31
   12:51:17.201.18-Jul-2021 4561.50 6657.19 76.45 1.00 296.11 2747.31
   12:51:17.401.18-Jul-2021 4561.50 6657.19 76.45 1.00 296.31 2747.31
   12:51:17.601.18-Jul-2021 4561.50 6657.48 76.45 1.00 296.51 2747.31
   12:51:17.801.18-Jul-2021 4561.50 6655.82 76.45 1.00 296.71 2747.31
   12:51:18.001.18-Jul-2021 4561.50 6658.45 76.45 1.00 296.91 2747.31
   12:51:18.201.18-Jul-2021 4561.50 6657.27 76.45 1.00 297.11 2747.31
   12:51:18.401.18-Jul-2021 4561.50 6657.27 76.45 1.00 297.31 2747.31
   12:51:18.601.18-Jul-2021 4561.50 6655.00 76.45 1.00 297.51 2747.31
   12:51:18.801.18-Jul-2021 4561.50 6656.04 76.45 1.00 297.71 2747.31
   12:51:19.001.18-Jul-2021 4561.50 6656.35 76.45 1.00 297.91 2747.31
   12:51:19.202.18-Jul-2021 4561.50 6656.00 76.45 1.00 298.11 2747.31
   12:51:19.402.18-Jul-2021 4561.50 6656.00 76.45 1.00 298.31 2747.31
   12:51:19.602.18-Jul-2021 4561.50 6655.74 76.45 1.00 298.51 2747.31
   12:51:19.802.18-Jul-2021 4561.50 6655.48 76.45 1.00 298.71 2747.31
   12:51:20.002.18-Jul-2021 4561.50 6657.31 76.45 1.00 298.91 2747.31
