~Version Information
 VERS.                  2.0:   CWLS log ASCII Standard -VERSION 2.0
 WRAP.                   NO:   One line per depth step
~Well Information Block
#MNEM.UNIT     VALUE/NAME     DESCRIPTION
#---------     -----------    ---------------------------
 STRT.S             23:29:17 18-Jul-21: START TIME 23:29:17 18-Jul-21
 STOP.S             23:35:51 18-Jul-21: STOP TIME  23:35:51 18-Jul-21
 STEP.S                   0.00: STEP TIME
 NULL.                 -999.25: NULL VALUE
 MDS .        Operator Entered:  MAG DATA SOURCE
 PDAT.          Mean Sea Level:  PERMANENT DATUM
 UNIT.                     N/A:  LOGGING EQUIPMENT ID
 DCON.         Sperry Drilling:  DIRECTNL CONTR
 DOE .                     N/A:  DOE NUMBER
 RIG .              West Azeri:  RIG NAME
 JOBN.        AZ-XX-0906997913:  JOB TICKET NUMB
 WELL.                     C41:  WELL NAME
 MWDS.                    Baku:  MWD SHOP
 SRVC.          Turan Drilling:  CONTRACTOR
 FLD .                     ACG:  FIELD NAME
 CTRY.              Azerbaijan:  COUNTRY NAME
 PROV.                    Baku:  PROVINCE
 STAT.                    Baku:  STATE NAME
 REGN.                   EESSA:  REGION
 BASE.              Azerbaijan:  LOGGING EQUIPMENT BASE LOCATION
 UWI .                     N/A:  UNIQUE WELL IDENTIFIER
 API .                     N/A:  API NUMBER
 COMP.     BP Exploration (Caspian Sea) Ltd.:  COMPANY
 WTYP.                Deviated:  WELL TYPE
 SON .        AZ-XX-0906997913:  JOB NUMBER
 FTOP.          Formation Tops:  FORM TOPS DESC
 ILTD.               Lithology:  INTERP LTH DESC
 SVYD.                  Survey:  SURVEY DESC
 DMOD.             Drill Model:  DRILL MOD DESC
 HPTY.       Minimum Curvature:  HOLE POS TYPE
 NREF.                    Grid:  NORTH REFERENCE
 SPUD.               16-May-21:  SPUD DATE
 DATE.      21.11.28 17-May-21:  END TIME
 STIM.      21.11.28 17-May-21:  START TIME
 DMF .             Drill Floor:  DRILL MEAS FROM
 DFST.                        :  DIST FSL TEXT
 DFWT.                        :  DIST FWL TEXT
 CNTY.                        :  COUNTY
 LOC .                        :  LOCATION
 LMF .             Drill Floor:  LOG MEASURED FROM
 AGAP.m                  43.42:  AIR GAP
 VSNS.m                  -2.16:  VERT SEC N/S
 VSEW.m                  -6.24:  VERT SEC E/W
 APD .m                  43.42:  DEPTH ABOVE PD
 WDMS.m                 118.27:  WD ELEV
 EGL .m                   0.00:  GROUND ELEVATION
 EPD .m                   0.00:  ELEVATION
 AZTC.deg                 6.29:  AZM TOTAL CORR
 GRDC.deg                 0.18:  GRID CORRECTION
 MDEC.deg                 6.47:  MAGNETIC DECL
 MDIP.deg                59.54:  MAGNETIC DIP
 MFLD.nT              50337.00:  MAGNETIC FIELD
 GVFD.g                   1.00:  GRAVITY FIELD
 VSDR.deg               226.99:  VERT SEC DIRECT
 TDD .m                   0.00:  TOTAL DEPTH (DRILLER)
 SDEP.m                 448.00:  START DEPTH
 DFSL.m                   0.00:  DISTANCE FSL
 DFWL.m                   0.00:  DISTANCE FWL
 UTMY.m             4435799.96:  UTM Y
 UTMX.m              526265.35:  UTM X
 WHEW.m                  -6.24:  WELL HEAD E/W
 WHNS.m                  -2.16:  WELL HEAD N/S
 LONG.deg                51.31:  LONGITUDE
 LATI.deg                40.06:  LATITUDE
 TVDS.m                  43.42:  TVDSS CORRECTN
 EKB .m                  43.42:  KB ELEVATION
 EDF .m                  43.42:  DF ELEVATION
 TDL .m                 288.00:  TOTAL DEPTH (LOGGER)
 MAGU.                 1851863:  MAGUTM CHECKSUM
 VSC .                       0:  VS TO CLOSURE
~Parameter Information Block
#MNEM.UNIT       Value        Description
#---------     -----------    ---------------------------
 AV  .mps                 0.40:  Ann Velocity 
 AVMX.mps                 0.63:  Max Ann Veloc 
 AZIF.deg               158.76:  Azm, Final 
 BHAT.        Rotary Steerable:  BHA Type 
 BROT.°/30m               0.68:  Build Rotating 
 BS  .in                  8.50:  Bit Size 
 BSZ .in                  8.50:  Bit Size 
 BTPL.psig              712.00:  Bit Press Loss 
 CABU.                      No:  Customer Abuse 
 COMM.                     $¸T:  Run Comments 1 
 TCS .hr                 90.66:  Time Ciculation Ended 
 CV  .mps                 2.02:  Crit Velocity 
 CVMX.mps                 2.14:  Max Crit Veloc 
 DD1 .            Aziz Aliyevu:  Direct Drillr 1 
 DD2 .             Samir Abbas:  Direct Drillr 2 
 DD3 .           Teymur Aliyev:  Direct Drillr 3 
 DDSV.                 iCruise:  DD Service 
 DEFF.%                  85.10:  % Det Eff 
 DLRX.°/30m               1.05:  Dogleg Rot Max 
 DLSO.°/30m               1.01:  Dogleg Oriented 
 DLSX.°/30m               1.05:  Dogleg Str Max 
 DRET.      07.45.00 18-Jul-21:  Drill End Time 
 DRST.      15.00.00 16-Jul-21:  Drill Start Tim 
 DTIM.hr                 23.46:  Time Drilling 
 EDEP.m                4603.00:  End Depth 
 ENG1.       Seymur Iskandarov:  Engineer 1 
 ENG2.         Yevgeniy Ulikov:  Engineer 2 
 ENG3.         Bahruz Mehdiyev:  Engineer 3 
 ENG4.         Elchin Mammadov:  Engineer 4 
 ETIM.      14.00.00 23-Jul-21:  End Time 
 FLOI.gpm               500.00:  Flow In 
 FLON.gpm               450.00:  Flow In Min 
 FLOS.cptm                0.00:  Fluid Loss 
 FLOX.gpm               560.00:  Flow In Max 
 DFT .        Mineral Oil Base:  Mud Type 
 FTRO.       Formation Presure:  FTWD Run Obj 
 HFLO.                      No:  High Flow 
 HPRE.                      No:  High Pressure 
 HTEM.                      No:  High Temp 
 HYDO.m                   1.80:  Hydro Offset 
 IFIN.deg                40.22:  Inc, Final 
 IMAX.deg                40.54:  Inc Max 
 IMIN.deg                39.44:  Inc Min 
 IMND.m                4361.17:  Inc Min Depth 
 IMXD.m                4417.92:  Inc Max Depth 
 JARR.                      No:  Jarring 
 LETM.      07.45.00 18-Jul-21:  Log End Time 
 LOST.hr                    16:  Lost Rig Time 
 LSTM.      15.00.00 16-Jul-21:  Log Start Time 
 MDCL.ppm             36500.00:  Mud Chlorides 
 MDES.     Inversion Oil/Synthetic:  Mud Desc 
 DFD .sg                  1.42:  Mud Density 
 MDMN.sg                  1.42:  Dens Mud Min 
 MDMX.sg                  1.43:  Dens Mud Max 
 MOIL.                      56:  Run Mud Oil % 
 MOWR.                   71:29:  Run Mud OWR 
 MSND.                     0.5:  Run Mud Sand % 
 MSOL.                      21:  Run Mud Solids% 
 DFV .spqt               78.00:  Mud Viscosity 
 MWOD.in                  6.75:  MWD Tool OD 
 MWSI.                     Yes:  Serv Intrp, MWD 
 OTIM.hr                200.73:  Time Operating 
 PCON.           Look Like New:  Pad Condition 
 PMAX.psia            11069.93:  Press Op, Max 
 PV  .cP                 32.00:  Mud PV 
 RUN .                     700:  Run Number 
 ROPA.m/hr               10.00:  ROP Avg 
 ROPN.m/hr                9.00:  ROP Min 
 ROPX.m/hr               16.00:  ROP Max 
 RPMA.rpm               116.00:  RPM Surface Avg 
 RPMN.rpm                80.00:  RPM Surface Min 
 RPMX.rpm               120.00:  RPM Surface Max 
 RRUN.                    L605:  Rig Run Number 
 RTIM.hr                 45.00:  Time Reaming 
 SAZI.deg               159.86:  Azm, Start 
 SDEP.m                4315.00:  Start Depth 
 SIDD.                      No:  Serv Intrp, DD 
 SINC.deg                39.86:  Inc, Start 
 SPPA.psig             3300.00:  SPP Avg 
 SPPN.psig             3040.00:  SPP Min 
 SPPX.psig             3645.00:  SPP Max 
 STIM.      01.00.00 15-Jul-21:  Start Time 
 SVCS.                 DD, MWD:  Services 
 SVER.                    9.20:  Sperry Version 
 TDAT.m                 288.00:  Tot Depth Attmp 
 TDDF.                      No:  Trip for DD 
 TDLG.m                 288.00:  Tot Depth Loggd 
 TFF .                      No:  Trip for Fail 
 TQAA.f-kp               19.00:  Torque Abs Avg 
 TQAN.f-kp               18.00:  Torque Abs Min 
 TQAX.f-kp               21.00:  Torque Abs Max 
 TRRT.°/30m               0.45:  Turn Rotating 
 MRT .                    HCIM:  Maximum Recorded Temperature 
 TTMX.degC               88.24:  Max Tool Temp 
 VS01.                90649157:  Virtual Str1 SN 
 VS02.                90652483:  Virtual Str2 SN 
 VS03.                11671987:  Virtual Str3 SN 
 VS04.                90643411:  Virtual Str4 SN 
 VS05.                90652478:  Virtual Str5 SN 
 VS06.                    6111:  Virtual Str6 SN 
 WBMN.klb                 9.50:  WOB Min 
 WITN.        Grigoriy Sarayev:  Customer Rep 
 WITN.          Rufat Huseynov:  Customer Rep 2 
 WOBA.klb                11.00:  WOB Avg 
 WOBX.klb                15.00:  WOB Max 
 YP  .lhf2               28.00:  Yield Point 
~Curve Information Block
#MNEM.UNIT                 API CODE     Curve Description
#---------               -----------    ---------------------------
 TIME.HHMMSS            00 000 000 000:  GT Time & Date
 GTDEPTH.m              00 000 000 000:  GT Depth
 GTPQH.psia             00 000 000 000:  GT HR Quartz Pressure
 GTTQ.degC              00 000 000 000:  GT Quartz Temperature
 GTTN.NONE              00 000 000 000:  GT Test Number
 GTET.sec               00 000 000 000:  GT Elapsed Test Time
 GTTVD.m                00 000 000 000:  GT True Vertical Depth
#Other Information
#
#WARRANTY: Halliburton will use its best efforts to furnish customers with 
#accurate information and interpretations that are part of, and incident to, the services 
#provided.  However, Halliburton cannot and does not warrant the accuracy 
#or correctness of such information and interpretations.  Under no circumstances should any 
#such information or interpretation be relied upon as the sole basis for any drilling, 
#completion, production, or financial decision or any procedure involving any risk to the 
#safety of any drilling venture, drilling rig or its crew or any other third party.  The 
#Customer has full responsibility for all drilling, completion and production operation.  
#Halliburton makes no representations or warranties, either expressed or 
#implied, including, but not limited to, the implied warranties of merchantability or fitness 
#for a particular purpose, with respect to the services rendered.  In no event will 
#Halliburton be liable for failure to obtain any particular results or for 
#any damages, including, but not limited to, indirect, special or consequential damages, 
#resulting from the use of any information or interpretation provided by Halliburton.
#
~A           TIME           GTDEPTH  GTPQH  GTTQ  GTTN  GTET   GTTVD  
# ...
   23:35:02.423.18-Jul-2021 4245.71  504.83 69.45 9.00 345.13 2505.62
   23:35:02.623.18-Jul-2021 4245.71  504.83 69.45 9.00 345.33 2505.62
   23:35:02.823.18-Jul-2021 4245.71  504.91 69.45 9.00 345.53 2505.62
   23:35:03.023.18-Jul-2021 4245.71  505.27 69.45 9.00 345.73 2505.62
   23:35:03.223.18-Jul-2021 4245.71  505.69 69.45 9.00 345.93 2505.62
   23:35:03.423.18-Jul-2021 4245.71  505.86 69.46 9.00 346.13 2505.62
   23:35:03.623.18-Jul-2021 4245.71  505.86 69.46 9.00 346.33 2505.62
   23:35:03.823.18-Jul-2021 4245.71  505.22 69.46 9.00 346.53 2505.62
   23:35:04.024.18-Jul-2021 4245.71  505.74 69.46 9.00 346.73 2505.62
   23:35:04.224.18-Jul-2021 4245.71  506.22 69.46 9.00 346.93 2505.62
   23:35:04.424.18-Jul-2021 4245.71  506.32 69.46 9.00 347.13 2505.62
   23:35:04.624.18-Jul-2021 4245.71  506.32 69.46 9.00 347.33 2505.62
   23:35:04.824.18-Jul-2021 4245.71  505.94 69.46 9.00 347.53 2505.62
   23:35:05.024.18-Jul-2021 4245.71  505.79 69.46 9.00 347.73 2505.62
   23:35:05.224.18-Jul-2021 4245.71  506.61 69.46 9.00 347.93 2505.62
   23:35:05.424.18-Jul-2021 4245.71  506.85 69.46 9.00 348.13 2505.62
   23:35:05.624.18-Jul-2021 4245.71  506.85 69.46 9.00 348.33 2505.62
   23:35:05.824.18-Jul-2021 4245.71  506.27 69.46 9.00 348.53 2505.62
   23:35:06.024.18-Jul-2021 4245.71  506.89 69.46 9.00 348.73 2505.62
   23:35:06.224.18-Jul-2021 4245.71  507.03 69.46 9.00 348.93 2505.62
   23:35:06.424.18-Jul-2021 4245.71  507.35 69.46 9.00 349.13 2505.62
   23:35:06.625.18-Jul-2021 4245.71  507.35 69.46 9.00 349.33 2505.62
   23:35:06.825.18-Jul-2021 4245.71  507.36 69.46 9.00 349.53 2505.62
   23:35:07.025.18-Jul-2021 4245.71  507.33 69.46 9.00 349.73 2505.62
   23:35:07.225.18-Jul-2021 4245.71  507.45 69.46 9.00 349.93 2505.62
   23:35:07.425.18-Jul-2021 4245.71  507.58 69.46 9.00 350.13 2505.62
   23:35:07.625.18-Jul-2021 4245.71  507.58 69.46 9.00 350.33 2505.62
   23:35:07.825.18-Jul-2021 4245.71  507.58 69.46 9.00 350.53 2505.62
   23:35:08.025.18-Jul-2021 4245.71  507.61 69.46 9.00 350.73 2505.62
   23:35:08.225.18-Jul-2021 4245.71  507.92 69.46 9.00 350.93 2505.62
   23:35:08.425.18-Jul-2021 4245.71  506.78 69.46 9.00 351.13 2505.62
   23:35:08.625.18-Jul-2021 4245.71  506.78 69.46 9.00 351.33 2505.62
   23:35:08.825.18-Jul-2021 4245.71  507.91 69.46 9.00 351.53 2505.62
   23:35:09.025.18-Jul-2021 4245.71  508.31 69.46 9.00 351.73 2505.62
   23:35:09.225.18-Jul-2021 4245.71  508.30 69.46 9.00 351.93 2505.62
   23:35:09.426.18-Jul-2021 4245.71  508.30 69.46 9.00 352.13 2505.62
   23:35:09.626.18-Jul-2021 4245.71  508.30 69.46 9.00 352.33 2505.62
   23:35:09.826.18-Jul-2021 4245.71  508.44 69.46 9.00 352.53 2505.62
   23:35:10.026.18-Jul-2021 4245.71  508.47 69.46 9.00 352.73 2505.62
   23:35:10.226.18-Jul-2021 4245.71  508.48 69.46 9.00 352.93 2505.62
   23:35:10.426.18-Jul-2021 4245.71  508.64 69.46 9.00 353.13 2505.62
   23:35:10.626.18-Jul-2021 4245.71  508.64 69.46 9.00 353.33 2505.62
   23:35:10.826.18-Jul-2021 4245.71  507.91 69.46 9.00 353.53 2505.62
   23:35:11.026.18-Jul-2021 4245.71  508.02 69.46 9.00 353.73 2505.62
   23:35:11.226.18-Jul-2021 4245.71  508.66 69.46 9.00 353.93 2505.62
   23:35:11.426.18-Jul-2021 4245.71  508.16 69.46 9.00 354.13 2505.62
   23:35:11.626.18-Jul-2021 4245.71  508.16 69.46 9.00 354.33 2505.62
   23:35:11.826.18-Jul-2021 4245.71  508.90 69.46 9.00 354.53 2505.62
   23:35:12.027.18-Jul-2021 4245.71  509.05 69.46 9.00 354.73 2505.62
   23:35:12.227.18-Jul-2021 4245.71  509.28 69.46 9.00 354.93 2505.62
   23:35:12.427.18-Jul-2021 4245.71  508.62 69.46 9.00 355.13 2505.62
   23:35:12.627.18-Jul-2021 4245.71  508.62 69.46 9.00 355.33 2505.62
   23:35:12.827.18-Jul-2021 4245.71  509.20 69.46 9.00 355.53 2505.62
   23:35:13.027.18-Jul-2021 4245.71  509.36 69.46 9.00 355.73 2505.62
   23:35:13.227.18-Jul-2021 4245.71  509.57 69.46 9.00 355.93 2505.62
   23:35:13.427.18-Jul-2021 4245.71  509.03 69.46 9.00 356.13 2505.62
   23:35:13.627.18-Jul-2021 4245.71  509.03 69.46 9.00 356.33 2505.62
   23:35:13.827.18-Jul-2021 4245.71  509.13 69.46 9.00 356.53 2505.62
   23:35:14.027.18-Jul-2021 4245.71  509.61 69.46 9.00 356.73 2505.62
   23:35:14.227.18-Jul-2021 4245.71  509.77 69.46 9.00 356.93 2505.62
   23:35:14.427.18-Jul-2021 4245.71  509.19 69.46 9.00 357.13 2505.62
   23:35:14.627.18-Jul-2021 4245.71  509.19 69.46 9.00 357.33 2505.62
   23:35:14.828.18-Jul-2021 4245.71  510.24 69.46 9.00 357.53 2505.62
   23:35:15.028.18-Jul-2021 4245.71  510.12 69.46 9.00 357.73 2505.62
   23:35:15.228.18-Jul-2021 4245.71  510.33 69.46 9.00 357.93 2505.62
   23:35:15.428.18-Jul-2021 4245.71  510.28 69.46 9.00 358.13 2505.62
   23:35:15.628.18-Jul-2021 4245.71  510.28 69.46 9.00 358.33 2505.62
   23:35:15.828.18-Jul-2021 4245.71  510.47 69.46 9.00 358.53 2505.62
   23:35:16.028.18-Jul-2021 4245.71  519.23 69.46 9.00 358.73 2505.62
   23:35:16.228.18-Jul-2021 4245.71  540.92 69.46 9.00 358.93 2505.62
   23:35:16.428.18-Jul-2021 4245.71  593.63 69.46 9.00 359.13 2505.62
   23:35:16.628.18-Jul-2021 4245.71  593.63 69.46 9.00 359.33 2505.62
   23:35:16.828.18-Jul-2021 4245.71 4575.50 69.46 9.00 359.53 2505.62
   23:35:17.028.18-Jul-2021 4245.71 6241.22 69.47 9.00 359.73 2505.62
   23:35:17.228.18-Jul-2021 4245.71 6266.95 69.47 9.00 359.93 2505.62
   23:35:17.429.18-Jul-2021 4245.71 6231.28 69.47 9.00 360.13 2505.62
   23:35:17.629.18-Jul-2021 4245.71 6231.28 69.47 9.00 360.33 2505.62
   23:35:17.829.18-Jul-2021 4245.71 6241.91 69.47 9.00 360.53 2505.62
   23:35:18.029.18-Jul-2021 4245.71 6250.91 69.47 9.00 360.73 2505.62
   23:35:18.229.18-Jul-2021 4245.71 6246.75 69.48 9.00 360.93 2505.62
   23:35:18.429.18-Jul-2021 4245.71 6246.27 69.48 9.00 361.13 2505.62
   23:35:18.629.18-Jul-2021 4245.71 6246.27 69.48 9.00 361.33 2505.62
   23:35:18.829.18-Jul-2021 4245.71 6246.90 69.49 9.00 361.53 2505.62
   23:35:19.029.18-Jul-2021 4245.71 6248.55 69.49 9.00 361.73 2505.62
   23:35:19.229.18-Jul-2021 4245.71 6249.00 69.49 9.00 361.93 2505.62
   23:35:19.429.18-Jul-2021 4245.71 6246.55 69.50 9.00 362.13 2505.62
   23:35:19.629.18-Jul-2021 4245.71 6246.55 69.50 9.00 362.33 2505.62
   23:35:19.829.18-Jul-2021 4245.71 6262.63 69.50 9.00 362.53 2505.62
   23:35:20.029.18-Jul-2021 4245.71 6250.43 69.51 9.00 362.73 2505.62
   23:35:20.230.18-Jul-2021 4245.71 6274.03 69.51 9.00 362.93 2505.62
   23:35:20.430.18-Jul-2021 4245.71 6255.78 69.51 9.00 363.13 2505.62
   23:35:20.630.18-Jul-2021 4245.71 6255.78 69.51 9.00 363.33 2505.62
   23:35:20.830.18-Jul-2021 4245.71 6253.76 69.52 9.00 363.53 2505.62
   23:35:21.030.18-Jul-2021 4245.71 6265.19 69.53 9.00 363.73 2505.62
   23:35:21.230.18-Jul-2021 4245.71 6256.36 69.53 9.00 363.93 2505.62
   23:35:21.430.18-Jul-2021 4245.71 6271.64 69.53 9.00 364.13 2505.62
   23:35:21.630.18-Jul-2021 4245.71 6271.64 69.53 9.00 364.33 2505.62
   23:35:21.830.18-Jul-2021 4245.71 6254.65 69.54 9.00 364.53 2505.62
   23:35:22.030.18-Jul-2021 4245.71 6260.28 69.54 9.00 364.73 2505.62
   23:35:22.230.18-Jul-2021 4245.71 6260.87 69.55 9.00 364.93 2505.62
   23:35:22.430.18-Jul-2021 4245.71 6283.40 69.55 9.00 365.13 2505.62
   23:35:22.630.18-Jul-2021 4245.71 6283.40 69.55 9.00 365.33 2505.62
   23:35:22.830.18-Jul-2021 4245.71 6257.70 69.56 9.00 365.53 2505.62
   23:35:23.031.18-Jul-2021 4245.71 6255.92 69.56 9.00 365.73 2505.62
   23:35:23.231.18-Jul-2021 4245.71 6264.00 69.56 9.00 365.93 2505.62
   23:35:23.431.18-Jul-2021 4245.71 6279.34 69.57 9.00 366.13 2505.62
   23:35:23.631.18-Jul-2021 4245.71 6279.34 69.57 9.00 366.33 2505.62
   23:35:23.831.18-Jul-2021 4245.71 6260.01 69.57 9.00 366.53 2505.62
   23:35:24.031.18-Jul-2021 4245.71 6257.41 69.57 9.00 366.74 2505.62
   23:35:24.231.18-Jul-2021 4245.71 6263.63 69.58 9.00 366.94 2505.62
   23:35:24.431.18-Jul-2021 4245.71 6260.08 69.58 9.00 367.14 2505.62
   23:35:24.631.18-Jul-2021 4245.71 6260.08 69.58 9.00 367.34 2505.62
   23:35:24.831.18-Jul-2021 4245.71 6261.68 69.58 9.00 367.54 2505.62
   23:35:25.031.18-Jul-2021 4245.71 6258.29 69.58 9.00 367.74 2505.62
   23:35:25.231.18-Jul-2021 4245.71 6256.17 69.59 9.00 367.94 2505.62
