~Version Information
 VERS.                  2.0:   CWLS log ASCII Standard -VERSION 2.0
 WRAP.                   NO:   One line per depth step
~Well Information Block
#MNEM.UNIT     VALUE/NAME     DESCRIPTION
#---------     -----------    ---------------------------
 STRT.S             16:45:59 18-Jul-21: START TIME 16:45:59 18-Jul-21
 STOP.S             16:52:30 18-Jul-21: STOP TIME  16:52:30 18-Jul-21
 STEP.S                   0.00: STEP TIME
 NULL.                 -999.25: NULL VALUE
 MDS .        Operator Entered:  MAG DATA SOURCE
 PDAT.          Mean Sea Level:  PERMANENT DATUM
 UNIT.                     N/A:  LOGGING EQUIPMENT ID
 DCON.         Sperry Drilling:  DIRECTNL CONTR
 DOE .                     N/A:  DOE NUMBER
 RIG .              West Azeri:  RIG NAME
 JOBN.        AZ-XX-0906997913:  JOB TICKET NUMB
 WELL.                     C41:  WELL NAME
 MWDS.                    Baku:  MWD SHOP
 SRVC.          Turan Drilling:  CONTRACTOR
 FLD .                     ACG:  FIELD NAME
 CTRY.              Azerbaijan:  COUNTRY NAME
 PROV.                    Baku:  PROVINCE
 STAT.                    Baku:  STATE NAME
 REGN.                   EESSA:  REGION
 BASE.              Azerbaijan:  LOGGING EQUIPMENT BASE LOCATION
 UWI .                     N/A:  UNIQUE WELL IDENTIFIER
 API .                     N/A:  API NUMBER
 COMP.     BP Exploration (Caspian Sea) Ltd.:  COMPANY
 WTYP.                Deviated:  WELL TYPE
 SON .        AZ-XX-0906997913:  JOB NUMBER
 FTOP.          Formation Tops:  FORM TOPS DESC
 ILTD.               Lithology:  INTERP LTH DESC
 SVYD.                  Survey:  SURVEY DESC
 DMOD.             Drill Model:  DRILL MOD DESC
 HPTY.       Minimum Curvature:  HOLE POS TYPE
 NREF.                    Grid:  NORTH REFERENCE
 SPUD.               16-May-21:  SPUD DATE
 DATE.      21.11.28 17-May-21:  END TIME
 STIM.      21.11.28 17-May-21:  START TIME
 DMF .             Drill Floor:  DRILL MEAS FROM
 DFST.                        :  DIST FSL TEXT
 DFWT.                        :  DIST FWL TEXT
 CNTY.                        :  COUNTY
 LOC .                        :  LOCATION
 LMF .             Drill Floor:  LOG MEASURED FROM
 AGAP.m                  43.42:  AIR GAP
 VSNS.m                  -2.16:  VERT SEC N/S
 VSEW.m                  -6.24:  VERT SEC E/W
 APD .m                  43.42:  DEPTH ABOVE PD
 WDMS.m                 118.27:  WD ELEV
 EGL .m                   0.00:  GROUND ELEVATION
 EPD .m                   0.00:  ELEVATION
 AZTC.deg                 6.29:  AZM TOTAL CORR
 GRDC.deg                 0.18:  GRID CORRECTION
 MDEC.deg                 6.47:  MAGNETIC DECL
 MDIP.deg                59.54:  MAGNETIC DIP
 MFLD.nT              50337.00:  MAGNETIC FIELD
 GVFD.g                   1.00:  GRAVITY FIELD
 VSDR.deg               226.99:  VERT SEC DIRECT
 TDD .m                   0.00:  TOTAL DEPTH (DRILLER)
 SDEP.m                 448.00:  START DEPTH
 DFSL.m                   0.00:  DISTANCE FSL
 DFWL.m                   0.00:  DISTANCE FWL
 UTMY.m             4435799.96:  UTM Y
 UTMX.m              526265.35:  UTM X
 WHEW.m                  -6.24:  WELL HEAD E/W
 WHNS.m                  -2.16:  WELL HEAD N/S
 LONG.deg                51.31:  LONGITUDE
 LATI.deg                40.06:  LATITUDE
 TVDS.m                  43.42:  TVDSS CORRECTN
 EKB .m                  43.42:  KB ELEVATION
 EDF .m                  43.42:  DF ELEVATION
 TDL .m                 288.00:  TOTAL DEPTH (LOGGER)
 MAGU.                 1851863:  MAGUTM CHECKSUM
 VSC .                       0:  VS TO CLOSURE
~Parameter Information Block
#MNEM.UNIT       Value        Description
#---------     -----------    ---------------------------
 AV  .mps                 0.40:  Ann Velocity 
 AVMX.mps                 0.63:  Max Ann Veloc 
 AZIF.deg               158.76:  Azm, Final 
 BHAT.        Rotary Steerable:  BHA Type 
 BROT.∞/30m               0.68:  Build Rotating 
 BS  .in                  8.50:  Bit Size 
 BSZ .in                  8.50:  Bit Size 
 BTPL.psig              712.00:  Bit Press Loss 
 CABU.                      No:  Customer Abuse 
 COMM.                     ,èr:  Run Comments 1 
 TCS .hr                 90.66:  Time Ciculation Ended 
 CV  .mps                 2.02:  Crit Velocity 
 CVMX.mps                 2.14:  Max Crit Veloc 
 DD1 .            Aziz Aliyevu:  Direct Drillr 1 
 DD2 .             Samir Abbas:  Direct Drillr 2 
 DD3 .           Teymur Aliyev:  Direct Drillr 3 
 DDSV.                 iCruise:  DD Service 
 DEFF.%                  85.10:  % Det Eff 
 DLRX.∞/30m               1.05:  Dogleg Rot Max 
 DLSO.∞/30m               1.01:  Dogleg Oriented 
 DLSX.∞/30m               1.05:  Dogleg Str Max 
 DRET.      07.45.00 18-Jul-21:  Drill End Time 
 DRST.      15.00.00 16-Jul-21:  Drill Start Tim 
 DTIM.hr                 23.46:  Time Drilling 
 EDEP.m                4603.00:  End Depth 
 ENG1.       Seymur Iskandarov:  Engineer 1 
 ENG2.         Yevgeniy Ulikov:  Engineer 2 
 ENG3.         Bahruz Mehdiyev:  Engineer 3 
 ENG4.         Elchin Mammadov:  Engineer 4 
 ETIM.      14.00.00 23-Jul-21:  End Time 
 FLOI.gpm               500.00:  Flow In 
 FLON.gpm               450.00:  Flow In Min 
 FLOS.cptm                0.00:  Fluid Loss 
 FLOX.gpm               560.00:  Flow In Max 
 DFT .        Mineral Oil Base:  Mud Type 
 FTRO.       Formation Presure:  FTWD Run Obj 
 HFLO.                      No:  High Flow 
 HPRE.                      No:  High Pressure 
 HTEM.                      No:  High Temp 
 HYDO.m                   1.80:  Hydro Offset 
 IFIN.deg                40.22:  Inc, Final 
 IMAX.deg                40.54:  Inc Max 
 IMIN.deg                39.44:  Inc Min 
 IMND.m                4361.17:  Inc Min Depth 
 IMXD.m                4417.92:  Inc Max Depth 
 JARR.                      No:  Jarring 
 LETM.      07.45.00 18-Jul-21:  Log End Time 
 LOST.hr                    16:  Lost Rig Time 
 LSTM.      15.00.00 16-Jul-21:  Log Start Time 
 MDCL.ppm             36500.00:  Mud Chlorides 
 MDES.     Inversion Oil/Synthetic:  Mud Desc 
 DFD .sg                  1.42:  Mud Density 
 MDMN.sg                  1.42:  Dens Mud Min 
 MDMX.sg                  1.43:  Dens Mud Max 
 MOIL.                      56:  Run Mud Oil % 
 MOWR.                   71:29:  Run Mud OWR 
 MSND.                     0.5:  Run Mud Sand % 
 MSOL.                      21:  Run Mud Solids% 
 DFV .spqt               78.00:  Mud Viscosity 
 MWOD.in                  6.75:  MWD Tool OD 
 MWSI.                     Yes:  Serv Intrp, MWD 
 OTIM.hr                200.73:  Time Operating 
 PCON.           Look Like New:  Pad Condition 
 PMAX.psia            11069.93:  Press Op, Max 
 PV  .cP                 32.00:  Mud PV 
 RUN .                     700:  Run Number 
 ROPA.m/hr               10.00:  ROP Avg 
 ROPN.m/hr                9.00:  ROP Min 
 ROPX.m/hr               16.00:  ROP Max 
 RPMA.rpm               116.00:  RPM Surface Avg 
 RPMN.rpm                80.00:  RPM Surface Min 
 RPMX.rpm               120.00:  RPM Surface Max 
 RRUN.                    L605:  Rig Run Number 
 RTIM.hr                 45.00:  Time Reaming 
 SAZI.deg               159.86:  Azm, Start 
 SDEP.m                4315.00:  Start Depth 
 SIDD.                      No:  Serv Intrp, DD 
 SINC.deg                39.86:  Inc, Start 
 SPPA.psig             3300.00:  SPP Avg 
 SPPN.psig             3040.00:  SPP Min 
 SPPX.psig             3645.00:  SPP Max 
 STIM.      01.00.00 15-Jul-21:  Start Time 
 SVCS.                 DD, MWD:  Services 
 SVER.                    9.20:  Sperry Version 
 TDAT.m                 288.00:  Tot Depth Attmp 
 TDDF.                      No:  Trip for DD 
 TDLG.m                 288.00:  Tot Depth Loggd 
 TFF .                      No:  Trip for Fail 
 TQAA.f-kp               19.00:  Torque Abs Avg 
 TQAN.f-kp               18.00:  Torque Abs Min 
 TQAX.f-kp               21.00:  Torque Abs Max 
 TRRT.∞/30m               0.45:  Turn Rotating 
 MRT .                    HCIM:  Maximum Recorded Temperature 
 TTMX.degC               88.24:  Max Tool Temp 
 VS01.                90649157:  Virtual Str1 SN 
 VS02.                90652483:  Virtual Str2 SN 
 VS03.                11671987:  Virtual Str3 SN 
 VS04.                90643411:  Virtual Str4 SN 
 VS05.                90652478:  Virtual Str5 SN 
 VS06.                    6111:  Virtual Str6 SN 
 WBMN.klb                 9.50:  WOB Min 
 WITN.        Grigoriy Sarayev:  Customer Rep 
 WITN.          Rufat Huseynov:  Customer Rep 2 
 WOBA.klb                11.00:  WOB Avg 
 WOBX.klb                15.00:  WOB Max 
 YP  .lhf2               28.00:  Yield Point 
~Curve Information Block
#MNEM.UNIT                 API CODE     Curve Description
#---------               -----------    ---------------------------
 TIME.HHMMSS            00 000 000 000:  GT Time & Date
 GTDEPTH.m              00 000 000 000:  GT Depth
 GTPQH.psia             00 000 000 000:  GT HR Quartz Pressure
 GTTQ.degC              00 000 000 000:  GT Quartz Temperature
 GTTN.NONE              00 000 000 000:  GT Test Number
 GTET.sec               00 000 000 000:  GT Elapsed Test Time
 GTTVD.m                00 000 000 000:  GT True Vertical Depth
#Other Information
#
#WARRANTY: Halliburton will use its best efforts to furnish customers with 
#accurate information and interpretations that are part of, and incident to, the services 
#provided.  However, Halliburton cannot and does not warrant the accuracy 
#or correctness of such information and interpretations.  Under no circumstances should any 
#such information or interpretation be relied upon as the sole basis for any drilling, 
#completion, production, or financial decision or any procedure involving any risk to the 
#safety of any drilling venture, drilling rig or its crew or any other third party.  The 
#Customer has full responsibility for all drilling, completion and production operation.  
#Halliburton makes no representations or warranties, either expressed or 
#implied, including, but not limited to, the implied warranties of merchantability or fitness 
#for a particular purpose, with respect to the services rendered.  In no event will 
#Halliburton be liable for failure to obtain any particular results or for 
#any damages, including, but not limited to, indirect, special or consequential damages, 
#resulting from the use of any information or interpretation provided by Halliburton.
#
~A           TIME           GTDEPTH  GTPQH  GTTQ  GTTN  GTET   GTTVD  
# ...
   16:48:17.437.18-Jul-2021 4545.00 5839.93 74.96 6.00 138.05 2734.68
   16:48:17.637.18-Jul-2021 4545.00 5839.93 74.96 6.00 138.25 2734.68
   16:48:17.837.18-Jul-2021 4545.00 5839.82 74.96 6.00 138.45 2734.68
   16:48:18.037.18-Jul-2021 4545.00 5839.72 74.96 6.00 138.65 2734.68
   16:48:18.237.18-Jul-2021 4545.00 5839.69 74.96 6.00 138.85 2734.68
   16:48:18.437.18-Jul-2021 4545.00 5839.76 74.96 6.00 139.05 2734.68
   16:48:18.637.18-Jul-2021 4545.00 5839.76 74.96 6.00 139.25 2734.68
   16:48:18.837.18-Jul-2021 4545.00 5839.54 74.96 6.00 139.45 2734.68
   16:48:19.037.18-Jul-2021 4545.00 5838.48 74.96 6.00 139.65 2734.68
   16:48:19.237.18-Jul-2021 4545.00 5839.53 74.96 6.00 139.85 2734.68
   16:48:19.438.18-Jul-2021 4545.00 5838.64 74.96 6.00 140.05 2734.68
   16:48:19.638.18-Jul-2021 4545.00 5838.64 74.96 6.00 140.25 2734.68
   16:48:19.838.18-Jul-2021 4545.00 5838.17 74.96 6.00 140.45 2734.68
   16:48:20.038.18-Jul-2021 4545.00 5836.75 74.96 6.00 140.65 2734.68
   16:48:20.238.18-Jul-2021 4545.00 5836.91 74.96 6.00 140.85 2734.68
   16:48:20.438.18-Jul-2021 4545.00 5836.60 74.96 6.00 141.05 2734.68
   16:48:20.638.18-Jul-2021 4545.00 5836.60 74.96 6.00 141.25 2734.68
   16:48:20.838.18-Jul-2021 4545.00 5835.47 74.96 6.00 141.45 2734.68
   16:48:21.038.18-Jul-2021 4545.00 5835.12 74.96 6.00 141.65 2734.68
   16:48:21.238.18-Jul-2021 4545.00 5835.78 74.96 6.00 141.85 2734.68
   16:48:21.438.18-Jul-2021 4545.00 5835.03 74.96 6.00 142.05 2734.68
   16:48:21.638.18-Jul-2021 4545.00 5835.03 74.96 6.00 142.25 2734.68
   16:48:21.838.18-Jul-2021 4545.00 5835.09 74.96 6.00 142.45 2734.68
   16:48:22.039.18-Jul-2021 4545.00 5834.06 74.96 6.00 142.65 2734.68
   16:48:22.239.18-Jul-2021 4545.00 5834.02 74.96 6.00 142.85 2734.68
   16:48:22.439.18-Jul-2021 4545.00 5833.61 74.96 6.00 143.05 2734.68
   16:48:22.639.18-Jul-2021 4545.00 5833.61 74.96 6.00 143.25 2734.68
   16:48:22.839.18-Jul-2021 4545.00 5832.80 74.96 6.00 143.45 2734.68
   16:48:23.039.18-Jul-2021 4545.00 5830.62 74.96 6.00 143.65 2734.68
   16:48:23.239.18-Jul-2021 4545.00 5809.88 74.96 6.00 143.85 2734.68
   16:48:23.439.18-Jul-2021 4545.00 5781.21 74.96 6.00 144.05 2734.68
   16:48:23.639.18-Jul-2021 4545.00 5781.21 74.96 6.00 144.25 2734.68
   16:48:23.839.18-Jul-2021 4545.00 5716.56 74.96 6.00 144.45 2734.68
   16:48:24.039.18-Jul-2021 4545.00 5686.91 74.96 6.00 144.65 2734.68
   16:48:24.239.18-Jul-2021 4545.00 5670.37 74.96 6.00 144.85 2734.68
   16:48:24.439.18-Jul-2021 4545.00 5663.92 74.96 6.00 145.05 2734.68
   16:48:24.639.18-Jul-2021 4545.00 5663.92 74.96 6.00 145.25 2734.68
   16:48:24.840.18-Jul-2021 4545.00 5658.01 74.96 6.00 145.45 2734.68
   16:48:25.040.18-Jul-2021 4545.00 5656.03 74.96 6.00 145.65 2734.68
   16:48:25.240.18-Jul-2021 4545.00 5654.76 74.96 6.00 145.85 2734.68
   16:48:25.440.18-Jul-2021 4545.00 5651.61 74.96 6.00 146.05 2734.68
   16:48:25.640.18-Jul-2021 4545.00 5651.61 74.96 6.00 146.25 2734.68
   16:48:25.840.18-Jul-2021 4545.00 5648.61 74.96 6.00 146.45 2734.68
   16:48:26.040.18-Jul-2021 4545.00 5648.85 74.96 6.00 146.65 2734.68
   16:48:26.240.18-Jul-2021 4545.00 5648.30 74.96 6.00 146.85 2734.68
   16:48:26.440.18-Jul-2021 4545.00 5648.14 74.96 6.00 147.05 2734.68
   16:48:26.640.18-Jul-2021 4545.00 5648.14 74.96 6.00 147.25 2734.68
   16:48:26.840.18-Jul-2021 4545.00 5648.18 74.96 6.00 147.45 2734.68
   16:48:27.040.18-Jul-2021 4545.00 5648.20 74.96 6.00 147.65 2734.68
   16:48:27.240.18-Jul-2021 4545.00 5648.40 74.96 6.00 147.85 2734.68
   16:48:27.441.18-Jul-2021 4545.00 5648.43 74.96 6.00 148.05 2734.68
   16:48:27.641.18-Jul-2021 4545.00 5648.43 74.96 6.00 148.25 2734.68
   16:48:27.841.18-Jul-2021 4545.00 5648.29 74.96 6.00 148.45 2734.68
   16:48:28.041.18-Jul-2021 4545.00 5648.29 74.96 6.00 148.65 2734.68
   16:48:28.241.18-Jul-2021 4545.00 5646.63 74.96 6.00 148.85 2734.68
   16:48:28.441.18-Jul-2021 4545.00 5645.66 74.96 6.00 149.05 2734.68
   16:48:28.641.18-Jul-2021 4545.00 5645.66 74.96 6.00 149.25 2734.68
   16:48:28.841.18-Jul-2021 4545.00 5644.87 74.96 6.00 149.46 2734.68
   16:48:29.041.18-Jul-2021 4545.00 5644.45 74.96 6.00 149.66 2734.68
   16:48:29.241.18-Jul-2021 4545.00 5644.97 74.96 6.00 149.86 2734.68
   16:48:29.441.18-Jul-2021 4545.00 5644.69 74.96 6.00 150.06 2734.68
   16:48:29.641.18-Jul-2021 4545.00 5644.69 74.96 6.00 150.26 2734.68
   16:48:29.841.18-Jul-2021 4545.00 5644.43 74.96 6.00 150.46 2734.68
   16:48:30.041.18-Jul-2021 4545.00 5644.44 74.96 6.00 150.66 2734.68
   16:48:30.242.18-Jul-2021 4545.00 5644.71 74.96 6.00 150.86 2734.68
   16:48:30.442.18-Jul-2021 4545.00 5643.27 74.96 6.00 151.06 2734.68
   16:48:30.642.18-Jul-2021 4545.00 5643.27 74.96 6.00 151.26 2734.68
   16:48:30.842.18-Jul-2021 4545.00 5644.03 74.96 6.00 151.46 2734.68
   16:48:31.042.18-Jul-2021 4545.00 5644.34 74.96 6.00 151.66 2734.68
   16:48:31.242.18-Jul-2021 4545.00 5642.99 74.95 6.00 151.86 2734.68
   16:48:31.442.18-Jul-2021 4545.00 5643.50 74.95 6.00 152.06 2734.68
   16:48:31.642.18-Jul-2021 4545.00 5643.50 74.95 6.00 152.26 2734.68
   16:48:31.842.18-Jul-2021 4545.00 5644.24 74.95 6.00 152.46 2734.68
   16:48:32.042.18-Jul-2021 4545.00 5644.28 74.95 6.00 152.66 2734.68
   16:48:32.242.18-Jul-2021 4545.00 5644.41 74.95 6.00 152.86 2734.68
   16:48:32.442.18-Jul-2021 4545.00 5644.65 74.95 6.00 153.06 2734.68
   16:48:32.642.18-Jul-2021 4545.00 5644.65 74.95 6.00 153.26 2734.68
   16:48:32.842.18-Jul-2021 4545.00 5645.07 74.95 6.00 153.46 2734.68
   16:48:33.043.18-Jul-2021 4545.00 5645.26 74.95 6.00 153.66 2734.68
   16:48:33.243.18-Jul-2021 4545.00 5645.39 74.95 6.00 153.86 2734.68
   16:48:33.443.18-Jul-2021 4545.00 5645.67 74.95 6.00 154.06 2734.68
   16:48:33.643.18-Jul-2021 4545.00 5645.67 74.95 6.00 154.26 2734.68
   16:48:33.843.18-Jul-2021 4545.00 5646.61 74.95 6.00 154.46 2734.68
   16:48:34.043.18-Jul-2021 4545.00 5645.50 74.95 6.00 154.66 2734.68
   16:48:34.243.18-Jul-2021 4545.00 5646.46 74.95 6.00 154.86 2734.68
   16:48:34.443.18-Jul-2021 4545.00 5647.05 74.95 6.00 155.06 2734.68
   16:48:34.643.18-Jul-2021 4545.00 5647.05 74.95 6.00 155.26 2734.68
   16:48:34.843.18-Jul-2021 4545.00 5647.05 74.95 6.00 155.46 2734.68
   16:48:35.043.18-Jul-2021 4545.00 5647.65 74.95 6.00 155.66 2734.68
   16:48:35.243.18-Jul-2021 4545.00 5647.91 74.95 6.00 155.86 2734.68
   16:48:35.443.18-Jul-2021 4545.00 5647.99 74.95 6.00 156.06 2734.68
   16:48:35.644.18-Jul-2021 4545.00 5647.99 74.95 6.00 156.26 2734.68
   16:48:35.844.18-Jul-2021 4545.00 5648.27 74.95 6.00 156.46 2734.68
   16:48:36.044.18-Jul-2021 4545.00 5648.47 74.95 6.00 156.66 2734.68
   16:48:36.244.18-Jul-2021 4545.00 5648.67 74.95 6.00 156.86 2734.68
   16:48:36.444.18-Jul-2021 4545.00 5648.77 74.95 6.00 157.06 2734.68
   16:48:36.644.18-Jul-2021 4545.00 5648.77 74.95 6.00 157.26 2734.68
   16:48:36.844.18-Jul-2021 4545.00 5647.56 74.95 6.00 157.46 2734.68
   16:48:37.044.18-Jul-2021 4545.00 5649.35 74.95 6.00 157.66 2734.68
   16:48:37.244.18-Jul-2021 4545.00 5648.99 74.95 6.00 157.86 2734.68
   16:48:37.444.18-Jul-2021 4545.00 5649.16 74.95 6.00 158.06 2734.68
   16:48:37.644.18-Jul-2021 4545.00 5649.16 74.95 6.00 158.26 2734.68
   16:48:37.844.18-Jul-2021 4545.00 5650.39 74.95 6.00 158.46 2734.68
   16:48:38.044.18-Jul-2021 4545.00 5653.09 74.95 6.00 158.66 2734.68
   16:48:38.244.18-Jul-2021 4545.00 5653.09 74.95 6.00 158.86 2734.68
   16:48:38.445.18-Jul-2021 4545.00 5653.44 74.95 6.00 159.06 2734.68
   16:48:38.645.18-Jul-2021 4545.00 5653.44 74.95 6.00 159.26 2734.68
   16:48:38.845.18-Jul-2021 4545.00 5655.31 74.95 6.00 159.46 2734.68
   16:48:39.045.18-Jul-2021 4545.00 5654.90 74.95 6.00 159.66 2734.68
   16:48:39.245.18-Jul-2021 4545.00 5654.63 74.95 6.00 159.86 2734.68
   16:48:39.445.18-Jul-2021 4545.00 5656.11 74.95 6.00 160.06 2734.68
   16:48:39.645.18-Jul-2021 4545.00 5656.11 74.95 6.00 160.26 2734.68
   16:48:39.845.18-Jul-2021 4545.00 5657.19 74.95 6.00 160.46 2734.68
   16:48:40.045.18-Jul-2021 4545.00 5657.07 74.95 6.00 160.66 2734.68
   16:48:40.245.18-Jul-2021 4545.00 5657.24 74.95 6.00 160.86 2734.68
