~Version Information
 VERS.                  2.0:   CWLS log ASCII Standard -VERSION 2.0
 WRAP.                   NO:   One line per depth step
~Well Information Block
#MNEM.UNIT     VALUE/NAME     DESCRIPTION
#---------     -----------    ---------------------------
 STRT.S             23:00:58 18-Jul-21: START TIME 23:00:58 18-Jul-21
 STOP.S             23:07:34 18-Jul-21: STOP TIME  23:07:34 18-Jul-21
 STEP.S                   0.00: STEP TIME
 NULL.                 -999.25: NULL VALUE
 MDS .        Operator Entered:  MAG DATA SOURCE
 PDAT.          Mean Sea Level:  PERMANENT DATUM
 UNIT.                     N/A:  LOGGING EQUIPMENT ID
 DCON.         Sperry Drilling:  DIRECTNL CONTR
 DOE .                     N/A:  DOE NUMBER
 RIG .              West Azeri:  RIG NAME
 JOBN.        AZ-XX-0906997913:  JOB TICKET NUMB
 WELL.                     C41:  WELL NAME
 MWDS.                    Baku:  MWD SHOP
 SRVC.          Turan Drilling:  CONTRACTOR
 FLD .                     ACG:  FIELD NAME
 CTRY.              Azerbaijan:  COUNTRY NAME
 PROV.                    Baku:  PROVINCE
 STAT.                    Baku:  STATE NAME
 REGN.                   EESSA:  REGION
 BASE.              Azerbaijan:  LOGGING EQUIPMENT BASE LOCATION
 UWI .                     N/A:  UNIQUE WELL IDENTIFIER
 API .                     N/A:  API NUMBER
 COMP.     BP Exploration (Caspian Sea) Ltd.:  COMPANY
 WTYP.                Deviated:  WELL TYPE
 SON .        AZ-XX-0906997913:  JOB NUMBER
 FTOP.          Formation Tops:  FORM TOPS DESC
 ILTD.               Lithology:  INTERP LTH DESC
 SVYD.                  Survey:  SURVEY DESC
 DMOD.             Drill Model:  DRILL MOD DESC
 HPTY.       Minimum Curvature:  HOLE POS TYPE
 NREF.                    Grid:  NORTH REFERENCE
 SPUD.               16-May-21:  SPUD DATE
 DATE.      21.11.28 17-May-21:  END TIME
 STIM.      21.11.28 17-May-21:  START TIME
 DMF .             Drill Floor:  DRILL MEAS FROM
 DFST.                        :  DIST FSL TEXT
 DFWT.                        :  DIST FWL TEXT
 CNTY.                        :  COUNTY
 LOC .                        :  LOCATION
 LMF .             Drill Floor:  LOG MEASURED FROM
 AGAP.m                  43.42:  AIR GAP
 VSNS.m                  -2.16:  VERT SEC N/S
 VSEW.m                  -6.24:  VERT SEC E/W
 APD .m                  43.42:  DEPTH ABOVE PD
 WDMS.m                 118.27:  WD ELEV
 EGL .m                   0.00:  GROUND ELEVATION
 EPD .m                   0.00:  ELEVATION
 AZTC.deg                 6.29:  AZM TOTAL CORR
 GRDC.deg                 0.18:  GRID CORRECTION
 MDEC.deg                 6.47:  MAGNETIC DECL
 MDIP.deg                59.54:  MAGNETIC DIP
 MFLD.nT              50337.00:  MAGNETIC FIELD
 GVFD.g                   1.00:  GRAVITY FIELD
 VSDR.deg               226.99:  VERT SEC DIRECT
 TDD .m                   0.00:  TOTAL DEPTH (DRILLER)
 SDEP.m                 448.00:  START DEPTH
 DFSL.m                   0.00:  DISTANCE FSL
 DFWL.m                   0.00:  DISTANCE FWL
 UTMY.m             4435799.96:  UTM Y
 UTMX.m              526265.35:  UTM X
 WHEW.m                  -6.24:  WELL HEAD E/W
 WHNS.m                  -2.16:  WELL HEAD N/S
 LONG.deg                51.31:  LONGITUDE
 LATI.deg                40.06:  LATITUDE
 TVDS.m                  43.42:  TVDSS CORRECTN
 EKB .m                  43.42:  KB ELEVATION
 EDF .m                  43.42:  DF ELEVATION
 TDL .m                 288.00:  TOTAL DEPTH (LOGGER)
 MAGU.                 1851863:  MAGUTM CHECKSUM
 VSC .                       0:  VS TO CLOSURE
~Parameter Information Block
#MNEM.UNIT       Value        Description
#---------     -----------    ---------------------------
 AV  .mps                 0.40:  Ann Velocity 
 AVMX.mps                 0.63:  Max Ann Veloc 
 AZIF.deg               158.76:  Azm, Final 
 BHAT.        Rotary Steerable:  BHA Type 
 BROT.°/30m               0.68:  Build Rotating 
 BS  .in                  8.50:  Bit Size 
 BSZ .in                  8.50:  Bit Size 
 BTPL.psig              712.00:  Bit Press Loss 
 CABU.                      No:  Customer Abuse 
 COMM.                     ¼2`:  Run Comments 1 
 TCS .hr                 90.66:  Time Ciculation Ended 
 CV  .mps                 2.02:  Crit Velocity 
 CVMX.mps                 2.14:  Max Crit Veloc 
 DD1 .            Aziz Aliyevu:  Direct Drillr 1 
 DD2 .             Samir Abbas:  Direct Drillr 2 
 DD3 .           Teymur Aliyev:  Direct Drillr 3 
 DDSV.                 iCruise:  DD Service 
 DEFF.%                  85.10:  % Det Eff 
 DLRX.°/30m               1.05:  Dogleg Rot Max 
 DLSO.°/30m               1.01:  Dogleg Oriented 
 DLSX.°/30m               1.05:  Dogleg Str Max 
 DRET.      07.45.00 18-Jul-21:  Drill End Time 
 DRST.      15.00.00 16-Jul-21:  Drill Start Tim 
 DTIM.hr                 23.46:  Time Drilling 
 EDEP.m                4603.00:  End Depth 
 ENG1.       Seymur Iskandarov:  Engineer 1 
 ENG2.         Yevgeniy Ulikov:  Engineer 2 
 ENG3.         Bahruz Mehdiyev:  Engineer 3 
 ENG4.         Elchin Mammadov:  Engineer 4 
 ETIM.      14.00.00 23-Jul-21:  End Time 
 FLOI.gpm               500.00:  Flow In 
 FLON.gpm               450.00:  Flow In Min 
 FLOS.cptm                0.00:  Fluid Loss 
 FLOX.gpm               560.00:  Flow In Max 
 DFT .        Mineral Oil Base:  Mud Type 
 FTRO.       Formation Presure:  FTWD Run Obj 
 HFLO.                      No:  High Flow 
 HPRE.                      No:  High Pressure 
 HTEM.                      No:  High Temp 
 HYDO.m                   1.80:  Hydro Offset 
 IFIN.deg                40.22:  Inc, Final 
 IMAX.deg                40.54:  Inc Max 
 IMIN.deg                39.44:  Inc Min 
 IMND.m                4361.17:  Inc Min Depth 
 IMXD.m                4417.92:  Inc Max Depth 
 JARR.                      No:  Jarring 
 LETM.      07.45.00 18-Jul-21:  Log End Time 
 LOST.hr                    16:  Lost Rig Time 
 LSTM.      15.00.00 16-Jul-21:  Log Start Time 
 MDCL.ppm             36500.00:  Mud Chlorides 
 MDES.     Inversion Oil/Synthetic:  Mud Desc 
 DFD .sg                  1.42:  Mud Density 
 MDMN.sg                  1.42:  Dens Mud Min 
 MDMX.sg                  1.43:  Dens Mud Max 
 MOIL.                      56:  Run Mud Oil % 
 MOWR.                   71:29:  Run Mud OWR 
 MSND.                     0.5:  Run Mud Sand % 
 MSOL.                      21:  Run Mud Solids% 
 DFV .spqt               78.00:  Mud Viscosity 
 MWOD.in                  6.75:  MWD Tool OD 
 MWSI.                     Yes:  Serv Intrp, MWD 
 OTIM.hr                200.73:  Time Operating 
 PCON.           Look Like New:  Pad Condition 
 PMAX.psia            11069.93:  Press Op, Max 
 PV  .cP                 32.00:  Mud PV 
 RUN .                     700:  Run Number 
 ROPA.m/hr               10.00:  ROP Avg 
 ROPN.m/hr                9.00:  ROP Min 
 ROPX.m/hr               16.00:  ROP Max 
 RPMA.rpm               116.00:  RPM Surface Avg 
 RPMN.rpm                80.00:  RPM Surface Min 
 RPMX.rpm               120.00:  RPM Surface Max 
 RRUN.                    L605:  Rig Run Number 
 RTIM.hr                 45.00:  Time Reaming 
 SAZI.deg               159.86:  Azm, Start 
 SDEP.m                4315.00:  Start Depth 
 SIDD.                      No:  Serv Intrp, DD 
 SINC.deg                39.86:  Inc, Start 
 SPPA.psig             3300.00:  SPP Avg 
 SPPN.psig             3040.00:  SPP Min 
 SPPX.psig             3645.00:  SPP Max 
 STIM.      01.00.00 15-Jul-21:  Start Time 
 SVCS.                 DD, MWD:  Services 
 SVER.                    9.20:  Sperry Version 
 TDAT.m                 288.00:  Tot Depth Attmp 
 TDDF.                      No:  Trip for DD 
 TDLG.m                 288.00:  Tot Depth Loggd 
 TFF .                      No:  Trip for Fail 
 TQAA.f-kp               19.00:  Torque Abs Avg 
 TQAN.f-kp               18.00:  Torque Abs Min 
 TQAX.f-kp               21.00:  Torque Abs Max 
 TRRT.°/30m               0.45:  Turn Rotating 
 MRT .                    HCIM:  Maximum Recorded Temperature 
 TTMX.degC               88.24:  Max Tool Temp 
 VS01.                90649157:  Virtual Str1 SN 
 VS02.                90652483:  Virtual Str2 SN 
 VS03.                11671987:  Virtual Str3 SN 
 VS04.                90643411:  Virtual Str4 SN 
 VS05.                90652478:  Virtual Str5 SN 
 VS06.                    6111:  Virtual Str6 SN 
 WBMN.klb                 9.50:  WOB Min 
 WITN.        Grigoriy Sarayev:  Customer Rep 
 WITN.          Rufat Huseynov:  Customer Rep 2 
 WOBA.klb                11.00:  WOB Avg 
 WOBX.klb                15.00:  WOB Max 
 YP  .lhf2               28.00:  Yield Point 
~Curve Information Block
#MNEM.UNIT                 API CODE     Curve Description
#---------               -----------    ---------------------------
 TIME.HHMMSS            00 000 000 000:  GT Time & Date
 GTDEPTH.m              00 000 000 000:  GT Depth
 GTPQH.psia             00 000 000 000:  GT HR Quartz Pressure
 GTTQ.degC              00 000 000 000:  GT Quartz Temperature
 GTTN.NONE              00 000 000 000:  GT Test Number
 GTET.sec               00 000 000 000:  GT Elapsed Test Time
 GTTVD.m                00 000 000 000:  GT True Vertical Depth
#Other Information
#
#WARRANTY: Halliburton will use its best efforts to furnish customers with 
#accurate information and interpretations that are part of, and incident to, the services 
#provided.  However, Halliburton cannot and does not warrant the accuracy 
#or correctness of such information and interpretations.  Under no circumstances should any 
#such information or interpretation be relied upon as the sole basis for any drilling, 
#completion, production, or financial decision or any procedure involving any risk to the 
#safety of any drilling venture, drilling rig or its crew or any other third party.  The 
#Customer has full responsibility for all drilling, completion and production operation.  
#Halliburton makes no representations or warranties, either expressed or 
#implied, including, but not limited to, the implied warranties of merchantability or fitness 
#for a particular purpose, with respect to the services rendered.  In no event will 
#Halliburton be liable for failure to obtain any particular results or for 
#any damages, including, but not limited to, indirect, special or consequential damages, 
#resulting from the use of any information or interpretation provided by Halliburton.
#
~A           TIME           GTDEPTH  GTPQH  GTTQ  GTTN  GTET   GTTVD  
# ...
   23:06:20.789.18-Jul-2021 4247.58 5954.46 69.67 8.00 322.12 2507.04
   23:06:20.989.18-Jul-2021 4247.58 5954.46 69.67 8.00 322.32 2507.04
   23:06:21.189.18-Jul-2021 4247.58 5952.66 69.67 8.00 322.52 2507.04
   23:06:21.389.18-Jul-2021 4247.58 5955.71 69.67 8.00 322.72 2507.04
   23:06:21.589.18-Jul-2021 4247.58 5954.86 69.67 8.00 322.92 2507.04
   23:06:21.789.18-Jul-2021 4247.58 5954.80 69.67 8.00 323.12 2507.04
   23:06:21.989.18-Jul-2021 4247.58 5954.80 69.67 8.00 323.32 2507.04
   23:06:22.190.18-Jul-2021 4247.58 5954.84 69.67 8.00 323.52 2507.04
   23:06:22.390.18-Jul-2021 4247.58 5955.08 69.67 8.00 323.72 2507.04
   23:06:22.590.18-Jul-2021 4247.58 5954.86 69.67 8.00 323.92 2507.04
   23:06:22.790.18-Jul-2021 4247.58 5954.62 69.67 8.00 324.12 2507.04
   23:06:22.990.18-Jul-2021 4247.58 5954.62 69.67 8.00 324.32 2507.04
   23:06:23.190.18-Jul-2021 4247.58 5955.72 69.67 8.00 324.52 2507.04
   23:06:23.390.18-Jul-2021 4247.58 5959.04 69.67 8.00 324.72 2507.04
   23:06:23.590.18-Jul-2021 4247.58 5948.01 69.67 8.00 324.92 2507.04
   23:06:23.790.18-Jul-2021 4247.58 5952.93 69.67 8.00 325.12 2507.04
   23:06:23.990.18-Jul-2021 4247.58 5952.93 69.67 8.00 325.32 2507.04
   23:06:24.190.18-Jul-2021 4247.58 5949.13 69.67 8.00 325.52 2507.04
   23:06:24.390.18-Jul-2021 4247.58 5953.33 69.67 8.00 325.72 2507.04
   23:06:24.590.18-Jul-2021 4247.58 5956.05 69.67 8.00 325.92 2507.04
   23:06:24.791.18-Jul-2021 4247.58 5953.99 69.67 8.00 326.12 2507.04
   23:06:24.991.18-Jul-2021 4247.58 5953.99 69.67 8.00 326.32 2507.04
   23:06:25.191.18-Jul-2021 4247.58 5955.72 69.67 8.00 326.52 2507.04
   23:06:25.391.18-Jul-2021 4247.58 5961.20 69.67 8.00 326.72 2507.04
   23:06:25.591.18-Jul-2021 4247.58 5952.90 69.67 8.00 326.92 2507.04
   23:06:25.791.18-Jul-2021 4247.58 5954.86 69.67 8.00 327.12 2507.04
   23:06:25.991.18-Jul-2021 4247.58 5954.86 69.67 8.00 327.32 2507.04
   23:06:26.191.18-Jul-2021 4247.58 5958.46 69.67 8.00 327.52 2507.04
   23:06:26.391.18-Jul-2021 4247.58 5957.37 69.67 8.00 327.72 2507.04
   23:06:26.591.18-Jul-2021 4247.58 5953.01 69.67 8.00 327.92 2507.04
   23:06:26.791.18-Jul-2021 4247.58 5954.30 69.67 8.00 328.12 2507.04
   23:06:26.991.18-Jul-2021 4247.58 5954.30 69.67 8.00 328.32 2507.04
   23:06:27.191.18-Jul-2021 4247.58 5956.62 69.67 8.00 328.52 2507.04
   23:06:27.391.18-Jul-2021 4247.58 5955.59 69.67 8.00 328.72 2507.04
   23:06:27.592.18-Jul-2021 4247.58 5955.80 69.67 8.00 328.92 2507.04
   23:06:27.792.18-Jul-2021 4247.58 5955.47 69.67 8.00 329.12 2507.04
   23:06:27.992.18-Jul-2021 4247.58 5955.47 69.67 8.00 329.32 2507.04
   23:06:28.192.18-Jul-2021 4247.58 5955.99 69.67 8.00 329.52 2507.04
   23:06:28.392.18-Jul-2021 4247.58 5956.19 69.67 8.00 329.72 2507.04
   23:06:28.592.18-Jul-2021 4247.58 5955.32 69.67 8.00 329.92 2507.04
   23:06:28.792.18-Jul-2021 4247.58 5955.56 69.67 8.00 330.12 2507.04
   23:06:28.992.18-Jul-2021 4247.58 5955.56 69.67 8.00 330.32 2507.04
   23:06:29.192.18-Jul-2021 4247.58 5954.26 69.67 8.00 330.52 2507.04
   23:06:29.392.18-Jul-2021 4247.58 5951.92 69.67 8.00 330.72 2507.04
   23:06:29.592.18-Jul-2021 4247.58 5953.43 69.67 8.00 330.92 2507.04
   23:06:29.792.18-Jul-2021 4247.58 5956.73 69.67 8.00 331.12 2507.04
   23:06:29.992.18-Jul-2021 4247.58 5956.73 69.67 8.00 331.32 2507.04
   23:06:30.193.18-Jul-2021 4247.58 5955.40 69.67 8.00 331.52 2507.04
   23:06:30.393.18-Jul-2021 4247.58 5956.59 69.67 8.00 331.72 2507.04
   23:06:30.593.18-Jul-2021 4247.58 5956.13 69.67 8.00 331.92 2507.04
   23:06:30.793.18-Jul-2021 4247.58 5955.96 69.67 8.00 332.12 2507.04
   23:06:30.993.18-Jul-2021 4247.58 5955.96 69.67 8.00 332.32 2507.04
   23:06:31.193.18-Jul-2021 4247.58 5956.33 69.67 8.00 332.52 2507.04
   23:06:31.393.18-Jul-2021 4247.58 5955.31 69.67 8.00 332.72 2507.04
   23:06:31.593.18-Jul-2021 4247.58 5956.53 69.67 8.00 332.92 2507.04
   23:06:31.793.18-Jul-2021 4247.58 5959.50 69.67 8.00 333.12 2507.04
   23:06:31.993.18-Jul-2021 4247.58 5959.50 69.67 8.00 333.32 2507.04
   23:06:32.193.18-Jul-2021 4247.58 5952.81 69.67 8.00 333.52 2507.04
   23:06:32.393.18-Jul-2021 4247.58 5958.10 69.67 8.00 333.72 2507.04
   23:06:32.593.18-Jul-2021 4247.58 5950.53 69.67 8.00 333.92 2507.04
   23:06:32.793.18-Jul-2021 4247.58 5953.49 69.67 8.00 334.12 2507.04
   23:06:32.994.18-Jul-2021 4247.58 5953.49 69.67 8.00 334.32 2507.04
   23:06:33.194.18-Jul-2021 4247.58 5955.40 69.67 8.00 334.52 2507.04
   23:06:33.394.18-Jul-2021 4247.58 5954.19 69.67 8.00 334.72 2507.04
   23:06:33.594.18-Jul-2021 4247.58 5957.80 69.67 8.00 334.92 2507.04
   23:06:33.794.18-Jul-2021 4247.58 5964.02 69.67 8.00 335.12 2507.04
   23:06:33.994.18-Jul-2021 4247.58 5964.02 69.67 8.00 335.32 2507.04
   23:06:34.194.18-Jul-2021 4247.58 5954.69 69.67 8.00 335.52 2507.04
   23:06:34.394.18-Jul-2021 4247.58 5956.48 69.67 8.00 335.72 2507.04
   23:06:34.594.18-Jul-2021 4247.58 5958.87 69.67 8.00 335.92 2507.04
   23:06:34.794.18-Jul-2021 4247.58 5956.71 69.67 8.00 336.12 2507.04
   23:06:34.994.18-Jul-2021 4247.58 5956.71 69.67 8.00 336.32 2507.04
   23:06:35.194.18-Jul-2021 4247.58 5956.07 69.67 8.00 336.52 2507.04
   23:06:35.394.18-Jul-2021 4247.58 5958.98 69.67 8.00 336.72 2507.04
   23:06:35.595.18-Jul-2021 4247.58 5957.66 69.67 8.00 336.92 2507.04
   23:06:35.795.18-Jul-2021 4247.58 5956.94 69.67 8.00 337.12 2507.04
   23:06:35.995.18-Jul-2021 4247.58 5956.94 69.67 8.00 337.32 2507.04
   23:06:36.195.18-Jul-2021 4247.58 5957.39 69.67 8.00 337.52 2507.04
   23:06:36.395.18-Jul-2021 4247.58 5957.52 69.67 8.00 337.72 2507.04
   23:06:36.595.18-Jul-2021 4247.58 5958.28 69.67 8.00 337.92 2507.04
   23:06:36.795.18-Jul-2021 4247.58 5958.06 69.67 8.00 338.12 2507.04
   23:06:36.995.18-Jul-2021 4247.58 5958.06 69.67 8.00 338.32 2507.04
   23:06:37.195.18-Jul-2021 4247.58 5957.63 69.67 8.00 338.52 2507.04
   23:06:37.395.18-Jul-2021 4247.58 5958.90 69.67 8.00 338.72 2507.04
   23:06:37.595.18-Jul-2021 4247.58 5956.99 69.67 8.00 338.92 2507.04
   23:06:37.795.18-Jul-2021 4247.58 5952.90 69.67 8.00 339.12 2507.04
   23:06:37.995.18-Jul-2021 4247.58 5952.90 69.67 8.00 339.32 2507.04
   23:06:38.195.18-Jul-2021 4247.58 5957.36 69.67 8.00 339.53 2507.04
   23:06:38.396.18-Jul-2021 4247.58 5957.42 69.67 8.00 339.73 2507.04
   23:06:38.596.18-Jul-2021 4247.58 5956.33 69.67 8.00 339.93 2507.04
   23:06:38.796.18-Jul-2021 4247.58 5956.57 69.67 8.00 340.13 2507.04
   23:06:38.996.18-Jul-2021 4247.58 5956.57 69.67 8.00 340.33 2507.04
   23:06:39.196.18-Jul-2021 4247.58 5956.48 69.67 8.00 340.53 2507.04
   23:06:39.396.18-Jul-2021 4247.58 5956.86 69.67 8.00 340.73 2507.04
   23:06:39.596.18-Jul-2021 4247.58 5956.44 69.67 8.00 340.93 2507.04
   23:06:39.796.18-Jul-2021 4247.58 5956.82 69.67 8.00 341.13 2507.04
   23:06:39.996.18-Jul-2021 4247.58 5956.82 69.67 8.00 341.33 2507.04
   23:06:40.196.18-Jul-2021 4247.58 5958.68 69.67 8.00 341.53 2507.04
   23:06:40.396.18-Jul-2021 4247.58 5949.65 69.67 8.00 341.73 2507.04
   23:06:40.596.18-Jul-2021 4247.58 5954.08 69.67 8.00 341.93 2507.04
   23:06:40.796.18-Jul-2021 4247.58 5958.86 69.67 8.00 342.13 2507.04
   23:06:40.996.18-Jul-2021 4247.58 5958.86 69.67 8.00 342.33 2507.04
   23:06:41.197.18-Jul-2021 4247.58 5955.44 69.67 8.00 342.53 2507.04
   23:06:41.397.18-Jul-2021 4247.58 5958.95 69.67 8.00 342.73 2507.04
   23:06:41.597.18-Jul-2021 4247.58 5954.93 69.67 8.00 342.93 2507.04
   23:06:41.797.18-Jul-2021 4247.58 5954.77 69.67 8.00 343.13 2507.04
   23:06:41.997.18-Jul-2021 4247.58 5954.77 69.67 8.00 343.33 2507.04
   23:06:42.197.18-Jul-2021 4247.58 5963.89 69.67 8.00 343.53 2507.04
   23:06:42.397.18-Jul-2021 4247.58 5955.33 69.67 8.00 343.73 2507.04
   23:06:42.597.18-Jul-2021 4247.58 5957.06 69.67 8.00 343.93 2507.04
   23:06:42.797.18-Jul-2021 4247.58 5958.67 69.67 8.00 344.13 2507.04
   23:06:42.997.18-Jul-2021 4247.58 5958.67 69.67 8.00 344.33 2507.04
   23:06:43.197.18-Jul-2021 4247.58 5959.39 69.67 8.00 344.53 2507.04
   23:06:43.397.18-Jul-2021 4247.58 5954.84 69.67 8.00 344.73 2507.04
   23:06:43.597.18-Jul-2021 4247.58 5956.29 69.67 8.00 344.93 2507.04
