~Version Information
 VERS.                  2.0:   CWLS log ASCII Standard -VERSION 2.0
 WRAP.                   NO:   One line per depth step
~Well Information Block
#MNEM.UNIT     VALUE/NAME     DESCRIPTION
#---------     -----------    ---------------------------
 STRT.S             05:46:28 19-Jul-21: START TIME 05:46:28 19-Jul-21
 STOP.S             05:53:09 19-Jul-21: STOP TIME  05:53:09 19-Jul-21
 STEP.S                   0.00: STEP TIME
 NULL.                 -999.25: NULL VALUE
 MDS .        Operator Entered:  MAG DATA SOURCE
 PDAT.          Mean Sea Level:  PERMANENT DATUM
 UNIT.                     N/A:  LOGGING EQUIPMENT ID
 DCON.         Sperry Drilling:  DIRECTNL CONTR
 DOE .                     N/A:  DOE NUMBER
 RIG .              West Azeri:  RIG NAME
 JOBN.        AZ-XX-0906997913:  JOB TICKET NUMB
 WELL.                     C41:  WELL NAME
 MWDS.                    Baku:  MWD SHOP
 SRVC.          Turan Drilling:  CONTRACTOR
 FLD .                     ACG:  FIELD NAME
 CTRY.              Azerbaijan:  COUNTRY NAME
 PROV.                    Baku:  PROVINCE
 STAT.                    Baku:  STATE NAME
 REGN.                   EESSA:  REGION
 BASE.              Azerbaijan:  LOGGING EQUIPMENT BASE LOCATION
 UWI .                     N/A:  UNIQUE WELL IDENTIFIER
 API .                     N/A:  API NUMBER
 COMP.     BP Exploration (Caspian Sea) Ltd.:  COMPANY
 WTYP.                Deviated:  WELL TYPE
 SON .        AZ-XX-0906997913:  JOB NUMBER
 FTOP.          Formation Tops:  FORM TOPS DESC
 ILTD.               Lithology:  INTERP LTH DESC
 SVYD.                  Survey:  SURVEY DESC
 DMOD.             Drill Model:  DRILL MOD DESC
 HPTY.       Minimum Curvature:  HOLE POS TYPE
 NREF.                    Grid:  NORTH REFERENCE
 SPUD.               16-May-21:  SPUD DATE
 DATE.      21.11.28 17-May-21:  END TIME
 STIM.      21.11.28 17-May-21:  START TIME
 DMF .             Drill Floor:  DRILL MEAS FROM
 DFST.                        :  DIST FSL TEXT
 DFWT.                        :  DIST FWL TEXT
 CNTY.                        :  COUNTY
 LOC .                        :  LOCATION
 LMF .             Drill Floor:  LOG MEASURED FROM
 AGAP.m                  43.42:  AIR GAP
 VSNS.m                  -2.16:  VERT SEC N/S
 VSEW.m                  -6.24:  VERT SEC E/W
 APD .m                  43.42:  DEPTH ABOVE PD
 WDMS.m                 118.27:  WD ELEV
 EGL .m                   0.00:  GROUND ELEVATION
 EPD .m                   0.00:  ELEVATION
 AZTC.deg                 6.29:  AZM TOTAL CORR
 GRDC.deg                 0.18:  GRID CORRECTION
 MDEC.deg                 6.47:  MAGNETIC DECL
 MDIP.deg                59.54:  MAGNETIC DIP
 MFLD.nT              50337.00:  MAGNETIC FIELD
 GVFD.g                   1.00:  GRAVITY FIELD
 VSDR.deg               226.99:  VERT SEC DIRECT
 TDD .m                   0.00:  TOTAL DEPTH (DRILLER)
 SDEP.m                 448.00:  START DEPTH
 DFSL.m                   0.00:  DISTANCE FSL
 DFWL.m                   0.00:  DISTANCE FWL
 UTMY.m             4435799.96:  UTM Y
 UTMX.m              526265.35:  UTM X
 WHEW.m                  -6.24:  WELL HEAD E/W
 WHNS.m                  -2.16:  WELL HEAD N/S
 LONG.deg                51.31:  LONGITUDE
 LATI.deg                40.06:  LATITUDE
 TVDS.m                  43.42:  TVDSS CORRECTN
 EKB .m                  43.42:  KB ELEVATION
 EDF .m                  43.42:  DF ELEVATION
 TDL .m                 288.00:  TOTAL DEPTH (LOGGER)
 MAGU.                 1851863:  MAGUTM CHECKSUM
 VSC .                       0:  VS TO CLOSURE
~Parameter Information Block
#MNEM.UNIT       Value        Description
#---------     -----------    ---------------------------
 AV  .mps                 0.40:  Ann Velocity 
 AVMX.mps                 0.63:  Max Ann Veloc 
 AZIF.deg               158.76:  Azm, Final 
 BHAT.        Rotary Steerable:  BHA Type 
 BROT.°/30m               0.68:  Build Rotating 
 BS  .in                  8.50:  Bit Size 
 BSZ .in                  8.50:  Bit Size 
 BTPL.psig              712.00:  Bit Press Loss 
 CABU.                      No:  Customer Abuse 
 COMM.                     l%v:  Run Comments 1 
 TCS .hr                 90.66:  Time Ciculation Ended 
 CV  .mps                 2.02:  Crit Velocity 
 CVMX.mps                 2.14:  Max Crit Veloc 
 DD1 .            Aziz Aliyevu:  Direct Drillr 1 
 DD2 .             Samir Abbas:  Direct Drillr 2 
 DD3 .           Teymur Aliyev:  Direct Drillr 3 
 DDSV.                 iCruise:  DD Service 
 DEFF.%                  85.10:  % Det Eff 
 DLRX.°/30m               1.05:  Dogleg Rot Max 
 DLSO.°/30m               1.01:  Dogleg Oriented 
 DLSX.°/30m               1.05:  Dogleg Str Max 
 DRET.      07.45.00 18-Jul-21:  Drill End Time 
 DRST.      15.00.00 16-Jul-21:  Drill Start Tim 
 DTIM.hr                 23.46:  Time Drilling 
 EDEP.m                4603.00:  End Depth 
 ENG1.       Seymur Iskandarov:  Engineer 1 
 ENG2.         Yevgeniy Ulikov:  Engineer 2 
 ENG3.         Bahruz Mehdiyev:  Engineer 3 
 ENG4.         Elchin Mammadov:  Engineer 4 
 ETIM.      14.00.00 23-Jul-21:  End Time 
 FLOI.gpm               500.00:  Flow In 
 FLON.gpm               450.00:  Flow In Min 
 FLOS.cptm                0.00:  Fluid Loss 
 FLOX.gpm               560.00:  Flow In Max 
 DFT .        Mineral Oil Base:  Mud Type 
 FTRO.       Formation Presure:  FTWD Run Obj 
 HFLO.                      No:  High Flow 
 HPRE.                      No:  High Pressure 
 HTEM.                      No:  High Temp 
 HYDO.m                   1.80:  Hydro Offset 
 IFIN.deg                40.22:  Inc, Final 
 IMAX.deg                40.54:  Inc Max 
 IMIN.deg                39.44:  Inc Min 
 IMND.m                4361.17:  Inc Min Depth 
 IMXD.m                4417.92:  Inc Max Depth 
 JARR.                      No:  Jarring 
 LETM.      07.45.00 18-Jul-21:  Log End Time 
 LOST.hr                    16:  Lost Rig Time 
 LSTM.      15.00.00 16-Jul-21:  Log Start Time 
 MDCL.ppm             36500.00:  Mud Chlorides 
 MDES.     Inversion Oil/Synthetic:  Mud Desc 
 DFD .sg                  1.42:  Mud Density 
 MDMN.sg                  1.42:  Dens Mud Min 
 MDMX.sg                  1.43:  Dens Mud Max 
 MOIL.                      56:  Run Mud Oil % 
 MOWR.                   71:29:  Run Mud OWR 
 MSND.                     0.5:  Run Mud Sand % 
 MSOL.                      21:  Run Mud Solids% 
 DFV .spqt               78.00:  Mud Viscosity 
 MWOD.in                  6.75:  MWD Tool OD 
 MWSI.                     Yes:  Serv Intrp, MWD 
 OTIM.hr                200.73:  Time Operating 
 PCON.           Look Like New:  Pad Condition 
 PMAX.psia            11069.93:  Press Op, Max 
 PV  .cP                 32.00:  Mud PV 
 RUN .                     700:  Run Number 
 ROPA.m/hr               10.00:  ROP Avg 
 ROPN.m/hr                9.00:  ROP Min 
 ROPX.m/hr               16.00:  ROP Max 
 RPMA.rpm               116.00:  RPM Surface Avg 
 RPMN.rpm                80.00:  RPM Surface Min 
 RPMX.rpm               120.00:  RPM Surface Max 
 RRUN.                    L605:  Rig Run Number 
 RTIM.hr                 45.00:  Time Reaming 
 SAZI.deg               159.86:  Azm, Start 
 SDEP.m                4315.00:  Start Depth 
 SIDD.                      No:  Serv Intrp, DD 
 SINC.deg                39.86:  Inc, Start 
 SPPA.psig             3300.00:  SPP Avg 
 SPPN.psig             3040.00:  SPP Min 
 SPPX.psig             3645.00:  SPP Max 
 STIM.      01.00.00 15-Jul-21:  Start Time 
 SVCS.                 DD, MWD:  Services 
 SVER.                    9.20:  Sperry Version 
 TDAT.m                 288.00:  Tot Depth Attmp 
 TDDF.                      No:  Trip for DD 
 TDLG.m                 288.00:  Tot Depth Loggd 
 TFF .                      No:  Trip for Fail 
 TQAA.f-kp               19.00:  Torque Abs Avg 
 TQAN.f-kp               18.00:  Torque Abs Min 
 TQAX.f-kp               21.00:  Torque Abs Max 
 TRRT.°/30m               0.45:  Turn Rotating 
 MRT .                    HCIM:  Maximum Recorded Temperature 
 TTMX.degC               88.24:  Max Tool Temp 
 VS01.                90649157:  Virtual Str1 SN 
 VS02.                90652483:  Virtual Str2 SN 
 VS03.                11671987:  Virtual Str3 SN 
 VS04.                90643411:  Virtual Str4 SN 
 VS05.                90652478:  Virtual Str5 SN 
 VS06.                    6111:  Virtual Str6 SN 
 WBMN.klb                 9.50:  WOB Min 
 WITN.        Grigoriy Sarayev:  Customer Rep 
 WITN.          Rufat Huseynov:  Customer Rep 2 
 WOBA.klb                11.00:  WOB Avg 
 WOBX.klb                15.00:  WOB Max 
 YP  .lhf2               28.00:  Yield Point 
~Curve Information Block
#MNEM.UNIT                 API CODE     Curve Description
#---------               -----------    ---------------------------
 TIME.HHMMSS            00 000 000 000:  GT Time & Date
 GTDEPTH.m              00 000 000 000:  GT Depth
 GTPQH.psia             00 000 000 000:  GT HR Quartz Pressure
 GTTQ.degC              00 000 000 000:  GT Quartz Temperature
 GTTN.NONE              00 000 000 000:  GT Test Number
 GTET.sec               00 000 000 000:  GT Elapsed Test Time
 GTTVD.m                00 000 000 000:  GT True Vertical Depth
#Other Information
#
#WARRANTY: Halliburton will use its best efforts to furnish customers with 
#accurate information and interpretations that are part of, and incident to, the services 
#provided.  However, Halliburton cannot and does not warrant the accuracy 
#or correctness of such information and interpretations.  Under no circumstances should any 
#such information or interpretation be relied upon as the sole basis for any drilling, 
#completion, production, or financial decision or any procedure involving any risk to the 
#safety of any drilling venture, drilling rig or its crew or any other third party.  The 
#Customer has full responsibility for all drilling, completion and production operation.  
#Halliburton makes no representations or warranties, either expressed or 
#implied, including, but not limited to, the implied warranties of merchantability or fitness 
#for a particular purpose, with respect to the services rendered.  In no event will 
#Halliburton be liable for failure to obtain any particular results or for 
#any damages, including, but not limited to, indirect, special or consequential damages, 
#resulting from the use of any information or interpretation provided by Halliburton.
#
~A           TIME           GTDEPTH  GTPQH  GTTQ  GTTN   GTET   GTTVD  
# ...
   05:49:29.496.19-Jul-2021 4380.50 4027.13 69.34 13.00 180.87 2608.98
   05:49:29.696.19-Jul-2021 4380.50 4031.15 69.34 13.00 181.07 2608.98
   05:49:29.896.19-Jul-2021 4380.50 4031.15 69.34 13.00 181.27 2608.98
   05:49:30.096.19-Jul-2021 4380.50 4037.87 69.34 13.00 181.47 2608.98
   05:49:30.296.19-Jul-2021 4380.50 4041.23 69.34 13.00 181.67 2608.98
   05:49:30.496.19-Jul-2021 4380.50 4044.88 69.34 13.00 181.87 2608.98
   05:49:30.696.19-Jul-2021 4380.50 4047.01 69.34 13.00 182.07 2608.98
   05:49:30.896.19-Jul-2021 4380.50 4047.01 69.34 13.00 182.27 2608.98
   05:49:31.096.19-Jul-2021 4380.50 4053.99 69.34 13.00 182.47 2608.98
   05:49:31.296.19-Jul-2021 4380.50 4057.56 69.34 13.00 182.67 2608.98
   05:49:31.496.19-Jul-2021 4380.50 4060.20 69.34 13.00 182.87 2608.98
   05:49:31.696.19-Jul-2021 4380.50 4061.96 69.34 13.00 183.07 2608.98
   05:49:31.896.19-Jul-2021 4380.50 4061.96 69.34 13.00 183.27 2608.98
   05:49:32.097.19-Jul-2021 4380.50 4068.69 69.34 13.00 183.47 2608.98
   05:49:32.297.19-Jul-2021 4380.50 4071.91 69.34 13.00 183.67 2608.98
   05:49:32.497.19-Jul-2021 4380.50 4074.21 69.34 13.00 183.87 2608.98
   05:49:32.697.19-Jul-2021 4380.50 4076.94 69.35 13.00 184.07 2608.98
   05:49:32.897.19-Jul-2021 4380.50 4076.94 69.35 13.00 184.27 2608.98
   05:49:33.097.19-Jul-2021 4380.50 4082.07 69.35 13.00 184.47 2608.98
   05:49:33.297.19-Jul-2021 4380.50 4084.53 69.35 13.00 184.67 2608.98
   05:49:33.497.19-Jul-2021 4380.50 4086.95 69.35 13.00 184.87 2608.98
   05:49:33.697.19-Jul-2021 4380.50 4089.32 69.35 13.00 185.07 2608.98
   05:49:33.897.19-Jul-2021 4380.50 4089.32 69.35 13.00 185.27 2608.98
   05:49:34.097.19-Jul-2021 4380.50 4093.93 69.35 13.00 185.47 2608.98
   05:49:34.297.19-Jul-2021 4380.50 4096.14 69.35 13.00 185.67 2608.98
   05:49:34.497.19-Jul-2021 4380.50 4096.71 69.35 13.00 185.87 2608.98
   05:49:34.697.19-Jul-2021 4380.50 4100.37 69.35 13.00 186.07 2608.98
   05:49:34.898.19-Jul-2021 4380.50 4100.37 69.35 13.00 186.27 2608.98
   05:49:35.098.19-Jul-2021 4380.50 4104.47 69.35 13.00 186.47 2608.98
   05:49:35.298.19-Jul-2021 4380.50 4106.12 69.35 13.00 186.67 2608.98
   05:49:35.498.19-Jul-2021 4380.50 4108.08 69.35 13.00 186.87 2608.98
   05:49:35.698.19-Jul-2021 4380.50 4109.87 69.35 13.00 187.07 2608.98
   05:49:35.898.19-Jul-2021 4380.50 4109.87 69.35 13.00 187.27 2608.98
   05:49:36.098.19-Jul-2021 4380.50 4113.57 69.35 13.00 187.47 2608.98
   05:49:36.298.19-Jul-2021 4380.50 4115.35 69.35 13.00 187.67 2608.98
   05:49:36.498.19-Jul-2021 4380.50 4117.09 69.35 13.00 187.87 2608.98
   05:49:36.698.19-Jul-2021 4380.50 4118.86 69.35 13.00 188.07 2608.98
   05:49:36.898.19-Jul-2021 4380.50 4118.86 69.35 13.00 188.27 2608.98
   05:49:37.098.19-Jul-2021 4380.50 4120.85 69.35 13.00 188.47 2608.98
   05:49:37.298.19-Jul-2021 4380.50 4123.43 69.35 13.00 188.67 2608.98
   05:49:37.499.19-Jul-2021 4380.50 4125.03 69.35 13.00 188.87 2608.98
   05:49:37.699.19-Jul-2021 4380.50 4125.98 69.35 13.00 189.07 2608.98
   05:49:37.899.19-Jul-2021 4380.50 4125.98 69.35 13.00 189.27 2608.98
   05:49:38.099.19-Jul-2021 4380.50 4129.37 69.35 13.00 189.47 2608.98
   05:49:38.299.19-Jul-2021 4380.50 4129.90 69.35 13.00 189.67 2608.98
   05:49:38.499.19-Jul-2021 4380.50 4131.97 69.35 13.00 189.87 2608.98
   05:49:38.699.19-Jul-2021 4380.50 4133.47 69.35 13.00 190.07 2608.98
   05:49:38.899.19-Jul-2021 4380.50 4133.47 69.35 13.00 190.27 2608.98
   05:49:39.099.19-Jul-2021 4380.50 4135.83 69.35 13.00 190.47 2608.98
   05:49:39.299.19-Jul-2021 4380.50 4136.62 69.35 13.00 190.67 2608.98
   05:49:39.499.19-Jul-2021 4380.50 4138.15 69.35 13.00 190.87 2608.98
   05:49:39.699.19-Jul-2021 4380.50 4139.71 69.35 13.00 191.07 2608.98
   05:49:39.899.19-Jul-2021 4380.50 4139.71 69.35 13.00 191.27 2608.98
   05:49:40.099.19-Jul-2021 4380.50 4142.00 69.35 13.00 191.47 2608.98
   05:49:40.300.19-Jul-2021 4380.50 4143.16 69.35 13.00 191.67 2608.98
   05:49:40.500.19-Jul-2021 4380.50 4144.54 69.35 13.00 191.87 2608.98
   05:49:40.700.19-Jul-2021 4380.50 4145.37 69.35 13.00 192.07 2608.98
   05:49:40.900.19-Jul-2021 4380.50 4145.37 69.35 13.00 192.27 2608.98
   05:49:41.100.19-Jul-2021 4380.50 4147.45 69.35 13.00 192.47 2608.98
   05:49:41.300.19-Jul-2021 4380.50 4148.53 69.35 13.00 192.67 2608.98
   05:49:41.500.19-Jul-2021 4380.50 4149.52 69.35 13.00 192.87 2608.98
   05:49:41.700.19-Jul-2021 4380.50 4150.53 69.35 13.00 193.07 2608.98
   05:49:41.900.19-Jul-2021 4380.50 4150.53 69.35 13.00 193.27 2608.98
   05:49:42.100.19-Jul-2021 4380.50 4152.49 69.35 13.00 193.47 2608.98
   05:49:42.300.19-Jul-2021 4380.50 4153.52 69.35 13.00 193.67 2608.98
   05:49:42.500.19-Jul-2021 4380.50 4154.45 69.35 13.00 193.87 2608.98
   05:49:42.700.19-Jul-2021 4380.50 4153.86 69.35 13.00 194.07 2608.98
   05:49:42.901.19-Jul-2021 4380.50 4153.86 69.35 13.00 194.27 2608.98
   05:49:43.101.19-Jul-2021 4380.50 4157.07 69.35 13.00 194.47 2608.98
   05:49:43.301.19-Jul-2021 4380.50 4158.26 69.35 13.00 194.67 2608.98
   05:49:43.501.19-Jul-2021 4380.50 4158.86 69.35 13.00 194.87 2608.98
   05:49:43.701.19-Jul-2021 4380.50 4159.70 69.35 13.00 195.07 2608.98
   05:49:43.901.19-Jul-2021 4380.50 4159.70 69.35 13.00 195.27 2608.98
   05:49:44.101.19-Jul-2021 4380.50 4161.21 69.35 13.00 195.47 2608.98
   05:49:44.301.19-Jul-2021 4380.50 4162.01 69.35 13.00 195.67 2608.98
   05:49:44.501.19-Jul-2021 4380.50 4162.77 69.35 13.00 195.87 2608.98
   05:49:44.701.19-Jul-2021 4380.50 4163.49 69.35 13.00 196.07 2608.98
   05:49:44.901.19-Jul-2021 4380.50 4163.49 69.35 13.00 196.27 2608.98
   05:49:45.101.19-Jul-2021 4380.50 4165.05 69.35 13.00 196.47 2608.98
   05:49:45.301.19-Jul-2021 4380.50 4164.27 69.35 13.00 196.67 2608.98
   05:49:45.501.19-Jul-2021 4380.50 4166.82 69.35 13.00 196.87 2608.98
   05:49:45.702.19-Jul-2021 4380.50 4167.20 69.35 13.00 197.07 2608.98
   05:49:45.902.19-Jul-2021 4380.50 4167.20 69.35 13.00 197.27 2608.98
   05:49:46.102.19-Jul-2021 4380.50 4168.29 69.35 13.00 197.47 2608.98
   05:49:46.302.19-Jul-2021 4380.50 4169.07 69.35 13.00 197.67 2608.98
   05:49:46.502.19-Jul-2021 4380.50 4168.63 69.35 13.00 197.87 2608.98
   05:49:46.702.19-Jul-2021 4380.50 4170.31 69.35 13.00 198.07 2608.98
   05:49:46.902.19-Jul-2021 4380.50 4170.31 69.35 13.00 198.27 2608.98
   05:49:47.102.19-Jul-2021 4380.50 4170.30 69.35 13.00 198.47 2608.98
   05:49:47.302.19-Jul-2021 4380.50 4171.74 69.35 13.00 198.67 2608.98
   05:49:47.502.19-Jul-2021 4380.50 4172.29 69.35 13.00 198.87 2608.98
   05:49:47.702.19-Jul-2021 4380.50 4171.75 69.35 13.00 199.07 2608.98
   05:49:47.902.19-Jul-2021 4380.50 4171.75 69.35 13.00 199.27 2608.98
   05:49:48.102.19-Jul-2021 4380.50 4173.50 69.35 13.00 199.47 2608.98
   05:49:48.303.19-Jul-2021 4380.50 4174.32 69.35 13.00 199.67 2608.98
   05:49:48.503.19-Jul-2021 4380.50 4174.57 69.35 13.00 199.87 2608.98
   05:49:48.703.19-Jul-2021 4380.50 4175.12 69.35 13.00 200.07 2608.98
   05:49:48.903.19-Jul-2021 4380.50 4175.12 69.35 13.00 200.27 2608.98
   05:49:49.103.19-Jul-2021 4380.50 4176.18 69.35 13.00 200.47 2608.98
   05:49:49.303.19-Jul-2021 4380.50 4176.69 69.35 13.00 200.67 2608.98
   05:49:49.503.19-Jul-2021 4380.50 4177.18 69.35 13.00 200.87 2608.98
   05:49:49.703.19-Jul-2021 4380.50 4177.70 69.35 13.00 201.07 2608.98
   05:49:49.903.19-Jul-2021 4380.50 4177.70 69.35 13.00 201.27 2608.98
   05:49:50.103.19-Jul-2021 4380.50 4178.69 69.35 13.00 201.47 2608.98
   05:49:50.303.19-Jul-2021 4380.50 4178.59 69.35 13.00 201.67 2608.98
   05:49:50.503.19-Jul-2021 4380.50 4179.33 69.35 13.00 201.87 2608.98
   05:49:50.703.19-Jul-2021 4380.50 4180.18 69.35 13.00 202.07 2608.98
   05:49:50.903.19-Jul-2021 4380.50 4180.18 69.35 13.00 202.27 2608.98
   05:49:51.104.19-Jul-2021 4380.50 4181.10 69.35 13.00 202.47 2608.98
   05:49:51.304.19-Jul-2021 4380.50 4181.40 69.35 13.00 202.67 2608.98
   05:49:51.504.19-Jul-2021 4380.50 4181.94 69.35 13.00 202.87 2608.98
   05:49:51.704.19-Jul-2021 4380.50 4182.39 69.35 13.00 203.07 2608.98
   05:49:51.904.19-Jul-2021 4380.50 4182.39 69.35 13.00 203.27 2608.98
