~Version Information
 VERS.                  2.0:   CWLS log ASCII Standard -VERSION 2.0
 WRAP.                   NO:   One line per depth step
~Well Information Block
#MNEM.UNIT     VALUE/NAME     DESCRIPTION
#---------     -----------    ---------------------------
 STRT.S             17:59:38 18-Jul-21: START TIME 17:59:38 18-Jul-21
 STOP.S             18:06:07 18-Jul-21: STOP TIME  18:06:07 18-Jul-21
 STEP.S                   0.00: STEP TIME
 NULL.                 -999.25: NULL VALUE
 MDS .        Operator Entered:  MAG DATA SOURCE
 PDAT.          Mean Sea Level:  PERMANENT DATUM
 UNIT.                     N/A:  LOGGING EQUIPMENT ID
 DCON.         Sperry Drilling:  DIRECTNL CONTR
 DOE .                     N/A:  DOE NUMBER
 RIG .              West Azeri:  RIG NAME
 JOBN.        AZ-XX-0906997913:  JOB TICKET NUMB
 WELL.                     C41:  WELL NAME
 MWDS.                    Baku:  MWD SHOP
 SRVC.          Turan Drilling:  CONTRACTOR
 FLD .                     ACG:  FIELD NAME
 CTRY.              Azerbaijan:  COUNTRY NAME
 PROV.                    Baku:  PROVINCE
 STAT.                    Baku:  STATE NAME
 REGN.                   EESSA:  REGION
 BASE.              Azerbaijan:  LOGGING EQUIPMENT BASE LOCATION
 UWI .                     N/A:  UNIQUE WELL IDENTIFIER
 API .                     N/A:  API NUMBER
 COMP.     BP Exploration (Caspian Sea) Ltd.:  COMPANY
 WTYP.                Deviated:  WELL TYPE
 SON .        AZ-XX-0906997913:  JOB NUMBER
 FTOP.          Formation Tops:  FORM TOPS DESC
 ILTD.               Lithology:  INTERP LTH DESC
 SVYD.                  Survey:  SURVEY DESC
 DMOD.             Drill Model:  DRILL MOD DESC
 HPTY.       Minimum Curvature:  HOLE POS TYPE
 NREF.                    Grid:  NORTH REFERENCE
 SPUD.               16-May-21:  SPUD DATE
 DATE.      21.11.28 17-May-21:  END TIME
 STIM.      21.11.28 17-May-21:  START TIME
 DMF .             Drill Floor:  DRILL MEAS FROM
 DFST.                        :  DIST FSL TEXT
 DFWT.                        :  DIST FWL TEXT
 CNTY.                        :  COUNTY
 LOC .                        :  LOCATION
 LMF .             Drill Floor:  LOG MEASURED FROM
 AGAP.m                  43.42:  AIR GAP
 VSNS.m                  -2.16:  VERT SEC N/S
 VSEW.m                  -6.24:  VERT SEC E/W
 APD .m                  43.42:  DEPTH ABOVE PD
 WDMS.m                 118.27:  WD ELEV
 EGL .m                   0.00:  GROUND ELEVATION
 EPD .m                   0.00:  ELEVATION
 AZTC.deg                 6.29:  AZM TOTAL CORR
 GRDC.deg                 0.18:  GRID CORRECTION
 MDEC.deg                 6.47:  MAGNETIC DECL
 MDIP.deg                59.54:  MAGNETIC DIP
 MFLD.nT              50337.00:  MAGNETIC FIELD
 GVFD.g                   1.00:  GRAVITY FIELD
 VSDR.deg               226.99:  VERT SEC DIRECT
 TDD .m                   0.00:  TOTAL DEPTH (DRILLER)
 SDEP.m                 448.00:  START DEPTH
 DFSL.m                   0.00:  DISTANCE FSL
 DFWL.m                   0.00:  DISTANCE FWL
 UTMY.m             4435799.96:  UTM Y
 UTMX.m              526265.35:  UTM X
 WHEW.m                  -6.24:  WELL HEAD E/W
 WHNS.m                  -2.16:  WELL HEAD N/S
 LONG.deg                51.31:  LONGITUDE
 LATI.deg                40.06:  LATITUDE
 TVDS.m                  43.42:  TVDSS CORRECTN
 EKB .m                  43.42:  KB ELEVATION
 EDF .m                  43.42:  DF ELEVATION
 TDL .m                 288.00:  TOTAL DEPTH (LOGGER)
 MAGU.                 1851863:  MAGUTM CHECKSUM
 VSC .                       0:  VS TO CLOSURE
~Parameter Information Block
#MNEM.UNIT       Value        Description
#---------     -----------    ---------------------------
 AV  .mps                 0.40:  Ann Velocity 
 AVMX.mps                 0.63:  Max Ann Veloc 
 AZIF.deg               158.76:  Azm, Final 
 BHAT.        Rotary Steerable:  BHA Type 
 BROT.°/30m               0.68:  Build Rotating 
 BS  .in                  8.50:  Bit Size 
 BSZ .in                  8.50:  Bit Size 
 BTPL.psig              712.00:  Bit Press Loss 
 CABU.                      No:  Customer Abuse 
 COMM.                     Ä"ƒ:  Run Comments 1 
 TCS .hr                 90.66:  Time Ciculation Ended 
 CV  .mps                 2.02:  Crit Velocity 
 CVMX.mps                 2.14:  Max Crit Veloc 
 DD1 .            Aziz Aliyevu:  Direct Drillr 1 
 DD2 .             Samir Abbas:  Direct Drillr 2 
 DD3 .           Teymur Aliyev:  Direct Drillr 3 
 DDSV.                 iCruise:  DD Service 
 DEFF.%                  85.10:  % Det Eff 
 DLRX.°/30m               1.05:  Dogleg Rot Max 
 DLSO.°/30m               1.01:  Dogleg Oriented 
 DLSX.°/30m               1.05:  Dogleg Str Max 
 DRET.      07.45.00 18-Jul-21:  Drill End Time 
 DRST.      15.00.00 16-Jul-21:  Drill Start Tim 
 DTIM.hr                 23.46:  Time Drilling 
 EDEP.m                4603.00:  End Depth 
 ENG1.       Seymur Iskandarov:  Engineer 1 
 ENG2.         Yevgeniy Ulikov:  Engineer 2 
 ENG3.         Bahruz Mehdiyev:  Engineer 3 
 ENG4.         Elchin Mammadov:  Engineer 4 
 ETIM.      14.00.00 23-Jul-21:  End Time 
 FLOI.gpm               500.00:  Flow In 
 FLON.gpm               450.00:  Flow In Min 
 FLOS.cptm                0.00:  Fluid Loss 
 FLOX.gpm               560.00:  Flow In Max 
 DFT .        Mineral Oil Base:  Mud Type 
 FTRO.       Formation Presure:  FTWD Run Obj 
 HFLO.                      No:  High Flow 
 HPRE.                      No:  High Pressure 
 HTEM.                      No:  High Temp 
 HYDO.m                   1.80:  Hydro Offset 
 IFIN.deg                40.22:  Inc, Final 
 IMAX.deg                40.54:  Inc Max 
 IMIN.deg                39.44:  Inc Min 
 IMND.m                4361.17:  Inc Min Depth 
 IMXD.m                4417.92:  Inc Max Depth 
 JARR.                      No:  Jarring 
 LETM.      07.45.00 18-Jul-21:  Log End Time 
 LOST.hr                    16:  Lost Rig Time 
 LSTM.      15.00.00 16-Jul-21:  Log Start Time 
 MDCL.ppm             36500.00:  Mud Chlorides 
 MDES.     Inversion Oil/Synthetic:  Mud Desc 
 DFD .sg                  1.42:  Mud Density 
 MDMN.sg                  1.42:  Dens Mud Min 
 MDMX.sg                  1.43:  Dens Mud Max 
 MOIL.                      56:  Run Mud Oil % 
 MOWR.                   71:29:  Run Mud OWR 
 MSND.                     0.5:  Run Mud Sand % 
 MSOL.                      21:  Run Mud Solids% 
 DFV .spqt               78.00:  Mud Viscosity 
 MWOD.in                  6.75:  MWD Tool OD 
 MWSI.                     Yes:  Serv Intrp, MWD 
 OTIM.hr                200.73:  Time Operating 
 PCON.           Look Like New:  Pad Condition 
 PMAX.psia            11069.93:  Press Op, Max 
 PV  .cP                 32.00:  Mud PV 
 RUN .                     700:  Run Number 
 ROPA.m/hr               10.00:  ROP Avg 
 ROPN.m/hr                9.00:  ROP Min 
 ROPX.m/hr               16.00:  ROP Max 
 RPMA.rpm               116.00:  RPM Surface Avg 
 RPMN.rpm                80.00:  RPM Surface Min 
 RPMX.rpm               120.00:  RPM Surface Max 
 RRUN.                    L605:  Rig Run Number 
 RTIM.hr                 45.00:  Time Reaming 
 SAZI.deg               159.86:  Azm, Start 
 SDEP.m                4315.00:  Start Depth 
 SIDD.                      No:  Serv Intrp, DD 
 SINC.deg                39.86:  Inc, Start 
 SPPA.psig             3300.00:  SPP Avg 
 SPPN.psig             3040.00:  SPP Min 
 SPPX.psig             3645.00:  SPP Max 
 STIM.      01.00.00 15-Jul-21:  Start Time 
 SVCS.                 DD, MWD:  Services 
 SVER.                    9.20:  Sperry Version 
 TDAT.m                 288.00:  Tot Depth Attmp 
 TDDF.                      No:  Trip for DD 
 TDLG.m                 288.00:  Tot Depth Loggd 
 TFF .                      No:  Trip for Fail 
 TQAA.f-kp               19.00:  Torque Abs Avg 
 TQAN.f-kp               18.00:  Torque Abs Min 
 TQAX.f-kp               21.00:  Torque Abs Max 
 TRRT.°/30m               0.45:  Turn Rotating 
 MRT .                    HCIM:  Maximum Recorded Temperature 
 TTMX.degC               88.24:  Max Tool Temp 
 VS01.                90649157:  Virtual Str1 SN 
 VS02.                90652483:  Virtual Str2 SN 
 VS03.                11671987:  Virtual Str3 SN 
 VS04.                90643411:  Virtual Str4 SN 
 VS05.                90652478:  Virtual Str5 SN 
 VS06.                    6111:  Virtual Str6 SN 
 WBMN.klb                 9.50:  WOB Min 
 WITN.        Grigoriy Sarayev:  Customer Rep 
 WITN.          Rufat Huseynov:  Customer Rep 2 
 WOBA.klb                11.00:  WOB Avg 
 WOBX.klb                15.00:  WOB Max 
 YP  .lhf2               28.00:  Yield Point 
~Curve Information Block
#MNEM.UNIT                 API CODE     Curve Description
#---------               -----------    ---------------------------
 TIME.HHMMSS            00 000 000 000:  GT Time & Date
 GTDEPTH.m              00 000 000 000:  GT Depth
 GTPQH.psia             00 000 000 000:  GT HR Quartz Pressure
 GTTQ.degC              00 000 000 000:  GT Quartz Temperature
 GTTN.NONE              00 000 000 000:  GT Test Number
 GTET.sec               00 000 000 000:  GT Elapsed Test Time
 GTTVD.m                00 000 000 000:  GT True Vertical Depth
#Other Information
#
#WARRANTY: Halliburton will use its best efforts to furnish customers with 
#accurate information and interpretations that are part of, and incident to, the services 
#provided.  However, Halliburton cannot and does not warrant the accuracy 
#or correctness of such information and interpretations.  Under no circumstances should any 
#such information or interpretation be relied upon as the sole basis for any drilling, 
#completion, production, or financial decision or any procedure involving any risk to the 
#safety of any drilling venture, drilling rig or its crew or any other third party.  The 
#Customer has full responsibility for all drilling, completion and production operation.  
#Halliburton makes no representations or warranties, either expressed or 
#implied, including, but not limited to, the implied warranties of merchantability or fitness 
#for a particular purpose, with respect to the services rendered.  In no event will 
#Halliburton be liable for failure to obtain any particular results or for 
#any damages, including, but not limited to, indirect, special or consequential damages, 
#resulting from the use of any information or interpretation provided by Halliburton.
#
~A           TIME           GTDEPTH  GTPQH  GTTQ  GTTN  GTET   GTTVD  
# ...
   18:04:37.123.18-Jul-2021 4487.50 5789.85 73.21 7.00 299.11 2690.71
   18:04:37.323.18-Jul-2021 4487.50 5789.85 73.21 7.00 299.31 2690.71
   18:04:37.523.18-Jul-2021 4487.50 5790.01 73.21 7.00 299.51 2690.71
   18:04:37.723.18-Jul-2021 4487.50 5789.99 73.21 7.00 299.71 2690.71
   18:04:37.923.18-Jul-2021 4487.50 5789.97 73.21 7.00 299.91 2690.71
   18:04:38.123.18-Jul-2021 4487.50 5789.97 73.21 7.00 300.11 2690.71
   18:04:38.324.18-Jul-2021 4487.50 5789.97 73.21 7.00 300.31 2690.71
   18:04:38.524.18-Jul-2021 4487.50 5789.91 73.21 7.00 300.51 2690.71
   18:04:38.724.18-Jul-2021 4487.50 5790.03 73.21 7.00 300.71 2690.71
   18:04:38.924.18-Jul-2021 4487.50 5790.07 73.21 7.00 300.91 2690.71
   18:04:39.124.18-Jul-2021 4487.50 5790.02 73.21 7.00 301.11 2690.71
   18:04:39.324.18-Jul-2021 4487.50 5790.02 73.21 7.00 301.31 2690.71
   18:04:39.524.18-Jul-2021 4487.50 5789.70 73.21 7.00 301.51 2690.71
   18:04:39.724.18-Jul-2021 4487.50 5790.06 73.21 7.00 301.71 2690.71
   18:04:39.924.18-Jul-2021 4487.50 5788.14 73.21 7.00 301.91 2690.71
   18:04:40.124.18-Jul-2021 4487.50 5790.18 73.21 7.00 302.11 2690.71
   18:04:40.324.18-Jul-2021 4487.50 5790.18 73.21 7.00 302.31 2690.71
   18:04:40.524.18-Jul-2021 4487.50 5790.41 73.21 7.00 302.51 2690.71
   18:04:40.724.18-Jul-2021 4487.50 5789.86 73.21 7.00 302.71 2690.71
   18:04:40.925.18-Jul-2021 4487.50 5788.71 73.21 7.00 302.91 2690.71
   18:04:41.125.18-Jul-2021 4487.50 5789.37 73.21 7.00 303.11 2690.71
   18:04:41.325.18-Jul-2021 4487.50 5789.37 73.21 7.00 303.31 2690.71
   18:04:41.525.18-Jul-2021 4487.50 5789.94 73.21 7.00 303.51 2690.71
   18:04:41.725.18-Jul-2021 4487.50 5788.22 73.21 7.00 303.71 2690.71
   18:04:41.925.18-Jul-2021 4487.50 5789.72 73.21 7.00 303.91 2690.71
   18:04:42.125.18-Jul-2021 4487.50 5789.48 73.21 7.00 304.11 2690.71
   18:04:42.325.18-Jul-2021 4487.50 5789.48 73.21 7.00 304.31 2690.71
   18:04:42.525.18-Jul-2021 4487.50 5789.10 73.20 7.00 304.51 2690.71
   18:04:42.725.18-Jul-2021 4487.50 5787.80 73.21 7.00 304.71 2690.71
   18:04:42.925.18-Jul-2021 4487.50 5789.24 73.20 7.00 304.91 2690.71
   18:04:43.125.18-Jul-2021 4487.50 5789.05 73.21 7.00 305.11 2690.71
   18:04:43.325.18-Jul-2021 4487.50 5789.05 73.21 7.00 305.31 2690.71
   18:04:43.525.18-Jul-2021 4487.50 5789.05 73.20 7.00 305.51 2690.71
   18:04:43.726.18-Jul-2021 4487.50 5789.07 73.20 7.00 305.71 2690.71
   18:04:43.926.18-Jul-2021 4487.50 5789.00 73.20 7.00 305.91 2690.71
   18:04:44.126.18-Jul-2021 4487.50 5789.01 73.20 7.00 306.11 2690.71
   18:04:44.326.18-Jul-2021 4487.50 5789.01 73.20 7.00 306.31 2690.71
   18:04:44.526.18-Jul-2021 4487.50 5788.92 73.20 7.00 306.51 2690.71
   18:04:44.726.18-Jul-2021 4487.50 5789.02 73.20 7.00 306.71 2690.71
   18:04:44.926.18-Jul-2021 4487.50 5788.95 73.20 7.00 306.91 2690.71
   18:04:45.126.18-Jul-2021 4487.50 5788.85 73.20 7.00 307.11 2690.71
   18:04:45.326.18-Jul-2021 4487.50 5788.85 73.20 7.00 307.31 2690.71
   18:04:45.526.18-Jul-2021 4487.50 5787.35 73.20 7.00 307.51 2690.71
   18:04:45.726.18-Jul-2021 4487.50 5788.60 73.20 7.00 307.71 2690.71
   18:04:45.926.18-Jul-2021 4487.50 5788.45 73.20 7.00 307.91 2690.71
   18:04:46.126.18-Jul-2021 4487.50 5788.86 73.20 7.00 308.11 2690.71
   18:04:46.326.18-Jul-2021 4487.50 5788.86 73.20 7.00 308.31 2690.71
   18:04:46.527.18-Jul-2021 4487.50 5788.53 73.20 7.00 308.51 2690.71
   18:04:46.727.18-Jul-2021 4487.50 5788.57 73.20 7.00 308.71 2690.71
   18:04:46.927.18-Jul-2021 4487.50 5788.45 73.20 7.00 308.91 2690.71
   18:04:47.127.18-Jul-2021 4487.50 5788.40 73.20 7.00 309.11 2690.71
   18:04:47.327.18-Jul-2021 4487.50 5788.40 73.20 7.00 309.31 2690.71
   18:04:47.527.18-Jul-2021 4487.50 5788.56 73.20 7.00 309.51 2690.71
   18:04:47.727.18-Jul-2021 4487.50 5788.42 73.20 7.00 309.71 2690.71
   18:04:47.927.18-Jul-2021 4487.50 5788.38 73.20 7.00 309.91 2690.71
   18:04:48.127.18-Jul-2021 4487.50 5786.70 73.20 7.00 310.11 2690.71
   18:04:48.327.18-Jul-2021 4487.50 5786.70 73.20 7.00 310.31 2690.71
   18:04:48.527.18-Jul-2021 4487.50 5788.03 73.20 7.00 310.51 2690.71
   18:04:48.727.18-Jul-2021 4487.50 5787.31 73.20 7.00 310.71 2690.71
   18:04:48.927.18-Jul-2021 4487.50 5787.95 73.20 7.00 310.91 2690.71
   18:04:49.128.18-Jul-2021 4487.50 5788.07 73.20 7.00 311.11 2690.71
   18:04:49.328.18-Jul-2021 4487.50 5788.07 73.20 7.00 311.31 2690.71
   18:04:49.528.18-Jul-2021 4487.50 5786.93 73.20 7.00 311.51 2690.71
   18:04:49.728.18-Jul-2021 4487.50 5787.56 73.20 7.00 311.71 2690.71
   18:04:49.928.18-Jul-2021 4487.50 5788.17 73.20 7.00 311.91 2690.71
   18:04:50.128.18-Jul-2021 4487.50 5788.22 73.20 7.00 312.11 2690.71
   18:04:50.328.18-Jul-2021 4487.50 5788.22 73.20 7.00 312.31 2690.71
   18:04:50.528.18-Jul-2021 4487.50 5787.35 73.20 7.00 312.52 2690.71
   18:04:50.728.18-Jul-2021 4487.50 5788.00 73.20 7.00 312.72 2690.71
   18:04:50.928.18-Jul-2021 4487.50 5788.21 73.20 7.00 312.92 2690.71
   18:04:51.128.18-Jul-2021 4487.50 5787.67 73.20 7.00 313.12 2690.71
   18:04:51.328.18-Jul-2021 4487.50 5787.67 73.20 7.00 313.32 2690.71
   18:04:51.528.18-Jul-2021 4487.50 5788.12 73.20 7.00 313.52 2690.71
   18:04:51.728.18-Jul-2021 4487.50 5787.88 73.20 7.00 313.72 2690.71
   18:04:51.929.18-Jul-2021 4487.50 5788.18 73.20 7.00 313.92 2690.71
   18:04:52.129.18-Jul-2021 4487.50 5787.81 73.20 7.00 314.12 2690.71
   18:04:52.329.18-Jul-2021 4487.50 5787.81 73.20 7.00 314.32 2690.71
   18:04:52.529.18-Jul-2021 4487.50 5787.73 73.20 7.00 314.52 2690.71
   18:04:52.729.18-Jul-2021 4487.50 5787.82 73.20 7.00 314.72 2690.71
   18:04:52.929.18-Jul-2021 4487.50 5787.75 73.20 7.00 314.92 2690.71
   18:04:53.129.18-Jul-2021 4487.50 5787.75 73.20 7.00 315.12 2690.71
   18:04:53.329.18-Jul-2021 4487.50 5787.75 73.20 7.00 315.32 2690.71
   18:04:53.529.18-Jul-2021 4487.50 5787.84 73.20 7.00 315.52 2690.71
   18:04:53.729.18-Jul-2021 4487.50 5787.85 73.20 7.00 315.72 2690.71
   18:04:53.929.18-Jul-2021 4487.50 5787.65 73.20 7.00 315.92 2690.71
   18:04:54.129.18-Jul-2021 4487.50 5785.98 73.20 7.00 316.12 2690.71
   18:04:54.329.18-Jul-2021 4487.50 5785.98 73.20 7.00 316.32 2690.71
   18:04:54.530.18-Jul-2021 4487.50 5787.71 73.20 7.00 316.52 2690.71
   18:04:54.730.18-Jul-2021 4487.50 5788.07 73.20 7.00 316.72 2690.71
   18:04:54.930.18-Jul-2021 4487.50 5787.72 73.20 7.00 316.92 2690.71
   18:04:55.130.18-Jul-2021 4487.50 5787.70 73.20 7.00 317.12 2690.71
   18:04:55.330.18-Jul-2021 4487.50 5787.70 73.20 7.00 317.32 2690.71
   18:04:55.530.18-Jul-2021 4487.50 5787.64 73.20 7.00 317.52 2690.71
   18:04:55.730.18-Jul-2021 4487.50 5787.61 73.20 7.00 317.72 2690.71
   18:04:55.930.18-Jul-2021 4487.50 5787.48 73.20 7.00 317.92 2690.71
   18:04:56.130.18-Jul-2021 4487.50 5787.65 73.20 7.00 318.12 2690.71
   18:04:56.330.18-Jul-2021 4487.50 5787.65 73.20 7.00 318.32 2690.71
   18:04:56.530.18-Jul-2021 4487.50 5787.44 73.20 7.00 318.52 2690.71
   18:04:56.730.18-Jul-2021 4487.50 5786.37 73.20 7.00 318.72 2690.71
   18:04:56.930.18-Jul-2021 4487.50 5786.89 73.20 7.00 318.92 2690.71
   18:04:57.130.18-Jul-2021 4487.50 5787.24 73.20 7.00 319.12 2690.71
   18:04:57.331.18-Jul-2021 4487.50 5787.24 73.20 7.00 319.32 2690.71
   18:04:57.531.18-Jul-2021 4487.50 5787.08 73.20 7.00 319.52 2690.71
   18:04:57.731.18-Jul-2021 4487.50 5787.56 73.20 7.00 319.72 2690.71
   18:04:57.931.18-Jul-2021 4487.50 5787.30 73.20 7.00 319.92 2690.71
   18:04:58.131.18-Jul-2021 4487.50 5786.78 73.20 7.00 320.12 2690.71
   18:04:58.331.18-Jul-2021 4487.50 5786.78 73.20 7.00 320.32 2690.71
   18:04:58.531.18-Jul-2021 4487.50 5785.71 73.20 7.00 320.52 2690.71
   18:04:58.731.18-Jul-2021 4487.50 5786.55 73.20 7.00 320.72 2690.71
   18:04:58.931.18-Jul-2021 4487.50 5786.91 73.20 7.00 320.92 2690.71
   18:04:59.131.18-Jul-2021 4487.50 5785.20 73.20 7.00 321.12 2690.71
   18:04:59.331.18-Jul-2021 4487.50 5785.20 73.20 7.00 321.32 2690.71
   18:04:59.531.18-Jul-2021 4487.50 5786.64 73.20 7.00 321.52 2690.71
   18:04:59.731.18-Jul-2021 4487.50 5786.77 73.20 7.00 321.72 2690.71
   18:04:59.932.18-Jul-2021 4487.50 5785.18 73.20 7.00 321.92 2690.71
