~Version Information
 VERS.                  2.0:   CWLS log ASCII Standard -VERSION 2.0
 WRAP.                   NO:   One line per depth step
~Well Information Block
#MNEM.UNIT     VALUE/NAME     DESCRIPTION
#---------     -----------    ---------------------------
 STRT.S             12:46:21 18-Jul-21: START TIME 12:46:21 18-Jul-21
 STOP.S             12:52:54 18-Jul-21: STOP TIME  12:52:54 18-Jul-21
 STEP.S                   0.00: STEP TIME
 NULL.                 -999.25: NULL VALUE
 MDS .        Operator Entered:  MAG DATA SOURCE
 PDAT.          Mean Sea Level:  PERMANENT DATUM
 UNIT.                     N/A:  LOGGING EQUIPMENT ID
 DCON.         Sperry Drilling:  DIRECTNL CONTR
 DOE .                     N/A:  DOE NUMBER
 RIG .              West Azeri:  RIG NAME
 JOBN.        AZ-XX-0906997913:  JOB TICKET NUMB
 WELL.                     C41:  WELL NAME
 MWDS.                    Baku:  MWD SHOP
 SRVC.          Turan Drilling:  CONTRACTOR
 FLD .                     ACG:  FIELD NAME
 CTRY.              Azerbaijan:  COUNTRY NAME
 PROV.                    Baku:  PROVINCE
 STAT.                    Baku:  STATE NAME
 REGN.                   EESSA:  REGION
 BASE.              Azerbaijan:  LOGGING EQUIPMENT BASE LOCATION
 UWI .                     N/A:  UNIQUE WELL IDENTIFIER
 API .                     N/A:  API NUMBER
 COMP.     BP Exploration (Caspian Sea) Ltd.:  COMPANY
 WTYP.                Deviated:  WELL TYPE
 SON .        AZ-XX-0906997913:  JOB NUMBER
 FTOP.          Formation Tops:  FORM TOPS DESC
 ILTD.               Lithology:  INTERP LTH DESC
 SVYD.                  Survey:  SURVEY DESC
 DMOD.             Drill Model:  DRILL MOD DESC
 HPTY.       Minimum Curvature:  HOLE POS TYPE
 NREF.                    Grid:  NORTH REFERENCE
 SPUD.               16-May-21:  SPUD DATE
 DATE.      21.11.28 17-May-21:  END TIME
 STIM.      21.11.28 17-May-21:  START TIME
 DMF .             Drill Floor:  DRILL MEAS FROM
 DFST.                        :  DIST FSL TEXT
 DFWT.                        :  DIST FWL TEXT
 CNTY.                        :  COUNTY
 LOC .                        :  LOCATION
 LMF .             Drill Floor:  LOG MEASURED FROM
 AGAP.m                  43.42:  AIR GAP
 VSNS.m                  -2.16:  VERT SEC N/S
 VSEW.m                  -6.24:  VERT SEC E/W
 APD .m                  43.42:  DEPTH ABOVE PD
 WDMS.m                 118.27:  WD ELEV
 EGL .m                   0.00:  GROUND ELEVATION
 EPD .m                   0.00:  ELEVATION
 AZTC.deg                 6.29:  AZM TOTAL CORR
 GRDC.deg                 0.18:  GRID CORRECTION
 MDEC.deg                 6.47:  MAGNETIC DECL
 MDIP.deg                59.54:  MAGNETIC DIP
 MFLD.nT              50337.00:  MAGNETIC FIELD
 GVFD.g                   1.00:  GRAVITY FIELD
 VSDR.deg               226.99:  VERT SEC DIRECT
 TDD .m                   0.00:  TOTAL DEPTH (DRILLER)
 SDEP.m                 448.00:  START DEPTH
 DFSL.m                   0.00:  DISTANCE FSL
 DFWL.m                   0.00:  DISTANCE FWL
 UTMY.m             4435799.96:  UTM Y
 UTMX.m              526265.35:  UTM X
 WHEW.m                  -6.24:  WELL HEAD E/W
 WHNS.m                  -2.16:  WELL HEAD N/S
 LONG.deg                51.31:  LONGITUDE
 LATI.deg                40.06:  LATITUDE
 TVDS.m                  43.42:  TVDSS CORRECTN
 EKB .m                  43.42:  KB ELEVATION
 EDF .m                  43.42:  DF ELEVATION
 TDL .m                 288.00:  TOTAL DEPTH (LOGGER)
 MAGU.                 1851863:  MAGUTM CHECKSUM
 VSC .                       0:  VS TO CLOSURE
~Parameter Information Block
#MNEM.UNIT       Value        Description
#---------     -----------    ---------------------------
 AV  .mps                 0.40:  Ann Velocity 
 AVMX.mps                 0.63:  Max Ann Veloc 
 AZIF.deg               158.76:  Azm, Final 
 BHAT.        Rotary Steerable:  BHA Type 
 BROT.°/30m               0.68:  Build Rotating 
 BS  .in                  8.50:  Bit Size 
 BSZ .in                  8.50:  Bit Size 
 BTPL.psig              712.00:  Bit Press Loss 
 CABU.                      No:  Customer Abuse 
 COMM.                     üëZ:  Run Comments 1 
 TCS .hr                 90.66:  Time Ciculation Ended 
 CV  .mps                 2.02:  Crit Velocity 
 CVMX.mps                 2.14:  Max Crit Veloc 
 DD1 .            Aziz Aliyevu:  Direct Drillr 1 
 DD2 .             Samir Abbas:  Direct Drillr 2 
 DD3 .           Teymur Aliyev:  Direct Drillr 3 
 DDSV.                 iCruise:  DD Service 
 DEFF.%                  85.10:  % Det Eff 
 DLRX.°/30m               1.05:  Dogleg Rot Max 
 DLSO.°/30m               1.01:  Dogleg Oriented 
 DLSX.°/30m               1.05:  Dogleg Str Max 
 DRET.      07.45.00 18-Jul-21:  Drill End Time 
 DRST.      15.00.00 16-Jul-21:  Drill Start Tim 
 DTIM.hr                 23.46:  Time Drilling 
 EDEP.m                4603.00:  End Depth 
 ENG1.       Seymur Iskandarov:  Engineer 1 
 ENG2.         Yevgeniy Ulikov:  Engineer 2 
 ENG3.         Bahruz Mehdiyev:  Engineer 3 
 ENG4.         Elchin Mammadov:  Engineer 4 
 ETIM.      14.00.00 23-Jul-21:  End Time 
 FLOI.gpm               500.00:  Flow In 
 FLON.gpm               450.00:  Flow In Min 
 FLOS.cptm                0.00:  Fluid Loss 
 FLOX.gpm               560.00:  Flow In Max 
 DFT .        Mineral Oil Base:  Mud Type 
 FTRO.       Formation Presure:  FTWD Run Obj 
 HFLO.                      No:  High Flow 
 HPRE.                      No:  High Pressure 
 HTEM.                      No:  High Temp 
 HYDO.m                   1.80:  Hydro Offset 
 IFIN.deg                40.22:  Inc, Final 
 IMAX.deg                40.54:  Inc Max 
 IMIN.deg                39.44:  Inc Min 
 IMND.m                4361.17:  Inc Min Depth 
 IMXD.m                4417.92:  Inc Max Depth 
 JARR.                      No:  Jarring 
 LETM.      07.45.00 18-Jul-21:  Log End Time 
 LOST.hr                    16:  Lost Rig Time 
 LSTM.      15.00.00 16-Jul-21:  Log Start Time 
 MDCL.ppm             36500.00:  Mud Chlorides 
 MDES.     Inversion Oil/Synthetic:  Mud Desc 
 DFD .sg                  1.42:  Mud Density 
 MDMN.sg                  1.42:  Dens Mud Min 
 MDMX.sg                  1.43:  Dens Mud Max 
 MOIL.                      56:  Run Mud Oil % 
 MOWR.                   71:29:  Run Mud OWR 
 MSND.                     0.5:  Run Mud Sand % 
 MSOL.                      21:  Run Mud Solids% 
 DFV .spqt               78.00:  Mud Viscosity 
 MWOD.in                  6.75:  MWD Tool OD 
 MWSI.                     Yes:  Serv Intrp, MWD 
 OTIM.hr                200.73:  Time Operating 
 PCON.           Look Like New:  Pad Condition 
 PMAX.psia            11069.93:  Press Op, Max 
 PV  .cP                 32.00:  Mud PV 
 RUN .                     700:  Run Number 
 ROPA.m/hr               10.00:  ROP Avg 
 ROPN.m/hr                9.00:  ROP Min 
 ROPX.m/hr               16.00:  ROP Max 
 RPMA.rpm               116.00:  RPM Surface Avg 
 RPMN.rpm                80.00:  RPM Surface Min 
 RPMX.rpm               120.00:  RPM Surface Max 
 RRUN.                    L605:  Rig Run Number 
 RTIM.hr                 45.00:  Time Reaming 
 SAZI.deg               159.86:  Azm, Start 
 SDEP.m                4315.00:  Start Depth 
 SIDD.                      No:  Serv Intrp, DD 
 SINC.deg                39.86:  Inc, Start 
 SPPA.psig             3300.00:  SPP Avg 
 SPPN.psig             3040.00:  SPP Min 
 SPPX.psig             3645.00:  SPP Max 
 STIM.      01.00.00 15-Jul-21:  Start Time 
 SVCS.                 DD, MWD:  Services 
 SVER.                    9.20:  Sperry Version 
 TDAT.m                 288.00:  Tot Depth Attmp 
 TDDF.                      No:  Trip for DD 
 TDLG.m                 288.00:  Tot Depth Loggd 
 TFF .                      No:  Trip for Fail 
 TQAA.f-kp               19.00:  Torque Abs Avg 
 TQAN.f-kp               18.00:  Torque Abs Min 
 TQAX.f-kp               21.00:  Torque Abs Max 
 TRRT.°/30m               0.45:  Turn Rotating 
 MRT .                    HCIM:  Maximum Recorded Temperature 
 TTMX.degC               88.24:  Max Tool Temp 
 VS01.                90649157:  Virtual Str1 SN 
 VS02.                90652483:  Virtual Str2 SN 
 VS03.                11671987:  Virtual Str3 SN 
 VS04.                90643411:  Virtual Str4 SN 
 VS05.                90652478:  Virtual Str5 SN 
 VS06.                    6111:  Virtual Str6 SN 
 WBMN.klb                 9.50:  WOB Min 
 WITN.        Grigoriy Sarayev:  Customer Rep 
 WITN.          Rufat Huseynov:  Customer Rep 2 
 WOBA.klb                11.00:  WOB Avg 
 WOBX.klb                15.00:  WOB Max 
 YP  .lhf2               28.00:  Yield Point 
~Curve Information Block
#MNEM.UNIT                 API CODE     Curve Description
#---------               -----------    ---------------------------
 TIME.HHMMSS            00 000 000 000:  GT Time & Date
 GTDEPTH.m              00 000 000 000:  GT Depth
 GTPQH.psia             00 000 000 000:  GT HR Quartz Pressure
 GTTQ.degC              00 000 000 000:  GT Quartz Temperature
 GTTN.NONE              00 000 000 000:  GT Test Number
 GTET.sec               00 000 000 000:  GT Elapsed Test Time
 GTTVD.m                00 000 000 000:  GT True Vertical Depth
#Other Information
#
#WARRANTY: Halliburton will use its best efforts to furnish customers with 
#accurate information and interpretations that are part of, and incident to, the services 
#provided.  However, Halliburton cannot and does not warrant the accuracy 
#or correctness of such information and interpretations.  Under no circumstances should any 
#such information or interpretation be relied upon as the sole basis for any drilling, 
#completion, production, or financial decision or any procedure involving any risk to the 
#safety of any drilling venture, drilling rig or its crew or any other third party.  The 
#Customer has full responsibility for all drilling, completion and production operation.  
#Halliburton makes no representations or warranties, either expressed or 
#implied, including, but not limited to, the implied warranties of merchantability or fitness 
#for a particular purpose, with respect to the services rendered.  In no event will 
#Halliburton be liable for failure to obtain any particular results or for 
#any damages, including, but not limited to, indirect, special or consequential damages, 
#resulting from the use of any information or interpretation provided by Halliburton.
#
~A           TIME           GTDEPTH  GTPQH  GTTQ  GTTN  GTET   GTTVD  
# ...
   12:46:44.100.18-Jul-2021 4561.50 6486.20 76.61 1.00  23.01 2747.31
   12:46:44.300.18-Jul-2021 4561.50 6486.20 76.61 1.00  23.21 2747.31
   12:46:44.500.18-Jul-2021 4561.50 6486.39 76.61 1.00  23.41 2747.31
   12:46:44.700.18-Jul-2021 4561.50 6487.17 76.61 1.00  23.61 2747.31
   12:46:44.901.18-Jul-2021 4561.50 6487.28 76.61 1.00  23.81 2747.31
   12:46:45.101.18-Jul-2021 4561.50 6487.94 76.61 1.00  24.01 2747.31
   12:46:45.301.18-Jul-2021 4561.50 6487.94 76.61 1.00  24.21 2747.31
   12:46:45.501.18-Jul-2021 4561.50 6504.48 76.61 1.00  24.41 2747.31
   12:46:45.701.18-Jul-2021 4561.50 6487.99 76.61 1.00  24.61 2747.31
   12:46:45.901.18-Jul-2021 4561.50 6492.49 76.61 1.00  24.81 2747.31
   12:46:46.101.18-Jul-2021 4561.50 6491.54 76.61 1.00  25.01 2747.31
   12:46:46.301.18-Jul-2021 4561.50 6491.54 76.61 1.00  25.21 2747.31
   12:46:46.501.18-Jul-2021 4561.50 6486.25 76.61 1.00  25.41 2747.31
   12:46:46.701.18-Jul-2021 4561.50 6487.59 76.61 1.00  25.61 2747.31
   12:46:46.901.18-Jul-2021 4561.50 6487.79 76.61 1.00  25.81 2747.31
   12:46:47.101.18-Jul-2021 4561.50 6487.48 76.61 1.00  26.01 2747.31
   12:46:47.301.18-Jul-2021 4561.50 6487.48 76.61 1.00  26.21 2747.31
   12:46:47.501.18-Jul-2021 4561.50 6487.37 76.61 1.00  26.41 2747.31
   12:46:47.702.18-Jul-2021 4561.50 6487.33 76.61 1.00  26.61 2747.31
   12:46:47.902.18-Jul-2021 4561.50 6494.49 76.61 1.00  26.81 2747.31
   12:46:48.102.18-Jul-2021 4561.50 6508.72 76.61 1.00  27.01 2747.31
   12:46:48.302.18-Jul-2021 4561.50 6508.72 76.61 1.00  27.21 2747.31
   12:46:48.502.18-Jul-2021 4561.50 6509.63 76.61 1.00  27.41 2747.31
   12:46:48.702.18-Jul-2021 4561.50 6508.31 76.61 1.00  27.61 2747.31
   12:46:48.902.18-Jul-2021 4561.50 6486.79 76.61 1.00  27.81 2747.31
   12:46:49.102.18-Jul-2021 4561.50 6513.77 76.61 1.00  28.01 2747.31
   12:46:49.302.18-Jul-2021 4561.50 6513.77 76.61 1.00  28.21 2747.31
   12:46:49.502.18-Jul-2021 4561.50 6488.46 76.61 1.00  28.41 2747.31
   12:46:49.702.18-Jul-2021 4561.50 6494.93 76.61 1.00  28.61 2747.31
   12:46:49.902.18-Jul-2021 4561.50 6491.71 76.61 1.00  28.81 2747.31
   12:46:50.102.18-Jul-2021 4561.50 6507.45 76.61 1.00  29.01 2747.31
   12:46:50.303.18-Jul-2021 4561.50 6507.45 76.61 1.00  29.21 2747.31
   12:46:50.503.18-Jul-2021 4561.50 6488.98 76.61 1.00  29.41 2747.31
   12:46:50.703.18-Jul-2021 4561.50 6493.18 76.61 1.00  29.61 2747.31
   12:46:50.903.18-Jul-2021 4561.50 6511.83 76.61 1.00  29.81 2747.31
   12:46:51.103.18-Jul-2021 4561.50 6495.94 76.61 1.00  30.01 2747.31
   12:46:51.303.18-Jul-2021 4561.50 6495.94 76.61 1.00  30.21 2747.31
   12:46:51.503.18-Jul-2021 4561.50 6631.93 76.61 1.00  30.41 2747.31
   12:46:51.703.18-Jul-2021 4561.50 6785.86 76.61 1.00  30.61 2747.31
   12:46:51.903.18-Jul-2021 4561.50 6822.41 76.61 1.00  30.81 2747.31
   12:46:52.103.18-Jul-2021 4561.50 6785.18 76.61 1.00  31.01 2747.31
   12:46:52.303.18-Jul-2021 4561.50 6785.18 76.61 1.00  31.21 2747.31
   12:46:52.503.18-Jul-2021 4561.50 6767.54 76.61 1.00  31.41 2747.31
   12:46:52.703.18-Jul-2021 4561.50 6764.28 76.61 1.00  31.61 2747.31
   12:46:52.903.18-Jul-2021 4561.50 6761.05 76.61 1.00  31.81 2747.31
   12:46:53.104.18-Jul-2021 4561.50 6760.15 76.61 1.00  32.01 2747.31
   12:46:53.304.18-Jul-2021 4561.50 6760.15 76.61 1.00  32.21 2747.31
   12:46:53.504.18-Jul-2021 4561.50 6758.83 76.61 1.00  32.41 2747.31
   12:46:53.704.18-Jul-2021 4561.50 6766.76 76.61 1.00  32.61 2747.31
   12:46:53.904.18-Jul-2021 4561.50 6764.53 76.61 1.00  32.81 2747.31
   12:46:54.104.18-Jul-2021 4561.50 6751.50 76.61 1.00  33.01 2747.31
   12:46:54.304.18-Jul-2021 4561.50 6751.50 76.61 1.00  33.21 2747.31
   12:46:54.504.18-Jul-2021 4561.50 6747.93 76.61 1.00  33.41 2747.31
   12:46:54.704.18-Jul-2021 4561.50 6745.98 76.61 1.00  33.61 2747.31
   12:46:54.904.18-Jul-2021 4561.50 6746.21 76.61 1.00  33.81 2747.31
   12:46:55.104.18-Jul-2021 4561.50 6745.85 76.61 1.00  34.01 2747.31
   12:46:55.304.18-Jul-2021 4561.50 6745.85 76.61 1.00  34.21 2747.31
   12:46:55.504.18-Jul-2021 4561.50 6746.13 76.61 1.00  34.41 2747.31
   12:46:55.705.18-Jul-2021 4561.50 6746.18 76.61 1.00  34.61 2747.31
   12:46:55.905.18-Jul-2021 4561.50 6746.08 76.61 1.00  34.81 2747.31
   12:46:56.105.18-Jul-2021 4561.50 6744.65 76.61 1.00  35.01 2747.31
   12:46:56.305.18-Jul-2021 4561.50 6744.65 76.61 1.00  35.21 2747.31
   12:46:56.505.18-Jul-2021 4561.50 6759.09 76.61 1.00  35.41 2747.31
   12:46:56.705.18-Jul-2021 4561.50 6753.05 76.61 1.00  35.61 2747.31
   12:46:56.905.18-Jul-2021 4561.50 6753.66 76.61 1.00  35.81 2747.31
   12:46:57.105.18-Jul-2021 4561.50 6758.40 76.61 1.00  36.01 2747.31
   12:46:57.305.18-Jul-2021 4561.50 6758.40 76.61 1.00  36.21 2747.31
   12:46:57.505.18-Jul-2021 4561.50 6749.76 76.61 1.00  36.41 2747.31
   12:46:57.705.18-Jul-2021 4561.50 6753.77 76.61 1.00  36.61 2747.31
   12:46:57.905.18-Jul-2021 4561.50 6750.02 76.61 1.00  36.81 2747.31
   12:46:58.105.18-Jul-2021 4561.50 6744.27 76.61 1.00  37.01 2747.31
   12:46:58.305.18-Jul-2021 4561.50 6744.27 76.61 1.00  37.21 2747.31
   12:46:58.506.18-Jul-2021 4561.50 6747.19 76.61 1.00  37.41 2747.31
   12:46:58.706.18-Jul-2021 4561.50 6753.10 76.61 1.00  37.61 2747.31
   12:46:58.906.18-Jul-2021 4561.50 6743.44 76.61 1.00  37.81 2747.31
   12:46:59.106.18-Jul-2021 4561.50 6738.52 76.61 1.00  38.01 2747.31
   12:46:59.306.18-Jul-2021 4561.50 6738.52 76.61 1.00  38.21 2747.31
   12:46:59.506.18-Jul-2021 4561.50 6739.55 76.61 1.00  38.41 2747.31
   12:46:59.706.18-Jul-2021 4561.50 6738.31 76.61 1.00  38.61 2747.31
   12:46:59.906.18-Jul-2021 4561.50 6739.15 76.61 1.00  38.81 2747.31
   12:47:00.106.18-Jul-2021 4561.50 6737.45 76.61 1.00  39.01 2747.31
   12:47:00.306.18-Jul-2021 4561.50 6737.45 76.61 1.00  39.21 2747.31
   12:47:00.506.18-Jul-2021 4561.50 6737.57 76.61 1.00  39.41 2747.31
   12:47:00.706.18-Jul-2021 4561.50 6736.48 76.61 1.00  39.61 2747.31
   12:47:00.906.18-Jul-2021 4561.50 6736.83 76.61 1.00  39.81 2747.31
   12:47:01.106.18-Jul-2021 4561.50 6737.25 76.61 1.00  40.01 2747.31
   12:47:01.307.18-Jul-2021 4561.50 6737.25 76.61 1.00  40.21 2747.31
   12:47:01.507.18-Jul-2021 4561.50 6736.09 76.61 1.00  40.41 2747.31
   12:47:01.707.18-Jul-2021 4561.50 6736.72 76.61 1.00  40.61 2747.31
   12:47:01.907.18-Jul-2021 4561.50 6737.60 76.61 1.00  40.82 2747.31
   12:47:02.107.18-Jul-2021 4561.50 6739.48 76.61 1.00  41.02 2747.31
   12:47:02.307.18-Jul-2021 4561.50 6739.48 76.61 1.00  41.22 2747.31
   12:47:02.507.18-Jul-2021 4561.50 6738.40 76.61 1.00  41.42 2747.31
   12:47:02.707.18-Jul-2021 4561.50 6738.54 76.61 1.00  41.62 2747.31
   12:47:02.907.18-Jul-2021 4561.50 6738.30 76.61 1.00  41.82 2747.31
   12:47:03.107.18-Jul-2021 4561.50 6738.93 76.60 1.00  42.02 2747.31
   12:47:03.307.18-Jul-2021 4561.50 6738.93 76.60 1.00  42.22 2747.31
   12:47:03.507.18-Jul-2021 4561.50 6738.94 76.60 1.00  42.42 2747.31
   12:47:03.707.18-Jul-2021 4561.50 6739.30 76.60 1.00  42.62 2747.31
   12:47:03.908.18-Jul-2021 4561.50 6739.69 76.60 1.00  42.82 2747.31
   12:47:04.108.18-Jul-2021 4561.50 6739.00 76.60 1.00  43.02 2747.31
   12:47:04.308.18-Jul-2021 4561.50 6739.00 76.60 1.00  43.22 2747.31
   12:47:04.508.18-Jul-2021 4561.50 6739.02 76.60 1.00  43.42 2747.31
   12:47:04.708.18-Jul-2021 4561.50 6744.86 76.60 1.00  43.62 2747.31
   12:47:04.908.18-Jul-2021 4561.50 6768.88 76.60 1.00  43.82 2747.31
   12:47:05.108.18-Jul-2021 4561.50 6773.95 76.60 1.00  44.02 2747.31
   12:47:05.308.18-Jul-2021 4561.50 6773.95 76.60 1.00  44.22 2747.31
   12:47:05.508.18-Jul-2021 4561.50 6775.12 76.60 1.00  44.42 2747.31
   12:47:05.708.18-Jul-2021 4561.50 6775.63 76.60 1.00  44.62 2747.31
   12:47:05.908.18-Jul-2021 4561.50 6774.02 76.60 1.00  44.82 2747.31
   12:47:06.108.18-Jul-2021 4561.50 6774.19 76.60 1.00  45.02 2747.31
   12:47:06.308.18-Jul-2021 4561.50 6774.19 76.60 1.00  45.22 2747.31
   12:47:06.508.18-Jul-2021 4561.50 6775.05 76.60 1.00  45.42 2747.31
   12:47:06.709.18-Jul-2021 4561.50 6772.97 76.60 1.00  45.62 2747.31
   12:47:06.909.18-Jul-2021 4561.50 6772.87 76.60 1.00  45.82 2747.31
