~Version Information
 VERS.                  2.0:   CWLS log ASCII Standard -VERSION 2.0
 WRAP.                   NO:   One line per depth step
~Well Information Block
#MNEM.UNIT     VALUE/NAME     DESCRIPTION
#---------     -----------    ---------------------------
 STRT.S             14:01:43 18-Jul-21: START TIME 14:01:43 18-Jul-21
 STOP.S             14:08:15 18-Jul-21: STOP TIME  14:08:15 18-Jul-21
 STEP.S                   0.00: STEP TIME
 NULL.                 -999.25: NULL VALUE
 MDS .        Operator Entered:  MAG DATA SOURCE
 PDAT.          Mean Sea Level:  PERMANENT DATUM
 UNIT.                     N/A:  LOGGING EQUIPMENT ID
 DCON.         Sperry Drilling:  DIRECTNL CONTR
 DOE .                     N/A:  DOE NUMBER
 RIG .              West Azeri:  RIG NAME
 JOBN.        AZ-XX-0906997913:  JOB TICKET NUMB
 WELL.                     C41:  WELL NAME
 MWDS.                    Baku:  MWD SHOP
 SRVC.          Turan Drilling:  CONTRACTOR
 FLD .                     ACG:  FIELD NAME
 CTRY.              Azerbaijan:  COUNTRY NAME
 PROV.                    Baku:  PROVINCE
 STAT.                    Baku:  STATE NAME
 REGN.                   EESSA:  REGION
 BASE.              Azerbaijan:  LOGGING EQUIPMENT BASE LOCATION
 UWI .                     N/A:  UNIQUE WELL IDENTIFIER
 API .                     N/A:  API NUMBER
 COMP.     BP Exploration (Caspian Sea) Ltd.:  COMPANY
 WTYP.                Deviated:  WELL TYPE
 SON .        AZ-XX-0906997913:  JOB NUMBER
 FTOP.          Formation Tops:  FORM TOPS DESC
 ILTD.               Lithology:  INTERP LTH DESC
 SVYD.                  Survey:  SURVEY DESC
 DMOD.             Drill Model:  DRILL MOD DESC
 HPTY.       Minimum Curvature:  HOLE POS TYPE
 NREF.                    Grid:  NORTH REFERENCE
 SPUD.               16-May-21:  SPUD DATE
 DATE.      21.11.28 17-May-21:  END TIME
 STIM.      21.11.28 17-May-21:  START TIME
 DMF .             Drill Floor:  DRILL MEAS FROM
 DFST.                        :  DIST FSL TEXT
 DFWT.                        :  DIST FWL TEXT
 CNTY.                        :  COUNTY
 LOC .                        :  LOCATION
 LMF .             Drill Floor:  LOG MEASURED FROM
 AGAP.m                  43.42:  AIR GAP
 VSNS.m                  -2.16:  VERT SEC N/S
 VSEW.m                  -6.24:  VERT SEC E/W
 APD .m                  43.42:  DEPTH ABOVE PD
 WDMS.m                 118.27:  WD ELEV
 EGL .m                   0.00:  GROUND ELEVATION
 EPD .m                   0.00:  ELEVATION
 AZTC.deg                 6.29:  AZM TOTAL CORR
 GRDC.deg                 0.18:  GRID CORRECTION
 MDEC.deg                 6.47:  MAGNETIC DECL
 MDIP.deg                59.54:  MAGNETIC DIP
 MFLD.nT              50337.00:  MAGNETIC FIELD
 GVFD.g                   1.00:  GRAVITY FIELD
 VSDR.deg               226.99:  VERT SEC DIRECT
 TDD .m                   0.00:  TOTAL DEPTH (DRILLER)
 SDEP.m                 448.00:  START DEPTH
 DFSL.m                   0.00:  DISTANCE FSL
 DFWL.m                   0.00:  DISTANCE FWL
 UTMY.m             4435799.96:  UTM Y
 UTMX.m              526265.35:  UTM X
 WHEW.m                  -6.24:  WELL HEAD E/W
 WHNS.m                  -2.16:  WELL HEAD N/S
 LONG.deg                51.31:  LONGITUDE
 LATI.deg                40.06:  LATITUDE
 TVDS.m                  43.42:  TVDSS CORRECTN
 EKB .m                  43.42:  KB ELEVATION
 EDF .m                  43.42:  DF ELEVATION
 TDL .m                 288.00:  TOTAL DEPTH (LOGGER)
 MAGU.                 1851863:  MAGUTM CHECKSUM
 VSC .                       0:  VS TO CLOSURE
~Parameter Information Block
#MNEM.UNIT       Value        Description
#---------     -----------    ---------------------------
 AV  .mps                 0.40:  Ann Velocity 
 AVMX.mps                 0.63:  Max Ann Veloc 
 AZIF.deg               158.76:  Azm, Final 
 BHAT.        Rotary Steerable:  BHA Type 
 BROT.°/30m               0.68:  Build Rotating 
 BS  .in                  8.50:  Bit Size 
 BSZ .in                  8.50:  Bit Size 
 BTPL.psig              712.00:  Bit Press Loss 
 CABU.                      No:  Customer Abuse 
 COMM.                     <©Q:  Run Comments 1 
 TCS .hr                 90.66:  Time Ciculation Ended 
 CV  .mps                 2.02:  Crit Velocity 
 CVMX.mps                 2.14:  Max Crit Veloc 
 DD1 .            Aziz Aliyevu:  Direct Drillr 1 
 DD2 .             Samir Abbas:  Direct Drillr 2 
 DD3 .           Teymur Aliyev:  Direct Drillr 3 
 DDSV.                 iCruise:  DD Service 
 DEFF.%                  85.10:  % Det Eff 
 DLRX.°/30m               1.05:  Dogleg Rot Max 
 DLSO.°/30m               1.01:  Dogleg Oriented 
 DLSX.°/30m               1.05:  Dogleg Str Max 
 DRET.      07.45.00 18-Jul-21:  Drill End Time 
 DRST.      15.00.00 16-Jul-21:  Drill Start Tim 
 DTIM.hr                 23.46:  Time Drilling 
 EDEP.m                4603.00:  End Depth 
 ENG1.       Seymur Iskandarov:  Engineer 1 
 ENG2.         Yevgeniy Ulikov:  Engineer 2 
 ENG3.         Bahruz Mehdiyev:  Engineer 3 
 ENG4.         Elchin Mammadov:  Engineer 4 
 ETIM.      14.00.00 23-Jul-21:  End Time 
 FLOI.gpm               500.00:  Flow In 
 FLON.gpm               450.00:  Flow In Min 
 FLOS.cptm                0.00:  Fluid Loss 
 FLOX.gpm               560.00:  Flow In Max 
 DFT .        Mineral Oil Base:  Mud Type 
 FTRO.       Formation Presure:  FTWD Run Obj 
 HFLO.                      No:  High Flow 
 HPRE.                      No:  High Pressure 
 HTEM.                      No:  High Temp 
 HYDO.m                   1.80:  Hydro Offset 
 IFIN.deg                40.22:  Inc, Final 
 IMAX.deg                40.54:  Inc Max 
 IMIN.deg                39.44:  Inc Min 
 IMND.m                4361.17:  Inc Min Depth 
 IMXD.m                4417.92:  Inc Max Depth 
 JARR.                      No:  Jarring 
 LETM.      07.45.00 18-Jul-21:  Log End Time 
 LOST.hr                    16:  Lost Rig Time 
 LSTM.      15.00.00 16-Jul-21:  Log Start Time 
 MDCL.ppm             36500.00:  Mud Chlorides 
 MDES.     Inversion Oil/Synthetic:  Mud Desc 
 DFD .sg                  1.42:  Mud Density 
 MDMN.sg                  1.42:  Dens Mud Min 
 MDMX.sg                  1.43:  Dens Mud Max 
 MOIL.                      56:  Run Mud Oil % 
 MOWR.                   71:29:  Run Mud OWR 
 MSND.                     0.5:  Run Mud Sand % 
 MSOL.                      21:  Run Mud Solids% 
 DFV .spqt               78.00:  Mud Viscosity 
 MWOD.in                  6.75:  MWD Tool OD 
 MWSI.                     Yes:  Serv Intrp, MWD 
 OTIM.hr                200.73:  Time Operating 
 PCON.           Look Like New:  Pad Condition 
 PMAX.psia            11069.93:  Press Op, Max 
 PV  .cP                 32.00:  Mud PV 
 RUN .                     700:  Run Number 
 ROPA.m/hr               10.00:  ROP Avg 
 ROPN.m/hr                9.00:  ROP Min 
 ROPX.m/hr               16.00:  ROP Max 
 RPMA.rpm               116.00:  RPM Surface Avg 
 RPMN.rpm                80.00:  RPM Surface Min 
 RPMX.rpm               120.00:  RPM Surface Max 
 RRUN.                    L605:  Rig Run Number 
 RTIM.hr                 45.00:  Time Reaming 
 SAZI.deg               159.86:  Azm, Start 
 SDEP.m                4315.00:  Start Depth 
 SIDD.                      No:  Serv Intrp, DD 
 SINC.deg                39.86:  Inc, Start 
 SPPA.psig             3300.00:  SPP Avg 
 SPPN.psig             3040.00:  SPP Min 
 SPPX.psig             3645.00:  SPP Max 
 STIM.      01.00.00 15-Jul-21:  Start Time 
 SVCS.                 DD, MWD:  Services 
 SVER.                    9.20:  Sperry Version 
 TDAT.m                 288.00:  Tot Depth Attmp 
 TDDF.                      No:  Trip for DD 
 TDLG.m                 288.00:  Tot Depth Loggd 
 TFF .                      No:  Trip for Fail 
 TQAA.f-kp               19.00:  Torque Abs Avg 
 TQAN.f-kp               18.00:  Torque Abs Min 
 TQAX.f-kp               21.00:  Torque Abs Max 
 TRRT.°/30m               0.45:  Turn Rotating 
 MRT .                    HCIM:  Maximum Recorded Temperature 
 TTMX.degC               88.24:  Max Tool Temp 
 VS01.                90649157:  Virtual Str1 SN 
 VS02.                90652483:  Virtual Str2 SN 
 VS03.                11671987:  Virtual Str3 SN 
 VS04.                90643411:  Virtual Str4 SN 
 VS05.                90652478:  Virtual Str5 SN 
 VS06.                    6111:  Virtual Str6 SN 
 WBMN.klb                 9.50:  WOB Min 
 WITN.        Grigoriy Sarayev:  Customer Rep 
 WITN.          Rufat Huseynov:  Customer Rep 2 
 WOBA.klb                11.00:  WOB Avg 
 WOBX.klb                15.00:  WOB Max 
 YP  .lhf2               28.00:  Yield Point 
~Curve Information Block
#MNEM.UNIT                 API CODE     Curve Description
#---------               -----------    ---------------------------
 TIME.HHMMSS            00 000 000 000:  GT Time & Date
 GTDEPTH.m              00 000 000 000:  GT Depth
 GTPQH.psia             00 000 000 000:  GT HR Quartz Pressure
 GTTQ.degC              00 000 000 000:  GT Quartz Temperature
 GTTN.NONE              00 000 000 000:  GT Test Number
 GTET.sec               00 000 000 000:  GT Elapsed Test Time
 GTTVD.m                00 000 000 000:  GT True Vertical Depth
#Other Information
#
#WARRANTY: Halliburton will use its best efforts to furnish customers with 
#accurate information and interpretations that are part of, and incident to, the services 
#provided.  However, Halliburton cannot and does not warrant the accuracy 
#or correctness of such information and interpretations.  Under no circumstances should any 
#such information or interpretation be relied upon as the sole basis for any drilling, 
#completion, production, or financial decision or any procedure involving any risk to the 
#safety of any drilling venture, drilling rig or its crew or any other third party.  The 
#Customer has full responsibility for all drilling, completion and production operation.  
#Halliburton makes no representations or warranties, either expressed or 
#implied, including, but not limited to, the implied warranties of merchantability or fitness 
#for a particular purpose, with respect to the services rendered.  In no event will 
#Halliburton be liable for failure to obtain any particular results or for 
#any damages, including, but not limited to, indirect, special or consequential damages, 
#resulting from the use of any information or interpretation provided by Halliburton.
#
~A           TIME           GTDEPTH  GTPQH  GTTQ  GTTN  GTET   GTTVD  
# ...
   14:07:28.884.18-Jul-2021 4559.00 6749.22 75.34 3.00 345.13 2745.40
   14:07:29.084.18-Jul-2021 4559.00 6749.22 75.34 3.00 345.33 2745.40
   14:07:29.284.18-Jul-2021 4559.00 6748.80 75.34 3.00 345.53 2745.40
   14:07:29.484.18-Jul-2021 4559.00 6748.42 75.34 3.00 345.73 2745.40
   14:07:29.684.18-Jul-2021 4559.00 6748.73 75.34 3.00 345.93 2745.40
   14:07:29.884.18-Jul-2021 4559.00 6748.43 75.34 3.00 346.13 2745.40
   14:07:30.085.18-Jul-2021 4559.00 6748.43 75.34 3.00 346.33 2745.40
   14:07:30.285.18-Jul-2021 4559.00 6748.76 75.34 3.00 346.53 2745.40
   14:07:30.485.18-Jul-2021 4559.00 6748.47 75.34 3.00 346.73 2745.40
   14:07:30.685.18-Jul-2021 4559.00 6749.37 75.34 3.00 346.93 2745.40
   14:07:30.885.18-Jul-2021 4559.00 6749.54 75.34 3.00 347.13 2745.40
   14:07:31.085.18-Jul-2021 4559.00 6749.54 75.34 3.00 347.33 2745.40
   14:07:31.285.18-Jul-2021 4559.00 6749.81 75.34 3.00 347.53 2745.40
   14:07:31.485.18-Jul-2021 4559.00 6750.66 75.34 3.00 347.73 2745.40
   14:07:31.685.18-Jul-2021 4559.00 6752.87 75.34 3.00 347.93 2745.40
   14:07:31.885.18-Jul-2021 4559.00 6749.52 75.34 3.00 348.13 2745.40
   14:07:32.085.18-Jul-2021 4559.00 6749.52 75.34 3.00 348.33 2745.40
   14:07:32.285.18-Jul-2021 4559.00 6753.12 75.34 3.00 348.53 2745.40
   14:07:32.485.18-Jul-2021 4559.00 6749.18 75.34 3.00 348.73 2745.40
   14:07:32.686.18-Jul-2021 4559.00 6750.46 75.34 3.00 348.93 2745.40
   14:07:32.886.18-Jul-2021 4559.00 6750.30 75.34 3.00 349.13 2745.40
   14:07:33.086.18-Jul-2021 4559.00 6750.30 75.34 3.00 349.33 2745.40
   14:07:33.286.18-Jul-2021 4559.00 6752.19 75.34 3.00 349.53 2745.40
   14:07:33.486.18-Jul-2021 4559.00 6749.48 75.34 3.00 349.73 2745.40
   14:07:33.686.18-Jul-2021 4559.00 6749.27 75.34 3.00 349.93 2745.40
   14:07:33.886.18-Jul-2021 4559.00 6749.91 75.34 3.00 350.13 2745.40
   14:07:34.086.18-Jul-2021 4559.00 6749.91 75.34 3.00 350.33 2745.40
   14:07:34.286.18-Jul-2021 4559.00 6751.42 75.34 3.00 350.53 2745.40
   14:07:34.486.18-Jul-2021 4559.00 6750.72 75.34 3.00 350.73 2745.40
   14:07:34.686.18-Jul-2021 4559.00 6749.27 75.34 3.00 350.93 2745.40
   14:07:34.886.18-Jul-2021 4559.00 6750.70 75.34 3.00 351.13 2745.40
   14:07:35.086.18-Jul-2021 4559.00 6750.70 75.34 3.00 351.33 2745.40
   14:07:35.286.18-Jul-2021 4559.00 6749.00 75.34 3.00 351.53 2745.40
   14:07:35.487.18-Jul-2021 4559.00 6748.69 75.34 3.00 351.73 2745.40
   14:07:35.687.18-Jul-2021 4559.00 6749.16 75.34 3.00 351.93 2745.40
   14:07:35.887.18-Jul-2021 4559.00 6748.55 75.34 3.00 352.13 2745.40
   14:07:36.087.18-Jul-2021 4559.00 6748.55 75.34 3.00 352.33 2745.40
   14:07:36.287.18-Jul-2021 4559.00 6749.05 75.34 3.00 352.53 2745.40
   14:07:36.487.18-Jul-2021 4559.00 6748.65 75.34 3.00 352.73 2745.40
   14:07:36.687.18-Jul-2021 4559.00 6749.31 75.34 3.00 352.93 2745.40
   14:07:36.887.18-Jul-2021 4559.00 6748.71 75.34 3.00 353.13 2745.40
   14:07:37.087.18-Jul-2021 4559.00 6748.71 75.34 3.00 353.33 2745.40
   14:07:37.287.18-Jul-2021 4559.00 6751.23 75.34 3.00 353.53 2745.40
   14:07:37.487.18-Jul-2021 4559.00 6748.06 75.34 3.00 353.73 2745.40
   14:07:37.687.18-Jul-2021 4559.00 6749.74 75.34 3.00 353.93 2745.40
   14:07:37.887.18-Jul-2021 4559.00 6748.96 75.34 3.00 354.13 2745.40
   14:07:38.088.18-Jul-2021 4559.00 6748.96 75.34 3.00 354.33 2745.40
   14:07:38.288.18-Jul-2021 4559.00 6748.11 75.34 3.00 354.53 2745.40
   14:07:38.488.18-Jul-2021 4559.00 6748.04 75.34 3.00 354.73 2745.40
   14:07:38.688.18-Jul-2021 4559.00 6748.13 75.34 3.00 354.93 2745.40
   14:07:38.888.18-Jul-2021 4559.00 6748.08 75.34 3.00 355.13 2745.40
   14:07:39.088.18-Jul-2021 4559.00 6748.08 75.34 3.00 355.33 2745.40
   14:07:39.288.18-Jul-2021 4559.00 6748.23 75.34 3.00 355.53 2745.40
   14:07:39.488.18-Jul-2021 4559.00 6748.17 75.34 3.00 355.73 2745.40
   14:07:39.688.18-Jul-2021 4559.00 6749.45 75.34 3.00 355.93 2745.40
   14:07:39.888.18-Jul-2021 4559.00 6751.10 75.34 3.00 356.13 2745.40
   14:07:40.088.18-Jul-2021 4559.00 6751.10 75.34 3.00 356.33 2745.40
   14:07:40.288.18-Jul-2021 4559.00 6752.46 75.34 3.00 356.53 2745.40
   14:07:40.488.18-Jul-2021 4559.00 6751.95 75.34 3.00 356.73 2745.40
   14:07:40.688.18-Jul-2021 4559.00 6749.63 75.34 3.00 356.93 2745.40
   14:07:40.889.18-Jul-2021 4559.00 6752.31 75.34 3.00 357.13 2745.40
   14:07:41.089.18-Jul-2021 4559.00 6752.31 75.34 3.00 357.33 2745.40
   14:07:41.289.18-Jul-2021 4559.00 6752.21 75.34 3.00 357.53 2745.40
   14:07:41.489.18-Jul-2021 4559.00 6776.97 75.34 3.00 357.73 2745.40
   14:07:41.689.18-Jul-2021 4559.00 6770.84 75.34 3.00 357.93 2745.40
   14:07:41.889.18-Jul-2021 4559.00 6763.59 75.34 3.00 358.13 2745.40
   14:07:42.089.18-Jul-2021 4559.00 6763.59 75.34 3.00 358.33 2745.40
   14:07:42.289.18-Jul-2021 4559.00 6672.83 75.34 3.00 358.53 2745.40
   14:07:42.489.18-Jul-2021 4559.00 6677.59 75.34 3.00 358.73 2745.40
   14:07:42.689.18-Jul-2021 4559.00 6682.08 75.34 3.00 358.93 2745.40
   14:07:42.889.18-Jul-2021 4559.00 6670.35 75.34 3.00 359.13 2745.40
   14:07:43.089.18-Jul-2021 4559.00 6670.35 75.34 3.00 359.33 2745.40
   14:07:43.289.18-Jul-2021 4559.00 6681.94 75.34 3.00 359.53 2745.40
   14:07:43.490.18-Jul-2021 4559.00 6673.15 75.34 3.00 359.73 2745.40
   14:07:43.690.18-Jul-2021 4559.00 6679.58 75.34 3.00 359.93 2745.40
   14:07:43.890.18-Jul-2021 4559.00 6678.92 75.34 3.00 360.13 2745.40
   14:07:44.090.18-Jul-2021 4559.00 6678.92 75.34 3.00 360.33 2745.40
   14:07:44.290.18-Jul-2021 4559.00 6676.10 75.34 3.00 360.53 2745.40
   14:07:44.490.18-Jul-2021 4559.00 6676.88 75.34 3.00 360.73 2745.40
   14:07:44.690.18-Jul-2021 4559.00 6676.50 75.34 3.00 360.93 2745.40
   14:07:44.890.18-Jul-2021 4559.00 6676.11 75.34 3.00 361.13 2745.40
   14:07:45.090.18-Jul-2021 4559.00 6676.11 75.34 3.00 361.33 2745.40
   14:07:45.290.18-Jul-2021 4559.00 6676.40 75.34 3.00 361.53 2745.40
   14:07:45.490.18-Jul-2021 4559.00 6675.76 75.34 3.00 361.73 2745.40
   14:07:45.690.18-Jul-2021 4559.00 6672.19 75.34 3.00 361.93 2745.40
   14:07:45.890.18-Jul-2021 4559.00 6678.68 75.35 3.00 362.13 2745.40
   14:07:46.090.18-Jul-2021 4559.00 6678.68 75.35 3.00 362.33 2745.40
   14:07:46.291.18-Jul-2021 4559.00 6670.76 75.35 3.00 362.53 2745.40
   14:07:46.491.18-Jul-2021 4559.00 6673.33 75.35 3.00 362.73 2745.40
   14:07:46.691.18-Jul-2021 4559.00 6678.42 75.34 3.00 362.93 2745.40
   14:07:46.891.18-Jul-2021 4559.00 6670.65 75.35 3.00 363.13 2745.40
   14:07:47.091.18-Jul-2021 4559.00 6670.65 75.35 3.00 363.33 2745.40
   14:07:47.291.18-Jul-2021 4559.00 6671.83 75.35 3.00 363.53 2745.40
   14:07:47.491.18-Jul-2021 4559.00 6672.16 75.35 3.00 363.73 2745.40
   14:07:47.691.18-Jul-2021 4559.00 6671.81 75.35 3.00 363.93 2745.40
   14:07:47.891.18-Jul-2021 4559.00 6673.77 75.35 3.00 364.13 2745.40
   14:07:48.091.18-Jul-2021 4559.00 6673.77 75.35 3.00 364.33 2745.40
   14:07:48.291.18-Jul-2021 4559.00 6671.65 75.35 3.00 364.53 2745.40
   14:07:48.491.18-Jul-2021 4559.00 6680.44 75.35 3.00 364.73 2745.40
   14:07:48.691.18-Jul-2021 4559.00 6694.80 75.35 3.00 364.93 2745.40
   14:07:48.891.18-Jul-2021 4559.00 6669.53 75.35 3.00 365.13 2745.40
   14:07:49.092.18-Jul-2021 4559.00 6669.53 75.35 3.00 365.33 2745.40
   14:07:49.292.18-Jul-2021 4559.00 6692.01 75.35 3.00 365.53 2745.40
   14:07:49.492.18-Jul-2021 4559.00 6667.34 75.35 3.00 365.73 2745.40
   14:07:49.692.18-Jul-2021 4559.00 6691.36 75.35 3.00 365.93 2745.40
   14:07:49.892.18-Jul-2021 4559.00 6687.25 75.35 3.00 366.13 2745.40
   14:07:50.092.18-Jul-2021 4559.00 6687.25 75.35 3.00 366.33 2745.40
   14:07:50.292.18-Jul-2021 4559.00 6675.27 75.35 3.00 366.53 2745.40
   14:07:50.492.18-Jul-2021 4559.00 6677.22 75.35 3.00 366.74 2745.40
   14:07:50.692.18-Jul-2021 4559.00 6667.58 75.35 3.00 366.94 2745.40
   14:07:50.892.18-Jul-2021 4559.00 6693.55 75.35 3.00 367.14 2745.40
   14:07:51.092.18-Jul-2021 4559.00 6693.55 75.35 3.00 367.34 2745.40
   14:07:51.292.18-Jul-2021 4559.00 6674.82 75.35 3.00 367.54 2745.40
   14:07:51.492.18-Jul-2021 4559.00 6682.28 75.35 3.00 367.74 2745.40
   14:07:51.693.18-Jul-2021 4559.00 6672.18 75.35 3.00 367.94 2745.40
