~Version Information
 VERS.                  2.0:   CWLS log ASCII Standard -VERSION 2.0
 WRAP.                   NO:   One line per depth step
~Well Information Block
#MNEM.UNIT     VALUE/NAME     DESCRIPTION
#---------     -----------    ---------------------------
 STRT.S             16:45:59 18-Jul-21: START TIME 16:45:59 18-Jul-21
 STOP.S             16:52:30 18-Jul-21: STOP TIME  16:52:30 18-Jul-21
 STEP.S                   0.00: STEP TIME
 NULL.                 -999.25: NULL VALUE
 MDS .        Operator Entered:  MAG DATA SOURCE
 PDAT.          Mean Sea Level:  PERMANENT DATUM
 UNIT.                     N/A:  LOGGING EQUIPMENT ID
 DCON.         Sperry Drilling:  DIRECTNL CONTR
 DOE .                     N/A:  DOE NUMBER
 RIG .              West Azeri:  RIG NAME
 JOBN.        AZ-XX-0906997913:  JOB TICKET NUMB
 WELL.                     C41:  WELL NAME
 MWDS.                    Baku:  MWD SHOP
 SRVC.          Turan Drilling:  CONTRACTOR
 FLD .                     ACG:  FIELD NAME
 CTRY.              Azerbaijan:  COUNTRY NAME
 PROV.                    Baku:  PROVINCE
 STAT.                    Baku:  STATE NAME
 REGN.                   EESSA:  REGION
 BASE.              Azerbaijan:  LOGGING EQUIPMENT BASE LOCATION
 UWI .                     N/A:  UNIQUE WELL IDENTIFIER
 API .                     N/A:  API NUMBER
 COMP.     BP Exploration (Caspian Sea) Ltd.:  COMPANY
 WTYP.                Deviated:  WELL TYPE
 SON .        AZ-XX-0906997913:  JOB NUMBER
 FTOP.          Formation Tops:  FORM TOPS DESC
 ILTD.               Lithology:  INTERP LTH DESC
 SVYD.                  Survey:  SURVEY DESC
 DMOD.             Drill Model:  DRILL MOD DESC
 HPTY.       Minimum Curvature:  HOLE POS TYPE
 NREF.                    Grid:  NORTH REFERENCE
 SPUD.               16-May-21:  SPUD DATE
 DATE.      21.11.28 17-May-21:  END TIME
 STIM.      21.11.28 17-May-21:  START TIME
 DMF .             Drill Floor:  DRILL MEAS FROM
 DFST.                        :  DIST FSL TEXT
 DFWT.                        :  DIST FWL TEXT
 CNTY.                        :  COUNTY
 LOC .                        :  LOCATION
 LMF .             Drill Floor:  LOG MEASURED FROM
 AGAP.m                  43.42:  AIR GAP
 VSNS.m                  -2.16:  VERT SEC N/S
 VSEW.m                  -6.24:  VERT SEC E/W
 APD .m                  43.42:  DEPTH ABOVE PD
 WDMS.m                 118.27:  WD ELEV
 EGL .m                   0.00:  GROUND ELEVATION
 EPD .m                   0.00:  ELEVATION
 AZTC.deg                 6.29:  AZM TOTAL CORR
 GRDC.deg                 0.18:  GRID CORRECTION
 MDEC.deg                 6.47:  MAGNETIC DECL
 MDIP.deg                59.54:  MAGNETIC DIP
 MFLD.nT              50337.00:  MAGNETIC FIELD
 GVFD.g                   1.00:  GRAVITY FIELD
 VSDR.deg               226.99:  VERT SEC DIRECT
 TDD .m                   0.00:  TOTAL DEPTH (DRILLER)
 SDEP.m                 448.00:  START DEPTH
 DFSL.m                   0.00:  DISTANCE FSL
 DFWL.m                   0.00:  DISTANCE FWL
 UTMY.m             4435799.96:  UTM Y
 UTMX.m              526265.35:  UTM X
 WHEW.m                  -6.24:  WELL HEAD E/W
 WHNS.m                  -2.16:  WELL HEAD N/S
 LONG.deg                51.31:  LONGITUDE
 LATI.deg                40.06:  LATITUDE
 TVDS.m                  43.42:  TVDSS CORRECTN
 EKB .m                  43.42:  KB ELEVATION
 EDF .m                  43.42:  DF ELEVATION
 TDL .m                 288.00:  TOTAL DEPTH (LOGGER)
 MAGU.                 1851863:  MAGUTM CHECKSUM
 VSC .                       0:  VS TO CLOSURE
~Parameter Information Block
#MNEM.UNIT       Value        Description
#---------     -----------    ---------------------------
 AV  .mps                 0.40:  Ann Velocity 
 AVMX.mps                 0.63:  Max Ann Veloc 
 AZIF.deg               158.76:  Azm, Final 
 BHAT.        Rotary Steerable:  BHA Type 
 BROT.∞/30m               0.68:  Build Rotating 
 BS  .in                  8.50:  Bit Size 
 BSZ .in                  8.50:  Bit Size 
 BTPL.psig              712.00:  Bit Press Loss 
 CABU.                      No:  Customer Abuse 
 COMM.                     ,èr:  Run Comments 1 
 TCS .hr                 90.66:  Time Ciculation Ended 
 CV  .mps                 2.02:  Crit Velocity 
 CVMX.mps                 2.14:  Max Crit Veloc 
 DD1 .            Aziz Aliyevu:  Direct Drillr 1 
 DD2 .             Samir Abbas:  Direct Drillr 2 
 DD3 .           Teymur Aliyev:  Direct Drillr 3 
 DDSV.                 iCruise:  DD Service 
 DEFF.%                  85.10:  % Det Eff 
 DLRX.∞/30m               1.05:  Dogleg Rot Max 
 DLSO.∞/30m               1.01:  Dogleg Oriented 
 DLSX.∞/30m               1.05:  Dogleg Str Max 
 DRET.      07.45.00 18-Jul-21:  Drill End Time 
 DRST.      15.00.00 16-Jul-21:  Drill Start Tim 
 DTIM.hr                 23.46:  Time Drilling 
 EDEP.m                4603.00:  End Depth 
 ENG1.       Seymur Iskandarov:  Engineer 1 
 ENG2.         Yevgeniy Ulikov:  Engineer 2 
 ENG3.         Bahruz Mehdiyev:  Engineer 3 
 ENG4.         Elchin Mammadov:  Engineer 4 
 ETIM.      14.00.00 23-Jul-21:  End Time 
 FLOI.gpm               500.00:  Flow In 
 FLON.gpm               450.00:  Flow In Min 
 FLOS.cptm                0.00:  Fluid Loss 
 FLOX.gpm               560.00:  Flow In Max 
 DFT .        Mineral Oil Base:  Mud Type 
 FTRO.       Formation Presure:  FTWD Run Obj 
 HFLO.                      No:  High Flow 
 HPRE.                      No:  High Pressure 
 HTEM.                      No:  High Temp 
 HYDO.m                   1.80:  Hydro Offset 
 IFIN.deg                40.22:  Inc, Final 
 IMAX.deg                40.54:  Inc Max 
 IMIN.deg                39.44:  Inc Min 
 IMND.m                4361.17:  Inc Min Depth 
 IMXD.m                4417.92:  Inc Max Depth 
 JARR.                      No:  Jarring 
 LETM.      07.45.00 18-Jul-21:  Log End Time 
 LOST.hr                    16:  Lost Rig Time 
 LSTM.      15.00.00 16-Jul-21:  Log Start Time 
 MDCL.ppm             36500.00:  Mud Chlorides 
 MDES.     Inversion Oil/Synthetic:  Mud Desc 
 DFD .sg                  1.42:  Mud Density 
 MDMN.sg                  1.42:  Dens Mud Min 
 MDMX.sg                  1.43:  Dens Mud Max 
 MOIL.                      56:  Run Mud Oil % 
 MOWR.                   71:29:  Run Mud OWR 
 MSND.                     0.5:  Run Mud Sand % 
 MSOL.                      21:  Run Mud Solids% 
 DFV .spqt               78.00:  Mud Viscosity 
 MWOD.in                  6.75:  MWD Tool OD 
 MWSI.                     Yes:  Serv Intrp, MWD 
 OTIM.hr                200.73:  Time Operating 
 PCON.           Look Like New:  Pad Condition 
 PMAX.psia            11069.93:  Press Op, Max 
 PV  .cP                 32.00:  Mud PV 
 RUN .                     700:  Run Number 
 ROPA.m/hr               10.00:  ROP Avg 
 ROPN.m/hr                9.00:  ROP Min 
 ROPX.m/hr               16.00:  ROP Max 
 RPMA.rpm               116.00:  RPM Surface Avg 
 RPMN.rpm                80.00:  RPM Surface Min 
 RPMX.rpm               120.00:  RPM Surface Max 
 RRUN.                    L605:  Rig Run Number 
 RTIM.hr                 45.00:  Time Reaming 
 SAZI.deg               159.86:  Azm, Start 
 SDEP.m                4315.00:  Start Depth 
 SIDD.                      No:  Serv Intrp, DD 
 SINC.deg                39.86:  Inc, Start 
 SPPA.psig             3300.00:  SPP Avg 
 SPPN.psig             3040.00:  SPP Min 
 SPPX.psig             3645.00:  SPP Max 
 STIM.      01.00.00 15-Jul-21:  Start Time 
 SVCS.                 DD, MWD:  Services 
 SVER.                    9.20:  Sperry Version 
 TDAT.m                 288.00:  Tot Depth Attmp 
 TDDF.                      No:  Trip for DD 
 TDLG.m                 288.00:  Tot Depth Loggd 
 TFF .                      No:  Trip for Fail 
 TQAA.f-kp               19.00:  Torque Abs Avg 
 TQAN.f-kp               18.00:  Torque Abs Min 
 TQAX.f-kp               21.00:  Torque Abs Max 
 TRRT.∞/30m               0.45:  Turn Rotating 
 MRT .                    HCIM:  Maximum Recorded Temperature 
 TTMX.degC               88.24:  Max Tool Temp 
 VS01.                90649157:  Virtual Str1 SN 
 VS02.                90652483:  Virtual Str2 SN 
 VS03.                11671987:  Virtual Str3 SN 
 VS04.                90643411:  Virtual Str4 SN 
 VS05.                90652478:  Virtual Str5 SN 
 VS06.                    6111:  Virtual Str6 SN 
 WBMN.klb                 9.50:  WOB Min 
 WITN.        Grigoriy Sarayev:  Customer Rep 
 WITN.          Rufat Huseynov:  Customer Rep 2 
 WOBA.klb                11.00:  WOB Avg 
 WOBX.klb                15.00:  WOB Max 
 YP  .lhf2               28.00:  Yield Point 
~Curve Information Block
#MNEM.UNIT                 API CODE     Curve Description
#---------               -----------    ---------------------------
 TIME.HHMMSS            00 000 000 000:  GT Time & Date
 GTDEPTH.m              00 000 000 000:  GT Depth
 GTPQH.psia             00 000 000 000:  GT HR Quartz Pressure
 GTTQ.degC              00 000 000 000:  GT Quartz Temperature
 GTTN.NONE              00 000 000 000:  GT Test Number
 GTET.sec               00 000 000 000:  GT Elapsed Test Time
 GTTVD.m                00 000 000 000:  GT True Vertical Depth
#Other Information
#
#WARRANTY: Halliburton will use its best efforts to furnish customers with 
#accurate information and interpretations that are part of, and incident to, the services 
#provided.  However, Halliburton cannot and does not warrant the accuracy 
#or correctness of such information and interpretations.  Under no circumstances should any 
#such information or interpretation be relied upon as the sole basis for any drilling, 
#completion, production, or financial decision or any procedure involving any risk to the 
#safety of any drilling venture, drilling rig or its crew or any other third party.  The 
#Customer has full responsibility for all drilling, completion and production operation.  
#Halliburton makes no representations or warranties, either expressed or 
#implied, including, but not limited to, the implied warranties of merchantability or fitness 
#for a particular purpose, with respect to the services rendered.  In no event will 
#Halliburton be liable for failure to obtain any particular results or for 
#any damages, including, but not limited to, indirect, special or consequential damages, 
#resulting from the use of any information or interpretation provided by Halliburton.
#
~A           TIME           GTDEPTH  GTPQH  GTTQ  GTTN  GTET   GTTVD  
   16:45:59.386.18-Jul-2021 4545.00 6593.24 75.05 6.00   0.00 2734.68
   16:45:59.586.18-Jul-2021 4545.00 6593.24 75.05 6.00   0.20 2734.68
   16:45:59.786.18-Jul-2021 4545.00 6607.48 75.05 6.00   0.40 2734.68
   16:45:59.986.18-Jul-2021 4545.00 6595.67 75.05 6.00   0.60 2734.68
   16:46:00.186.18-Jul-2021 4545.00 6594.36 75.05 6.00   0.80 2734.68
   16:46:00.386.18-Jul-2021 4545.00 6608.76 75.05 6.00   1.00 2734.68
   16:46:00.586.18-Jul-2021 4545.00 6608.76 75.05 6.00   1.20 2734.68
   16:46:00.787.18-Jul-2021 4545.00 6595.92 75.05 6.00   1.40 2734.68
   16:46:00.987.18-Jul-2021 4545.00 6593.67 75.05 6.00   1.60 2734.68
   16:46:01.187.18-Jul-2021 4545.00 6599.48 75.05 6.00   1.80 2734.68
   16:46:01.387.18-Jul-2021 4545.00 6622.25 75.05 6.00   2.00 2734.68
   16:46:01.587.18-Jul-2021 4545.00 6622.25 75.05 6.00   2.20 2734.68
   16:46:01.787.18-Jul-2021 4545.00 6594.14 75.05 6.00   2.40 2734.68
   16:46:01.987.18-Jul-2021 4545.00 6601.14 75.05 6.00   2.60 2734.68
   16:46:02.187.18-Jul-2021 4545.00 6603.23 75.05 6.00   2.80 2734.68
   16:46:02.387.18-Jul-2021 4545.00 6596.70 75.05 6.00   3.00 2734.68
   16:46:02.587.18-Jul-2021 4545.00 6596.70 75.05 6.00   3.20 2734.68
   16:46:02.787.18-Jul-2021 4545.00 6608.34 75.05 6.00   3.40 2734.68
   16:46:02.987.18-Jul-2021 4545.00 6601.33 75.05 6.00   3.60 2734.68
   16:46:03.187.18-Jul-2021 4545.00 6605.65 75.05 6.00   3.80 2734.68
   16:46:03.387.18-Jul-2021 4545.00 6599.36 75.05 6.00   4.00 2734.68
   16:46:03.588.18-Jul-2021 4545.00 6599.36 75.05 6.00   4.20 2734.68
   16:46:03.788.18-Jul-2021 4545.00 6602.63 75.05 6.00   4.40 2734.68
   16:46:03.988.18-Jul-2021 4545.00 6600.88 75.05 6.00   4.60 2734.68
   16:46:04.188.18-Jul-2021 4545.00 6605.70 75.05 6.00   4.80 2734.68
   16:46:04.388.18-Jul-2021 4545.00 6604.29 75.05 6.00   5.00 2734.68
   16:46:04.588.18-Jul-2021 4545.00 6604.29 75.05 6.00   5.20 2734.68
   16:46:04.788.18-Jul-2021 4545.00 6620.22 75.05 6.00   5.40 2734.68
   16:46:04.988.18-Jul-2021 4545.00 6611.35 75.05 6.00   5.60 2734.68
   16:46:05.188.18-Jul-2021 4545.00 6602.85 75.05 6.00   5.80 2734.68
   16:46:05.388.18-Jul-2021 4545.00 6606.64 75.05 6.00   6.00 2734.68
   16:46:05.588.18-Jul-2021 4545.00 6606.64 75.05 6.00   6.20 2734.68
   16:46:05.788.18-Jul-2021 4545.00 6601.70 75.05 6.00   6.40 2734.68
   16:46:05.988.18-Jul-2021 4545.00 6602.19 75.05 6.00   6.60 2734.68
   16:46:06.188.18-Jul-2021 4545.00 6603.06 75.05 6.00   6.80 2734.68
   16:46:06.389.18-Jul-2021 4545.00 6603.21 75.05 6.00   7.00 2734.68
   16:46:06.589.18-Jul-2021 4545.00 6603.21 75.05 6.00   7.20 2734.68
   16:46:06.789.18-Jul-2021 4545.00 6604.80 75.05 6.00   7.40 2734.68
   16:46:06.989.18-Jul-2021 4545.00 6602.96 75.05 6.00   7.60 2734.68
   16:46:07.189.18-Jul-2021 4545.00 6602.96 75.05 6.00   7.80 2734.68
   16:46:07.389.18-Jul-2021 4545.00 6607.10 75.05 6.00   8.00 2734.68
   16:46:07.589.18-Jul-2021 4545.00 6607.10 75.05 6.00   8.20 2734.68
   16:46:07.789.18-Jul-2021 4545.00 6612.76 75.05 6.00   8.40 2734.68
   16:46:07.989.18-Jul-2021 4545.00 6606.02 75.05 6.00   8.60 2734.68
   16:46:08.189.18-Jul-2021 4545.00 6609.59 75.05 6.00   8.80 2734.68
   16:46:08.389.18-Jul-2021 4545.00 6603.23 75.05 6.00   9.00 2734.68
   16:46:08.589.18-Jul-2021 4545.00 6603.23 75.05 6.00   9.20 2734.68
   16:46:08.789.18-Jul-2021 4545.00 6604.81 75.05 6.00   9.40 2734.68
   16:46:08.990.18-Jul-2021 4545.00 6605.15 75.04 6.00   9.60 2734.68
   16:46:09.190.18-Jul-2021 4545.00 6602.05 75.04 6.00   9.80 2734.68
   16:46:09.390.18-Jul-2021 4545.00 6600.96 75.04 6.00  10.00 2734.68
   16:46:09.590.18-Jul-2021 4545.00 6600.96 75.04 6.00  10.20 2734.68
   16:46:09.790.18-Jul-2021 4545.00 6604.19 75.04 6.00  10.40 2734.68
   16:46:09.990.18-Jul-2021 4545.00 6602.69 75.04 6.00  10.60 2734.68
   16:46:10.190.18-Jul-2021 4545.00 6626.16 75.04 6.00  10.80 2734.68
   16:46:10.390.18-Jul-2021 4545.00 6606.22 75.04 6.00  11.00 2734.68
   16:46:10.590.18-Jul-2021 4545.00 6606.22 75.04 6.00  11.20 2734.68
   16:46:10.790.18-Jul-2021 4545.00 6609.63 75.04 6.00  11.40 2734.68
   16:46:10.990.18-Jul-2021 4545.00 6610.39 75.04 6.00  11.60 2734.68
   16:46:11.190.18-Jul-2021 4545.00 6622.46 75.04 6.00  11.80 2734.68
   16:46:11.390.18-Jul-2021 4545.00 6613.30 75.04 6.00  12.00 2734.68
   16:46:11.590.18-Jul-2021 4545.00 6613.30 75.04 6.00  12.20 2734.68
   16:46:11.791.18-Jul-2021 4545.00 6611.37 75.04 6.00  12.40 2734.68
   16:46:11.991.18-Jul-2021 4545.00 6634.09 75.04 6.00  12.60 2734.68
   16:46:12.191.18-Jul-2021 4545.00 6609.96 75.04 6.00  12.80 2734.68
   16:46:12.391.18-Jul-2021 4545.00 6603.64 75.04 6.00  13.00 2734.68
   16:46:12.591.18-Jul-2021 4545.00 6603.64 75.04 6.00  13.20 2734.68
   16:46:12.791.18-Jul-2021 4545.00 6631.29 75.04 6.00  13.40 2734.68
   16:46:12.991.18-Jul-2021 4545.00 6617.48 75.04 6.00  13.61 2734.68
   16:46:13.191.18-Jul-2021 4545.00 6611.91 75.04 6.00  13.81 2734.68
   16:46:13.391.18-Jul-2021 4545.00 6636.79 75.04 6.00  14.01 2734.68
   16:46:13.591.18-Jul-2021 4545.00 6636.79 75.04 6.00  14.21 2734.68
   16:46:13.791.18-Jul-2021 4545.00 6636.79 75.04 6.00  14.41 2734.68
   16:46:13.991.18-Jul-2021 4545.00 6613.42 75.04 6.00  14.61 2734.68
   16:46:14.191.18-Jul-2021 4545.00 6615.49 75.04 6.00  14.81 2734.68
   16:46:14.392.18-Jul-2021 4545.00 6621.44 75.04 6.00  15.01 2734.68
   16:46:14.592.18-Jul-2021 4545.00 6621.44 75.04 6.00  15.21 2734.68
   16:46:14.792.18-Jul-2021 4545.00 6621.44 75.04 6.00  15.41 2734.68
   16:46:14.992.18-Jul-2021 4545.00 6614.50 75.04 6.00  15.61 2734.68
   16:46:15.192.18-Jul-2021 4545.00 6618.58 75.04 6.00  15.81 2734.68
   16:46:15.392.18-Jul-2021 4545.00 6614.68 75.04 6.00  16.01 2734.68
   16:46:15.592.18-Jul-2021 4545.00 6614.68 75.04 6.00  16.21 2734.68
   16:46:15.792.18-Jul-2021 4545.00 6617.06 75.04 6.00  16.41 2734.68
   16:46:15.992.18-Jul-2021 4545.00 6617.73 75.04 6.00  16.61 2734.68
   16:46:16.192.18-Jul-2021 4545.00 6615.01 75.04 6.00  16.81 2734.68
   16:46:16.392.18-Jul-2021 4545.00 6614.21 75.04 6.00  17.01 2734.68
   16:46:16.592.18-Jul-2021 4545.00 6614.21 75.04 6.00  17.21 2734.68
   16:46:16.792.18-Jul-2021 4545.00 6616.94 75.04 6.00  17.41 2734.68
   16:46:16.992.18-Jul-2021 4545.00 6617.04 75.04 6.00  17.61 2734.68
   16:46:17.193.18-Jul-2021 4545.00 6616.60 75.04 6.00  17.81 2734.68
   16:46:17.393.18-Jul-2021 4545.00 6636.37 75.04 6.00  18.01 2734.68
   16:46:17.593.18-Jul-2021 4545.00 6636.37 75.04 6.00  18.21 2734.68
   16:46:17.793.18-Jul-2021 4545.00 6618.96 75.04 6.00  18.41 2734.68
   16:46:17.993.18-Jul-2021 4545.00 6622.10 75.04 6.00  18.61 2734.68
   16:46:18.193.18-Jul-2021 4545.00 6618.73 75.04 6.00  18.81 2734.68
   16:46:18.393.18-Jul-2021 4545.00 6618.83 75.04 6.00  19.01 2734.68
   16:46:18.593.18-Jul-2021 4545.00 6618.83 75.04 6.00  19.21 2734.68
   16:46:18.793.18-Jul-2021 4545.00 6618.22 75.04 6.00  19.41 2734.68
   16:46:18.993.18-Jul-2021 4545.00 6615.14 75.04 6.00  19.61 2734.68
   16:46:19.193.18-Jul-2021 4545.00 6616.45 75.04 6.00  19.81 2734.68
   16:46:19.393.18-Jul-2021 4545.00 6618.67 75.04 6.00  20.01 2734.68
   16:46:19.593.18-Jul-2021 4545.00 6618.67 75.04 6.00  20.21 2734.68
   16:46:19.794.18-Jul-2021 4545.00 6615.47 75.04 6.00  20.41 2734.68
   16:46:19.994.18-Jul-2021 4545.00 6635.07 75.04 6.00  20.61 2734.68
   16:46:20.194.18-Jul-2021 4545.00 6627.96 75.04 6.00  20.81 2734.68
   16:46:20.394.18-Jul-2021 4545.00 6619.99 75.04 6.00  21.01 2734.68
   16:46:20.594.18-Jul-2021 4545.00 6619.99 75.04 6.00  21.21 2734.68
   16:46:20.794.18-Jul-2021 4545.00 6630.26 75.04 6.00  21.41 2734.68
   16:46:20.994.18-Jul-2021 4545.00 6619.48 75.04 6.00  21.61 2734.68
   16:46:21.194.18-Jul-2021 4545.00 6626.51 75.04 6.00  21.81 2734.68
   16:46:21.394.18-Jul-2021 4545.00 6642.98 75.04 6.00  22.01 2734.68
   16:46:21.594.18-Jul-2021 4545.00 6642.98 75.04 6.00  22.21 2734.68
   16:46:21.794.18-Jul-2021 4545.00 6622.88 75.04 6.00  22.41 2734.68
   16:46:21.994.18-Jul-2021 4545.00 6622.88 75.04 6.00  22.61 2734.68
   16:46:22.194.18-Jul-2021 4545.00 6633.28 75.04 6.00  22.81 2734.68
