~Version Information
 VERS.                  2.0:   CWLS log ASCII Standard -VERSION 2.0
 WRAP.                   NO:   One line per depth step
~Well Information Block
#MNEM.UNIT     VALUE/NAME     DESCRIPTION
#---------     -----------    ---------------------------
 STRT.S             23:00:58 18-Jul-21: START TIME 23:00:58 18-Jul-21
 STOP.S             23:07:34 18-Jul-21: STOP TIME  23:07:34 18-Jul-21
 STEP.S                   0.00: STEP TIME
 NULL.                 -999.25: NULL VALUE
 MDS .        Operator Entered:  MAG DATA SOURCE
 PDAT.          Mean Sea Level:  PERMANENT DATUM
 UNIT.                     N/A:  LOGGING EQUIPMENT ID
 DCON.         Sperry Drilling:  DIRECTNL CONTR
 DOE .                     N/A:  DOE NUMBER
 RIG .              West Azeri:  RIG NAME
 JOBN.        AZ-XX-0906997913:  JOB TICKET NUMB
 WELL.                     C41:  WELL NAME
 MWDS.                    Baku:  MWD SHOP
 SRVC.          Turan Drilling:  CONTRACTOR
 FLD .                     ACG:  FIELD NAME
 CTRY.              Azerbaijan:  COUNTRY NAME
 PROV.                    Baku:  PROVINCE
 STAT.                    Baku:  STATE NAME
 REGN.                   EESSA:  REGION
 BASE.              Azerbaijan:  LOGGING EQUIPMENT BASE LOCATION
 UWI .                     N/A:  UNIQUE WELL IDENTIFIER
 API .                     N/A:  API NUMBER
 COMP.     BP Exploration (Caspian Sea) Ltd.:  COMPANY
 WTYP.                Deviated:  WELL TYPE
 SON .        AZ-XX-0906997913:  JOB NUMBER
 FTOP.          Formation Tops:  FORM TOPS DESC
 ILTD.               Lithology:  INTERP LTH DESC
 SVYD.                  Survey:  SURVEY DESC
 DMOD.             Drill Model:  DRILL MOD DESC
 HPTY.       Minimum Curvature:  HOLE POS TYPE
 NREF.                    Grid:  NORTH REFERENCE
 SPUD.               16-May-21:  SPUD DATE
 DATE.      21.11.28 17-May-21:  END TIME
 STIM.      21.11.28 17-May-21:  START TIME
 DMF .             Drill Floor:  DRILL MEAS FROM
 DFST.                        :  DIST FSL TEXT
 DFWT.                        :  DIST FWL TEXT
 CNTY.                        :  COUNTY
 LOC .                        :  LOCATION
 LMF .             Drill Floor:  LOG MEASURED FROM
 AGAP.m                  43.42:  AIR GAP
 VSNS.m                  -2.16:  VERT SEC N/S
 VSEW.m                  -6.24:  VERT SEC E/W
 APD .m                  43.42:  DEPTH ABOVE PD
 WDMS.m                 118.27:  WD ELEV
 EGL .m                   0.00:  GROUND ELEVATION
 EPD .m                   0.00:  ELEVATION
 AZTC.deg                 6.29:  AZM TOTAL CORR
 GRDC.deg                 0.18:  GRID CORRECTION
 MDEC.deg                 6.47:  MAGNETIC DECL
 MDIP.deg                59.54:  MAGNETIC DIP
 MFLD.nT              50337.00:  MAGNETIC FIELD
 GVFD.g                   1.00:  GRAVITY FIELD
 VSDR.deg               226.99:  VERT SEC DIRECT
 TDD .m                   0.00:  TOTAL DEPTH (DRILLER)
 SDEP.m                 448.00:  START DEPTH
 DFSL.m                   0.00:  DISTANCE FSL
 DFWL.m                   0.00:  DISTANCE FWL
 UTMY.m             4435799.96:  UTM Y
 UTMX.m              526265.35:  UTM X
 WHEW.m                  -6.24:  WELL HEAD E/W
 WHNS.m                  -2.16:  WELL HEAD N/S
 LONG.deg                51.31:  LONGITUDE
 LATI.deg                40.06:  LATITUDE
 TVDS.m                  43.42:  TVDSS CORRECTN
 EKB .m                  43.42:  KB ELEVATION
 EDF .m                  43.42:  DF ELEVATION
 TDL .m                 288.00:  TOTAL DEPTH (LOGGER)
 MAGU.                 1851863:  MAGUTM CHECKSUM
 VSC .                       0:  VS TO CLOSURE
~Parameter Information Block
#MNEM.UNIT       Value        Description
#---------     -----------    ---------------------------
 AV  .mps                 0.40:  Ann Velocity 
 AVMX.mps                 0.63:  Max Ann Veloc 
 AZIF.deg               158.76:  Azm, Final 
 BHAT.        Rotary Steerable:  BHA Type 
 BROT.°/30m               0.68:  Build Rotating 
 BS  .in                  8.50:  Bit Size 
 BSZ .in                  8.50:  Bit Size 
 BTPL.psig              712.00:  Bit Press Loss 
 CABU.                      No:  Customer Abuse 
 COMM.                     ¼2`:  Run Comments 1 
 TCS .hr                 90.66:  Time Ciculation Ended 
 CV  .mps                 2.02:  Crit Velocity 
 CVMX.mps                 2.14:  Max Crit Veloc 
 DD1 .            Aziz Aliyevu:  Direct Drillr 1 
 DD2 .             Samir Abbas:  Direct Drillr 2 
 DD3 .           Teymur Aliyev:  Direct Drillr 3 
 DDSV.                 iCruise:  DD Service 
 DEFF.%                  85.10:  % Det Eff 
 DLRX.°/30m               1.05:  Dogleg Rot Max 
 DLSO.°/30m               1.01:  Dogleg Oriented 
 DLSX.°/30m               1.05:  Dogleg Str Max 
 DRET.      07.45.00 18-Jul-21:  Drill End Time 
 DRST.      15.00.00 16-Jul-21:  Drill Start Tim 
 DTIM.hr                 23.46:  Time Drilling 
 EDEP.m                4603.00:  End Depth 
 ENG1.       Seymur Iskandarov:  Engineer 1 
 ENG2.         Yevgeniy Ulikov:  Engineer 2 
 ENG3.         Bahruz Mehdiyev:  Engineer 3 
 ENG4.         Elchin Mammadov:  Engineer 4 
 ETIM.      14.00.00 23-Jul-21:  End Time 
 FLOI.gpm               500.00:  Flow In 
 FLON.gpm               450.00:  Flow In Min 
 FLOS.cptm                0.00:  Fluid Loss 
 FLOX.gpm               560.00:  Flow In Max 
 DFT .        Mineral Oil Base:  Mud Type 
 FTRO.       Formation Presure:  FTWD Run Obj 
 HFLO.                      No:  High Flow 
 HPRE.                      No:  High Pressure 
 HTEM.                      No:  High Temp 
 HYDO.m                   1.80:  Hydro Offset 
 IFIN.deg                40.22:  Inc, Final 
 IMAX.deg                40.54:  Inc Max 
 IMIN.deg                39.44:  Inc Min 
 IMND.m                4361.17:  Inc Min Depth 
 IMXD.m                4417.92:  Inc Max Depth 
 JARR.                      No:  Jarring 
 LETM.      07.45.00 18-Jul-21:  Log End Time 
 LOST.hr                    16:  Lost Rig Time 
 LSTM.      15.00.00 16-Jul-21:  Log Start Time 
 MDCL.ppm             36500.00:  Mud Chlorides 
 MDES.     Inversion Oil/Synthetic:  Mud Desc 
 DFD .sg                  1.42:  Mud Density 
 MDMN.sg                  1.42:  Dens Mud Min 
 MDMX.sg                  1.43:  Dens Mud Max 
 MOIL.                      56:  Run Mud Oil % 
 MOWR.                   71:29:  Run Mud OWR 
 MSND.                     0.5:  Run Mud Sand % 
 MSOL.                      21:  Run Mud Solids% 
 DFV .spqt               78.00:  Mud Viscosity 
 MWOD.in                  6.75:  MWD Tool OD 
 MWSI.                     Yes:  Serv Intrp, MWD 
 OTIM.hr                200.73:  Time Operating 
 PCON.           Look Like New:  Pad Condition 
 PMAX.psia            11069.93:  Press Op, Max 
 PV  .cP                 32.00:  Mud PV 
 RUN .                     700:  Run Number 
 ROPA.m/hr               10.00:  ROP Avg 
 ROPN.m/hr                9.00:  ROP Min 
 ROPX.m/hr               16.00:  ROP Max 
 RPMA.rpm               116.00:  RPM Surface Avg 
 RPMN.rpm                80.00:  RPM Surface Min 
 RPMX.rpm               120.00:  RPM Surface Max 
 RRUN.                    L605:  Rig Run Number 
 RTIM.hr                 45.00:  Time Reaming 
 SAZI.deg               159.86:  Azm, Start 
 SDEP.m                4315.00:  Start Depth 
 SIDD.                      No:  Serv Intrp, DD 
 SINC.deg                39.86:  Inc, Start 
 SPPA.psig             3300.00:  SPP Avg 
 SPPN.psig             3040.00:  SPP Min 
 SPPX.psig             3645.00:  SPP Max 
 STIM.      01.00.00 15-Jul-21:  Start Time 
 SVCS.                 DD, MWD:  Services 
 SVER.                    9.20:  Sperry Version 
 TDAT.m                 288.00:  Tot Depth Attmp 
 TDDF.                      No:  Trip for DD 
 TDLG.m                 288.00:  Tot Depth Loggd 
 TFF .                      No:  Trip for Fail 
 TQAA.f-kp               19.00:  Torque Abs Avg 
 TQAN.f-kp               18.00:  Torque Abs Min 
 TQAX.f-kp               21.00:  Torque Abs Max 
 TRRT.°/30m               0.45:  Turn Rotating 
 MRT .                    HCIM:  Maximum Recorded Temperature 
 TTMX.degC               88.24:  Max Tool Temp 
 VS01.                90649157:  Virtual Str1 SN 
 VS02.                90652483:  Virtual Str2 SN 
 VS03.                11671987:  Virtual Str3 SN 
 VS04.                90643411:  Virtual Str4 SN 
 VS05.                90652478:  Virtual Str5 SN 
 VS06.                    6111:  Virtual Str6 SN 
 WBMN.klb                 9.50:  WOB Min 
 WITN.        Grigoriy Sarayev:  Customer Rep 
 WITN.          Rufat Huseynov:  Customer Rep 2 
 WOBA.klb                11.00:  WOB Avg 
 WOBX.klb                15.00:  WOB Max 
 YP  .lhf2               28.00:  Yield Point 
~Curve Information Block
#MNEM.UNIT                 API CODE     Curve Description
#---------               -----------    ---------------------------
 TIME.HHMMSS            00 000 000 000:  GT Time & Date
 GTDEPTH.m              00 000 000 000:  GT Depth
 GTPQH.psia             00 000 000 000:  GT HR Quartz Pressure
 GTTQ.degC              00 000 000 000:  GT Quartz Temperature
 GTTN.NONE              00 000 000 000:  GT Test Number
 GTET.sec               00 000 000 000:  GT Elapsed Test Time
 GTTVD.m                00 000 000 000:  GT True Vertical Depth
#Other Information
#
#WARRANTY: Halliburton will use its best efforts to furnish customers with 
#accurate information and interpretations that are part of, and incident to, the services 
#provided.  However, Halliburton cannot and does not warrant the accuracy 
#or correctness of such information and interpretations.  Under no circumstances should any 
#such information or interpretation be relied upon as the sole basis for any drilling, 
#completion, production, or financial decision or any procedure involving any risk to the 
#safety of any drilling venture, drilling rig or its crew or any other third party.  The 
#Customer has full responsibility for all drilling, completion and production operation.  
#Halliburton makes no representations or warranties, either expressed or 
#implied, including, but not limited to, the implied warranties of merchantability or fitness 
#for a particular purpose, with respect to the services rendered.  In no event will 
#Halliburton be liable for failure to obtain any particular results or for 
#any damages, including, but not limited to, indirect, special or consequential damages, 
#resulting from the use of any information or interpretation provided by Halliburton.
#
~A           TIME           GTDEPTH  GTPQH  GTTQ  GTTN  GTET   GTTVD  
# ...
   23:05:34.772.18-Jul-2021 4247.58 5948.79 69.67 8.00 276.10 2507.04
   23:05:34.972.18-Jul-2021 4247.58 5948.79 69.67 8.00 276.30 2507.04
   23:05:35.172.18-Jul-2021 4247.58 5954.88 69.67 8.00 276.50 2507.04
   23:05:35.372.18-Jul-2021 4247.58 5948.78 69.67 8.00 276.70 2507.04
   23:05:35.572.18-Jul-2021 4247.58 5951.23 69.67 8.00 276.90 2507.04
   23:05:35.772.18-Jul-2021 4247.58 5953.89 69.67 8.00 277.10 2507.04
   23:05:35.973.18-Jul-2021 4247.58 5953.89 69.67 8.00 277.30 2507.04
   23:05:36.173.18-Jul-2021 4247.58 5952.62 69.67 8.00 277.50 2507.04
   23:05:36.373.18-Jul-2021 4247.58 5953.54 69.67 8.00 277.70 2507.04
   23:05:36.573.18-Jul-2021 4247.58 5952.80 69.67 8.00 277.90 2507.04
   23:05:36.773.18-Jul-2021 4247.58 5952.97 69.67 8.00 278.10 2507.04
   23:05:36.973.18-Jul-2021 4247.58 5952.97 69.67 8.00 278.30 2507.04
   23:05:37.173.18-Jul-2021 4247.58 5952.52 69.67 8.00 278.50 2507.04
   23:05:37.373.18-Jul-2021 4247.58 5952.68 69.67 8.00 278.70 2507.04
   23:05:37.573.18-Jul-2021 4247.58 5952.33 69.67 8.00 278.90 2507.04
   23:05:37.773.18-Jul-2021 4247.58 5953.02 69.67 8.00 279.10 2507.04
   23:05:37.973.18-Jul-2021 4247.58 5953.02 69.67 8.00 279.30 2507.04
   23:05:38.173.18-Jul-2021 4247.58 5947.71 69.67 8.00 279.50 2507.04
   23:05:38.373.18-Jul-2021 4247.58 5949.53 69.67 8.00 279.70 2507.04
   23:05:38.574.18-Jul-2021 4247.58 5951.69 69.67 8.00 279.90 2507.04
   23:05:38.774.18-Jul-2021 4247.58 5952.69 69.67 8.00 280.10 2507.04
   23:05:38.974.18-Jul-2021 4247.58 5952.69 69.67 8.00 280.30 2507.04
   23:05:39.174.18-Jul-2021 4247.58 5951.98 69.67 8.00 280.50 2507.04
   23:05:39.374.18-Jul-2021 4247.58 5952.04 69.67 8.00 280.70 2507.04
   23:05:39.574.18-Jul-2021 4247.58 5952.18 69.67 8.00 280.90 2507.04
   23:05:39.774.18-Jul-2021 4247.58 5952.40 69.67 8.00 281.10 2507.04
   23:05:39.974.18-Jul-2021 4247.58 5952.40 69.67 8.00 281.30 2507.04
   23:05:40.174.18-Jul-2021 4247.58 5951.51 69.67 8.00 281.50 2507.04
   23:05:40.374.18-Jul-2021 4247.58 5950.38 69.67 8.00 281.70 2507.04
   23:05:40.574.18-Jul-2021 4247.58 5951.83 69.67 8.00 281.90 2507.04
   23:05:40.774.18-Jul-2021 4247.58 5950.68 69.67 8.00 282.10 2507.04
   23:05:40.974.18-Jul-2021 4247.58 5950.68 69.67 8.00 282.30 2507.04
   23:05:41.174.18-Jul-2021 4247.58 5951.95 69.67 8.00 282.50 2507.04
   23:05:41.375.18-Jul-2021 4247.58 5947.57 69.67 8.00 282.70 2507.04
   23:05:41.575.18-Jul-2021 4247.58 5949.63 69.67 8.00 282.90 2507.04
   23:05:41.775.18-Jul-2021 4247.58 5950.99 69.67 8.00 283.10 2507.04
   23:05:41.975.18-Jul-2021 4247.58 5950.99 69.67 8.00 283.30 2507.04
   23:05:42.175.18-Jul-2021 4247.58 5948.53 69.67 8.00 283.50 2507.04
   23:05:42.375.18-Jul-2021 4247.58 5952.45 69.67 8.00 283.70 2507.04
   23:05:42.575.18-Jul-2021 4247.58 5953.05 69.67 8.00 283.90 2507.04
   23:05:42.775.18-Jul-2021 4247.58 5958.17 69.67 8.00 284.10 2507.04
   23:05:42.975.18-Jul-2021 4247.58 5958.17 69.67 8.00 284.30 2507.04
   23:05:43.175.18-Jul-2021 4247.58 5949.65 69.67 8.00 284.50 2507.04
   23:05:43.375.18-Jul-2021 4247.58 5952.85 69.67 8.00 284.70 2507.04
   23:05:43.575.18-Jul-2021 4247.58 5958.17 69.67 8.00 284.90 2507.04
   23:05:43.775.18-Jul-2021 4247.58 5951.86 69.67 8.00 285.10 2507.04
   23:05:43.976.18-Jul-2021 4247.58 5951.86 69.67 8.00 285.31 2507.04
   23:05:44.176.18-Jul-2021 4247.58 5952.17 69.67 8.00 285.51 2507.04
   23:05:44.376.18-Jul-2021 4247.58 5954.29 69.67 8.00 285.71 2507.04
   23:05:44.576.18-Jul-2021 4247.58 5953.10 69.67 8.00 285.91 2507.04
   23:05:44.776.18-Jul-2021 4247.58 5953.63 69.67 8.00 286.11 2507.04
   23:05:44.976.18-Jul-2021 4247.58 5953.63 69.67 8.00 286.31 2507.04
   23:05:45.176.18-Jul-2021 4247.58 5953.70 69.67 8.00 286.51 2507.04
   23:05:45.376.18-Jul-2021 4247.58 5955.59 69.67 8.00 286.71 2507.04
   23:05:45.576.18-Jul-2021 4247.58 5955.01 69.67 8.00 286.91 2507.04
   23:05:45.776.18-Jul-2021 4247.58 5955.86 69.67 8.00 287.11 2507.04
   23:05:45.976.18-Jul-2021 4247.58 5955.86 69.67 8.00 287.31 2507.04
   23:05:46.176.18-Jul-2021 4247.58 5954.96 69.67 8.00 287.51 2507.04
   23:05:46.376.18-Jul-2021 4247.58 5958.38 69.67 8.00 287.71 2507.04
   23:05:46.576.18-Jul-2021 4247.58 5951.06 69.67 8.00 287.91 2507.04
   23:05:46.777.18-Jul-2021 4247.58 5951.61 69.67 8.00 288.11 2507.04
   23:05:46.977.18-Jul-2021 4247.58 5951.61 69.67 8.00 288.31 2507.04
   23:05:47.177.18-Jul-2021 4247.58 5954.83 69.67 8.00 288.51 2507.04
   23:05:47.377.18-Jul-2021 4247.58 5954.47 69.67 8.00 288.71 2507.04
   23:05:47.577.18-Jul-2021 4247.58 5953.91 69.67 8.00 288.91 2507.04
   23:05:47.777.18-Jul-2021 4247.58 5954.79 69.67 8.00 289.11 2507.04
   23:05:47.977.18-Jul-2021 4247.58 5954.79 69.67 8.00 289.31 2507.04
   23:05:48.177.18-Jul-2021 4247.58 5955.13 69.67 8.00 289.51 2507.04
   23:05:48.377.18-Jul-2021 4247.58 5955.28 69.67 8.00 289.71 2507.04
   23:05:48.577.18-Jul-2021 4247.58 5954.80 69.67 8.00 289.91 2507.04
   23:05:48.777.18-Jul-2021 4247.58 5954.90 69.67 8.00 290.11 2507.04
   23:05:48.977.18-Jul-2021 4247.58 5954.90 69.67 8.00 290.31 2507.04
   23:05:49.177.18-Jul-2021 4247.58 5957.15 69.67 8.00 290.51 2507.04
   23:05:49.377.18-Jul-2021 4247.58 5949.04 69.67 8.00 290.71 2507.04
   23:05:49.578.18-Jul-2021 4247.58 5952.94 69.67 8.00 290.91 2507.04
   23:05:49.778.18-Jul-2021 4247.58 5955.64 69.67 8.00 291.11 2507.04
   23:05:49.978.18-Jul-2021 4247.58 5955.64 69.67 8.00 291.31 2507.04
   23:05:50.178.18-Jul-2021 4247.58 5954.17 69.67 8.00 291.51 2507.04
   23:05:50.378.18-Jul-2021 4247.58 5958.72 69.67 8.00 291.71 2507.04
   23:05:50.578.18-Jul-2021 4247.58 5958.83 69.67 8.00 291.91 2507.04
   23:05:50.778.18-Jul-2021 4247.58 5953.90 69.67 8.00 292.11 2507.04
   23:05:50.978.18-Jul-2021 4247.58 5953.90 69.67 8.00 292.31 2507.04
   23:05:51.178.18-Jul-2021 4247.58 5959.57 69.67 8.00 292.51 2507.04
   23:05:51.378.18-Jul-2021 4247.58 5958.45 69.67 8.00 292.71 2507.04
   23:05:51.578.18-Jul-2021 4247.58 5953.43 69.67 8.00 292.91 2507.04
   23:05:51.778.18-Jul-2021 4247.58 5957.24 69.67 8.00 293.11 2507.04
   23:05:51.978.18-Jul-2021 4247.58 5957.24 69.67 8.00 293.31 2507.04
   23:05:52.179.18-Jul-2021 4247.58 5959.87 69.67 8.00 293.51 2507.04
   23:05:52.379.18-Jul-2021 4247.58 5956.86 69.67 8.00 293.71 2507.04
   23:05:52.579.18-Jul-2021 4247.58 5958.29 69.67 8.00 293.91 2507.04
   23:05:52.779.18-Jul-2021 4247.58 5958.92 69.67 8.00 294.11 2507.04
   23:05:52.979.18-Jul-2021 4247.58 5958.92 69.67 8.00 294.31 2507.04
   23:05:53.179.18-Jul-2021 4247.58 5958.21 69.67 8.00 294.51 2507.04
   23:05:53.379.18-Jul-2021 4247.58 5959.65 69.67 8.00 294.71 2507.04
   23:05:53.579.18-Jul-2021 4247.58 5958.91 69.67 8.00 294.91 2507.04
   23:05:53.779.18-Jul-2021 4247.58 5958.55 69.67 8.00 295.11 2507.04
   23:05:53.979.18-Jul-2021 4247.58 5958.55 69.67 8.00 295.31 2507.04
   23:05:54.179.18-Jul-2021 4247.58 5959.31 69.67 8.00 295.51 2507.04
   23:05:54.379.18-Jul-2021 4247.58 5958.55 69.67 8.00 295.71 2507.04
   23:05:54.579.18-Jul-2021 4247.58 5959.30 69.67 8.00 295.91 2507.04
   23:05:54.779.18-Jul-2021 4247.58 5959.25 69.67 8.00 296.11 2507.04
   23:05:54.980.18-Jul-2021 4247.58 5959.25 69.67 8.00 296.31 2507.04
   23:05:55.180.18-Jul-2021 4247.58 5960.38 69.67 8.00 296.51 2507.04
   23:05:55.380.18-Jul-2021 4247.58 5955.84 69.67 8.00 296.71 2507.04
   23:05:55.580.18-Jul-2021 4247.58 5959.10 69.67 8.00 296.91 2507.04
   23:05:55.780.18-Jul-2021 4247.58 5959.36 69.67 8.00 297.11 2507.04
   23:05:55.980.18-Jul-2021 4247.58 5959.36 69.67 8.00 297.31 2507.04
   23:05:56.180.18-Jul-2021 4247.58 5959.05 69.67 8.00 297.51 2507.04
   23:05:56.380.18-Jul-2021 4247.58 5959.26 69.67 8.00 297.71 2507.04
   23:05:56.580.18-Jul-2021 4247.58 5959.22 69.67 8.00 297.91 2507.04
   23:05:56.780.18-Jul-2021 4247.58 5958.38 69.67 8.00 298.11 2507.04
   23:05:56.980.18-Jul-2021 4247.58 5958.38 69.67 8.00 298.31 2507.04
   23:05:57.180.18-Jul-2021 4247.58 5958.00 69.67 8.00 298.51 2507.04
   23:05:57.380.18-Jul-2021 4247.58 5957.55 69.67 8.00 298.71 2507.04
   23:05:57.581.18-Jul-2021 4247.58 5960.19 69.67 8.00 298.91 2507.04
