~Version Information
 VERS.                  2.0:   CWLS log ASCII Standard -VERSION 2.0
 WRAP.                   NO:   One line per depth step
~Well Information Block
#MNEM.UNIT     VALUE/NAME     DESCRIPTION
#---------     -----------    ---------------------------
 STRT.S             12:06:52 19-Jul-21: START TIME 12:06:52 19-Jul-21
 STOP.S             12:13:44 19-Jul-21: STOP TIME  12:13:44 19-Jul-21
 STEP.S                   0.00: STEP TIME
 NULL.                 -999.25: NULL VALUE
 MDS .        Operator Entered:  MAG DATA SOURCE
 PDAT.          Mean Sea Level:  PERMANENT DATUM
 UNIT.                     N/A:  LOGGING EQUIPMENT ID
 DCON.         Sperry Drilling:  DIRECTNL CONTR
 DOE .                     N/A:  DOE NUMBER
 RIG .              West Azeri:  RIG NAME
 JOBN.        AZ-XX-0906997913:  JOB TICKET NUMB
 WELL.                     C41:  WELL NAME
 MWDS.                    Baku:  MWD SHOP
 SRVC.          Turan Drilling:  CONTRACTOR
 FLD .                     ACG:  FIELD NAME
 CTRY.              Azerbaijan:  COUNTRY NAME
 PROV.                    Baku:  PROVINCE
 STAT.                    Baku:  STATE NAME
 REGN.                   EESSA:  REGION
 BASE.              Azerbaijan:  LOGGING EQUIPMENT BASE LOCATION
 UWI .                     N/A:  UNIQUE WELL IDENTIFIER
 API .                     N/A:  API NUMBER
 COMP.     BP Exploration (Caspian Sea) Ltd.:  COMPANY
 WTYP.                Deviated:  WELL TYPE
 SON .        AZ-XX-0906997913:  JOB NUMBER
 FTOP.          Formation Tops:  FORM TOPS DESC
 ILTD.               Lithology:  INTERP LTH DESC
 SVYD.                  Survey:  SURVEY DESC
 DMOD.             Drill Model:  DRILL MOD DESC
 HPTY.       Minimum Curvature:  HOLE POS TYPE
 NREF.                    Grid:  NORTH REFERENCE
 SPUD.               16-May-21:  SPUD DATE
 DATE.      21.11.28 17-May-21:  END TIME
 STIM.      21.11.28 17-May-21:  START TIME
 DMF .             Drill Floor:  DRILL MEAS FROM
 DFST.                        :  DIST FSL TEXT
 DFWT.                        :  DIST FWL TEXT
 CNTY.                        :  COUNTY
 LOC .                        :  LOCATION
 LMF .             Drill Floor:  LOG MEASURED FROM
 AGAP.m                  43.42:  AIR GAP
 VSNS.m                  -2.16:  VERT SEC N/S
 VSEW.m                  -6.24:  VERT SEC E/W
 APD .m                  43.42:  DEPTH ABOVE PD
 WDMS.m                 118.27:  WD ELEV
 EGL .m                   0.00:  GROUND ELEVATION
 EPD .m                   0.00:  ELEVATION
 AZTC.deg                 6.29:  AZM TOTAL CORR
 GRDC.deg                 0.18:  GRID CORRECTION
 MDEC.deg                 6.47:  MAGNETIC DECL
 MDIP.deg                59.54:  MAGNETIC DIP
 MFLD.nT              50337.00:  MAGNETIC FIELD
 GVFD.g                   1.00:  GRAVITY FIELD
 VSDR.deg               226.99:  VERT SEC DIRECT
 TDD .m                   0.00:  TOTAL DEPTH (DRILLER)
 SDEP.m                 448.00:  START DEPTH
 DFSL.m                   0.00:  DISTANCE FSL
 DFWL.m                   0.00:  DISTANCE FWL
 UTMY.m             4435799.96:  UTM Y
 UTMX.m              526265.35:  UTM X
 WHEW.m                  -6.24:  WELL HEAD E/W
 WHNS.m                  -2.16:  WELL HEAD N/S
 LONG.deg                51.31:  LONGITUDE
 LATI.deg                40.06:  LATITUDE
 TVDS.m                  43.42:  TVDSS CORRECTN
 EKB .m                  43.42:  KB ELEVATION
 EDF .m                  43.42:  DF ELEVATION
 TDL .m                 288.00:  TOTAL DEPTH (LOGGER)
 MAGU.                 1851863:  MAGUTM CHECKSUM
 VSC .                       0:  VS TO CLOSURE
~Parameter Information Block
#MNEM.UNIT       Value        Description
#---------     -----------    ---------------------------
 AV  .mps                 0.40:  Ann Velocity 
 AVMX.mps                 0.63:  Max Ann Veloc 
 AZIF.deg               158.76:  Azm, Final 
 BHAT.        Rotary Steerable:  BHA Type 
 BROT.°/30m               0.68:  Build Rotating 
 BS  .in                  8.50:  Bit Size 
 BSZ .in                  8.50:  Bit Size 
 BTPL.psig              712.00:  Bit Press Loss 
 CABU.                      No:  Customer Abuse 
 COMM.                     {J:  Run Comments 1 
 TCS .hr                 90.66:  Time Ciculation Ended 
 CV  .mps                 2.02:  Crit Velocity 
 CVMX.mps                 2.14:  Max Crit Veloc 
 DD1 .            Aziz Aliyevu:  Direct Drillr 1 
 DD2 .             Samir Abbas:  Direct Drillr 2 
 DD3 .           Teymur Aliyev:  Direct Drillr 3 
 DDSV.                 iCruise:  DD Service 
 DEFF.%                  85.10:  % Det Eff 
 DLRX.°/30m               1.05:  Dogleg Rot Max 
 DLSO.°/30m               1.01:  Dogleg Oriented 
 DLSX.°/30m               1.05:  Dogleg Str Max 
 DRET.      07.45.00 18-Jul-21:  Drill End Time 
 DRST.      15.00.00 16-Jul-21:  Drill Start Tim 
 DTIM.hr                 23.46:  Time Drilling 
 EDEP.m                4603.00:  End Depth 
 ENG1.       Seymur Iskandarov:  Engineer 1 
 ENG2.         Yevgeniy Ulikov:  Engineer 2 
 ENG3.         Bahruz Mehdiyev:  Engineer 3 
 ENG4.         Elchin Mammadov:  Engineer 4 
 ETIM.      14.00.00 23-Jul-21:  End Time 
 FLOI.gpm               500.00:  Flow In 
 FLON.gpm               450.00:  Flow In Min 
 FLOS.cptm                0.00:  Fluid Loss 
 FLOX.gpm               560.00:  Flow In Max 
 DFT .        Mineral Oil Base:  Mud Type 
 FTRO.       Formation Presure:  FTWD Run Obj 
 HFLO.                      No:  High Flow 
 HPRE.                      No:  High Pressure 
 HTEM.                      No:  High Temp 
 HYDO.m                   1.80:  Hydro Offset 
 IFIN.deg                40.22:  Inc, Final 
 IMAX.deg                40.54:  Inc Max 
 IMIN.deg                39.44:  Inc Min 
 IMND.m                4361.17:  Inc Min Depth 
 IMXD.m                4417.92:  Inc Max Depth 
 JARR.                      No:  Jarring 
 LETM.      07.45.00 18-Jul-21:  Log End Time 
 LOST.hr                    16:  Lost Rig Time 
 LSTM.      15.00.00 16-Jul-21:  Log Start Time 
 MDCL.ppm             36500.00:  Mud Chlorides 
 MDES.     Inversion Oil/Synthetic:  Mud Desc 
 DFD .sg                  1.42:  Mud Density 
 MDMN.sg                  1.42:  Dens Mud Min 
 MDMX.sg                  1.43:  Dens Mud Max 
 MOIL.                      56:  Run Mud Oil % 
 MOWR.                   71:29:  Run Mud OWR 
 MSND.                     0.5:  Run Mud Sand % 
 MSOL.                      21:  Run Mud Solids% 
 DFV .spqt               78.00:  Mud Viscosity 
 MWOD.in                  6.75:  MWD Tool OD 
 MWSI.                     Yes:  Serv Intrp, MWD 
 OTIM.hr                200.73:  Time Operating 
 PCON.           Look Like New:  Pad Condition 
 PMAX.psia            11069.93:  Press Op, Max 
 PV  .cP                 32.00:  Mud PV 
 RUN .                     700:  Run Number 
 ROPA.m/hr               10.00:  ROP Avg 
 ROPN.m/hr                9.00:  ROP Min 
 ROPX.m/hr               16.00:  ROP Max 
 RPMA.rpm               116.00:  RPM Surface Avg 
 RPMN.rpm                80.00:  RPM Surface Min 
 RPMX.rpm               120.00:  RPM Surface Max 
 RRUN.                    L605:  Rig Run Number 
 RTIM.hr                 45.00:  Time Reaming 
 SAZI.deg               159.86:  Azm, Start 
 SDEP.m                4315.00:  Start Depth 
 SIDD.                      No:  Serv Intrp, DD 
 SINC.deg                39.86:  Inc, Start 
 SPPA.psig             3300.00:  SPP Avg 
 SPPN.psig             3040.00:  SPP Min 
 SPPX.psig             3645.00:  SPP Max 
 STIM.      01.00.00 15-Jul-21:  Start Time 
 SVCS.                 DD, MWD:  Services 
 SVER.                    9.20:  Sperry Version 
 TDAT.m                 288.00:  Tot Depth Attmp 
 TDDF.                      No:  Trip for DD 
 TDLG.m                 288.00:  Tot Depth Loggd 
 TFF .                      No:  Trip for Fail 
 TQAA.f-kp               19.00:  Torque Abs Avg 
 TQAN.f-kp               18.00:  Torque Abs Min 
 TQAX.f-kp               21.00:  Torque Abs Max 
 TRRT.°/30m               0.45:  Turn Rotating 
 MRT .                    HCIM:  Maximum Recorded Temperature 
 TTMX.degC               88.24:  Max Tool Temp 
 VS01.                90649157:  Virtual Str1 SN 
 VS02.                90652483:  Virtual Str2 SN 
 VS03.                11671987:  Virtual Str3 SN 
 VS04.                90643411:  Virtual Str4 SN 
 VS05.                90652478:  Virtual Str5 SN 
 VS06.                    6111:  Virtual Str6 SN 
 WBMN.klb                 9.50:  WOB Min 
 WITN.        Grigoriy Sarayev:  Customer Rep 
 WITN.          Rufat Huseynov:  Customer Rep 2 
 WOBA.klb                11.00:  WOB Avg 
 WOBX.klb                15.00:  WOB Max 
 YP  .lhf2               28.00:  Yield Point 
~Curve Information Block
#MNEM.UNIT                 API CODE     Curve Description
#---------               -----------    ---------------------------
 TIME.HHMMSS            00 000 000 000:  GT Time & Date
 GTDEPTH.m              00 000 000 000:  GT Depth
 GTPQH.psia             00 000 000 000:  GT HR Quartz Pressure
 GTTQ.degC              00 000 000 000:  GT Quartz Temperature
 GTTN.NONE              00 000 000 000:  GT Test Number
 GTET.sec               00 000 000 000:  GT Elapsed Test Time
 GTTVD.m                00 000 000 000:  GT True Vertical Depth
#Other Information
#
#WARRANTY: Halliburton will use its best efforts to furnish customers with 
#accurate information and interpretations that are part of, and incident to, the services 
#provided.  However, Halliburton cannot and does not warrant the accuracy 
#or correctness of such information and interpretations.  Under no circumstances should any 
#such information or interpretation be relied upon as the sole basis for any drilling, 
#completion, production, or financial decision or any procedure involving any risk to the 
#safety of any drilling venture, drilling rig or its crew or any other third party.  The 
#Customer has full responsibility for all drilling, completion and production operation.  
#Halliburton makes no representations or warranties, either expressed or 
#implied, including, but not limited to, the implied warranties of merchantability or fitness 
#for a particular purpose, with respect to the services rendered.  In no event will 
#Halliburton be liable for failure to obtain any particular results or for 
#any damages, including, but not limited to, indirect, special or consequential damages, 
#resulting from the use of any information or interpretation provided by Halliburton.
#
~A           TIME           GTDEPTH  GTPQH  GTTQ  GTTN   GTET   GTTVD  
# ...
   12:10:38.116.19-Jul-2021 4522.00 3611.92 70.80 26.00 226.08 2717.06
   12:10:38.316.19-Jul-2021 4522.00 3611.92 70.80 26.00 226.28 2717.06
   12:10:38.516.19-Jul-2021 4522.00 3611.90 70.80 26.00 226.48 2717.06
   12:10:38.716.19-Jul-2021 4522.00 3611.88 70.80 26.00 226.68 2717.06
   12:10:38.916.19-Jul-2021 4522.00 3611.71 70.80 26.00 226.88 2717.06
   12:10:39.116.19-Jul-2021 4522.00 3611.95 70.80 26.00 227.08 2717.06
   12:10:39.316.19-Jul-2021 4522.00 3611.95 70.80 26.00 227.28 2717.06
   12:10:39.517.19-Jul-2021 4522.00 3612.14 70.73 26.00 227.48 2717.06
   12:10:39.717.19-Jul-2021 4522.00 3611.83 70.80 26.00 227.68 2717.06
   12:10:39.917.19-Jul-2021 4522.00 3611.94 70.80 26.00 227.88 2717.06
   12:10:40.117.19-Jul-2021 4522.00 3611.91 70.80 26.00 228.08 2717.06
   12:10:40.317.19-Jul-2021 4522.00 3611.91 70.80 26.00 228.28 2717.06
   12:10:40.517.19-Jul-2021 4522.00 3611.93 70.80 26.00 228.48 2717.06
   12:10:40.717.19-Jul-2021 4522.00 3611.91 70.80 26.00 228.68 2717.06
   12:10:40.917.19-Jul-2021 4522.00 3611.93 70.80 26.00 228.88 2717.06
   12:10:41.117.19-Jul-2021 4522.00 3611.94 70.80 26.00 229.08 2717.06
   12:10:41.317.19-Jul-2021 4522.00 3611.94 70.80 26.00 229.28 2717.06
   12:10:41.517.19-Jul-2021 4522.00 3611.94 70.80 26.00 229.48 2717.06
   12:10:41.717.19-Jul-2021 4522.00 3611.94 70.80 26.00 229.68 2717.06
   12:10:41.917.19-Jul-2021 4522.00 3612.09 70.80 26.00 229.88 2717.06
   12:10:42.117.19-Jul-2021 4522.00 3611.14 70.80 26.00 230.08 2717.06
   12:10:42.318.19-Jul-2021 4522.00 3611.14 70.80 26.00 230.28 2717.06
   12:10:42.518.19-Jul-2021 4522.00 3611.94 70.80 26.00 230.48 2717.06
   12:10:42.718.19-Jul-2021 4522.00 3611.95 70.80 26.00 230.68 2717.06
   12:10:42.918.19-Jul-2021 4522.00 3611.86 70.80 26.00 230.89 2717.06
   12:10:43.118.19-Jul-2021 4522.00 3611.94 70.80 26.00 231.09 2717.06
   12:10:43.318.19-Jul-2021 4522.00 3611.94 70.80 26.00 231.29 2717.06
   12:10:43.518.19-Jul-2021 4522.00 3611.91 70.80 26.00 231.49 2717.06
   12:10:43.718.19-Jul-2021 4522.00 3611.92 70.80 26.00 231.69 2717.06
   12:10:43.918.19-Jul-2021 4522.00 3611.93 70.80 26.00 231.89 2717.06
   12:10:44.118.19-Jul-2021 4522.00 3611.91 70.80 26.00 232.09 2717.06
   12:10:44.318.19-Jul-2021 4522.00 3611.91 70.80 26.00 232.29 2717.06
   12:10:44.518.19-Jul-2021 4522.00 3611.79 70.80 26.00 232.49 2717.06
   12:10:44.718.19-Jul-2021 4522.00 3611.72 70.80 26.00 232.69 2717.06
   12:10:44.919.19-Jul-2021 4522.00 3612.03 70.80 26.00 232.89 2717.06
   12:10:45.119.19-Jul-2021 4522.00 3611.46 70.80 26.00 233.09 2717.06
   12:10:45.319.19-Jul-2021 4522.00 3611.46 70.80 26.00 233.29 2717.06
   12:10:45.519.19-Jul-2021 4522.00 3611.69 70.80 26.00 233.49 2717.06
   12:10:45.719.19-Jul-2021 4522.00 3611.80 70.80 26.00 233.69 2717.06
   12:10:45.919.19-Jul-2021 4522.00 3611.78 70.80 26.00 233.89 2717.06
   12:10:46.119.19-Jul-2021 4522.00 3612.03 70.80 26.00 234.09 2717.06
   12:10:46.319.19-Jul-2021 4522.00 3612.03 70.80 26.00 234.29 2717.06
   12:10:46.519.19-Jul-2021 4522.00 3611.72 70.80 26.00 234.49 2717.06
   12:10:46.719.19-Jul-2021 4522.00 3611.67 70.80 26.00 234.69 2717.06
   12:10:46.919.19-Jul-2021 4522.00 3612.06 70.80 26.00 234.89 2717.06
   12:10:47.119.19-Jul-2021 4522.00 3611.99 70.80 26.00 235.09 2717.06
   12:10:47.319.19-Jul-2021 4522.00 3611.99 70.80 26.00 235.29 2717.06
   12:10:47.519.19-Jul-2021 4522.00 3611.98 70.80 26.00 235.49 2717.06
   12:10:47.720.19-Jul-2021 4522.00 3611.88 70.80 26.00 235.69 2717.06
   12:10:47.920.19-Jul-2021 4522.00 3611.97 70.80 26.00 235.89 2717.06
   12:10:48.120.19-Jul-2021 4522.00 3611.96 70.80 26.00 236.09 2717.06
   12:10:48.320.19-Jul-2021 4522.00 3611.96 70.80 26.00 236.29 2717.06
   12:10:48.520.19-Jul-2021 4522.00 3611.97 70.80 26.00 236.49 2717.06
   12:10:48.720.19-Jul-2021 4522.00 3611.95 70.80 26.00 236.69 2717.06
   12:10:48.920.19-Jul-2021 4522.00 3611.92 70.80 26.00 236.89 2717.06
   12:10:49.120.19-Jul-2021 4522.00 3611.93 70.80 26.00 237.09 2717.06
   12:10:49.320.19-Jul-2021 4522.00 3611.93 70.80 26.00 237.29 2717.06
   12:10:49.520.19-Jul-2021 4522.00 3611.91 70.80 26.00 237.49 2717.06
   12:10:49.720.19-Jul-2021 4522.00 3611.96 70.80 26.00 237.69 2717.06
   12:10:49.920.19-Jul-2021 4522.00 3611.90 70.80 26.00 237.89 2717.06
   12:10:50.120.19-Jul-2021 4522.00 3611.85 70.80 26.00 238.09 2717.06
   12:10:50.321.19-Jul-2021 4522.00 3611.85 70.80 26.00 238.29 2717.06
   12:10:50.521.19-Jul-2021 4522.00 3611.88 70.80 26.00 238.49 2717.06
   12:10:50.721.19-Jul-2021 4522.00 3611.89 70.80 26.00 238.69 2717.06
   12:10:50.921.19-Jul-2021 4522.00 3611.91 70.80 26.00 238.89 2717.06
   12:10:51.121.19-Jul-2021 4522.00 3611.87 70.80 26.00 239.09 2717.06
   12:10:51.321.19-Jul-2021 4522.00 3611.87 70.80 26.00 239.29 2717.06
   12:10:51.521.19-Jul-2021 4522.00 3611.89 70.80 26.00 239.49 2717.06
   12:10:51.721.19-Jul-2021 4522.00 3611.92 70.80 26.00 239.69 2717.06
   12:10:51.921.19-Jul-2021 4522.00 3611.94 70.80 26.00 239.89 2717.06
   12:10:52.121.19-Jul-2021 4522.00 3611.90 70.80 26.00 240.09 2717.06
   12:10:52.321.19-Jul-2021 4522.00 3611.90 70.80 26.00 240.29 2717.06
   12:10:52.521.19-Jul-2021 4522.00 3611.89 70.80 26.00 240.49 2717.06
   12:10:52.721.19-Jul-2021 4522.00 3611.78 70.80 26.00 240.69 2717.06
   12:10:52.921.19-Jul-2021 4522.00 3611.87 70.80 26.00 240.89 2717.06
   12:10:53.122.19-Jul-2021 4522.00 3611.89 70.80 26.00 241.09 2717.06
   12:10:53.322.19-Jul-2021 4522.00 3611.89 70.80 26.00 241.29 2717.06
   12:10:53.522.19-Jul-2021 4522.00 3611.71 70.80 26.00 241.49 2717.06
   12:10:53.722.19-Jul-2021 4522.00 3612.00 70.80 26.00 241.69 2717.06
   12:10:53.922.19-Jul-2021 4522.00 3611.52 70.80 26.00 241.89 2717.06
   12:10:54.122.19-Jul-2021 4522.00 3611.84 70.80 26.00 242.09 2717.06
   12:10:54.322.19-Jul-2021 4522.00 3611.84 70.80 26.00 242.29 2717.06
   12:10:54.522.19-Jul-2021 4522.00 3612.06 70.80 26.00 242.49 2717.06
   12:10:54.722.19-Jul-2021 4522.00 3611.40 70.80 26.00 242.69 2717.06
   12:10:54.922.19-Jul-2021 4522.00 3611.89 70.80 26.00 242.89 2717.06
   12:10:55.122.19-Jul-2021 4522.00 3611.96 70.80 26.00 243.09 2717.06
   12:10:55.322.19-Jul-2021 4522.00 3611.96 70.80 26.00 243.29 2717.06
   12:10:55.522.19-Jul-2021 4522.00 3611.53 70.80 26.00 243.49 2717.06
   12:10:55.723.19-Jul-2021 4522.00 3611.73 70.80 26.00 243.69 2717.06
   12:10:55.923.19-Jul-2021 4522.00 3611.99 70.80 26.00 243.89 2717.06
   12:10:56.123.19-Jul-2021 4522.00 3612.00 70.80 26.00 244.09 2717.06
   12:10:56.323.19-Jul-2021 4522.00 3612.00 70.80 26.00 244.29 2717.06
   12:10:56.523.19-Jul-2021 4522.00 3611.94 70.80 26.00 244.49 2717.06
   12:10:56.723.19-Jul-2021 4522.00 3611.96 70.80 26.00 244.69 2717.06
   12:10:56.923.19-Jul-2021 4522.00 3611.93 70.80 26.00 244.89 2717.06
   12:10:57.123.19-Jul-2021 4522.00 3611.92 70.80 26.00 245.09 2717.06
   12:10:57.323.19-Jul-2021 4522.00 3611.92 70.80 26.00 245.29 2717.06
   12:10:57.523.19-Jul-2021 4522.00 3611.93 70.80 26.00 245.49 2717.06
   12:10:57.723.19-Jul-2021 4522.00 3611.91 70.80 26.00 245.69 2717.06
   12:10:57.923.19-Jul-2021 4522.00 3611.93 70.80 26.00 245.89 2717.06
   12:10:58.123.19-Jul-2021 4522.00 3611.69 70.80 26.00 246.09 2717.06
   12:10:58.323.19-Jul-2021 4522.00 3611.69 70.80 26.00 246.29 2717.06
   12:10:58.524.19-Jul-2021 4522.00 3611.71 70.80 26.00 246.49 2717.06
   12:10:58.724.19-Jul-2021 4522.00 3612.01 70.80 26.00 246.69 2717.06
   12:10:58.924.19-Jul-2021 4522.00 3611.82 70.80 26.00 246.89 2717.06
   12:10:59.124.19-Jul-2021 4522.00 3611.95 70.80 26.00 247.09 2717.06
   12:10:59.324.19-Jul-2021 4522.00 3611.95 70.80 26.00 247.29 2717.06
   12:10:59.524.19-Jul-2021 4522.00 3611.96 70.80 26.00 247.49 2717.06
   12:10:59.724.19-Jul-2021 4522.00 3611.91 70.80 26.00 247.69 2717.06
   12:10:59.924.19-Jul-2021 4522.00 3611.92 70.80 26.00 247.89 2717.06
   12:11:00.124.19-Jul-2021 4522.00 3611.94 70.80 26.00 248.09 2717.06
   12:11:00.324.19-Jul-2021 4522.00 3611.94 70.80 26.00 248.29 2717.06
   12:11:00.524.19-Jul-2021 4522.00 3611.95 70.80 26.00 248.49 2717.06
