~Version Information
 VERS.                  2.0:   CWLS log ASCII Standard -VERSION 2.0
 WRAP.                   NO:   One line per depth step
~Well Information Block
#MNEM.UNIT     VALUE/NAME     DESCRIPTION
#---------     -----------    ---------------------------
 STRT.S             04:43:18 19-Jul-21: START TIME 04:43:18 19-Jul-21
 STOP.S             04:49:54 19-Jul-21: STOP TIME  04:49:54 19-Jul-21
 STEP.S                   0.00: STEP TIME
 NULL.                 -999.25: NULL VALUE
 MDS .        Operator Entered:  MAG DATA SOURCE
 PDAT.          Mean Sea Level:  PERMANENT DATUM
 UNIT.                     N/A:  LOGGING EQUIPMENT ID
 DCON.         Sperry Drilling:  DIRECTNL CONTR
 DOE .                     N/A:  DOE NUMBER
 RIG .              West Azeri:  RIG NAME
 JOBN.        AZ-XX-0906997913:  JOB TICKET NUMB
 WELL.                     C41:  WELL NAME
 MWDS.                    Baku:  MWD SHOP
 SRVC.          Turan Drilling:  CONTRACTOR
 FLD .                     ACG:  FIELD NAME
 CTRY.              Azerbaijan:  COUNTRY NAME
 PROV.                    Baku:  PROVINCE
 STAT.                    Baku:  STATE NAME
 REGN.                   EESSA:  REGION
 BASE.              Azerbaijan:  LOGGING EQUIPMENT BASE LOCATION
 UWI .                     N/A:  UNIQUE WELL IDENTIFIER
 API .                     N/A:  API NUMBER
 COMP.     BP Exploration (Caspian Sea) Ltd.:  COMPANY
 WTYP.                Deviated:  WELL TYPE
 SON .        AZ-XX-0906997913:  JOB NUMBER
 FTOP.          Formation Tops:  FORM TOPS DESC
 ILTD.               Lithology:  INTERP LTH DESC
 SVYD.                  Survey:  SURVEY DESC
 DMOD.             Drill Model:  DRILL MOD DESC
 HPTY.       Minimum Curvature:  HOLE POS TYPE
 NREF.                    Grid:  NORTH REFERENCE
 SPUD.               16-May-21:  SPUD DATE
 DATE.      21.11.28 17-May-21:  END TIME
 STIM.      21.11.28 17-May-21:  START TIME
 DMF .             Drill Floor:  DRILL MEAS FROM
 DFST.                        :  DIST FSL TEXT
 DFWT.                        :  DIST FWL TEXT
 CNTY.                        :  COUNTY
 LOC .                        :  LOCATION
 LMF .             Drill Floor:  LOG MEASURED FROM
 AGAP.m                  43.42:  AIR GAP
 VSNS.m                  -2.16:  VERT SEC N/S
 VSEW.m                  -6.24:  VERT SEC E/W
 APD .m                  43.42:  DEPTH ABOVE PD
 WDMS.m                 118.27:  WD ELEV
 EGL .m                   0.00:  GROUND ELEVATION
 EPD .m                   0.00:  ELEVATION
 AZTC.deg                 6.29:  AZM TOTAL CORR
 GRDC.deg                 0.18:  GRID CORRECTION
 MDEC.deg                 6.47:  MAGNETIC DECL
 MDIP.deg                59.54:  MAGNETIC DIP
 MFLD.nT              50337.00:  MAGNETIC FIELD
 GVFD.g                   1.00:  GRAVITY FIELD
 VSDR.deg               226.99:  VERT SEC DIRECT
 TDD .m                   0.00:  TOTAL DEPTH (DRILLER)
 SDEP.m                 448.00:  START DEPTH
 DFSL.m                   0.00:  DISTANCE FSL
 DFWL.m                   0.00:  DISTANCE FWL
 UTMY.m             4435799.96:  UTM Y
 UTMX.m              526265.35:  UTM X
 WHEW.m                  -6.24:  WELL HEAD E/W
 WHNS.m                  -2.16:  WELL HEAD N/S
 LONG.deg                51.31:  LONGITUDE
 LATI.deg                40.06:  LATITUDE
 TVDS.m                  43.42:  TVDSS CORRECTN
 EKB .m                  43.42:  KB ELEVATION
 EDF .m                  43.42:  DF ELEVATION
 TDL .m                 288.00:  TOTAL DEPTH (LOGGER)
 MAGU.                 1851863:  MAGUTM CHECKSUM
 VSC .                       0:  VS TO CLOSURE
~Parameter Information Block
#MNEM.UNIT       Value        Description
#---------     -----------    ---------------------------
 AV  .mps                 0.40:  Ann Velocity 
 AVMX.mps                 0.63:  Max Ann Veloc 
 AZIF.deg               158.76:  Azm, Final 
 BHAT.        Rotary Steerable:  BHA Type 
 BROT.°/30m               0.68:  Build Rotating 
 BS  .in                  8.50:  Bit Size 
 BSZ .in                  8.50:  Bit Size 
 BTPL.psig              712.00:  Bit Press Loss 
 CABU.                      No:  Customer Abuse 
 COMM.                     ”™f:  Run Comments 1 
 TCS .hr                 90.66:  Time Ciculation Ended 
 CV  .mps                 2.02:  Crit Velocity 
 CVMX.mps                 2.14:  Max Crit Veloc 
 DD1 .            Aziz Aliyevu:  Direct Drillr 1 
 DD2 .             Samir Abbas:  Direct Drillr 2 
 DD3 .           Teymur Aliyev:  Direct Drillr 3 
 DDSV.                 iCruise:  DD Service 
 DEFF.%                  85.10:  % Det Eff 
 DLRX.°/30m               1.05:  Dogleg Rot Max 
 DLSO.°/30m               1.01:  Dogleg Oriented 
 DLSX.°/30m               1.05:  Dogleg Str Max 
 DRET.      07.45.00 18-Jul-21:  Drill End Time 
 DRST.      15.00.00 16-Jul-21:  Drill Start Tim 
 DTIM.hr                 23.46:  Time Drilling 
 EDEP.m                4603.00:  End Depth 
 ENG1.       Seymur Iskandarov:  Engineer 1 
 ENG2.         Yevgeniy Ulikov:  Engineer 2 
 ENG3.         Bahruz Mehdiyev:  Engineer 3 
 ENG4.         Elchin Mammadov:  Engineer 4 
 ETIM.      14.00.00 23-Jul-21:  End Time 
 FLOI.gpm               500.00:  Flow In 
 FLON.gpm               450.00:  Flow In Min 
 FLOS.cptm                0.00:  Fluid Loss 
 FLOX.gpm               560.00:  Flow In Max 
 DFT .        Mineral Oil Base:  Mud Type 
 FTRO.       Formation Presure:  FTWD Run Obj 
 HFLO.                      No:  High Flow 
 HPRE.                      No:  High Pressure 
 HTEM.                      No:  High Temp 
 HYDO.m                   1.80:  Hydro Offset 
 IFIN.deg                40.22:  Inc, Final 
 IMAX.deg                40.54:  Inc Max 
 IMIN.deg                39.44:  Inc Min 
 IMND.m                4361.17:  Inc Min Depth 
 IMXD.m                4417.92:  Inc Max Depth 
 JARR.                      No:  Jarring 
 LETM.      07.45.00 18-Jul-21:  Log End Time 
 LOST.hr                    16:  Lost Rig Time 
 LSTM.      15.00.00 16-Jul-21:  Log Start Time 
 MDCL.ppm             36500.00:  Mud Chlorides 
 MDES.     Inversion Oil/Synthetic:  Mud Desc 
 DFD .sg                  1.42:  Mud Density 
 MDMN.sg                  1.42:  Dens Mud Min 
 MDMX.sg                  1.43:  Dens Mud Max 
 MOIL.                      56:  Run Mud Oil % 
 MOWR.                   71:29:  Run Mud OWR 
 MSND.                     0.5:  Run Mud Sand % 
 MSOL.                      21:  Run Mud Solids% 
 DFV .spqt               78.00:  Mud Viscosity 
 MWOD.in                  6.75:  MWD Tool OD 
 MWSI.                     Yes:  Serv Intrp, MWD 
 OTIM.hr                200.73:  Time Operating 
 PCON.           Look Like New:  Pad Condition 
 PMAX.psia            11069.93:  Press Op, Max 
 PV  .cP                 32.00:  Mud PV 
 RUN .                     700:  Run Number 
 ROPA.m/hr               10.00:  ROP Avg 
 ROPN.m/hr                9.00:  ROP Min 
 ROPX.m/hr               16.00:  ROP Max 
 RPMA.rpm               116.00:  RPM Surface Avg 
 RPMN.rpm                80.00:  RPM Surface Min 
 RPMX.rpm               120.00:  RPM Surface Max 
 RRUN.                    L605:  Rig Run Number 
 RTIM.hr                 45.00:  Time Reaming 
 SAZI.deg               159.86:  Azm, Start 
 SDEP.m                4315.00:  Start Depth 
 SIDD.                      No:  Serv Intrp, DD 
 SINC.deg                39.86:  Inc, Start 
 SPPA.psig             3300.00:  SPP Avg 
 SPPN.psig             3040.00:  SPP Min 
 SPPX.psig             3645.00:  SPP Max 
 STIM.      01.00.00 15-Jul-21:  Start Time 
 SVCS.                 DD, MWD:  Services 
 SVER.                    9.20:  Sperry Version 
 TDAT.m                 288.00:  Tot Depth Attmp 
 TDDF.                      No:  Trip for DD 
 TDLG.m                 288.00:  Tot Depth Loggd 
 TFF .                      No:  Trip for Fail 
 TQAA.f-kp               19.00:  Torque Abs Avg 
 TQAN.f-kp               18.00:  Torque Abs Min 
 TQAX.f-kp               21.00:  Torque Abs Max 
 TRRT.°/30m               0.45:  Turn Rotating 
 MRT .                    HCIM:  Maximum Recorded Temperature 
 TTMX.degC               88.24:  Max Tool Temp 
 VS01.                90649157:  Virtual Str1 SN 
 VS02.                90652483:  Virtual Str2 SN 
 VS03.                11671987:  Virtual Str3 SN 
 VS04.                90643411:  Virtual Str4 SN 
 VS05.                90652478:  Virtual Str5 SN 
 VS06.                    6111:  Virtual Str6 SN 
 WBMN.klb                 9.50:  WOB Min 
 WITN.        Grigoriy Sarayev:  Customer Rep 
 WITN.          Rufat Huseynov:  Customer Rep 2 
 WOBA.klb                11.00:  WOB Avg 
 WOBX.klb                15.00:  WOB Max 
 YP  .lhf2               28.00:  Yield Point 
~Curve Information Block
#MNEM.UNIT                 API CODE     Curve Description
#---------               -----------    ---------------------------
 TIME.HHMMSS            00 000 000 000:  GT Time & Date
 GTDEPTH.m              00 000 000 000:  GT Depth
 GTPQH.psia             00 000 000 000:  GT HR Quartz Pressure
 GTTQ.degC              00 000 000 000:  GT Quartz Temperature
 GTTN.NONE              00 000 000 000:  GT Test Number
 GTET.sec               00 000 000 000:  GT Elapsed Test Time
 GTTVD.m                00 000 000 000:  GT True Vertical Depth
#Other Information
#
#WARRANTY: Halliburton will use its best efforts to furnish customers with 
#accurate information and interpretations that are part of, and incident to, the services 
#provided.  However, Halliburton cannot and does not warrant the accuracy 
#or correctness of such information and interpretations.  Under no circumstances should any 
#such information or interpretation be relied upon as the sole basis for any drilling, 
#completion, production, or financial decision or any procedure involving any risk to the 
#safety of any drilling venture, drilling rig or its crew or any other third party.  The 
#Customer has full responsibility for all drilling, completion and production operation.  
#Halliburton makes no representations or warranties, either expressed or 
#implied, including, but not limited to, the implied warranties of merchantability or fitness 
#for a particular purpose, with respect to the services rendered.  In no event will 
#Halliburton be liable for failure to obtain any particular results or for 
#any damages, including, but not limited to, indirect, special or consequential damages, 
#resulting from the use of any information or interpretation provided by Halliburton.
#
~A           TIME           GTDEPTH  GTPQH  GTTQ  GTTN   GTET   GTTVD  
# ...
   04:46:19.100.19-Jul-2021 4355.50  795.28 68.66 11.00 180.87 2589.71
   04:46:19.300.19-Jul-2021 4355.50  796.24 68.66 11.00 181.07 2589.71
   04:46:19.500.19-Jul-2021 4355.50  796.24 68.66 11.00 181.27 2589.71
   04:46:19.700.19-Jul-2021 4355.50  796.97 68.66 11.00 181.47 2589.71
   04:46:19.900.19-Jul-2021 4355.50  798.94 68.66 11.00 181.67 2589.71
   04:46:20.100.19-Jul-2021 4355.50  799.63 68.66 11.00 181.87 2589.71
   04:46:20.300.19-Jul-2021 4355.50  800.67 68.66 11.00 182.07 2589.71
   04:46:20.500.19-Jul-2021 4355.50  800.67 68.66 11.00 182.27 2589.71
   04:46:20.701.19-Jul-2021 4355.50  804.24 68.66 11.00 182.47 2589.71
   04:46:20.901.19-Jul-2021 4355.50  806.12 68.66 11.00 182.67 2589.71
   04:46:21.101.19-Jul-2021 4355.50  806.22 68.66 11.00 182.87 2589.71
   04:46:21.301.19-Jul-2021 4355.50  808.37 68.66 11.00 183.07 2589.71
   04:46:21.501.19-Jul-2021 4355.50  808.37 68.66 11.00 183.27 2589.71
   04:46:21.701.19-Jul-2021 4355.50  811.76 68.67 11.00 183.47 2589.71
   04:46:21.901.19-Jul-2021 4355.50  812.97 68.67 11.00 183.67 2589.71
   04:46:22.101.19-Jul-2021 4355.50  814.19 68.67 11.00 183.87 2589.71
   04:46:22.301.19-Jul-2021 4355.50  814.77 68.67 11.00 184.07 2589.71
   04:46:22.501.19-Jul-2021 4355.50  814.77 68.67 11.00 184.27 2589.71
   04:46:22.701.19-Jul-2021 4355.50  818.07 68.67 11.00 184.47 2589.71
   04:46:22.901.19-Jul-2021 4355.50  819.90 68.67 11.00 184.67 2589.71
   04:46:23.101.19-Jul-2021 4355.50  819.74 68.67 11.00 184.87 2589.71
   04:46:23.301.19-Jul-2021 4355.50  822.36 68.67 11.00 185.07 2589.71
   04:46:23.502.19-Jul-2021 4355.50  822.36 68.67 11.00 185.27 2589.71
   04:46:23.702.19-Jul-2021 4355.50  825.45 68.67 11.00 185.47 2589.71
   04:46:23.902.19-Jul-2021 4355.50  826.31 68.67 11.00 185.67 2589.71
   04:46:24.102.19-Jul-2021 4355.50  827.51 68.67 11.00 185.87 2589.71
   04:46:24.302.19-Jul-2021 4355.50  828.62 68.67 11.00 186.07 2589.71
   04:46:24.502.19-Jul-2021 4355.50  828.62 68.67 11.00 186.27 2589.71
   04:46:24.702.19-Jul-2021 4355.50  830.77 68.67 11.00 186.47 2589.71
   04:46:24.902.19-Jul-2021 4355.50  831.94 68.67 11.00 186.67 2589.71
   04:46:25.102.19-Jul-2021 4355.50  833.02 68.67 11.00 186.87 2589.71
   04:46:25.302.19-Jul-2021 4355.50  833.89 68.67 11.00 187.07 2589.71
   04:46:25.502.19-Jul-2021 4355.50  833.89 68.67 11.00 187.27 2589.71
   04:46:25.702.19-Jul-2021 4355.50  835.95 68.67 11.00 187.47 2589.71
   04:46:25.902.19-Jul-2021 4355.50  835.82 68.67 11.00 187.67 2589.71
   04:46:26.102.19-Jul-2021 4355.50  837.92 68.67 11.00 187.87 2589.71
   04:46:26.303.19-Jul-2021 4355.50  838.69 68.67 11.00 188.07 2589.71
   04:46:26.503.19-Jul-2021 4355.50  838.69 68.67 11.00 188.27 2589.71
   04:46:26.703.19-Jul-2021 4355.50  841.09 68.67 11.00 188.47 2589.71
   04:46:26.903.19-Jul-2021 4355.50  842.24 68.67 11.00 188.67 2589.71
   04:46:27.103.19-Jul-2021 4355.50  843.18 68.67 11.00 188.87 2589.71
   04:46:27.303.19-Jul-2021 4355.50  844.19 68.67 11.00 189.07 2589.71
   04:46:27.503.19-Jul-2021 4355.50  844.19 68.67 11.00 189.27 2589.71
   04:46:27.703.19-Jul-2021 4355.50  846.09 68.67 11.00 189.47 2589.71
   04:46:27.903.19-Jul-2021 4355.50  846.94 68.67 11.00 189.67 2589.71
   04:46:28.103.19-Jul-2021 4355.50  847.96 68.67 11.00 189.87 2589.71
   04:46:28.303.19-Jul-2021 4355.50  848.02 68.67 11.00 190.07 2589.71
   04:46:28.503.19-Jul-2021 4355.50  848.02 68.67 11.00 190.27 2589.71
   04:46:28.703.19-Jul-2021 4355.50  849.99 68.67 11.00 190.47 2589.71
   04:46:28.904.19-Jul-2021 4355.50  850.69 68.67 11.00 190.67 2589.71
   04:46:29.104.19-Jul-2021 4355.50  852.31 68.67 11.00 190.87 2589.71
   04:46:29.304.19-Jul-2021 4355.50  853.39 68.67 11.00 191.07 2589.71
   04:46:29.504.19-Jul-2021 4355.50  853.39 68.67 11.00 191.27 2589.71
   04:46:29.704.19-Jul-2021 4355.50  855.71 68.67 11.00 191.47 2589.71
   04:46:29.904.19-Jul-2021 4355.50  857.54 68.67 11.00 191.67 2589.71
   04:46:30.104.19-Jul-2021 4355.50  859.47 68.67 11.00 191.87 2589.71
   04:46:30.304.19-Jul-2021 4355.50  859.18 68.67 11.00 192.07 2589.71
   04:46:30.504.19-Jul-2021 4355.50  859.18 68.67 11.00 192.27 2589.71
   04:46:30.704.19-Jul-2021 4355.50  862.19 68.67 11.00 192.47 2589.71
   04:46:30.904.19-Jul-2021 4355.50  864.11 68.67 11.00 192.67 2589.71
   04:46:31.104.19-Jul-2021 4355.50  864.17 68.67 11.00 192.87 2589.71
   04:46:31.304.19-Jul-2021 4355.50  865.15 68.67 11.00 193.07 2589.71
   04:46:31.504.19-Jul-2021 4355.50  865.15 68.67 11.00 193.27 2589.71
   04:46:31.705.19-Jul-2021 4355.50  868.65 68.67 11.00 193.47 2589.71
   04:46:31.905.19-Jul-2021 4355.50  869.34 68.67 11.00 193.67 2589.71
   04:46:32.105.19-Jul-2021 4355.50  870.49 68.67 11.00 193.87 2589.71
   04:46:32.305.19-Jul-2021 4355.50  871.37 68.67 11.00 194.07 2589.71
   04:46:32.505.19-Jul-2021 4355.50  871.37 68.67 11.00 194.27 2589.71
   04:46:32.705.19-Jul-2021 4355.50  873.36 68.67 11.00 194.47 2589.71
   04:46:32.905.19-Jul-2021 4355.50  874.28 68.67 11.00 194.67 2589.71
   04:46:33.105.19-Jul-2021 4355.50  875.25 68.67 11.00 194.87 2589.71
   04:46:33.305.19-Jul-2021 4355.50  876.10 68.67 11.00 195.07 2589.71
   04:46:33.505.19-Jul-2021 4355.50  876.10 68.67 11.00 195.27 2589.71
   04:46:33.705.19-Jul-2021 4355.50  876.10 68.67 11.00 195.47 2589.71
   04:46:33.905.19-Jul-2021 4355.50  878.11 68.67 11.00 195.67 2589.71
   04:46:34.105.19-Jul-2021 4355.50  878.71 68.67 11.00 195.87 2589.71
   04:46:34.306.19-Jul-2021 4355.50  880.18 68.67 11.00 196.07 2589.71
   04:46:34.506.19-Jul-2021 4355.50  880.18 68.67 11.00 196.27 2589.71
   04:46:34.706.19-Jul-2021 4355.50  882.54 68.67 11.00 196.47 2589.71
   04:46:34.906.19-Jul-2021 4355.50  883.57 68.67 11.00 196.67 2589.71
   04:46:35.106.19-Jul-2021 4355.50  884.44 68.67 11.00 196.87 2589.71
   04:46:35.306.19-Jul-2021 4355.50  885.37 68.68 11.00 197.07 2589.71
   04:46:35.506.19-Jul-2021 4355.50  885.37 68.68 11.00 197.27 2589.71
   04:46:35.706.19-Jul-2021 4355.50  887.12 68.68 11.00 197.47 2589.71
   04:46:35.906.19-Jul-2021 4355.50  888.00 68.68 11.00 197.67 2589.71
   04:46:36.106.19-Jul-2021 4355.50  888.95 68.68 11.00 197.87 2589.71
   04:46:36.306.19-Jul-2021 4355.50  888.95 68.68 11.00 198.07 2589.71
   04:46:36.506.19-Jul-2021 4355.50  888.95 68.68 11.00 198.27 2589.71
   04:46:36.706.19-Jul-2021 4355.50  891.08 68.68 11.00 198.47 2589.71
   04:46:36.906.19-Jul-2021 4355.50  891.32 68.68 11.00 198.67 2589.71
   04:46:37.107.19-Jul-2021 4355.50  892.81 68.68 11.00 198.87 2589.71
   04:46:37.307.19-Jul-2021 4355.50  893.99 68.68 11.00 199.07 2589.71
   04:46:37.507.19-Jul-2021 4355.50  893.99 68.68 11.00 199.27 2589.71
   04:46:37.707.19-Jul-2021 4355.50  895.91 68.68 11.00 199.47 2589.71
   04:46:37.907.19-Jul-2021 4355.50  897.91 68.68 11.00 199.67 2589.71
   04:46:38.107.19-Jul-2021 4355.50  899.82 68.68 11.00 199.87 2589.71
   04:46:38.307.19-Jul-2021 4355.50  899.74 68.68 11.00 200.07 2589.71
   04:46:38.507.19-Jul-2021 4355.50  899.74 68.68 11.00 200.27 2589.71
   04:46:38.707.19-Jul-2021 4355.50  902.29 68.68 11.00 200.47 2589.71
   04:46:38.907.19-Jul-2021 4355.50  904.10 68.68 11.00 200.67 2589.71
   04:46:39.107.19-Jul-2021 4355.50  904.99 68.68 11.00 200.87 2589.71
   04:46:39.307.19-Jul-2021 4355.50  904.85 68.68 11.00 201.07 2589.71
   04:46:39.507.19-Jul-2021 4355.50  904.85 68.68 11.00 201.27 2589.71
   04:46:39.708.19-Jul-2021 4355.50  907.80 68.68 11.00 201.47 2589.71
   04:46:39.908.19-Jul-2021 4355.50  909.45 68.68 11.00 201.67 2589.71
   04:46:40.108.19-Jul-2021 4355.50  910.05 68.68 11.00 201.87 2589.71
   04:46:40.308.19-Jul-2021 4355.50  911.12 68.68 11.00 202.07 2589.71
   04:46:40.508.19-Jul-2021 4355.50  911.12 68.68 11.00 202.27 2589.71
   04:46:40.708.19-Jul-2021 4355.50  913.02 68.68 11.00 202.47 2589.71
   04:46:40.908.19-Jul-2021 4355.50  913.92 68.68 11.00 202.67 2589.71
   04:46:41.108.19-Jul-2021 4355.50  914.81 68.68 11.00 202.87 2589.71
   04:46:41.308.19-Jul-2021 4355.50  915.69 68.68 11.00 203.07 2589.71
   04:46:41.508.19-Jul-2021 4355.50  915.69 68.68 11.00 203.27 2589.71
