~Version Information
 VERS.                  2.0:   CWLS log ASCII Standard -VERSION 2.0
 WRAP.                   NO:   One line per depth step
~Well Information Block
#MNEM.UNIT     VALUE/NAME     DESCRIPTION
#---------     -----------    ---------------------------
 STRT.S             14:45:19 18-Jul-21: START TIME 14:45:19 18-Jul-21
 STOP.S             14:51:50 18-Jul-21: STOP TIME  14:51:50 18-Jul-21
 STEP.S                   0.00: STEP TIME
 NULL.                 -999.25: NULL VALUE
 MDS .        Operator Entered:  MAG DATA SOURCE
 PDAT.          Mean Sea Level:  PERMANENT DATUM
 UNIT.                     N/A:  LOGGING EQUIPMENT ID
 DCON.         Sperry Drilling:  DIRECTNL CONTR
 DOE .                     N/A:  DOE NUMBER
 RIG .              West Azeri:  RIG NAME
 JOBN.        AZ-XX-0906997913:  JOB TICKET NUMB
 WELL.                     C41:  WELL NAME
 MWDS.                    Baku:  MWD SHOP
 SRVC.          Turan Drilling:  CONTRACTOR
 FLD .                     ACG:  FIELD NAME
 CTRY.              Azerbaijan:  COUNTRY NAME
 PROV.                    Baku:  PROVINCE
 STAT.                    Baku:  STATE NAME
 REGN.                   EESSA:  REGION
 BASE.              Azerbaijan:  LOGGING EQUIPMENT BASE LOCATION
 UWI .                     N/A:  UNIQUE WELL IDENTIFIER
 API .                     N/A:  API NUMBER
 COMP.     BP Exploration (Caspian Sea) Ltd.:  COMPANY
 WTYP.                Deviated:  WELL TYPE
 SON .        AZ-XX-0906997913:  JOB NUMBER
 FTOP.          Formation Tops:  FORM TOPS DESC
 ILTD.               Lithology:  INTERP LTH DESC
 SVYD.                  Survey:  SURVEY DESC
 DMOD.             Drill Model:  DRILL MOD DESC
 HPTY.       Minimum Curvature:  HOLE POS TYPE
 NREF.                    Grid:  NORTH REFERENCE
 SPUD.               16-May-21:  SPUD DATE
 DATE.      21.11.28 17-May-21:  END TIME
 STIM.      21.11.28 17-May-21:  START TIME
 DMF .             Drill Floor:  DRILL MEAS FROM
 DFST.                        :  DIST FSL TEXT
 DFWT.                        :  DIST FWL TEXT
 CNTY.                        :  COUNTY
 LOC .                        :  LOCATION
 LMF .             Drill Floor:  LOG MEASURED FROM
 AGAP.m                  43.42:  AIR GAP
 VSNS.m                  -2.16:  VERT SEC N/S
 VSEW.m                  -6.24:  VERT SEC E/W
 APD .m                  43.42:  DEPTH ABOVE PD
 WDMS.m                 118.27:  WD ELEV
 EGL .m                   0.00:  GROUND ELEVATION
 EPD .m                   0.00:  ELEVATION
 AZTC.deg                 6.29:  AZM TOTAL CORR
 GRDC.deg                 0.18:  GRID CORRECTION
 MDEC.deg                 6.47:  MAGNETIC DECL
 MDIP.deg                59.54:  MAGNETIC DIP
 MFLD.nT              50337.00:  MAGNETIC FIELD
 GVFD.g                   1.00:  GRAVITY FIELD
 VSDR.deg               226.99:  VERT SEC DIRECT
 TDD .m                   0.00:  TOTAL DEPTH (DRILLER)
 SDEP.m                 448.00:  START DEPTH
 DFSL.m                   0.00:  DISTANCE FSL
 DFWL.m                   0.00:  DISTANCE FWL
 UTMY.m             4435799.96:  UTM Y
 UTMX.m              526265.35:  UTM X
 WHEW.m                  -6.24:  WELL HEAD E/W
 WHNS.m                  -2.16:  WELL HEAD N/S
 LONG.deg                51.31:  LONGITUDE
 LATI.deg                40.06:  LATITUDE
 TVDS.m                  43.42:  TVDSS CORRECTN
 EKB .m                  43.42:  KB ELEVATION
 EDF .m                  43.42:  DF ELEVATION
 TDL .m                 288.00:  TOTAL DEPTH (LOGGER)
 MAGU.                 1851863:  MAGUTM CHECKSUM
 VSC .                       0:  VS TO CLOSURE
~Parameter Information Block
#MNEM.UNIT       Value        Description
#---------     -----------    ---------------------------
 AV  .mps                 0.40:  Ann Velocity 
 AVMX.mps                 0.63:  Max Ann Veloc 
 AZIF.deg               158.76:  Azm, Final 
 BHAT.        Rotary Steerable:  BHA Type 
 BROT.°/30m               0.68:  Build Rotating 
 BS  .in                  8.50:  Bit Size 
 BSZ .in                  8.50:  Bit Size 
 BTPL.psig              712.00:  Bit Press Loss 
 CABU.                      No:  Customer Abuse 
 TCS .hr                 90.66:  Time Ciculation Ended 
 CV  .mps                 2.02:  Crit Velocity 
 CVMX.mps                 2.14:  Max Crit Veloc 
 DD1 .            Aziz Aliyevu:  Direct Drillr 1 
 DD2 .             Samir Abbas:  Direct Drillr 2 
 DD3 .           Teymur Aliyev:  Direct Drillr 3 
 DDSV.                 iCruise:  DD Service 
 DEFF.%                  85.10:  % Det Eff 
 DLRX.°/30m               1.05:  Dogleg Rot Max 
 DLSO.°/30m               1.01:  Dogleg Oriented 
 DLSX.°/30m               1.05:  Dogleg Str Max 
 DRET.      07.45.00 18-Jul-21:  Drill End Time 
 DRST.      15.00.00 16-Jul-21:  Drill Start Tim 
 DTIM.hr                 23.46:  Time Drilling 
 EDEP.m                4603.00:  End Depth 
 ENG1.       Seymur Iskandarov:  Engineer 1 
 ENG2.         Yevgeniy Ulikov:  Engineer 2 
 ENG3.         Bahruz Mehdiyev:  Engineer 3 
 ENG4.         Elchin Mammadov:  Engineer 4 
 ETIM.      14.00.00 23-Jul-21:  End Time 
 FLOI.gpm               500.00:  Flow In 
 FLON.gpm               450.00:  Flow In Min 
 FLOS.cptm                0.00:  Fluid Loss 
 FLOX.gpm               560.00:  Flow In Max 
 DFT .        Mineral Oil Base:  Mud Type 
 FTRO.       Formation Presure:  FTWD Run Obj 
 HFLO.                      No:  High Flow 
 HPRE.                      No:  High Pressure 
 HTEM.                      No:  High Temp 
 HYDO.m                   1.80:  Hydro Offset 
 IFIN.deg                40.22:  Inc, Final 
 IMAX.deg                40.54:  Inc Max 
 IMIN.deg                39.44:  Inc Min 
 IMND.m                4361.17:  Inc Min Depth 
 IMXD.m                4417.92:  Inc Max Depth 
 JARR.                      No:  Jarring 
 LETM.      07.45.00 18-Jul-21:  Log End Time 
 LOST.hr                    16:  Lost Rig Time 
 LSTM.      15.00.00 16-Jul-21:  Log Start Time 
 MDCL.ppm             36500.00:  Mud Chlorides 
 MDES.     Inversion Oil/Synthetic:  Mud Desc 
 DFD .sg                  1.42:  Mud Density 
 MDMN.sg                  1.42:  Dens Mud Min 
 MDMX.sg                  1.43:  Dens Mud Max 
 MOIL.                      56:  Run Mud Oil % 
 MOWR.                   71:29:  Run Mud OWR 
 MSND.                     0.5:  Run Mud Sand % 
 MSOL.                      21:  Run Mud Solids% 
 DFV .spqt               78.00:  Mud Viscosity 
 MWOD.in                  6.75:  MWD Tool OD 
 MWSI.                     Yes:  Serv Intrp, MWD 
 OTIM.hr                200.73:  Time Operating 
 PCON.           Look Like New:  Pad Condition 
 PMAX.psia            11069.93:  Press Op, Max 
 PV  .cP                 32.00:  Mud PV 
 RUN .                     700:  Run Number 
 ROPA.m/hr               10.00:  ROP Avg 
 ROPN.m/hr                9.00:  ROP Min 
 ROPX.m/hr               16.00:  ROP Max 
 RPMA.rpm               116.00:  RPM Surface Avg 
 RPMN.rpm                80.00:  RPM Surface Min 
 RPMX.rpm               120.00:  RPM Surface Max 
 RRUN.                    L605:  Rig Run Number 
 RTIM.hr                 45.00:  Time Reaming 
 SAZI.deg               159.86:  Azm, Start 
 SDEP.m                4315.00:  Start Depth 
 SIDD.                      No:  Serv Intrp, DD 
 SINC.deg                39.86:  Inc, Start 
 SPPA.psig             3300.00:  SPP Avg 
 SPPN.psig             3040.00:  SPP Min 
 SPPX.psig             3645.00:  SPP Max 
 STIM.      01.00.00 15-Jul-21:  Start Time 
 SVCS.                 DD, MWD:  Services 
 SVER.                    9.20:  Sperry Version 
 TDAT.m                 288.00:  Tot Depth Attmp 
 TDDF.                      No:  Trip for DD 
 TDLG.m                 288.00:  Tot Depth Loggd 
 TFF .                      No:  Trip for Fail 
 TQAA.f-kp               19.00:  Torque Abs Avg 
 TQAN.f-kp               18.00:  Torque Abs Min 
 TQAX.f-kp               21.00:  Torque Abs Max 
 TRRT.°/30m               0.45:  Turn Rotating 
 MRT .                    HCIM:  Maximum Recorded Temperature 
 TTMX.degC               88.24:  Max Tool Temp 
 VS01.                90649157:  Virtual Str1 SN 
 VS02.                90652483:  Virtual Str2 SN 
 VS03.                11671987:  Virtual Str3 SN 
 VS04.                90643411:  Virtual Str4 SN 
 VS05.                90652478:  Virtual Str5 SN 
 VS06.                    6111:  Virtual Str6 SN 
 WBMN.klb                 9.50:  WOB Min 
 WITN.        Grigoriy Sarayev:  Customer Rep 
 WITN.          Rufat Huseynov:  Customer Rep 2 
 WOBA.klb                11.00:  WOB Avg 
 WOBX.klb                15.00:  WOB Max 
 YP  .lhf2               28.00:  Yield Point 
~Curve Information Block
#MNEM.UNIT                 API CODE     Curve Description
#---------               -----------    ---------------------------
 TIME.HHMMSS            00 000 000 000:  GT Time & Date
 GTDEPTH.m              00 000 000 000:  GT Depth
 GTPQH.psia             00 000 000 000:  GT HR Quartz Pressure
 GTTQ.degC              00 000 000 000:  GT Quartz Temperature
 GTTN.NONE              00 000 000 000:  GT Test Number
 GTET.sec               00 000 000 000:  GT Elapsed Test Time
 GTTVD.m                00 000 000 000:  GT True Vertical Depth
#Other Information
#
#WARRANTY: Halliburton will use its best efforts to furnish customers with 
#accurate information and interpretations that are part of, and incident to, the services 
#provided.  However, Halliburton cannot and does not warrant the accuracy 
#or correctness of such information and interpretations.  Under no circumstances should any 
#such information or interpretation be relied upon as the sole basis for any drilling, 
#completion, production, or financial decision or any procedure involving any risk to the 
#safety of any drilling venture, drilling rig or its crew or any other third party.  The 
#Customer has full responsibility for all drilling, completion and production operation.  
#Halliburton makes no representations or warranties, either expressed or 
#implied, including, but not limited to, the implied warranties of merchantability or fitness 
#for a particular purpose, with respect to the services rendered.  In no event will 
#Halliburton be liable for failure to obtain any particular results or for 
#any damages, including, but not limited to, indirect, special or consequential damages, 
#resulting from the use of any information or interpretation provided by Halliburton.
#
~A           TIME           GTDEPTH  GTPQH  GTTQ  GTTN  GTET   GTTVD  
# ...
   14:51:04.847.18-Jul-2021 4553.00 6614.72 75.28 5.00 345.13 2740.81
   14:51:05.047.18-Jul-2021 4553.00 6614.72 75.28 5.00 345.33 2740.81
   14:51:05.248.18-Jul-2021 4553.00 6614.96 75.28 5.00 345.53 2740.81
   14:51:05.448.18-Jul-2021 4553.00 6615.04 75.28 5.00 345.73 2740.81
   14:51:05.648.18-Jul-2021 4553.00 6614.21 75.28 5.00 345.93 2740.81
   14:51:05.848.18-Jul-2021 4553.00 6616.12 75.28 5.00 346.13 2740.81
   14:51:06.048.18-Jul-2021 4553.00 6616.12 75.28 5.00 346.33 2740.81
   14:51:06.248.18-Jul-2021 4553.00 6614.98 75.28 5.00 346.53 2740.81
   14:51:06.448.18-Jul-2021 4553.00 6614.80 75.28 5.00 346.73 2740.81
   14:51:06.648.18-Jul-2021 4553.00 6614.68 75.28 5.00 346.93 2740.81
   14:51:06.848.18-Jul-2021 4553.00 6614.23 75.28 5.00 347.13 2740.81
   14:51:07.048.18-Jul-2021 4553.00 6614.23 75.28 5.00 347.33 2740.81
   14:51:07.248.18-Jul-2021 4553.00 6614.31 75.28 5.00 347.53 2740.81
   14:51:07.448.18-Jul-2021 4553.00 6614.25 75.28 5.00 347.73 2740.81
   14:51:07.648.18-Jul-2021 4553.00 6614.21 75.28 5.00 347.93 2740.81
   14:51:07.848.18-Jul-2021 4553.00 6614.30 75.28 5.00 348.13 2740.81
   14:51:08.049.18-Jul-2021 4553.00 6614.30 75.28 5.00 348.33 2740.81
   14:51:08.249.18-Jul-2021 4553.00 6613.39 75.28 5.00 348.53 2740.81
   14:51:08.449.18-Jul-2021 4553.00 6615.94 75.28 5.00 348.73 2740.81
   14:51:08.649.18-Jul-2021 4553.00 6614.64 75.28 5.00 348.93 2740.81
   14:51:08.849.18-Jul-2021 4553.00 6613.53 75.28 5.00 349.13 2740.81
   14:51:09.049.18-Jul-2021 4553.00 6613.53 75.28 5.00 349.33 2740.81
   14:51:09.249.18-Jul-2021 4553.00 6615.06 75.28 5.00 349.53 2740.81
   14:51:09.449.18-Jul-2021 4553.00 6615.05 75.28 5.00 349.73 2740.81
   14:51:09.649.18-Jul-2021 4553.00 6615.02 75.28 5.00 349.93 2740.81
   14:51:09.849.18-Jul-2021 4553.00 6614.86 75.28 5.00 350.13 2740.81
   14:51:10.049.18-Jul-2021 4553.00 6614.86 75.28 5.00 350.33 2740.81
   14:51:10.249.18-Jul-2021 4553.00 6614.22 75.28 5.00 350.53 2740.81
   14:51:10.449.18-Jul-2021 4553.00 6614.91 75.28 5.00 350.73 2740.81
   14:51:10.649.18-Jul-2021 4553.00 6614.34 75.28 5.00 350.93 2740.81
   14:51:10.850.18-Jul-2021 4553.00 6613.34 75.28 5.00 351.13 2740.81
   14:51:11.050.18-Jul-2021 4553.00 6613.34 75.28 5.00 351.33 2740.81
   14:51:11.250.18-Jul-2021 4553.00 6615.01 75.28 5.00 351.53 2740.81
   14:51:11.450.18-Jul-2021 4553.00 6613.97 75.28 5.00 351.73 2740.81
   14:51:11.650.18-Jul-2021 4553.00 6616.70 75.28 5.00 351.93 2740.81
   14:51:11.850.18-Jul-2021 4553.00 6615.32 75.28 5.00 352.13 2740.81
   14:51:12.050.18-Jul-2021 4553.00 6615.32 75.28 5.00 352.33 2740.81
   14:51:12.250.18-Jul-2021 4553.00 6615.11 75.28 5.00 352.53 2740.81
   14:51:12.450.18-Jul-2021 4553.00 6614.74 75.28 5.00 352.73 2740.81
   14:51:12.650.18-Jul-2021 4553.00 6614.51 75.28 5.00 352.93 2740.81
   14:51:12.850.18-Jul-2021 4553.00 6614.45 75.28 5.00 353.13 2740.81
   14:51:13.050.18-Jul-2021 4553.00 6614.45 75.28 5.00 353.33 2740.81
   14:51:13.250.18-Jul-2021 4553.00 6614.30 75.28 5.00 353.53 2740.81
   14:51:13.451.18-Jul-2021 4553.00 6614.27 75.28 5.00 353.73 2740.81
   14:51:13.651.18-Jul-2021 4553.00 6614.35 75.28 5.00 353.93 2740.81
   14:51:13.851.18-Jul-2021 4553.00 6614.51 75.28 5.00 354.13 2740.81
   14:51:14.051.18-Jul-2021 4553.00 6614.51 75.28 5.00 354.33 2740.81
   14:51:14.251.18-Jul-2021 4553.00 6613.49 75.28 5.00 354.53 2740.81
   14:51:14.451.18-Jul-2021 4553.00 6616.01 75.28 5.00 354.73 2740.81
   14:51:14.651.18-Jul-2021 4553.00 6614.63 75.28 5.00 354.93 2740.81
   14:51:14.851.18-Jul-2021 4553.00 6614.76 75.28 5.00 355.13 2740.81
   14:51:15.051.18-Jul-2021 4553.00 6614.76 75.28 5.00 355.33 2740.81
   14:51:15.251.18-Jul-2021 4553.00 6614.19 75.28 5.00 355.53 2740.81
   14:51:15.451.18-Jul-2021 4553.00 6614.11 75.28 5.00 355.73 2740.81
   14:51:15.651.18-Jul-2021 4553.00 6613.94 75.28 5.00 355.93 2740.81
   14:51:15.851.18-Jul-2021 4553.00 6613.86 75.28 5.00 356.13 2740.81
   14:51:16.051.18-Jul-2021 4553.00 6613.86 75.28 5.00 356.33 2740.81
   14:51:16.252.18-Jul-2021 4553.00 6613.85 75.28 5.00 356.53 2740.81
   14:51:16.452.18-Jul-2021 4553.00 6613.81 75.28 5.00 356.73 2740.81
   14:51:16.652.18-Jul-2021 4553.00 6613.90 75.28 5.00 356.93 2740.81
   14:51:16.852.18-Jul-2021 4553.00 6638.35 75.28 5.00 357.13 2740.81
   14:51:17.052.18-Jul-2021 4553.00 6638.35 75.28 5.00 357.33 2740.81
   14:51:17.252.18-Jul-2021 4553.00 6679.01 75.28 5.00 357.53 2740.81
   14:51:17.452.18-Jul-2021 4553.00 6689.77 75.28 5.00 357.73 2740.81
   14:51:17.652.18-Jul-2021 4553.00 6687.57 75.28 5.00 357.93 2740.81
   14:51:17.852.18-Jul-2021 4553.00 6664.38 75.28 5.00 358.13 2740.81
   14:51:18.052.18-Jul-2021 4553.00 6664.38 75.28 5.00 358.33 2740.81
   14:51:18.252.18-Jul-2021 4553.00 6668.83 75.28 5.00 358.53 2740.81
   14:51:18.452.18-Jul-2021 4553.00 6680.99 75.28 5.00 358.73 2740.81
   14:51:18.652.18-Jul-2021 4553.00 6668.70 75.28 5.00 358.93 2740.81
   14:51:18.853.18-Jul-2021 4553.00 6659.34 75.28 5.00 359.13 2740.81
   14:51:19.053.18-Jul-2021 4553.00 6659.34 75.28 5.00 359.33 2740.81
   14:51:19.253.18-Jul-2021 4553.00 6665.53 75.28 5.00 359.53 2740.81
   14:51:19.453.18-Jul-2021 4553.00 6680.15 75.28 5.00 359.73 2740.81
   14:51:19.653.18-Jul-2021 4553.00 6671.29 75.28 5.00 359.93 2740.81
   14:51:19.853.18-Jul-2021 4553.00 6663.90 75.28 5.00 360.13 2740.81
   14:51:20.053.18-Jul-2021 4553.00 6663.90 75.28 5.00 360.33 2740.81
   14:51:20.253.18-Jul-2021 4553.00 6677.54 75.28 5.00 360.53 2740.81
   14:51:20.453.18-Jul-2021 4553.00 6661.47 75.28 5.00 360.73 2740.81
   14:51:20.653.18-Jul-2021 4553.00 6668.30 75.28 5.00 360.93 2740.81
   14:51:20.853.18-Jul-2021 4553.00 6667.24 75.28 5.00 361.13 2740.81
   14:51:21.053.18-Jul-2021 4553.00 6667.24 75.28 5.00 361.33 2740.81
   14:51:21.253.18-Jul-2021 4553.00 6665.30 75.28 5.00 361.53 2740.81
   14:51:21.453.18-Jul-2021 4553.00 6665.73 75.28 5.00 361.73 2740.81
   14:51:21.654.18-Jul-2021 4553.00 6665.38 75.28 5.00 361.93 2740.81
   14:51:21.854.18-Jul-2021 4553.00 6665.86 75.28 5.00 362.13 2740.81
   14:51:22.054.18-Jul-2021 4553.00 6665.86 75.28 5.00 362.33 2740.81
   14:51:22.254.18-Jul-2021 4553.00 6666.25 75.28 5.00 362.53 2740.81
   14:51:22.454.18-Jul-2021 4553.00 6666.36 75.28 5.00 362.73 2740.81
   14:51:22.654.18-Jul-2021 4553.00 6667.65 75.28 5.00 362.93 2740.81
   14:51:22.854.18-Jul-2021 4553.00 6690.12 75.28 5.00 363.13 2740.81
   14:51:23.054.18-Jul-2021 4553.00 6690.12 75.28 5.00 363.33 2740.81
   14:51:23.254.18-Jul-2021 4553.00 6661.71 75.28 5.00 363.53 2740.81
   14:51:23.454.18-Jul-2021 4553.00 6667.65 75.28 5.00 363.73 2740.81
   14:51:23.654.18-Jul-2021 4553.00 6667.99 75.28 5.00 363.93 2740.81
   14:51:23.854.18-Jul-2021 4553.00 6663.81 75.28 5.00 364.13 2740.81
   14:51:24.054.18-Jul-2021 4553.00 6663.81 75.28 5.00 364.33 2740.81
   14:51:24.255.18-Jul-2021 4553.00 6663.68 75.28 5.00 364.53 2740.81
   14:51:24.455.18-Jul-2021 4553.00 6663.23 75.28 5.00 364.73 2740.81
   14:51:24.655.18-Jul-2021 4553.00 6663.29 75.28 5.00 364.93 2740.81
   14:51:24.855.18-Jul-2021 4553.00 6663.33 75.28 5.00 365.13 2740.81
   14:51:25.055.18-Jul-2021 4553.00 6663.33 75.28 5.00 365.33 2740.81
   14:51:25.255.18-Jul-2021 4553.00 6665.92 75.28 5.00 365.53 2740.81
   14:51:25.455.18-Jul-2021 4553.00 6685.38 75.28 5.00 365.73 2740.81
   14:51:25.655.18-Jul-2021 4553.00 6675.17 75.28 5.00 365.93 2740.81
   14:51:25.855.18-Jul-2021 4553.00 6664.53 75.28 5.00 366.13 2740.81
   14:51:26.055.18-Jul-2021 4553.00 6664.53 75.28 5.00 366.33 2740.81
   14:51:26.255.18-Jul-2021 4553.00 6676.21 75.28 5.00 366.53 2740.81
   14:51:26.455.18-Jul-2021 4553.00 6661.93 75.28 5.00 366.74 2740.81
   14:51:26.655.18-Jul-2021 4553.00 6669.26 75.28 5.00 366.94 2740.81
   14:51:26.855.18-Jul-2021 4553.00 6678.29 75.28 5.00 367.14 2740.81
   14:51:27.056.18-Jul-2021 4553.00 6678.29 75.28 5.00 367.34 2740.81
   14:51:27.256.18-Jul-2021 4553.00 6661.25 75.28 5.00 367.54 2740.81
   14:51:27.456.18-Jul-2021 4553.00 6662.66 75.28 5.00 367.74 2740.81
   14:51:27.656.18-Jul-2021 4553.00 6669.07 75.28 5.00 367.94 2740.81
