~Version Information
 VERS.                  2.0:   CWLS log ASCII Standard -VERSION 2.0
 WRAP.                   NO:   One line per depth step
~Well Information Block
#MNEM.UNIT     VALUE/NAME     DESCRIPTION
#---------     -----------    ---------------------------
 STRT.S             05:02:49 19-Jul-21: START TIME 05:02:49 19-Jul-21
 STOP.S             05:09:40 19-Jul-21: STOP TIME  05:09:40 19-Jul-21
 STEP.S                   0.00: STEP TIME
 NULL.                 -999.25: NULL VALUE
 MDS .        Operator Entered:  MAG DATA SOURCE
 PDAT.          Mean Sea Level:  PERMANENT DATUM
 UNIT.                     N/A:  LOGGING EQUIPMENT ID
 DCON.         Sperry Drilling:  DIRECTNL CONTR
 DOE .                     N/A:  DOE NUMBER
 RIG .              West Azeri:  RIG NAME
 JOBN.        AZ-XX-0906997913:  JOB TICKET NUMB
 WELL.                     C41:  WELL NAME
 MWDS.                    Baku:  MWD SHOP
 SRVC.          Turan Drilling:  CONTRACTOR
 FLD .                     ACG:  FIELD NAME
 CTRY.              Azerbaijan:  COUNTRY NAME
 PROV.                    Baku:  PROVINCE
 STAT.                    Baku:  STATE NAME
 REGN.                   EESSA:  REGION
 BASE.              Azerbaijan:  LOGGING EQUIPMENT BASE LOCATION
 UWI .                     N/A:  UNIQUE WELL IDENTIFIER
 API .                     N/A:  API NUMBER
 COMP.     BP Exploration (Caspian Sea) Ltd.:  COMPANY
 WTYP.                Deviated:  WELL TYPE
 SON .        AZ-XX-0906997913:  JOB NUMBER
 FTOP.          Formation Tops:  FORM TOPS DESC
 ILTD.               Lithology:  INTERP LTH DESC
 SVYD.                  Survey:  SURVEY DESC
 DMOD.             Drill Model:  DRILL MOD DESC
 HPTY.       Minimum Curvature:  HOLE POS TYPE
 NREF.                    Grid:  NORTH REFERENCE
 SPUD.               16-May-21:  SPUD DATE
 DATE.      21.11.28 17-May-21:  END TIME
 STIM.      21.11.28 17-May-21:  START TIME
 DMF .             Drill Floor:  DRILL MEAS FROM
 DFST.                        :  DIST FSL TEXT
 DFWT.                        :  DIST FWL TEXT
 CNTY.                        :  COUNTY
 LOC .                        :  LOCATION
 LMF .             Drill Floor:  LOG MEASURED FROM
 AGAP.m                  43.42:  AIR GAP
 VSNS.m                  -2.16:  VERT SEC N/S
 VSEW.m                  -6.24:  VERT SEC E/W
 APD .m                  43.42:  DEPTH ABOVE PD
 WDMS.m                 118.27:  WD ELEV
 EGL .m                   0.00:  GROUND ELEVATION
 EPD .m                   0.00:  ELEVATION
 AZTC.deg                 6.29:  AZM TOTAL CORR
 GRDC.deg                 0.18:  GRID CORRECTION
 MDEC.deg                 6.47:  MAGNETIC DECL
 MDIP.deg                59.54:  MAGNETIC DIP
 MFLD.nT              50337.00:  MAGNETIC FIELD
 GVFD.g                   1.00:  GRAVITY FIELD
 VSDR.deg               226.99:  VERT SEC DIRECT
 TDD .m                   0.00:  TOTAL DEPTH (DRILLER)
 SDEP.m                 448.00:  START DEPTH
 DFSL.m                   0.00:  DISTANCE FSL
 DFWL.m                   0.00:  DISTANCE FWL
 UTMY.m             4435799.96:  UTM Y
 UTMX.m              526265.35:  UTM X
 WHEW.m                  -6.24:  WELL HEAD E/W
 WHNS.m                  -2.16:  WELL HEAD N/S
 LONG.deg                51.31:  LONGITUDE
 LATI.deg                40.06:  LATITUDE
 TVDS.m                  43.42:  TVDSS CORRECTN
 EKB .m                  43.42:  KB ELEVATION
 EDF .m                  43.42:  DF ELEVATION
 TDL .m                 288.00:  TOTAL DEPTH (LOGGER)
 MAGU.                 1851863:  MAGUTM CHECKSUM
 VSC .                       0:  VS TO CLOSURE
~Parameter Information Block
#MNEM.UNIT       Value        Description
#---------     -----------    ---------------------------
 AV  .mps                 0.40:  Ann Velocity 
 AVMX.mps                 0.63:  Max Ann Veloc 
 AZIF.deg               158.76:  Azm, Final 
 BHAT.        Rotary Steerable:  BHA Type 
 BROT.°/30m               0.68:  Build Rotating 
 BS  .in                  8.50:  Bit Size 
 BSZ .in                  8.50:  Bit Size 
 BTPL.psig              712.00:  Bit Press Loss 
 CABU.                      No:  Customer Abuse 
 COMM.                     'i:  Run Comments 1 
 TCS .hr                 90.66:  Time Ciculation Ended 
 CV  .mps                 2.02:  Crit Velocity 
 CVMX.mps                 2.14:  Max Crit Veloc 
 DD1 .            Aziz Aliyevu:  Direct Drillr 1 
 DD2 .             Samir Abbas:  Direct Drillr 2 
 DD3 .           Teymur Aliyev:  Direct Drillr 3 
 DDSV.                 iCruise:  DD Service 
 DEFF.%                  85.10:  % Det Eff 
 DLRX.°/30m               1.05:  Dogleg Rot Max 
 DLSO.°/30m               1.01:  Dogleg Oriented 
 DLSX.°/30m               1.05:  Dogleg Str Max 
 DRET.      07.45.00 18-Jul-21:  Drill End Time 
 DRST.      15.00.00 16-Jul-21:  Drill Start Tim 
 DTIM.hr                 23.46:  Time Drilling 
 EDEP.m                4603.00:  End Depth 
 ENG1.       Seymur Iskandarov:  Engineer 1 
 ENG2.         Yevgeniy Ulikov:  Engineer 2 
 ENG3.         Bahruz Mehdiyev:  Engineer 3 
 ENG4.         Elchin Mammadov:  Engineer 4 
 ETIM.      14.00.00 23-Jul-21:  End Time 
 FLOI.gpm               500.00:  Flow In 
 FLON.gpm               450.00:  Flow In Min 
 FLOS.cptm                0.00:  Fluid Loss 
 FLOX.gpm               560.00:  Flow In Max 
 DFT .        Mineral Oil Base:  Mud Type 
 FTRO.       Formation Presure:  FTWD Run Obj 
 HFLO.                      No:  High Flow 
 HPRE.                      No:  High Pressure 
 HTEM.                      No:  High Temp 
 HYDO.m                   1.80:  Hydro Offset 
 IFIN.deg                40.22:  Inc, Final 
 IMAX.deg                40.54:  Inc Max 
 IMIN.deg                39.44:  Inc Min 
 IMND.m                4361.17:  Inc Min Depth 
 IMXD.m                4417.92:  Inc Max Depth 
 JARR.                      No:  Jarring 
 LETM.      07.45.00 18-Jul-21:  Log End Time 
 LOST.hr                    16:  Lost Rig Time 
 LSTM.      15.00.00 16-Jul-21:  Log Start Time 
 MDCL.ppm             36500.00:  Mud Chlorides 
 MDES.     Inversion Oil/Synthetic:  Mud Desc 
 DFD .sg                  1.42:  Mud Density 
 MDMN.sg                  1.42:  Dens Mud Min 
 MDMX.sg                  1.43:  Dens Mud Max 
 MOIL.                      56:  Run Mud Oil % 
 MOWR.                   71:29:  Run Mud OWR 
 MSND.                     0.5:  Run Mud Sand % 
 MSOL.                      21:  Run Mud Solids% 
 DFV .spqt               78.00:  Mud Viscosity 
 MWOD.in                  6.75:  MWD Tool OD 
 MWSI.                     Yes:  Serv Intrp, MWD 
 OTIM.hr                200.73:  Time Operating 
 PCON.           Look Like New:  Pad Condition 
 PMAX.psia            11069.93:  Press Op, Max 
 PV  .cP                 32.00:  Mud PV 
 RUN .                     700:  Run Number 
 ROPA.m/hr               10.00:  ROP Avg 
 ROPN.m/hr                9.00:  ROP Min 
 ROPX.m/hr               16.00:  ROP Max 
 RPMA.rpm               116.00:  RPM Surface Avg 
 RPMN.rpm                80.00:  RPM Surface Min 
 RPMX.rpm               120.00:  RPM Surface Max 
 RRUN.                    L605:  Rig Run Number 
 RTIM.hr                 45.00:  Time Reaming 
 SAZI.deg               159.86:  Azm, Start 
 SDEP.m                4315.00:  Start Depth 
 SIDD.                      No:  Serv Intrp, DD 
 SINC.deg                39.86:  Inc, Start 
 SPPA.psig             3300.00:  SPP Avg 
 SPPN.psig             3040.00:  SPP Min 
 SPPX.psig             3645.00:  SPP Max 
 STIM.      01.00.00 15-Jul-21:  Start Time 
 SVCS.                 DD, MWD:  Services 
 SVER.                    9.20:  Sperry Version 
 TDAT.m                 288.00:  Tot Depth Attmp 
 TDDF.                      No:  Trip for DD 
 TDLG.m                 288.00:  Tot Depth Loggd 
 TFF .                      No:  Trip for Fail 
 TQAA.f-kp               19.00:  Torque Abs Avg 
 TQAN.f-kp               18.00:  Torque Abs Min 
 TQAX.f-kp               21.00:  Torque Abs Max 
 TRRT.°/30m               0.45:  Turn Rotating 
 MRT .                    HCIM:  Maximum Recorded Temperature 
 TTMX.degC               88.24:  Max Tool Temp 
 VS01.                90649157:  Virtual Str1 SN 
 VS02.                90652483:  Virtual Str2 SN 
 VS03.                11671987:  Virtual Str3 SN 
 VS04.                90643411:  Virtual Str4 SN 
 VS05.                90652478:  Virtual Str5 SN 
 VS06.                    6111:  Virtual Str6 SN 
 WBMN.klb                 9.50:  WOB Min 
 WITN.        Grigoriy Sarayev:  Customer Rep 
 WITN.          Rufat Huseynov:  Customer Rep 2 
 WOBA.klb                11.00:  WOB Avg 
 WOBX.klb                15.00:  WOB Max 
 YP  .lhf2               28.00:  Yield Point 
~Curve Information Block
#MNEM.UNIT                 API CODE     Curve Description
#---------               -----------    ---------------------------
 TIME.HHMMSS            00 000 000 000:  GT Time & Date
 GTDEPTH.m              00 000 000 000:  GT Depth
 GTPQH.psia             00 000 000 000:  GT HR Quartz Pressure
 GTTQ.degC              00 000 000 000:  GT Quartz Temperature
 GTTN.NONE              00 000 000 000:  GT Test Number
 GTET.sec               00 000 000 000:  GT Elapsed Test Time
 GTTVD.m                00 000 000 000:  GT True Vertical Depth
#Other Information
#
#WARRANTY: Halliburton will use its best efforts to furnish customers with 
#accurate information and interpretations that are part of, and incident to, the services 
#provided.  However, Halliburton cannot and does not warrant the accuracy 
#or correctness of such information and interpretations.  Under no circumstances should any 
#such information or interpretation be relied upon as the sole basis for any drilling, 
#completion, production, or financial decision or any procedure involving any risk to the 
#safety of any drilling venture, drilling rig or its crew or any other third party.  The 
#Customer has full responsibility for all drilling, completion and production operation.  
#Halliburton makes no representations or warranties, either expressed or 
#implied, including, but not limited to, the implied warranties of merchantability or fitness 
#for a particular purpose, with respect to the services rendered.  In no event will 
#Halliburton be liable for failure to obtain any particular results or for 
#any damages, including, but not limited to, indirect, special or consequential damages, 
#resulting from the use of any information or interpretation provided by Halliburton.
#
~A           TIME           GTDEPTH  GTPQH  GTTQ  GTTN   GTET   GTTVD  
# ...
   05:09:14.006.19-Jul-2021 4356.00 6347.69 68.90 12.00 384.34 2590.09
   05:09:14.206.19-Jul-2021 4356.00 6341.66 68.90 12.00 384.54 2590.09
   05:09:14.406.19-Jul-2021 4356.00 6342.09 68.90 12.00 384.74 2590.09
   05:09:14.606.19-Jul-2021 4356.00 6340.32 68.90 12.00 384.94 2590.09
   05:09:14.806.19-Jul-2021 4356.00 6340.24 68.90 12.00 385.14 2590.09
   05:09:15.007.19-Jul-2021 4356.00 6340.24 68.90 12.00 385.34 2590.09
   05:09:15.207.19-Jul-2021 4356.00 6340.54 68.90 12.00 385.54 2590.09
   05:09:15.407.19-Jul-2021 4356.00 6338.94 68.90 12.00 385.74 2590.09
   05:09:15.607.19-Jul-2021 4356.00 6338.64 68.90 12.00 385.94 2590.09
   05:09:15.807.19-Jul-2021 4356.00 6355.76 68.90 12.00 386.14 2590.09
   05:09:16.007.19-Jul-2021 4356.00 6355.76 68.90 12.00 386.34 2590.09
   05:09:16.207.19-Jul-2021 4356.00 6338.15 68.90 12.00 386.54 2590.09
   05:09:16.407.19-Jul-2021 4356.00 6371.96 68.90 12.00 386.74 2590.09
   05:09:16.607.19-Jul-2021 4356.00 6334.34 68.90 12.00 386.94 2590.09
   05:09:16.807.19-Jul-2021 4356.00 6339.59 68.90 12.00 387.14 2590.09
   05:09:17.007.19-Jul-2021 4356.00 6339.59 68.90 12.00 387.34 2590.09
   05:09:17.207.19-Jul-2021 4356.00 6356.71 68.90 12.00 387.54 2590.09
   05:09:17.407.19-Jul-2021 4356.00 6346.00 68.90 12.00 387.74 2590.09
   05:09:17.607.19-Jul-2021 4356.00 6342.22 68.90 12.00 387.94 2590.09
   05:09:17.808.19-Jul-2021 4356.00 6349.50 68.90 12.00 388.14 2590.09
   05:09:18.008.19-Jul-2021 4356.00 6349.50 68.90 12.00 388.34 2590.09
   05:09:18.208.19-Jul-2021 4356.00 6360.73 68.90 12.00 388.54 2590.09
   05:09:18.408.19-Jul-2021 4356.00 6346.24 68.90 12.00 388.74 2590.09
   05:09:18.608.19-Jul-2021 4356.00 6341.33 68.90 12.00 388.94 2590.09
   05:09:18.808.19-Jul-2021 4356.00 6375.08 68.90 12.00 389.14 2590.09
   05:09:19.008.19-Jul-2021 4356.00 6375.08 68.90 12.00 389.34 2590.09
   05:09:19.208.19-Jul-2021 4356.00 6341.56 68.90 12.00 389.54 2590.09
   05:09:19.408.19-Jul-2021 4356.00 6353.74 68.90 12.00 389.74 2590.09
   05:09:19.608.19-Jul-2021 4356.00 6341.08 68.90 12.00 389.94 2590.09
   05:09:19.808.19-Jul-2021 4356.00 6344.19 68.90 12.00 390.14 2590.09
   05:09:20.008.19-Jul-2021 4356.00 6344.19 68.90 12.00 390.34 2590.09
   05:09:20.208.19-Jul-2021 4356.00 6341.91 68.90 12.00 390.54 2590.09
   05:09:20.409.19-Jul-2021 4356.00 6341.55 68.90 12.00 390.74 2590.09
   05:09:20.609.19-Jul-2021 4356.00 6340.86 68.90 12.00 390.94 2590.09
   05:09:20.809.19-Jul-2021 4356.00 6340.67 68.90 12.00 391.14 2590.09
   05:09:21.009.19-Jul-2021 4356.00 6340.67 68.90 12.00 391.34 2590.09
   05:09:21.209.19-Jul-2021 4356.00 6340.98 68.90 12.00 391.54 2590.09
   05:09:21.409.19-Jul-2021 4356.00 6339.77 68.90 12.00 391.74 2590.09
   05:09:21.609.19-Jul-2021 4356.00 6357.01 68.90 12.00 391.94 2590.09
   05:09:21.809.19-Jul-2021 4356.00 6342.65 68.90 12.00 392.14 2590.09
   05:09:22.009.19-Jul-2021 4356.00 6342.65 68.90 12.00 392.34 2590.09
   05:09:22.209.19-Jul-2021 4356.00 6348.32 68.90 12.00 392.54 2590.09
   05:09:22.409.19-Jul-2021 4356.00 6340.57 68.90 12.00 392.74 2590.09
   05:09:22.609.19-Jul-2021 4356.00 6341.71 68.90 12.00 392.94 2590.09
   05:09:22.809.19-Jul-2021 4356.00 6342.63 68.90 12.00 393.14 2590.09
   05:09:23.009.19-Jul-2021 4356.00 6342.63 68.90 12.00 393.34 2590.09
   05:09:23.210.19-Jul-2021 4356.00 6340.04 68.90 12.00 393.54 2590.09
   05:09:23.410.19-Jul-2021 4356.00 6339.50 68.90 12.00 393.74 2590.09
   05:09:23.610.19-Jul-2021 4356.00 6340.46 68.90 12.00 393.95 2590.09
   05:09:23.810.19-Jul-2021 4356.00 6339.85 68.90 12.00 394.15 2590.09
   05:09:24.010.19-Jul-2021 4356.00 6339.85 68.90 12.00 394.35 2590.09
   05:09:24.210.19-Jul-2021 4356.00 6356.08 68.90 12.00 394.55 2590.09
   05:09:24.410.19-Jul-2021 4356.00 6341.78 68.90 12.00 394.75 2590.09
   05:09:24.610.19-Jul-2021 4356.00 6338.01 68.90 12.00 394.95 2590.09
   05:09:24.810.19-Jul-2021 4356.00 6371.87 68.90 12.00 395.15 2590.09
   05:09:25.010.19-Jul-2021 4356.00 6371.87 68.90 12.00 395.35 2590.09
   05:09:25.210.19-Jul-2021 4356.00 6339.13 68.90 12.00 395.55 2590.09
   05:09:25.410.19-Jul-2021 4356.00 6350.77 68.90 12.00 395.75 2590.09
   05:09:25.610.19-Jul-2021 4356.00 6355.09 68.90 12.00 395.95 2590.09
   05:09:25.811.19-Jul-2021 4356.00 6344.56 68.90 12.00 396.15 2590.09
   05:09:26.011.19-Jul-2021 4356.00 6344.56 68.90 12.00 396.35 2590.09
   05:09:26.211.19-Jul-2021 4356.00 6349.20 68.90 12.00 396.55 2590.09
   05:09:26.411.19-Jul-2021 4356.00 6340.60 68.90 12.00 396.75 2590.09
   05:09:26.611.19-Jul-2021 4356.00 6367.07 68.90 12.00 396.95 2590.09
   05:09:26.811.19-Jul-2021 4356.00 6338.66 68.90 12.00 397.15 2590.09
   05:09:27.011.19-Jul-2021 4356.00 6338.66 68.90 12.00 397.35 2590.09
   05:09:27.211.19-Jul-2021 4356.00 6350.90 68.90 12.00 397.55 2590.09
   05:09:27.411.19-Jul-2021 4356.00 6339.67 68.90 12.00 397.75 2590.09
   05:09:27.611.19-Jul-2021 4356.00 6341.62 68.90 12.00 397.95 2590.09
   05:09:27.811.19-Jul-2021 4356.00 6361.36 68.90 12.00 398.15 2590.09
   05:09:28.011.19-Jul-2021 4356.00 6361.36 68.90 12.00 398.35 2590.09
   05:09:28.211.19-Jul-2021 4356.00 6341.96 68.90 12.00 398.55 2590.09
   05:09:28.411.19-Jul-2021 4356.00 6346.74 68.90 12.00 398.75 2590.09
   05:09:28.612.19-Jul-2021 4356.00 6341.87 68.90 12.00 398.95 2590.09
   05:09:28.812.19-Jul-2021 4356.00 6343.88 68.90 12.00 399.15 2590.09
   05:09:29.012.19-Jul-2021 4356.00 6343.88 68.90 12.00 399.35 2590.09
   05:09:29.212.19-Jul-2021 4356.00 6341.74 68.90 12.00 399.55 2590.09
   05:09:29.412.19-Jul-2021 4356.00 6341.71 68.90 12.00 399.75 2590.09
   05:09:29.612.19-Jul-2021 4356.00 6341.84 68.90 12.00 399.95 2590.09
   05:09:29.812.19-Jul-2021 4356.00 6340.64 68.90 12.00 400.15 2590.09
   05:09:30.012.19-Jul-2021 4356.00 6340.64 68.90 12.00 400.35 2590.09
   05:09:30.212.19-Jul-2021 4356.00 6340.33 68.90 12.00 400.55 2590.09
   05:09:30.412.19-Jul-2021 4356.00 6339.49 68.90 12.00 400.75 2590.09
   05:09:30.612.19-Jul-2021 4356.00 6363.08 68.90 12.00 400.95 2590.09
   05:09:30.812.19-Jul-2021 4356.00 6335.82 68.90 12.00 401.15 2590.09
   05:09:31.012.19-Jul-2021 4356.00 6335.82 68.90 12.00 401.35 2590.09
   05:09:31.213.19-Jul-2021 4356.00 6348.56 68.90 12.00 401.55 2590.09
   05:09:31.413.19-Jul-2021 4356.00 6340.88 68.90 12.00 401.75 2590.09
   05:09:31.613.19-Jul-2021 4356.00 6342.64 68.90 12.00 401.95 2590.09
   05:09:31.813.19-Jul-2021 4356.00 6339.97 68.90 12.00 402.15 2590.09
   05:09:32.013.19-Jul-2021 4356.00 6339.97 68.90 12.00 402.35 2590.09
   05:09:32.213.19-Jul-2021 4356.00 6340.64 68.90 12.00 402.55 2590.09
   05:09:32.413.19-Jul-2021 4356.00 6339.15 68.90 12.00 402.75 2590.09
   05:09:32.613.19-Jul-2021 4356.00 6339.12 68.90 12.00 402.95 2590.09
   05:09:32.813.19-Jul-2021 4356.00 6338.77 68.90 12.00 403.15 2590.09
   05:09:33.013.19-Jul-2021 4356.00 6338.77 68.90 12.00 403.35 2590.09
   05:09:33.213.19-Jul-2021 4356.00 6360.40 68.90 12.00 403.55 2590.09
   05:09:33.413.19-Jul-2021 4356.00 6333.91 68.90 12.00 403.75 2590.09
   05:09:33.613.19-Jul-2021 4356.00 6337.62 68.90 12.00 403.95 2590.09
   05:09:33.813.19-Jul-2021 4356.00 6367.55 68.90 12.00 404.15 2590.09
   05:09:34.014.19-Jul-2021 4356.00 6367.55 68.90 12.00 404.35 2590.09
   05:09:34.214.19-Jul-2021 4356.00 6343.74 68.90 12.00 404.55 2590.09
   05:09:34.414.19-Jul-2021 4356.00 6345.61 68.90 12.00 404.75 2590.09
   05:09:34.614.19-Jul-2021 4356.00 6364.78 68.90 12.00 404.95 2590.09
   05:09:34.814.19-Jul-2021 4356.00 6338.43 68.90 12.00 405.15 2590.09
   05:09:35.014.19-Jul-2021 4356.00 6338.43 68.90 12.00 405.35 2590.09
   05:09:35.214.19-Jul-2021 4356.00 6349.98 68.90 12.00 405.55 2590.09
   05:09:35.414.19-Jul-2021 4356.00 6348.26 68.90 12.00 405.75 2590.09
   05:09:35.614.19-Jul-2021 4356.00 6356.99 68.90 12.00 405.95 2590.09
   05:09:35.814.19-Jul-2021 4356.00 6340.30 68.90 12.00 406.15 2590.09
   05:09:36.014.19-Jul-2021 4356.00 6340.30 68.90 12.00 406.35 2590.09
   05:09:36.214.19-Jul-2021 4356.00 6343.18 68.90 12.00 406.55 2590.09
   05:09:36.414.19-Jul-2021 4356.00 6341.60 68.90 12.00 406.75 2590.09
