~Version Information
 VERS.                  2.0:   CWLS log ASCII Standard -VERSION 2.0
 WRAP.                   NO:   One line per depth step
~Well Information Block
#MNEM.UNIT     VALUE/NAME     DESCRIPTION
#---------     -----------    ---------------------------
 STRT.S             10:41:06 19-Jul-21: START TIME 10:41:06 19-Jul-21
 STOP.S             10:48:00 19-Jul-21: STOP TIME  10:48:00 19-Jul-21
 STEP.S                   0.00: STEP TIME
 NULL.                 -999.25: NULL VALUE
 MDS .        Operator Entered:  MAG DATA SOURCE
 PDAT.          Mean Sea Level:  PERMANENT DATUM
 UNIT.                     N/A:  LOGGING EQUIPMENT ID
 DCON.         Sperry Drilling:  DIRECTNL CONTR
 DOE .                     N/A:  DOE NUMBER
 RIG .              West Azeri:  RIG NAME
 JOBN.        AZ-XX-0906997913:  JOB TICKET NUMB
 WELL.                     C41:  WELL NAME
 MWDS.                    Baku:  MWD SHOP
 SRVC.          Turan Drilling:  CONTRACTOR
 FLD .                     ACG:  FIELD NAME
 CTRY.              Azerbaijan:  COUNTRY NAME
 PROV.                    Baku:  PROVINCE
 STAT.                    Baku:  STATE NAME
 REGN.                   EESSA:  REGION
 BASE.              Azerbaijan:  LOGGING EQUIPMENT BASE LOCATION
 UWI .                     N/A:  UNIQUE WELL IDENTIFIER
 API .                     N/A:  API NUMBER
 COMP.     BP Exploration (Caspian Sea) Ltd.:  COMPANY
 WTYP.                Deviated:  WELL TYPE
 SON .        AZ-XX-0906997913:  JOB NUMBER
 FTOP.          Formation Tops:  FORM TOPS DESC
 ILTD.               Lithology:  INTERP LTH DESC
 SVYD.                  Survey:  SURVEY DESC
 DMOD.             Drill Model:  DRILL MOD DESC
 HPTY.       Minimum Curvature:  HOLE POS TYPE
 NREF.                    Grid:  NORTH REFERENCE
 SPUD.               16-May-21:  SPUD DATE
 DATE.      21.11.28 17-May-21:  END TIME
 STIM.      21.11.28 17-May-21:  START TIME
 DMF .             Drill Floor:  DRILL MEAS FROM
 DFST.                        :  DIST FSL TEXT
 DFWT.                        :  DIST FWL TEXT
 CNTY.                        :  COUNTY
 LOC .                        :  LOCATION
 LMF .             Drill Floor:  LOG MEASURED FROM
 AGAP.m                  43.42:  AIR GAP
 VSNS.m                  -2.16:  VERT SEC N/S
 VSEW.m                  -6.24:  VERT SEC E/W
 APD .m                  43.42:  DEPTH ABOVE PD
 WDMS.m                 118.27:  WD ELEV
 EGL .m                   0.00:  GROUND ELEVATION
 EPD .m                   0.00:  ELEVATION
 AZTC.deg                 6.29:  AZM TOTAL CORR
 GRDC.deg                 0.18:  GRID CORRECTION
 MDEC.deg                 6.47:  MAGNETIC DECL
 MDIP.deg                59.54:  MAGNETIC DIP
 MFLD.nT              50337.00:  MAGNETIC FIELD
 GVFD.g                   1.00:  GRAVITY FIELD
 VSDR.deg               226.99:  VERT SEC DIRECT
 TDD .m                   0.00:  TOTAL DEPTH (DRILLER)
 SDEP.m                 448.00:  START DEPTH
 DFSL.m                   0.00:  DISTANCE FSL
 DFWL.m                   0.00:  DISTANCE FWL
 UTMY.m             4435799.96:  UTM Y
 UTMX.m              526265.35:  UTM X
 WHEW.m                  -6.24:  WELL HEAD E/W
 WHNS.m                  -2.16:  WELL HEAD N/S
 LONG.deg                51.31:  LONGITUDE
 LATI.deg                40.06:  LATITUDE
 TVDS.m                  43.42:  TVDSS CORRECTN
 EKB .m                  43.42:  KB ELEVATION
 EDF .m                  43.42:  DF ELEVATION
 TDL .m                 288.00:  TOTAL DEPTH (LOGGER)
 MAGU.                 1851863:  MAGUTM CHECKSUM
 VSC .                       0:  VS TO CLOSURE
~Parameter Information Block
#MNEM.UNIT       Value        Description
#---------     -----------    ---------------------------
 AV  .mps                 0.40:  Ann Velocity 
 AVMX.mps                 0.63:  Max Ann Veloc 
 AZIF.deg               158.76:  Azm, Final 
 BHAT.        Rotary Steerable:  BHA Type 
 BROT.°/30m               0.68:  Build Rotating 
 BS  .in                  8.50:  Bit Size 
 BSZ .in                  8.50:  Bit Size 
 BTPL.psig              712.00:  Bit Press Loss 
 CABU.                      No:  Customer Abuse 
 COMM.                     ÄòJ:  Run Comments 1 
 TCS .hr                 90.66:  Time Ciculation Ended 
 CV  .mps                 2.02:  Crit Velocity 
 CVMX.mps                 2.14:  Max Crit Veloc 
 DD1 .            Aziz Aliyevu:  Direct Drillr 1 
 DD2 .             Samir Abbas:  Direct Drillr 2 
 DD3 .           Teymur Aliyev:  Direct Drillr 3 
 DDSV.                 iCruise:  DD Service 
 DEFF.%                  85.10:  % Det Eff 
 DLRX.°/30m               1.05:  Dogleg Rot Max 
 DLSO.°/30m               1.01:  Dogleg Oriented 
 DLSX.°/30m               1.05:  Dogleg Str Max 
 DRET.      07.45.00 18-Jul-21:  Drill End Time 
 DRST.      15.00.00 16-Jul-21:  Drill Start Tim 
 DTIM.hr                 23.46:  Time Drilling 
 EDEP.m                4603.00:  End Depth 
 ENG1.       Seymur Iskandarov:  Engineer 1 
 ENG2.         Yevgeniy Ulikov:  Engineer 2 
 ENG3.         Bahruz Mehdiyev:  Engineer 3 
 ENG4.         Elchin Mammadov:  Engineer 4 
 ETIM.      14.00.00 23-Jul-21:  End Time 
 FLOI.gpm               500.00:  Flow In 
 FLON.gpm               450.00:  Flow In Min 
 FLOS.cptm                0.00:  Fluid Loss 
 FLOX.gpm               560.00:  Flow In Max 
 DFT .        Mineral Oil Base:  Mud Type 
 FTRO.       Formation Presure:  FTWD Run Obj 
 HFLO.                      No:  High Flow 
 HPRE.                      No:  High Pressure 
 HTEM.                      No:  High Temp 
 HYDO.m                   1.80:  Hydro Offset 
 IFIN.deg                40.22:  Inc, Final 
 IMAX.deg                40.54:  Inc Max 
 IMIN.deg                39.44:  Inc Min 
 IMND.m                4361.17:  Inc Min Depth 
 IMXD.m                4417.92:  Inc Max Depth 
 JARR.                      No:  Jarring 
 LETM.      07.45.00 18-Jul-21:  Log End Time 
 LOST.hr                    16:  Lost Rig Time 
 LSTM.      15.00.00 16-Jul-21:  Log Start Time 
 MDCL.ppm             36500.00:  Mud Chlorides 
 MDES.     Inversion Oil/Synthetic:  Mud Desc 
 DFD .sg                  1.42:  Mud Density 
 MDMN.sg                  1.42:  Dens Mud Min 
 MDMX.sg                  1.43:  Dens Mud Max 
 MOIL.                      56:  Run Mud Oil % 
 MOWR.                   71:29:  Run Mud OWR 
 MSND.                     0.5:  Run Mud Sand % 
 MSOL.                      21:  Run Mud Solids% 
 DFV .spqt               78.00:  Mud Viscosity 
 MWOD.in                  6.75:  MWD Tool OD 
 MWSI.                     Yes:  Serv Intrp, MWD 
 OTIM.hr                200.73:  Time Operating 
 PCON.           Look Like New:  Pad Condition 
 PMAX.psia            11069.93:  Press Op, Max 
 PV  .cP                 32.00:  Mud PV 
 RUN .                     700:  Run Number 
 ROPA.m/hr               10.00:  ROP Avg 
 ROPN.m/hr                9.00:  ROP Min 
 ROPX.m/hr               16.00:  ROP Max 
 RPMA.rpm               116.00:  RPM Surface Avg 
 RPMN.rpm                80.00:  RPM Surface Min 
 RPMX.rpm               120.00:  RPM Surface Max 
 RRUN.                    L605:  Rig Run Number 
 RTIM.hr                 45.00:  Time Reaming 
 SAZI.deg               159.86:  Azm, Start 
 SDEP.m                4315.00:  Start Depth 
 SIDD.                      No:  Serv Intrp, DD 
 SINC.deg                39.86:  Inc, Start 
 SPPA.psig             3300.00:  SPP Avg 
 SPPN.psig             3040.00:  SPP Min 
 SPPX.psig             3645.00:  SPP Max 
 STIM.      01.00.00 15-Jul-21:  Start Time 
 SVCS.                 DD, MWD:  Services 
 SVER.                    9.20:  Sperry Version 
 TDAT.m                 288.00:  Tot Depth Attmp 
 TDDF.                      No:  Trip for DD 
 TDLG.m                 288.00:  Tot Depth Loggd 
 TFF .                      No:  Trip for Fail 
 TQAA.f-kp               19.00:  Torque Abs Avg 
 TQAN.f-kp               18.00:  Torque Abs Min 
 TQAX.f-kp               21.00:  Torque Abs Max 
 TRRT.°/30m               0.45:  Turn Rotating 
 MRT .                    HCIM:  Maximum Recorded Temperature 
 TTMX.degC               88.24:  Max Tool Temp 
 VS01.                90649157:  Virtual Str1 SN 
 VS02.                90652483:  Virtual Str2 SN 
 VS03.                11671987:  Virtual Str3 SN 
 VS04.                90643411:  Virtual Str4 SN 
 VS05.                90652478:  Virtual Str5 SN 
 VS06.                    6111:  Virtual Str6 SN 
 WBMN.klb                 9.50:  WOB Min 
 WITN.        Grigoriy Sarayev:  Customer Rep 
 WITN.          Rufat Huseynov:  Customer Rep 2 
 WOBA.klb                11.00:  WOB Avg 
 WOBX.klb                15.00:  WOB Max 
 YP  .lhf2               28.00:  Yield Point 
~Curve Information Block
#MNEM.UNIT                 API CODE     Curve Description
#---------               -----------    ---------------------------
 TIME.HHMMSS            00 000 000 000:  GT Time & Date
 GTDEPTH.m              00 000 000 000:  GT Depth
 GTPQH.psia             00 000 000 000:  GT HR Quartz Pressure
 GTTQ.degC              00 000 000 000:  GT Quartz Temperature
 GTTN.NONE              00 000 000 000:  GT Test Number
 GTET.sec               00 000 000 000:  GT Elapsed Test Time
 GTTVD.m                00 000 000 000:  GT True Vertical Depth
#Other Information
#
#WARRANTY: Halliburton will use its best efforts to furnish customers with 
#accurate information and interpretations that are part of, and incident to, the services 
#provided.  However, Halliburton cannot and does not warrant the accuracy 
#or correctness of such information and interpretations.  Under no circumstances should any 
#such information or interpretation be relied upon as the sole basis for any drilling, 
#completion, production, or financial decision or any procedure involving any risk to the 
#safety of any drilling venture, drilling rig or its crew or any other third party.  The 
#Customer has full responsibility for all drilling, completion and production operation.  
#Halliburton makes no representations or warranties, either expressed or 
#implied, including, but not limited to, the implied warranties of merchantability or fitness 
#for a particular purpose, with respect to the services rendered.  In no event will 
#Halliburton be liable for failure to obtain any particular results or for 
#any damages, including, but not limited to, indirect, special or consequential damages, 
#resulting from the use of any information or interpretation provided by Halliburton.
#
~A           TIME           GTDEPTH  GTPQH  GTTQ  GTTN   GTET   GTTVD  
# ...
   10:46:45.263.19-Jul-2021 4492.50 3544.95 70.56 23.00 339.12 2694.52
   10:46:45.463.19-Jul-2021 4492.50 3544.95 70.56 23.00 339.32 2694.52
   10:46:45.663.19-Jul-2021 4492.50 3544.95 70.56 23.00 339.53 2694.52
   10:46:45.863.19-Jul-2021 4492.50 3545.17 70.56 23.00 339.73 2694.52
   10:46:46.063.19-Jul-2021 4492.50 3544.90 70.56 23.00 339.93 2694.52
   10:46:46.263.19-Jul-2021 4492.50 3544.91 70.56 23.00 340.13 2694.52
   10:46:46.463.19-Jul-2021 4492.50 3544.91 70.56 23.00 340.33 2694.52
   10:46:46.663.19-Jul-2021 4492.50 3544.79 70.56 23.00 340.53 2694.52
   10:46:46.863.19-Jul-2021 4492.50 3545.04 70.56 23.00 340.73 2694.52
   10:46:47.064.19-Jul-2021 4492.50 3545.00 70.56 23.00 340.93 2694.52
   10:46:47.264.19-Jul-2021 4492.50 3544.94 70.56 23.00 341.13 2694.52
   10:46:47.464.19-Jul-2021 4492.50 3544.94 70.56 23.00 341.33 2694.52
   10:46:47.664.19-Jul-2021 4492.50 3544.90 70.56 23.00 341.53 2694.52
   10:46:47.864.19-Jul-2021 4492.50 3545.02 70.56 23.00 341.73 2694.52
   10:46:48.064.19-Jul-2021 4492.50 3544.93 70.56 23.00 341.93 2694.52
   10:46:48.264.19-Jul-2021 4492.50 3544.93 70.56 23.00 342.13 2694.52
   10:46:48.464.19-Jul-2021 4492.50 3544.93 70.56 23.00 342.33 2694.52
   10:46:48.664.19-Jul-2021 4492.50 3545.01 70.56 23.00 342.53 2694.52
   10:46:48.864.19-Jul-2021 4492.50 3545.00 70.56 23.00 342.73 2694.52
   10:46:49.064.19-Jul-2021 4492.50 3544.99 70.56 23.00 342.93 2694.52
   10:46:49.264.19-Jul-2021 4492.50 3544.92 70.56 23.00 343.13 2694.52
   10:46:49.464.19-Jul-2021 4492.50 3544.92 70.56 23.00 343.33 2694.52
   10:46:49.665.19-Jul-2021 4492.50 3545.04 70.56 23.00 343.53 2694.52
   10:46:49.865.19-Jul-2021 4492.50 3544.90 70.56 23.00 343.73 2694.52
   10:46:50.065.19-Jul-2021 4492.50 3544.99 70.56 23.00 343.93 2694.52
   10:46:50.265.19-Jul-2021 4492.50 3545.04 70.56 23.00 344.13 2694.52
   10:46:50.465.19-Jul-2021 4492.50 3545.04 70.56 23.00 344.33 2694.52
   10:46:50.665.19-Jul-2021 4492.50 3545.03 70.56 23.00 344.53 2694.52
   10:46:50.865.19-Jul-2021 4492.50 3544.93 70.56 23.00 344.73 2694.52
   10:46:51.065.19-Jul-2021 4492.50 3545.00 70.56 23.00 344.93 2694.52
   10:46:51.265.19-Jul-2021 4492.50 3544.93 70.56 23.00 345.13 2694.52
   10:46:51.465.19-Jul-2021 4492.50 3544.93 70.56 23.00 345.33 2694.52
   10:46:51.665.19-Jul-2021 4492.50 3544.85 70.56 23.00 345.53 2694.52
   10:46:51.865.19-Jul-2021 4492.50 3544.83 70.56 23.00 345.73 2694.52
   10:46:52.065.19-Jul-2021 4492.50 3545.00 70.56 23.00 345.93 2694.52
   10:46:52.265.19-Jul-2021 4492.50 3544.99 70.56 23.00 346.13 2694.52
   10:46:52.466.19-Jul-2021 4492.50 3544.99 70.56 23.00 346.33 2694.52
   10:46:52.666.19-Jul-2021 4492.50 3544.96 70.56 23.00 346.53 2694.52
   10:46:52.866.19-Jul-2021 4492.50 3545.00 70.56 23.00 346.73 2694.52
   10:46:53.066.19-Jul-2021 4492.50 3545.01 70.56 23.00 346.93 2694.52
   10:46:53.266.19-Jul-2021 4492.50 3544.79 70.56 23.00 347.13 2694.52
   10:46:53.466.19-Jul-2021 4492.50 3544.79 70.56 23.00 347.33 2694.52
   10:46:53.666.19-Jul-2021 4492.50 3544.99 70.56 23.00 347.53 2694.52
   10:46:53.866.19-Jul-2021 4492.50 3544.90 70.56 23.00 347.73 2694.52
   10:46:54.066.19-Jul-2021 4492.50 3545.12 70.56 23.00 347.93 2694.52
   10:46:54.266.19-Jul-2021 4492.50 3544.98 70.56 23.00 348.13 2694.52
   10:46:54.466.19-Jul-2021 4492.50 3544.98 70.56 23.00 348.33 2694.52
   10:46:54.666.19-Jul-2021 4492.50 3544.83 70.56 23.00 348.53 2694.52
   10:46:54.866.19-Jul-2021 4492.50 3544.99 70.56 23.00 348.73 2694.52
   10:46:55.066.19-Jul-2021 4492.50 3544.97 70.56 23.00 348.93 2694.52
   10:46:55.267.19-Jul-2021 4492.50 3544.97 70.56 23.00 349.13 2694.52
   10:46:55.467.19-Jul-2021 4492.50 3544.97 70.56 23.00 349.33 2694.52
   10:46:55.667.19-Jul-2021 4492.50 3545.12 70.56 23.00 349.53 2694.52
   10:46:55.867.19-Jul-2021 4492.50 3544.90 70.56 23.00 349.73 2694.52
   10:46:56.067.19-Jul-2021 4492.50 3544.99 70.56 23.00 349.93 2694.52
   10:46:56.267.19-Jul-2021 4492.50 3544.95 70.56 23.00 350.13 2694.52
   10:46:56.467.19-Jul-2021 4492.50 3544.95 70.56 23.00 350.33 2694.52
   10:46:56.667.19-Jul-2021 4492.50 3544.89 70.56 23.00 350.53 2694.52
   10:46:56.867.19-Jul-2021 4492.50 3544.92 70.56 23.00 350.73 2694.52
   10:46:57.067.19-Jul-2021 4492.50 3545.02 70.56 23.00 350.93 2694.52
   10:46:57.267.19-Jul-2021 4492.50 3544.89 70.56 23.00 351.13 2694.52
   10:46:57.467.19-Jul-2021 4492.50 3544.89 70.56 23.00 351.33 2694.52
   10:46:57.667.19-Jul-2021 4492.50 3544.79 70.56 23.00 351.53 2694.52
   10:46:57.868.19-Jul-2021 4492.50 3545.03 70.56 23.00 351.73 2694.52
   10:46:58.068.19-Jul-2021 4492.50 3545.07 70.56 23.00 351.93 2694.52
   10:46:58.268.19-Jul-2021 4492.50 3544.88 70.56 23.00 352.13 2694.52
   10:46:58.468.19-Jul-2021 4492.50 3544.88 70.56 23.00 352.33 2694.52
   10:46:58.668.19-Jul-2021 4492.50 3544.93 70.56 23.00 352.53 2694.52
   10:46:58.868.19-Jul-2021 4492.50 3544.98 70.56 23.00 352.73 2694.52
   10:46:59.068.19-Jul-2021 4492.50 3544.98 70.56 23.00 352.93 2694.52
   10:46:59.268.19-Jul-2021 4492.50 3544.94 70.56 23.00 353.13 2694.52
   10:46:59.468.19-Jul-2021 4492.50 3544.94 70.56 23.00 353.33 2694.52
   10:46:59.668.19-Jul-2021 4492.50 3544.96 70.56 23.00 353.53 2694.52
   10:46:59.868.19-Jul-2021 4492.50 3544.92 70.56 23.00 353.73 2694.52
   10:47:00.068.19-Jul-2021 4492.50 3545.00 70.56 23.00 353.93 2694.52
   10:47:00.268.19-Jul-2021 4492.50 3544.92 70.56 23.00 354.13 2694.52
   10:47:00.468.19-Jul-2021 4492.50 3544.92 70.56 23.00 354.33 2694.52
   10:47:00.669.19-Jul-2021 4492.50 3545.07 70.56 23.00 354.53 2694.52
   10:47:00.869.19-Jul-2021 4492.50 3545.00 70.56 23.00 354.73 2694.52
   10:47:01.069.19-Jul-2021 4492.50 3544.90 70.56 23.00 354.93 2694.52
   10:47:01.269.19-Jul-2021 4492.50 3545.03 70.56 23.00 355.13 2694.52
   10:47:01.469.19-Jul-2021 4492.50 3545.03 70.56 23.00 355.33 2694.52
   10:47:01.669.19-Jul-2021 4492.50 3544.94 70.56 23.00 355.53 2694.52
   10:47:01.869.19-Jul-2021 4492.50 3545.04 70.56 23.00 355.73 2694.52
   10:47:02.069.19-Jul-2021 4492.50 3544.92 70.56 23.00 355.93 2694.52
   10:47:02.269.19-Jul-2021 4492.50 3544.99 70.56 23.00 356.13 2694.52
   10:47:02.469.19-Jul-2021 4492.50 3544.99 70.56 23.00 356.33 2694.52
   10:47:02.669.19-Jul-2021 4492.50 3544.91 70.56 23.00 356.53 2694.52
   10:47:02.869.19-Jul-2021 4492.50 3545.16 70.56 23.00 356.73 2694.52
   10:47:03.069.19-Jul-2021 4492.50 3544.82 70.56 23.00 356.93 2694.52
   10:47:03.270.19-Jul-2021 4492.50 3544.98 70.56 23.00 357.13 2694.52
   10:47:03.470.19-Jul-2021 4492.50 3544.98 70.56 23.00 357.33 2694.52
   10:47:03.670.19-Jul-2021 4492.50 3545.07 70.56 23.00 357.53 2694.52
   10:47:03.870.19-Jul-2021 4492.50 3550.81 70.56 23.00 357.73 2694.52
   10:47:04.070.19-Jul-2021 4492.50 3563.97 70.56 23.00 357.93 2694.52
   10:47:04.270.19-Jul-2021 4492.50 3839.53 70.56 23.00 358.13 2694.52
   10:47:04.470.19-Jul-2021 4492.50 3839.53 70.56 23.00 358.33 2694.52
   10:47:04.670.19-Jul-2021 4492.50 6547.60 70.56 23.00 358.53 2694.52
   10:47:04.870.19-Jul-2021 4492.50 6539.21 70.56 23.00 358.73 2694.52
   10:47:05.070.19-Jul-2021 4492.50 6538.21 70.56 23.00 358.93 2694.52
   10:47:05.270.19-Jul-2021 4492.50 6537.00 70.56 23.00 359.13 2694.52
   10:47:05.470.19-Jul-2021 4492.50 6537.00 70.56 23.00 359.33 2694.52
   10:47:05.670.19-Jul-2021 4492.50 6548.61 70.57 23.00 359.53 2694.52
   10:47:05.870.19-Jul-2021 4492.50 6543.27 70.57 23.00 359.73 2694.52
   10:47:06.071.19-Jul-2021 4492.50 6542.00 70.57 23.00 359.93 2694.52
   10:47:06.271.19-Jul-2021 4492.50 6540.39 70.57 23.00 360.13 2694.52
   10:47:06.471.19-Jul-2021 4492.50 6540.39 70.57 23.00 360.33 2694.52
   10:47:06.671.19-Jul-2021 4492.50 6536.37 70.57 23.00 360.53 2694.52
   10:47:06.871.19-Jul-2021 4492.50 6554.40 70.57 23.00 360.73 2694.52
   10:47:07.071.19-Jul-2021 4492.50 6544.83 70.58 23.00 360.93 2694.52
   10:47:07.271.19-Jul-2021 4492.50 6543.45 70.58 23.00 361.13 2694.52
   10:47:07.471.19-Jul-2021 4492.50 6543.45 70.58 23.00 361.33 2694.52
   10:47:07.671.19-Jul-2021 4492.50 6542.27 70.58 23.00 361.53 2694.52
