~Version Information
 VERS.                  2.0:   CWLS log ASCII Standard -VERSION 2.0
 WRAP.                   NO:   One line per depth step
~Well Information Block
#MNEM.UNIT     VALUE/NAME     DESCRIPTION
#---------     -----------    ---------------------------
 STRT.S             04:43:18 19-Jul-21: START TIME 04:43:18 19-Jul-21
 STOP.S             04:49:54 19-Jul-21: STOP TIME  04:49:54 19-Jul-21
 STEP.S                   0.00: STEP TIME
 NULL.                 -999.25: NULL VALUE
 MDS .        Operator Entered:  MAG DATA SOURCE
 PDAT.          Mean Sea Level:  PERMANENT DATUM
 UNIT.                     N/A:  LOGGING EQUIPMENT ID
 DCON.         Sperry Drilling:  DIRECTNL CONTR
 DOE .                     N/A:  DOE NUMBER
 RIG .              West Azeri:  RIG NAME
 JOBN.        AZ-XX-0906997913:  JOB TICKET NUMB
 WELL.                     C41:  WELL NAME
 MWDS.                    Baku:  MWD SHOP
 SRVC.          Turan Drilling:  CONTRACTOR
 FLD .                     ACG:  FIELD NAME
 CTRY.              Azerbaijan:  COUNTRY NAME
 PROV.                    Baku:  PROVINCE
 STAT.                    Baku:  STATE NAME
 REGN.                   EESSA:  REGION
 BASE.              Azerbaijan:  LOGGING EQUIPMENT BASE LOCATION
 UWI .                     N/A:  UNIQUE WELL IDENTIFIER
 API .                     N/A:  API NUMBER
 COMP.     BP Exploration (Caspian Sea) Ltd.:  COMPANY
 WTYP.                Deviated:  WELL TYPE
 SON .        AZ-XX-0906997913:  JOB NUMBER
 FTOP.          Formation Tops:  FORM TOPS DESC
 ILTD.               Lithology:  INTERP LTH DESC
 SVYD.                  Survey:  SURVEY DESC
 DMOD.             Drill Model:  DRILL MOD DESC
 HPTY.       Minimum Curvature:  HOLE POS TYPE
 NREF.                    Grid:  NORTH REFERENCE
 SPUD.               16-May-21:  SPUD DATE
 DATE.      21.11.28 17-May-21:  END TIME
 STIM.      21.11.28 17-May-21:  START TIME
 DMF .             Drill Floor:  DRILL MEAS FROM
 DFST.                        :  DIST FSL TEXT
 DFWT.                        :  DIST FWL TEXT
 CNTY.                        :  COUNTY
 LOC .                        :  LOCATION
 LMF .             Drill Floor:  LOG MEASURED FROM
 AGAP.m                  43.42:  AIR GAP
 VSNS.m                  -2.16:  VERT SEC N/S
 VSEW.m                  -6.24:  VERT SEC E/W
 APD .m                  43.42:  DEPTH ABOVE PD
 WDMS.m                 118.27:  WD ELEV
 EGL .m                   0.00:  GROUND ELEVATION
 EPD .m                   0.00:  ELEVATION
 AZTC.deg                 6.29:  AZM TOTAL CORR
 GRDC.deg                 0.18:  GRID CORRECTION
 MDEC.deg                 6.47:  MAGNETIC DECL
 MDIP.deg                59.54:  MAGNETIC DIP
 MFLD.nT              50337.00:  MAGNETIC FIELD
 GVFD.g                   1.00:  GRAVITY FIELD
 VSDR.deg               226.99:  VERT SEC DIRECT
 TDD .m                   0.00:  TOTAL DEPTH (DRILLER)
 SDEP.m                 448.00:  START DEPTH
 DFSL.m                   0.00:  DISTANCE FSL
 DFWL.m                   0.00:  DISTANCE FWL
 UTMY.m             4435799.96:  UTM Y
 UTMX.m              526265.35:  UTM X
 WHEW.m                  -6.24:  WELL HEAD E/W
 WHNS.m                  -2.16:  WELL HEAD N/S
 LONG.deg                51.31:  LONGITUDE
 LATI.deg                40.06:  LATITUDE
 TVDS.m                  43.42:  TVDSS CORRECTN
 EKB .m                  43.42:  KB ELEVATION
 EDF .m                  43.42:  DF ELEVATION
 TDL .m                 288.00:  TOTAL DEPTH (LOGGER)
 MAGU.                 1851863:  MAGUTM CHECKSUM
 VSC .                       0:  VS TO CLOSURE
~Parameter Information Block
#MNEM.UNIT       Value        Description
#---------     -----------    ---------------------------
 AV  .mps                 0.40:  Ann Velocity 
 AVMX.mps                 0.63:  Max Ann Veloc 
 AZIF.deg               158.76:  Azm, Final 
 BHAT.        Rotary Steerable:  BHA Type 
 BROT.°/30m               0.68:  Build Rotating 
 BS  .in                  8.50:  Bit Size 
 BSZ .in                  8.50:  Bit Size 
 BTPL.psig              712.00:  Bit Press Loss 
 CABU.                      No:  Customer Abuse 
 COMM.                     ”™f:  Run Comments 1 
 TCS .hr                 90.66:  Time Ciculation Ended 
 CV  .mps                 2.02:  Crit Velocity 
 CVMX.mps                 2.14:  Max Crit Veloc 
 DD1 .            Aziz Aliyevu:  Direct Drillr 1 
 DD2 .             Samir Abbas:  Direct Drillr 2 
 DD3 .           Teymur Aliyev:  Direct Drillr 3 
 DDSV.                 iCruise:  DD Service 
 DEFF.%                  85.10:  % Det Eff 
 DLRX.°/30m               1.05:  Dogleg Rot Max 
 DLSO.°/30m               1.01:  Dogleg Oriented 
 DLSX.°/30m               1.05:  Dogleg Str Max 
 DRET.      07.45.00 18-Jul-21:  Drill End Time 
 DRST.      15.00.00 16-Jul-21:  Drill Start Tim 
 DTIM.hr                 23.46:  Time Drilling 
 EDEP.m                4603.00:  End Depth 
 ENG1.       Seymur Iskandarov:  Engineer 1 
 ENG2.         Yevgeniy Ulikov:  Engineer 2 
 ENG3.         Bahruz Mehdiyev:  Engineer 3 
 ENG4.         Elchin Mammadov:  Engineer 4 
 ETIM.      14.00.00 23-Jul-21:  End Time 
 FLOI.gpm               500.00:  Flow In 
 FLON.gpm               450.00:  Flow In Min 
 FLOS.cptm                0.00:  Fluid Loss 
 FLOX.gpm               560.00:  Flow In Max 
 DFT .        Mineral Oil Base:  Mud Type 
 FTRO.       Formation Presure:  FTWD Run Obj 
 HFLO.                      No:  High Flow 
 HPRE.                      No:  High Pressure 
 HTEM.                      No:  High Temp 
 HYDO.m                   1.80:  Hydro Offset 
 IFIN.deg                40.22:  Inc, Final 
 IMAX.deg                40.54:  Inc Max 
 IMIN.deg                39.44:  Inc Min 
 IMND.m                4361.17:  Inc Min Depth 
 IMXD.m                4417.92:  Inc Max Depth 
 JARR.                      No:  Jarring 
 LETM.      07.45.00 18-Jul-21:  Log End Time 
 LOST.hr                    16:  Lost Rig Time 
 LSTM.      15.00.00 16-Jul-21:  Log Start Time 
 MDCL.ppm             36500.00:  Mud Chlorides 
 MDES.     Inversion Oil/Synthetic:  Mud Desc 
 DFD .sg                  1.42:  Mud Density 
 MDMN.sg                  1.42:  Dens Mud Min 
 MDMX.sg                  1.43:  Dens Mud Max 
 MOIL.                      56:  Run Mud Oil % 
 MOWR.                   71:29:  Run Mud OWR 
 MSND.                     0.5:  Run Mud Sand % 
 MSOL.                      21:  Run Mud Solids% 
 DFV .spqt               78.00:  Mud Viscosity 
 MWOD.in                  6.75:  MWD Tool OD 
 MWSI.                     Yes:  Serv Intrp, MWD 
 OTIM.hr                200.73:  Time Operating 
 PCON.           Look Like New:  Pad Condition 
 PMAX.psia            11069.93:  Press Op, Max 
 PV  .cP                 32.00:  Mud PV 
 RUN .                     700:  Run Number 
 ROPA.m/hr               10.00:  ROP Avg 
 ROPN.m/hr                9.00:  ROP Min 
 ROPX.m/hr               16.00:  ROP Max 
 RPMA.rpm               116.00:  RPM Surface Avg 
 RPMN.rpm                80.00:  RPM Surface Min 
 RPMX.rpm               120.00:  RPM Surface Max 
 RRUN.                    L605:  Rig Run Number 
 RTIM.hr                 45.00:  Time Reaming 
 SAZI.deg               159.86:  Azm, Start 
 SDEP.m                4315.00:  Start Depth 
 SIDD.                      No:  Serv Intrp, DD 
 SINC.deg                39.86:  Inc, Start 
 SPPA.psig             3300.00:  SPP Avg 
 SPPN.psig             3040.00:  SPP Min 
 SPPX.psig             3645.00:  SPP Max 
 STIM.      01.00.00 15-Jul-21:  Start Time 
 SVCS.                 DD, MWD:  Services 
 SVER.                    9.20:  Sperry Version 
 TDAT.m                 288.00:  Tot Depth Attmp 
 TDDF.                      No:  Trip for DD 
 TDLG.m                 288.00:  Tot Depth Loggd 
 TFF .                      No:  Trip for Fail 
 TQAA.f-kp               19.00:  Torque Abs Avg 
 TQAN.f-kp               18.00:  Torque Abs Min 
 TQAX.f-kp               21.00:  Torque Abs Max 
 TRRT.°/30m               0.45:  Turn Rotating 
 MRT .                    HCIM:  Maximum Recorded Temperature 
 TTMX.degC               88.24:  Max Tool Temp 
 VS01.                90649157:  Virtual Str1 SN 
 VS02.                90652483:  Virtual Str2 SN 
 VS03.                11671987:  Virtual Str3 SN 
 VS04.                90643411:  Virtual Str4 SN 
 VS05.                90652478:  Virtual Str5 SN 
 VS06.                    6111:  Virtual Str6 SN 
 WBMN.klb                 9.50:  WOB Min 
 WITN.        Grigoriy Sarayev:  Customer Rep 
 WITN.          Rufat Huseynov:  Customer Rep 2 
 WOBA.klb                11.00:  WOB Avg 
 WOBX.klb                15.00:  WOB Max 
 YP  .lhf2               28.00:  Yield Point 
~Curve Information Block
#MNEM.UNIT                 API CODE     Curve Description
#---------               -----------    ---------------------------
 TIME.HHMMSS            00 000 000 000:  GT Time & Date
 GTDEPTH.m              00 000 000 000:  GT Depth
 GTPQH.psia             00 000 000 000:  GT HR Quartz Pressure
 GTTQ.degC              00 000 000 000:  GT Quartz Temperature
 GTTN.NONE              00 000 000 000:  GT Test Number
 GTET.sec               00 000 000 000:  GT Elapsed Test Time
 GTTVD.m                00 000 000 000:  GT True Vertical Depth
#Other Information
#
#WARRANTY: Halliburton will use its best efforts to furnish customers with 
#accurate information and interpretations that are part of, and incident to, the services 
#provided.  However, Halliburton cannot and does not warrant the accuracy 
#or correctness of such information and interpretations.  Under no circumstances should any 
#such information or interpretation be relied upon as the sole basis for any drilling, 
#completion, production, or financial decision or any procedure involving any risk to the 
#safety of any drilling venture, drilling rig or its crew or any other third party.  The 
#Customer has full responsibility for all drilling, completion and production operation.  
#Halliburton makes no representations or warranties, either expressed or 
#implied, including, but not limited to, the implied warranties of merchantability or fitness 
#for a particular purpose, with respect to the services rendered.  In no event will 
#Halliburton be liable for failure to obtain any particular results or for 
#any damages, including, but not limited to, indirect, special or consequential damages, 
#resulting from the use of any information or interpretation provided by Halliburton.
#
~A           TIME           GTDEPTH  GTPQH  GTTQ  GTTN   GTET   GTTVD  
# ...
   04:47:26.925.19-Jul-2021 4355.50 1107.34 68.70 11.00 248.69 2589.71
   04:47:27.125.19-Jul-2021 4355.50 1108.05 68.70 11.00 248.89 2589.71
   04:47:27.325.19-Jul-2021 4355.50 1109.16 68.70 11.00 249.09 2589.71
   04:47:27.525.19-Jul-2021 4355.50 1109.16 68.70 11.00 249.29 2589.71
   04:47:27.725.19-Jul-2021 4355.50 1111.41 68.70 11.00 249.49 2589.71
   04:47:27.925.19-Jul-2021 4355.50 1112.17 68.70 11.00 249.69 2589.71
   04:47:28.125.19-Jul-2021 4355.50 1113.23 68.70 11.00 249.89 2589.71
   04:47:28.325.19-Jul-2021 4355.50 1114.21 68.70 11.00 250.09 2589.71
   04:47:28.525.19-Jul-2021 4355.50 1114.21 68.70 11.00 250.29 2589.71
   04:47:28.726.19-Jul-2021 4355.50 1116.21 68.70 11.00 250.49 2589.71
   04:47:28.926.19-Jul-2021 4355.50 1116.98 68.70 11.00 250.69 2589.71
   04:47:29.126.19-Jul-2021 4355.50 1118.76 68.70 11.00 250.89 2589.71
   04:47:29.326.19-Jul-2021 4355.50 1119.62 68.70 11.00 251.09 2589.71
   04:47:29.526.19-Jul-2021 4355.50 1119.62 68.70 11.00 251.29 2589.71
   04:47:29.726.19-Jul-2021 4355.50 1120.24 68.71 11.00 251.49 2589.71
   04:47:29.926.19-Jul-2021 4355.50 1100.87 68.71 11.00 251.69 2589.71
   04:47:30.126.19-Jul-2021 4355.50 1066.15 68.71 11.00 251.89 2589.71
   04:47:30.326.19-Jul-2021 4355.50  907.24 68.71 11.00 252.09 2589.71
   04:47:30.526.19-Jul-2021 4355.50  907.24 68.71 11.00 252.29 2589.71
   04:47:30.726.19-Jul-2021 4355.50  708.33 68.71 11.00 252.49 2589.71
   04:47:30.926.19-Jul-2021 4355.50  677.68 68.71 11.00 252.69 2589.71
   04:47:31.126.19-Jul-2021 4355.50  657.32 68.71 11.00 252.89 2589.71
   04:47:31.327.19-Jul-2021 4355.50  642.04 68.71 11.00 253.09 2589.71
   04:47:31.527.19-Jul-2021 4355.50  642.04 68.71 11.00 253.29 2589.71
   04:47:31.727.19-Jul-2021 4355.50  622.23 68.71 11.00 253.49 2589.71
   04:47:31.927.19-Jul-2021 4355.50  616.00 68.71 11.00 253.69 2589.71
   04:47:32.127.19-Jul-2021 4355.50  611.08 68.71 11.00 253.89 2589.71
   04:47:32.327.19-Jul-2021 4355.50  607.99 68.70 11.00 254.09 2589.71
   04:47:32.527.19-Jul-2021 4355.50  607.99 68.70 11.00 254.29 2589.71
   04:47:32.727.19-Jul-2021 4355.50  604.40 68.70 11.00 254.49 2589.71
   04:47:32.927.19-Jul-2021 4355.50  605.17 68.70 11.00 254.69 2589.71
   04:47:33.127.19-Jul-2021 4355.50  604.85 68.70 11.00 254.89 2589.71
   04:47:33.327.19-Jul-2021 4355.50  605.11 68.70 11.00 255.09 2589.71
   04:47:33.527.19-Jul-2021 4355.50  605.11 68.70 11.00 255.29 2589.71
   04:47:33.727.19-Jul-2021 4355.50  605.11 68.70 11.00 255.49 2589.71
   04:47:33.927.19-Jul-2021 4355.50  604.07 68.70 11.00 255.69 2589.71
   04:47:34.128.19-Jul-2021 4355.50  603.59 68.70 11.00 255.89 2589.71
   04:47:34.328.19-Jul-2021 4355.50  603.43 68.70 11.00 256.09 2589.71
   04:47:34.528.19-Jul-2021 4355.50  603.43 68.70 11.00 256.29 2589.71
   04:47:34.728.19-Jul-2021 4355.50  602.23 68.70 11.00 256.49 2589.71
   04:47:34.928.19-Jul-2021 4355.50  599.71 68.70 11.00 256.69 2589.71
   04:47:35.128.19-Jul-2021 4355.50  598.33 68.70 11.00 256.89 2589.71
   04:47:35.328.19-Jul-2021 4355.50  599.00 68.70 11.00 257.09 2589.71
   04:47:35.528.19-Jul-2021 4355.50  599.00 68.70 11.00 257.29 2589.71
   04:47:35.728.19-Jul-2021 4355.50  595.79 68.70 11.00 257.49 2589.71
   04:47:35.928.19-Jul-2021 4355.50  597.76 68.70 11.00 257.69 2589.71
   04:47:36.128.19-Jul-2021 4355.50  594.32 68.70 11.00 257.89 2589.71
   04:47:36.328.19-Jul-2021 4355.50  594.01 68.70 11.00 258.10 2589.71
   04:47:36.528.19-Jul-2021 4355.50  594.01 68.70 11.00 258.30 2589.71
   04:47:36.728.19-Jul-2021 4355.50  595.18 68.70 11.00 258.50 2589.71
   04:47:36.929.19-Jul-2021 4355.50  596.55 68.70 11.00 258.70 2589.71
   04:47:37.129.19-Jul-2021 4355.50  595.40 68.70 11.00 258.90 2589.71
   04:47:37.329.19-Jul-2021 4355.50  596.76 68.70 11.00 259.10 2589.71
   04:47:37.529.19-Jul-2021 4355.50  596.76 68.70 11.00 259.30 2589.71
   04:47:37.729.19-Jul-2021 4355.50  594.53 68.70 11.00 259.50 2589.71
   04:47:37.929.19-Jul-2021 4355.50  595.68 68.70 11.00 259.70 2589.71
   04:47:38.129.19-Jul-2021 4355.50  597.20 68.70 11.00 259.90 2589.71
   04:47:38.329.19-Jul-2021 4355.50  597.57 68.70 11.00 260.10 2589.71
   04:47:38.529.19-Jul-2021 4355.50  597.57 68.70 11.00 260.30 2589.71
   04:47:38.729.19-Jul-2021 4355.50  599.66 68.70 11.00 260.50 2589.71
   04:47:38.929.19-Jul-2021 4355.50  600.65 68.70 11.00 260.70 2589.71
   04:47:39.129.19-Jul-2021 4355.50  601.54 68.70 11.00 260.90 2589.71
   04:47:39.329.19-Jul-2021 4355.50  602.37 68.70 11.00 261.10 2589.71
   04:47:39.530.19-Jul-2021 4355.50  602.37 68.70 11.00 261.30 2589.71
   04:47:39.730.19-Jul-2021 4355.50  603.66 68.70 11.00 261.50 2589.71
   04:47:39.930.19-Jul-2021 4355.50  604.09 68.70 11.00 261.70 2589.71
   04:47:40.130.19-Jul-2021 4355.50  604.84 68.70 11.00 261.90 2589.71
   04:47:40.330.19-Jul-2021 4355.50  605.56 68.70 11.00 262.10 2589.71
   04:47:40.530.19-Jul-2021 4355.50  605.56 68.70 11.00 262.30 2589.71
   04:47:40.730.19-Jul-2021 4355.50  607.78 68.70 11.00 262.50 2589.71
   04:47:40.930.19-Jul-2021 4355.50  610.01 68.70 11.00 262.70 2589.71
   04:47:41.130.19-Jul-2021 4355.50  610.68 68.70 11.00 262.90 2589.71
   04:47:41.330.19-Jul-2021 4355.50  611.72 68.70 11.00 263.10 2589.71
   04:47:41.530.19-Jul-2021 4355.50  611.72 68.70 11.00 263.30 2589.71
   04:47:41.730.19-Jul-2021 4355.50  613.49 68.70 11.00 263.50 2589.71
   04:47:41.930.19-Jul-2021 4355.50  614.37 68.70 11.00 263.70 2589.71
   04:47:42.130.19-Jul-2021 4355.50  615.27 68.70 11.00 263.90 2589.71
   04:47:42.331.19-Jul-2021 4355.50  616.17 68.70 11.00 264.10 2589.71
   04:47:42.531.19-Jul-2021 4355.50  616.17 68.70 11.00 264.30 2589.71
   04:47:42.731.19-Jul-2021 4355.50  618.49 68.70 11.00 264.50 2589.71
   04:47:42.931.19-Jul-2021 4355.50  619.61 68.70 11.00 264.70 2589.71
   04:47:43.131.19-Jul-2021 4355.50  620.63 68.70 11.00 264.90 2589.71
   04:47:43.331.19-Jul-2021 4355.50  621.67 68.70 11.00 265.10 2589.71
   04:47:43.531.19-Jul-2021 4355.50  621.67 68.70 11.00 265.30 2589.71
   04:47:43.731.19-Jul-2021 4355.50  623.07 68.70 11.00 265.50 2589.71
   04:47:43.931.19-Jul-2021 4355.50  622.62 68.70 11.00 265.70 2589.71
   04:47:44.131.19-Jul-2021 4355.50  622.76 68.70 11.00 265.90 2589.71
   04:47:44.331.19-Jul-2021 4355.50  623.87 68.70 11.00 266.10 2589.71
   04:47:44.531.19-Jul-2021 4355.50  623.87 68.70 11.00 266.30 2589.71
   04:47:44.731.19-Jul-2021 4355.50  625.90 68.70 11.00 266.50 2589.71
   04:47:44.932.19-Jul-2021 4355.50  625.69 68.70 11.00 266.70 2589.71
   04:47:45.132.19-Jul-2021 4355.50  626.65 68.70 11.00 266.90 2589.71
   04:47:45.332.19-Jul-2021 4355.50  627.58 68.70 11.00 267.10 2589.71
   04:47:45.532.19-Jul-2021 4355.50  627.58 68.70 11.00 267.30 2589.71
   04:47:45.732.19-Jul-2021 4355.50  629.18 68.70 11.00 267.50 2589.71
   04:47:45.932.19-Jul-2021 4355.50  630.25 68.70 11.00 267.70 2589.71
   04:47:46.132.19-Jul-2021 4355.50  630.43 68.70 11.00 267.90 2589.71
   04:47:46.332.19-Jul-2021 4355.50  631.13 68.70 11.00 268.10 2589.71
   04:47:46.532.19-Jul-2021 4355.50  631.13 68.70 11.00 268.30 2589.71
   04:47:46.732.19-Jul-2021 4355.50  634.00 68.70 11.00 268.50 2589.71
   04:47:46.932.19-Jul-2021 4355.50  634.44 68.70 11.00 268.70 2589.71
   04:47:47.132.19-Jul-2021 4355.50  635.40 68.70 11.00 268.90 2589.71
   04:47:47.332.19-Jul-2021 4355.50  636.23 68.70 11.00 269.10 2589.71
   04:47:47.532.19-Jul-2021 4355.50  636.23 68.70 11.00 269.30 2589.71
   04:47:47.733.19-Jul-2021 4355.50  638.05 68.70 11.00 269.50 2589.71
   04:47:47.933.19-Jul-2021 4355.50  639.03 68.70 11.00 269.70 2589.71
   04:47:48.133.19-Jul-2021 4355.50  639.96 68.70 11.00 269.90 2589.71
   04:47:48.333.19-Jul-2021 4355.50  640.63 68.70 11.00 270.10 2589.71
   04:47:48.533.19-Jul-2021 4355.50  640.63 68.70 11.00 270.30 2589.71
   04:47:48.733.19-Jul-2021 4355.50  642.27 68.70 11.00 270.50 2589.71
   04:47:48.933.19-Jul-2021 4355.50  642.39 68.70 11.00 270.70 2589.71
   04:47:49.133.19-Jul-2021 4355.50  642.92 68.70 11.00 270.90 2589.71
   04:47:49.333.19-Jul-2021 4355.50  643.93 68.70 11.00 271.10 2589.71
