~Version Information
 VERS.                  2.0:   CWLS log ASCII Standard -VERSION 2.0
 WRAP.                   NO:   One line per depth step
~Well Information Block
#MNEM.UNIT     VALUE/NAME     DESCRIPTION
#---------     -----------    ---------------------------
 STRT.S             14:22:27 18-Jul-21: START TIME 14:22:27 18-Jul-21
 STOP.S             14:29:00 18-Jul-21: STOP TIME  14:29:00 18-Jul-21
 STEP.S                   0.00: STEP TIME
 NULL.                 -999.25: NULL VALUE
 MDS .        Operator Entered:  MAG DATA SOURCE
 PDAT.          Mean Sea Level:  PERMANENT DATUM
 UNIT.                     N/A:  LOGGING EQUIPMENT ID
 DCON.         Sperry Drilling:  DIRECTNL CONTR
 DOE .                     N/A:  DOE NUMBER
 RIG .              West Azeri:  RIG NAME
 JOBN.        AZ-XX-0906997913:  JOB TICKET NUMB
 WELL.                     C41:  WELL NAME
 MWDS.                    Baku:  MWD SHOP
 SRVC.          Turan Drilling:  CONTRACTOR
 FLD .                     ACG:  FIELD NAME
 CTRY.              Azerbaijan:  COUNTRY NAME
 PROV.                    Baku:  PROVINCE
 STAT.                    Baku:  STATE NAME
 REGN.                   EESSA:  REGION
 BASE.              Azerbaijan:  LOGGING EQUIPMENT BASE LOCATION
 UWI .                     N/A:  UNIQUE WELL IDENTIFIER
 API .                     N/A:  API NUMBER
 COMP.     BP Exploration (Caspian Sea) Ltd.:  COMPANY
 WTYP.                Deviated:  WELL TYPE
 SON .        AZ-XX-0906997913:  JOB NUMBER
 FTOP.          Formation Tops:  FORM TOPS DESC
 ILTD.               Lithology:  INTERP LTH DESC
 SVYD.                  Survey:  SURVEY DESC
 DMOD.             Drill Model:  DRILL MOD DESC
 HPTY.       Minimum Curvature:  HOLE POS TYPE
 NREF.                    Grid:  NORTH REFERENCE
 SPUD.               16-May-21:  SPUD DATE
 DATE.      21.11.28 17-May-21:  END TIME
 STIM.      21.11.28 17-May-21:  START TIME
 DMF .             Drill Floor:  DRILL MEAS FROM
 DFST.                        :  DIST FSL TEXT
 DFWT.                        :  DIST FWL TEXT
 CNTY.                        :  COUNTY
 LOC .                        :  LOCATION
 LMF .             Drill Floor:  LOG MEASURED FROM
 AGAP.m                  43.42:  AIR GAP
 VSNS.m                  -2.16:  VERT SEC N/S
 VSEW.m                  -6.24:  VERT SEC E/W
 APD .m                  43.42:  DEPTH ABOVE PD
 WDMS.m                 118.27:  WD ELEV
 EGL .m                   0.00:  GROUND ELEVATION
 EPD .m                   0.00:  ELEVATION
 AZTC.deg                 6.29:  AZM TOTAL CORR
 GRDC.deg                 0.18:  GRID CORRECTION
 MDEC.deg                 6.47:  MAGNETIC DECL
 MDIP.deg                59.54:  MAGNETIC DIP
 MFLD.nT              50337.00:  MAGNETIC FIELD
 GVFD.g                   1.00:  GRAVITY FIELD
 VSDR.deg               226.99:  VERT SEC DIRECT
 TDD .m                   0.00:  TOTAL DEPTH (DRILLER)
 SDEP.m                 448.00:  START DEPTH
 DFSL.m                   0.00:  DISTANCE FSL
 DFWL.m                   0.00:  DISTANCE FWL
 UTMY.m             4435799.96:  UTM Y
 UTMX.m              526265.35:  UTM X
 WHEW.m                  -6.24:  WELL HEAD E/W
 WHNS.m                  -2.16:  WELL HEAD N/S
 LONG.deg                51.31:  LONGITUDE
 LATI.deg                40.06:  LATITUDE
 TVDS.m                  43.42:  TVDSS CORRECTN
 EKB .m                  43.42:  KB ELEVATION
 EDF .m                  43.42:  DF ELEVATION
 TDL .m                 288.00:  TOTAL DEPTH (LOGGER)
 MAGU.                 1851863:  MAGUTM CHECKSUM
 VSC .                       0:  VS TO CLOSURE
~Parameter Information Block
#MNEM.UNIT       Value        Description
#---------     -----------    ---------------------------
 AV  .mps                 0.40:  Ann Velocity 
 AVMX.mps                 0.63:  Max Ann Veloc 
 AZIF.deg               158.76:  Azm, Final 
 BHAT.        Rotary Steerable:  BHA Type 
 BROT.°/30m               0.68:  Build Rotating 
 BS  .in                  8.50:  Bit Size 
 BSZ .in                  8.50:  Bit Size 
 BTPL.psig              712.00:  Bit Press Loss 
 CABU.                      No:  Customer Abuse 
 COMM.                     |«g:  Run Comments 1 
 TCS .hr                 90.66:  Time Ciculation Ended 
 CV  .mps                 2.02:  Crit Velocity 
 CVMX.mps                 2.14:  Max Crit Veloc 
 DD1 .            Aziz Aliyevu:  Direct Drillr 1 
 DD2 .             Samir Abbas:  Direct Drillr 2 
 DD3 .           Teymur Aliyev:  Direct Drillr 3 
 DDSV.                 iCruise:  DD Service 
 DEFF.%                  85.10:  % Det Eff 
 DLRX.°/30m               1.05:  Dogleg Rot Max 
 DLSO.°/30m               1.01:  Dogleg Oriented 
 DLSX.°/30m               1.05:  Dogleg Str Max 
 DRET.      07.45.00 18-Jul-21:  Drill End Time 
 DRST.      15.00.00 16-Jul-21:  Drill Start Tim 
 DTIM.hr                 23.46:  Time Drilling 
 EDEP.m                4603.00:  End Depth 
 ENG1.       Seymur Iskandarov:  Engineer 1 
 ENG2.         Yevgeniy Ulikov:  Engineer 2 
 ENG3.         Bahruz Mehdiyev:  Engineer 3 
 ENG4.         Elchin Mammadov:  Engineer 4 
 ETIM.      14.00.00 23-Jul-21:  End Time 
 FLOI.gpm               500.00:  Flow In 
 FLON.gpm               450.00:  Flow In Min 
 FLOS.cptm                0.00:  Fluid Loss 
 FLOX.gpm               560.00:  Flow In Max 
 DFT .        Mineral Oil Base:  Mud Type 
 FTRO.       Formation Presure:  FTWD Run Obj 
 HFLO.                      No:  High Flow 
 HPRE.                      No:  High Pressure 
 HTEM.                      No:  High Temp 
 HYDO.m                   1.80:  Hydro Offset 
 IFIN.deg                40.22:  Inc, Final 
 IMAX.deg                40.54:  Inc Max 
 IMIN.deg                39.44:  Inc Min 
 IMND.m                4361.17:  Inc Min Depth 
 IMXD.m                4417.92:  Inc Max Depth 
 JARR.                      No:  Jarring 
 LETM.      07.45.00 18-Jul-21:  Log End Time 
 LOST.hr                    16:  Lost Rig Time 
 LSTM.      15.00.00 16-Jul-21:  Log Start Time 
 MDCL.ppm             36500.00:  Mud Chlorides 
 MDES.     Inversion Oil/Synthetic:  Mud Desc 
 DFD .sg                  1.42:  Mud Density 
 MDMN.sg                  1.42:  Dens Mud Min 
 MDMX.sg                  1.43:  Dens Mud Max 
 MOIL.                      56:  Run Mud Oil % 
 MOWR.                   71:29:  Run Mud OWR 
 MSND.                     0.5:  Run Mud Sand % 
 MSOL.                      21:  Run Mud Solids% 
 DFV .spqt               78.00:  Mud Viscosity 
 MWOD.in                  6.75:  MWD Tool OD 
 MWSI.                     Yes:  Serv Intrp, MWD 
 OTIM.hr                200.73:  Time Operating 
 PCON.           Look Like New:  Pad Condition 
 PMAX.psia            11069.93:  Press Op, Max 
 PV  .cP                 32.00:  Mud PV 
 RUN .                     700:  Run Number 
 ROPA.m/hr               10.00:  ROP Avg 
 ROPN.m/hr                9.00:  ROP Min 
 ROPX.m/hr               16.00:  ROP Max 
 RPMA.rpm               116.00:  RPM Surface Avg 
 RPMN.rpm                80.00:  RPM Surface Min 
 RPMX.rpm               120.00:  RPM Surface Max 
 RRUN.                    L605:  Rig Run Number 
 RTIM.hr                 45.00:  Time Reaming 
 SAZI.deg               159.86:  Azm, Start 
 SDEP.m                4315.00:  Start Depth 
 SIDD.                      No:  Serv Intrp, DD 
 SINC.deg                39.86:  Inc, Start 
 SPPA.psig             3300.00:  SPP Avg 
 SPPN.psig             3040.00:  SPP Min 
 SPPX.psig             3645.00:  SPP Max 
 STIM.      01.00.00 15-Jul-21:  Start Time 
 SVCS.                 DD, MWD:  Services 
 SVER.                    9.20:  Sperry Version 
 TDAT.m                 288.00:  Tot Depth Attmp 
 TDDF.                      No:  Trip for DD 
 TDLG.m                 288.00:  Tot Depth Loggd 
 TFF .                      No:  Trip for Fail 
 TQAA.f-kp               19.00:  Torque Abs Avg 
 TQAN.f-kp               18.00:  Torque Abs Min 
 TQAX.f-kp               21.00:  Torque Abs Max 
 TRRT.°/30m               0.45:  Turn Rotating 
 MRT .                    HCIM:  Maximum Recorded Temperature 
 TTMX.degC               88.24:  Max Tool Temp 
 VS01.                90649157:  Virtual Str1 SN 
 VS02.                90652483:  Virtual Str2 SN 
 VS03.                11671987:  Virtual Str3 SN 
 VS04.                90643411:  Virtual Str4 SN 
 VS05.                90652478:  Virtual Str5 SN 
 VS06.                    6111:  Virtual Str6 SN 
 WBMN.klb                 9.50:  WOB Min 
 WITN.        Grigoriy Sarayev:  Customer Rep 
 WITN.          Rufat Huseynov:  Customer Rep 2 
 WOBA.klb                11.00:  WOB Avg 
 WOBX.klb                15.00:  WOB Max 
 YP  .lhf2               28.00:  Yield Point 
~Curve Information Block
#MNEM.UNIT                 API CODE     Curve Description
#---------               -----------    ---------------------------
 TIME.HHMMSS            00 000 000 000:  GT Time & Date
 GTDEPTH.m              00 000 000 000:  GT Depth
 GTPQH.psia             00 000 000 000:  GT HR Quartz Pressure
 GTTQ.degC              00 000 000 000:  GT Quartz Temperature
 GTTN.NONE              00 000 000 000:  GT Test Number
 GTET.sec               00 000 000 000:  GT Elapsed Test Time
 GTTVD.m                00 000 000 000:  GT True Vertical Depth
#Other Information
#
#WARRANTY: Halliburton will use its best efforts to furnish customers with 
#accurate information and interpretations that are part of, and incident to, the services 
#provided.  However, Halliburton cannot and does not warrant the accuracy 
#or correctness of such information and interpretations.  Under no circumstances should any 
#such information or interpretation be relied upon as the sole basis for any drilling, 
#completion, production, or financial decision or any procedure involving any risk to the 
#safety of any drilling venture, drilling rig or its crew or any other third party.  The 
#Customer has full responsibility for all drilling, completion and production operation.  
#Halliburton makes no representations or warranties, either expressed or 
#implied, including, but not limited to, the implied warranties of merchantability or fitness 
#for a particular purpose, with respect to the services rendered.  In no event will 
#Halliburton be liable for failure to obtain any particular results or for 
#any damages, including, but not limited to, indirect, special or consequential damages, 
#resulting from the use of any information or interpretation provided by Halliburton.
#
~A           TIME           GTDEPTH  GTPQH  GTTQ  GTTN  GTET   GTTVD  
# ...
   14:23:59.249.18-Jul-2021 4558.50 6655.85 75.34 4.00  92.03 2745.02
   14:23:59.449.18-Jul-2021 4558.50 6655.85 75.34 4.00  92.23 2745.02
   14:23:59.649.18-Jul-2021 4558.50 6660.14 75.34 4.00  92.43 2745.02
   14:23:59.849.18-Jul-2021 4558.50 6658.49 75.34 4.00  92.63 2745.02
   14:24:00.049.18-Jul-2021 4558.50 6661.64 75.34 4.00  92.83 2745.02
   14:24:00.249.18-Jul-2021 4558.50 6658.60 75.34 4.00  93.03 2745.02
   14:24:00.449.18-Jul-2021 4558.50 6658.60 75.34 4.00  93.23 2745.02
   14:24:00.649.18-Jul-2021 4558.50 6661.66 75.34 4.00  93.43 2745.02
   14:24:00.849.18-Jul-2021 4558.50 6658.27 75.34 4.00  93.63 2745.02
   14:24:01.049.18-Jul-2021 4558.50 6658.09 75.34 4.00  93.83 2745.02
   14:24:01.250.18-Jul-2021 4558.50 6660.37 75.34 4.00  94.03 2745.02
   14:24:01.450.18-Jul-2021 4558.50 6660.37 75.34 4.00  94.23 2745.02
   14:24:01.650.18-Jul-2021 4558.50 6658.32 75.34 4.00  94.43 2745.02
   14:24:01.850.18-Jul-2021 4558.50 6659.13 75.34 4.00  94.63 2745.02
   14:24:02.050.18-Jul-2021 4558.50 6658.06 75.34 4.00  94.83 2745.02
   14:24:02.250.18-Jul-2021 4558.50 6656.93 75.34 4.00  95.03 2745.02
   14:24:02.450.18-Jul-2021 4558.50 6656.93 75.34 4.00  95.24 2745.02
   14:24:02.650.18-Jul-2021 4558.50 6657.79 75.34 4.00  95.44 2745.02
   14:24:02.850.18-Jul-2021 4558.50 6657.42 75.34 4.00  95.64 2745.02
   14:24:03.050.18-Jul-2021 4558.50 6657.40 75.34 4.00  95.84 2745.02
   14:24:03.250.18-Jul-2021 4558.50 6656.70 75.34 4.00  96.04 2745.02
   14:24:03.450.18-Jul-2021 4558.50 6656.70 75.34 4.00  96.24 2745.02
   14:24:03.650.18-Jul-2021 4558.50 6656.89 75.34 4.00  96.44 2745.02
   14:24:03.850.18-Jul-2021 4558.50 6657.38 75.34 4.00  96.64 2745.02
   14:24:04.051.18-Jul-2021 4558.50 6657.27 75.34 4.00  96.84 2745.02
   14:24:04.251.18-Jul-2021 4558.50 6662.30 75.34 4.00  97.04 2745.02
   14:24:04.451.18-Jul-2021 4558.50 6662.30 75.34 4.00  97.24 2745.02
   14:24:04.651.18-Jul-2021 4558.50 6658.76 75.34 4.00  97.44 2745.02
   14:24:04.851.18-Jul-2021 4558.50 6658.94 75.34 4.00  97.64 2745.02
   14:24:05.051.18-Jul-2021 4558.50 6656.91 75.34 4.00  97.84 2745.02
   14:24:05.251.18-Jul-2021 4558.50 6657.35 75.34 4.00  98.04 2745.02
   14:24:05.451.18-Jul-2021 4558.50 6657.35 75.34 4.00  98.24 2745.02
   14:24:05.651.18-Jul-2021 4558.50 6656.78 75.34 4.00  98.44 2745.02
   14:24:05.851.18-Jul-2021 4558.50 6656.74 75.34 4.00  98.64 2745.02
   14:24:06.051.18-Jul-2021 4558.50 6656.35 75.34 4.00  98.84 2745.02
   14:24:06.251.18-Jul-2021 4558.50 6656.70 75.34 4.00  99.04 2745.02
   14:24:06.451.18-Jul-2021 4558.50 6656.70 75.34 4.00  99.24 2745.02
   14:24:06.652.18-Jul-2021 4558.50 6656.91 75.34 4.00  99.44 2745.02
   14:24:06.852.18-Jul-2021 4558.50 6661.40 75.34 4.00  99.64 2745.02
   14:24:07.052.18-Jul-2021 4558.50 6658.48 75.34 4.00  99.84 2745.02
   14:24:07.252.18-Jul-2021 4558.50 6660.03 75.34 4.00 100.04 2745.02
   14:24:07.452.18-Jul-2021 4558.50 6660.03 75.34 4.00 100.24 2745.02
   14:24:07.652.18-Jul-2021 4558.50 6658.53 75.34 4.00 100.44 2745.02
   14:24:07.852.18-Jul-2021 4558.50 6661.08 75.34 4.00 100.64 2745.02
   14:24:08.052.18-Jul-2021 4558.50 6662.14 75.34 4.00 100.84 2745.02
   14:24:08.252.18-Jul-2021 4558.50 6657.58 75.34 4.00 101.04 2745.02
   14:24:08.452.18-Jul-2021 4558.50 6657.58 75.34 4.00 101.24 2745.02
   14:24:08.652.18-Jul-2021 4558.50 6660.37 75.34 4.00 101.44 2745.02
   14:24:08.852.18-Jul-2021 4558.50 6657.85 75.34 4.00 101.64 2745.02
   14:24:09.052.18-Jul-2021 4558.50 6658.18 75.34 4.00 101.84 2745.02
   14:24:09.252.18-Jul-2021 4558.50 6657.91 75.34 4.00 102.04 2745.02
   14:24:09.453.18-Jul-2021 4558.50 6657.91 75.34 4.00 102.24 2745.02
   14:24:09.653.18-Jul-2021 4558.50 6661.86 75.34 4.00 102.44 2745.02
   14:24:09.853.18-Jul-2021 4558.50 6658.70 75.34 4.00 102.64 2745.02
   14:24:10.053.18-Jul-2021 4558.50 6657.22 75.34 4.00 102.84 2745.02
   14:24:10.253.18-Jul-2021 4558.50 6658.11 75.34 4.00 103.04 2745.02
   14:24:10.453.18-Jul-2021 4558.50 6658.11 75.34 4.00 103.24 2745.02
   14:24:10.653.18-Jul-2021 4558.50 6657.11 75.34 4.00 103.44 2745.02
   14:24:10.853.18-Jul-2021 4558.50 6657.53 75.34 4.00 103.64 2745.02
   14:24:11.053.18-Jul-2021 4558.50 6657.71 75.34 4.00 103.84 2745.02
   14:24:11.253.18-Jul-2021 4558.50 6656.96 75.34 4.00 104.04 2745.02
   14:24:11.453.18-Jul-2021 4558.50 6656.96 75.34 4.00 104.24 2745.02
   14:24:11.653.18-Jul-2021 4558.50 6657.51 75.34 4.00 104.44 2745.02
   14:24:11.853.18-Jul-2021 4558.50 6657.45 75.34 4.00 104.64 2745.02
   14:24:12.054.18-Jul-2021 4558.50 6657.95 75.34 4.00 104.84 2745.02
   14:24:12.254.18-Jul-2021 4558.50 6656.73 75.34 4.00 105.04 2745.02
   14:24:12.454.18-Jul-2021 4558.50 6656.73 75.34 4.00 105.24 2745.02
   14:24:12.654.18-Jul-2021 4558.50 6659.98 75.34 4.00 105.44 2745.02
   14:24:12.854.18-Jul-2021 4558.50 6656.22 75.34 4.00 105.64 2745.02
   14:24:13.054.18-Jul-2021 4558.50 6658.26 75.34 4.00 105.84 2745.02
   14:24:13.254.18-Jul-2021 4558.50 6657.40 75.34 4.00 106.04 2745.02
   14:24:13.454.18-Jul-2021 4558.50 6657.40 75.34 4.00 106.24 2745.02
   14:24:13.654.18-Jul-2021 4558.50 6656.52 75.34 4.00 106.44 2745.02
   14:24:13.854.18-Jul-2021 4558.50 6656.64 75.34 4.00 106.64 2745.02
   14:24:14.054.18-Jul-2021 4558.50 6655.72 75.34 4.00 106.84 2745.02
   14:24:14.254.18-Jul-2021 4558.50 6656.56 75.34 4.00 107.04 2745.02
   14:24:14.454.18-Jul-2021 4558.50 6656.56 75.34 4.00 107.24 2745.02
   14:24:14.654.18-Jul-2021 4558.50 6655.57 75.34 4.00 107.44 2745.02
   14:24:14.855.18-Jul-2021 4558.50 6656.76 75.34 4.00 107.64 2745.02
   14:24:15.055.18-Jul-2021 4558.50 6660.25 75.34 4.00 107.84 2745.02
   14:24:15.255.18-Jul-2021 4558.50 6658.38 75.34 4.00 108.04 2745.02
   14:24:15.455.18-Jul-2021 4558.50 6658.38 75.34 4.00 108.24 2745.02
   14:24:15.655.18-Jul-2021 4558.50 6663.17 75.34 4.00 108.44 2745.02
   14:24:15.855.18-Jul-2021 4558.50 6658.31 75.34 4.00 108.64 2745.02
   14:24:16.055.18-Jul-2021 4558.50 6659.05 75.34 4.00 108.84 2745.02
   14:24:16.255.18-Jul-2021 4558.50 6662.43 75.34 4.00 109.04 2745.02
   14:24:16.455.18-Jul-2021 4558.50 6662.43 75.34 4.00 109.24 2745.02
   14:24:16.655.18-Jul-2021 4558.50 6661.01 75.34 4.00 109.44 2745.02
   14:24:16.855.18-Jul-2021 4558.50 6661.13 75.34 4.00 109.64 2745.02
   14:24:17.055.18-Jul-2021 4558.50 6657.94 75.34 4.00 109.84 2745.02
   14:24:17.255.18-Jul-2021 4558.50 6657.49 75.34 4.00 110.04 2745.02
   14:24:17.455.18-Jul-2021 4558.50 6657.49 75.34 4.00 110.24 2745.02
   14:24:17.656.18-Jul-2021 4558.50 6661.41 75.34 4.00 110.44 2745.02
   14:24:17.856.18-Jul-2021 4558.50 6659.52 75.34 4.00 110.64 2745.02
   14:24:18.056.18-Jul-2021 4558.50 6658.29 75.34 4.00 110.84 2745.02
   14:24:18.256.18-Jul-2021 4558.50 6658.12 75.34 4.00 111.04 2745.02
   14:24:18.456.18-Jul-2021 4558.50 6658.12 75.34 4.00 111.24 2745.02
   14:24:18.656.18-Jul-2021 4558.50 6657.85 75.34 4.00 111.44 2745.02
   14:24:18.856.18-Jul-2021 4558.50 6657.95 75.34 4.00 111.64 2745.02
   14:24:19.056.18-Jul-2021 4558.50 6657.61 75.34 4.00 111.84 2745.02
   14:24:19.256.18-Jul-2021 4558.50 6657.81 75.34 4.00 112.04 2745.02
   14:24:19.456.18-Jul-2021 4558.50 6657.81 75.34 4.00 112.24 2745.02
   14:24:19.656.18-Jul-2021 4558.50 6656.90 75.34 4.00 112.44 2745.02
   14:24:19.856.18-Jul-2021 4558.50 6657.27 75.34 4.00 112.64 2745.02
   14:24:20.056.18-Jul-2021 4558.50 6657.22 75.34 4.00 112.84 2745.02
   14:24:20.257.18-Jul-2021 4558.50 6657.59 75.34 4.00 113.04 2745.02
   14:24:20.457.18-Jul-2021 4558.50 6657.59 75.34 4.00 113.24 2745.02
   14:24:20.657.18-Jul-2021 4558.50 6661.78 75.34 4.00 113.44 2745.02
   14:24:20.857.18-Jul-2021 4558.50 6658.90 75.34 4.00 113.64 2745.02
   14:24:21.057.18-Jul-2021 4558.50 6656.91 75.34 4.00 113.84 2745.02
   14:24:21.257.18-Jul-2021 4558.50 6657.77 75.34 4.00 114.04 2745.02
   14:24:21.457.18-Jul-2021 4558.50 6657.77 75.34 4.00 114.24 2745.02
   14:24:21.657.18-Jul-2021 4558.50 6656.40 75.34 4.00 114.44 2745.02
   14:24:21.857.18-Jul-2021 4558.50 6657.04 75.34 4.00 114.64 2745.02
   14:24:22.057.18-Jul-2021 4558.50 6656.36 75.34 4.00 114.84 2745.02
