~Version Information
 VERS.                  2.0:   CWLS log ASCII Standard -VERSION 2.0
 WRAP.                   NO:   One line per depth step
~Well Information Block
#MNEM.UNIT     VALUE/NAME     DESCRIPTION
#---------     -----------    ---------------------------
 STRT.S             06:08:07 19-Jul-21: START TIME 06:08:07 19-Jul-21
 STOP.S             06:15:04 19-Jul-21: STOP TIME  06:15:04 19-Jul-21
 STEP.S                   0.00: STEP TIME
 NULL.                 -999.25: NULL VALUE
 MDS .        Operator Entered:  MAG DATA SOURCE
 PDAT.          Mean Sea Level:  PERMANENT DATUM
 UNIT.                     N/A:  LOGGING EQUIPMENT ID
 DCON.         Sperry Drilling:  DIRECTNL CONTR
 DOE .                     N/A:  DOE NUMBER
 RIG .              West Azeri:  RIG NAME
 JOBN.        AZ-XX-0906997913:  JOB TICKET NUMB
 WELL.                     C41:  WELL NAME
 MWDS.                    Baku:  MWD SHOP
 SRVC.          Turan Drilling:  CONTRACTOR
 FLD .                     ACG:  FIELD NAME
 CTRY.              Azerbaijan:  COUNTRY NAME
 PROV.                    Baku:  PROVINCE
 STAT.                    Baku:  STATE NAME
 REGN.                   EESSA:  REGION
 BASE.              Azerbaijan:  LOGGING EQUIPMENT BASE LOCATION
 UWI .                     N/A:  UNIQUE WELL IDENTIFIER
 API .                     N/A:  API NUMBER
 COMP.     BP Exploration (Caspian Sea) Ltd.:  COMPANY
 WTYP.                Deviated:  WELL TYPE
 SON .        AZ-XX-0906997913:  JOB NUMBER
 FTOP.          Formation Tops:  FORM TOPS DESC
 ILTD.               Lithology:  INTERP LTH DESC
 SVYD.                  Survey:  SURVEY DESC
 DMOD.             Drill Model:  DRILL MOD DESC
 HPTY.       Minimum Curvature:  HOLE POS TYPE
 NREF.                    Grid:  NORTH REFERENCE
 SPUD.               16-May-21:  SPUD DATE
 DATE.      21.11.28 17-May-21:  END TIME
 STIM.      21.11.28 17-May-21:  START TIME
 DMF .             Drill Floor:  DRILL MEAS FROM
 DFST.                        :  DIST FSL TEXT
 DFWT.                        :  DIST FWL TEXT
 CNTY.                        :  COUNTY
 LOC .                        :  LOCATION
 LMF .             Drill Floor:  LOG MEASURED FROM
 AGAP.m                  43.42:  AIR GAP
 VSNS.m                  -2.16:  VERT SEC N/S
 VSEW.m                  -6.24:  VERT SEC E/W
 APD .m                  43.42:  DEPTH ABOVE PD
 WDMS.m                 118.27:  WD ELEV
 EGL .m                   0.00:  GROUND ELEVATION
 EPD .m                   0.00:  ELEVATION
 AZTC.deg                 6.29:  AZM TOTAL CORR
 GRDC.deg                 0.18:  GRID CORRECTION
 MDEC.deg                 6.47:  MAGNETIC DECL
 MDIP.deg                59.54:  MAGNETIC DIP
 MFLD.nT              50337.00:  MAGNETIC FIELD
 GVFD.g                   1.00:  GRAVITY FIELD
 VSDR.deg               226.99:  VERT SEC DIRECT
 TDD .m                   0.00:  TOTAL DEPTH (DRILLER)
 SDEP.m                 448.00:  START DEPTH
 DFSL.m                   0.00:  DISTANCE FSL
 DFWL.m                   0.00:  DISTANCE FWL
 UTMY.m             4435799.96:  UTM Y
 UTMX.m              526265.35:  UTM X
 WHEW.m                  -6.24:  WELL HEAD E/W
 WHNS.m                  -2.16:  WELL HEAD N/S
 LONG.deg                51.31:  LONGITUDE
 LATI.deg                40.06:  LATITUDE
 TVDS.m                  43.42:  TVDSS CORRECTN
 EKB .m                  43.42:  KB ELEVATION
 EDF .m                  43.42:  DF ELEVATION
 TDL .m                 288.00:  TOTAL DEPTH (LOGGER)
 MAGU.                 1851863:  MAGUTM CHECKSUM
 VSC .                       0:  VS TO CLOSURE
~Parameter Information Block
#MNEM.UNIT       Value        Description
#---------     -----------    ---------------------------
 AV  .mps                 0.40:  Ann Velocity 
 AVMX.mps                 0.63:  Max Ann Veloc 
 AZIF.deg               158.76:  Azm, Final 
 BHAT.        Rotary Steerable:  BHA Type 
 BROT.°/30m               0.68:  Build Rotating 
 BS  .in                  8.50:  Bit Size 
 BSZ .in                  8.50:  Bit Size 
 BTPL.psig              712.00:  Bit Press Loss 
 CABU.                      No:  Customer Abuse 
 TCS .hr                 90.66:  Time Ciculation Ended 
 CV  .mps                 2.02:  Crit Velocity 
 CVMX.mps                 2.14:  Max Crit Veloc 
 DD1 .            Aziz Aliyevu:  Direct Drillr 1 
 DD2 .             Samir Abbas:  Direct Drillr 2 
 DD3 .           Teymur Aliyev:  Direct Drillr 3 
 DDSV.                 iCruise:  DD Service 
 DEFF.%                  85.10:  % Det Eff 
 DLRX.°/30m               1.05:  Dogleg Rot Max 
 DLSO.°/30m               1.01:  Dogleg Oriented 
 DLSX.°/30m               1.05:  Dogleg Str Max 
 DRET.      07.45.00 18-Jul-21:  Drill End Time 
 DRST.      15.00.00 16-Jul-21:  Drill Start Tim 
 DTIM.hr                 23.46:  Time Drilling 
 EDEP.m                4603.00:  End Depth 
 ENG1.       Seymur Iskandarov:  Engineer 1 
 ENG2.         Yevgeniy Ulikov:  Engineer 2 
 ENG3.         Bahruz Mehdiyev:  Engineer 3 
 ENG4.         Elchin Mammadov:  Engineer 4 
 ETIM.      14.00.00 23-Jul-21:  End Time 
 FLOI.gpm               500.00:  Flow In 
 FLON.gpm               450.00:  Flow In Min 
 FLOS.cptm                0.00:  Fluid Loss 
 FLOX.gpm               560.00:  Flow In Max 
 DFT .        Mineral Oil Base:  Mud Type 
 FTRO.       Formation Presure:  FTWD Run Obj 
 HFLO.                      No:  High Flow 
 HPRE.                      No:  High Pressure 
 HTEM.                      No:  High Temp 
 HYDO.m                   1.80:  Hydro Offset 
 IFIN.deg                40.22:  Inc, Final 
 IMAX.deg                40.54:  Inc Max 
 IMIN.deg                39.44:  Inc Min 
 IMND.m                4361.17:  Inc Min Depth 
 IMXD.m                4417.92:  Inc Max Depth 
 JARR.                      No:  Jarring 
 LETM.      07.45.00 18-Jul-21:  Log End Time 
 LOST.hr                    16:  Lost Rig Time 
 LSTM.      15.00.00 16-Jul-21:  Log Start Time 
 MDCL.ppm             36500.00:  Mud Chlorides 
 MDES.     Inversion Oil/Synthetic:  Mud Desc 
 DFD .sg                  1.42:  Mud Density 
 MDMN.sg                  1.42:  Dens Mud Min 
 MDMX.sg                  1.43:  Dens Mud Max 
 MOIL.                      56:  Run Mud Oil % 
 MOWR.                   71:29:  Run Mud OWR 
 MSND.                     0.5:  Run Mud Sand % 
 MSOL.                      21:  Run Mud Solids% 
 DFV .spqt               78.00:  Mud Viscosity 
 MWOD.in                  6.75:  MWD Tool OD 
 MWSI.                     Yes:  Serv Intrp, MWD 
 OTIM.hr                200.73:  Time Operating 
 PCON.           Look Like New:  Pad Condition 
 PMAX.psia            11069.93:  Press Op, Max 
 PV  .cP                 32.00:  Mud PV 
 RUN .                     700:  Run Number 
 ROPA.m/hr               10.00:  ROP Avg 
 ROPN.m/hr                9.00:  ROP Min 
 ROPX.m/hr               16.00:  ROP Max 
 RPMA.rpm               116.00:  RPM Surface Avg 
 RPMN.rpm                80.00:  RPM Surface Min 
 RPMX.rpm               120.00:  RPM Surface Max 
 RRUN.                    L605:  Rig Run Number 
 RTIM.hr                 45.00:  Time Reaming 
 SAZI.deg               159.86:  Azm, Start 
 SDEP.m                4315.00:  Start Depth 
 SIDD.                      No:  Serv Intrp, DD 
 SINC.deg                39.86:  Inc, Start 
 SPPA.psig             3300.00:  SPP Avg 
 SPPN.psig             3040.00:  SPP Min 
 SPPX.psig             3645.00:  SPP Max 
 STIM.      01.00.00 15-Jul-21:  Start Time 
 SVCS.                 DD, MWD:  Services 
 SVER.                    9.20:  Sperry Version 
 TDAT.m                 288.00:  Tot Depth Attmp 
 TDDF.                      No:  Trip for DD 
 TDLG.m                 288.00:  Tot Depth Loggd 
 TFF .                      No:  Trip for Fail 
 TQAA.f-kp               19.00:  Torque Abs Avg 
 TQAN.f-kp               18.00:  Torque Abs Min 
 TQAX.f-kp               21.00:  Torque Abs Max 
 TRRT.°/30m               0.45:  Turn Rotating 
 MRT .                    HCIM:  Maximum Recorded Temperature 
 TTMX.degC               88.24:  Max Tool Temp 
 VS01.                90649157:  Virtual Str1 SN 
 VS02.                90652483:  Virtual Str2 SN 
 VS03.                11671987:  Virtual Str3 SN 
 VS04.                90643411:  Virtual Str4 SN 
 VS05.                90652478:  Virtual Str5 SN 
 VS06.                    6111:  Virtual Str6 SN 
 WBMN.klb                 9.50:  WOB Min 
 WITN.        Grigoriy Sarayev:  Customer Rep 
 WITN.          Rufat Huseynov:  Customer Rep 2 
 WOBA.klb                11.00:  WOB Avg 
 WOBX.klb                15.00:  WOB Max 
 YP  .lhf2               28.00:  Yield Point 
~Curve Information Block
#MNEM.UNIT                 API CODE     Curve Description
#---------               -----------    ---------------------------
 TIME.HHMMSS            00 000 000 000:  GT Time & Date
 GTDEPTH.m              00 000 000 000:  GT Depth
 GTPQH.psia             00 000 000 000:  GT HR Quartz Pressure
 GTTQ.degC              00 000 000 000:  GT Quartz Temperature
 GTTN.NONE              00 000 000 000:  GT Test Number
 GTET.sec               00 000 000 000:  GT Elapsed Test Time
 GTTVD.m                00 000 000 000:  GT True Vertical Depth
#Other Information
#
#WARRANTY: Halliburton will use its best efforts to furnish customers with 
#accurate information and interpretations that are part of, and incident to, the services 
#provided.  However, Halliburton cannot and does not warrant the accuracy 
#or correctness of such information and interpretations.  Under no circumstances should any 
#such information or interpretation be relied upon as the sole basis for any drilling, 
#completion, production, or financial decision or any procedure involving any risk to the 
#safety of any drilling venture, drilling rig or its crew or any other third party.  The 
#Customer has full responsibility for all drilling, completion and production operation.  
#Halliburton makes no representations or warranties, either expressed or 
#implied, including, but not limited to, the implied warranties of merchantability or fitness 
#for a particular purpose, with respect to the services rendered.  In no event will 
#Halliburton be liable for failure to obtain any particular results or for 
#any damages, including, but not limited to, indirect, special or consequential damages, 
#resulting from the use of any information or interpretation provided by Halliburton.
#
~A           TIME           GTDEPTH  GTPQH  GTTQ  GTTN   GTET   GTTVD  
# ...
   06:08:52.324.19-Jul-2021 4380.90 3827.70 69.30 14.00  45.22 2609.29
   06:08:52.524.19-Jul-2021 4380.90 3825.93 69.30 14.00  45.42 2609.29
   06:08:52.724.19-Jul-2021 4380.90 3823.62 69.30 14.00  45.62 2609.29
   06:08:52.924.19-Jul-2021 4380.90 3821.79 69.30 14.00  45.82 2609.29
   06:08:53.124.19-Jul-2021 4380.90 3824.15 69.30 14.00  46.02 2609.29
   06:08:53.324.19-Jul-2021 4380.90 3824.15 69.30 14.00  46.22 2609.29
   06:08:53.524.19-Jul-2021 4380.90 3823.32 69.30 14.00  46.42 2609.29
   06:08:53.724.19-Jul-2021 4380.90 3823.01 69.30 14.00  46.62 2609.29
   06:08:53.924.19-Jul-2021 4380.90 3817.20 69.30 14.00  46.82 2609.29
   06:08:54.124.19-Jul-2021 4380.90 3820.33 69.30 14.00  47.02 2609.29
   06:08:54.324.19-Jul-2021 4380.90 3820.33 69.30 14.00  47.22 2609.29
   06:08:54.525.19-Jul-2021 4380.90 3822.57 69.29 14.00  47.42 2609.29
   06:08:54.725.19-Jul-2021 4380.90 3820.59 69.29 14.00  47.62 2609.29
   06:08:54.925.19-Jul-2021 4380.90 3820.45 69.29 14.00  47.82 2609.29
   06:08:55.125.19-Jul-2021 4380.90 3824.52 69.29 14.00  48.02 2609.29
   06:08:55.325.19-Jul-2021 4380.90 3824.52 69.29 14.00  48.22 2609.29
   06:08:55.525.19-Jul-2021 4380.90 3825.12 69.29 14.00  48.42 2609.29
   06:08:55.725.19-Jul-2021 4380.90 3818.99 69.29 14.00  48.62 2609.29
   06:08:55.925.19-Jul-2021 4380.90 3960.65 69.29 14.00  48.82 2609.29
   06:08:56.125.19-Jul-2021 4380.90 4122.84 69.29 14.00  49.02 2609.29
   06:08:56.325.19-Jul-2021 4380.90 4122.84 69.29 14.00  49.22 2609.29
   06:08:56.525.19-Jul-2021 4380.90 4151.14 69.29 14.00  49.42 2609.29
   06:08:56.725.19-Jul-2021 4380.90 4152.26 69.29 14.00  49.62 2609.29
   06:08:56.925.19-Jul-2021 4380.90 4152.57 69.29 14.00  49.82 2609.29
   06:08:57.126.19-Jul-2021 4380.90 4152.90 69.29 14.00  50.02 2609.29
   06:08:57.326.19-Jul-2021 4380.90 4152.90 69.29 14.00  50.22 2609.29
   06:08:57.526.19-Jul-2021 4380.90 4153.40 69.29 14.00  50.42 2609.29
   06:08:57.726.19-Jul-2021 4380.90 4155.58 69.29 14.00  50.62 2609.29
   06:08:57.926.19-Jul-2021 4380.90 4154.62 69.29 14.00  50.82 2609.29
   06:08:58.126.19-Jul-2021 4380.90 4155.02 69.29 14.00  51.02 2609.29
   06:08:58.326.19-Jul-2021 4380.90 4155.02 69.29 14.00  51.22 2609.29
   06:08:58.526.19-Jul-2021 4380.90 4155.10 69.29 14.00  51.42 2609.29
   06:08:58.726.19-Jul-2021 4380.90 4156.25 69.29 14.00  51.62 2609.29
   06:08:58.926.19-Jul-2021 4380.90 4155.33 69.28 14.00  51.82 2609.29
   06:08:59.126.19-Jul-2021 4380.90 4155.28 69.28 14.00  52.02 2609.29
   06:08:59.326.19-Jul-2021 4380.90 4155.28 69.28 14.00  52.22 2609.29
   06:08:59.526.19-Jul-2021 4380.90 4155.42 69.28 14.00  52.42 2609.29
   06:08:59.726.19-Jul-2021 4380.90 4155.45 69.28 14.00  52.62 2609.29
   06:08:59.927.19-Jul-2021 4380.90 4155.60 69.28 14.00  52.82 2609.29
   06:09:00.127.19-Jul-2021 4380.90 4154.82 69.28 14.00  53.02 2609.29
   06:09:00.327.19-Jul-2021 4380.90 4154.82 69.28 14.00  53.22 2609.29
   06:09:00.527.19-Jul-2021 4380.90 4155.62 69.28 14.00  53.42 2609.29
   06:09:00.727.19-Jul-2021 4380.90 4155.81 69.28 14.00  53.62 2609.29
   06:09:00.927.19-Jul-2021 4380.90 4155.50 69.28 14.00  53.82 2609.29
   06:09:01.127.19-Jul-2021 4380.90 4155.50 69.28 14.00  54.02 2609.29
   06:09:01.327.19-Jul-2021 4380.90 4155.50 69.28 14.00  54.22 2609.29
   06:09:01.527.19-Jul-2021 4380.90 4155.66 69.28 14.00  54.42 2609.29
   06:09:01.727.19-Jul-2021 4380.90 4155.64 69.28 14.00  54.62 2609.29
   06:09:01.927.19-Jul-2021 4380.90 4155.71 69.28 14.00  54.82 2609.29
   06:09:02.127.19-Jul-2021 4380.90 4155.77 69.28 14.00  55.02 2609.29
   06:09:02.327.19-Jul-2021 4380.90 4155.77 69.28 14.00  55.22 2609.29
   06:09:02.527.19-Jul-2021 4380.90 4155.78 69.28 14.00  55.42 2609.29
   06:09:02.728.19-Jul-2021 4380.90 4155.87 69.28 14.00  55.62 2609.29
   06:09:02.928.19-Jul-2021 4380.90 4155.91 69.29 14.00  55.82 2609.29
   06:09:03.128.19-Jul-2021 4380.90 4156.59 69.28 14.00  56.02 2609.29
   06:09:03.328.19-Jul-2021 4380.90 4156.59 69.28 14.00  56.22 2609.29
   06:09:03.528.19-Jul-2021 4380.90 4155.93 69.29 14.00  56.42 2609.29
   06:09:03.728.19-Jul-2021 4380.90 4156.16 69.29 14.00  56.62 2609.29
   06:09:03.928.19-Jul-2021 4380.90 4155.81 69.29 14.00  56.82 2609.29
   06:09:04.128.19-Jul-2021 4380.90 4155.89 69.29 14.00  57.02 2609.29
   06:09:04.328.19-Jul-2021 4380.90 4155.89 69.29 14.00  57.22 2609.29
   06:09:04.528.19-Jul-2021 4380.90 4155.95 69.29 14.00  57.42 2609.29
   06:09:04.728.19-Jul-2021 4380.90 4155.90 69.29 14.00  57.62 2609.29
   06:09:04.928.19-Jul-2021 4380.90 4155.98 69.29 14.00  57.82 2609.29
   06:09:05.128.19-Jul-2021 4380.90 4156.00 69.29 14.00  58.02 2609.29
   06:09:05.329.19-Jul-2021 4380.90 4156.00 69.29 14.00  58.22 2609.29
   06:09:05.529.19-Jul-2021 4380.90 4155.54 69.29 14.00  58.42 2609.29
   06:09:05.729.19-Jul-2021 4380.90 4157.34 69.29 14.00  58.62 2609.29
   06:09:05.929.19-Jul-2021 4380.90 4156.17 69.29 14.00  58.82 2609.29
   06:09:06.129.19-Jul-2021 4380.90 4205.20 69.29 14.00  59.02 2609.29
   06:09:06.329.19-Jul-2021 4380.90 4205.20 69.29 14.00  59.22 2609.29
   06:09:06.529.19-Jul-2021 4380.90 4162.05 69.29 14.00  59.42 2609.29
   06:09:06.729.19-Jul-2021 4380.90 4158.33 69.29 14.00  59.62 2609.29
   06:09:06.929.19-Jul-2021 4380.90 4156.92 69.29 14.00  59.82 2609.29
   06:09:07.129.19-Jul-2021 4380.90 4156.10 69.29 14.00  60.02 2609.29
   06:09:07.329.19-Jul-2021 4380.90 4156.10 69.29 14.00  60.22 2609.29
   06:09:07.529.19-Jul-2021 4380.90 4156.44 69.29 14.00  60.42 2609.29
   06:09:07.729.19-Jul-2021 4380.90 4156.52 69.29 14.00  60.62 2609.29
   06:09:07.929.19-Jul-2021 4380.90 4156.18 69.29 14.00  60.82 2609.29
   06:09:08.130.19-Jul-2021 4380.90 4155.74 69.29 14.00  61.02 2609.29
   06:09:08.330.19-Jul-2021 4380.90 4155.74 69.29 14.00  61.22 2609.29
   06:09:08.530.19-Jul-2021 4380.90 4156.09 69.29 14.00  61.42 2609.29
   06:09:08.730.19-Jul-2021 4380.90 4156.48 69.29 14.00  61.62 2609.29
   06:09:08.930.19-Jul-2021 4380.90 4155.52 69.29 14.00  61.82 2609.29
   06:09:09.130.19-Jul-2021 4380.90 4156.68 69.29 14.00  62.02 2609.29
   06:09:09.330.19-Jul-2021 4380.90 4156.68 69.29 14.00  62.22 2609.29
   06:09:09.530.19-Jul-2021 4380.90 4156.44 69.29 14.00  62.42 2609.29
   06:09:09.730.19-Jul-2021 4380.90 4156.09 69.29 14.00  62.62 2609.29
   06:09:09.930.19-Jul-2021 4380.90 4156.28 69.29 14.00  62.82 2609.29
   06:09:10.130.19-Jul-2021 4380.90 4156.28 69.29 14.00  63.02 2609.29
   06:09:10.330.19-Jul-2021 4380.90 4156.28 69.29 14.00  63.22 2609.29
   06:09:10.530.19-Jul-2021 4380.90 4156.34 69.29 14.00  63.42 2609.29
   06:09:10.731.19-Jul-2021 4380.90 4156.33 69.29 14.00  63.62 2609.29
   06:09:10.931.19-Jul-2021 4380.90 4156.36 69.29 14.00  63.82 2609.29
   06:09:11.131.19-Jul-2021 4380.90 4156.31 69.29 14.00  64.02 2609.29
   06:09:11.331.19-Jul-2021 4380.90 4156.31 69.29 14.00  64.22 2609.29
   06:09:11.531.19-Jul-2021 4380.90 4156.31 69.29 14.00  64.42 2609.29
   06:09:11.731.19-Jul-2021 4380.90 4155.42 69.29 14.00  64.62 2609.29
   06:09:11.931.19-Jul-2021 4380.90 4156.56 69.29 14.00  64.82 2609.29
   06:09:12.131.19-Jul-2021 4380.90 4156.17 69.29 14.00  65.02 2609.29
   06:09:12.331.19-Jul-2021 4380.90 4156.17 69.29 14.00  65.22 2609.29
   06:09:12.531.19-Jul-2021 4380.90 4156.23 69.29 14.00  65.42 2609.29
   06:09:12.731.19-Jul-2021 4380.90 4156.29 69.29 14.00  65.62 2609.29
   06:09:12.931.19-Jul-2021 4380.90 4156.33 69.29 14.00  65.82 2609.29
   06:09:13.131.19-Jul-2021 4380.90 4156.36 69.29 14.00  66.02 2609.29
   06:09:13.331.19-Jul-2021 4380.90 4156.36 69.29 14.00  66.22 2609.29
   06:09:13.532.19-Jul-2021 4380.90 4156.43 69.29 14.00  66.42 2609.29
   06:09:13.732.19-Jul-2021 4380.90 4156.39 69.29 14.00  66.62 2609.29
   06:09:13.932.19-Jul-2021 4380.90 4156.38 69.29 14.00  66.82 2609.29
   06:09:14.132.19-Jul-2021 4380.90 4156.47 69.29 14.00  67.02 2609.29
   06:09:14.332.19-Jul-2021 4380.90 4156.47 69.29 14.00  67.22 2609.29
   06:09:14.532.19-Jul-2021 4380.90 4156.69 69.29 14.00  67.42 2609.29
   06:09:14.732.19-Jul-2021 4380.90 4156.25 69.29 14.00  67.62 2609.29
