~Version Information
 VERS.                  2.0:   CWLS log ASCII Standard -VERSION 2.0
 WRAP.                   NO:   One line per depth step
~Well Information Block
#MNEM.UNIT     VALUE/NAME     DESCRIPTION
#---------     -----------    ---------------------------
 STRT.S             13:27:26 19-Jul-21: START TIME 13:27:26 19-Jul-21
 STOP.S             13:34:19 19-Jul-21: STOP TIME  13:34:19 19-Jul-21
 STEP.S                   0.00: STEP TIME
 NULL.                 -999.25: NULL VALUE
 MDS .        Operator Entered:  MAG DATA SOURCE
 PDAT.          Mean Sea Level:  PERMANENT DATUM
 UNIT.                     N/A:  LOGGING EQUIPMENT ID
 DCON.         Sperry Drilling:  DIRECTNL CONTR
 DOE .                     N/A:  DOE NUMBER
 RIG .              West Azeri:  RIG NAME
 JOBN.        AZ-XX-0906997913:  JOB TICKET NUMB
 WELL.                     C41:  WELL NAME
 MWDS.                    Baku:  MWD SHOP
 SRVC.          Turan Drilling:  CONTRACTOR
 FLD .                     ACG:  FIELD NAME
 CTRY.              Azerbaijan:  COUNTRY NAME
 PROV.                    Baku:  PROVINCE
 STAT.                    Baku:  STATE NAME
 REGN.                   EESSA:  REGION
 BASE.              Azerbaijan:  LOGGING EQUIPMENT BASE LOCATION
 UWI .                     N/A:  UNIQUE WELL IDENTIFIER
 API .                     N/A:  API NUMBER
 COMP.     BP Exploration (Caspian Sea) Ltd.:  COMPANY
 WTYP.                Deviated:  WELL TYPE
 SON .        AZ-XX-0906997913:  JOB NUMBER
 FTOP.          Formation Tops:  FORM TOPS DESC
 ILTD.               Lithology:  INTERP LTH DESC
 SVYD.                  Survey:  SURVEY DESC
 DMOD.             Drill Model:  DRILL MOD DESC
 HPTY.       Minimum Curvature:  HOLE POS TYPE
 NREF.                    Grid:  NORTH REFERENCE
 SPUD.               16-May-21:  SPUD DATE
 DATE.      21.11.28 17-May-21:  END TIME
 STIM.      21.11.28 17-May-21:  START TIME
 DMF .             Drill Floor:  DRILL MEAS FROM
 DFST.                        :  DIST FSL TEXT
 DFWT.                        :  DIST FWL TEXT
 CNTY.                        :  COUNTY
 LOC .                        :  LOCATION
 LMF .             Drill Floor:  LOG MEASURED FROM
 AGAP.m                  43.42:  AIR GAP
 VSNS.m                  -2.16:  VERT SEC N/S
 VSEW.m                  -6.24:  VERT SEC E/W
 APD .m                  43.42:  DEPTH ABOVE PD
 WDMS.m                 118.27:  WD ELEV
 EGL .m                   0.00:  GROUND ELEVATION
 EPD .m                   0.00:  ELEVATION
 AZTC.deg                 6.29:  AZM TOTAL CORR
 GRDC.deg                 0.18:  GRID CORRECTION
 MDEC.deg                 6.47:  MAGNETIC DECL
 MDIP.deg                59.54:  MAGNETIC DIP
 MFLD.nT              50337.00:  MAGNETIC FIELD
 GVFD.g                   1.00:  GRAVITY FIELD
 VSDR.deg               226.99:  VERT SEC DIRECT
 TDD .m                   0.00:  TOTAL DEPTH (DRILLER)
 SDEP.m                 448.00:  START DEPTH
 DFSL.m                   0.00:  DISTANCE FSL
 DFWL.m                   0.00:  DISTANCE FWL
 UTMY.m             4435799.96:  UTM Y
 UTMX.m              526265.35:  UTM X
 WHEW.m                  -6.24:  WELL HEAD E/W
 WHNS.m                  -2.16:  WELL HEAD N/S
 LONG.deg                51.31:  LONGITUDE
 LATI.deg                40.06:  LATITUDE
 TVDS.m                  43.42:  TVDSS CORRECTN
 EKB .m                  43.42:  KB ELEVATION
 EDF .m                  43.42:  DF ELEVATION
 TDL .m                 288.00:  TOTAL DEPTH (LOGGER)
 MAGU.                 1851863:  MAGUTM CHECKSUM
 VSC .                       0:  VS TO CLOSURE
~Parameter Information Block
#MNEM.UNIT       Value        Description
#---------     -----------    ---------------------------
 AV  .mps                 0.40:  Ann Velocity 
 AVMX.mps                 0.63:  Max Ann Veloc 
 AZIF.deg               158.76:  Azm, Final 
 BHAT.        Rotary Steerable:  BHA Type 
 BROT.°/30m               0.68:  Build Rotating 
 BS  .in                  8.50:  Bit Size 
 BSZ .in                  8.50:  Bit Size 
 BTPL.psig              712.00:  Bit Press Loss 
 CABU.                      No:  Customer Abuse 
 COMM.                     „;b:  Run Comments 1 
 TCS .hr                 90.66:  Time Ciculation Ended 
 CV  .mps                 2.02:  Crit Velocity 
 CVMX.mps                 2.14:  Max Crit Veloc 
 DD1 .            Aziz Aliyevu:  Direct Drillr 1 
 DD2 .             Samir Abbas:  Direct Drillr 2 
 DD3 .           Teymur Aliyev:  Direct Drillr 3 
 DDSV.                 iCruise:  DD Service 
 DEFF.%                  85.10:  % Det Eff 
 DLRX.°/30m               1.05:  Dogleg Rot Max 
 DLSO.°/30m               1.01:  Dogleg Oriented 
 DLSX.°/30m               1.05:  Dogleg Str Max 
 DRET.      07.45.00 18-Jul-21:  Drill End Time 
 DRST.      15.00.00 16-Jul-21:  Drill Start Tim 
 DTIM.hr                 23.46:  Time Drilling 
 EDEP.m                4603.00:  End Depth 
 ENG1.       Seymur Iskandarov:  Engineer 1 
 ENG2.         Yevgeniy Ulikov:  Engineer 2 
 ENG3.         Bahruz Mehdiyev:  Engineer 3 
 ENG4.         Elchin Mammadov:  Engineer 4 
 ETIM.      14.00.00 23-Jul-21:  End Time 
 FLOI.gpm               500.00:  Flow In 
 FLON.gpm               450.00:  Flow In Min 
 FLOS.cptm                0.00:  Fluid Loss 
 FLOX.gpm               560.00:  Flow In Max 
 DFT .        Mineral Oil Base:  Mud Type 
 FTRO.       Formation Presure:  FTWD Run Obj 
 HFLO.                      No:  High Flow 
 HPRE.                      No:  High Pressure 
 HTEM.                      No:  High Temp 
 HYDO.m                   1.80:  Hydro Offset 
 IFIN.deg                40.22:  Inc, Final 
 IMAX.deg                40.54:  Inc Max 
 IMIN.deg                39.44:  Inc Min 
 IMND.m                4361.17:  Inc Min Depth 
 IMXD.m                4417.92:  Inc Max Depth 
 JARR.                      No:  Jarring 
 LETM.      07.45.00 18-Jul-21:  Log End Time 
 LOST.hr                    16:  Lost Rig Time 
 LSTM.      15.00.00 16-Jul-21:  Log Start Time 
 MDCL.ppm             36500.00:  Mud Chlorides 
 MDES.     Inversion Oil/Synthetic:  Mud Desc 
 DFD .sg                  1.42:  Mud Density 
 MDMN.sg                  1.42:  Dens Mud Min 
 MDMX.sg                  1.43:  Dens Mud Max 
 MOIL.                      56:  Run Mud Oil % 
 MOWR.                   71:29:  Run Mud OWR 
 MSND.                     0.5:  Run Mud Sand % 
 MSOL.                      21:  Run Mud Solids% 
 DFV .spqt               78.00:  Mud Viscosity 
 MWOD.in                  6.75:  MWD Tool OD 
 MWSI.                     Yes:  Serv Intrp, MWD 
 OTIM.hr                200.73:  Time Operating 
 PCON.           Look Like New:  Pad Condition 
 PMAX.psia            11069.93:  Press Op, Max 
 PV  .cP                 32.00:  Mud PV 
 RUN .                     700:  Run Number 
 ROPA.m/hr               10.00:  ROP Avg 
 ROPN.m/hr                9.00:  ROP Min 
 ROPX.m/hr               16.00:  ROP Max 
 RPMA.rpm               116.00:  RPM Surface Avg 
 RPMN.rpm                80.00:  RPM Surface Min 
 RPMX.rpm               120.00:  RPM Surface Max 
 RRUN.                    L605:  Rig Run Number 
 RTIM.hr                 45.00:  Time Reaming 
 SAZI.deg               159.86:  Azm, Start 
 SDEP.m                4315.00:  Start Depth 
 SIDD.                      No:  Serv Intrp, DD 
 SINC.deg                39.86:  Inc, Start 
 SPPA.psig             3300.00:  SPP Avg 
 SPPN.psig             3040.00:  SPP Min 
 SPPX.psig             3645.00:  SPP Max 
 STIM.      01.00.00 15-Jul-21:  Start Time 
 SVCS.                 DD, MWD:  Services 
 SVER.                    9.20:  Sperry Version 
 TDAT.m                 288.00:  Tot Depth Attmp 
 TDDF.                      No:  Trip for DD 
 TDLG.m                 288.00:  Tot Depth Loggd 
 TFF .                      No:  Trip for Fail 
 TQAA.f-kp               19.00:  Torque Abs Avg 
 TQAN.f-kp               18.00:  Torque Abs Min 
 TQAX.f-kp               21.00:  Torque Abs Max 
 TRRT.°/30m               0.45:  Turn Rotating 
 MRT .                    HCIM:  Maximum Recorded Temperature 
 TTMX.degC               88.24:  Max Tool Temp 
 VS01.                90649157:  Virtual Str1 SN 
 VS02.                90652483:  Virtual Str2 SN 
 VS03.                11671987:  Virtual Str3 SN 
 VS04.                90643411:  Virtual Str4 SN 
 VS05.                90652478:  Virtual Str5 SN 
 VS06.                    6111:  Virtual Str6 SN 
 WBMN.klb                 9.50:  WOB Min 
 WITN.        Grigoriy Sarayev:  Customer Rep 
 WITN.          Rufat Huseynov:  Customer Rep 2 
 WOBA.klb                11.00:  WOB Avg 
 WOBX.klb                15.00:  WOB Max 
 YP  .lhf2               28.00:  Yield Point 
~Curve Information Block
#MNEM.UNIT                 API CODE     Curve Description
#---------               -----------    ---------------------------
 TIME.HHMMSS            00 000 000 000:  GT Time & Date
 GTDEPTH.m              00 000 000 000:  GT Depth
 GTPQH.psia             00 000 000 000:  GT HR Quartz Pressure
 GTTQ.degC              00 000 000 000:  GT Quartz Temperature
 GTTN.NONE              00 000 000 000:  GT Test Number
 GTET.sec               00 000 000 000:  GT Elapsed Test Time
 GTTVD.m                00 000 000 000:  GT True Vertical Depth
#Other Information
#
#WARRANTY: Halliburton will use its best efforts to furnish customers with 
#accurate information and interpretations that are part of, and incident to, the services 
#provided.  However, Halliburton cannot and does not warrant the accuracy 
#or correctness of such information and interpretations.  Under no circumstances should any 
#such information or interpretation be relied upon as the sole basis for any drilling, 
#completion, production, or financial decision or any procedure involving any risk to the 
#safety of any drilling venture, drilling rig or its crew or any other third party.  The 
#Customer has full responsibility for all drilling, completion and production operation.  
#Halliburton makes no representations or warranties, either expressed or 
#implied, including, but not limited to, the implied warranties of merchantability or fitness 
#for a particular purpose, with respect to the services rendered.  In no event will 
#Halliburton be liable for failure to obtain any particular results or for 
#any damages, including, but not limited to, indirect, special or consequential damages, 
#resulting from the use of any information or interpretation provided by Halliburton.
#
~A           TIME           GTDEPTH  GTPQH  GTTQ  GTTN   GTET   GTTVD  
# ...
   13:30:27.680.19-Jul-2021 4559.00 3613.24 71.12 29.00 180.87 2745.40
   13:30:27.880.19-Jul-2021 4559.00 3613.41 71.12 29.00 181.07 2745.40
   13:30:28.080.19-Jul-2021 4559.00 3613.41 71.12 29.00 181.27 2745.40
   13:30:28.280.19-Jul-2021 4559.00 3613.90 71.12 29.00 181.47 2745.40
   13:30:28.480.19-Jul-2021 4559.00 3613.20 71.12 29.00 181.67 2745.40
   13:30:28.680.19-Jul-2021 4559.00 3612.97 71.12 29.00 181.87 2745.40
   13:30:28.880.19-Jul-2021 4559.00 3613.56 71.12 29.00 182.07 2745.40
   13:30:29.080.19-Jul-2021 4559.00 3613.56 71.12 29.00 182.27 2745.40
   13:30:29.280.19-Jul-2021 4559.00 3612.73 71.12 29.00 182.47 2745.40
   13:30:29.480.19-Jul-2021 4559.00 3613.71 71.12 29.00 182.67 2745.40
   13:30:29.680.19-Jul-2021 4559.00 3613.46 71.12 29.00 182.87 2745.40
   13:30:29.880.19-Jul-2021 4559.00 3613.03 71.12 29.00 183.07 2745.40
   13:30:30.080.19-Jul-2021 4559.00 3613.03 71.12 29.00 183.27 2745.40
   13:30:30.281.19-Jul-2021 4559.00 3613.55 71.12 29.00 183.47 2745.40
   13:30:30.481.19-Jul-2021 4559.00 3613.07 71.12 29.00 183.67 2745.40
   13:30:30.681.19-Jul-2021 4559.00 3613.38 71.12 29.00 183.87 2745.40
   13:30:30.881.19-Jul-2021 4559.00 3613.23 71.12 29.00 184.07 2745.40
   13:30:31.081.19-Jul-2021 4559.00 3613.23 71.12 29.00 184.27 2745.40
   13:30:31.281.19-Jul-2021 4559.00 3613.23 71.12 29.00 184.47 2745.40
   13:30:31.481.19-Jul-2021 4559.00 3613.33 71.12 29.00 184.67 2745.40
   13:30:31.681.19-Jul-2021 4559.00 3613.23 71.12 29.00 184.87 2745.40
   13:30:31.881.19-Jul-2021 4559.00 3613.40 71.13 29.00 185.07 2745.40
   13:30:32.081.19-Jul-2021 4559.00 3613.40 71.13 29.00 185.27 2745.40
   13:30:32.281.19-Jul-2021 4559.00 3613.30 71.13 29.00 185.47 2745.40
   13:30:32.481.19-Jul-2021 4559.00 3613.40 71.13 29.00 185.67 2745.40
   13:30:32.681.19-Jul-2021 4559.00 3613.16 71.13 29.00 185.87 2745.40
   13:30:32.882.19-Jul-2021 4559.00 3613.41 71.13 29.00 186.07 2745.40
   13:30:33.082.19-Jul-2021 4559.00 3613.41 71.13 29.00 186.27 2745.40
   13:30:33.282.19-Jul-2021 4559.00 3613.28 71.13 29.00 186.47 2745.40
   13:30:33.482.19-Jul-2021 4559.00 3613.31 71.13 29.00 186.67 2745.40
   13:30:33.682.19-Jul-2021 4559.00 3613.33 71.13 29.00 186.87 2745.40
   13:30:33.882.19-Jul-2021 4559.00 3613.03 71.13 29.00 187.07 2745.40
   13:30:34.082.19-Jul-2021 4559.00 3613.03 71.13 29.00 187.27 2745.40
   13:30:34.282.19-Jul-2021 4559.00 3613.22 71.13 29.00 187.47 2745.40
   13:30:34.482.19-Jul-2021 4559.00 3613.38 71.13 29.00 187.67 2745.40
   13:30:34.682.19-Jul-2021 4559.00 3613.26 71.13 29.00 187.87 2745.40
   13:30:34.882.19-Jul-2021 4559.00 3613.36 71.13 29.00 188.07 2745.40
   13:30:35.082.19-Jul-2021 4559.00 3613.36 71.13 29.00 188.27 2745.40
   13:30:35.282.19-Jul-2021 4559.00 3613.29 71.13 29.00 188.47 2745.40
   13:30:35.482.19-Jul-2021 4559.00 3613.33 71.13 29.00 188.67 2745.40
   13:30:35.683.19-Jul-2021 4559.00 3613.24 71.13 29.00 188.87 2745.40
   13:30:35.883.19-Jul-2021 4559.00 3613.24 71.13 29.00 189.07 2745.40
   13:30:36.083.19-Jul-2021 4559.00 3613.24 71.13 29.00 189.27 2745.40
   13:30:36.283.19-Jul-2021 4559.00 3613.27 71.13 29.00 189.47 2745.40
   13:30:36.483.19-Jul-2021 4559.00 3613.32 71.13 29.00 189.67 2745.40
   13:30:36.683.19-Jul-2021 4559.00 3613.25 71.13 29.00 189.87 2745.40
   13:30:36.883.19-Jul-2021 4559.00 3612.66 71.13 29.00 190.07 2745.40
   13:30:37.083.19-Jul-2021 4559.00 3612.66 71.13 29.00 190.27 2745.40
   13:30:37.283.19-Jul-2021 4559.00 3613.25 71.13 29.00 190.47 2745.40
   13:30:37.483.19-Jul-2021 4559.00 3612.75 71.13 29.00 190.67 2745.40
   13:30:37.683.19-Jul-2021 4559.00 3613.91 71.13 29.00 190.87 2745.40
   13:30:37.883.19-Jul-2021 4559.00 3613.24 71.13 29.00 191.07 2745.40
   13:30:38.083.19-Jul-2021 4559.00 3613.24 71.13 29.00 191.27 2745.40
   13:30:38.283.19-Jul-2021 4559.00 3612.76 71.13 29.00 191.47 2745.40
   13:30:38.484.19-Jul-2021 4559.00 3613.77 71.13 29.00 191.67 2745.40
   13:30:38.684.19-Jul-2021 4559.00 3613.11 71.13 29.00 191.87 2745.40
   13:30:38.884.19-Jul-2021 4559.00 3613.38 71.13 29.00 192.07 2745.40
   13:30:39.084.19-Jul-2021 4559.00 3613.38 71.13 29.00 192.27 2745.40
   13:30:39.284.19-Jul-2021 4559.00 3613.41 71.13 29.00 192.47 2745.40
   13:30:39.484.19-Jul-2021 4559.00 3613.12 71.13 29.00 192.67 2745.40
   13:30:39.684.19-Jul-2021 4559.00 3613.12 71.13 29.00 192.87 2745.40
   13:30:39.884.19-Jul-2021 4559.00 3613.36 71.13 29.00 193.07 2745.40
   13:30:40.084.19-Jul-2021 4559.00 3613.36 71.13 29.00 193.27 2745.40
   13:30:40.284.19-Jul-2021 4559.00 3613.15 71.13 29.00 193.47 2745.40
   13:30:40.484.19-Jul-2021 4559.00 3613.37 71.13 29.00 193.67 2745.40
   13:30:40.684.19-Jul-2021 4559.00 3613.23 71.13 29.00 193.87 2745.40
   13:30:40.884.19-Jul-2021 4559.00 3613.32 71.13 29.00 194.07 2745.40
   13:30:41.085.19-Jul-2021 4559.00 3613.32 71.13 29.00 194.27 2745.40
   13:30:41.285.19-Jul-2021 4559.00 3613.20 71.13 29.00 194.47 2745.40
   13:30:41.485.19-Jul-2021 4559.00 3613.37 71.13 29.00 194.67 2745.40
   13:30:41.685.19-Jul-2021 4559.00 3613.24 71.13 29.00 194.87 2745.40
   13:30:41.885.19-Jul-2021 4559.00 3613.35 71.13 29.00 195.07 2745.40
   13:30:42.085.19-Jul-2021 4559.00 3613.35 71.13 29.00 195.27 2745.40
   13:30:42.285.19-Jul-2021 4559.00 3613.50 71.13 29.00 195.47 2745.40
   13:30:42.485.19-Jul-2021 4559.00 3613.19 71.13 29.00 195.67 2745.40
   13:30:42.685.19-Jul-2021 4559.00 3613.42 71.13 29.00 195.87 2745.40
   13:30:42.885.19-Jul-2021 4559.00 3613.23 71.13 29.00 196.07 2745.40
   13:30:43.085.19-Jul-2021 4559.00 3613.23 71.13 29.00 196.27 2745.40
   13:30:43.285.19-Jul-2021 4559.00 3613.33 71.13 29.00 196.47 2745.40
   13:30:43.485.19-Jul-2021 4559.00 3613.22 71.13 29.00 196.67 2745.40
   13:30:43.685.19-Jul-2021 4559.00 3613.32 71.13 29.00 196.87 2745.40
   13:30:43.886.19-Jul-2021 4559.00 3613.20 71.13 29.00 197.07 2745.40
   13:30:44.086.19-Jul-2021 4559.00 3613.20 71.13 29.00 197.27 2745.40
   13:30:44.286.19-Jul-2021 4559.00 3613.22 71.13 29.00 197.47 2745.40
   13:30:44.486.19-Jul-2021 4559.00 3613.37 71.13 29.00 197.67 2745.40
   13:30:44.686.19-Jul-2021 4559.00 3613.27 71.13 29.00 197.87 2745.40
   13:30:44.886.19-Jul-2021 4559.00 3613.28 71.13 29.00 198.07 2745.40
   13:30:45.086.19-Jul-2021 4559.00 3613.28 71.13 29.00 198.27 2745.40
   13:30:45.286.19-Jul-2021 4559.00 3613.94 71.13 29.00 198.47 2745.40
   13:30:45.486.19-Jul-2021 4559.00 3613.24 71.13 29.00 198.67 2745.40
   13:30:45.686.19-Jul-2021 4559.00 3612.81 71.13 29.00 198.87 2745.40
   13:30:45.886.19-Jul-2021 4559.00 3613.86 71.13 29.00 199.07 2745.40
   13:30:46.086.19-Jul-2021 4559.00 3613.86 71.13 29.00 199.27 2745.40
   13:30:46.286.19-Jul-2021 4559.00 3613.30 71.13 29.00 199.47 2745.40
   13:30:46.487.19-Jul-2021 4559.00 3612.58 71.13 29.00 199.67 2745.40
   13:30:46.687.19-Jul-2021 4559.00 3613.95 71.13 29.00 199.87 2745.40
   13:30:46.887.19-Jul-2021 4559.00 3613.10 71.13 29.00 200.07 2745.40
   13:30:47.087.19-Jul-2021 4559.00 3613.10 71.13 29.00 200.27 2745.40
   13:30:47.287.19-Jul-2021 4559.00 3613.15 71.13 29.00 200.47 2745.40
   13:30:47.487.19-Jul-2021 4559.00 3613.42 71.13 29.00 200.67 2745.40
   13:30:47.687.19-Jul-2021 4559.00 3613.17 71.13 29.00 200.87 2745.40
   13:30:47.887.19-Jul-2021 4559.00 3613.17 71.13 29.00 201.07 2745.40
   13:30:48.087.19-Jul-2021 4559.00 3613.17 71.13 29.00 201.27 2745.40
   13:30:48.287.19-Jul-2021 4559.00 3613.38 71.13 29.00 201.47 2745.40
   13:30:48.487.19-Jul-2021 4559.00 3613.19 71.13 29.00 201.67 2745.40
   13:30:48.687.19-Jul-2021 4559.00 3613.21 71.13 29.00 201.87 2745.40
   13:30:48.887.19-Jul-2021 4559.00 3613.43 71.13 29.00 202.07 2745.40
   13:30:49.087.19-Jul-2021 4559.00 3613.43 71.13 29.00 202.27 2745.40
   13:30:49.288.19-Jul-2021 4559.00 3613.28 71.13 29.00 202.47 2745.40
   13:30:49.488.19-Jul-2021 4559.00 3613.36 71.13 29.00 202.67 2745.40
   13:30:49.688.19-Jul-2021 4559.00 3613.20 71.13 29.00 202.87 2745.40
   13:30:49.888.19-Jul-2021 4559.00 3613.36 71.13 29.00 203.07 2745.40
   13:30:50.088.19-Jul-2021 4559.00 3613.36 71.13 29.00 203.27 2745.40
