~Version Information
 VERS.                  2.0:   CWLS log ASCII Standard -VERSION 2.0
 WRAP.                   NO:   One line per depth step
~Well Information Block
#MNEM.UNIT     VALUE/NAME     DESCRIPTION
#---------     -----------    ---------------------------
 STRT.S             13:11:20 18-Jul-21: START TIME 13:11:20 18-Jul-21
 STOP.S             13:17:54 18-Jul-21: STOP TIME  13:17:54 18-Jul-21
 STEP.S                   0.00: STEP TIME
 NULL.                 -999.25: NULL VALUE
 MDS .        Operator Entered:  MAG DATA SOURCE
 PDAT.          Mean Sea Level:  PERMANENT DATUM
 UNIT.                     N/A:  LOGGING EQUIPMENT ID
 DCON.         Sperry Drilling:  DIRECTNL CONTR
 DOE .                     N/A:  DOE NUMBER
 RIG .              West Azeri:  RIG NAME
 JOBN.        AZ-XX-0906997913:  JOB TICKET NUMB
 WELL.                     C41:  WELL NAME
 MWDS.                    Baku:  MWD SHOP
 SRVC.          Turan Drilling:  CONTRACTOR
 FLD .                     ACG:  FIELD NAME
 CTRY.              Azerbaijan:  COUNTRY NAME
 PROV.                    Baku:  PROVINCE
 STAT.                    Baku:  STATE NAME
 REGN.                   EESSA:  REGION
 BASE.              Azerbaijan:  LOGGING EQUIPMENT BASE LOCATION
 UWI .                     N/A:  UNIQUE WELL IDENTIFIER
 API .                     N/A:  API NUMBER
 COMP.     BP Exploration (Caspian Sea) Ltd.:  COMPANY
 WTYP.                Deviated:  WELL TYPE
 SON .        AZ-XX-0906997913:  JOB NUMBER
 FTOP.          Formation Tops:  FORM TOPS DESC
 ILTD.               Lithology:  INTERP LTH DESC
 SVYD.                  Survey:  SURVEY DESC
 DMOD.             Drill Model:  DRILL MOD DESC
 HPTY.       Minimum Curvature:  HOLE POS TYPE
 NREF.                    Grid:  NORTH REFERENCE
 SPUD.               16-May-21:  SPUD DATE
 DATE.      21.11.28 17-May-21:  END TIME
 STIM.      21.11.28 17-May-21:  START TIME
 DMF .             Drill Floor:  DRILL MEAS FROM
 DFST.                        :  DIST FSL TEXT
 DFWT.                        :  DIST FWL TEXT
 CNTY.                        :  COUNTY
 LOC .                        :  LOCATION
 LMF .             Drill Floor:  LOG MEASURED FROM
 AGAP.m                  43.42:  AIR GAP
 VSNS.m                  -2.16:  VERT SEC N/S
 VSEW.m                  -6.24:  VERT SEC E/W
 APD .m                  43.42:  DEPTH ABOVE PD
 WDMS.m                 118.27:  WD ELEV
 EGL .m                   0.00:  GROUND ELEVATION
 EPD .m                   0.00:  ELEVATION
 AZTC.deg                 6.29:  AZM TOTAL CORR
 GRDC.deg                 0.18:  GRID CORRECTION
 MDEC.deg                 6.47:  MAGNETIC DECL
 MDIP.deg                59.54:  MAGNETIC DIP
 MFLD.nT              50337.00:  MAGNETIC FIELD
 GVFD.g                   1.00:  GRAVITY FIELD
 VSDR.deg               226.99:  VERT SEC DIRECT
 TDD .m                   0.00:  TOTAL DEPTH (DRILLER)
 SDEP.m                 448.00:  START DEPTH
 DFSL.m                   0.00:  DISTANCE FSL
 DFWL.m                   0.00:  DISTANCE FWL
 UTMY.m             4435799.96:  UTM Y
 UTMX.m              526265.35:  UTM X
 WHEW.m                  -6.24:  WELL HEAD E/W
 WHNS.m                  -2.16:  WELL HEAD N/S
 LONG.deg                51.31:  LONGITUDE
 LATI.deg                40.06:  LATITUDE
 TVDS.m                  43.42:  TVDSS CORRECTN
 EKB .m                  43.42:  KB ELEVATION
 EDF .m                  43.42:  DF ELEVATION
 TDL .m                 288.00:  TOTAL DEPTH (LOGGER)
 MAGU.                 1851863:  MAGUTM CHECKSUM
 VSC .                       0:  VS TO CLOSURE
~Parameter Information Block
#MNEM.UNIT       Value        Description
#---------     -----------    ---------------------------
 AV  .mps                 0.40:  Ann Velocity 
 AVMX.mps                 0.63:  Max Ann Veloc 
 AZIF.deg               158.76:  Azm, Final 
 BHAT.        Rotary Steerable:  BHA Type 
 BROT.∞/30m               0.68:  Build Rotating 
 BS  .in                  8.50:  Bit Size 
 BSZ .in                  8.50:  Bit Size 
 BTPL.psig              712.00:  Bit Press Loss 
 CABU.                      No:  Customer Abuse 
 COMM.                     §ÁL:  Run Comments 1 
 TCS .hr                 90.66:  Time Ciculation Ended 
 CV  .mps                 2.02:  Crit Velocity 
 CVMX.mps                 2.14:  Max Crit Veloc 
 DD1 .            Aziz Aliyevu:  Direct Drillr 1 
 DD2 .             Samir Abbas:  Direct Drillr 2 
 DD3 .           Teymur Aliyev:  Direct Drillr 3 
 DDSV.                 iCruise:  DD Service 
 DEFF.%                  85.10:  % Det Eff 
 DLRX.∞/30m               1.05:  Dogleg Rot Max 
 DLSO.∞/30m               1.01:  Dogleg Oriented 
 DLSX.∞/30m               1.05:  Dogleg Str Max 
 DRET.      07.45.00 18-Jul-21:  Drill End Time 
 DRST.      15.00.00 16-Jul-21:  Drill Start Tim 
 DTIM.hr                 23.46:  Time Drilling 
 EDEP.m                4603.00:  End Depth 
 ENG1.       Seymur Iskandarov:  Engineer 1 
 ENG2.         Yevgeniy Ulikov:  Engineer 2 
 ENG3.         Bahruz Mehdiyev:  Engineer 3 
 ENG4.         Elchin Mammadov:  Engineer 4 
 ETIM.      14.00.00 23-Jul-21:  End Time 
 FLOI.gpm               500.00:  Flow In 
 FLON.gpm               450.00:  Flow In Min 
 FLOS.cptm                0.00:  Fluid Loss 
 FLOX.gpm               560.00:  Flow In Max 
 DFT .        Mineral Oil Base:  Mud Type 
 FTRO.       Formation Presure:  FTWD Run Obj 
 HFLO.                      No:  High Flow 
 HPRE.                      No:  High Pressure 
 HTEM.                      No:  High Temp 
 HYDO.m                   1.80:  Hydro Offset 
 IFIN.deg                40.22:  Inc, Final 
 IMAX.deg                40.54:  Inc Max 
 IMIN.deg                39.44:  Inc Min 
 IMND.m                4361.17:  Inc Min Depth 
 IMXD.m                4417.92:  Inc Max Depth 
 JARR.                      No:  Jarring 
 LETM.      07.45.00 18-Jul-21:  Log End Time 
 LOST.hr                    16:  Lost Rig Time 
 LSTM.      15.00.00 16-Jul-21:  Log Start Time 
 MDCL.ppm             36500.00:  Mud Chlorides 
 MDES.     Inversion Oil/Synthetic:  Mud Desc 
 DFD .sg                  1.42:  Mud Density 
 MDMN.sg                  1.42:  Dens Mud Min 
 MDMX.sg                  1.43:  Dens Mud Max 
 MOIL.                      56:  Run Mud Oil % 
 MOWR.                   71:29:  Run Mud OWR 
 MSND.                     0.5:  Run Mud Sand % 
 MSOL.                      21:  Run Mud Solids% 
 DFV .spqt               78.00:  Mud Viscosity 
 MWOD.in                  6.75:  MWD Tool OD 
 MWSI.                     Yes:  Serv Intrp, MWD 
 OTIM.hr                200.73:  Time Operating 
 PCON.           Look Like New:  Pad Condition 
 PMAX.psia            11069.93:  Press Op, Max 
 PV  .cP                 32.00:  Mud PV 
 RUN .                     700:  Run Number 
 ROPA.m/hr               10.00:  ROP Avg 
 ROPN.m/hr                9.00:  ROP Min 
 ROPX.m/hr               16.00:  ROP Max 
 RPMA.rpm               116.00:  RPM Surface Avg 
 RPMN.rpm                80.00:  RPM Surface Min 
 RPMX.rpm               120.00:  RPM Surface Max 
 RRUN.                    L605:  Rig Run Number 
 RTIM.hr                 45.00:  Time Reaming 
 SAZI.deg               159.86:  Azm, Start 
 SDEP.m                4315.00:  Start Depth 
 SIDD.                      No:  Serv Intrp, DD 
 SINC.deg                39.86:  Inc, Start 
 SPPA.psig             3300.00:  SPP Avg 
 SPPN.psig             3040.00:  SPP Min 
 SPPX.psig             3645.00:  SPP Max 
 STIM.      01.00.00 15-Jul-21:  Start Time 
 SVCS.                 DD, MWD:  Services 
 SVER.                    9.20:  Sperry Version 
 TDAT.m                 288.00:  Tot Depth Attmp 
 TDDF.                      No:  Trip for DD 
 TDLG.m                 288.00:  Tot Depth Loggd 
 TFF .                      No:  Trip for Fail 
 TQAA.f-kp               19.00:  Torque Abs Avg 
 TQAN.f-kp               18.00:  Torque Abs Min 
 TQAX.f-kp               21.00:  Torque Abs Max 
 TRRT.∞/30m               0.45:  Turn Rotating 
 MRT .                    HCIM:  Maximum Recorded Temperature 
 TTMX.degC               88.24:  Max Tool Temp 
 VS01.                90649157:  Virtual Str1 SN 
 VS02.                90652483:  Virtual Str2 SN 
 VS03.                11671987:  Virtual Str3 SN 
 VS04.                90643411:  Virtual Str4 SN 
 VS05.                90652478:  Virtual Str5 SN 
 VS06.                    6111:  Virtual Str6 SN 
 WBMN.klb                 9.50:  WOB Min 
 WITN.        Grigoriy Sarayev:  Customer Rep 
 WITN.          Rufat Huseynov:  Customer Rep 2 
 WOBA.klb                11.00:  WOB Avg 
 WOBX.klb                15.00:  WOB Max 
 YP  .lhf2               28.00:  Yield Point 
~Curve Information Block
#MNEM.UNIT                 API CODE     Curve Description
#---------               -----------    ---------------------------
 TIME.HHMMSS            00 000 000 000:  GT Time & Date
 GTDEPTH.m              00 000 000 000:  GT Depth
 GTPQH.psia             00 000 000 000:  GT HR Quartz Pressure
 GTTQ.degC              00 000 000 000:  GT Quartz Temperature
 GTTN.NONE              00 000 000 000:  GT Test Number
 GTET.sec               00 000 000 000:  GT Elapsed Test Time
 GTTVD.m                00 000 000 000:  GT True Vertical Depth
#Other Information
#
#WARRANTY: Halliburton will use its best efforts to furnish customers with 
#accurate information and interpretations that are part of, and incident to, the services 
#provided.  However, Halliburton cannot and does not warrant the accuracy 
#or correctness of such information and interpretations.  Under no circumstances should any 
#such information or interpretation be relied upon as the sole basis for any drilling, 
#completion, production, or financial decision or any procedure involving any risk to the 
#safety of any drilling venture, drilling rig or its crew or any other third party.  The 
#Customer has full responsibility for all drilling, completion and production operation.  
#Halliburton makes no representations or warranties, either expressed or 
#implied, including, but not limited to, the implied warranties of merchantability or fitness 
#for a particular purpose, with respect to the services rendered.  In no event will 
#Halliburton be liable for failure to obtain any particular results or for 
#any damages, including, but not limited to, indirect, special or consequential damages, 
#resulting from the use of any information or interpretation provided by Halliburton.
#
~A           TIME           GTDEPTH  GTPQH  GTTQ  GTTN  GTET   GTTVD  
# ...
   13:15:33.737.18-Jul-2021 4561.00 6148.54 75.67 2.00 253.09 2746.93
   13:15:33.937.18-Jul-2021 4561.00 6148.54 75.67 2.00 253.29 2746.93
   13:15:34.137.18-Jul-2021 4561.00 6148.74 75.67 2.00 253.49 2746.93
   13:15:34.337.18-Jul-2021 4561.00 6147.44 75.67 2.00 253.69 2746.93
   13:15:34.537.18-Jul-2021 4561.00 6148.53 75.67 2.00 253.89 2746.93
   13:15:34.737.18-Jul-2021 4561.00 6148.33 75.67 2.00 254.09 2746.93
   13:15:34.938.18-Jul-2021 4561.00 6148.33 75.67 2.00 254.29 2746.93
   13:15:35.138.18-Jul-2021 4561.00 6147.54 75.67 2.00 254.49 2746.93
   13:15:35.338.18-Jul-2021 4561.00 6148.12 75.67 2.00 254.69 2746.93
   13:15:35.538.18-Jul-2021 4561.00 6147.73 75.67 2.00 254.89 2746.93
   13:15:35.738.18-Jul-2021 4561.00 6147.57 75.67 2.00 255.09 2746.93
   13:15:35.938.18-Jul-2021 4561.00 6147.57 75.67 2.00 255.29 2746.93
   13:15:36.138.18-Jul-2021 4561.00 6147.55 75.67 2.00 255.49 2746.93
   13:15:36.338.18-Jul-2021 4561.00 6147.39 75.67 2.00 255.69 2746.93
   13:15:36.538.18-Jul-2021 4561.00 6147.80 75.67 2.00 255.89 2746.93
   13:15:36.738.18-Jul-2021 4561.00 6146.35 75.67 2.00 256.09 2746.93
   13:15:36.938.18-Jul-2021 4561.00 6146.35 75.67 2.00 256.29 2746.93
   13:15:37.138.18-Jul-2021 4561.00 6147.18 75.67 2.00 256.49 2746.93
   13:15:37.338.18-Jul-2021 4561.00 6147.89 75.67 2.00 256.69 2746.93
   13:15:37.539.18-Jul-2021 4561.00 6147.37 75.67 2.00 256.89 2746.93
   13:15:37.739.18-Jul-2021 4561.00 6147.27 75.67 2.00 257.09 2746.93
   13:15:37.939.18-Jul-2021 4561.00 6147.27 75.67 2.00 257.29 2746.93
   13:15:38.139.18-Jul-2021 4561.00 6147.18 75.67 2.00 257.49 2746.93
   13:15:38.339.18-Jul-2021 4561.00 6147.26 75.67 2.00 257.69 2746.93
   13:15:38.539.18-Jul-2021 4561.00 6147.17 75.67 2.00 257.89 2746.93
   13:15:38.739.18-Jul-2021 4561.00 6146.98 75.67 2.00 258.10 2746.93
   13:15:38.939.18-Jul-2021 4561.00 6146.98 75.67 2.00 258.30 2746.93
   13:15:39.139.18-Jul-2021 4561.00 6147.15 75.67 2.00 258.50 2746.93
   13:15:39.339.18-Jul-2021 4561.00 6145.73 75.67 2.00 258.70 2746.93
   13:15:39.539.18-Jul-2021 4561.00 6147.52 75.67 2.00 258.90 2746.93
   13:15:39.739.18-Jul-2021 4561.00 6146.65 75.67 2.00 259.10 2746.93
   13:15:39.939.18-Jul-2021 4561.00 6146.65 75.67 2.00 259.30 2746.93
   13:15:40.139.18-Jul-2021 4561.00 6146.95 75.67 2.00 259.50 2746.93
   13:15:40.340.18-Jul-2021 4561.00 6146.28 75.67 2.00 259.70 2746.93
   13:15:40.540.18-Jul-2021 4561.00 6146.06 75.67 2.00 259.90 2746.93
   13:15:40.740.18-Jul-2021 4561.00 6146.32 75.67 2.00 260.10 2746.93
   13:15:40.940.18-Jul-2021 4561.00 6146.32 75.67 2.00 260.30 2746.93
   13:15:41.140.18-Jul-2021 4561.00 6145.92 75.67 2.00 260.50 2746.93
   13:15:41.340.18-Jul-2021 4561.00 6145.95 75.67 2.00 260.70 2746.93
   13:15:41.540.18-Jul-2021 4561.00 6145.11 75.67 2.00 260.90 2746.93
   13:15:41.740.18-Jul-2021 4561.00 6146.11 75.67 2.00 261.10 2746.93
   13:15:41.940.18-Jul-2021 4561.00 6146.11 75.67 2.00 261.30 2746.93
   13:15:42.140.18-Jul-2021 4561.00 6145.55 75.67 2.00 261.50 2746.93
   13:15:42.340.18-Jul-2021 4561.00 6144.59 75.67 2.00 261.70 2746.93
   13:15:42.540.18-Jul-2021 4561.00 6145.01 75.67 2.00 261.90 2746.93
   13:15:42.740.18-Jul-2021 4561.00 6144.54 75.67 2.00 262.10 2746.93
   13:15:42.940.18-Jul-2021 4561.00 6144.54 75.67 2.00 262.30 2746.93
   13:15:43.141.18-Jul-2021 4561.00 6144.52 75.67 2.00 262.50 2746.93
   13:15:43.341.18-Jul-2021 4561.00 6144.80 75.66 2.00 262.70 2746.93
   13:15:43.541.18-Jul-2021 4561.00 6145.36 75.66 2.00 262.90 2746.93
   13:15:43.741.18-Jul-2021 4561.00 6146.09 75.67 2.00 263.10 2746.93
   13:15:43.941.18-Jul-2021 4561.00 6146.09 75.67 2.00 263.30 2746.93
   13:15:44.141.18-Jul-2021 4561.00 6145.81 75.66 2.00 263.50 2746.93
   13:15:44.341.18-Jul-2021 4561.00 6146.01 75.66 2.00 263.70 2746.93
   13:15:44.541.18-Jul-2021 4561.00 6145.62 75.66 2.00 263.90 2746.93
   13:15:44.741.18-Jul-2021 4561.00 6144.63 75.66 2.00 264.10 2746.93
   13:15:44.941.18-Jul-2021 4561.00 6144.63 75.66 2.00 264.30 2746.93
   13:15:45.141.18-Jul-2021 4561.00 6146.33 75.66 2.00 264.50 2746.93
   13:15:45.341.18-Jul-2021 4561.00 6146.20 75.66 2.00 264.70 2746.93
   13:15:45.541.18-Jul-2021 4561.00 6145.75 75.66 2.00 264.90 2746.93
   13:15:45.742.18-Jul-2021 4561.00 6145.88 75.66 2.00 265.10 2746.93
   13:15:45.942.18-Jul-2021 4561.00 6145.88 75.66 2.00 265.30 2746.93
   13:15:46.142.18-Jul-2021 4561.00 6145.56 75.66 2.00 265.50 2746.93
   13:15:46.342.18-Jul-2021 4561.00 6145.85 75.66 2.00 265.70 2746.93
   13:15:46.542.18-Jul-2021 4561.00 6146.08 75.66 2.00 265.90 2746.93
   13:15:46.742.18-Jul-2021 4561.00 6145.67 75.66 2.00 266.10 2746.93
   13:15:46.942.18-Jul-2021 4561.00 6145.67 75.66 2.00 266.30 2746.93
   13:15:47.142.18-Jul-2021 4561.00 6145.87 75.66 2.00 266.50 2746.93
   13:15:47.342.18-Jul-2021 4561.00 6144.81 75.66 2.00 266.70 2746.93
   13:15:47.542.18-Jul-2021 4561.00 6146.06 75.66 2.00 266.90 2746.93
   13:15:47.742.18-Jul-2021 4561.00 6145.79 75.66 2.00 267.10 2746.93
   13:15:47.942.18-Jul-2021 4561.00 6145.79 75.66 2.00 267.30 2746.93
   13:15:48.142.18-Jul-2021 4561.00 6146.88 75.66 2.00 267.50 2746.93
   13:15:48.342.18-Jul-2021 4561.00 6145.73 75.66 2.00 267.70 2746.93
   13:15:48.543.18-Jul-2021 4561.00 6145.16 75.66 2.00 267.90 2746.93
   13:15:48.743.18-Jul-2021 4561.00 6145.93 75.66 2.00 268.10 2746.93
   13:15:48.943.18-Jul-2021 4561.00 6145.93 75.66 2.00 268.30 2746.93
   13:15:49.143.18-Jul-2021 4561.00 6146.31 75.66 2.00 268.50 2746.93
   13:15:49.343.18-Jul-2021 4561.00 6145.24 75.66 2.00 268.70 2746.93
   13:15:49.543.18-Jul-2021 4561.00 6145.71 75.66 2.00 268.90 2746.93
   13:15:49.743.18-Jul-2021 4561.00 6146.07 75.66 2.00 269.10 2746.93
   13:15:49.943.18-Jul-2021 4561.00 6146.07 75.66 2.00 269.30 2746.93
   13:15:50.143.18-Jul-2021 4561.00 6144.42 75.66 2.00 269.50 2746.93
   13:15:50.343.18-Jul-2021 4561.00 6145.86 75.66 2.00 269.70 2746.93
   13:15:50.543.18-Jul-2021 4561.00 6145.69 75.66 2.00 269.90 2746.93
   13:15:50.743.18-Jul-2021 4561.00 6145.75 75.66 2.00 270.10 2746.93
   13:15:50.943.18-Jul-2021 4561.00 6145.75 75.66 2.00 270.30 2746.93
   13:15:51.144.18-Jul-2021 4561.00 6145.31 75.66 2.00 270.50 2746.93
   13:15:51.344.18-Jul-2021 4561.00 6144.90 75.66 2.00 270.70 2746.93
   13:15:51.544.18-Jul-2021 4561.00 6145.43 75.66 2.00 270.90 2746.93
   13:15:51.744.18-Jul-2021 4561.00 6145.44 75.66 2.00 271.10 2746.93
   13:15:51.944.18-Jul-2021 4561.00 6145.44 75.66 2.00 271.30 2746.93
   13:15:52.144.18-Jul-2021 4561.00 6145.30 75.66 2.00 271.50 2746.93
   13:15:52.344.18-Jul-2021 4561.00 6145.52 75.66 2.00 271.70 2746.93
   13:15:52.544.18-Jul-2021 4561.00 6145.48 75.66 2.00 271.90 2746.93
   13:15:52.744.18-Jul-2021 4561.00 6145.30 75.66 2.00 272.10 2746.93
   13:15:52.944.18-Jul-2021 4561.00 6145.30 75.66 2.00 272.30 2746.93
   13:15:53.144.18-Jul-2021 4561.00 6146.72 75.66 2.00 272.50 2746.93
   13:15:53.344.18-Jul-2021 4561.00 6145.94 75.66 2.00 272.70 2746.93
   13:15:53.544.18-Jul-2021 4561.00 6145.58 75.66 2.00 272.90 2746.93
   13:15:53.744.18-Jul-2021 4561.00 6145.39 75.66 2.00 273.10 2746.93
   13:15:53.945.18-Jul-2021 4561.00 6145.39 75.66 2.00 273.30 2746.93
   13:15:54.145.18-Jul-2021 4561.00 6145.15 75.66 2.00 273.50 2746.93
   13:15:54.345.18-Jul-2021 4561.00 6145.05 75.66 2.00 273.70 2746.93
   13:15:54.545.18-Jul-2021 4561.00 6145.21 75.66 2.00 273.90 2746.93
   13:15:54.745.18-Jul-2021 4561.00 6145.06 75.66 2.00 274.10 2746.93
   13:15:54.945.18-Jul-2021 4561.00 6145.06 75.66 2.00 274.30 2746.93
   13:15:55.145.18-Jul-2021 4561.00 6145.20 75.66 2.00 274.50 2746.93
   13:15:55.345.18-Jul-2021 4561.00 6145.30 75.66 2.00 274.70 2746.93
   13:15:55.545.18-Jul-2021 4561.00 6143.52 75.66 2.00 274.90 2746.93
   13:15:55.745.18-Jul-2021 4561.00 6146.40 75.66 2.00 275.10 2746.93
   13:15:55.945.18-Jul-2021 4561.00 6146.40 75.66 2.00 275.30 2746.93
   13:15:56.145.18-Jul-2021 4561.00 6144.65 75.66 2.00 275.50 2746.93
   13:15:56.345.18-Jul-2021 4561.00 6145.42 75.66 2.00 275.70 2746.93
   13:15:56.546.18-Jul-2021 4561.00 6144.59 75.66 2.00 275.90 2746.93
