~Version Information
 VERS.                  2.0:   CWLS log ASCII Standard -VERSION 2.0
 WRAP.                   NO:   One line per depth step
~Well Information Block
#MNEM.UNIT     VALUE/NAME     DESCRIPTION
#---------     -----------    ---------------------------
 STRT.S             14:01:43 18-Jul-21: START TIME 14:01:43 18-Jul-21
 STOP.S             14:08:15 18-Jul-21: STOP TIME  14:08:15 18-Jul-21
 STEP.S                   0.00: STEP TIME
 NULL.                 -999.25: NULL VALUE
 MDS .        Operator Entered:  MAG DATA SOURCE
 PDAT.          Mean Sea Level:  PERMANENT DATUM
 UNIT.                     N/A:  LOGGING EQUIPMENT ID
 DCON.         Sperry Drilling:  DIRECTNL CONTR
 DOE .                     N/A:  DOE NUMBER
 RIG .              West Azeri:  RIG NAME
 JOBN.        AZ-XX-0906997913:  JOB TICKET NUMB
 WELL.                     C41:  WELL NAME
 MWDS.                    Baku:  MWD SHOP
 SRVC.          Turan Drilling:  CONTRACTOR
 FLD .                     ACG:  FIELD NAME
 CTRY.              Azerbaijan:  COUNTRY NAME
 PROV.                    Baku:  PROVINCE
 STAT.                    Baku:  STATE NAME
 REGN.                   EESSA:  REGION
 BASE.              Azerbaijan:  LOGGING EQUIPMENT BASE LOCATION
 UWI .                     N/A:  UNIQUE WELL IDENTIFIER
 API .                     N/A:  API NUMBER
 COMP.     BP Exploration (Caspian Sea) Ltd.:  COMPANY
 WTYP.                Deviated:  WELL TYPE
 SON .        AZ-XX-0906997913:  JOB NUMBER
 FTOP.          Formation Tops:  FORM TOPS DESC
 ILTD.               Lithology:  INTERP LTH DESC
 SVYD.                  Survey:  SURVEY DESC
 DMOD.             Drill Model:  DRILL MOD DESC
 HPTY.       Minimum Curvature:  HOLE POS TYPE
 NREF.                    Grid:  NORTH REFERENCE
 SPUD.               16-May-21:  SPUD DATE
 DATE.      21.11.28 17-May-21:  END TIME
 STIM.      21.11.28 17-May-21:  START TIME
 DMF .             Drill Floor:  DRILL MEAS FROM
 DFST.                        :  DIST FSL TEXT
 DFWT.                        :  DIST FWL TEXT
 CNTY.                        :  COUNTY
 LOC .                        :  LOCATION
 LMF .             Drill Floor:  LOG MEASURED FROM
 AGAP.m                  43.42:  AIR GAP
 VSNS.m                  -2.16:  VERT SEC N/S
 VSEW.m                  -6.24:  VERT SEC E/W
 APD .m                  43.42:  DEPTH ABOVE PD
 WDMS.m                 118.27:  WD ELEV
 EGL .m                   0.00:  GROUND ELEVATION
 EPD .m                   0.00:  ELEVATION
 AZTC.deg                 6.29:  AZM TOTAL CORR
 GRDC.deg                 0.18:  GRID CORRECTION
 MDEC.deg                 6.47:  MAGNETIC DECL
 MDIP.deg                59.54:  MAGNETIC DIP
 MFLD.nT              50337.00:  MAGNETIC FIELD
 GVFD.g                   1.00:  GRAVITY FIELD
 VSDR.deg               226.99:  VERT SEC DIRECT
 TDD .m                   0.00:  TOTAL DEPTH (DRILLER)
 SDEP.m                 448.00:  START DEPTH
 DFSL.m                   0.00:  DISTANCE FSL
 DFWL.m                   0.00:  DISTANCE FWL
 UTMY.m             4435799.96:  UTM Y
 UTMX.m              526265.35:  UTM X
 WHEW.m                  -6.24:  WELL HEAD E/W
 WHNS.m                  -2.16:  WELL HEAD N/S
 LONG.deg                51.31:  LONGITUDE
 LATI.deg                40.06:  LATITUDE
 TVDS.m                  43.42:  TVDSS CORRECTN
 EKB .m                  43.42:  KB ELEVATION
 EDF .m                  43.42:  DF ELEVATION
 TDL .m                 288.00:  TOTAL DEPTH (LOGGER)
 MAGU.                 1851863:  MAGUTM CHECKSUM
 VSC .                       0:  VS TO CLOSURE
~Parameter Information Block
#MNEM.UNIT       Value        Description
#---------     -----------    ---------------------------
 AV  .mps                 0.40:  Ann Velocity 
 AVMX.mps                 0.63:  Max Ann Veloc 
 AZIF.deg               158.76:  Azm, Final 
 BHAT.        Rotary Steerable:  BHA Type 
 BROT.°/30m               0.68:  Build Rotating 
 BS  .in                  8.50:  Bit Size 
 BSZ .in                  8.50:  Bit Size 
 BTPL.psig              712.00:  Bit Press Loss 
 CABU.                      No:  Customer Abuse 
 COMM.                     <©Q:  Run Comments 1 
 TCS .hr                 90.66:  Time Ciculation Ended 
 CV  .mps                 2.02:  Crit Velocity 
 CVMX.mps                 2.14:  Max Crit Veloc 
 DD1 .            Aziz Aliyevu:  Direct Drillr 1 
 DD2 .             Samir Abbas:  Direct Drillr 2 
 DD3 .           Teymur Aliyev:  Direct Drillr 3 
 DDSV.                 iCruise:  DD Service 
 DEFF.%                  85.10:  % Det Eff 
 DLRX.°/30m               1.05:  Dogleg Rot Max 
 DLSO.°/30m               1.01:  Dogleg Oriented 
 DLSX.°/30m               1.05:  Dogleg Str Max 
 DRET.      07.45.00 18-Jul-21:  Drill End Time 
 DRST.      15.00.00 16-Jul-21:  Drill Start Tim 
 DTIM.hr                 23.46:  Time Drilling 
 EDEP.m                4603.00:  End Depth 
 ENG1.       Seymur Iskandarov:  Engineer 1 
 ENG2.         Yevgeniy Ulikov:  Engineer 2 
 ENG3.         Bahruz Mehdiyev:  Engineer 3 
 ENG4.         Elchin Mammadov:  Engineer 4 
 ETIM.      14.00.00 23-Jul-21:  End Time 
 FLOI.gpm               500.00:  Flow In 
 FLON.gpm               450.00:  Flow In Min 
 FLOS.cptm                0.00:  Fluid Loss 
 FLOX.gpm               560.00:  Flow In Max 
 DFT .        Mineral Oil Base:  Mud Type 
 FTRO.       Formation Presure:  FTWD Run Obj 
 HFLO.                      No:  High Flow 
 HPRE.                      No:  High Pressure 
 HTEM.                      No:  High Temp 
 HYDO.m                   1.80:  Hydro Offset 
 IFIN.deg                40.22:  Inc, Final 
 IMAX.deg                40.54:  Inc Max 
 IMIN.deg                39.44:  Inc Min 
 IMND.m                4361.17:  Inc Min Depth 
 IMXD.m                4417.92:  Inc Max Depth 
 JARR.                      No:  Jarring 
 LETM.      07.45.00 18-Jul-21:  Log End Time 
 LOST.hr                    16:  Lost Rig Time 
 LSTM.      15.00.00 16-Jul-21:  Log Start Time 
 MDCL.ppm             36500.00:  Mud Chlorides 
 MDES.     Inversion Oil/Synthetic:  Mud Desc 
 DFD .sg                  1.42:  Mud Density 
 MDMN.sg                  1.42:  Dens Mud Min 
 MDMX.sg                  1.43:  Dens Mud Max 
 MOIL.                      56:  Run Mud Oil % 
 MOWR.                   71:29:  Run Mud OWR 
 MSND.                     0.5:  Run Mud Sand % 
 MSOL.                      21:  Run Mud Solids% 
 DFV .spqt               78.00:  Mud Viscosity 
 MWOD.in                  6.75:  MWD Tool OD 
 MWSI.                     Yes:  Serv Intrp, MWD 
 OTIM.hr                200.73:  Time Operating 
 PCON.           Look Like New:  Pad Condition 
 PMAX.psia            11069.93:  Press Op, Max 
 PV  .cP                 32.00:  Mud PV 
 RUN .                     700:  Run Number 
 ROPA.m/hr               10.00:  ROP Avg 
 ROPN.m/hr                9.00:  ROP Min 
 ROPX.m/hr               16.00:  ROP Max 
 RPMA.rpm               116.00:  RPM Surface Avg 
 RPMN.rpm                80.00:  RPM Surface Min 
 RPMX.rpm               120.00:  RPM Surface Max 
 RRUN.                    L605:  Rig Run Number 
 RTIM.hr                 45.00:  Time Reaming 
 SAZI.deg               159.86:  Azm, Start 
 SDEP.m                4315.00:  Start Depth 
 SIDD.                      No:  Serv Intrp, DD 
 SINC.deg                39.86:  Inc, Start 
 SPPA.psig             3300.00:  SPP Avg 
 SPPN.psig             3040.00:  SPP Min 
 SPPX.psig             3645.00:  SPP Max 
 STIM.      01.00.00 15-Jul-21:  Start Time 
 SVCS.                 DD, MWD:  Services 
 SVER.                    9.20:  Sperry Version 
 TDAT.m                 288.00:  Tot Depth Attmp 
 TDDF.                      No:  Trip for DD 
 TDLG.m                 288.00:  Tot Depth Loggd 
 TFF .                      No:  Trip for Fail 
 TQAA.f-kp               19.00:  Torque Abs Avg 
 TQAN.f-kp               18.00:  Torque Abs Min 
 TQAX.f-kp               21.00:  Torque Abs Max 
 TRRT.°/30m               0.45:  Turn Rotating 
 MRT .                    HCIM:  Maximum Recorded Temperature 
 TTMX.degC               88.24:  Max Tool Temp 
 VS01.                90649157:  Virtual Str1 SN 
 VS02.                90652483:  Virtual Str2 SN 
 VS03.                11671987:  Virtual Str3 SN 
 VS04.                90643411:  Virtual Str4 SN 
 VS05.                90652478:  Virtual Str5 SN 
 VS06.                    6111:  Virtual Str6 SN 
 WBMN.klb                 9.50:  WOB Min 
 WITN.        Grigoriy Sarayev:  Customer Rep 
 WITN.          Rufat Huseynov:  Customer Rep 2 
 WOBA.klb                11.00:  WOB Avg 
 WOBX.klb                15.00:  WOB Max 
 YP  .lhf2               28.00:  Yield Point 
~Curve Information Block
#MNEM.UNIT                 API CODE     Curve Description
#---------               -----------    ---------------------------
 TIME.HHMMSS            00 000 000 000:  GT Time & Date
 GTDEPTH.m              00 000 000 000:  GT Depth
 GTPQH.psia             00 000 000 000:  GT HR Quartz Pressure
 GTTQ.degC              00 000 000 000:  GT Quartz Temperature
 GTTN.NONE              00 000 000 000:  GT Test Number
 GTET.sec               00 000 000 000:  GT Elapsed Test Time
 GTTVD.m                00 000 000 000:  GT True Vertical Depth
#Other Information
#
#WARRANTY: Halliburton will use its best efforts to furnish customers with 
#accurate information and interpretations that are part of, and incident to, the services 
#provided.  However, Halliburton cannot and does not warrant the accuracy 
#or correctness of such information and interpretations.  Under no circumstances should any 
#such information or interpretation be relied upon as the sole basis for any drilling, 
#completion, production, or financial decision or any procedure involving any risk to the 
#safety of any drilling venture, drilling rig or its crew or any other third party.  The 
#Customer has full responsibility for all drilling, completion and production operation.  
#Halliburton makes no representations or warranties, either expressed or 
#implied, including, but not limited to, the implied warranties of merchantability or fitness 
#for a particular purpose, with respect to the services rendered.  In no event will 
#Halliburton be liable for failure to obtain any particular results or for 
#any damages, including, but not limited to, indirect, special or consequential damages, 
#resulting from the use of any information or interpretation provided by Halliburton.
#
~A           TIME           GTDEPTH  GTPQH  GTTQ  GTTN  GTET   GTTVD  
# ...
   14:05:33.842.18-Jul-2021 4559.00 6752.66 75.30 3.00 230.08 2745.40
   14:05:34.042.18-Jul-2021 4559.00 6752.66 75.30 3.00 230.28 2745.40
   14:05:34.242.18-Jul-2021 4559.00 6753.68 75.30 3.00 230.48 2745.40
   14:05:34.442.18-Jul-2021 4559.00 6753.26 75.30 3.00 230.68 2745.40
   14:05:34.642.18-Jul-2021 4559.00 6752.97 75.30 3.00 230.89 2745.40
   14:05:34.842.18-Jul-2021 4559.00 6753.47 75.30 3.00 231.09 2745.40
   14:05:35.042.18-Jul-2021 4559.00 6753.47 75.30 3.00 231.29 2745.40
   14:05:35.242.18-Jul-2021 4559.00 6752.49 75.30 3.00 231.49 2745.40
   14:05:35.442.18-Jul-2021 4559.00 6753.08 75.30 3.00 231.69 2745.40
   14:05:35.642.18-Jul-2021 4559.00 6752.78 75.30 3.00 231.89 2745.40
   14:05:35.843.18-Jul-2021 4559.00 6753.07 75.30 3.00 232.09 2745.40
   14:05:36.043.18-Jul-2021 4559.00 6753.07 75.30 3.00 232.29 2745.40
   14:05:36.243.18-Jul-2021 4559.00 6752.40 75.30 3.00 232.49 2745.40
   14:05:36.443.18-Jul-2021 4559.00 6756.69 75.30 3.00 232.69 2745.40
   14:05:36.643.18-Jul-2021 4559.00 6753.71 75.30 3.00 232.89 2745.40
   14:05:36.843.18-Jul-2021 4559.00 6753.54 75.30 3.00 233.09 2745.40
   14:05:37.043.18-Jul-2021 4559.00 6753.54 75.30 3.00 233.29 2745.40
   14:05:37.243.18-Jul-2021 4559.00 6753.01 75.30 3.00 233.49 2745.40
   14:05:37.443.18-Jul-2021 4559.00 6752.78 75.30 3.00 233.69 2745.40
   14:05:37.643.18-Jul-2021 4559.00 6752.42 75.30 3.00 233.89 2745.40
   14:05:37.843.18-Jul-2021 4559.00 6752.62 75.30 3.00 234.09 2745.40
   14:05:38.043.18-Jul-2021 4559.00 6752.62 75.30 3.00 234.29 2745.40
   14:05:38.243.18-Jul-2021 4559.00 6751.99 75.30 3.00 234.49 2745.40
   14:05:38.443.18-Jul-2021 4559.00 6752.19 75.30 3.00 234.69 2745.40
   14:05:38.644.18-Jul-2021 4559.00 6752.34 75.30 3.00 234.89 2745.40
   14:05:38.844.18-Jul-2021 4559.00 6751.94 75.30 3.00 235.09 2745.40
   14:05:39.044.18-Jul-2021 4559.00 6751.94 75.30 3.00 235.29 2745.40
   14:05:39.244.18-Jul-2021 4559.00 6753.71 75.30 3.00 235.49 2745.40
   14:05:39.444.18-Jul-2021 4559.00 6754.19 75.30 3.00 235.69 2745.40
   14:05:39.644.18-Jul-2021 4559.00 6757.24 75.30 3.00 235.89 2745.40
   14:05:39.844.18-Jul-2021 4559.00 6753.80 75.30 3.00 236.09 2745.40
   14:05:40.044.18-Jul-2021 4559.00 6753.80 75.30 3.00 236.29 2745.40
   14:05:40.244.18-Jul-2021 4559.00 6757.49 75.30 3.00 236.49 2745.40
   14:05:40.444.18-Jul-2021 4559.00 6755.08 75.30 3.00 236.69 2745.40
   14:05:40.644.18-Jul-2021 4559.00 6752.79 75.30 3.00 236.89 2745.40
   14:05:40.844.18-Jul-2021 4559.00 6754.57 75.30 3.00 237.09 2745.40
   14:05:41.044.18-Jul-2021 4559.00 6754.57 75.30 3.00 237.29 2745.40
   14:05:41.244.18-Jul-2021 4559.00 6754.32 75.30 3.00 237.49 2745.40
   14:05:41.445.18-Jul-2021 4559.00 6752.83 75.30 3.00 237.69 2745.40
   14:05:41.645.18-Jul-2021 4559.00 6753.70 75.30 3.00 237.89 2745.40
   14:05:41.845.18-Jul-2021 4559.00 6755.21 75.30 3.00 238.09 2745.40
   14:05:42.045.18-Jul-2021 4559.00 6755.21 75.30 3.00 238.29 2745.40
   14:05:42.245.18-Jul-2021 4559.00 6752.06 75.30 3.00 238.49 2745.40
   14:05:42.445.18-Jul-2021 4559.00 6754.32 75.30 3.00 238.69 2745.40
   14:05:42.645.18-Jul-2021 4559.00 6753.45 75.30 3.00 238.89 2745.40
   14:05:42.845.18-Jul-2021 4559.00 6753.09 75.30 3.00 239.09 2745.40
   14:05:43.045.18-Jul-2021 4559.00 6753.09 75.30 3.00 239.29 2745.40
   14:05:43.245.18-Jul-2021 4559.00 6752.71 75.30 3.00 239.49 2745.40
   14:05:43.445.18-Jul-2021 4559.00 6752.87 75.30 3.00 239.69 2745.40
   14:05:43.645.18-Jul-2021 4559.00 6752.59 75.30 3.00 239.89 2745.40
   14:05:43.845.18-Jul-2021 4559.00 6752.74 75.30 3.00 240.09 2745.40
   14:05:44.046.18-Jul-2021 4559.00 6752.74 75.30 3.00 240.29 2745.40
   14:05:44.246.18-Jul-2021 4559.00 6752.55 75.30 3.00 240.49 2745.40
   14:05:44.446.18-Jul-2021 4559.00 6752.81 75.30 3.00 240.69 2745.40
   14:05:44.646.18-Jul-2021 4559.00 6752.64 75.30 3.00 240.89 2745.40
   14:05:44.846.18-Jul-2021 4559.00 6757.58 75.30 3.00 241.09 2745.40
   14:05:45.046.18-Jul-2021 4559.00 6757.58 75.30 3.00 241.29 2745.40
   14:05:45.246.18-Jul-2021 4559.00 6753.45 75.30 3.00 241.49 2745.40
   14:05:45.446.18-Jul-2021 4559.00 6754.47 75.30 3.00 241.69 2745.40
   14:05:45.646.18-Jul-2021 4559.00 6752.74 75.30 3.00 241.89 2745.40
   14:05:45.846.18-Jul-2021 4559.00 6752.64 75.30 3.00 242.09 2745.40
   14:05:46.046.18-Jul-2021 4559.00 6752.64 75.30 3.00 242.29 2745.40
   14:05:46.246.18-Jul-2021 4559.00 6752.09 75.30 3.00 242.49 2745.40
   14:05:46.446.18-Jul-2021 4559.00 6752.14 75.30 3.00 242.69 2745.40
   14:05:46.646.18-Jul-2021 4559.00 6752.40 75.30 3.00 242.89 2745.40
   14:05:46.847.18-Jul-2021 4559.00 6751.77 75.30 3.00 243.09 2745.40
   14:05:47.047.18-Jul-2021 4559.00 6751.77 75.30 3.00 243.29 2745.40
   14:05:47.247.18-Jul-2021 4559.00 6752.26 75.30 3.00 243.49 2745.40
   14:05:47.447.18-Jul-2021 4559.00 6756.48 75.30 3.00 243.69 2745.40
   14:05:47.647.18-Jul-2021 4559.00 6752.89 75.30 3.00 243.89 2745.40
   14:05:47.847.18-Jul-2021 4559.00 6754.21 75.30 3.00 244.09 2745.40
   14:05:48.047.18-Jul-2021 4559.00 6754.21 75.30 3.00 244.29 2745.40
   14:05:48.247.18-Jul-2021 4559.00 6753.65 75.30 3.00 244.49 2745.40
   14:05:48.447.18-Jul-2021 4559.00 6754.67 75.30 3.00 244.69 2745.40
   14:05:48.647.18-Jul-2021 4559.00 6758.18 75.30 3.00 244.89 2745.40
   14:05:48.847.18-Jul-2021 4559.00 6755.43 75.30 3.00 245.09 2745.40
   14:05:49.047.18-Jul-2021 4559.00 6755.43 75.30 3.00 245.29 2745.40
   14:05:49.247.18-Jul-2021 4559.00 6754.82 75.30 3.00 245.49 2745.40
   14:05:49.448.18-Jul-2021 4559.00 6755.58 75.30 3.00 245.69 2745.40
   14:05:49.648.18-Jul-2021 4559.00 6756.17 75.30 3.00 245.89 2745.40
   14:05:49.848.18-Jul-2021 4559.00 6752.92 75.30 3.00 246.09 2745.40
   14:05:50.048.18-Jul-2021 4559.00 6752.92 75.30 3.00 246.29 2745.40
   14:05:50.248.18-Jul-2021 4559.00 6753.70 75.30 3.00 246.49 2745.40
   14:05:50.448.18-Jul-2021 4559.00 6756.29 75.30 3.00 246.69 2745.40
   14:05:50.648.18-Jul-2021 4559.00 6754.26 75.30 3.00 246.89 2745.40
   14:05:50.848.18-Jul-2021 4559.00 6753.19 75.30 3.00 247.09 2745.40
   14:05:51.048.18-Jul-2021 4559.00 6753.19 75.30 3.00 247.29 2745.40
   14:05:51.248.18-Jul-2021 4559.00 6753.00 75.30 3.00 247.49 2745.40
   14:05:51.448.18-Jul-2021 4559.00 6753.53 75.30 3.00 247.69 2745.40
   14:05:51.648.18-Jul-2021 4559.00 6753.24 75.30 3.00 247.89 2745.40
   14:05:51.848.18-Jul-2021 4559.00 6753.07 75.30 3.00 248.09 2745.40
   14:05:52.048.18-Jul-2021 4559.00 6753.07 75.30 3.00 248.29 2745.40
   14:05:52.249.18-Jul-2021 4559.00 6752.81 75.30 3.00 248.49 2745.40
   14:05:52.449.18-Jul-2021 4559.00 6753.13 75.30 3.00 248.69 2745.40
   14:05:52.649.18-Jul-2021 4559.00 6752.74 75.31 3.00 248.89 2745.40
   14:05:52.849.18-Jul-2021 4559.00 6752.65 75.31 3.00 249.09 2745.40
   14:05:53.049.18-Jul-2021 4559.00 6752.65 75.31 3.00 249.29 2745.40
   14:05:53.249.18-Jul-2021 4559.00 6754.71 75.31 3.00 249.49 2745.40
   14:05:53.449.18-Jul-2021 4559.00 6755.82 75.31 3.00 249.69 2745.40
   14:05:53.649.18-Jul-2021 4559.00 6752.63 75.31 3.00 249.89 2745.40
   14:05:53.849.18-Jul-2021 4559.00 6753.92 75.31 3.00 250.09 2745.40
   14:05:54.049.18-Jul-2021 4559.00 6753.92 75.31 3.00 250.29 2745.40
   14:05:54.249.18-Jul-2021 4559.00 6750.94 75.31 3.00 250.49 2745.40
   14:05:54.449.18-Jul-2021 4559.00 6748.44 75.31 3.00 250.69 2745.40
   14:05:54.649.18-Jul-2021 4559.00 6748.02 75.31 3.00 250.89 2745.40
   14:05:54.850.18-Jul-2021 4559.00 6747.68 75.31 3.00 251.09 2745.40
   14:05:55.050.18-Jul-2021 4559.00 6747.68 75.31 3.00 251.29 2745.40
   14:05:55.250.18-Jul-2021 4559.00 6747.49 75.31 3.00 251.49 2745.40
   14:05:55.450.18-Jul-2021 4559.00 6746.75 75.31 3.00 251.69 2745.40
   14:05:55.650.18-Jul-2021 4559.00 6747.59 75.31 3.00 251.89 2745.40
   14:05:55.850.18-Jul-2021 4559.00 6748.51 75.31 3.00 252.09 2745.40
   14:05:56.050.18-Jul-2021 4559.00 6748.51 75.31 3.00 252.29 2745.40
   14:05:56.250.18-Jul-2021 4559.00 6748.67 75.31 3.00 252.49 2745.40
   14:05:56.450.18-Jul-2021 4559.00 6752.11 75.31 3.00 252.69 2745.40
   14:05:56.650.18-Jul-2021 4559.00 6751.26 75.31 3.00 252.89 2745.40
