~Version Information
 VERS.                  2.0:   CWLS log ASCII Standard -VERSION 2.0
 WRAP.                   NO:   One line per depth step
~Well Information Block
#MNEM.UNIT     VALUE/NAME     DESCRIPTION
#---------     -----------    ---------------------------
 STRT.S             10:41:06 19-Jul-21: START TIME 10:41:06 19-Jul-21
 STOP.S             10:48:00 19-Jul-21: STOP TIME  10:48:00 19-Jul-21
 STEP.S                   0.00: STEP TIME
 NULL.                 -999.25: NULL VALUE
 MDS .        Operator Entered:  MAG DATA SOURCE
 PDAT.          Mean Sea Level:  PERMANENT DATUM
 UNIT.                     N/A:  LOGGING EQUIPMENT ID
 DCON.         Sperry Drilling:  DIRECTNL CONTR
 DOE .                     N/A:  DOE NUMBER
 RIG .              West Azeri:  RIG NAME
 JOBN.        AZ-XX-0906997913:  JOB TICKET NUMB
 WELL.                     C41:  WELL NAME
 MWDS.                    Baku:  MWD SHOP
 SRVC.          Turan Drilling:  CONTRACTOR
 FLD .                     ACG:  FIELD NAME
 CTRY.              Azerbaijan:  COUNTRY NAME
 PROV.                    Baku:  PROVINCE
 STAT.                    Baku:  STATE NAME
 REGN.                   EESSA:  REGION
 BASE.              Azerbaijan:  LOGGING EQUIPMENT BASE LOCATION
 UWI .                     N/A:  UNIQUE WELL IDENTIFIER
 API .                     N/A:  API NUMBER
 COMP.     BP Exploration (Caspian Sea) Ltd.:  COMPANY
 WTYP.                Deviated:  WELL TYPE
 SON .        AZ-XX-0906997913:  JOB NUMBER
 FTOP.          Formation Tops:  FORM TOPS DESC
 ILTD.               Lithology:  INTERP LTH DESC
 SVYD.                  Survey:  SURVEY DESC
 DMOD.             Drill Model:  DRILL MOD DESC
 HPTY.       Minimum Curvature:  HOLE POS TYPE
 NREF.                    Grid:  NORTH REFERENCE
 SPUD.               16-May-21:  SPUD DATE
 DATE.      21.11.28 17-May-21:  END TIME
 STIM.      21.11.28 17-May-21:  START TIME
 DMF .             Drill Floor:  DRILL MEAS FROM
 DFST.                        :  DIST FSL TEXT
 DFWT.                        :  DIST FWL TEXT
 CNTY.                        :  COUNTY
 LOC .                        :  LOCATION
 LMF .             Drill Floor:  LOG MEASURED FROM
 AGAP.m                  43.42:  AIR GAP
 VSNS.m                  -2.16:  VERT SEC N/S
 VSEW.m                  -6.24:  VERT SEC E/W
 APD .m                  43.42:  DEPTH ABOVE PD
 WDMS.m                 118.27:  WD ELEV
 EGL .m                   0.00:  GROUND ELEVATION
 EPD .m                   0.00:  ELEVATION
 AZTC.deg                 6.29:  AZM TOTAL CORR
 GRDC.deg                 0.18:  GRID CORRECTION
 MDEC.deg                 6.47:  MAGNETIC DECL
 MDIP.deg                59.54:  MAGNETIC DIP
 MFLD.nT              50337.00:  MAGNETIC FIELD
 GVFD.g                   1.00:  GRAVITY FIELD
 VSDR.deg               226.99:  VERT SEC DIRECT
 TDD .m                   0.00:  TOTAL DEPTH (DRILLER)
 SDEP.m                 448.00:  START DEPTH
 DFSL.m                   0.00:  DISTANCE FSL
 DFWL.m                   0.00:  DISTANCE FWL
 UTMY.m             4435799.96:  UTM Y
 UTMX.m              526265.35:  UTM X
 WHEW.m                  -6.24:  WELL HEAD E/W
 WHNS.m                  -2.16:  WELL HEAD N/S
 LONG.deg                51.31:  LONGITUDE
 LATI.deg                40.06:  LATITUDE
 TVDS.m                  43.42:  TVDSS CORRECTN
 EKB .m                  43.42:  KB ELEVATION
 EDF .m                  43.42:  DF ELEVATION
 TDL .m                 288.00:  TOTAL DEPTH (LOGGER)
 MAGU.                 1851863:  MAGUTM CHECKSUM
 VSC .                       0:  VS TO CLOSURE
~Parameter Information Block
#MNEM.UNIT       Value        Description
#---------     -----------    ---------------------------
 AV  .mps                 0.40:  Ann Velocity 
 AVMX.mps                 0.63:  Max Ann Veloc 
 AZIF.deg               158.76:  Azm, Final 
 BHAT.        Rotary Steerable:  BHA Type 
 BROT.°/30m               0.68:  Build Rotating 
 BS  .in                  8.50:  Bit Size 
 BSZ .in                  8.50:  Bit Size 
 BTPL.psig              712.00:  Bit Press Loss 
 CABU.                      No:  Customer Abuse 
 COMM.                     ÄòJ:  Run Comments 1 
 TCS .hr                 90.66:  Time Ciculation Ended 
 CV  .mps                 2.02:  Crit Velocity 
 CVMX.mps                 2.14:  Max Crit Veloc 
 DD1 .            Aziz Aliyevu:  Direct Drillr 1 
 DD2 .             Samir Abbas:  Direct Drillr 2 
 DD3 .           Teymur Aliyev:  Direct Drillr 3 
 DDSV.                 iCruise:  DD Service 
 DEFF.%                  85.10:  % Det Eff 
 DLRX.°/30m               1.05:  Dogleg Rot Max 
 DLSO.°/30m               1.01:  Dogleg Oriented 
 DLSX.°/30m               1.05:  Dogleg Str Max 
 DRET.      07.45.00 18-Jul-21:  Drill End Time 
 DRST.      15.00.00 16-Jul-21:  Drill Start Tim 
 DTIM.hr                 23.46:  Time Drilling 
 EDEP.m                4603.00:  End Depth 
 ENG1.       Seymur Iskandarov:  Engineer 1 
 ENG2.         Yevgeniy Ulikov:  Engineer 2 
 ENG3.         Bahruz Mehdiyev:  Engineer 3 
 ENG4.         Elchin Mammadov:  Engineer 4 
 ETIM.      14.00.00 23-Jul-21:  End Time 
 FLOI.gpm               500.00:  Flow In 
 FLON.gpm               450.00:  Flow In Min 
 FLOS.cptm                0.00:  Fluid Loss 
 FLOX.gpm               560.00:  Flow In Max 
 DFT .        Mineral Oil Base:  Mud Type 
 FTRO.       Formation Presure:  FTWD Run Obj 
 HFLO.                      No:  High Flow 
 HPRE.                      No:  High Pressure 
 HTEM.                      No:  High Temp 
 HYDO.m                   1.80:  Hydro Offset 
 IFIN.deg                40.22:  Inc, Final 
 IMAX.deg                40.54:  Inc Max 
 IMIN.deg                39.44:  Inc Min 
 IMND.m                4361.17:  Inc Min Depth 
 IMXD.m                4417.92:  Inc Max Depth 
 JARR.                      No:  Jarring 
 LETM.      07.45.00 18-Jul-21:  Log End Time 
 LOST.hr                    16:  Lost Rig Time 
 LSTM.      15.00.00 16-Jul-21:  Log Start Time 
 MDCL.ppm             36500.00:  Mud Chlorides 
 MDES.     Inversion Oil/Synthetic:  Mud Desc 
 DFD .sg                  1.42:  Mud Density 
 MDMN.sg                  1.42:  Dens Mud Min 
 MDMX.sg                  1.43:  Dens Mud Max 
 MOIL.                      56:  Run Mud Oil % 
 MOWR.                   71:29:  Run Mud OWR 
 MSND.                     0.5:  Run Mud Sand % 
 MSOL.                      21:  Run Mud Solids% 
 DFV .spqt               78.00:  Mud Viscosity 
 MWOD.in                  6.75:  MWD Tool OD 
 MWSI.                     Yes:  Serv Intrp, MWD 
 OTIM.hr                200.73:  Time Operating 
 PCON.           Look Like New:  Pad Condition 
 PMAX.psia            11069.93:  Press Op, Max 
 PV  .cP                 32.00:  Mud PV 
 RUN .                     700:  Run Number 
 ROPA.m/hr               10.00:  ROP Avg 
 ROPN.m/hr                9.00:  ROP Min 
 ROPX.m/hr               16.00:  ROP Max 
 RPMA.rpm               116.00:  RPM Surface Avg 
 RPMN.rpm                80.00:  RPM Surface Min 
 RPMX.rpm               120.00:  RPM Surface Max 
 RRUN.                    L605:  Rig Run Number 
 RTIM.hr                 45.00:  Time Reaming 
 SAZI.deg               159.86:  Azm, Start 
 SDEP.m                4315.00:  Start Depth 
 SIDD.                      No:  Serv Intrp, DD 
 SINC.deg                39.86:  Inc, Start 
 SPPA.psig             3300.00:  SPP Avg 
 SPPN.psig             3040.00:  SPP Min 
 SPPX.psig             3645.00:  SPP Max 
 STIM.      01.00.00 15-Jul-21:  Start Time 
 SVCS.                 DD, MWD:  Services 
 SVER.                    9.20:  Sperry Version 
 TDAT.m                 288.00:  Tot Depth Attmp 
 TDDF.                      No:  Trip for DD 
 TDLG.m                 288.00:  Tot Depth Loggd 
 TFF .                      No:  Trip for Fail 
 TQAA.f-kp               19.00:  Torque Abs Avg 
 TQAN.f-kp               18.00:  Torque Abs Min 
 TQAX.f-kp               21.00:  Torque Abs Max 
 TRRT.°/30m               0.45:  Turn Rotating 
 MRT .                    HCIM:  Maximum Recorded Temperature 
 TTMX.degC               88.24:  Max Tool Temp 
 VS01.                90649157:  Virtual Str1 SN 
 VS02.                90652483:  Virtual Str2 SN 
 VS03.                11671987:  Virtual Str3 SN 
 VS04.                90643411:  Virtual Str4 SN 
 VS05.                90652478:  Virtual Str5 SN 
 VS06.                    6111:  Virtual Str6 SN 
 WBMN.klb                 9.50:  WOB Min 
 WITN.        Grigoriy Sarayev:  Customer Rep 
 WITN.          Rufat Huseynov:  Customer Rep 2 
 WOBA.klb                11.00:  WOB Avg 
 WOBX.klb                15.00:  WOB Max 
 YP  .lhf2               28.00:  Yield Point 
~Curve Information Block
#MNEM.UNIT                 API CODE     Curve Description
#---------               -----------    ---------------------------
 TIME.HHMMSS            00 000 000 000:  GT Time & Date
 GTDEPTH.m              00 000 000 000:  GT Depth
 GTPQH.psia             00 000 000 000:  GT HR Quartz Pressure
 GTTQ.degC              00 000 000 000:  GT Quartz Temperature
 GTTN.NONE              00 000 000 000:  GT Test Number
 GTET.sec               00 000 000 000:  GT Elapsed Test Time
 GTTVD.m                00 000 000 000:  GT True Vertical Depth
#Other Information
#
#WARRANTY: Halliburton will use its best efforts to furnish customers with 
#accurate information and interpretations that are part of, and incident to, the services 
#provided.  However, Halliburton cannot and does not warrant the accuracy 
#or correctness of such information and interpretations.  Under no circumstances should any 
#such information or interpretation be relied upon as the sole basis for any drilling, 
#completion, production, or financial decision or any procedure involving any risk to the 
#safety of any drilling venture, drilling rig or its crew or any other third party.  The 
#Customer has full responsibility for all drilling, completion and production operation.  
#Halliburton makes no representations or warranties, either expressed or 
#implied, including, but not limited to, the implied warranties of merchantability or fitness 
#for a particular purpose, with respect to the services rendered.  In no event will 
#Halliburton be liable for failure to obtain any particular results or for 
#any damages, including, but not limited to, indirect, special or consequential damages, 
#resulting from the use of any information or interpretation provided by Halliburton.
#
~A           TIME           GTDEPTH  GTPQH  GTTQ  GTTN   GTET   GTTVD  
# ...
   10:41:28.746.19-Jul-2021 4492.50 6515.61 70.61 23.00  22.61 2694.52
   10:41:28.946.19-Jul-2021 4492.50 6508.27 70.61 23.00  22.81 2694.52
   10:41:29.146.19-Jul-2021 4492.50 6509.81 70.61 23.00  23.01 2694.52
   10:41:29.347.19-Jul-2021 4492.50 6509.81 70.61 23.00  23.21 2694.52
   10:41:29.547.19-Jul-2021 4492.50 6507.75 70.61 23.00  23.41 2694.52
   10:41:29.747.19-Jul-2021 4492.50 6507.32 70.61 23.00  23.61 2694.52
   10:41:29.947.19-Jul-2021 4492.50 6507.68 70.61 23.00  23.81 2694.52
   10:41:30.147.19-Jul-2021 4492.50 6506.98 70.61 23.00  24.01 2694.52
   10:41:30.347.19-Jul-2021 4492.50 6506.98 70.61 23.00  24.21 2694.52
   10:41:30.547.19-Jul-2021 4492.50 6506.05 70.61 23.00  24.41 2694.52
   10:41:30.747.19-Jul-2021 4492.50 6505.90 70.61 23.00  24.61 2694.52
   10:41:30.947.19-Jul-2021 4492.50 6505.96 70.61 23.00  24.81 2694.52
   10:41:31.147.19-Jul-2021 4492.50 6506.44 70.61 23.00  25.01 2694.52
   10:41:31.347.19-Jul-2021 4492.50 6506.44 70.61 23.00  25.21 2694.52
   10:41:31.547.19-Jul-2021 4492.50 6521.91 70.61 23.00  25.41 2694.52
   10:41:31.747.19-Jul-2021 4492.50 6507.55 70.61 23.00  25.61 2694.52
   10:41:31.948.19-Jul-2021 4492.50 6507.81 70.61 23.00  25.81 2694.52
   10:41:32.148.19-Jul-2021 4492.50 6508.06 70.61 23.00  26.01 2694.52
   10:41:32.348.19-Jul-2021 4492.50 6508.06 70.61 23.00  26.21 2694.52
   10:41:32.548.19-Jul-2021 4492.50 6506.52 70.61 23.00  26.41 2694.52
   10:41:32.748.19-Jul-2021 4492.50 6506.71 70.60 23.00  26.61 2694.52
   10:41:32.948.19-Jul-2021 4492.50 6506.73 70.61 23.00  26.81 2694.52
   10:41:33.148.19-Jul-2021 4492.50 6506.90 70.61 23.00  27.01 2694.52
   10:41:33.348.19-Jul-2021 4492.50 6506.90 70.61 23.00  27.21 2694.52
   10:41:33.548.19-Jul-2021 4492.50 6507.27 70.60 23.00  27.41 2694.52
   10:41:33.748.19-Jul-2021 4492.50 6508.60 70.60 23.00  27.61 2694.52
   10:41:33.948.19-Jul-2021 4492.50 6529.48 70.60 23.00  27.81 2694.52
   10:41:34.148.19-Jul-2021 4492.50 6510.71 70.60 23.00  28.01 2694.52
   10:41:34.348.19-Jul-2021 4492.50 6510.71 70.60 23.00  28.21 2694.52
   10:41:34.548.19-Jul-2021 4492.50 6526.67 70.60 23.00  28.41 2694.52
   10:41:34.749.19-Jul-2021 4492.50 6518.89 70.60 23.00  28.61 2694.52
   10:41:34.949.19-Jul-2021 4492.50 6512.06 70.60 23.00  28.81 2694.52
   10:41:35.149.19-Jul-2021 4492.50 6534.50 70.60 23.00  29.01 2694.52
   10:41:35.349.19-Jul-2021 4492.50 6534.50 70.60 23.00  29.21 2694.52
   10:41:35.549.19-Jul-2021 4492.50 6505.27 70.60 23.00  29.41 2694.52
   10:41:35.749.19-Jul-2021 4492.50 6509.12 70.60 23.00  29.61 2694.52
   10:41:35.949.19-Jul-2021 4492.50 6509.51 70.60 23.00  29.81 2694.52
   10:41:36.149.19-Jul-2021 4492.50 6529.67 70.60 23.00  30.01 2694.52
   10:41:36.349.19-Jul-2021 4492.50 6529.67 70.60 23.00  30.21 2694.52
   10:41:36.549.19-Jul-2021 4492.50 6519.76 70.60 23.00  30.41 2694.52
   10:41:36.749.19-Jul-2021 4492.50 6514.51 70.60 23.00  30.61 2694.52
   10:41:36.949.19-Jul-2021 4492.50 6506.40 70.60 23.00  30.81 2694.52
   10:41:37.149.19-Jul-2021 4492.50 6509.13 70.60 23.00  31.01 2694.52
   10:41:37.350.19-Jul-2021 4492.50 6509.13 70.60 23.00  31.21 2694.52
   10:41:37.550.19-Jul-2021 4492.50 6493.03 70.60 23.00  31.41 2694.52
   10:41:37.750.19-Jul-2021 4492.50 6472.81 70.60 23.00  31.61 2694.52
   10:41:37.950.19-Jul-2021 4492.50 6442.97 70.60 23.00  31.81 2694.52
   10:41:38.150.19-Jul-2021 4492.50 6408.83 70.60 23.00  32.01 2694.52
   10:41:38.350.19-Jul-2021 4492.50 6408.83 70.60 23.00  32.21 2694.52
   10:41:38.550.19-Jul-2021 4492.50 6370.99 70.60 23.00  32.41 2694.52
   10:41:38.750.19-Jul-2021 4492.50 6361.59 70.60 23.00  32.61 2694.52
   10:41:38.950.19-Jul-2021 4492.50 6358.33 70.60 23.00  32.81 2694.52
   10:41:39.150.19-Jul-2021 4492.50 6356.16 70.60 23.00  33.01 2694.52
   10:41:39.350.19-Jul-2021 4492.50 6356.16 70.60 23.00  33.21 2694.52
   10:41:39.550.19-Jul-2021 4492.50 6354.28 70.60 23.00  33.41 2694.52
   10:41:39.750.19-Jul-2021 4492.50 6353.19 70.60 23.00  33.61 2694.52
   10:41:39.950.19-Jul-2021 4492.50 6352.93 70.60 23.00  33.81 2694.52
   10:41:40.151.19-Jul-2021 4492.50 6354.34 70.60 23.00  34.01 2694.52
   10:41:40.351.19-Jul-2021 4492.50 6354.34 70.60 23.00  34.21 2694.52
   10:41:40.551.19-Jul-2021 4492.50 6348.95 70.60 23.00  34.41 2694.52
   10:41:40.751.19-Jul-2021 4492.50 6348.16 70.60 23.00  34.61 2694.52
   10:41:40.951.19-Jul-2021 4492.50 6348.12 70.60 23.00  34.81 2694.52
   10:41:41.151.19-Jul-2021 4492.50 6347.67 70.60 23.00  35.01 2694.52
   10:41:41.351.19-Jul-2021 4492.50 6347.67 70.60 23.00  35.21 2694.52
   10:41:41.551.19-Jul-2021 4492.50 6347.51 70.60 23.00  35.41 2694.52
   10:41:41.751.19-Jul-2021 4492.50 6347.26 70.60 23.00  35.61 2694.52
   10:41:41.951.19-Jul-2021 4492.50 6347.19 70.60 23.00  35.81 2694.52
   10:41:42.151.19-Jul-2021 4492.50 6347.27 70.60 23.00  36.01 2694.52
   10:41:42.351.19-Jul-2021 4492.50 6347.27 70.60 23.00  36.21 2694.52
   10:41:42.551.19-Jul-2021 4492.50 6346.44 70.60 23.00  36.41 2694.52
   10:41:42.751.19-Jul-2021 4492.50 6306.22 70.60 23.00  36.61 2694.52
   10:41:42.952.19-Jul-2021 4492.50 5597.68 70.60 23.00  36.81 2694.52
   10:41:43.152.19-Jul-2021 4492.50 4530.31 70.60 23.00  37.01 2694.52
   10:41:43.352.19-Jul-2021 4492.50 4530.31 70.60 23.00  37.21 2694.52
   10:41:43.552.19-Jul-2021 4492.50 3512.46 70.60 23.00  37.41 2694.52
   10:41:43.752.19-Jul-2021 4492.50 3512.49 70.60 23.00  37.61 2694.52
   10:41:43.952.19-Jul-2021 4492.50 3512.92 70.60 23.00  37.81 2694.52
   10:41:44.152.19-Jul-2021 4492.50 3507.79 70.60 23.00  38.01 2694.52
   10:41:44.352.19-Jul-2021 4492.50 3507.79 70.60 23.00  38.21 2694.52
   10:41:44.552.19-Jul-2021 4492.50 3508.09 70.59 23.00  38.41 2694.52
   10:41:44.752.19-Jul-2021 4492.50 3508.64 70.59 23.00  38.61 2694.52
   10:41:44.952.19-Jul-2021 4492.50 3508.75 70.59 23.00  38.81 2694.52
   10:41:45.152.19-Jul-2021 4492.50 3508.87 70.59 23.00  39.01 2694.52
   10:41:45.352.19-Jul-2021 4492.50 3508.87 70.59 23.00  39.21 2694.52
   10:41:45.553.19-Jul-2021 4492.50 3507.22 70.59 23.00  39.41 2694.52
   10:41:45.753.19-Jul-2021 4492.50 3506.67 70.58 23.00  39.61 2694.52
   10:41:45.953.19-Jul-2021 4492.50 3505.82 70.58 23.00  39.81 2694.52
   10:41:46.153.19-Jul-2021 4492.50 3505.97 70.58 23.00  40.01 2694.52
   10:41:46.353.19-Jul-2021 4492.50 3505.97 70.58 23.00  40.21 2694.52
   10:41:46.553.19-Jul-2021 4492.50 3505.13 70.58 23.00  40.41 2694.52
   10:41:46.753.19-Jul-2021 4492.50 3505.65 70.58 23.00  40.61 2694.52
   10:41:46.953.19-Jul-2021 4492.50 3504.94 70.57 23.00  40.82 2694.52
   10:41:47.153.19-Jul-2021 4492.50 3505.21 70.57 23.00  41.02 2694.52
   10:41:47.353.19-Jul-2021 4492.50 3505.21 70.57 23.00  41.22 2694.52
   10:41:47.553.19-Jul-2021 4492.50 3504.76 70.57 23.00  41.42 2694.52
   10:41:47.753.19-Jul-2021 4492.50 3504.52 70.57 23.00  41.62 2694.52
   10:41:47.953.19-Jul-2021 4492.50 3503.58 70.56 23.00  41.82 2694.52
   10:41:48.153.19-Jul-2021 4492.50 3505.28 70.56 23.00  42.02 2694.52
   10:41:48.354.19-Jul-2021 4492.50 3505.28 70.56 23.00  42.22 2694.52
   10:41:48.554.19-Jul-2021 4492.50 3502.80 70.56 23.00  42.42 2694.52
   10:41:48.754.19-Jul-2021 4492.50 3505.29 70.56 23.00  42.62 2694.52
   10:41:48.954.19-Jul-2021 4492.50 3503.99 70.56 23.00  42.82 2694.52
   10:41:49.154.19-Jul-2021 4492.50 3504.69 70.56 23.00  43.02 2694.52
   10:41:49.354.19-Jul-2021 4492.50 3504.69 70.56 23.00  43.22 2694.52
   10:41:49.554.19-Jul-2021 4492.50 3504.25 70.55 23.00  43.42 2694.52
   10:41:49.754.19-Jul-2021 4492.50 3504.33 70.55 23.00  43.62 2694.52
   10:41:49.954.19-Jul-2021 4492.50 3504.97 70.55 23.00  43.82 2694.52
   10:41:50.154.19-Jul-2021 4492.50 3504.95 70.55 23.00  44.02 2694.52
   10:41:50.354.19-Jul-2021 4492.50 3504.95 70.55 23.00  44.22 2694.52
   10:41:50.554.19-Jul-2021 4492.50 3504.53 70.55 23.00  44.42 2694.52
   10:41:50.754.19-Jul-2021 4492.50 3504.40 70.55 23.00  44.62 2694.52
   10:41:50.955.19-Jul-2021 4492.50 3504.58 70.54 23.00  44.82 2694.52
   10:41:51.155.19-Jul-2021 4492.50 3503.64 70.54 23.00  45.02 2694.52
