~Version Information
 VERS.                  2.0:   CWLS log ASCII Standard -VERSION 2.0
 WRAP.                   NO:   One line per depth step
~Well Information Block
#MNEM.UNIT     VALUE/NAME     DESCRIPTION
#---------     -----------    ---------------------------
 STRT.S             07:16:19 19-Jul-21: START TIME 07:16:19 19-Jul-21
 STOP.S             07:23:16 19-Jul-21: STOP TIME  07:23:16 19-Jul-21
 STEP.S                   0.00: STEP TIME
 NULL.                 -999.25: NULL VALUE
 MDS .        Operator Entered:  MAG DATA SOURCE
 PDAT.          Mean Sea Level:  PERMANENT DATUM
 UNIT.                     N/A:  LOGGING EQUIPMENT ID
 DCON.         Sperry Drilling:  DIRECTNL CONTR
 DOE .                     N/A:  DOE NUMBER
 RIG .              West Azeri:  RIG NAME
 JOBN.        AZ-XX-0906997913:  JOB TICKET NUMB
 WELL.                     C41:  WELL NAME
 MWDS.                    Baku:  MWD SHOP
 SRVC.          Turan Drilling:  CONTRACTOR
 FLD .                     ACG:  FIELD NAME
 CTRY.              Azerbaijan:  COUNTRY NAME
 PROV.                    Baku:  PROVINCE
 STAT.                    Baku:  STATE NAME
 REGN.                   EESSA:  REGION
 BASE.              Azerbaijan:  LOGGING EQUIPMENT BASE LOCATION
 UWI .                     N/A:  UNIQUE WELL IDENTIFIER
 API .                     N/A:  API NUMBER
 COMP.     BP Exploration (Caspian Sea) Ltd.:  COMPANY
 WTYP.                Deviated:  WELL TYPE
 SON .        AZ-XX-0906997913:  JOB NUMBER
 FTOP.          Formation Tops:  FORM TOPS DESC
 ILTD.               Lithology:  INTERP LTH DESC
 SVYD.                  Survey:  SURVEY DESC
 DMOD.             Drill Model:  DRILL MOD DESC
 HPTY.       Minimum Curvature:  HOLE POS TYPE
 NREF.                    Grid:  NORTH REFERENCE
 SPUD.               16-May-21:  SPUD DATE
 DATE.      21.11.28 17-May-21:  END TIME
 STIM.      21.11.28 17-May-21:  START TIME
 DMF .             Drill Floor:  DRILL MEAS FROM
 DFST.                        :  DIST FSL TEXT
 DFWT.                        :  DIST FWL TEXT
 CNTY.                        :  COUNTY
 LOC .                        :  LOCATION
 LMF .             Drill Floor:  LOG MEASURED FROM
 AGAP.m                  43.42:  AIR GAP
 VSNS.m                  -2.16:  VERT SEC N/S
 VSEW.m                  -6.24:  VERT SEC E/W
 APD .m                  43.42:  DEPTH ABOVE PD
 WDMS.m                 118.27:  WD ELEV
 EGL .m                   0.00:  GROUND ELEVATION
 EPD .m                   0.00:  ELEVATION
 AZTC.deg                 6.29:  AZM TOTAL CORR
 GRDC.deg                 0.18:  GRID CORRECTION
 MDEC.deg                 6.47:  MAGNETIC DECL
 MDIP.deg                59.54:  MAGNETIC DIP
 MFLD.nT              50337.00:  MAGNETIC FIELD
 GVFD.g                   1.00:  GRAVITY FIELD
 VSDR.deg               226.99:  VERT SEC DIRECT
 TDD .m                   0.00:  TOTAL DEPTH (DRILLER)
 SDEP.m                 448.00:  START DEPTH
 DFSL.m                   0.00:  DISTANCE FSL
 DFWL.m                   0.00:  DISTANCE FWL
 UTMY.m             4435799.96:  UTM Y
 UTMX.m              526265.35:  UTM X
 WHEW.m                  -6.24:  WELL HEAD E/W
 WHNS.m                  -2.16:  WELL HEAD N/S
 LONG.deg                51.31:  LONGITUDE
 LATI.deg                40.06:  LATITUDE
 TVDS.m                  43.42:  TVDSS CORRECTN
 EKB .m                  43.42:  KB ELEVATION
 EDF .m                  43.42:  DF ELEVATION
 TDL .m                 288.00:  TOTAL DEPTH (LOGGER)
 MAGU.                 1851863:  MAGUTM CHECKSUM
 VSC .                       0:  VS TO CLOSURE
~Parameter Information Block
#MNEM.UNIT       Value        Description
#---------     -----------    ---------------------------
 AV  .mps                 0.40:  Ann Velocity 
 AVMX.mps                 0.63:  Max Ann Veloc 
 AZIF.deg               158.76:  Azm, Final 
 BHAT.        Rotary Steerable:  BHA Type 
 BROT.°/30m               0.68:  Build Rotating 
 BS  .in                  8.50:  Bit Size 
 BSZ .in                  8.50:  Bit Size 
 BTPL.psig              712.00:  Bit Press Loss 
 CABU.                      No:  Customer Abuse 
 COMM.                     ôK:  Run Comments 1 
 TCS .hr                 90.66:  Time Ciculation Ended 
 CV  .mps                 2.02:  Crit Velocity 
 CVMX.mps                 2.14:  Max Crit Veloc 
 DD1 .            Aziz Aliyevu:  Direct Drillr 1 
 DD2 .             Samir Abbas:  Direct Drillr 2 
 DD3 .           Teymur Aliyev:  Direct Drillr 3 
 DDSV.                 iCruise:  DD Service 
 DEFF.%                  85.10:  % Det Eff 
 DLRX.°/30m               1.05:  Dogleg Rot Max 
 DLSO.°/30m               1.01:  Dogleg Oriented 
 DLSX.°/30m               1.05:  Dogleg Str Max 
 DRET.      07.45.00 18-Jul-21:  Drill End Time 
 DRST.      15.00.00 16-Jul-21:  Drill Start Tim 
 DTIM.hr                 23.46:  Time Drilling 
 EDEP.m                4603.00:  End Depth 
 ENG1.       Seymur Iskandarov:  Engineer 1 
 ENG2.         Yevgeniy Ulikov:  Engineer 2 
 ENG3.         Bahruz Mehdiyev:  Engineer 3 
 ENG4.         Elchin Mammadov:  Engineer 4 
 ETIM.      14.00.00 23-Jul-21:  End Time 
 FLOI.gpm               500.00:  Flow In 
 FLON.gpm               450.00:  Flow In Min 
 FLOS.cptm                0.00:  Fluid Loss 
 FLOX.gpm               560.00:  Flow In Max 
 DFT .        Mineral Oil Base:  Mud Type 
 FTRO.       Formation Presure:  FTWD Run Obj 
 HFLO.                      No:  High Flow 
 HPRE.                      No:  High Pressure 
 HTEM.                      No:  High Temp 
 HYDO.m                   1.80:  Hydro Offset 
 IFIN.deg                40.22:  Inc, Final 
 IMAX.deg                40.54:  Inc Max 
 IMIN.deg                39.44:  Inc Min 
 IMND.m                4361.17:  Inc Min Depth 
 IMXD.m                4417.92:  Inc Max Depth 
 JARR.                      No:  Jarring 
 LETM.      07.45.00 18-Jul-21:  Log End Time 
 LOST.hr                    16:  Lost Rig Time 
 LSTM.      15.00.00 16-Jul-21:  Log Start Time 
 MDCL.ppm             36500.00:  Mud Chlorides 
 MDES.     Inversion Oil/Synthetic:  Mud Desc 
 DFD .sg                  1.42:  Mud Density 
 MDMN.sg                  1.42:  Dens Mud Min 
 MDMX.sg                  1.43:  Dens Mud Max 
 MOIL.                      56:  Run Mud Oil % 
 MOWR.                   71:29:  Run Mud OWR 
 MSND.                     0.5:  Run Mud Sand % 
 MSOL.                      21:  Run Mud Solids% 
 DFV .spqt               78.00:  Mud Viscosity 
 MWOD.in                  6.75:  MWD Tool OD 
 MWSI.                     Yes:  Serv Intrp, MWD 
 OTIM.hr                200.73:  Time Operating 
 PCON.           Look Like New:  Pad Condition 
 PMAX.psia            11069.93:  Press Op, Max 
 PV  .cP                 32.00:  Mud PV 
 RUN .                     700:  Run Number 
 ROPA.m/hr               10.00:  ROP Avg 
 ROPN.m/hr                9.00:  ROP Min 
 ROPX.m/hr               16.00:  ROP Max 
 RPMA.rpm               116.00:  RPM Surface Avg 
 RPMN.rpm                80.00:  RPM Surface Min 
 RPMX.rpm               120.00:  RPM Surface Max 
 RRUN.                    L605:  Rig Run Number 
 RTIM.hr                 45.00:  Time Reaming 
 SAZI.deg               159.86:  Azm, Start 
 SDEP.m                4315.00:  Start Depth 
 SIDD.                      No:  Serv Intrp, DD 
 SINC.deg                39.86:  Inc, Start 
 SPPA.psig             3300.00:  SPP Avg 
 SPPN.psig             3040.00:  SPP Min 
 SPPX.psig             3645.00:  SPP Max 
 STIM.      01.00.00 15-Jul-21:  Start Time 
 SVCS.                 DD, MWD:  Services 
 SVER.                    9.20:  Sperry Version 
 TDAT.m                 288.00:  Tot Depth Attmp 
 TDDF.                      No:  Trip for DD 
 TDLG.m                 288.00:  Tot Depth Loggd 
 TFF .                      No:  Trip for Fail 
 TQAA.f-kp               19.00:  Torque Abs Avg 
 TQAN.f-kp               18.00:  Torque Abs Min 
 TQAX.f-kp               21.00:  Torque Abs Max 
 TRRT.°/30m               0.45:  Turn Rotating 
 MRT .                    HCIM:  Maximum Recorded Temperature 
 TTMX.degC               88.24:  Max Tool Temp 
 VS01.                90649157:  Virtual Str1 SN 
 VS02.                90652483:  Virtual Str2 SN 
 VS03.                11671987:  Virtual Str3 SN 
 VS04.                90643411:  Virtual Str4 SN 
 VS05.                90652478:  Virtual Str5 SN 
 VS06.                    6111:  Virtual Str6 SN 
 WBMN.klb                 9.50:  WOB Min 
 WITN.        Grigoriy Sarayev:  Customer Rep 
 WITN.          Rufat Huseynov:  Customer Rep 2 
 WOBA.klb                11.00:  WOB Avg 
 WOBX.klb                15.00:  WOB Max 
 YP  .lhf2               28.00:  Yield Point 
~Curve Information Block
#MNEM.UNIT                 API CODE     Curve Description
#---------               -----------    ---------------------------
 TIME.HHMMSS            00 000 000 000:  GT Time & Date
 GTDEPTH.m              00 000 000 000:  GT Depth
 GTPQH.psia             00 000 000 000:  GT HR Quartz Pressure
 GTTQ.degC              00 000 000 000:  GT Quartz Temperature
 GTTN.NONE              00 000 000 000:  GT Test Number
 GTET.sec               00 000 000 000:  GT Elapsed Test Time
 GTTVD.m                00 000 000 000:  GT True Vertical Depth
#Other Information
#
#WARRANTY: Halliburton will use its best efforts to furnish customers with 
#accurate information and interpretations that are part of, and incident to, the services 
#provided.  However, Halliburton cannot and does not warrant the accuracy 
#or correctness of such information and interpretations.  Under no circumstances should any 
#such information or interpretation be relied upon as the sole basis for any drilling, 
#completion, production, or financial decision or any procedure involving any risk to the 
#safety of any drilling venture, drilling rig or its crew or any other third party.  The 
#Customer has full responsibility for all drilling, completion and production operation.  
#Halliburton makes no representations or warranties, either expressed or 
#implied, including, but not limited to, the implied warranties of merchantability or fitness 
#for a particular purpose, with respect to the services rendered.  In no event will 
#Halliburton be liable for failure to obtain any particular results or for 
#any damages, including, but not limited to, indirect, special or consequential damages, 
#resulting from the use of any information or interpretation provided by Halliburton.
#
~A           TIME           GTDEPTH  GTPQH  GTTQ  GTTN   GTET   GTTVD  
# ...
   07:20:28.306.19-Jul-2021 4406.50 4331.00 69.78 15.00 248.69 2628.90
   07:20:28.506.19-Jul-2021 4406.50 4331.01 69.78 15.00 248.89 2628.90
   07:20:28.706.19-Jul-2021 4406.50 4331.05 69.78 15.00 249.09 2628.90
   07:20:28.906.19-Jul-2021 4406.50 4331.05 69.78 15.00 249.29 2628.90
   07:20:29.106.19-Jul-2021 4406.50 4330.92 69.78 15.00 249.49 2628.90
   07:20:29.306.19-Jul-2021 4406.50 4331.41 69.78 15.00 249.69 2628.90
   07:20:29.506.19-Jul-2021 4406.50 4330.89 69.78 15.00 249.89 2628.90
   07:20:29.706.19-Jul-2021 4406.50 4330.86 69.78 15.00 250.09 2628.90
   07:20:29.906.19-Jul-2021 4406.50 4330.86 69.78 15.00 250.29 2628.90
   07:20:30.106.19-Jul-2021 4406.50 4330.17 69.78 15.00 250.49 2628.90
   07:20:30.306.19-Jul-2021 4406.50 4331.13 69.78 15.00 250.69 2628.90
   07:20:30.506.19-Jul-2021 4406.50 4330.94 69.78 15.00 250.89 2628.90
   07:20:30.706.19-Jul-2021 4406.50 4330.91 69.78 15.00 251.09 2628.90
   07:20:30.907.19-Jul-2021 4406.50 4330.91 69.78 15.00 251.29 2628.90
   07:20:31.107.19-Jul-2021 4406.50 4331.28 69.78 15.00 251.49 2628.90
   07:20:31.307.19-Jul-2021 4406.50 4330.94 69.78 15.00 251.69 2628.90
   07:20:31.507.19-Jul-2021 4406.50 4331.26 69.78 15.00 251.89 2628.90
   07:20:31.707.19-Jul-2021 4406.50 4330.71 69.78 15.00 252.09 2628.90
   07:20:31.907.19-Jul-2021 4406.50 4330.71 69.78 15.00 252.29 2628.90
   07:20:32.107.19-Jul-2021 4406.50 4331.23 69.78 15.00 252.49 2628.90
   07:20:32.307.19-Jul-2021 4406.50 4331.38 69.78 15.00 252.69 2628.90
   07:20:32.507.19-Jul-2021 4406.50 4275.63 69.78 15.00 252.89 2628.90
   07:20:32.707.19-Jul-2021 4406.50 4212.64 69.78 15.00 253.09 2628.90
   07:20:32.907.19-Jul-2021 4406.50 4212.64 69.78 15.00 253.29 2628.90
   07:20:33.107.19-Jul-2021 4406.50 4204.16 69.78 15.00 253.49 2628.90
   07:20:33.307.19-Jul-2021 4406.50 4204.47 69.78 15.00 253.69 2628.90
   07:20:33.507.19-Jul-2021 4406.50 4202.57 69.78 15.00 253.89 2628.90
   07:20:33.708.19-Jul-2021 4406.50 4202.81 69.78 15.00 254.09 2628.90
   07:20:33.908.19-Jul-2021 4406.50 4202.81 69.78 15.00 254.29 2628.90
   07:20:34.108.19-Jul-2021 4406.50 4202.82 69.78 15.00 254.49 2628.90
   07:20:34.308.19-Jul-2021 4406.50 4200.67 69.78 15.00 254.69 2628.90
   07:20:34.508.19-Jul-2021 4406.50 4201.06 69.78 15.00 254.89 2628.90
   07:20:34.708.19-Jul-2021 4406.50 4200.54 69.78 15.00 255.09 2628.90
   07:20:34.908.19-Jul-2021 4406.50 4200.54 69.78 15.00 255.29 2628.90
   07:20:35.108.19-Jul-2021 4406.50 4203.40 69.78 15.00 255.49 2628.90
   07:20:35.308.19-Jul-2021 4406.50 4196.71 69.78 15.00 255.69 2628.90
   07:20:35.508.19-Jul-2021 4406.50 4201.33 69.78 15.00 255.89 2628.90
   07:20:35.708.19-Jul-2021 4406.50 4202.12 69.78 15.00 256.09 2628.90
   07:20:35.908.19-Jul-2021 4406.50 4202.12 69.78 15.00 256.29 2628.90
   07:20:36.108.19-Jul-2021 4406.50 4200.88 69.78 15.00 256.49 2628.90
   07:20:36.309.19-Jul-2021 4406.50 4199.07 69.78 15.00 256.69 2628.90
   07:20:36.509.19-Jul-2021 4406.50 4200.05 69.78 15.00 256.89 2628.90
   07:20:36.709.19-Jul-2021 4406.50 4198.92 69.78 15.00 257.09 2628.90
   07:20:36.909.19-Jul-2021 4406.50 4198.92 69.78 15.00 257.29 2628.90
   07:20:37.109.19-Jul-2021 4406.50 4198.91 69.78 15.00 257.49 2628.90
   07:20:37.309.19-Jul-2021 4406.50 4204.41 69.78 15.00 257.69 2628.90
   07:20:37.509.19-Jul-2021 4406.50 4199.87 69.78 15.00 257.89 2628.90
   07:20:37.709.19-Jul-2021 4406.50 4202.44 69.78 15.00 258.10 2628.90
   07:20:37.909.19-Jul-2021 4406.50 4202.44 69.78 15.00 258.30 2628.90
   07:20:38.109.19-Jul-2021 4406.50 4197.79 69.78 15.00 258.50 2628.90
   07:20:38.309.19-Jul-2021 4406.50 4202.95 69.78 15.00 258.70 2628.90
   07:20:38.509.19-Jul-2021 4406.50 4195.44 69.78 15.00 258.90 2628.90
   07:20:38.709.19-Jul-2021 4406.50 4200.91 69.78 15.00 259.10 2628.90
   07:20:38.909.19-Jul-2021 4406.50 4200.91 69.78 15.00 259.30 2628.90
   07:20:39.110.19-Jul-2021 4406.50 4197.11 69.78 15.00 259.50 2628.90
   07:20:39.310.19-Jul-2021 4406.50 4199.62 69.78 15.00 259.70 2628.90
   07:20:39.510.19-Jul-2021 4406.50 4196.22 69.78 15.00 259.90 2628.90
   07:20:39.710.19-Jul-2021 4406.50 4199.44 69.78 15.00 260.10 2628.90
   07:20:39.910.19-Jul-2021 4406.50 4199.44 69.78 15.00 260.30 2628.90
   07:20:40.110.19-Jul-2021 4406.50 4201.05 69.78 15.00 260.50 2628.90
   07:20:40.310.19-Jul-2021 4406.50 4199.72 69.78 15.00 260.70 2628.90
   07:20:40.510.19-Jul-2021 4406.50 4197.57 69.78 15.00 260.90 2628.90
   07:20:40.710.19-Jul-2021 4406.50 4203.90 69.78 15.00 261.10 2628.90
   07:20:40.910.19-Jul-2021 4406.50 4203.90 69.78 15.00 261.30 2628.90
   07:20:41.110.19-Jul-2021 4406.50 4198.14 69.78 15.00 261.50 2628.90
   07:20:41.310.19-Jul-2021 4406.50 4201.32 69.78 15.00 261.70 2628.90
   07:20:41.510.19-Jul-2021 4406.50 4200.59 69.78 15.00 261.90 2628.90
   07:20:41.710.19-Jul-2021 4406.50 4200.87 69.78 15.00 262.10 2628.90
   07:20:41.911.19-Jul-2021 4406.50 4200.87 69.78 15.00 262.30 2628.90
   07:20:42.111.19-Jul-2021 4406.50 4198.99 69.78 15.00 262.50 2628.90
   07:20:42.311.19-Jul-2021 4406.50 4197.57 69.78 15.00 262.70 2628.90
   07:20:42.511.19-Jul-2021 4406.50 4210.27 69.78 15.00 262.90 2628.90
   07:20:42.711.19-Jul-2021 4406.50 4311.92 69.78 15.00 263.10 2628.90
   07:20:42.911.19-Jul-2021 4406.50 4311.92 69.78 15.00 263.30 2628.90
   07:20:43.111.19-Jul-2021 4406.50 4329.17 69.78 15.00 263.50 2628.90
   07:20:43.311.19-Jul-2021 4406.50 4329.27 69.78 15.00 263.70 2628.90
   07:20:43.511.19-Jul-2021 4406.50 4330.38 69.78 15.00 263.90 2628.90
   07:20:43.711.19-Jul-2021 4406.50 4329.80 69.78 15.00 264.10 2628.90
   07:20:43.911.19-Jul-2021 4406.50 4329.80 69.78 15.00 264.30 2628.90
   07:20:44.111.19-Jul-2021 4406.50 4329.89 69.78 15.00 264.50 2628.90
   07:20:44.311.19-Jul-2021 4406.50 4329.99 69.78 15.00 264.70 2628.90
   07:20:44.512.19-Jul-2021 4406.50 4330.21 69.78 15.00 264.90 2628.90
   07:20:44.712.19-Jul-2021 4406.50 4330.15 69.78 15.00 265.10 2628.90
   07:20:44.912.19-Jul-2021 4406.50 4330.15 69.78 15.00 265.30 2628.90
   07:20:45.112.19-Jul-2021 4406.50 4330.25 69.78 15.00 265.50 2628.90
   07:20:45.312.19-Jul-2021 4406.50 4330.24 69.78 15.00 265.70 2628.90
   07:20:45.512.19-Jul-2021 4406.50 4330.34 69.78 15.00 265.90 2628.90
   07:20:45.712.19-Jul-2021 4406.50 4330.28 69.78 15.00 266.10 2628.90
   07:20:45.912.19-Jul-2021 4406.50 4330.28 69.78 15.00 266.30 2628.90
   07:20:46.112.19-Jul-2021 4406.50 4330.71 69.78 15.00 266.50 2628.90
   07:20:46.312.19-Jul-2021 4406.50 4330.35 69.78 15.00 266.70 2628.90
   07:20:46.512.19-Jul-2021 4406.50 4330.47 69.78 15.00 266.90 2628.90
   07:20:46.712.19-Jul-2021 4406.50 4331.23 69.78 15.00 267.10 2628.90
   07:20:46.912.19-Jul-2021 4406.50 4331.23 69.78 15.00 267.30 2628.90
   07:20:47.112.19-Jul-2021 4406.50 4330.77 69.78 15.00 267.50 2628.90
   07:20:47.313.19-Jul-2021 4406.50 4330.49 69.78 15.00 267.70 2628.90
   07:20:47.513.19-Jul-2021 4406.50 4331.16 69.78 15.00 267.90 2628.90
   07:20:47.713.19-Jul-2021 4406.50 4330.10 69.78 15.00 268.10 2628.90
   07:20:47.913.19-Jul-2021 4406.50 4330.10 69.78 15.00 268.30 2628.90
   07:20:48.113.19-Jul-2021 4406.50 4330.67 69.78 15.00 268.50 2628.90
   07:20:48.313.19-Jul-2021 4406.50 4331.07 69.78 15.00 268.70 2628.90
   07:20:48.513.19-Jul-2021 4406.50 4330.48 69.78 15.00 268.90 2628.90
   07:20:48.713.19-Jul-2021 4406.50 4330.62 69.78 15.00 269.10 2628.90
   07:20:48.913.19-Jul-2021 4406.50 4330.62 69.78 15.00 269.30 2628.90
   07:20:49.113.19-Jul-2021 4406.50 4330.25 69.78 15.00 269.50 2628.90
   07:20:49.313.19-Jul-2021 4406.50 4330.67 69.78 15.00 269.70 2628.90
   07:20:49.513.19-Jul-2021 4406.50 4330.75 69.78 15.00 269.90 2628.90
   07:20:49.713.19-Jul-2021 4406.50 4330.59 69.78 15.00 270.10 2628.90
   07:20:49.914.19-Jul-2021 4406.50 4330.59 69.78 15.00 270.30 2628.90
   07:20:50.114.19-Jul-2021 4406.50 4330.70 69.78 15.00 270.50 2628.90
   07:20:50.314.19-Jul-2021 4406.50 4330.72 69.78 15.00 270.70 2628.90
   07:20:50.514.19-Jul-2021 4406.50 4330.75 69.78 15.00 270.90 2628.90
   07:20:50.714.19-Jul-2021 4406.50 4330.72 69.78 15.00 271.10 2628.90
