~Version Information
 VERS.                  2.0:   CWLS log ASCII Standard -VERSION 2.0
 WRAP.                   NO:   One line per depth step
~Well Information Block
#MNEM.UNIT     VALUE/NAME     DESCRIPTION
#---------     -----------    ---------------------------
 STRT.S             17:59:38 18-Jul-21: START TIME 17:59:38 18-Jul-21
 STOP.S             18:06:07 18-Jul-21: STOP TIME  18:06:07 18-Jul-21
 STEP.S                   0.00: STEP TIME
 NULL.                 -999.25: NULL VALUE
 MDS .        Operator Entered:  MAG DATA SOURCE
 PDAT.          Mean Sea Level:  PERMANENT DATUM
 UNIT.                     N/A:  LOGGING EQUIPMENT ID
 DCON.         Sperry Drilling:  DIRECTNL CONTR
 DOE .                     N/A:  DOE NUMBER
 RIG .              West Azeri:  RIG NAME
 JOBN.        AZ-XX-0906997913:  JOB TICKET NUMB
 WELL.                     C41:  WELL NAME
 MWDS.                    Baku:  MWD SHOP
 SRVC.          Turan Drilling:  CONTRACTOR
 FLD .                     ACG:  FIELD NAME
 CTRY.              Azerbaijan:  COUNTRY NAME
 PROV.                    Baku:  PROVINCE
 STAT.                    Baku:  STATE NAME
 REGN.                   EESSA:  REGION
 BASE.              Azerbaijan:  LOGGING EQUIPMENT BASE LOCATION
 UWI .                     N/A:  UNIQUE WELL IDENTIFIER
 API .                     N/A:  API NUMBER
 COMP.     BP Exploration (Caspian Sea) Ltd.:  COMPANY
 WTYP.                Deviated:  WELL TYPE
 SON .        AZ-XX-0906997913:  JOB NUMBER
 FTOP.          Formation Tops:  FORM TOPS DESC
 ILTD.               Lithology:  INTERP LTH DESC
 SVYD.                  Survey:  SURVEY DESC
 DMOD.             Drill Model:  DRILL MOD DESC
 HPTY.       Minimum Curvature:  HOLE POS TYPE
 NREF.                    Grid:  NORTH REFERENCE
 SPUD.               16-May-21:  SPUD DATE
 DATE.      21.11.28 17-May-21:  END TIME
 STIM.      21.11.28 17-May-21:  START TIME
 DMF .             Drill Floor:  DRILL MEAS FROM
 DFST.                        :  DIST FSL TEXT
 DFWT.                        :  DIST FWL TEXT
 CNTY.                        :  COUNTY
 LOC .                        :  LOCATION
 LMF .             Drill Floor:  LOG MEASURED FROM
 AGAP.m                  43.42:  AIR GAP
 VSNS.m                  -2.16:  VERT SEC N/S
 VSEW.m                  -6.24:  VERT SEC E/W
 APD .m                  43.42:  DEPTH ABOVE PD
 WDMS.m                 118.27:  WD ELEV
 EGL .m                   0.00:  GROUND ELEVATION
 EPD .m                   0.00:  ELEVATION
 AZTC.deg                 6.29:  AZM TOTAL CORR
 GRDC.deg                 0.18:  GRID CORRECTION
 MDEC.deg                 6.47:  MAGNETIC DECL
 MDIP.deg                59.54:  MAGNETIC DIP
 MFLD.nT              50337.00:  MAGNETIC FIELD
 GVFD.g                   1.00:  GRAVITY FIELD
 VSDR.deg               226.99:  VERT SEC DIRECT
 TDD .m                   0.00:  TOTAL DEPTH (DRILLER)
 SDEP.m                 448.00:  START DEPTH
 DFSL.m                   0.00:  DISTANCE FSL
 DFWL.m                   0.00:  DISTANCE FWL
 UTMY.m             4435799.96:  UTM Y
 UTMX.m              526265.35:  UTM X
 WHEW.m                  -6.24:  WELL HEAD E/W
 WHNS.m                  -2.16:  WELL HEAD N/S
 LONG.deg                51.31:  LONGITUDE
 LATI.deg                40.06:  LATITUDE
 TVDS.m                  43.42:  TVDSS CORRECTN
 EKB .m                  43.42:  KB ELEVATION
 EDF .m                  43.42:  DF ELEVATION
 TDL .m                 288.00:  TOTAL DEPTH (LOGGER)
 MAGU.                 1851863:  MAGUTM CHECKSUM
 VSC .                       0:  VS TO CLOSURE
~Parameter Information Block
#MNEM.UNIT       Value        Description
#---------     -----------    ---------------------------
 AV  .mps                 0.40:  Ann Velocity 
 AVMX.mps                 0.63:  Max Ann Veloc 
 AZIF.deg               158.76:  Azm, Final 
 BHAT.        Rotary Steerable:  BHA Type 
 BROT.°/30m               0.68:  Build Rotating 
 BS  .in                  8.50:  Bit Size 
 BSZ .in                  8.50:  Bit Size 
 BTPL.psig              712.00:  Bit Press Loss 
 CABU.                      No:  Customer Abuse 
 COMM.                     Ä"ƒ:  Run Comments 1 
 TCS .hr                 90.66:  Time Ciculation Ended 
 CV  .mps                 2.02:  Crit Velocity 
 CVMX.mps                 2.14:  Max Crit Veloc 
 DD1 .            Aziz Aliyevu:  Direct Drillr 1 
 DD2 .             Samir Abbas:  Direct Drillr 2 
 DD3 .           Teymur Aliyev:  Direct Drillr 3 
 DDSV.                 iCruise:  DD Service 
 DEFF.%                  85.10:  % Det Eff 
 DLRX.°/30m               1.05:  Dogleg Rot Max 
 DLSO.°/30m               1.01:  Dogleg Oriented 
 DLSX.°/30m               1.05:  Dogleg Str Max 
 DRET.      07.45.00 18-Jul-21:  Drill End Time 
 DRST.      15.00.00 16-Jul-21:  Drill Start Tim 
 DTIM.hr                 23.46:  Time Drilling 
 EDEP.m                4603.00:  End Depth 
 ENG1.       Seymur Iskandarov:  Engineer 1 
 ENG2.         Yevgeniy Ulikov:  Engineer 2 
 ENG3.         Bahruz Mehdiyev:  Engineer 3 
 ENG4.         Elchin Mammadov:  Engineer 4 
 ETIM.      14.00.00 23-Jul-21:  End Time 
 FLOI.gpm               500.00:  Flow In 
 FLON.gpm               450.00:  Flow In Min 
 FLOS.cptm                0.00:  Fluid Loss 
 FLOX.gpm               560.00:  Flow In Max 
 DFT .        Mineral Oil Base:  Mud Type 
 FTRO.       Formation Presure:  FTWD Run Obj 
 HFLO.                      No:  High Flow 
 HPRE.                      No:  High Pressure 
 HTEM.                      No:  High Temp 
 HYDO.m                   1.80:  Hydro Offset 
 IFIN.deg                40.22:  Inc, Final 
 IMAX.deg                40.54:  Inc Max 
 IMIN.deg                39.44:  Inc Min 
 IMND.m                4361.17:  Inc Min Depth 
 IMXD.m                4417.92:  Inc Max Depth 
 JARR.                      No:  Jarring 
 LETM.      07.45.00 18-Jul-21:  Log End Time 
 LOST.hr                    16:  Lost Rig Time 
 LSTM.      15.00.00 16-Jul-21:  Log Start Time 
 MDCL.ppm             36500.00:  Mud Chlorides 
 MDES.     Inversion Oil/Synthetic:  Mud Desc 
 DFD .sg                  1.42:  Mud Density 
 MDMN.sg                  1.42:  Dens Mud Min 
 MDMX.sg                  1.43:  Dens Mud Max 
 MOIL.                      56:  Run Mud Oil % 
 MOWR.                   71:29:  Run Mud OWR 
 MSND.                     0.5:  Run Mud Sand % 
 MSOL.                      21:  Run Mud Solids% 
 DFV .spqt               78.00:  Mud Viscosity 
 MWOD.in                  6.75:  MWD Tool OD 
 MWSI.                     Yes:  Serv Intrp, MWD 
 OTIM.hr                200.73:  Time Operating 
 PCON.           Look Like New:  Pad Condition 
 PMAX.psia            11069.93:  Press Op, Max 
 PV  .cP                 32.00:  Mud PV 
 RUN .                     700:  Run Number 
 ROPA.m/hr               10.00:  ROP Avg 
 ROPN.m/hr                9.00:  ROP Min 
 ROPX.m/hr               16.00:  ROP Max 
 RPMA.rpm               116.00:  RPM Surface Avg 
 RPMN.rpm                80.00:  RPM Surface Min 
 RPMX.rpm               120.00:  RPM Surface Max 
 RRUN.                    L605:  Rig Run Number 
 RTIM.hr                 45.00:  Time Reaming 
 SAZI.deg               159.86:  Azm, Start 
 SDEP.m                4315.00:  Start Depth 
 SIDD.                      No:  Serv Intrp, DD 
 SINC.deg                39.86:  Inc, Start 
 SPPA.psig             3300.00:  SPP Avg 
 SPPN.psig             3040.00:  SPP Min 
 SPPX.psig             3645.00:  SPP Max 
 STIM.      01.00.00 15-Jul-21:  Start Time 
 SVCS.                 DD, MWD:  Services 
 SVER.                    9.20:  Sperry Version 
 TDAT.m                 288.00:  Tot Depth Attmp 
 TDDF.                      No:  Trip for DD 
 TDLG.m                 288.00:  Tot Depth Loggd 
 TFF .                      No:  Trip for Fail 
 TQAA.f-kp               19.00:  Torque Abs Avg 
 TQAN.f-kp               18.00:  Torque Abs Min 
 TQAX.f-kp               21.00:  Torque Abs Max 
 TRRT.°/30m               0.45:  Turn Rotating 
 MRT .                    HCIM:  Maximum Recorded Temperature 
 TTMX.degC               88.24:  Max Tool Temp 
 VS01.                90649157:  Virtual Str1 SN 
 VS02.                90652483:  Virtual Str2 SN 
 VS03.                11671987:  Virtual Str3 SN 
 VS04.                90643411:  Virtual Str4 SN 
 VS05.                90652478:  Virtual Str5 SN 
 VS06.                    6111:  Virtual Str6 SN 
 WBMN.klb                 9.50:  WOB Min 
 WITN.        Grigoriy Sarayev:  Customer Rep 
 WITN.          Rufat Huseynov:  Customer Rep 2 
 WOBA.klb                11.00:  WOB Avg 
 WOBX.klb                15.00:  WOB Max 
 YP  .lhf2               28.00:  Yield Point 
~Curve Information Block
#MNEM.UNIT                 API CODE     Curve Description
#---------               -----------    ---------------------------
 TIME.HHMMSS            00 000 000 000:  GT Time & Date
 GTDEPTH.m              00 000 000 000:  GT Depth
 GTPQH.psia             00 000 000 000:  GT HR Quartz Pressure
 GTTQ.degC              00 000 000 000:  GT Quartz Temperature
 GTTN.NONE              00 000 000 000:  GT Test Number
 GTET.sec               00 000 000 000:  GT Elapsed Test Time
 GTTVD.m                00 000 000 000:  GT True Vertical Depth
#Other Information
#
#WARRANTY: Halliburton will use its best efforts to furnish customers with 
#accurate information and interpretations that are part of, and incident to, the services 
#provided.  However, Halliburton cannot and does not warrant the accuracy 
#or correctness of such information and interpretations.  Under no circumstances should any 
#such information or interpretation be relied upon as the sole basis for any drilling, 
#completion, production, or financial decision or any procedure involving any risk to the 
#safety of any drilling venture, drilling rig or its crew or any other third party.  The 
#Customer has full responsibility for all drilling, completion and production operation.  
#Halliburton makes no representations or warranties, either expressed or 
#implied, including, but not limited to, the implied warranties of merchantability or fitness 
#for a particular purpose, with respect to the services rendered.  In no event will 
#Halliburton be liable for failure to obtain any particular results or for 
#any damages, including, but not limited to, indirect, special or consequential damages, 
#resulting from the use of any information or interpretation provided by Halliburton.
#
~A           TIME           GTDEPTH  GTPQH  GTTQ  GTTN  GTET   GTTVD  
   17:59:38.013.18-Jul-2021 4487.50 6514.57 73.29 7.00   0.00 2690.71
   17:59:38.213.18-Jul-2021 4487.50 6514.57 73.29 7.00   0.20 2690.71
   17:59:38.413.18-Jul-2021 4487.50 6538.77 73.29 7.00   0.40 2690.71
   17:59:38.613.18-Jul-2021 4487.50 6506.83 73.29 7.00   0.60 2690.71
   17:59:38.813.18-Jul-2021 4487.50 6523.08 73.29 7.00   0.80 2690.71
   17:59:39.013.18-Jul-2021 4487.50 6519.17 73.29 7.00   1.00 2690.71
   17:59:39.213.18-Jul-2021 4487.50 6519.17 73.29 7.00   1.20 2690.71
   17:59:39.413.18-Jul-2021 4487.50 6519.79 73.29 7.00   1.40 2690.71
   17:59:39.614.18-Jul-2021 4487.50 6521.69 73.29 7.00   1.60 2690.71
   17:59:39.814.18-Jul-2021 4487.50 6519.30 73.29 7.00   1.80 2690.71
   17:59:40.014.18-Jul-2021 4487.50 6537.85 73.29 7.00   2.00 2690.71
   17:59:40.214.18-Jul-2021 4487.50 6537.85 73.29 7.00   2.20 2690.71
   17:59:40.414.18-Jul-2021 4487.50 6529.79 73.29 7.00   2.40 2690.71
   17:59:40.614.18-Jul-2021 4487.50 6521.97 73.29 7.00   2.60 2690.71
   17:59:40.814.18-Jul-2021 4487.50 6539.60 73.29 7.00   2.80 2690.71
   17:59:41.014.18-Jul-2021 4487.50 6524.25 73.29 7.00   3.00 2690.71
   17:59:41.214.18-Jul-2021 4487.50 6524.25 73.29 7.00   3.20 2690.71
   17:59:41.414.18-Jul-2021 4487.50 6525.41 73.29 7.00   3.40 2690.71
   17:59:41.614.18-Jul-2021 4487.50 6532.80 73.29 7.00   3.60 2690.71
   17:59:41.814.18-Jul-2021 4487.50 6526.65 73.29 7.00   3.80 2690.71
   17:59:42.014.18-Jul-2021 4487.50 6532.38 73.29 7.00   4.00 2690.71
   17:59:42.215.18-Jul-2021 4487.50 6532.38 73.29 7.00   4.20 2690.71
   17:59:42.415.18-Jul-2021 4487.50 6525.82 73.29 7.00   4.40 2690.71
   17:59:42.615.18-Jul-2021 4487.50 6525.38 73.29 7.00   4.60 2690.71
   17:59:42.815.18-Jul-2021 4487.50 6548.04 73.29 7.00   4.80 2690.71
   17:59:43.015.18-Jul-2021 4487.50 6519.16 73.29 7.00   5.00 2690.71
   17:59:43.215.18-Jul-2021 4487.50 6519.16 73.29 7.00   5.20 2690.71
   17:59:43.415.18-Jul-2021 4487.50 6528.59 73.29 7.00   5.40 2690.71
   17:59:43.615.18-Jul-2021 4487.50 6526.48 73.29 7.00   5.60 2690.71
   17:59:43.815.18-Jul-2021 4487.50 6536.11 73.29 7.00   5.80 2690.71
   17:59:44.015.18-Jul-2021 4487.50 6533.32 73.29 7.00   6.00 2690.71
   17:59:44.215.18-Jul-2021 4487.50 6533.32 73.29 7.00   6.20 2690.71
   17:59:44.415.18-Jul-2021 4487.50 6531.65 73.29 7.00   6.40 2690.71
   17:59:44.615.18-Jul-2021 4487.50 6530.76 73.29 7.00   6.60 2690.71
   17:59:44.815.18-Jul-2021 4487.50 6530.95 73.29 7.00   6.80 2690.71
   17:59:45.016.18-Jul-2021 4487.50 6529.02 73.29 7.00   7.00 2690.71
   17:59:45.216.18-Jul-2021 4487.50 6529.02 73.29 7.00   7.20 2690.71
   17:59:45.416.18-Jul-2021 4487.50 6553.39 73.29 7.00   7.40 2690.71
   17:59:45.616.18-Jul-2021 4487.50 6522.61 73.29 7.00   7.60 2690.71
   17:59:45.816.18-Jul-2021 4487.50 6538.57 73.29 7.00   7.80 2690.71
   17:59:46.016.18-Jul-2021 4487.50 6533.49 73.29 7.00   8.00 2690.71
   17:59:46.216.18-Jul-2021 4487.50 6533.49 73.29 7.00   8.20 2690.71
   17:59:46.416.18-Jul-2021 4487.50 6532.04 73.29 7.00   8.40 2690.71
   17:59:46.616.18-Jul-2021 4487.50 6533.36 73.29 7.00   8.60 2690.71
   17:59:46.816.18-Jul-2021 4487.50 6532.89 73.29 7.00   8.80 2690.71
   17:59:47.016.18-Jul-2021 4487.50 6531.74 73.29 7.00   9.00 2690.71
   17:59:47.216.18-Jul-2021 4487.50 6531.74 73.29 7.00   9.20 2690.71
   17:59:47.416.18-Jul-2021 4487.50 6531.52 73.29 7.00   9.40 2690.71
   17:59:47.617.18-Jul-2021 4487.50 6531.75 73.29 7.00   9.60 2690.71
   17:59:47.817.18-Jul-2021 4487.50 6530.11 73.29 7.00   9.80 2690.71
   17:59:48.017.18-Jul-2021 4487.50 6529.61 73.29 7.00  10.00 2690.71
   17:59:48.217.18-Jul-2021 4487.50 6529.61 73.29 7.00  10.20 2690.71
   17:59:48.417.18-Jul-2021 4487.50 6535.72 73.29 7.00  10.40 2690.71
   17:59:48.617.18-Jul-2021 4487.50 6536.42 73.29 7.00  10.60 2690.71
   17:59:48.817.18-Jul-2021 4487.50 6534.14 73.29 7.00  10.80 2690.71
   17:59:49.017.18-Jul-2021 4487.50 6533.99 73.29 7.00  11.00 2690.71
   17:59:49.217.18-Jul-2021 4487.50 6533.99 73.29 7.00  11.20 2690.71
   17:59:49.417.18-Jul-2021 4487.50 6531.92 73.29 7.00  11.40 2690.71
   17:59:49.617.18-Jul-2021 4487.50 6530.62 73.29 7.00  11.60 2690.71
   17:59:49.817.18-Jul-2021 4487.50 6531.36 73.29 7.00  11.80 2690.71
   17:59:50.017.18-Jul-2021 4487.50 6532.33 73.29 7.00  12.00 2690.71
   17:59:50.217.18-Jul-2021 4487.50 6532.33 73.29 7.00  12.20 2690.71
   17:59:50.418.18-Jul-2021 4487.50 6529.44 73.29 7.00  12.40 2690.71
   17:59:50.618.18-Jul-2021 4487.50 6529.11 73.29 7.00  12.60 2690.71
   17:59:50.818.18-Jul-2021 4487.50 6549.15 73.29 7.00  12.80 2690.71
   17:59:51.018.18-Jul-2021 4487.50 6528.61 73.29 7.00  13.00 2690.71
   17:59:51.218.18-Jul-2021 4487.50 6528.61 73.29 7.00  13.20 2690.71
   17:59:51.418.18-Jul-2021 4487.50 6528.61 73.29 7.00  13.40 2690.71
   17:59:51.618.18-Jul-2021 4487.50 6533.47 73.29 7.00  13.61 2690.71
   17:59:51.818.18-Jul-2021 4487.50 6551.56 73.29 7.00  13.81 2690.71
   17:59:52.018.18-Jul-2021 4487.50 6537.15 73.29 7.00  14.01 2690.71
   17:59:52.218.18-Jul-2021 4487.50 6537.15 73.29 7.00  14.21 2690.71
   17:59:52.418.18-Jul-2021 4487.50 6538.20 73.29 7.00  14.41 2690.71
   17:59:52.618.18-Jul-2021 4487.50 6554.73 73.29 7.00  14.61 2690.71
   17:59:52.818.18-Jul-2021 4487.50 6531.04 73.29 7.00  14.81 2690.71
   17:59:53.018.18-Jul-2021 4487.50 6545.74 73.29 7.00  15.01 2690.71
   17:59:53.219.18-Jul-2021 4487.50 6545.74 73.29 7.00  15.21 2690.71
   17:59:53.419.18-Jul-2021 4487.50 6548.48 73.29 7.00  15.41 2690.71
   17:59:53.619.18-Jul-2021 4487.50 6543.96 73.29 7.00  15.61 2690.71
   17:59:53.819.18-Jul-2021 4487.50 6546.93 73.29 7.00  15.81 2690.71
   17:59:54.019.18-Jul-2021 4487.50 6558.93 73.29 7.00  16.01 2690.71
   17:59:54.219.18-Jul-2021 4487.50 6558.93 73.29 7.00  16.21 2690.71
   17:59:54.419.18-Jul-2021 4487.50 6550.10 73.29 7.00  16.41 2690.71
   17:59:54.619.18-Jul-2021 4487.50 6541.95 73.29 7.00  16.61 2690.71
   17:59:54.819.18-Jul-2021 4487.50 6542.31 73.29 7.00  16.81 2690.71
   17:59:55.019.18-Jul-2021 4487.50 6541.84 73.29 7.00  17.01 2690.71
   17:59:55.219.18-Jul-2021 4487.50 6541.84 73.29 7.00  17.21 2690.71
   17:59:55.419.18-Jul-2021 4487.50 6549.13 73.29 7.00  17.41 2690.71
   17:59:55.619.18-Jul-2021 4487.50 6545.12 73.29 7.00  17.61 2690.71
   17:59:55.820.18-Jul-2021 4487.50 6545.66 73.29 7.00  17.81 2690.71
   17:59:56.020.18-Jul-2021 4487.50 6545.35 73.29 7.00  18.01 2690.71
   17:59:56.220.18-Jul-2021 4487.50 6545.35 73.29 7.00  18.21 2690.71
   17:59:56.420.18-Jul-2021 4487.50 6545.53 73.29 7.00  18.41 2690.71
   17:59:56.620.18-Jul-2021 4487.50 6545.19 73.29 7.00  18.61 2690.71
   17:59:56.820.18-Jul-2021 4487.50 6544.03 73.29 7.00  18.81 2690.71
   17:59:57.020.18-Jul-2021 4487.50 6543.42 73.29 7.00  19.01 2690.71
   17:59:57.220.18-Jul-2021 4487.50 6543.42 73.29 7.00  19.21 2690.71
   17:59:57.420.18-Jul-2021 4487.50 6544.10 73.29 7.00  19.41 2690.71
   17:59:57.620.18-Jul-2021 4487.50 6544.40 73.29 7.00  19.61 2690.71
   17:59:57.820.18-Jul-2021 4487.50 6543.84 73.29 7.00  19.81 2690.71
   17:59:58.020.18-Jul-2021 4487.50 6562.29 73.29 7.00  20.01 2690.71
   17:59:58.220.18-Jul-2021 4487.50 6562.29 73.29 7.00  20.21 2690.71
   17:59:58.420.18-Jul-2021 4487.50 6548.50 73.29 7.00  20.41 2690.71
   17:59:58.621.18-Jul-2021 4487.50 6547.66 73.29 7.00  20.61 2690.71
   17:59:58.821.18-Jul-2021 4487.50 6547.51 73.29 7.00  20.81 2690.71
   17:59:59.021.18-Jul-2021 4487.50 6546.65 73.29 7.00  21.01 2690.71
   17:59:59.221.18-Jul-2021 4487.50 6546.65 73.29 7.00  21.21 2690.71
   17:59:59.421.18-Jul-2021 4487.50 6544.68 73.28 7.00  21.41 2690.71
   17:59:59.621.18-Jul-2021 4487.50 6543.38 73.28 7.00  21.61 2690.71
   17:59:59.821.18-Jul-2021 4487.50 6543.73 73.28 7.00  21.81 2690.71
   18:00:00.021.18-Jul-2021 4487.50 6544.99 73.28 7.00  22.01 2690.71
   18:00:00.221.18-Jul-2021 4487.50 6544.99 73.28 7.00  22.21 2690.71
   18:00:00.421.18-Jul-2021 4487.50 6544.03 73.28 7.00  22.41 2690.71
   18:00:00.621.18-Jul-2021 4487.50 6568.64 73.28 7.00  22.61 2690.71
   18:00:00.821.18-Jul-2021 4487.50 6538.54 73.28 7.00  22.81 2690.71
