~Version Information
 VERS.                  2.0:   CWLS log ASCII Standard -VERSION 2.0
 WRAP.                   NO:   One line per depth step
~Well Information Block
#MNEM.UNIT     VALUE/NAME     DESCRIPTION
#---------     -----------    ---------------------------
 STRT.S             12:06:52 19-Jul-21: START TIME 12:06:52 19-Jul-21
 STOP.S             12:13:44 19-Jul-21: STOP TIME  12:13:44 19-Jul-21
 STEP.S                   0.00: STEP TIME
 NULL.                 -999.25: NULL VALUE
 MDS .        Operator Entered:  MAG DATA SOURCE
 PDAT.          Mean Sea Level:  PERMANENT DATUM
 UNIT.                     N/A:  LOGGING EQUIPMENT ID
 DCON.         Sperry Drilling:  DIRECTNL CONTR
 DOE .                     N/A:  DOE NUMBER
 RIG .              West Azeri:  RIG NAME
 JOBN.        AZ-XX-0906997913:  JOB TICKET NUMB
 WELL.                     C41:  WELL NAME
 MWDS.                    Baku:  MWD SHOP
 SRVC.          Turan Drilling:  CONTRACTOR
 FLD .                     ACG:  FIELD NAME
 CTRY.              Azerbaijan:  COUNTRY NAME
 PROV.                    Baku:  PROVINCE
 STAT.                    Baku:  STATE NAME
 REGN.                   EESSA:  REGION
 BASE.              Azerbaijan:  LOGGING EQUIPMENT BASE LOCATION
 UWI .                     N/A:  UNIQUE WELL IDENTIFIER
 API .                     N/A:  API NUMBER
 COMP.     BP Exploration (Caspian Sea) Ltd.:  COMPANY
 WTYP.                Deviated:  WELL TYPE
 SON .        AZ-XX-0906997913:  JOB NUMBER
 FTOP.          Formation Tops:  FORM TOPS DESC
 ILTD.               Lithology:  INTERP LTH DESC
 SVYD.                  Survey:  SURVEY DESC
 DMOD.             Drill Model:  DRILL MOD DESC
 HPTY.       Minimum Curvature:  HOLE POS TYPE
 NREF.                    Grid:  NORTH REFERENCE
 SPUD.               16-May-21:  SPUD DATE
 DATE.      21.11.28 17-May-21:  END TIME
 STIM.      21.11.28 17-May-21:  START TIME
 DMF .             Drill Floor:  DRILL MEAS FROM
 DFST.                        :  DIST FSL TEXT
 DFWT.                        :  DIST FWL TEXT
 CNTY.                        :  COUNTY
 LOC .                        :  LOCATION
 LMF .             Drill Floor:  LOG MEASURED FROM
 AGAP.m                  43.42:  AIR GAP
 VSNS.m                  -2.16:  VERT SEC N/S
 VSEW.m                  -6.24:  VERT SEC E/W
 APD .m                  43.42:  DEPTH ABOVE PD
 WDMS.m                 118.27:  WD ELEV
 EGL .m                   0.00:  GROUND ELEVATION
 EPD .m                   0.00:  ELEVATION
 AZTC.deg                 6.29:  AZM TOTAL CORR
 GRDC.deg                 0.18:  GRID CORRECTION
 MDEC.deg                 6.47:  MAGNETIC DECL
 MDIP.deg                59.54:  MAGNETIC DIP
 MFLD.nT              50337.00:  MAGNETIC FIELD
 GVFD.g                   1.00:  GRAVITY FIELD
 VSDR.deg               226.99:  VERT SEC DIRECT
 TDD .m                   0.00:  TOTAL DEPTH (DRILLER)
 SDEP.m                 448.00:  START DEPTH
 DFSL.m                   0.00:  DISTANCE FSL
 DFWL.m                   0.00:  DISTANCE FWL
 UTMY.m             4435799.96:  UTM Y
 UTMX.m              526265.35:  UTM X
 WHEW.m                  -6.24:  WELL HEAD E/W
 WHNS.m                  -2.16:  WELL HEAD N/S
 LONG.deg                51.31:  LONGITUDE
 LATI.deg                40.06:  LATITUDE
 TVDS.m                  43.42:  TVDSS CORRECTN
 EKB .m                  43.42:  KB ELEVATION
 EDF .m                  43.42:  DF ELEVATION
 TDL .m                 288.00:  TOTAL DEPTH (LOGGER)
 MAGU.                 1851863:  MAGUTM CHECKSUM
 VSC .                       0:  VS TO CLOSURE
~Parameter Information Block
#MNEM.UNIT       Value        Description
#---------     -----------    ---------------------------
 AV  .mps                 0.40:  Ann Velocity 
 AVMX.mps                 0.63:  Max Ann Veloc 
 AZIF.deg               158.76:  Azm, Final 
 BHAT.        Rotary Steerable:  BHA Type 
 BROT.°/30m               0.68:  Build Rotating 
 BS  .in                  8.50:  Bit Size 
 BSZ .in                  8.50:  Bit Size 
 BTPL.psig              712.00:  Bit Press Loss 
 CABU.                      No:  Customer Abuse 
 COMM.                     {J:  Run Comments 1 
 TCS .hr                 90.66:  Time Ciculation Ended 
 CV  .mps                 2.02:  Crit Velocity 
 CVMX.mps                 2.14:  Max Crit Veloc 
 DD1 .            Aziz Aliyevu:  Direct Drillr 1 
 DD2 .             Samir Abbas:  Direct Drillr 2 
 DD3 .           Teymur Aliyev:  Direct Drillr 3 
 DDSV.                 iCruise:  DD Service 
 DEFF.%                  85.10:  % Det Eff 
 DLRX.°/30m               1.05:  Dogleg Rot Max 
 DLSO.°/30m               1.01:  Dogleg Oriented 
 DLSX.°/30m               1.05:  Dogleg Str Max 
 DRET.      07.45.00 18-Jul-21:  Drill End Time 
 DRST.      15.00.00 16-Jul-21:  Drill Start Tim 
 DTIM.hr                 23.46:  Time Drilling 
 EDEP.m                4603.00:  End Depth 
 ENG1.       Seymur Iskandarov:  Engineer 1 
 ENG2.         Yevgeniy Ulikov:  Engineer 2 
 ENG3.         Bahruz Mehdiyev:  Engineer 3 
 ENG4.         Elchin Mammadov:  Engineer 4 
 ETIM.      14.00.00 23-Jul-21:  End Time 
 FLOI.gpm               500.00:  Flow In 
 FLON.gpm               450.00:  Flow In Min 
 FLOS.cptm                0.00:  Fluid Loss 
 FLOX.gpm               560.00:  Flow In Max 
 DFT .        Mineral Oil Base:  Mud Type 
 FTRO.       Formation Presure:  FTWD Run Obj 
 HFLO.                      No:  High Flow 
 HPRE.                      No:  High Pressure 
 HTEM.                      No:  High Temp 
 HYDO.m                   1.80:  Hydro Offset 
 IFIN.deg                40.22:  Inc, Final 
 IMAX.deg                40.54:  Inc Max 
 IMIN.deg                39.44:  Inc Min 
 IMND.m                4361.17:  Inc Min Depth 
 IMXD.m                4417.92:  Inc Max Depth 
 JARR.                      No:  Jarring 
 LETM.      07.45.00 18-Jul-21:  Log End Time 
 LOST.hr                    16:  Lost Rig Time 
 LSTM.      15.00.00 16-Jul-21:  Log Start Time 
 MDCL.ppm             36500.00:  Mud Chlorides 
 MDES.     Inversion Oil/Synthetic:  Mud Desc 
 DFD .sg                  1.42:  Mud Density 
 MDMN.sg                  1.42:  Dens Mud Min 
 MDMX.sg                  1.43:  Dens Mud Max 
 MOIL.                      56:  Run Mud Oil % 
 MOWR.                   71:29:  Run Mud OWR 
 MSND.                     0.5:  Run Mud Sand % 
 MSOL.                      21:  Run Mud Solids% 
 DFV .spqt               78.00:  Mud Viscosity 
 MWOD.in                  6.75:  MWD Tool OD 
 MWSI.                     Yes:  Serv Intrp, MWD 
 OTIM.hr                200.73:  Time Operating 
 PCON.           Look Like New:  Pad Condition 
 PMAX.psia            11069.93:  Press Op, Max 
 PV  .cP                 32.00:  Mud PV 
 RUN .                     700:  Run Number 
 ROPA.m/hr               10.00:  ROP Avg 
 ROPN.m/hr                9.00:  ROP Min 
 ROPX.m/hr               16.00:  ROP Max 
 RPMA.rpm               116.00:  RPM Surface Avg 
 RPMN.rpm                80.00:  RPM Surface Min 
 RPMX.rpm               120.00:  RPM Surface Max 
 RRUN.                    L605:  Rig Run Number 
 RTIM.hr                 45.00:  Time Reaming 
 SAZI.deg               159.86:  Azm, Start 
 SDEP.m                4315.00:  Start Depth 
 SIDD.                      No:  Serv Intrp, DD 
 SINC.deg                39.86:  Inc, Start 
 SPPA.psig             3300.00:  SPP Avg 
 SPPN.psig             3040.00:  SPP Min 
 SPPX.psig             3645.00:  SPP Max 
 STIM.      01.00.00 15-Jul-21:  Start Time 
 SVCS.                 DD, MWD:  Services 
 SVER.                    9.20:  Sperry Version 
 TDAT.m                 288.00:  Tot Depth Attmp 
 TDDF.                      No:  Trip for DD 
 TDLG.m                 288.00:  Tot Depth Loggd 
 TFF .                      No:  Trip for Fail 
 TQAA.f-kp               19.00:  Torque Abs Avg 
 TQAN.f-kp               18.00:  Torque Abs Min 
 TQAX.f-kp               21.00:  Torque Abs Max 
 TRRT.°/30m               0.45:  Turn Rotating 
 MRT .                    HCIM:  Maximum Recorded Temperature 
 TTMX.degC               88.24:  Max Tool Temp 
 VS01.                90649157:  Virtual Str1 SN 
 VS02.                90652483:  Virtual Str2 SN 
 VS03.                11671987:  Virtual Str3 SN 
 VS04.                90643411:  Virtual Str4 SN 
 VS05.                90652478:  Virtual Str5 SN 
 VS06.                    6111:  Virtual Str6 SN 
 WBMN.klb                 9.50:  WOB Min 
 WITN.        Grigoriy Sarayev:  Customer Rep 
 WITN.          Rufat Huseynov:  Customer Rep 2 
 WOBA.klb                11.00:  WOB Avg 
 WOBX.klb                15.00:  WOB Max 
 YP  .lhf2               28.00:  Yield Point 
~Curve Information Block
#MNEM.UNIT                 API CODE     Curve Description
#---------               -----------    ---------------------------
 TIME.HHMMSS            00 000 000 000:  GT Time & Date
 GTDEPTH.m              00 000 000 000:  GT Depth
 GTPQH.psia             00 000 000 000:  GT HR Quartz Pressure
 GTTQ.degC              00 000 000 000:  GT Quartz Temperature
 GTTN.NONE              00 000 000 000:  GT Test Number
 GTET.sec               00 000 000 000:  GT Elapsed Test Time
 GTTVD.m                00 000 000 000:  GT True Vertical Depth
#Other Information
#
#WARRANTY: Halliburton will use its best efforts to furnish customers with 
#accurate information and interpretations that are part of, and incident to, the services 
#provided.  However, Halliburton cannot and does not warrant the accuracy 
#or correctness of such information and interpretations.  Under no circumstances should any 
#such information or interpretation be relied upon as the sole basis for any drilling, 
#completion, production, or financial decision or any procedure involving any risk to the 
#safety of any drilling venture, drilling rig or its crew or any other third party.  The 
#Customer has full responsibility for all drilling, completion and production operation.  
#Halliburton makes no representations or warranties, either expressed or 
#implied, including, but not limited to, the implied warranties of merchantability or fitness 
#for a particular purpose, with respect to the services rendered.  In no event will 
#Halliburton be liable for failure to obtain any particular results or for 
#any damages, including, but not limited to, indirect, special or consequential damages, 
#resulting from the use of any information or interpretation provided by Halliburton.
#
~A           TIME           GTDEPTH  GTPQH  GTTQ  GTTN   GTET   GTTVD  
# ...
   12:07:14.641.19-Jul-2021 4522.00 6578.01 70.84 26.00  22.61 2717.06
   12:07:14.841.19-Jul-2021 4522.00 6577.50 70.84 26.00  22.81 2717.06
   12:07:15.041.19-Jul-2021 4522.00 6577.22 70.84 26.00  23.01 2717.06
   12:07:15.241.19-Jul-2021 4522.00 6577.22 70.84 26.00  23.21 2717.06
   12:07:15.441.19-Jul-2021 4522.00 6575.86 70.84 26.00  23.41 2717.06
   12:07:15.641.19-Jul-2021 4522.00 6574.05 70.84 26.00  23.61 2717.06
   12:07:15.842.19-Jul-2021 4522.00 6571.69 70.84 26.00  23.81 2717.06
   12:07:16.042.19-Jul-2021 4522.00 6572.79 70.84 26.00  24.01 2717.06
   12:07:16.242.19-Jul-2021 4522.00 6572.79 70.84 26.00  24.21 2717.06
   12:07:16.442.19-Jul-2021 4522.00 6574.66 70.84 26.00  24.41 2717.06
   12:07:16.642.19-Jul-2021 4522.00 6572.66 70.84 26.00  24.61 2717.06
   12:07:16.842.19-Jul-2021 4522.00 6593.07 70.84 26.00  24.81 2717.06
   12:07:17.042.19-Jul-2021 4522.00 6580.45 70.84 26.00  25.01 2717.06
   12:07:17.242.19-Jul-2021 4522.00 6580.45 70.84 26.00  25.21 2717.06
   12:07:17.442.19-Jul-2021 4522.00 6592.63 70.84 26.00  25.41 2717.06
   12:07:17.642.19-Jul-2021 4522.00 6591.09 70.84 26.00  25.61 2717.06
   12:07:17.842.19-Jul-2021 4522.00 6580.66 70.84 26.00  25.81 2717.06
   12:07:18.042.19-Jul-2021 4522.00 6582.21 70.84 26.00  26.01 2717.06
   12:07:18.242.19-Jul-2021 4522.00 6582.21 70.84 26.00  26.21 2717.06
   12:07:18.443.19-Jul-2021 4522.00 6596.16 70.84 26.00  26.41 2717.06
   12:07:18.643.19-Jul-2021 4522.00 6581.74 70.84 26.00  26.61 2717.06
   12:07:18.843.19-Jul-2021 4522.00 6580.92 70.84 26.00  26.81 2717.06
   12:07:19.043.19-Jul-2021 4522.00 6592.65 70.84 26.00  27.01 2717.06
   12:07:19.243.19-Jul-2021 4522.00 6592.65 70.84 26.00  27.21 2717.06
   12:07:19.443.19-Jul-2021 4522.00 6582.46 70.84 26.00  27.41 2717.06
   12:07:19.643.19-Jul-2021 4522.00 6583.94 70.84 26.00  27.61 2717.06
   12:07:19.843.19-Jul-2021 4522.00 6582.31 70.84 26.00  27.81 2717.06
   12:07:20.043.19-Jul-2021 4522.00 6599.73 70.84 26.00  28.01 2717.06
   12:07:20.243.19-Jul-2021 4522.00 6599.73 70.84 26.00  28.21 2717.06
   12:07:20.443.19-Jul-2021 4522.00 6582.84 70.84 26.00  28.41 2717.06
   12:07:20.643.19-Jul-2021 4522.00 6585.10 70.84 26.00  28.61 2717.06
   12:07:20.843.19-Jul-2021 4522.00 6586.49 70.84 26.00  28.81 2717.06
   12:07:21.043.19-Jul-2021 4522.00 6582.89 70.84 26.00  29.01 2717.06
   12:07:21.244.19-Jul-2021 4522.00 6582.89 70.84 26.00  29.21 2717.06
   12:07:21.444.19-Jul-2021 4522.00 6583.15 70.84 26.00  29.41 2717.06
   12:07:21.644.19-Jul-2021 4522.00 6583.18 70.84 26.00  29.61 2717.06
   12:07:21.844.19-Jul-2021 4522.00 6583.26 70.84 26.00  29.81 2717.06
   12:07:22.044.19-Jul-2021 4522.00 6578.91 70.84 26.00  30.01 2717.06
   12:07:22.244.19-Jul-2021 4522.00 6578.91 70.84 26.00  30.21 2717.06
   12:07:22.444.19-Jul-2021 4522.00 6561.31 70.84 26.00  30.41 2717.06
   12:07:22.644.19-Jul-2021 4522.00 6549.45 70.84 26.00  30.61 2717.06
   12:07:22.844.19-Jul-2021 4522.00 6528.16 70.84 26.00  30.81 2717.06
   12:07:23.044.19-Jul-2021 4522.00 6509.15 70.84 26.00  31.01 2717.06
   12:07:23.244.19-Jul-2021 4522.00 6509.15 70.84 26.00  31.21 2717.06
   12:07:23.444.19-Jul-2021 4522.00 6483.35 70.84 26.00  31.41 2717.06
   12:07:23.644.19-Jul-2021 4522.00 6476.15 70.84 26.00  31.61 2717.06
   12:07:23.844.19-Jul-2021 4522.00 6471.78 70.84 26.00  31.81 2717.06
   12:07:24.045.19-Jul-2021 4522.00 6467.50 70.84 26.00  32.01 2717.06
   12:07:24.245.19-Jul-2021 4522.00 6467.50 70.84 26.00  32.21 2717.06
   12:07:24.445.19-Jul-2021 4522.00 6462.28 70.84 26.00  32.41 2717.06
   12:07:24.645.19-Jul-2021 4522.00 6460.14 70.84 26.00  32.61 2717.06
   12:07:24.845.19-Jul-2021 4522.00 6459.21 70.84 26.00  32.81 2717.06
   12:07:25.045.19-Jul-2021 4522.00 6458.85 70.84 26.00  33.01 2717.06
   12:07:25.245.19-Jul-2021 4522.00 6458.85 70.84 26.00  33.21 2717.06
   12:07:25.445.19-Jul-2021 4522.00 6457.88 70.84 26.00  33.41 2717.06
   12:07:25.645.19-Jul-2021 4522.00 6471.15 70.84 26.00  33.61 2717.06
   12:07:25.845.19-Jul-2021 4522.00 6473.74 70.84 26.00  33.81 2717.06
   12:07:26.045.19-Jul-2021 4522.00 6473.10 70.84 26.00  34.01 2717.06
   12:07:26.245.19-Jul-2021 4522.00 6473.10 70.84 26.00  34.21 2717.06
   12:07:26.445.19-Jul-2021 4522.00 6472.22 70.84 26.00  34.41 2717.06
   12:07:26.646.19-Jul-2021 4522.00 6470.96 70.84 26.00  34.61 2717.06
   12:07:26.846.19-Jul-2021 4522.00 6469.66 70.84 26.00  34.81 2717.06
   12:07:27.046.19-Jul-2021 4522.00 6468.76 70.84 26.00  35.01 2717.06
   12:07:27.246.19-Jul-2021 4522.00 6468.76 70.84 26.00  35.21 2717.06
   12:07:27.446.19-Jul-2021 4522.00 6412.23 70.84 26.00  35.41 2717.06
   12:07:27.646.19-Jul-2021 4522.00 5796.69 70.84 26.00  35.61 2717.06
   12:07:27.846.19-Jul-2021 4522.00 4735.59 70.84 26.00  35.81 2717.06
   12:07:28.046.19-Jul-2021 4522.00 3786.36 70.84 26.00  36.01 2717.06
   12:07:28.246.19-Jul-2021 4522.00 3786.36 70.84 26.00  36.21 2717.06
   12:07:28.446.19-Jul-2021 4522.00 3523.14 70.84 26.00  36.41 2717.06
   12:07:28.646.19-Jul-2021 4522.00 3524.82 70.84 26.00  36.61 2717.06
   12:07:28.846.19-Jul-2021 4522.00 3521.66 70.83 26.00  36.81 2717.06
   12:07:29.046.19-Jul-2021 4522.00 3525.35 70.83 26.00  37.01 2717.06
   12:07:29.246.19-Jul-2021 4522.00 3525.35 70.83 26.00  37.21 2717.06
   12:07:29.447.19-Jul-2021 4522.00 3525.13 70.83 26.00  37.41 2717.06
   12:07:29.647.19-Jul-2021 4522.00 3522.32 70.83 26.00  37.61 2717.06
   12:07:29.847.19-Jul-2021 4522.00 3522.01 70.83 26.00  37.81 2717.06
   12:07:30.047.19-Jul-2021 4522.00 3521.24 70.83 26.00  38.01 2717.06
   12:07:30.247.19-Jul-2021 4522.00 3521.24 70.83 26.00  38.21 2717.06
   12:07:30.447.19-Jul-2021 4522.00 3520.93 70.82 26.00  38.41 2717.06
   12:07:30.647.19-Jul-2021 4522.00 3519.17 70.82 26.00  38.61 2717.06
   12:07:30.847.19-Jul-2021 4522.00 3519.76 70.82 26.00  38.81 2717.06
   12:07:31.047.19-Jul-2021 4522.00 3518.45 70.82 26.00  39.01 2717.06
   12:07:31.247.19-Jul-2021 4522.00 3518.45 70.82 26.00  39.21 2717.06
   12:07:31.447.19-Jul-2021 4522.00 3516.63 70.81 26.00  39.41 2717.06
   12:07:31.647.19-Jul-2021 4522.00 3518.32 70.81 26.00  39.61 2717.06
   12:07:31.847.19-Jul-2021 4522.00 3518.95 70.81 26.00  39.81 2717.06
   12:07:32.048.19-Jul-2021 4522.00 3516.03 70.81 26.00  40.01 2717.06
   12:07:32.248.19-Jul-2021 4522.00 3516.03 70.81 26.00  40.21 2717.06
   12:07:32.448.19-Jul-2021 4522.00 3516.48 70.80 26.00  40.41 2717.06
   12:07:32.648.19-Jul-2021 4522.00 3515.97 70.80 26.00  40.61 2717.06
   12:07:32.848.19-Jul-2021 4522.00 3515.98 70.80 26.00  40.82 2717.06
   12:07:33.048.19-Jul-2021 4522.00 3516.49 70.80 26.00  41.02 2717.06
   12:07:33.248.19-Jul-2021 4522.00 3516.49 70.80 26.00  41.22 2717.06
   12:07:33.448.19-Jul-2021 4522.00 3516.11 70.80 26.00  41.42 2717.06
   12:07:33.648.19-Jul-2021 4522.00 3515.11 70.79 26.00  41.62 2717.06
   12:07:33.848.19-Jul-2021 4522.00 3518.32 70.79 26.00  41.82 2717.06
   12:07:34.048.19-Jul-2021 4522.00 3514.74 70.79 26.00  42.02 2717.06
   12:07:34.248.19-Jul-2021 4522.00 3514.74 70.79 26.00  42.22 2717.06
   12:07:34.448.19-Jul-2021 4522.00 3515.05 70.79 26.00  42.42 2717.06
   12:07:34.648.19-Jul-2021 4522.00 3514.57 70.79 26.00  42.62 2717.06
   12:07:34.849.19-Jul-2021 4522.00 3517.92 70.79 26.00  42.82 2717.06
   12:07:35.049.19-Jul-2021 4522.00 3513.86 70.78 26.00  43.02 2717.06
   12:07:35.249.19-Jul-2021 4522.00 3513.86 70.78 26.00  43.22 2717.06
   12:07:35.449.19-Jul-2021 4522.00 3515.68 70.78 26.00  43.42 2717.06
   12:07:35.649.19-Jul-2021 4522.00 3516.24 70.78 26.00  43.62 2717.06
   12:07:35.849.19-Jul-2021 4522.00 3514.76 70.78 26.00  43.82 2717.06
   12:07:36.049.19-Jul-2021 4522.00 3516.79 70.78 26.00  44.02 2717.06
   12:07:36.249.19-Jul-2021 4522.00 3516.79 70.78 26.00  44.22 2717.06
   12:07:36.449.19-Jul-2021 4522.00 3513.69 70.78 26.00  44.42 2717.06
   12:07:36.649.19-Jul-2021 4522.00 3516.23 70.78 26.00  44.62 2717.06
   12:07:36.849.19-Jul-2021 4522.00 3516.92 70.78 26.00  44.82 2717.06
   12:07:37.049.19-Jul-2021 4522.00 3517.26 70.77 26.00  45.02 2717.06
