~Version Information
 VERS.                  2.0:   CWLS log ASCII Standard -VERSION 2.0
 WRAP.                   NO:   One line per depth step
~Well Information Block
#MNEM.UNIT     VALUE/NAME     DESCRIPTION
#---------     -----------    ---------------------------
 STRT.S             05:46:28 19-Jul-21: START TIME 05:46:28 19-Jul-21
 STOP.S             05:53:09 19-Jul-21: STOP TIME  05:53:09 19-Jul-21
 STEP.S                   0.00: STEP TIME
 NULL.                 -999.25: NULL VALUE
 MDS .        Operator Entered:  MAG DATA SOURCE
 PDAT.          Mean Sea Level:  PERMANENT DATUM
 UNIT.                     N/A:  LOGGING EQUIPMENT ID
 DCON.         Sperry Drilling:  DIRECTNL CONTR
 DOE .                     N/A:  DOE NUMBER
 RIG .              West Azeri:  RIG NAME
 JOBN.        AZ-XX-0906997913:  JOB TICKET NUMB
 WELL.                     C41:  WELL NAME
 MWDS.                    Baku:  MWD SHOP
 SRVC.          Turan Drilling:  CONTRACTOR
 FLD .                     ACG:  FIELD NAME
 CTRY.              Azerbaijan:  COUNTRY NAME
 PROV.                    Baku:  PROVINCE
 STAT.                    Baku:  STATE NAME
 REGN.                   EESSA:  REGION
 BASE.              Azerbaijan:  LOGGING EQUIPMENT BASE LOCATION
 UWI .                     N/A:  UNIQUE WELL IDENTIFIER
 API .                     N/A:  API NUMBER
 COMP.     BP Exploration (Caspian Sea) Ltd.:  COMPANY
 WTYP.                Deviated:  WELL TYPE
 SON .        AZ-XX-0906997913:  JOB NUMBER
 FTOP.          Formation Tops:  FORM TOPS DESC
 ILTD.               Lithology:  INTERP LTH DESC
 SVYD.                  Survey:  SURVEY DESC
 DMOD.             Drill Model:  DRILL MOD DESC
 HPTY.       Minimum Curvature:  HOLE POS TYPE
 NREF.                    Grid:  NORTH REFERENCE
 SPUD.               16-May-21:  SPUD DATE
 DATE.      21.11.28 17-May-21:  END TIME
 STIM.      21.11.28 17-May-21:  START TIME
 DMF .             Drill Floor:  DRILL MEAS FROM
 DFST.                        :  DIST FSL TEXT
 DFWT.                        :  DIST FWL TEXT
 CNTY.                        :  COUNTY
 LOC .                        :  LOCATION
 LMF .             Drill Floor:  LOG MEASURED FROM
 AGAP.m                  43.42:  AIR GAP
 VSNS.m                  -2.16:  VERT SEC N/S
 VSEW.m                  -6.24:  VERT SEC E/W
 APD .m                  43.42:  DEPTH ABOVE PD
 WDMS.m                 118.27:  WD ELEV
 EGL .m                   0.00:  GROUND ELEVATION
 EPD .m                   0.00:  ELEVATION
 AZTC.deg                 6.29:  AZM TOTAL CORR
 GRDC.deg                 0.18:  GRID CORRECTION
 MDEC.deg                 6.47:  MAGNETIC DECL
 MDIP.deg                59.54:  MAGNETIC DIP
 MFLD.nT              50337.00:  MAGNETIC FIELD
 GVFD.g                   1.00:  GRAVITY FIELD
 VSDR.deg               226.99:  VERT SEC DIRECT
 TDD .m                   0.00:  TOTAL DEPTH (DRILLER)
 SDEP.m                 448.00:  START DEPTH
 DFSL.m                   0.00:  DISTANCE FSL
 DFWL.m                   0.00:  DISTANCE FWL
 UTMY.m             4435799.96:  UTM Y
 UTMX.m              526265.35:  UTM X
 WHEW.m                  -6.24:  WELL HEAD E/W
 WHNS.m                  -2.16:  WELL HEAD N/S
 LONG.deg                51.31:  LONGITUDE
 LATI.deg                40.06:  LATITUDE
 TVDS.m                  43.42:  TVDSS CORRECTN
 EKB .m                  43.42:  KB ELEVATION
 EDF .m                  43.42:  DF ELEVATION
 TDL .m                 288.00:  TOTAL DEPTH (LOGGER)
 MAGU.                 1851863:  MAGUTM CHECKSUM
 VSC .                       0:  VS TO CLOSURE
~Parameter Information Block
#MNEM.UNIT       Value        Description
#---------     -----------    ---------------------------
 AV  .mps                 0.40:  Ann Velocity 
 AVMX.mps                 0.63:  Max Ann Veloc 
 AZIF.deg               158.76:  Azm, Final 
 BHAT.        Rotary Steerable:  BHA Type 
 BROT.°/30m               0.68:  Build Rotating 
 BS  .in                  8.50:  Bit Size 
 BSZ .in                  8.50:  Bit Size 
 BTPL.psig              712.00:  Bit Press Loss 
 CABU.                      No:  Customer Abuse 
 COMM.                     l%v:  Run Comments 1 
 TCS .hr                 90.66:  Time Ciculation Ended 
 CV  .mps                 2.02:  Crit Velocity 
 CVMX.mps                 2.14:  Max Crit Veloc 
 DD1 .            Aziz Aliyevu:  Direct Drillr 1 
 DD2 .             Samir Abbas:  Direct Drillr 2 
 DD3 .           Teymur Aliyev:  Direct Drillr 3 
 DDSV.                 iCruise:  DD Service 
 DEFF.%                  85.10:  % Det Eff 
 DLRX.°/30m               1.05:  Dogleg Rot Max 
 DLSO.°/30m               1.01:  Dogleg Oriented 
 DLSX.°/30m               1.05:  Dogleg Str Max 
 DRET.      07.45.00 18-Jul-21:  Drill End Time 
 DRST.      15.00.00 16-Jul-21:  Drill Start Tim 
 DTIM.hr                 23.46:  Time Drilling 
 EDEP.m                4603.00:  End Depth 
 ENG1.       Seymur Iskandarov:  Engineer 1 
 ENG2.         Yevgeniy Ulikov:  Engineer 2 
 ENG3.         Bahruz Mehdiyev:  Engineer 3 
 ENG4.         Elchin Mammadov:  Engineer 4 
 ETIM.      14.00.00 23-Jul-21:  End Time 
 FLOI.gpm               500.00:  Flow In 
 FLON.gpm               450.00:  Flow In Min 
 FLOS.cptm                0.00:  Fluid Loss 
 FLOX.gpm               560.00:  Flow In Max 
 DFT .        Mineral Oil Base:  Mud Type 
 FTRO.       Formation Presure:  FTWD Run Obj 
 HFLO.                      No:  High Flow 
 HPRE.                      No:  High Pressure 
 HTEM.                      No:  High Temp 
 HYDO.m                   1.80:  Hydro Offset 
 IFIN.deg                40.22:  Inc, Final 
 IMAX.deg                40.54:  Inc Max 
 IMIN.deg                39.44:  Inc Min 
 IMND.m                4361.17:  Inc Min Depth 
 IMXD.m                4417.92:  Inc Max Depth 
 JARR.                      No:  Jarring 
 LETM.      07.45.00 18-Jul-21:  Log End Time 
 LOST.hr                    16:  Lost Rig Time 
 LSTM.      15.00.00 16-Jul-21:  Log Start Time 
 MDCL.ppm             36500.00:  Mud Chlorides 
 MDES.     Inversion Oil/Synthetic:  Mud Desc 
 DFD .sg                  1.42:  Mud Density 
 MDMN.sg                  1.42:  Dens Mud Min 
 MDMX.sg                  1.43:  Dens Mud Max 
 MOIL.                      56:  Run Mud Oil % 
 MOWR.                   71:29:  Run Mud OWR 
 MSND.                     0.5:  Run Mud Sand % 
 MSOL.                      21:  Run Mud Solids% 
 DFV .spqt               78.00:  Mud Viscosity 
 MWOD.in                  6.75:  MWD Tool OD 
 MWSI.                     Yes:  Serv Intrp, MWD 
 OTIM.hr                200.73:  Time Operating 
 PCON.           Look Like New:  Pad Condition 
 PMAX.psia            11069.93:  Press Op, Max 
 PV  .cP                 32.00:  Mud PV 
 RUN .                     700:  Run Number 
 ROPA.m/hr               10.00:  ROP Avg 
 ROPN.m/hr                9.00:  ROP Min 
 ROPX.m/hr               16.00:  ROP Max 
 RPMA.rpm               116.00:  RPM Surface Avg 
 RPMN.rpm                80.00:  RPM Surface Min 
 RPMX.rpm               120.00:  RPM Surface Max 
 RRUN.                    L605:  Rig Run Number 
 RTIM.hr                 45.00:  Time Reaming 
 SAZI.deg               159.86:  Azm, Start 
 SDEP.m                4315.00:  Start Depth 
 SIDD.                      No:  Serv Intrp, DD 
 SINC.deg                39.86:  Inc, Start 
 SPPA.psig             3300.00:  SPP Avg 
 SPPN.psig             3040.00:  SPP Min 
 SPPX.psig             3645.00:  SPP Max 
 STIM.      01.00.00 15-Jul-21:  Start Time 
 SVCS.                 DD, MWD:  Services 
 SVER.                    9.20:  Sperry Version 
 TDAT.m                 288.00:  Tot Depth Attmp 
 TDDF.                      No:  Trip for DD 
 TDLG.m                 288.00:  Tot Depth Loggd 
 TFF .                      No:  Trip for Fail 
 TQAA.f-kp               19.00:  Torque Abs Avg 
 TQAN.f-kp               18.00:  Torque Abs Min 
 TQAX.f-kp               21.00:  Torque Abs Max 
 TRRT.°/30m               0.45:  Turn Rotating 
 MRT .                    HCIM:  Maximum Recorded Temperature 
 TTMX.degC               88.24:  Max Tool Temp 
 VS01.                90649157:  Virtual Str1 SN 
 VS02.                90652483:  Virtual Str2 SN 
 VS03.                11671987:  Virtual Str3 SN 
 VS04.                90643411:  Virtual Str4 SN 
 VS05.                90652478:  Virtual Str5 SN 
 VS06.                    6111:  Virtual Str6 SN 
 WBMN.klb                 9.50:  WOB Min 
 WITN.        Grigoriy Sarayev:  Customer Rep 
 WITN.          Rufat Huseynov:  Customer Rep 2 
 WOBA.klb                11.00:  WOB Avg 
 WOBX.klb                15.00:  WOB Max 
 YP  .lhf2               28.00:  Yield Point 
~Curve Information Block
#MNEM.UNIT                 API CODE     Curve Description
#---------               -----------    ---------------------------
 TIME.HHMMSS            00 000 000 000:  GT Time & Date
 GTDEPTH.m              00 000 000 000:  GT Depth
 GTPQH.psia             00 000 000 000:  GT HR Quartz Pressure
 GTTQ.degC              00 000 000 000:  GT Quartz Temperature
 GTTN.NONE              00 000 000 000:  GT Test Number
 GTET.sec               00 000 000 000:  GT Elapsed Test Time
 GTTVD.m                00 000 000 000:  GT True Vertical Depth
#Other Information
#
#WARRANTY: Halliburton will use its best efforts to furnish customers with 
#accurate information and interpretations that are part of, and incident to, the services 
#provided.  However, Halliburton cannot and does not warrant the accuracy 
#or correctness of such information and interpretations.  Under no circumstances should any 
#such information or interpretation be relied upon as the sole basis for any drilling, 
#completion, production, or financial decision or any procedure involving any risk to the 
#safety of any drilling venture, drilling rig or its crew or any other third party.  The 
#Customer has full responsibility for all drilling, completion and production operation.  
#Halliburton makes no representations or warranties, either expressed or 
#implied, including, but not limited to, the implied warranties of merchantability or fitness 
#for a particular purpose, with respect to the services rendered.  In no event will 
#Halliburton be liable for failure to obtain any particular results or for 
#any damages, including, but not limited to, indirect, special or consequential damages, 
#resulting from the use of any information or interpretation provided by Halliburton.
#
~A           TIME           GTDEPTH  GTPQH  GTTQ  GTTN   GTET   GTTVD  
# ...
   05:51:45.146.19-Jul-2021 4380.50 4190.84 69.37 13.00 316.52 2608.98
   05:51:45.346.19-Jul-2021 4380.50 4191.25 69.37 13.00 316.72 2608.98
   05:51:45.546.19-Jul-2021 4380.50 4191.59 69.37 13.00 316.92 2608.98
   05:51:45.746.19-Jul-2021 4380.50 4191.88 69.37 13.00 317.12 2608.98
   05:51:45.946.19-Jul-2021 4380.50 4191.88 69.37 13.00 317.32 2608.98
   05:51:46.146.19-Jul-2021 4380.50 4192.51 69.37 13.00 317.52 2608.98
   05:51:46.346.19-Jul-2021 4380.50 4192.87 69.37 13.00 317.72 2608.98
   05:51:46.546.19-Jul-2021 4380.50 4193.28 69.37 13.00 317.92 2608.98
   05:51:46.746.19-Jul-2021 4380.50 4193.63 69.37 13.00 318.12 2608.98
   05:51:46.946.19-Jul-2021 4380.50 4193.63 69.37 13.00 318.32 2608.98
   05:51:47.146.19-Jul-2021 4380.50 4193.99 69.37 13.00 318.52 2608.98
   05:51:47.346.19-Jul-2021 4380.50 4194.49 69.37 13.00 318.72 2608.98
   05:51:47.546.19-Jul-2021 4380.50 4194.94 69.37 13.00 318.92 2608.98
   05:51:47.746.19-Jul-2021 4380.50 4194.99 69.37 13.00 319.12 2608.98
   05:51:47.947.19-Jul-2021 4380.50 4194.99 69.37 13.00 319.32 2608.98
   05:51:48.147.19-Jul-2021 4380.50 4195.43 69.37 13.00 319.52 2608.98
   05:51:48.347.19-Jul-2021 4380.50 4195.43 69.37 13.00 319.72 2608.98
   05:51:48.547.19-Jul-2021 4380.50 4195.70 69.37 13.00 319.92 2608.98
   05:51:48.747.19-Jul-2021 4380.50 4196.26 69.37 13.00 320.12 2608.98
   05:51:48.947.19-Jul-2021 4380.50 4196.26 69.37 13.00 320.32 2608.98
   05:51:49.147.19-Jul-2021 4380.50 4196.75 69.37 13.00 320.52 2608.98
   05:51:49.347.19-Jul-2021 4380.50 4196.94 69.37 13.00 320.72 2608.98
   05:51:49.547.19-Jul-2021 4380.50 4195.84 69.37 13.00 320.92 2608.98
   05:51:49.747.19-Jul-2021 4380.50 4196.06 69.37 13.00 321.12 2608.98
   05:51:49.947.19-Jul-2021 4380.50 4196.06 69.37 13.00 321.32 2608.98
   05:51:50.147.19-Jul-2021 4380.50 4194.04 69.37 13.00 321.52 2608.98
   05:51:50.347.19-Jul-2021 4380.50 4193.65 69.37 13.00 321.72 2608.98
   05:51:50.548.19-Jul-2021 4380.50 4192.92 69.37 13.00 321.92 2608.98
   05:51:50.748.19-Jul-2021 4380.50 4190.31 69.37 13.00 322.12 2608.98
   05:51:50.948.19-Jul-2021 4380.50 4190.31 69.37 13.00 322.32 2608.98
   05:51:51.148.19-Jul-2021 4380.50 4190.30 69.37 13.00 322.52 2608.98
   05:51:51.348.19-Jul-2021 4380.50 4190.92 69.37 13.00 322.72 2608.98
   05:51:51.548.19-Jul-2021 4380.50 4190.80 69.37 13.00 322.92 2608.98
   05:51:51.748.19-Jul-2021 4380.50 4189.85 69.37 13.00 323.12 2608.98
   05:51:51.948.19-Jul-2021 4380.50 4189.85 69.37 13.00 323.32 2608.98
   05:51:52.148.19-Jul-2021 4380.50 4189.40 69.37 13.00 323.52 2608.98
   05:51:52.348.19-Jul-2021 4380.50 4187.85 69.37 13.00 323.72 2608.98
   05:51:52.548.19-Jul-2021 4380.50 4187.30 69.37 13.00 323.92 2608.98
   05:51:52.748.19-Jul-2021 4380.50 4187.01 69.37 13.00 324.12 2608.98
   05:51:52.948.19-Jul-2021 4380.50 4187.01 69.37 13.00 324.32 2608.98
   05:51:53.148.19-Jul-2021 4380.50 4188.12 69.37 13.00 324.52 2608.98
   05:51:53.349.19-Jul-2021 4380.50 4188.75 69.37 13.00 324.72 2608.98
   05:51:53.549.19-Jul-2021 4380.50 4189.27 69.37 13.00 324.92 2608.98
   05:51:53.749.19-Jul-2021 4380.50 4189.88 69.37 13.00 325.12 2608.98
   05:51:53.949.19-Jul-2021 4380.50 4189.88 69.37 13.00 325.32 2608.98
   05:51:54.149.19-Jul-2021 4380.50 4191.06 69.37 13.00 325.52 2608.98
   05:51:54.349.19-Jul-2021 4380.50 4191.62 69.37 13.00 325.72 2608.98
   05:51:54.549.19-Jul-2021 4380.50 4192.18 69.37 13.00 325.92 2608.98
   05:51:54.749.19-Jul-2021 4380.50 4192.76 69.37 13.00 326.12 2608.98
   05:51:54.949.19-Jul-2021 4380.50 4192.76 69.37 13.00 326.32 2608.98
   05:51:55.149.19-Jul-2021 4380.50 4191.74 69.37 13.00 326.52 2608.98
   05:51:55.349.19-Jul-2021 4380.50 4191.24 69.37 13.00 326.72 2608.98
   05:51:55.549.19-Jul-2021 4380.50 4191.33 69.37 13.00 326.92 2608.98
   05:51:55.749.19-Jul-2021 4380.50 4191.86 69.37 13.00 327.12 2608.98
   05:51:55.950.19-Jul-2021 4380.50 4191.86 69.37 13.00 327.32 2608.98
   05:51:56.150.19-Jul-2021 4380.50 4191.82 69.37 13.00 327.52 2608.98
   05:51:56.350.19-Jul-2021 4380.50 4192.05 69.37 13.00 327.72 2608.98
   05:51:56.550.19-Jul-2021 4380.50 4192.49 69.37 13.00 327.92 2608.98
   05:51:56.750.19-Jul-2021 4380.50 4192.85 69.37 13.00 328.12 2608.98
   05:51:56.950.19-Jul-2021 4380.50 4192.85 69.37 13.00 328.32 2608.98
   05:51:57.150.19-Jul-2021 4380.50 4193.71 69.37 13.00 328.52 2608.98
   05:51:57.350.19-Jul-2021 4380.50 4194.23 69.37 13.00 328.72 2608.98
   05:51:57.550.19-Jul-2021 4380.50 4194.67 69.37 13.00 328.92 2608.98
   05:51:57.750.19-Jul-2021 4380.50 4192.90 69.37 13.00 329.12 2608.98
   05:51:57.950.19-Jul-2021 4380.50 4192.90 69.37 13.00 329.32 2608.98
   05:51:58.150.19-Jul-2021 4380.50 4192.51 69.37 13.00 329.52 2608.98
   05:51:58.350.19-Jul-2021 4380.50 4189.42 69.37 13.00 329.72 2608.98
   05:51:58.550.19-Jul-2021 4380.50 4187.90 69.37 13.00 329.92 2608.98
   05:51:58.751.19-Jul-2021 4380.50 4187.80 69.37 13.00 330.12 2608.98
   05:51:58.951.19-Jul-2021 4380.50 4187.80 69.37 13.00 330.32 2608.98
   05:51:59.151.19-Jul-2021 4380.50 4184.42 69.37 13.00 330.52 2608.98
   05:51:59.351.19-Jul-2021 4380.50 4184.50 69.37 13.00 330.72 2608.98
   05:51:59.551.19-Jul-2021 4380.50 4185.33 69.37 13.00 330.92 2608.98
   05:51:59.751.19-Jul-2021 4380.50 4184.89 69.37 13.00 331.12 2608.98
   05:51:59.951.19-Jul-2021 4380.50 4184.89 69.37 13.00 331.32 2608.98
   05:52:00.151.19-Jul-2021 4380.50 4181.20 69.37 13.00 331.52 2608.98
   05:52:00.351.19-Jul-2021 4380.50 4181.99 69.37 13.00 331.72 2608.98
   05:52:00.551.19-Jul-2021 4380.50 4182.52 69.37 13.00 331.92 2608.98
   05:52:00.751.19-Jul-2021 4380.50 4180.56 69.37 13.00 332.12 2608.98
   05:52:00.951.19-Jul-2021 4380.50 4180.56 69.37 13.00 332.32 2608.98
   05:52:01.151.19-Jul-2021 4380.50 4180.29 69.37 13.00 332.52 2608.98
   05:52:01.351.19-Jul-2021 4380.50 4181.34 69.37 13.00 332.72 2608.98
   05:52:01.552.19-Jul-2021 4380.50 4181.85 69.37 13.00 332.92 2608.98
   05:52:01.752.19-Jul-2021 4380.50 4182.83 69.37 13.00 333.12 2608.98
   05:52:01.952.19-Jul-2021 4380.50 4182.83 69.37 13.00 333.32 2608.98
   05:52:02.152.19-Jul-2021 4380.50 4184.84 69.37 13.00 333.52 2608.98
   05:52:02.352.19-Jul-2021 4380.50 4185.83 69.37 13.00 333.72 2608.98
   05:52:02.552.19-Jul-2021 4380.50 4186.80 69.37 13.00 333.92 2608.98
   05:52:02.752.19-Jul-2021 4380.50 4187.64 69.37 13.00 334.12 2608.98
   05:52:02.952.19-Jul-2021 4380.50 4187.64 69.37 13.00 334.32 2608.98
   05:52:03.152.19-Jul-2021 4380.50 4189.24 69.37 13.00 334.52 2608.98
   05:52:03.352.19-Jul-2021 4380.50 4189.70 69.37 13.00 334.72 2608.98
   05:52:03.552.19-Jul-2021 4380.50 4187.03 69.37 13.00 334.92 2608.98
   05:52:03.752.19-Jul-2021 4380.50 4185.46 69.37 13.00 335.12 2608.98
   05:52:03.952.19-Jul-2021 4380.50 4185.46 69.37 13.00 335.32 2608.98
   05:52:04.153.19-Jul-2021 4380.50 4185.76 69.37 13.00 335.52 2608.98
   05:52:04.353.19-Jul-2021 4380.50 4185.59 69.37 13.00 335.72 2608.98
   05:52:04.553.19-Jul-2021 4380.50 4186.18 69.37 13.00 335.92 2608.98
   05:52:04.753.19-Jul-2021 4380.50 4186.94 69.37 13.00 336.12 2608.98
   05:52:04.953.19-Jul-2021 4380.50 4186.94 69.37 13.00 336.32 2608.98
   05:52:05.153.19-Jul-2021 4380.50 4188.64 69.37 13.00 336.52 2608.98
   05:52:05.353.19-Jul-2021 4380.50 4189.46 69.37 13.00 336.72 2608.98
   05:52:05.553.19-Jul-2021 4380.50 4190.20 69.37 13.00 336.92 2608.98
   05:52:05.753.19-Jul-2021 4380.50 4190.95 69.37 13.00 337.12 2608.98
   05:52:05.953.19-Jul-2021 4380.50 4190.95 69.37 13.00 337.32 2608.98
   05:52:06.153.19-Jul-2021 4380.50 4188.65 69.37 13.00 337.52 2608.98
   05:52:06.353.19-Jul-2021 4380.50 4186.72 69.37 13.00 337.72 2608.98
   05:52:06.553.19-Jul-2021 4380.50 4185.97 69.37 13.00 337.92 2608.98
   05:52:06.753.19-Jul-2021 4380.50 4179.81 69.37 13.00 338.12 2608.98
   05:52:06.954.19-Jul-2021 4380.50 4179.81 69.37 13.00 338.32 2608.98
   05:52:07.154.19-Jul-2021 4380.50 4178.03 69.37 13.00 338.52 2608.98
   05:52:07.354.19-Jul-2021 4380.50 4174.52 69.37 13.00 338.72 2608.98
   05:52:07.554.19-Jul-2021 4380.50 4173.01 69.37 13.00 338.92 2608.98
