~Version Information
 VERS.                  2.0:   CWLS log ASCII Standard -VERSION 2.0
 WRAP.                   NO:   One line per depth step
~Well Information Block
#MNEM.UNIT     VALUE/NAME     DESCRIPTION
#---------     -----------    ---------------------------
 STRT.S             01:51:11 27-Mar-21: START TIME 01:51:11 27-Mar-21
 STOP.S             01:58:18 27-Mar-21: STOP TIME  01:58:18 27-Mar-21
 STEP.S                   0.00: STEP TIME
 NULL.                 -999.25: NULL VALUE
 DFWT.                        :  DIST FWL TEXT
 DFST.                        :  DIST FSL TEXT
 DMF .             Drill Floor:  DRILL MEAS FROM
 STIM.      20.26.40 11-Mar-21:  START TIME
 DATE.      20.26.40 30-Mar-21:  END TIME
 SPUD.               11-Mar-21:  SPUD DATE
 NREF.                    Grid:  NORTH REFERENCE
 HPTY.       Minimum Curvature:  HOLE POS TYPE
 DMOD.             Drill Model:  DRILL MOD DESC
 SVYD.                  Survey:  SURVEY DESC
 ILTD.               Lithology:  INTERP LTH DESC
 FTOP.          Formation Tops:  FORM TOPS DESC
 SON .        AZ-XX-0906805385:  JOB NUMBER
 WTYP.                Deviated:  WELL TYPE
 COMP.     BP Exploration (Caspian Sea) Ltd.:  COMPANY
 UWI .            /AZE00000198:  UNIQUE WELL IDENTIFIER
 API .            /AZE00000198:  API NUMBER
 BASE.              Azerbaijan:  LOGGING EQUIPMENT BASE LOCATION
 REGN.                   EESSA:  REGION
 PROV.                    Baku:  PROVINCE
 STAT.                    Baku:  STATE NAME
 CTRY.              Azerbaijan:  COUNTRY NAME
 FLD .                     ACG:  FIELD NAME
 SRVC.     Turan Drilling & Engineering:  CONTRACTOR
 MWDS.                    Baku:  MWD SHOP
 WELL.                    D09z:  WELL NAME
 JOBN.        AZ-XX-0906805385:  JOB TICKET NUMB
 RIG .              East Azeri:  RIG NAME
 DOE .                     N/A:  DOE NUMBER
 DCON.         Sperry Drilling:  DIRECTNL CONTR
 UNIT.                     N/A:  LOGGING EQUIPMENT ID
 PDAT.          Mean Sea Level:  PERMANENT DATUM
 MDS .        Operator Entered:  MAG DATA SOURCE
 CNTY.                        :  COUNTY
 LOC .                        :  LOCATION
 LMF .             Drill Floor:  LOG MEASURED FROM
 TVDS.m                  43.60:  TVDSS CORRECTN
 LATI.deg                40.02:  LATITUDE
 LONG.deg                51.45:  LONGITUDE
 WHNS.m                 -17.04:  WELL HEAD N/S
 WHEW.m                  -6.28:  WELL HEAD E/W
 UTMX.m              538763.98:  UTM X
 UTMY.m             4431880.20:  UTM Y
 DFWL.m                   0.00:  DISTANCE FWL
 DFSL.m                   0.00:  DISTANCE FSL
 SDEP.m                2680.01:  START DEPTH
 TDD .m                4000.01:  TOTAL DEPTH (DRILLER)
 VSDR.deg               225.71:  VERT SEC DIRECT
 GVFD.g                   1.00:  GRAVITY FIELD
 MFLD.nT              50353.00:  MAGNETIC FIELD
 MDIP.deg                59.49:  MAGNETIC DIP
 MDEC.deg                 6.46:  MAGNETIC DECL
 GRDC.deg                 0.29:  GRID CORRECTION
 AZTC.deg                 6.17:  AZM TOTAL CORR
 EPD .m                   0.00:  ELEVATION
 EGL .m                   0.00:  GROUND ELEVATION
 WDMS.m                 151.80:  WD ELEV
 APD .m                  43.60:  DEPTH ABOVE PD
 AGAP.m                  43.60:  AIR GAP
 VSEW.m                  -6.28:  VERT SEC E/W
 VSNS.m                 -17.04:  VERT SEC N/S
 DEP .m                2656.31:  DEPTH
 EKB .m                  43.60:  KB ELEVATION
 EDF .m                  43.60:  DF ELEVATION
 VSC .                       0:  VS TO CLOSURE
 MAGU.                 1851247:  MAGUTM CHECKSUM
~Parameter Information Block
#MNEM.UNIT       Value        Description
#---------     -----------    ---------------------------
 AV  .mps                 3.00:  Ann Velocity 
 AVMX.mps                 8.00:  Max Ann Veloc 
 AZIF.deg                 0.00:  Azm, Final 
 BHAT.                   Other:  BHA Type 
 BREV.rev                 0.00:  Rev Bit Total 
 BROT.°/30m               0.00:  Build Rotating 
 BS  .in                 10.25:  Bit Size 
 BTPL.psig              511.00:  Bit Press Loss 
 CABU.                      No:  Customer Abuse 
 CGEO.           Asif Pashayev:  Customer Geo 
 COMM.                     |ºg:  Run Comments 1 
 TCS .hr                 24.03:  Time Ciculation Ended 
 CV  .mps                 3.50:  Crit Velocity 
 CVMX.mps                 4.00:  Max Crit Veloc 
 DD1 .             Aziz Aliyev:  Direct Drillr 1 
 DD2 .      Fakhraddin Guliyev:  Direct Drillr 2 
 DDSV.                   Other:  DD Service 
 DEFF.%                  99.00:  % Det Eff 
 DLRX.°/30m               0.00:  Dogleg Rot Max 
 DLSO.°/30m               0.00:  Dogleg Oriented 
 DLSX.°/30m               0.00:  Dogleg Str Max 
 DRET.      23.00.40 28-Mar-21:  Drill End Time 
 DRST.      23.30.40 25-Mar-21:  Drill Start Tim 
 DTIM.hr                  0.00:  Time Drilling 
 EDEP.m                3886.01:  End Depth 
 ENG1.         Almaz Almadatov:  Engineer 1 
 ENG2.      Artemiy Matviyanov:  Engineer 2 
 ENG3.           Samir Gafarov:  Engineer 3 
 ETIM.      23.00.40 28-Mar-21:  End Time 
 FLOI.gpm               550.00:  Flow In 
 FLON.gpm               500.00:  Flow In Min 
 FLOS.cptm                0.00:  Fluid Loss 
 FLOX.gpm               590.00:  Flow In Max 
 HFLO.                      No:  High Flow 
 HPRE.                      No:  High Pressure 
 HTEM.                      No:  High Temp 
 HYDO.m                   1.80:  Hydro Offset 
 IFIN.deg                 0.00:  Inc, Final 
 IMAX.deg                 0.00:  Inc Max 
 IMIN.deg                 0.00:  Inc Min 
 IMND.m                   0.00:  Inc Min Depth 
 IMXD.m                   0.00:  Inc Max Depth 
 JARR.                      No:  Jarring 
 LETM.      03.22.40 28-Mar-21:  Log End Time 
 LOST.hr                     0:  Lost Rig Time 
 LSTM.      23.30.40 25-Mar-21:  Log Start Time 
 MDCL.ppm             34000.00:  Mud Chlorides 
 MDES.     Inversion Oil/Synthetic:  Mud Desc 
 DFD .sg                  1.51:  Mud Density 
 MDMN.sg                  1.51:  Dens Mud Min 
 MDMX.sg                  1.51:  Dens Mud Max 
 MOIL.                      70:  Run Mud Oil % 
 MOWR.                   70:30:  Run Mud OWR 
 MSND.                     0.2:  Run Mud Sand % 
 MSOL.                   21.60:  Run Mud Solids% 
 DFV .spqt               74.00:  Mud Viscosity 
 MWOD.in                  6.75:  MWD Tool OD 
 MWSI.                      No:  Serv Intrp, MWD 
 OTIM.hr                 69.09:  Time Operating 
 PCON.           Look Like New:  Pad Condition 
 PMAX.psia             3500.00:  Press Op, Max 
 PV  .cP                 70.00:  Mud PV 
 RUN .                     400:  Run Number 
 ROPA.m/hr                0.00:  ROP Avg 
 ROPN.m/hr                0.00:  ROP Min 
 ROPX.m/hr                0.00:  ROP Max 
 RPMA.rpm                80.00:  RPM Surface Avg 
 RPMN.rpm                10.00:  RPM Surface Min 
 RPMX.rpm               100.00:  RPM Surface Max 
 RRUN.                    0400:  Rig Run Number 
 RTIM.hr                  3.00:  Time Reaming 
 SAZI.deg                 0.00:  Azm, Start 
 SDEP.m                3886.01:  Start Depth 
 SIDD.                      No:  Serv Intrp, DD 
 SINC.deg                 0.00:  Inc, Start 
 SPPA.psig             3270.00:  SPP Avg 
 SPPN.psig             3220.00:  SPP Min 
 SPPX.psig             4430.00:  SPP Max 
 STIM.      23.30.40 25-Mar-21:  Start Time 
 SVCS.                 DD, MWD:  Services 
 SVER.                    9.20:  Sperry Version 
 TDAT.m                   0.00:  Tot Depth Attmp 
 TDDF.                      No:  Trip for DD 
 TFF .                      No:  Trip for Fail 
 TQAA.f-kp                8.00:  Torque Abs Avg 
 TQAN.f-kp                7.00:  Torque Abs Min 
 TQAX.f-kp               11.00:  Torque Abs Max 
 TRRT.°/30m               0.00:  Turn Rotating 
 MRT .                  EWR-M5:  Maximum Recorded Temperature 
 TTMX.degC               76.47:  Max Tool Temp 
 VS01.                90640857:  Virtual Str1 SN 
 VS02.                90639246:  Virtual Str2 SN 
 VS03.                90642265:  Virtual Str3 SN 
 VS04.                11654497:  Virtual Str4 SN 
 WBMN.klb                 0.00:  WOB Min 
 WITN.      Kamran Keberlinkiy:  Customer Rep 
 WITN.           Murad Guliyev:  Customer Rep 2 
 WOBA.klb                 0.00:  WOB Avg 
 WOBX.klb                 0.00:  WOB Max 
 YP  .lhf2               36.00:  Yield Point 
~Curve Information Block
#MNEM.UNIT                 API CODE     Curve Description
#---------               -----------    ---------------------------
 TIME.HHMMSS            00 000 000 000:  GT Time & Date
 GTDEPTH.m              00 000 000 000:  GT Depth
 GTPQH.psia             00 000 000 000:  GT HR Quartz Pressure
 GTTQ.degC              00 000 000 000:  GT Quartz Temperature
 GTTN.NONE              00 000 000 000:  GT Test Number
 GTET.sec               00 000 000 000:  GT Elapsed Test Time
 GTTVD.m                00 000 000 000:  GT True Vertical Depth
#Other Information
#
#WARRANTY: Halliburton will use its best efforts to furnish customers with 
#accurate information and interpretations that are part of, and incident to, the services 
#provided.  However, Halliburton cannot and does not warrant the accuracy 
#or correctness of such information and interpretations.  Under no circumstances should any 
#such information or interpretation be relied upon as the sole basis for any drilling, 
#completion, production, or financial decision or any procedure involving any risk to the 
#safety of any drilling venture, drilling rig or its crew or any other third party.  The 
#Customer has full responsibility for all drilling, completion and production operation.  
#Halliburton makes no representations or warranties, either expressed or 
#implied, including, but not limited to, the implied warranties of merchantability or fitness 
#for a particular purpose, with respect to the services rendered.  In no event will 
#Halliburton be liable for failure to obtain any particular results or for 
#any damages, including, but not limited to, indirect, special or consequential damages, 
#resulting from the use of any information or interpretation provided by Halliburton.
#
~A           TIME           GTDEPTH  GTPQH  GTTQ  GTTN  GTET   GTTVD  
# ...
   01:55:47.698.27-Mar-2021 3763.51 4955.06 59.95 1.00 276.06 3487.00
   01:55:47.898.27-Mar-2021 3763.51 4955.06 59.95 1.00 276.26 3487.00
   01:55:48.098.27-Mar-2021 3763.51 4955.14 59.95 1.00 276.46 3487.00
   01:55:48.298.27-Mar-2021 3763.51 4955.02 59.95 1.00 276.66 3487.00
   01:55:48.498.27-Mar-2021 3763.51 4955.04 59.95 1.00 276.86 3487.00
   01:55:48.698.27-Mar-2021 3763.51 4955.17 59.95 1.00 277.06 3487.00
   01:55:48.898.27-Mar-2021 3763.51 4955.17 59.95 1.00 277.26 3487.00
   01:55:49.098.27-Mar-2021 3763.51 4955.08 59.96 1.00 277.46 3487.00
   01:55:49.298.27-Mar-2021 3763.51 4955.12 59.96 1.00 277.66 3487.00
   01:55:49.498.27-Mar-2021 3763.51 4955.22 59.96 1.00 277.86 3487.00
   01:55:49.698.27-Mar-2021 3763.51 4955.01 59.96 1.00 278.06 3487.00
   01:55:49.898.27-Mar-2021 3763.51 4955.01 59.96 1.00 278.26 3487.00
   01:55:50.098.27-Mar-2021 3763.51 4955.20 59.96 1.00 278.46 3487.00
   01:55:50.298.27-Mar-2021 3763.51 4955.06 59.96 1.00 278.66 3487.00
   01:55:50.498.27-Mar-2021 3763.51 4955.12 59.96 1.00 278.86 3487.00
   01:55:50.698.27-Mar-2021 3763.51 4955.17 59.96 1.00 279.06 3487.00
   01:55:50.898.27-Mar-2021 3763.51 4955.17 59.96 1.00 279.26 3487.00
   01:55:51.098.27-Mar-2021 3763.51 4955.11 59.96 1.00 279.46 3487.00
   01:55:51.298.27-Mar-2021 3763.51 4955.16 59.96 1.00 279.66 3487.00
   01:55:51.498.27-Mar-2021 3763.51 4955.13 59.96 1.00 279.86 3487.00
   01:55:51.698.27-Mar-2021 3763.51 4955.17 59.96 1.00 280.06 3487.00
   01:55:51.898.27-Mar-2021 3763.51 4955.17 59.96 1.00 280.26 3487.00
   01:55:52.098.27-Mar-2021 3763.51 4955.16 59.96 1.00 280.46 3487.00
   01:55:52.299.27-Mar-2021 3763.51 4955.14 59.96 1.00 280.66 3487.00
   01:55:52.499.27-Mar-2021 3763.51 4955.15 59.96 1.00 280.86 3487.00
   01:55:52.699.27-Mar-2021 3763.51 4955.13 59.96 1.00 281.06 3487.00
   01:55:52.899.27-Mar-2021 3763.51 4955.13 59.96 1.00 281.26 3487.00
   01:55:53.099.27-Mar-2021 3763.51 4955.23 59.96 1.00 281.46 3487.00
   01:55:53.299.27-Mar-2021 3763.51 4955.10 59.96 1.00 281.66 3487.00
   01:55:53.499.27-Mar-2021 3763.51 4955.09 59.96 1.00 281.86 3487.00
   01:55:53.699.27-Mar-2021 3763.51 4955.19 59.96 1.00 282.06 3487.00
   01:55:53.899.27-Mar-2021 3763.51 4955.19 59.96 1.00 282.26 3487.00
   01:55:54.099.27-Mar-2021 3763.51 4955.15 59.96 1.00 282.46 3487.00
   01:55:54.299.27-Mar-2021 3763.51 4955.13 59.96 1.00 282.66 3487.00
   01:55:54.499.27-Mar-2021 3763.51 4955.18 59.96 1.00 282.86 3487.00
   01:55:54.699.27-Mar-2021 3763.51 4955.17 59.96 1.00 283.06 3487.00
   01:55:54.899.27-Mar-2021 3763.51 4955.17 59.96 1.00 283.26 3487.00
   01:55:55.099.27-Mar-2021 3763.51 4955.19 59.96 1.00 283.46 3487.00
   01:55:55.299.27-Mar-2021 3763.51 4955.16 59.96 1.00 283.66 3487.00
   01:55:55.499.27-Mar-2021 3763.51 4955.23 59.96 1.00 283.86 3487.00
   01:55:55.699.27-Mar-2021 3763.51 4955.22 59.96 1.00 284.06 3487.00
   01:55:55.899.27-Mar-2021 3763.51 4955.22 59.96 1.00 284.26 3487.00
   01:55:56.099.27-Mar-2021 3763.51 4955.17 59.96 1.00 284.46 3487.00
   01:55:56.299.27-Mar-2021 3763.51 4955.26 59.96 1.00 284.66 3487.00
   01:55:56.499.27-Mar-2021 3763.51 4955.19 59.96 1.00 284.86 3487.00
   01:55:56.699.27-Mar-2021 3763.51 4955.08 59.96 1.00 285.06 3487.00
   01:55:56.899.27-Mar-2021 3763.51 4955.08 59.96 1.00 285.26 3487.00
   01:55:57.100.27-Mar-2021 3763.51 4955.24 59.96 1.00 285.46 3487.00
   01:55:57.300.27-Mar-2021 3763.51 4955.16 59.96 1.00 285.66 3487.00
   01:55:57.500.27-Mar-2021 3763.51 4955.12 59.96 1.00 285.86 3487.00
   01:55:57.700.27-Mar-2021 3763.51 4955.27 59.96 1.00 286.06 3487.00
   01:55:57.900.27-Mar-2021 3763.51 4955.27 59.96 1.00 286.26 3487.00
   01:55:58.100.27-Mar-2021 3763.51 4955.06 59.96 1.00 286.46 3487.00
   01:55:58.300.27-Mar-2021 3763.51 4955.22 59.96 1.00 286.66 3487.00
   01:55:58.500.27-Mar-2021 3763.51 4955.29 59.96 1.00 286.86 3487.00
   01:55:58.700.27-Mar-2021 3763.51 4955.06 59.96 1.00 287.06 3487.00
   01:55:58.900.27-Mar-2021 3763.51 4955.06 59.96 1.00 287.26 3487.00
   01:55:59.100.27-Mar-2021 3763.51 4955.30 59.96 1.00 287.46 3487.00
   01:55:59.300.27-Mar-2021 3763.51 4955.15 59.96 1.00 287.66 3487.00
   01:55:59.500.27-Mar-2021 3763.51 4955.14 59.96 1.00 287.86 3487.00
   01:55:59.700.27-Mar-2021 3763.51 4955.22 59.96 1.00 288.06 3487.00
   01:55:59.900.27-Mar-2021 3763.51 4955.22 59.96 1.00 288.26 3487.00
   01:56:00.100.27-Mar-2021 3763.51 4955.15 59.96 1.00 288.46 3487.00
   01:56:00.300.27-Mar-2021 3763.51 4955.20 59.96 1.00 288.66 3487.00
   01:56:00.500.27-Mar-2021 3763.51 4955.18 59.96 1.00 288.86 3487.00
   01:56:00.700.27-Mar-2021 3763.51 4955.18 59.96 1.00 289.06 3487.00
   01:56:00.900.27-Mar-2021 3763.51 4955.18 59.96 1.00 289.26 3487.00
   01:56:01.100.27-Mar-2021 3763.51 4955.18 59.96 1.00 289.46 3487.00
   01:56:01.300.27-Mar-2021 3763.51 4955.19 59.96 1.00 289.66 3487.00
   01:56:01.500.27-Mar-2021 3763.51 4955.21 59.96 1.00 289.86 3487.00
   01:56:01.700.27-Mar-2021 3763.51 4955.25 59.96 1.00 290.06 3487.00
   01:56:01.901.27-Mar-2021 3763.51 4955.25 59.96 1.00 290.26 3487.00
   01:56:02.101.27-Mar-2021 3763.51 4955.18 59.96 1.00 290.46 3487.00
   01:56:02.301.27-Mar-2021 3763.51 4955.24 59.96 1.00 290.66 3487.00
   01:56:02.501.27-Mar-2021 3763.51 4955.14 59.96 1.00 290.86 3487.00
   01:56:02.701.27-Mar-2021 3763.51 4955.18 59.96 1.00 291.06 3487.00
   01:56:02.901.27-Mar-2021 3763.51 4955.18 59.96 1.00 291.26 3487.00
   01:56:03.101.27-Mar-2021 3763.51 4955.18 59.96 1.00 291.46 3487.00
   01:56:03.301.27-Mar-2021 3763.51 4955.15 59.96 1.00 291.66 3487.00
   01:56:03.501.27-Mar-2021 3763.51 4955.19 59.96 1.00 291.86 3487.00
   01:56:03.701.27-Mar-2021 3763.51 4955.20 59.96 1.00 292.06 3487.00
   01:56:03.901.27-Mar-2021 3763.51 4955.20 59.96 1.00 292.26 3487.00
   01:56:04.101.27-Mar-2021 3763.51 4955.19 59.96 1.00 292.46 3487.00
   01:56:04.301.27-Mar-2021 3763.51 4955.17 59.96 1.00 292.66 3487.00
   01:56:04.501.27-Mar-2021 3763.51 4955.19 59.96 1.00 292.86 3487.00
   01:56:04.701.27-Mar-2021 3763.51 4955.29 59.96 1.00 293.06 3487.00
   01:56:04.901.27-Mar-2021 3763.51 4955.29 59.96 1.00 293.26 3487.00
   01:56:05.101.27-Mar-2021 3763.51 4955.11 59.96 1.00 293.46 3487.00
   01:56:05.301.27-Mar-2021 3763.51 4955.31 59.96 1.00 293.66 3487.00
   01:56:05.501.27-Mar-2021 3763.51 4955.12 59.96 1.00 293.86 3487.00
   01:56:05.701.27-Mar-2021 3763.51 4955.17 59.96 1.00 294.06 3487.00
   01:56:05.901.27-Mar-2021 3763.51 4955.17 59.96 1.00 294.26 3487.00
   01:56:06.101.27-Mar-2021 3763.51 4955.13 59.96 1.00 294.46 3487.00
   01:56:06.301.27-Mar-2021 3763.51 4955.17 59.96 1.00 294.66 3487.00
   01:56:06.501.27-Mar-2021 3763.51 4955.20 59.96 1.00 294.86 3487.00
   01:56:06.702.27-Mar-2021 3763.51 4955.20 59.96 1.00 295.06 3487.00
   01:56:06.902.27-Mar-2021 3763.51 4955.20 59.96 1.00 295.26 3487.00
   01:56:07.102.27-Mar-2021 3763.51 4955.29 59.96 1.00 295.46 3487.00
   01:56:07.302.27-Mar-2021 3763.51 4955.14 59.96 1.00 295.66 3487.00
   01:56:07.502.27-Mar-2021 3763.51 4955.14 59.96 1.00 295.86 3487.00
   01:56:07.702.27-Mar-2021 3763.51 4955.26 59.97 1.00 296.06 3487.00
   01:56:07.902.27-Mar-2021 3763.51 4955.26 59.97 1.00 296.26 3487.00
   01:56:08.102.27-Mar-2021 3763.51 4955.17 59.97 1.00 296.46 3487.00
   01:56:08.302.27-Mar-2021 3763.51 4955.24 59.97 1.00 296.66 3487.00
   01:56:08.502.27-Mar-2021 3763.51 4955.26 59.97 1.00 296.86 3487.00
   01:56:08.702.27-Mar-2021 3763.51 4955.09 59.97 1.00 297.06 3487.00
   01:56:08.902.27-Mar-2021 3763.51 4955.09 59.97 1.00 297.26 3487.00
   01:56:09.102.27-Mar-2021 3763.51 4955.22 59.97 1.00 297.46 3487.00
   01:56:09.302.27-Mar-2021 3763.51 4955.19 59.97 1.00 297.66 3487.00
   01:56:09.502.27-Mar-2021 3763.51 4955.17 59.97 1.00 297.86 3487.00
   01:56:09.702.27-Mar-2021 3763.51 4955.20 59.97 1.00 298.06 3487.00
   01:56:09.902.27-Mar-2021 3763.51 4955.20 59.97 1.00 298.26 3487.00
   01:56:10.102.27-Mar-2021 3763.51 4955.21 59.97 1.00 298.46 3487.00
   01:56:10.302.27-Mar-2021 3763.51 4955.20 59.97 1.00 298.66 3487.00
   01:56:10.502.27-Mar-2021 3763.51 4955.21 59.97 1.00 298.86 3487.00
