~Version Information
 VERS.                  2.0:   CWLS log ASCII Standard -VERSION 2.0
 WRAP.                   NO:   One line per depth step
~Well Information Block
#MNEM.UNIT     VALUE/NAME     DESCRIPTION
#---------     -----------    ---------------------------
 STRT.S             10:17:32 27-Mar-21: START TIME 10:17:32 27-Mar-21
 STOP.S             10:24:40 27-Mar-21: STOP TIME  10:24:40 27-Mar-21
 STEP.S                   0.00: STEP TIME
 NULL.                 -999.25: NULL VALUE
 DFWT.                        :  DIST FWL TEXT
 DFST.                        :  DIST FSL TEXT
 DMF .             Drill Floor:  DRILL MEAS FROM
 STIM.      20.26.40 11-Mar-21:  START TIME
 DATE.      20.26.40 30-Mar-21:  END TIME
 SPUD.               11-Mar-21:  SPUD DATE
 NREF.                    Grid:  NORTH REFERENCE
 HPTY.       Minimum Curvature:  HOLE POS TYPE
 DMOD.             Drill Model:  DRILL MOD DESC
 SVYD.                  Survey:  SURVEY DESC
 ILTD.               Lithology:  INTERP LTH DESC
 FTOP.          Formation Tops:  FORM TOPS DESC
 SON .        AZ-XX-0906805385:  JOB NUMBER
 WTYP.                Deviated:  WELL TYPE
 COMP.     BP Exploration (Caspian Sea) Ltd.:  COMPANY
 UWI .            /AZE00000198:  UNIQUE WELL IDENTIFIER
 API .            /AZE00000198:  API NUMBER
 BASE.              Azerbaijan:  LOGGING EQUIPMENT BASE LOCATION
 REGN.                   EESSA:  REGION
 PROV.                    Baku:  PROVINCE
 STAT.                    Baku:  STATE NAME
 CTRY.              Azerbaijan:  COUNTRY NAME
 FLD .                     ACG:  FIELD NAME
 SRVC.     Turan Drilling & Engineering:  CONTRACTOR
 MWDS.                    Baku:  MWD SHOP
 WELL.                    D09z:  WELL NAME
 JOBN.        AZ-XX-0906805385:  JOB TICKET NUMB
 RIG .              East Azeri:  RIG NAME
 DOE .                     N/A:  DOE NUMBER
 DCON.         Sperry Drilling:  DIRECTNL CONTR
 UNIT.                     N/A:  LOGGING EQUIPMENT ID
 PDAT.          Mean Sea Level:  PERMANENT DATUM
 MDS .        Operator Entered:  MAG DATA SOURCE
 CNTY.                        :  COUNTY
 LOC .                        :  LOCATION
 LMF .             Drill Floor:  LOG MEASURED FROM
 TVDS.m                  43.60:  TVDSS CORRECTN
 LATI.deg                40.02:  LATITUDE
 LONG.deg                51.45:  LONGITUDE
 WHNS.m                 -17.04:  WELL HEAD N/S
 WHEW.m                  -6.28:  WELL HEAD E/W
 UTMX.m              538763.98:  UTM X
 UTMY.m             4431880.20:  UTM Y
 DFWL.m                   0.00:  DISTANCE FWL
 DFSL.m                   0.00:  DISTANCE FSL
 SDEP.m                2680.01:  START DEPTH
 TDD .m                4000.01:  TOTAL DEPTH (DRILLER)
 VSDR.deg               225.71:  VERT SEC DIRECT
 GVFD.g                   1.00:  GRAVITY FIELD
 MFLD.nT              50353.00:  MAGNETIC FIELD
 MDIP.deg                59.49:  MAGNETIC DIP
 MDEC.deg                 6.46:  MAGNETIC DECL
 GRDC.deg                 0.29:  GRID CORRECTION
 AZTC.deg                 6.17:  AZM TOTAL CORR
 EPD .m                   0.00:  ELEVATION
 EGL .m                   0.00:  GROUND ELEVATION
 WDMS.m                 151.80:  WD ELEV
 APD .m                  43.60:  DEPTH ABOVE PD
 AGAP.m                  43.60:  AIR GAP
 VSEW.m                  -6.28:  VERT SEC E/W
 VSNS.m                 -17.04:  VERT SEC N/S
 DEP .m                2656.31:  DEPTH
 EKB .m                  43.60:  KB ELEVATION
 EDF .m                  43.60:  DF ELEVATION
 VSC .                       0:  VS TO CLOSURE
 MAGU.                 1851247:  MAGUTM CHECKSUM
~Parameter Information Block
#MNEM.UNIT       Value        Description
#---------     -----------    ---------------------------
 AV  .mps                 3.00:  Ann Velocity 
 AVMX.mps                 8.00:  Max Ann Veloc 
 AZIF.deg                 0.00:  Azm, Final 
 BHAT.                   Other:  BHA Type 
 BREV.rev                 0.00:  Rev Bit Total 
 BROT.°/30m               0.00:  Build Rotating 
 BS  .in                 10.25:  Bit Size 
 BTPL.psig              511.00:  Bit Press Loss 
 CABU.                      No:  Customer Abuse 
 CGEO.           Asif Pashayev:  Customer Geo 
 COMM.                     LLx:  Run Comments 1 
 TCS .hr                 24.03:  Time Ciculation Ended 
 CV  .mps                 3.50:  Crit Velocity 
 CVMX.mps                 4.00:  Max Crit Veloc 
 DD1 .             Aziz Aliyev:  Direct Drillr 1 
 DD2 .      Fakhraddin Guliyev:  Direct Drillr 2 
 DDSV.                   Other:  DD Service 
 DEFF.%                  99.00:  % Det Eff 
 DLRX.°/30m               0.00:  Dogleg Rot Max 
 DLSO.°/30m               0.00:  Dogleg Oriented 
 DLSX.°/30m               0.00:  Dogleg Str Max 
 DRET.      23.00.40 28-Mar-21:  Drill End Time 
 DRST.      23.30.40 25-Mar-21:  Drill Start Tim 
 DTIM.hr                  0.00:  Time Drilling 
 EDEP.m                3886.01:  End Depth 
 ENG1.         Almaz Almadatov:  Engineer 1 
 ENG2.      Artemiy Matviyanov:  Engineer 2 
 ENG3.           Samir Gafarov:  Engineer 3 
 ETIM.      23.00.40 28-Mar-21:  End Time 
 FLOI.gpm               550.00:  Flow In 
 FLON.gpm               500.00:  Flow In Min 
 FLOS.cptm                0.00:  Fluid Loss 
 FLOX.gpm               590.00:  Flow In Max 
 HFLO.                      No:  High Flow 
 HPRE.                      No:  High Pressure 
 HTEM.                      No:  High Temp 
 HYDO.m                   1.80:  Hydro Offset 
 IFIN.deg                 0.00:  Inc, Final 
 IMAX.deg                 0.00:  Inc Max 
 IMIN.deg                 0.00:  Inc Min 
 IMND.m                   0.00:  Inc Min Depth 
 IMXD.m                   0.00:  Inc Max Depth 
 JARR.                      No:  Jarring 
 LETM.      03.22.40 28-Mar-21:  Log End Time 
 LOST.hr                     0:  Lost Rig Time 
 LSTM.      23.30.40 25-Mar-21:  Log Start Time 
 MDCL.ppm             34000.00:  Mud Chlorides 
 MDES.     Inversion Oil/Synthetic:  Mud Desc 
 DFD .sg                  1.51:  Mud Density 
 MDMN.sg                  1.51:  Dens Mud Min 
 MDMX.sg                  1.51:  Dens Mud Max 
 MOIL.                      70:  Run Mud Oil % 
 MOWR.                   70:30:  Run Mud OWR 
 MSND.                     0.2:  Run Mud Sand % 
 MSOL.                   21.60:  Run Mud Solids% 
 DFV .spqt               74.00:  Mud Viscosity 
 MWOD.in                  6.75:  MWD Tool OD 
 MWSI.                      No:  Serv Intrp, MWD 
 OTIM.hr                 69.09:  Time Operating 
 PCON.           Look Like New:  Pad Condition 
 PMAX.psia             3500.00:  Press Op, Max 
 PV  .cP                 70.00:  Mud PV 
 RUN .                     400:  Run Number 
 ROPA.m/hr                0.00:  ROP Avg 
 ROPN.m/hr                0.00:  ROP Min 
 ROPX.m/hr                0.00:  ROP Max 
 RPMA.rpm                80.00:  RPM Surface Avg 
 RPMN.rpm                10.00:  RPM Surface Min 
 RPMX.rpm               100.00:  RPM Surface Max 
 RRUN.                    0400:  Rig Run Number 
 RTIM.hr                  3.00:  Time Reaming 
 SAZI.deg                 0.00:  Azm, Start 
 SDEP.m                3886.01:  Start Depth 
 SIDD.                      No:  Serv Intrp, DD 
 SINC.deg                 0.00:  Inc, Start 
 SPPA.psig             3270.00:  SPP Avg 
 SPPN.psig             3220.00:  SPP Min 
 SPPX.psig             4430.00:  SPP Max 
 STIM.      23.30.40 25-Mar-21:  Start Time 
 SVCS.                 DD, MWD:  Services 
 SVER.                    9.20:  Sperry Version 
 TDAT.m                   0.00:  Tot Depth Attmp 
 TDDF.                      No:  Trip for DD 
 TFF .                      No:  Trip for Fail 
 TQAA.f-kp                8.00:  Torque Abs Avg 
 TQAN.f-kp                7.00:  Torque Abs Min 
 TQAX.f-kp               11.00:  Torque Abs Max 
 TRRT.°/30m               0.00:  Turn Rotating 
 MRT .                  EWR-M5:  Maximum Recorded Temperature 
 TTMX.degC               76.47:  Max Tool Temp 
 VS01.                90640857:  Virtual Str1 SN 
 VS02.                90639246:  Virtual Str2 SN 
 VS03.                90642265:  Virtual Str3 SN 
 VS04.                11654497:  Virtual Str4 SN 
 WBMN.klb                 0.00:  WOB Min 
 WITN.      Kamran Keberlinkiy:  Customer Rep 
 WITN.           Murad Guliyev:  Customer Rep 2 
 WOBA.klb                 0.00:  WOB Avg 
 WOBX.klb                 0.00:  WOB Max 
 YP  .lhf2               36.00:  Yield Point 
~Curve Information Block
#MNEM.UNIT                 API CODE     Curve Description
#---------               -----------    ---------------------------
 TIME.HHMMSS            00 000 000 000:  GT Time & Date
 GTDEPTH.m              00 000 000 000:  GT Depth
 GTPQH.psia             00 000 000 000:  GT HR Quartz Pressure
 GTTQ.degC              00 000 000 000:  GT Quartz Temperature
 GTTN.NONE              00 000 000 000:  GT Test Number
 GTET.sec               00 000 000 000:  GT Elapsed Test Time
 GTTVD.m                00 000 000 000:  GT True Vertical Depth
#Other Information
#
#WARRANTY: Halliburton will use its best efforts to furnish customers with 
#accurate information and interpretations that are part of, and incident to, the services 
#provided.  However, Halliburton cannot and does not warrant the accuracy 
#or correctness of such information and interpretations.  Under no circumstances should any 
#such information or interpretation be relied upon as the sole basis for any drilling, 
#completion, production, or financial decision or any procedure involving any risk to the 
#safety of any drilling venture, drilling rig or its crew or any other third party.  The 
#Customer has full responsibility for all drilling, completion and production operation.  
#Halliburton makes no representations or warranties, either expressed or 
#implied, including, but not limited to, the implied warranties of merchantability or fitness 
#for a particular purpose, with respect to the services rendered.  In no event will 
#Halliburton be liable for failure to obtain any particular results or for 
#any damages, including, but not limited to, indirect, special or consequential damages, 
#resulting from the use of any information or interpretation provided by Halliburton.
#
~A           TIME           GTDEPTH  GTPQH  GTTQ  GTTN   GTET   GTTVD  
# ...
   10:17:54.600.27-Mar-2021 3325.51 7167.58 61.08 10.00  22.60 3075.77
   10:17:54.800.27-Mar-2021 3325.51 7167.87 61.08 10.00  22.80 3075.77
   10:17:55.000.27-Mar-2021 3325.51 7167.59 61.08 10.00  23.00 3075.77
   10:17:55.200.27-Mar-2021 3325.51 7167.59 61.08 10.00  23.20 3075.77
   10:17:55.400.27-Mar-2021 3325.51 7167.34 61.08 10.00  23.40 3075.77
   10:17:55.600.27-Mar-2021 3325.51 7167.20 61.08 10.00  23.60 3075.77
   10:17:55.800.27-Mar-2021 3325.51 7167.99 61.08 10.00  23.80 3075.77
   10:17:56.000.27-Mar-2021 3325.51 7167.66 61.08 10.00  24.00 3075.77
   10:17:56.200.27-Mar-2021 3325.51 7167.66 61.08 10.00  24.20 3075.77
   10:17:56.400.27-Mar-2021 3325.51 7168.04 61.08 10.00  24.40 3075.77
   10:17:56.600.27-Mar-2021 3325.51 7167.78 61.08 10.00  24.60 3075.77
   10:17:56.800.27-Mar-2021 3325.51 7167.67 61.08 10.00  24.80 3075.77
   10:17:57.000.27-Mar-2021 3325.51 7167.71 61.08 10.00  25.00 3075.77
   10:17:57.200.27-Mar-2021 3325.51 7167.71 61.08 10.00  25.20 3075.77
   10:17:57.400.27-Mar-2021 3325.51 7167.66 61.08 10.00  25.40 3075.77
   10:17:57.600.27-Mar-2021 3325.51 7171.06 61.08 10.00  25.60 3075.77
   10:17:57.800.27-Mar-2021 3325.51 7167.81 61.08 10.00  25.80 3075.77
   10:17:58.000.27-Mar-2021 3325.51 7168.38 61.08 10.00  26.00 3075.77
   10:17:58.200.27-Mar-2021 3325.51 7168.38 61.08 10.00  26.20 3075.77
   10:17:58.400.27-Mar-2021 3325.51 7167.83 61.08 10.00  26.40 3075.77
   10:17:58.600.27-Mar-2021 3325.51 7168.16 61.08 10.00  26.60 3075.77
   10:17:58.800.27-Mar-2021 3325.51 7167.83 61.08 10.00  26.80 3075.77
   10:17:59.000.27-Mar-2021 3325.51 7168.34 61.08 10.00  27.00 3075.77
   10:17:59.200.27-Mar-2021 3325.51 7168.34 61.08 10.00  27.20 3075.77
   10:17:59.400.27-Mar-2021 3325.51 7168.15 61.08 10.00  27.40 3075.77
   10:17:59.600.27-Mar-2021 3325.51 7168.38 61.08 10.00  27.60 3075.77
   10:17:59.800.27-Mar-2021 3325.51 7167.86 61.08 10.00  27.80 3075.77
   10:18:00.000.27-Mar-2021 3325.51 7168.08 61.08 10.00  28.00 3075.77
   10:18:00.200.27-Mar-2021 3325.51 7168.08 61.08 10.00  28.20 3075.77
   10:18:00.400.27-Mar-2021 3325.51 7166.90 61.08 10.00  28.40 3075.77
   10:18:00.600.27-Mar-2021 3325.51 7168.49 61.08 10.00  28.60 3075.77
   10:18:00.800.27-Mar-2021 3325.51 7168.74 61.08 10.00  28.80 3075.77
   10:18:01.000.27-Mar-2021 3325.51 7168.31 61.08 10.00  29.00 3075.77
   10:18:01.200.27-Mar-2021 3325.51 7168.31 61.08 10.00  29.20 3075.77
   10:18:01.400.27-Mar-2021 3325.51 7167.97 61.08 10.00  29.40 3075.77
   10:18:01.600.27-Mar-2021 3325.51 7168.01 61.08 10.00  29.60 3075.77
   10:18:01.800.27-Mar-2021 3325.51 7172.38 61.08 10.00  29.80 3075.77
   10:18:02.000.27-Mar-2021 3325.51 7168.97 61.08 10.00  30.00 3075.77
   10:18:02.200.27-Mar-2021 3325.51 7168.97 61.08 10.00  30.20 3075.77
   10:18:02.400.27-Mar-2021 3325.51 7169.01 61.08 10.00  30.40 3075.77
   10:18:02.600.27-Mar-2021 3325.51 7168.87 61.08 10.00  30.60 3075.77
   10:18:02.800.27-Mar-2021 3325.51 7169.02 61.08 10.00  30.80 3075.77
   10:18:03.000.27-Mar-2021 3325.51 7168.57 61.08 10.00  31.00 3075.77
   10:18:03.200.27-Mar-2021 3325.51 7168.57 61.08 10.00  31.20 3075.77
   10:18:03.400.27-Mar-2021 3325.51 7169.56 61.08 10.00  31.40 3075.77
   10:18:03.600.27-Mar-2021 3325.51 7169.75 61.08 10.00  31.60 3075.77
   10:18:03.800.27-Mar-2021 3325.51 7170.29 61.08 10.00  31.80 3075.77
   10:18:04.000.27-Mar-2021 3325.51 7169.27 61.08 10.00  32.00 3075.77
   10:18:04.200.27-Mar-2021 3325.51 7169.27 61.08 10.00  32.20 3075.77
   10:18:04.400.27-Mar-2021 3325.51 7169.16 61.08 10.00  32.40 3075.77
   10:18:04.600.27-Mar-2021 3325.51 7171.63 61.08 10.00  32.60 3075.77
   10:18:04.800.27-Mar-2021 3325.51 7170.17 61.08 10.00  32.80 3075.77
   10:18:05.000.27-Mar-2021 3325.51 7169.64 61.08 10.00  33.00 3075.77
   10:18:05.200.27-Mar-2021 3325.51 7169.64 61.08 10.00  33.20 3075.77
   10:18:05.400.27-Mar-2021 3325.51 7169.92 61.08 10.00  33.40 3075.77
   10:18:05.600.27-Mar-2021 3325.51 7169.66 61.08 10.00  33.60 3075.77
   10:18:05.800.27-Mar-2021 3325.51 7169.79 61.08 10.00  33.80 3075.77
   10:18:06.000.27-Mar-2021 3325.51 7169.28 61.08 10.00  34.00 3075.77
   10:18:06.200.27-Mar-2021 3325.51 7169.28 61.08 10.00  34.20 3075.77
   10:18:06.400.27-Mar-2021 3325.51 7170.11 61.08 10.00  34.40 3075.77
   10:18:06.600.27-Mar-2021 3325.51 7169.73 61.08 10.00  34.60 3075.77
   10:18:06.800.27-Mar-2021 3325.51 7169.87 61.08 10.00  34.80 3075.77
   10:18:07.000.27-Mar-2021 3325.51 7169.77 61.08 10.00  35.00 3075.77
   10:18:07.200.27-Mar-2021 3325.51 7169.77 61.08 10.00  35.20 3075.77
   10:18:07.400.27-Mar-2021 3325.51 7191.31 61.08 10.00  35.40 3075.77
   10:18:07.600.27-Mar-2021 3325.51 7208.13 61.08 10.00  35.60 3075.77
   10:18:07.800.27-Mar-2021 3325.51 7223.98 61.07 10.00  35.80 3075.77
   10:18:08.000.27-Mar-2021 3325.51 7253.47 61.07 10.00  36.00 3075.77
   10:18:08.200.27-Mar-2021 3325.51 7253.47 61.07 10.00  36.20 3075.77
   10:18:08.400.27-Mar-2021 3325.51 7227.28 61.07 10.00  36.40 3075.77
   10:18:08.600.27-Mar-2021 3325.51 7217.38 61.07 10.00  36.60 3075.77
   10:18:08.800.27-Mar-2021 3325.51 7208.48 61.07 10.00  36.80 3075.77
   10:18:09.000.27-Mar-2021 3325.51 7201.25 61.07 10.00  37.00 3075.77
   10:18:09.200.27-Mar-2021 3325.51 7201.25 61.07 10.00  37.20 3075.77
   10:18:09.400.27-Mar-2021 3325.51 7186.64 61.07 10.00  37.40 3075.77
   10:18:09.600.27-Mar-2021 3325.51 7179.92 61.07 10.00  37.60 3075.77
   10:18:09.800.27-Mar-2021 3325.51 7172.52 61.07 10.00  37.80 3075.77
   10:18:10.000.27-Mar-2021 3325.51 7165.62 61.07 10.00  38.00 3075.77
   10:18:10.200.27-Mar-2021 3325.51 7165.62 61.07 10.00  38.20 3075.77
   10:18:10.400.27-Mar-2021 3325.51 7151.59 61.07 10.00  38.40 3075.77
   10:18:10.600.27-Mar-2021 3325.51 7144.77 61.07 10.00  38.60 3075.77
   10:18:10.800.27-Mar-2021 3325.51 7137.24 61.07 10.00  38.80 3075.77
   10:18:11.000.27-Mar-2021 3325.51 7128.79 61.07 10.00  39.00 3075.77
   10:18:11.200.27-Mar-2021 3325.51 7128.79 61.07 10.00  39.20 3075.77
   10:18:11.400.27-Mar-2021 3325.51 7112.42 61.07 10.00  39.40 3075.77
   10:18:11.600.27-Mar-2021 3325.51 7101.84 61.07 10.00  39.60 3075.77
   10:18:11.800.27-Mar-2021 3325.51 7088.74 61.07 10.00  39.80 3075.77
   10:18:12.000.27-Mar-2021 3325.51 7074.14 61.07 10.00  40.00 3075.77
   10:18:12.200.27-Mar-2021 3325.51 7074.14 61.07 10.00  40.20 3075.77
   10:18:12.400.27-Mar-2021 3325.51 7046.69 61.07 10.00  40.40 3075.77
   10:18:12.600.27-Mar-2021 3325.51 7027.66 61.07 10.00  40.60 3075.77
   10:18:12.800.27-Mar-2021 3325.51 7011.55 61.07 10.00  40.80 3075.77
   10:18:13.000.27-Mar-2021 3325.51 6986.26 61.07 10.00  41.00 3075.77
   10:18:13.200.27-Mar-2021 3325.51 6986.26 61.07 10.00  41.20 3075.77
   10:18:13.400.27-Mar-2021 3325.51 6942.59 61.07 10.00  41.40 3075.77
   10:18:13.600.27-Mar-2021 3325.51 6933.37 61.07 10.00  41.60 3075.77
   10:18:13.800.27-Mar-2021 3325.51 6889.05 61.07 10.00  41.80 3075.77
   10:18:14.000.27-Mar-2021 3325.51 6830.01 61.07 10.00  42.00 3075.77
   10:18:14.200.27-Mar-2021 3325.51 6830.01 61.07 10.00  42.20 3075.77
   10:18:14.400.27-Mar-2021 3325.51 6623.92 61.07 10.00  42.40 3075.77
   10:18:14.600.27-Mar-2021 3325.51 6506.12 61.07 10.00  42.60 3075.77
   10:18:14.800.27-Mar-2021 3325.51 6390.88 61.07 10.00  42.80 3075.77
   10:18:15.000.27-Mar-2021 3325.51 6298.19 61.07 10.00  43.00 3075.77
   10:18:15.200.27-Mar-2021 3325.51 6298.19 61.07 10.00  43.20 3075.77
   10:18:15.400.27-Mar-2021 3325.51 6219.60 61.07 10.00  43.40 3075.77
   10:18:15.600.27-Mar-2021 3325.51 6207.21 61.07 10.00  43.60 3075.77
   10:18:15.800.27-Mar-2021 3325.51 6252.32 61.07 10.00  43.80 3075.77
   10:18:16.000.27-Mar-2021 3325.51 6363.14 61.07 10.00  44.00 3075.77
   10:18:16.200.27-Mar-2021 3325.51 6363.14 61.07 10.00  44.20 3075.77
   10:18:16.400.27-Mar-2021 3325.51 6329.01 61.07 10.00  44.40 3075.77
   10:18:16.600.27-Mar-2021 3325.51 6288.74 61.07 10.00  44.60 3075.77
   10:18:16.800.27-Mar-2021 3325.51 6252.27 61.07 10.00  44.80 3075.77
   10:18:17.000.27-Mar-2021 3325.51 6218.20 61.07 10.00  45.00 3075.77
