~Version Information
 VERS.                  2.0:   CWLS log ASCII Standard -VERSION 2.0
 WRAP.                   NO:   One line per depth step
~Well Information Block
#MNEM.UNIT     VALUE/NAME     DESCRIPTION
#---------     -----------    ---------------------------
 STRT.S             01:51:11 27-Mar-21: START TIME 01:51:11 27-Mar-21
 STOP.S             01:58:18 27-Mar-21: STOP TIME  01:58:18 27-Mar-21
 STEP.S                   0.00: STEP TIME
 NULL.                 -999.25: NULL VALUE
 DFWT.                        :  DIST FWL TEXT
 DFST.                        :  DIST FSL TEXT
 DMF .             Drill Floor:  DRILL MEAS FROM
 STIM.      20.26.40 11-Mar-21:  START TIME
 DATE.      20.26.40 30-Mar-21:  END TIME
 SPUD.               11-Mar-21:  SPUD DATE
 NREF.                    Grid:  NORTH REFERENCE
 HPTY.       Minimum Curvature:  HOLE POS TYPE
 DMOD.             Drill Model:  DRILL MOD DESC
 SVYD.                  Survey:  SURVEY DESC
 ILTD.               Lithology:  INTERP LTH DESC
 FTOP.          Formation Tops:  FORM TOPS DESC
 SON .        AZ-XX-0906805385:  JOB NUMBER
 WTYP.                Deviated:  WELL TYPE
 COMP.     BP Exploration (Caspian Sea) Ltd.:  COMPANY
 UWI .            /AZE00000198:  UNIQUE WELL IDENTIFIER
 API .            /AZE00000198:  API NUMBER
 BASE.              Azerbaijan:  LOGGING EQUIPMENT BASE LOCATION
 REGN.                   EESSA:  REGION
 PROV.                    Baku:  PROVINCE
 STAT.                    Baku:  STATE NAME
 CTRY.              Azerbaijan:  COUNTRY NAME
 FLD .                     ACG:  FIELD NAME
 SRVC.     Turan Drilling & Engineering:  CONTRACTOR
 MWDS.                    Baku:  MWD SHOP
 WELL.                    D09z:  WELL NAME
 JOBN.        AZ-XX-0906805385:  JOB TICKET NUMB
 RIG .              East Azeri:  RIG NAME
 DOE .                     N/A:  DOE NUMBER
 DCON.         Sperry Drilling:  DIRECTNL CONTR
 UNIT.                     N/A:  LOGGING EQUIPMENT ID
 PDAT.          Mean Sea Level:  PERMANENT DATUM
 MDS .        Operator Entered:  MAG DATA SOURCE
 CNTY.                        :  COUNTY
 LOC .                        :  LOCATION
 LMF .             Drill Floor:  LOG MEASURED FROM
 TVDS.m                  43.60:  TVDSS CORRECTN
 LATI.deg                40.02:  LATITUDE
 LONG.deg                51.45:  LONGITUDE
 WHNS.m                 -17.04:  WELL HEAD N/S
 WHEW.m                  -6.28:  WELL HEAD E/W
 UTMX.m              538763.98:  UTM X
 UTMY.m             4431880.20:  UTM Y
 DFWL.m                   0.00:  DISTANCE FWL
 DFSL.m                   0.00:  DISTANCE FSL
 SDEP.m                2680.01:  START DEPTH
 TDD .m                4000.01:  TOTAL DEPTH (DRILLER)
 VSDR.deg               225.71:  VERT SEC DIRECT
 GVFD.g                   1.00:  GRAVITY FIELD
 MFLD.nT              50353.00:  MAGNETIC FIELD
 MDIP.deg                59.49:  MAGNETIC DIP
 MDEC.deg                 6.46:  MAGNETIC DECL
 GRDC.deg                 0.29:  GRID CORRECTION
 AZTC.deg                 6.17:  AZM TOTAL CORR
 EPD .m                   0.00:  ELEVATION
 EGL .m                   0.00:  GROUND ELEVATION
 WDMS.m                 151.80:  WD ELEV
 APD .m                  43.60:  DEPTH ABOVE PD
 AGAP.m                  43.60:  AIR GAP
 VSEW.m                  -6.28:  VERT SEC E/W
 VSNS.m                 -17.04:  VERT SEC N/S
 DEP .m                2656.31:  DEPTH
 EKB .m                  43.60:  KB ELEVATION
 EDF .m                  43.60:  DF ELEVATION
 VSC .                       0:  VS TO CLOSURE
 MAGU.                 1851247:  MAGUTM CHECKSUM
~Parameter Information Block
#MNEM.UNIT       Value        Description
#---------     -----------    ---------------------------
 AV  .mps                 3.00:  Ann Velocity 
 AVMX.mps                 8.00:  Max Ann Veloc 
 AZIF.deg                 0.00:  Azm, Final 
 BHAT.                   Other:  BHA Type 
 BREV.rev                 0.00:  Rev Bit Total 
 BROT.°/30m               0.00:  Build Rotating 
 BS  .in                 10.25:  Bit Size 
 BTPL.psig              511.00:  Bit Press Loss 
 CABU.                      No:  Customer Abuse 
 CGEO.           Asif Pashayev:  Customer Geo 
 COMM.                     |ºg:  Run Comments 1 
 TCS .hr                 24.03:  Time Ciculation Ended 
 CV  .mps                 3.50:  Crit Velocity 
 CVMX.mps                 4.00:  Max Crit Veloc 
 DD1 .             Aziz Aliyev:  Direct Drillr 1 
 DD2 .      Fakhraddin Guliyev:  Direct Drillr 2 
 DDSV.                   Other:  DD Service 
 DEFF.%                  99.00:  % Det Eff 
 DLRX.°/30m               0.00:  Dogleg Rot Max 
 DLSO.°/30m               0.00:  Dogleg Oriented 
 DLSX.°/30m               0.00:  Dogleg Str Max 
 DRET.      23.00.40 28-Mar-21:  Drill End Time 
 DRST.      23.30.40 25-Mar-21:  Drill Start Tim 
 DTIM.hr                  0.00:  Time Drilling 
 EDEP.m                3886.01:  End Depth 
 ENG1.         Almaz Almadatov:  Engineer 1 
 ENG2.      Artemiy Matviyanov:  Engineer 2 
 ENG3.           Samir Gafarov:  Engineer 3 
 ETIM.      23.00.40 28-Mar-21:  End Time 
 FLOI.gpm               550.00:  Flow In 
 FLON.gpm               500.00:  Flow In Min 
 FLOS.cptm                0.00:  Fluid Loss 
 FLOX.gpm               590.00:  Flow In Max 
 HFLO.                      No:  High Flow 
 HPRE.                      No:  High Pressure 
 HTEM.                      No:  High Temp 
 HYDO.m                   1.80:  Hydro Offset 
 IFIN.deg                 0.00:  Inc, Final 
 IMAX.deg                 0.00:  Inc Max 
 IMIN.deg                 0.00:  Inc Min 
 IMND.m                   0.00:  Inc Min Depth 
 IMXD.m                   0.00:  Inc Max Depth 
 JARR.                      No:  Jarring 
 LETM.      03.22.40 28-Mar-21:  Log End Time 
 LOST.hr                     0:  Lost Rig Time 
 LSTM.      23.30.40 25-Mar-21:  Log Start Time 
 MDCL.ppm             34000.00:  Mud Chlorides 
 MDES.     Inversion Oil/Synthetic:  Mud Desc 
 DFD .sg                  1.51:  Mud Density 
 MDMN.sg                  1.51:  Dens Mud Min 
 MDMX.sg                  1.51:  Dens Mud Max 
 MOIL.                      70:  Run Mud Oil % 
 MOWR.                   70:30:  Run Mud OWR 
 MSND.                     0.2:  Run Mud Sand % 
 MSOL.                   21.60:  Run Mud Solids% 
 DFV .spqt               74.00:  Mud Viscosity 
 MWOD.in                  6.75:  MWD Tool OD 
 MWSI.                      No:  Serv Intrp, MWD 
 OTIM.hr                 69.09:  Time Operating 
 PCON.           Look Like New:  Pad Condition 
 PMAX.psia             3500.00:  Press Op, Max 
 PV  .cP                 70.00:  Mud PV 
 RUN .                     400:  Run Number 
 ROPA.m/hr                0.00:  ROP Avg 
 ROPN.m/hr                0.00:  ROP Min 
 ROPX.m/hr                0.00:  ROP Max 
 RPMA.rpm                80.00:  RPM Surface Avg 
 RPMN.rpm                10.00:  RPM Surface Min 
 RPMX.rpm               100.00:  RPM Surface Max 
 RRUN.                    0400:  Rig Run Number 
 RTIM.hr                  3.00:  Time Reaming 
 SAZI.deg                 0.00:  Azm, Start 
 SDEP.m                3886.01:  Start Depth 
 SIDD.                      No:  Serv Intrp, DD 
 SINC.deg                 0.00:  Inc, Start 
 SPPA.psig             3270.00:  SPP Avg 
 SPPN.psig             3220.00:  SPP Min 
 SPPX.psig             4430.00:  SPP Max 
 STIM.      23.30.40 25-Mar-21:  Start Time 
 SVCS.                 DD, MWD:  Services 
 SVER.                    9.20:  Sperry Version 
 TDAT.m                   0.00:  Tot Depth Attmp 
 TDDF.                      No:  Trip for DD 
 TFF .                      No:  Trip for Fail 
 TQAA.f-kp                8.00:  Torque Abs Avg 
 TQAN.f-kp                7.00:  Torque Abs Min 
 TQAX.f-kp               11.00:  Torque Abs Max 
 TRRT.°/30m               0.00:  Turn Rotating 
 MRT .                  EWR-M5:  Maximum Recorded Temperature 
 TTMX.degC               76.47:  Max Tool Temp 
 VS01.                90640857:  Virtual Str1 SN 
 VS02.                90639246:  Virtual Str2 SN 
 VS03.                90642265:  Virtual Str3 SN 
 VS04.                11654497:  Virtual Str4 SN 
 WBMN.klb                 0.00:  WOB Min 
 WITN.      Kamran Keberlinkiy:  Customer Rep 
 WITN.           Murad Guliyev:  Customer Rep 2 
 WOBA.klb                 0.00:  WOB Avg 
 WOBX.klb                 0.00:  WOB Max 
 YP  .lhf2               36.00:  Yield Point 
~Curve Information Block
#MNEM.UNIT                 API CODE     Curve Description
#---------               -----------    ---------------------------
 TIME.HHMMSS            00 000 000 000:  GT Time & Date
 GTDEPTH.m              00 000 000 000:  GT Depth
 GTPQH.psia             00 000 000 000:  GT HR Quartz Pressure
 GTTQ.degC              00 000 000 000:  GT Quartz Temperature
 GTTN.NONE              00 000 000 000:  GT Test Number
 GTET.sec               00 000 000 000:  GT Elapsed Test Time
 GTTVD.m                00 000 000 000:  GT True Vertical Depth
#Other Information
#
#WARRANTY: Halliburton will use its best efforts to furnish customers with 
#accurate information and interpretations that are part of, and incident to, the services 
#provided.  However, Halliburton cannot and does not warrant the accuracy 
#or correctness of such information and interpretations.  Under no circumstances should any 
#such information or interpretation be relied upon as the sole basis for any drilling, 
#completion, production, or financial decision or any procedure involving any risk to the 
#safety of any drilling venture, drilling rig or its crew or any other third party.  The 
#Customer has full responsibility for all drilling, completion and production operation.  
#Halliburton makes no representations or warranties, either expressed or 
#implied, including, but not limited to, the implied warranties of merchantability or fitness 
#for a particular purpose, with respect to the services rendered.  In no event will 
#Halliburton be liable for failure to obtain any particular results or for 
#any damages, including, but not limited to, indirect, special or consequential damages, 
#resulting from the use of any information or interpretation provided by Halliburton.
#
~A           TIME           GTDEPTH  GTPQH  GTTQ  GTTN  GTET   GTTVD  
# ...
   01:55:01.688.27-Mar-2021 3763.51 4955.36 59.93 1.00 230.05 3487.00
   01:55:01.888.27-Mar-2021 3763.51 4955.36 59.93 1.00 230.25 3487.00
   01:55:02.088.27-Mar-2021 3763.51 4955.35 59.93 1.00 230.45 3487.00
   01:55:02.288.27-Mar-2021 3763.51 4955.35 59.93 1.00 230.65 3487.00
   01:55:02.488.27-Mar-2021 3763.51 4955.36 59.93 1.00 230.85 3487.00
   01:55:02.688.27-Mar-2021 3763.51 4955.36 59.93 1.00 231.05 3487.00
   01:55:02.888.27-Mar-2021 3763.51 4955.36 59.93 1.00 231.25 3487.00
   01:55:03.088.27-Mar-2021 3763.51 4955.36 59.93 1.00 231.45 3487.00
   01:55:03.288.27-Mar-2021 3763.51 4955.35 59.93 1.00 231.65 3487.00
   01:55:03.488.27-Mar-2021 3763.51 4955.36 59.93 1.00 231.85 3487.00
   01:55:03.688.27-Mar-2021 3763.51 4955.37 59.93 1.00 232.05 3487.00
   01:55:03.889.27-Mar-2021 3763.51 4955.37 59.93 1.00 232.25 3487.00
   01:55:04.089.27-Mar-2021 3763.51 4955.40 59.93 1.00 232.45 3487.00
   01:55:04.289.27-Mar-2021 3763.51 4955.42 59.93 1.00 232.65 3487.00
   01:55:04.489.27-Mar-2021 3763.51 4955.26 59.93 1.00 232.85 3487.00
   01:55:04.689.27-Mar-2021 3763.51 4955.34 59.93 1.00 233.05 3487.00
   01:55:04.889.27-Mar-2021 3763.51 4955.34 59.93 1.00 233.25 3487.00
   01:55:05.089.27-Mar-2021 3763.51 4955.33 59.93 1.00 233.45 3487.00
   01:55:05.289.27-Mar-2021 3763.51 4955.33 59.93 1.00 233.65 3487.00
   01:55:05.489.27-Mar-2021 3763.51 4955.35 59.93 1.00 233.85 3487.00
   01:55:05.689.27-Mar-2021 3763.51 4955.34 59.93 1.00 234.05 3487.00
   01:55:05.889.27-Mar-2021 3763.51 4955.34 59.93 1.00 234.25 3487.00
   01:55:06.089.27-Mar-2021 3763.51 4955.34 59.93 1.00 234.45 3487.00
   01:55:06.289.27-Mar-2021 3763.51 4955.34 59.93 1.00 234.65 3487.00
   01:55:06.489.27-Mar-2021 3763.51 4955.41 59.93 1.00 234.85 3487.00
   01:55:06.689.27-Mar-2021 3763.51 4955.42 59.93 1.00 235.05 3487.00
   01:55:06.889.27-Mar-2021 3763.51 4955.42 59.93 1.00 235.25 3487.00
   01:55:07.089.27-Mar-2021 3763.51 4955.31 59.94 1.00 235.45 3487.00
   01:55:07.289.27-Mar-2021 3763.51 4955.41 59.94 1.00 235.65 3487.00
   01:55:07.489.27-Mar-2021 3763.51 4955.33 59.94 1.00 235.85 3487.00
   01:55:07.689.27-Mar-2021 3763.51 4955.35 59.94 1.00 236.05 3487.00
   01:55:07.889.27-Mar-2021 3763.51 4955.35 59.94 1.00 236.25 3487.00
   01:55:08.089.27-Mar-2021 3763.51 4955.23 59.94 1.00 236.45 3487.00
   01:55:08.289.27-Mar-2021 3763.51 4955.34 59.94 1.00 236.65 3487.00
   01:55:08.489.27-Mar-2021 3763.51 4955.38 59.94 1.00 236.85 3487.00
   01:55:08.689.27-Mar-2021 3763.51 4955.35 59.94 1.00 237.05 3487.00
   01:55:08.890.27-Mar-2021 3763.51 4955.35 59.94 1.00 237.25 3487.00
   01:55:09.090.27-Mar-2021 3763.51 4955.41 59.94 1.00 237.45 3487.00
   01:55:09.290.27-Mar-2021 3763.51 4955.26 59.94 1.00 237.65 3487.00
   01:55:09.490.27-Mar-2021 3763.51 4955.30 59.94 1.00 237.85 3487.00
   01:55:09.690.27-Mar-2021 3763.51 4955.43 59.94 1.00 238.05 3487.00
   01:55:09.890.27-Mar-2021 3763.51 4955.43 59.94 1.00 238.25 3487.00
   01:55:10.090.27-Mar-2021 3763.51 4955.31 59.94 1.00 238.45 3487.00
   01:55:10.290.27-Mar-2021 3763.51 4955.37 59.94 1.00 238.65 3487.00
   01:55:10.490.27-Mar-2021 3763.51 4955.45 59.94 1.00 238.85 3487.00
   01:55:10.690.27-Mar-2021 3763.51 4955.22 59.94 1.00 239.05 3487.00
   01:55:10.890.27-Mar-2021 3763.51 4955.22 59.94 1.00 239.25 3487.00
   01:55:11.090.27-Mar-2021 3763.51 4955.40 59.94 1.00 239.45 3487.00
   01:55:11.290.27-Mar-2021 3763.51 4955.29 59.94 1.00 239.65 3487.00
   01:55:11.490.27-Mar-2021 3763.51 4955.34 59.94 1.00 239.85 3487.00
   01:55:11.690.27-Mar-2021 3763.51 4955.40 59.94 1.00 240.05 3487.00
   01:55:11.890.27-Mar-2021 3763.51 4955.40 59.94 1.00 240.25 3487.00
   01:55:12.090.27-Mar-2021 3763.51 4955.33 59.94 1.00 240.45 3487.00
   01:55:12.290.27-Mar-2021 3763.51 4955.34 59.94 1.00 240.65 3487.00
   01:55:12.490.27-Mar-2021 3763.51 4955.34 59.94 1.00 240.85 3487.00
   01:55:12.690.27-Mar-2021 3763.51 4955.37 59.94 1.00 241.05 3487.00
   01:55:12.890.27-Mar-2021 3763.51 4955.37 59.94 1.00 241.25 3487.00
   01:55:13.090.27-Mar-2021 3763.51 4955.33 59.94 1.00 241.45 3487.00
   01:55:13.290.27-Mar-2021 3763.51 4955.35 59.94 1.00 241.65 3487.00
   01:55:13.490.27-Mar-2021 3763.51 4955.36 59.94 1.00 241.85 3487.00
   01:55:13.691.27-Mar-2021 3763.51 4955.36 59.94 1.00 242.05 3487.00
   01:55:13.891.27-Mar-2021 3763.51 4955.36 59.94 1.00 242.25 3487.00
   01:55:14.091.27-Mar-2021 3763.51 4955.43 59.94 1.00 242.45 3487.00
   01:55:14.291.27-Mar-2021 3763.51 4955.31 59.94 1.00 242.65 3487.00
   01:55:14.491.27-Mar-2021 3763.51 4955.29 59.94 1.00 242.85 3487.00
   01:55:14.691.27-Mar-2021 3763.51 4955.37 59.94 1.00 243.05 3487.00
   01:55:14.891.27-Mar-2021 3763.51 4955.37 59.94 1.00 243.25 3487.00
   01:55:15.091.27-Mar-2021 3763.51 4955.33 59.94 1.00 243.45 3487.00
   01:55:15.291.27-Mar-2021 3763.51 4955.34 59.94 1.00 243.65 3487.00
   01:55:15.491.27-Mar-2021 3763.51 4955.36 59.94 1.00 243.85 3487.00
   01:55:15.691.27-Mar-2021 3763.51 4955.33 59.94 1.00 244.05 3487.00
   01:55:15.891.27-Mar-2021 3763.51 4955.33 59.94 1.00 244.25 3487.00
   01:55:16.091.27-Mar-2021 3763.51 4955.37 59.94 1.00 244.45 3487.00
   01:55:16.291.27-Mar-2021 3763.51 4955.36 59.94 1.00 244.65 3487.00
   01:55:16.491.27-Mar-2021 3763.51 4955.40 59.94 1.00 244.85 3487.00
   01:55:16.691.27-Mar-2021 3763.51 4955.38 59.94 1.00 245.05 3487.00
   01:55:16.891.27-Mar-2021 3763.51 4955.38 59.94 1.00 245.25 3487.00
   01:55:17.091.27-Mar-2021 3763.51 4955.36 59.94 1.00 245.45 3487.00
   01:55:17.291.27-Mar-2021 3763.51 4955.38 59.94 1.00 245.65 3487.00
   01:55:17.491.27-Mar-2021 3763.51 4955.31 59.94 1.00 245.85 3487.00
   01:55:17.691.27-Mar-2021 3763.51 4955.42 59.94 1.00 246.05 3487.00
   01:55:17.891.27-Mar-2021 3763.51 4955.42 59.94 1.00 246.25 3487.00
   01:55:18.091.27-Mar-2021 3763.51 4955.25 59.94 1.00 246.45 3487.00
   01:55:18.291.27-Mar-2021 3763.51 4955.35 59.94 1.00 246.65 3487.00
   01:55:18.492.27-Mar-2021 3763.51 4955.34 59.94 1.00 246.85 3487.00
   01:55:18.692.27-Mar-2021 3763.51 4955.31 59.94 1.00 247.05 3487.00
   01:55:18.892.27-Mar-2021 3763.51 4955.31 59.94 1.00 247.25 3487.00
   01:55:19.092.27-Mar-2021 3763.51 4955.39 59.94 1.00 247.45 3487.00
   01:55:19.292.27-Mar-2021 3763.51 4955.24 59.94 1.00 247.65 3487.00
   01:55:19.492.27-Mar-2021 3763.51 4955.33 59.94 1.00 247.85 3487.00
   01:55:19.692.27-Mar-2021 3763.51 4955.39 59.94 1.00 248.05 3487.00
   01:55:19.892.27-Mar-2021 3763.51 4955.39 59.94 1.00 248.25 3487.00
   01:55:20.092.27-Mar-2021 3763.51 4955.35 59.94 1.00 248.45 3487.00
   01:55:20.292.27-Mar-2021 3763.51 4955.42 59.94 1.00 248.65 3487.00
   01:55:20.492.27-Mar-2021 3763.51 4955.23 59.94 1.00 248.85 3487.00
   01:55:20.692.27-Mar-2021 3763.51 4955.26 59.94 1.00 249.05 3487.00
   01:55:20.892.27-Mar-2021 3763.51 4955.26 59.94 1.00 249.25 3487.00
   01:55:21.092.27-Mar-2021 3763.51 4955.34 59.94 1.00 249.45 3487.00
   01:55:21.292.27-Mar-2021 3763.51 4955.28 59.94 1.00 249.65 3487.00
   01:55:21.492.27-Mar-2021 3763.51 4955.37 59.94 1.00 249.85 3487.00
   01:55:21.692.27-Mar-2021 3763.51 4955.33 59.94 1.00 250.05 3487.00
   01:55:21.892.27-Mar-2021 3763.51 4955.33 59.94 1.00 250.25 3487.00
   01:55:22.092.27-Mar-2021 3763.51 4955.35 59.94 1.00 250.45 3487.00
   01:55:22.292.27-Mar-2021 3763.51 4955.31 59.94 1.00 250.65 3487.00
   01:55:22.492.27-Mar-2021 3763.51 4955.32 59.94 1.00 250.85 3487.00
   01:55:22.692.27-Mar-2021 3763.51 4955.37 59.94 1.00 251.05 3487.00
   01:55:22.892.27-Mar-2021 3763.51 4955.37 59.94 1.00 251.25 3487.00
   01:55:23.092.27-Mar-2021 3763.51 4955.34 59.94 1.00 251.45 3487.00
   01:55:23.293.27-Mar-2021 3763.51 4955.34 59.94 1.00 251.65 3487.00
   01:55:23.493.27-Mar-2021 3763.51 4955.43 59.94 1.00 251.85 3487.00
   01:55:23.693.27-Mar-2021 3763.51 4955.23 59.94 1.00 252.05 3487.00
   01:55:23.893.27-Mar-2021 3763.51 4955.23 59.94 1.00 252.25 3487.00
   01:55:24.093.27-Mar-2021 3763.51 4955.39 59.94 1.00 252.45 3487.00
   01:55:24.293.27-Mar-2021 3763.51 4955.29 59.94 1.00 252.65 3487.00
   01:55:24.493.27-Mar-2021 3763.51 4955.30 59.94 1.00 252.85 3487.00
