~Version Information
 VERS.                  2.0:   CWLS log ASCII Standard -VERSION 2.0
 WRAP.                   NO:   One line per depth step
~Well Information Block
#MNEM.UNIT     VALUE/NAME     DESCRIPTION
#---------     -----------    ---------------------------
 STRT.S             11:05:10 27-Mar-21: START TIME 11:05:10 27-Mar-21
 STOP.S             11:12:21 27-Mar-21: STOP TIME  11:12:21 27-Mar-21
 STEP.S                   0.00: STEP TIME
 NULL.                 -999.25: NULL VALUE
 DFWT.                        :  DIST FWL TEXT
 DFST.                        :  DIST FSL TEXT
 DMF .             Drill Floor:  DRILL MEAS FROM
 STIM.      20.26.40 11-Mar-21:  START TIME
 DATE.      20.26.40 30-Mar-21:  END TIME
 SPUD.               11-Mar-21:  SPUD DATE
 NREF.                    Grid:  NORTH REFERENCE
 HPTY.       Minimum Curvature:  HOLE POS TYPE
 DMOD.             Drill Model:  DRILL MOD DESC
 SVYD.                  Survey:  SURVEY DESC
 ILTD.               Lithology:  INTERP LTH DESC
 FTOP.          Formation Tops:  FORM TOPS DESC
 SON .        AZ-XX-0906805385:  JOB NUMBER
 WTYP.                Deviated:  WELL TYPE
 COMP.     BP Exploration (Caspian Sea) Ltd.:  COMPANY
 UWI .            /AZE00000198:  UNIQUE WELL IDENTIFIER
 API .            /AZE00000198:  API NUMBER
 BASE.              Azerbaijan:  LOGGING EQUIPMENT BASE LOCATION
 REGN.                   EESSA:  REGION
 PROV.                    Baku:  PROVINCE
 STAT.                    Baku:  STATE NAME
 CTRY.              Azerbaijan:  COUNTRY NAME
 FLD .                     ACG:  FIELD NAME
 SRVC.     Turan Drilling & Engineering:  CONTRACTOR
 MWDS.                    Baku:  MWD SHOP
 WELL.                    D09z:  WELL NAME
 JOBN.        AZ-XX-0906805385:  JOB TICKET NUMB
 RIG .              East Azeri:  RIG NAME
 DOE .                     N/A:  DOE NUMBER
 DCON.         Sperry Drilling:  DIRECTNL CONTR
 UNIT.                     N/A:  LOGGING EQUIPMENT ID
 PDAT.          Mean Sea Level:  PERMANENT DATUM
 MDS .        Operator Entered:  MAG DATA SOURCE
 CNTY.                        :  COUNTY
 LOC .                        :  LOCATION
 LMF .             Drill Floor:  LOG MEASURED FROM
 TVDS.m                  43.60:  TVDSS CORRECTN
 LATI.deg                40.02:  LATITUDE
 LONG.deg                51.45:  LONGITUDE
 WHNS.m                 -17.04:  WELL HEAD N/S
 WHEW.m                  -6.28:  WELL HEAD E/W
 UTMX.m              538763.98:  UTM X
 UTMY.m             4431880.20:  UTM Y
 DFWL.m                   0.00:  DISTANCE FWL
 DFSL.m                   0.00:  DISTANCE FSL
 SDEP.m                2680.01:  START DEPTH
 TDD .m                4000.01:  TOTAL DEPTH (DRILLER)
 VSDR.deg               225.71:  VERT SEC DIRECT
 GVFD.g                   1.00:  GRAVITY FIELD
 MFLD.nT              50353.00:  MAGNETIC FIELD
 MDIP.deg                59.49:  MAGNETIC DIP
 MDEC.deg                 6.46:  MAGNETIC DECL
 GRDC.deg                 0.29:  GRID CORRECTION
 AZTC.deg                 6.17:  AZM TOTAL CORR
 EPD .m                   0.00:  ELEVATION
 EGL .m                   0.00:  GROUND ELEVATION
 WDMS.m                 151.80:  WD ELEV
 APD .m                  43.60:  DEPTH ABOVE PD
 AGAP.m                  43.60:  AIR GAP
 VSEW.m                  -6.28:  VERT SEC E/W
 VSNS.m                 -17.04:  VERT SEC N/S
 DEP .m                2656.31:  DEPTH
 EKB .m                  43.60:  KB ELEVATION
 EDF .m                  43.60:  DF ELEVATION
 VSC .                       0:  VS TO CLOSURE
 MAGU.                 1851247:  MAGUTM CHECKSUM
~Parameter Information Block
#MNEM.UNIT       Value        Description
#---------     -----------    ---------------------------
 AV  .mps                 3.00:  Ann Velocity 
 AVMX.mps                 8.00:  Max Ann Veloc 
 AZIF.deg                 0.00:  Azm, Final 
 BHAT.                   Other:  BHA Type 
 BREV.rev                 0.00:  Rev Bit Total 
 BROT.°/30m               0.00:  Build Rotating 
 BS  .in                 10.25:  Bit Size 
 BTPL.psig              511.00:  Bit Press Loss 
 CABU.                      No:  Customer Abuse 
 CGEO.           Asif Pashayev:  Customer Geo 
 COMM.                     $Ml:  Run Comments 1 
 TCS .hr                 24.03:  Time Ciculation Ended 
 CV  .mps                 3.50:  Crit Velocity 
 CVMX.mps                 4.00:  Max Crit Veloc 
 DD1 .             Aziz Aliyev:  Direct Drillr 1 
 DD2 .      Fakhraddin Guliyev:  Direct Drillr 2 
 DDSV.                   Other:  DD Service 
 DEFF.%                  99.00:  % Det Eff 
 DLRX.°/30m               0.00:  Dogleg Rot Max 
 DLSO.°/30m               0.00:  Dogleg Oriented 
 DLSX.°/30m               0.00:  Dogleg Str Max 
 DRET.      23.00.40 28-Mar-21:  Drill End Time 
 DRST.      23.30.40 25-Mar-21:  Drill Start Tim 
 DTIM.hr                  0.00:  Time Drilling 
 EDEP.m                3886.01:  End Depth 
 ENG1.         Almaz Almadatov:  Engineer 1 
 ENG2.      Artemiy Matviyanov:  Engineer 2 
 ENG3.           Samir Gafarov:  Engineer 3 
 ETIM.      23.00.40 28-Mar-21:  End Time 
 FLOI.gpm               550.00:  Flow In 
 FLON.gpm               500.00:  Flow In Min 
 FLOS.cptm                0.00:  Fluid Loss 
 FLOX.gpm               590.00:  Flow In Max 
 HFLO.                      No:  High Flow 
 HPRE.                      No:  High Pressure 
 HTEM.                      No:  High Temp 
 HYDO.m                   1.80:  Hydro Offset 
 IFIN.deg                 0.00:  Inc, Final 
 IMAX.deg                 0.00:  Inc Max 
 IMIN.deg                 0.00:  Inc Min 
 IMND.m                   0.00:  Inc Min Depth 
 IMXD.m                   0.00:  Inc Max Depth 
 JARR.                      No:  Jarring 
 LETM.      03.22.40 28-Mar-21:  Log End Time 
 LOST.hr                     0:  Lost Rig Time 
 LSTM.      23.30.40 25-Mar-21:  Log Start Time 
 MDCL.ppm             34000.00:  Mud Chlorides 
 MDES.     Inversion Oil/Synthetic:  Mud Desc 
 DFD .sg                  1.51:  Mud Density 
 MDMN.sg                  1.51:  Dens Mud Min 
 MDMX.sg                  1.51:  Dens Mud Max 
 MOIL.                      70:  Run Mud Oil % 
 MOWR.                   70:30:  Run Mud OWR 
 MSND.                     0.2:  Run Mud Sand % 
 MSOL.                   21.60:  Run Mud Solids% 
 DFV .spqt               74.00:  Mud Viscosity 
 MWOD.in                  6.75:  MWD Tool OD 
 MWSI.                      No:  Serv Intrp, MWD 
 OTIM.hr                 69.09:  Time Operating 
 PCON.           Look Like New:  Pad Condition 
 PMAX.psia             3500.00:  Press Op, Max 
 PV  .cP                 70.00:  Mud PV 
 RUN .                     400:  Run Number 
 ROPA.m/hr                0.00:  ROP Avg 
 ROPN.m/hr                0.00:  ROP Min 
 ROPX.m/hr                0.00:  ROP Max 
 RPMA.rpm                80.00:  RPM Surface Avg 
 RPMN.rpm                10.00:  RPM Surface Min 
 RPMX.rpm               100.00:  RPM Surface Max 
 RRUN.                    0400:  Rig Run Number 
 RTIM.hr                  3.00:  Time Reaming 
 SAZI.deg                 0.00:  Azm, Start 
 SDEP.m                3886.01:  Start Depth 
 SIDD.                      No:  Serv Intrp, DD 
 SINC.deg                 0.00:  Inc, Start 
 SPPA.psig             3270.00:  SPP Avg 
 SPPN.psig             3220.00:  SPP Min 
 SPPX.psig             4430.00:  SPP Max 
 STIM.      23.30.40 25-Mar-21:  Start Time 
 SVCS.                 DD, MWD:  Services 
 SVER.                    9.20:  Sperry Version 
 TDAT.m                   0.00:  Tot Depth Attmp 
 TDDF.                      No:  Trip for DD 
 TFF .                      No:  Trip for Fail 
 TQAA.f-kp                8.00:  Torque Abs Avg 
 TQAN.f-kp                7.00:  Torque Abs Min 
 TQAX.f-kp               11.00:  Torque Abs Max 
 TRRT.°/30m               0.00:  Turn Rotating 
 MRT .                  EWR-M5:  Maximum Recorded Temperature 
 TTMX.degC               76.47:  Max Tool Temp 
 VS01.                90640857:  Virtual Str1 SN 
 VS02.                90639246:  Virtual Str2 SN 
 VS03.                90642265:  Virtual Str3 SN 
 VS04.                11654497:  Virtual Str4 SN 
 WBMN.klb                 0.00:  WOB Min 
 WITN.      Kamran Keberlinkiy:  Customer Rep 
 WITN.           Murad Guliyev:  Customer Rep 2 
 WOBA.klb                 0.00:  WOB Avg 
 WOBX.klb                 0.00:  WOB Max 
 YP  .lhf2               36.00:  Yield Point 
~Curve Information Block
#MNEM.UNIT                 API CODE     Curve Description
#---------               -----------    ---------------------------
 TIME.HHMMSS            00 000 000 000:  GT Time & Date
 GTDEPTH.m              00 000 000 000:  GT Depth
 GTPQH.psia             00 000 000 000:  GT HR Quartz Pressure
 GTTQ.degC              00 000 000 000:  GT Quartz Temperature
 GTTN.NONE              00 000 000 000:  GT Test Number
 GTET.sec               00 000 000 000:  GT Elapsed Test Time
 GTTVD.m                00 000 000 000:  GT True Vertical Depth
#Other Information
#
#WARRANTY: Halliburton will use its best efforts to furnish customers with 
#accurate information and interpretations that are part of, and incident to, the services 
#provided.  However, Halliburton cannot and does not warrant the accuracy 
#or correctness of such information and interpretations.  Under no circumstances should any 
#such information or interpretation be relied upon as the sole basis for any drilling, 
#completion, production, or financial decision or any procedure involving any risk to the 
#safety of any drilling venture, drilling rig or its crew or any other third party.  The 
#Customer has full responsibility for all drilling, completion and production operation.  
#Halliburton makes no representations or warranties, either expressed or 
#implied, including, but not limited to, the implied warranties of merchantability or fitness 
#for a particular purpose, with respect to the services rendered.  In no event will 
#Halliburton be liable for failure to obtain any particular results or for 
#any damages, including, but not limited to, indirect, special or consequential damages, 
#resulting from the use of any information or interpretation provided by Halliburton.
#
~A           TIME           GTDEPTH  GTPQH  GTTQ  GTTN   GTET   GTTVD  
# ...
   11:09:18.885.27-Mar-2021 3279.01 4782.75 61.26 11.00 248.66 3032.17
   11:09:19.085.27-Mar-2021 3279.01 4783.41 61.26 11.00 248.86 3032.17
   11:09:19.285.27-Mar-2021 3279.01 4782.33 61.26 11.00 249.06 3032.17
   11:09:19.485.27-Mar-2021 3279.01 4782.33 61.26 11.00 249.26 3032.17
   11:09:19.685.27-Mar-2021 3279.01 4782.59 61.26 11.00 249.46 3032.17
   11:09:19.885.27-Mar-2021 3279.01 4782.71 61.26 11.00 249.66 3032.17
   11:09:20.085.27-Mar-2021 3279.01 4782.89 61.26 11.00 249.86 3032.17
   11:09:20.285.27-Mar-2021 3279.01 4782.63 61.26 11.00 250.06 3032.17
   11:09:20.485.27-Mar-2021 3279.01 4782.63 61.26 11.00 250.26 3032.17
   11:09:20.685.27-Mar-2021 3279.01 4782.57 61.26 11.00 250.46 3032.17
   11:09:20.885.27-Mar-2021 3279.01 4782.52 61.26 11.00 250.66 3032.17
   11:09:21.086.27-Mar-2021 3279.01 4782.85 61.26 11.00 250.86 3032.17
   11:09:21.286.27-Mar-2021 3279.01 4782.52 61.26 11.00 251.06 3032.17
   11:09:21.486.27-Mar-2021 3279.01 4782.52 61.26 11.00 251.26 3032.17
   11:09:21.686.27-Mar-2021 3279.01 4782.86 61.26 11.00 251.46 3032.17
   11:09:21.886.27-Mar-2021 3279.01 4781.71 61.26 11.00 251.66 3032.17
   11:09:22.086.27-Mar-2021 3279.01 4781.94 61.26 11.00 251.86 3032.17
   11:09:22.286.27-Mar-2021 3279.01 4783.81 61.26 11.00 252.06 3032.17
   11:09:22.486.27-Mar-2021 3279.01 4783.81 61.26 11.00 252.26 3032.17
   11:09:22.686.27-Mar-2021 3279.01 4782.15 61.26 11.00 252.46 3032.17
   11:09:22.886.27-Mar-2021 3279.01 4783.07 61.26 11.00 252.66 3032.17
   11:09:23.086.27-Mar-2021 3279.01 4782.63 61.26 11.00 252.86 3032.17
   11:09:23.286.27-Mar-2021 3279.01 4782.12 61.26 11.00 253.06 3032.17
   11:09:23.486.27-Mar-2021 3279.01 4782.12 61.26 11.00 253.26 3032.17
   11:09:23.686.27-Mar-2021 3279.01 4782.71 61.26 11.00 253.46 3032.17
   11:09:23.886.27-Mar-2021 3279.01 4782.79 61.26 11.00 253.66 3032.17
   11:09:24.086.27-Mar-2021 3279.01 4782.65 61.26 11.00 253.86 3032.17
   11:09:24.286.27-Mar-2021 3279.01 4782.72 61.26 11.00 254.06 3032.17
   11:09:24.486.27-Mar-2021 3279.01 4782.72 61.26 11.00 254.26 3032.17
   11:09:24.686.27-Mar-2021 3279.01 4782.06 61.26 11.00 254.46 3032.17
   11:09:24.886.27-Mar-2021 3279.01 4783.67 61.26 11.00 254.66 3032.17
   11:09:25.086.27-Mar-2021 3279.01 4782.12 61.26 11.00 254.86 3032.17
   11:09:25.286.27-Mar-2021 3279.01 4782.35 61.26 11.00 255.06 3032.17
   11:09:25.487.27-Mar-2021 3279.01 4782.35 61.26 11.00 255.26 3032.17
   11:09:25.687.27-Mar-2021 3279.01 4782.34 61.26 11.00 255.46 3032.17
   11:09:25.887.27-Mar-2021 3279.01 4782.09 61.26 11.00 255.66 3032.17
   11:09:26.087.27-Mar-2021 3279.01 4782.10 61.26 11.00 255.86 3032.17
   11:09:26.287.27-Mar-2021 3279.01 4782.45 61.26 11.00 256.06 3032.17
   11:09:26.487.27-Mar-2021 3279.01 4782.45 61.26 11.00 256.26 3032.17
   11:09:26.687.27-Mar-2021 3279.01 4782.94 61.26 11.00 256.46 3032.17
   11:09:26.887.27-Mar-2021 3279.01 4781.61 61.26 11.00 256.66 3032.17
   11:09:27.087.27-Mar-2021 3279.01 4783.02 61.26 11.00 256.86 3032.17
   11:09:27.287.27-Mar-2021 3279.01 4783.05 61.26 11.00 257.06 3032.17
   11:09:27.487.27-Mar-2021 3279.01 4783.05 61.26 11.00 257.26 3032.17
   11:09:27.687.27-Mar-2021 3279.01 4782.46 61.26 11.00 257.46 3032.17
   11:09:27.887.27-Mar-2021 3279.01 4783.16 61.26 11.00 257.66 3032.17
   11:09:28.087.27-Mar-2021 3279.01 4782.24 61.26 11.00 257.86 3032.17
   11:09:28.287.27-Mar-2021 3279.01 4782.05 61.26 11.00 258.06 3032.17
   11:09:28.487.27-Mar-2021 3279.01 4782.05 61.26 11.00 258.26 3032.17
   11:09:28.687.27-Mar-2021 3279.01 4782.31 61.26 11.00 258.46 3032.17
   11:09:28.887.27-Mar-2021 3279.01 4782.87 61.26 11.00 258.66 3032.17
   11:09:29.087.27-Mar-2021 3279.01 4782.76 61.26 11.00 258.86 3032.17
   11:09:29.287.27-Mar-2021 3279.01 4782.34 61.26 11.00 259.06 3032.17
   11:09:29.487.27-Mar-2021 3279.01 4782.34 61.26 11.00 259.26 3032.17
   11:09:29.688.27-Mar-2021 3279.01 4783.03 61.26 11.00 259.46 3032.17
   11:09:29.888.27-Mar-2021 3279.01 4782.66 61.26 11.00 259.66 3032.17
   11:09:30.088.27-Mar-2021 3279.01 4782.34 61.26 11.00 259.86 3032.17
   11:09:30.288.27-Mar-2021 3279.01 4782.41 61.26 11.00 260.06 3032.17
   11:09:30.488.27-Mar-2021 3279.01 4782.41 61.26 11.00 260.26 3032.17
   11:09:30.688.27-Mar-2021 3279.01 4782.79 61.26 11.00 260.46 3032.17
   11:09:30.888.27-Mar-2021 3279.01 4782.84 61.26 11.00 260.66 3032.17
   11:09:31.088.27-Mar-2021 3279.01 4782.63 61.26 11.00 260.86 3032.17
   11:09:31.288.27-Mar-2021 3279.01 4782.46 61.26 11.00 261.06 3032.17
   11:09:31.488.27-Mar-2021 3279.01 4782.46 61.26 11.00 261.26 3032.17
   11:09:31.688.27-Mar-2021 3279.01 4781.75 61.26 11.00 261.46 3032.17
   11:09:31.888.27-Mar-2021 3279.01 4783.61 61.26 11.00 261.66 3032.17
   11:09:32.088.27-Mar-2021 3279.01 4782.95 61.26 11.00 261.86 3032.17
   11:09:32.288.27-Mar-2021 3279.01 4782.26 61.26 11.00 262.06 3032.17
   11:09:32.488.27-Mar-2021 3279.01 4782.26 61.26 11.00 262.26 3032.17
   11:09:32.688.27-Mar-2021 3279.01 4782.56 61.26 11.00 262.46 3032.17
   11:09:32.888.27-Mar-2021 3279.01 4782.86 61.26 11.00 262.66 3032.17
   11:09:33.088.27-Mar-2021 3279.01 4782.66 61.26 11.00 262.86 3032.17
   11:09:33.288.27-Mar-2021 3279.01 4782.85 61.26 11.00 263.06 3032.17
   11:09:33.488.27-Mar-2021 3279.01 4782.85 61.26 11.00 263.26 3032.17
   11:09:33.688.27-Mar-2021 3279.01 4782.64 61.26 11.00 263.46 3032.17
   11:09:33.888.27-Mar-2021 3279.01 4782.38 61.26 11.00 263.66 3032.17
   11:09:34.089.27-Mar-2021 3279.01 4781.87 61.26 11.00 263.86 3032.17
   11:09:34.289.27-Mar-2021 3279.01 4781.80 61.26 11.00 264.06 3032.17
   11:09:34.489.27-Mar-2021 3279.01 4781.80 61.26 11.00 264.26 3032.17
   11:09:34.689.27-Mar-2021 3279.01 4783.10 61.26 11.00 264.46 3032.17
   11:09:34.889.27-Mar-2021 3279.01 4782.06 61.26 11.00 264.66 3032.17
   11:09:35.089.27-Mar-2021 3279.01 4782.52 61.26 11.00 264.86 3032.17
   11:09:35.289.27-Mar-2021 3279.01 4782.54 61.26 11.00 265.06 3032.17
   11:09:35.489.27-Mar-2021 3279.01 4782.54 61.26 11.00 265.26 3032.17
   11:09:35.689.27-Mar-2021 3279.01 4782.36 61.26 11.00 265.46 3032.17
   11:09:35.889.27-Mar-2021 3279.01 4782.32 61.26 11.00 265.66 3032.17
   11:09:36.089.27-Mar-2021 3279.01 4782.40 61.26 11.00 265.86 3032.17
   11:09:36.289.27-Mar-2021 3279.01 4783.04 61.26 11.00 266.06 3032.17
   11:09:36.489.27-Mar-2021 3279.01 4783.04 61.26 11.00 266.26 3032.17
   11:09:36.689.27-Mar-2021 3279.01 4781.82 61.26 11.00 266.46 3032.17
   11:09:36.889.27-Mar-2021 3279.01 4784.11 61.26 11.00 266.66 3032.17
   11:09:37.089.27-Mar-2021 3279.01 4782.16 61.26 11.00 266.86 3032.17
   11:09:37.289.27-Mar-2021 3279.01 4782.08 61.26 11.00 267.06 3032.17
   11:09:37.489.27-Mar-2021 3279.01 4782.08 61.26 11.00 267.26 3032.17
   11:09:37.689.27-Mar-2021 3279.01 4760.63 61.26 11.00 267.46 3032.17
   11:09:37.889.27-Mar-2021 3279.01 4395.58 61.26 11.00 267.66 3032.17
   11:09:38.089.27-Mar-2021 3279.01 4055.02 61.26 11.00 267.86 3032.17
   11:09:38.290.27-Mar-2021 3279.01 3851.76 61.26 11.00 268.06 3032.17
   11:09:38.490.27-Mar-2021 3279.01 3851.76 61.26 11.00 268.26 3032.17
   11:09:38.690.27-Mar-2021 3279.01 3651.21 61.26 11.00 268.46 3032.17
   11:09:38.890.27-Mar-2021 3279.01 3603.68 61.26 11.00 268.66 3032.17
   11:09:39.090.27-Mar-2021 3279.01 3573.67 61.26 11.00 268.86 3032.17
   11:09:39.290.27-Mar-2021 3279.01 3552.48 61.26 11.00 269.06 3032.17
   11:09:39.490.27-Mar-2021 3279.01 3552.48 61.26 11.00 269.26 3032.17
   11:09:39.690.27-Mar-2021 3279.01 3538.87 61.26 11.00 269.46 3032.17
   11:09:39.890.27-Mar-2021 3279.01 3534.11 61.26 11.00 269.66 3032.17
   11:09:40.090.27-Mar-2021 3279.01 3526.19 61.26 11.00 269.86 3032.17
   11:09:40.290.27-Mar-2021 3279.01 3528.71 61.26 11.00 270.06 3032.17
   11:09:40.490.27-Mar-2021 3279.01 3528.71 61.26 11.00 270.26 3032.17
   11:09:40.690.27-Mar-2021 3279.01 3529.97 61.26 11.00 270.46 3032.17
   11:09:40.890.27-Mar-2021 3279.01 3533.81 61.26 11.00 270.66 3032.17
   11:09:41.090.27-Mar-2021 3279.01 3534.78 61.25 11.00 270.86 3032.17
   11:09:41.290.27-Mar-2021 3279.01 3538.72 61.25 11.00 271.06 3032.17
