~Version Information
 VERS.                  2.0:   CWLS log ASCII Standard -VERSION 2.0
 WRAP.                   NO:   One line per depth step
~Well Information Block
#MNEM.UNIT     VALUE/NAME     DESCRIPTION
#---------     -----------    ---------------------------
 STRT.S             12:17:14 27-Mar-21: START TIME 12:17:14 27-Mar-21
 STOP.S             12:24:16 27-Mar-21: STOP TIME  12:24:16 27-Mar-21
 STEP.S                   0.00: STEP TIME
 NULL.                 -999.25: NULL VALUE
 DFWT.                        :  DIST FWL TEXT
 DFST.                        :  DIST FSL TEXT
 DMF .             Drill Floor:  DRILL MEAS FROM
 STIM.      20.26.40 11-Mar-21:  START TIME
 DATE.      20.26.40 30-Mar-21:  END TIME
 SPUD.               11-Mar-21:  SPUD DATE
 NREF.                    Grid:  NORTH REFERENCE
 HPTY.       Minimum Curvature:  HOLE POS TYPE
 DMOD.             Drill Model:  DRILL MOD DESC
 SVYD.                  Survey:  SURVEY DESC
 ILTD.               Lithology:  INTERP LTH DESC
 FTOP.          Formation Tops:  FORM TOPS DESC
 SON .        AZ-XX-0906805385:  JOB NUMBER
 WTYP.                Deviated:  WELL TYPE
 COMP.     BP Exploration (Caspian Sea) Ltd.:  COMPANY
 UWI .            /AZE00000198:  UNIQUE WELL IDENTIFIER
 API .            /AZE00000198:  API NUMBER
 BASE.              Azerbaijan:  LOGGING EQUIPMENT BASE LOCATION
 REGN.                   EESSA:  REGION
 PROV.                    Baku:  PROVINCE
 STAT.                    Baku:  STATE NAME
 CTRY.              Azerbaijan:  COUNTRY NAME
 FLD .                     ACG:  FIELD NAME
 SRVC.     Turan Drilling & Engineering:  CONTRACTOR
 MWDS.                    Baku:  MWD SHOP
 WELL.                    D09z:  WELL NAME
 JOBN.        AZ-XX-0906805385:  JOB TICKET NUMB
 RIG .              East Azeri:  RIG NAME
 DOE .                     N/A:  DOE NUMBER
 DCON.         Sperry Drilling:  DIRECTNL CONTR
 UNIT.                     N/A:  LOGGING EQUIPMENT ID
 PDAT.          Mean Sea Level:  PERMANENT DATUM
 MDS .        Operator Entered:  MAG DATA SOURCE
 CNTY.                        :  COUNTY
 LOC .                        :  LOCATION
 LMF .             Drill Floor:  LOG MEASURED FROM
 TVDS.m                  43.60:  TVDSS CORRECTN
 LATI.deg                40.02:  LATITUDE
 LONG.deg                51.45:  LONGITUDE
 WHNS.m                 -17.04:  WELL HEAD N/S
 WHEW.m                  -6.28:  WELL HEAD E/W
 UTMX.m              538763.98:  UTM X
 UTMY.m             4431880.20:  UTM Y
 DFWL.m                   0.00:  DISTANCE FWL
 DFSL.m                   0.00:  DISTANCE FSL
 SDEP.m                2680.01:  START DEPTH
 TDD .m                4000.01:  TOTAL DEPTH (DRILLER)
 VSDR.deg               225.71:  VERT SEC DIRECT
 GVFD.g                   1.00:  GRAVITY FIELD
 MFLD.nT              50353.00:  MAGNETIC FIELD
 MDIP.deg                59.49:  MAGNETIC DIP
 MDEC.deg                 6.46:  MAGNETIC DECL
 GRDC.deg                 0.29:  GRID CORRECTION
 AZTC.deg                 6.17:  AZM TOTAL CORR
 EPD .m                   0.00:  ELEVATION
 EGL .m                   0.00:  GROUND ELEVATION
 WDMS.m                 151.80:  WD ELEV
 APD .m                  43.60:  DEPTH ABOVE PD
 AGAP.m                  43.60:  AIR GAP
 VSEW.m                  -6.28:  VERT SEC E/W
 VSNS.m                 -17.04:  VERT SEC N/S
 DEP .m                2656.31:  DEPTH
 EKB .m                  43.60:  KB ELEVATION
 EDF .m                  43.60:  DF ELEVATION
 VSC .                       0:  VS TO CLOSURE
 MAGU.                 1851247:  MAGUTM CHECKSUM
~Parameter Information Block
#MNEM.UNIT       Value        Description
#---------     -----------    ---------------------------
 AV  .mps                 3.00:  Ann Velocity 
 AVMX.mps                 8.00:  Max Ann Veloc 
 AZIF.deg                 0.00:  Azm, Final 
 BHAT.                   Other:  BHA Type 
 BREV.rev                 0.00:  Rev Bit Total 
 BROT.°/30m               0.00:  Build Rotating 
 BS  .in                 10.25:  Bit Size 
 BTPL.psig              511.00:  Bit Press Loss 
 CABU.                      No:  Customer Abuse 
 CGEO.           Asif Pashayev:  Customer Geo 
 COMM.                     4'd:  Run Comments 1 
 TCS .hr                 24.03:  Time Ciculation Ended 
 CV  .mps                 3.50:  Crit Velocity 
 CVMX.mps                 4.00:  Max Crit Veloc 
 DD1 .             Aziz Aliyev:  Direct Drillr 1 
 DD2 .      Fakhraddin Guliyev:  Direct Drillr 2 
 DDSV.                   Other:  DD Service 
 DEFF.%                  99.00:  % Det Eff 
 DLRX.°/30m               0.00:  Dogleg Rot Max 
 DLSO.°/30m               0.00:  Dogleg Oriented 
 DLSX.°/30m               0.00:  Dogleg Str Max 
 DRET.      23.00.40 28-Mar-21:  Drill End Time 
 DRST.      23.30.40 25-Mar-21:  Drill Start Tim 
 DTIM.hr                  0.00:  Time Drilling 
 EDEP.m                3886.01:  End Depth 
 ENG1.         Almaz Almadatov:  Engineer 1 
 ENG2.      Artemiy Matviyanov:  Engineer 2 
 ENG3.           Samir Gafarov:  Engineer 3 
 ETIM.      23.00.40 28-Mar-21:  End Time 
 FLOI.gpm               550.00:  Flow In 
 FLON.gpm               500.00:  Flow In Min 
 FLOS.cptm                0.00:  Fluid Loss 
 FLOX.gpm               590.00:  Flow In Max 
 HFLO.                      No:  High Flow 
 HPRE.                      No:  High Pressure 
 HTEM.                      No:  High Temp 
 HYDO.m                   1.80:  Hydro Offset 
 IFIN.deg                 0.00:  Inc, Final 
 IMAX.deg                 0.00:  Inc Max 
 IMIN.deg                 0.00:  Inc Min 
 IMND.m                   0.00:  Inc Min Depth 
 IMXD.m                   0.00:  Inc Max Depth 
 JARR.                      No:  Jarring 
 LETM.      03.22.40 28-Mar-21:  Log End Time 
 LOST.hr                     0:  Lost Rig Time 
 LSTM.      23.30.40 25-Mar-21:  Log Start Time 
 MDCL.ppm             34000.00:  Mud Chlorides 
 MDES.     Inversion Oil/Synthetic:  Mud Desc 
 DFD .sg                  1.51:  Mud Density 
 MDMN.sg                  1.51:  Dens Mud Min 
 MDMX.sg                  1.51:  Dens Mud Max 
 MOIL.                      70:  Run Mud Oil % 
 MOWR.                   70:30:  Run Mud OWR 
 MSND.                     0.2:  Run Mud Sand % 
 MSOL.                   21.60:  Run Mud Solids% 
 DFV .spqt               74.00:  Mud Viscosity 
 MWOD.in                  6.75:  MWD Tool OD 
 MWSI.                      No:  Serv Intrp, MWD 
 OTIM.hr                 69.09:  Time Operating 
 PCON.           Look Like New:  Pad Condition 
 PMAX.psia             3500.00:  Press Op, Max 
 PV  .cP                 70.00:  Mud PV 
 RUN .                     400:  Run Number 
 ROPA.m/hr                0.00:  ROP Avg 
 ROPN.m/hr                0.00:  ROP Min 
 ROPX.m/hr                0.00:  ROP Max 
 RPMA.rpm                80.00:  RPM Surface Avg 
 RPMN.rpm                10.00:  RPM Surface Min 
 RPMX.rpm               100.00:  RPM Surface Max 
 RRUN.                    0400:  Rig Run Number 
 RTIM.hr                  3.00:  Time Reaming 
 SAZI.deg                 0.00:  Azm, Start 
 SDEP.m                3886.01:  Start Depth 
 SIDD.                      No:  Serv Intrp, DD 
 SINC.deg                 0.00:  Inc, Start 
 SPPA.psig             3270.00:  SPP Avg 
 SPPN.psig             3220.00:  SPP Min 
 SPPX.psig             4430.00:  SPP Max 
 STIM.      23.30.40 25-Mar-21:  Start Time 
 SVCS.                 DD, MWD:  Services 
 SVER.                    9.20:  Sperry Version 
 TDAT.m                   0.00:  Tot Depth Attmp 
 TDDF.                      No:  Trip for DD 
 TFF .                      No:  Trip for Fail 
 TQAA.f-kp                8.00:  Torque Abs Avg 
 TQAN.f-kp                7.00:  Torque Abs Min 
 TQAX.f-kp               11.00:  Torque Abs Max 
 TRRT.°/30m               0.00:  Turn Rotating 
 MRT .                  EWR-M5:  Maximum Recorded Temperature 
 TTMX.degC               76.47:  Max Tool Temp 
 VS01.                90640857:  Virtual Str1 SN 
 VS02.                90639246:  Virtual Str2 SN 
 VS03.                90642265:  Virtual Str3 SN 
 VS04.                11654497:  Virtual Str4 SN 
 WBMN.klb                 0.00:  WOB Min 
 WITN.      Kamran Keberlinkiy:  Customer Rep 
 WITN.           Murad Guliyev:  Customer Rep 2 
 WOBA.klb                 0.00:  WOB Avg 
 WOBX.klb                 0.00:  WOB Max 
 YP  .lhf2               36.00:  Yield Point 
~Curve Information Block
#MNEM.UNIT                 API CODE     Curve Description
#---------               -----------    ---------------------------
 TIME.HHMMSS            00 000 000 000:  GT Time & Date
 GTDEPTH.m              00 000 000 000:  GT Depth
 GTPQH.psia             00 000 000 000:  GT HR Quartz Pressure
 GTTQ.degC              00 000 000 000:  GT Quartz Temperature
 GTTN.NONE              00 000 000 000:  GT Test Number
 GTET.sec               00 000 000 000:  GT Elapsed Test Time
 GTTVD.m                00 000 000 000:  GT True Vertical Depth
#Other Information
#
#WARRANTY: Halliburton will use its best efforts to furnish customers with 
#accurate information and interpretations that are part of, and incident to, the services 
#provided.  However, Halliburton cannot and does not warrant the accuracy 
#or correctness of such information and interpretations.  Under no circumstances should any 
#such information or interpretation be relied upon as the sole basis for any drilling, 
#completion, production, or financial decision or any procedure involving any risk to the 
#safety of any drilling venture, drilling rig or its crew or any other third party.  The 
#Customer has full responsibility for all drilling, completion and production operation.  
#Halliburton makes no representations or warranties, either expressed or 
#implied, including, but not limited to, the implied warranties of merchantability or fitness 
#for a particular purpose, with respect to the services rendered.  In no event will 
#Halliburton be liable for failure to obtain any particular results or for 
#any damages, including, but not limited to, indirect, special or consequential damages, 
#resulting from the use of any information or interpretation provided by Halliburton.
#
~A           TIME           GTDEPTH  GTPQH  GTTQ  GTTN   GTET   GTTVD  
# ...
   12:17:37.339.27-Mar-2021 3369.01 7274.55 62.04 12.00  22.62 3116.52
   12:17:37.539.27-Mar-2021 3369.01 7277.53 62.04 12.00  22.82 3116.52
   12:17:37.739.27-Mar-2021 3369.01 7273.62 62.04 12.00  23.02 3116.52
   12:17:37.939.27-Mar-2021 3369.01 7273.62 62.04 12.00  23.22 3116.52
   12:17:38.139.27-Mar-2021 3369.01 7274.05 62.04 12.00  23.42 3116.52
   12:17:38.339.27-Mar-2021 3369.01 7279.02 62.04 12.00  23.62 3116.52
   12:17:38.539.27-Mar-2021 3369.01 7274.15 62.04 12.00  23.82 3116.52
   12:17:38.740.27-Mar-2021 3369.01 7274.58 62.04 12.00  24.02 3116.52
   12:17:38.940.27-Mar-2021 3369.01 7274.58 62.04 12.00  24.22 3116.52
   12:17:39.140.27-Mar-2021 3369.01 7275.32 62.04 12.00  24.42 3116.52
   12:17:39.340.27-Mar-2021 3369.01 7274.56 62.04 12.00  24.62 3116.52
   12:17:39.540.27-Mar-2021 3369.01 7274.52 62.04 12.00  24.82 3116.52
   12:17:39.740.27-Mar-2021 3369.01 7278.22 62.04 12.00  25.02 3116.52
   12:17:39.940.27-Mar-2021 3369.01 7278.22 62.04 12.00  25.22 3116.52
   12:17:40.140.27-Mar-2021 3369.01 7275.67 62.04 12.00  25.42 3116.52
   12:17:40.341.27-Mar-2021 3369.01 7275.53 62.04 12.00  25.62 3116.52
   12:17:40.541.27-Mar-2021 3369.01 7275.57 62.04 12.00  25.82 3116.52
   12:17:40.741.27-Mar-2021 3369.01 7275.49 62.04 12.00  26.02 3116.52
   12:17:40.941.27-Mar-2021 3369.01 7275.49 62.04 12.00  26.22 3116.52
   12:17:41.141.27-Mar-2021 3369.01 7274.93 62.04 12.00  26.42 3116.52
   12:17:41.341.27-Mar-2021 3369.01 7275.88 62.04 12.00  26.62 3116.52
   12:17:41.541.27-Mar-2021 3369.01 7275.45 62.04 12.00  26.82 3116.52
   12:17:41.742.27-Mar-2021 3369.01 7275.61 62.04 12.00  27.02 3116.52
   12:17:41.942.27-Mar-2021 3369.01 7275.61 62.04 12.00  27.22 3116.52
   12:17:42.142.27-Mar-2021 3369.01 7275.59 62.04 12.00  27.42 3116.52
   12:17:42.342.27-Mar-2021 3369.01 7275.25 62.04 12.00  27.62 3116.52
   12:17:42.542.27-Mar-2021 3369.01 7275.47 62.04 12.00  27.82 3116.52
   12:17:42.742.27-Mar-2021 3369.01 7275.52 62.04 12.00  28.02 3116.52
   12:17:42.942.27-Mar-2021 3369.01 7275.52 62.04 12.00  28.22 3116.52
   12:17:43.143.27-Mar-2021 3369.01 7277.12 62.03 12.00  28.42 3116.52
   12:17:43.343.27-Mar-2021 3369.01 7275.74 62.03 12.00  28.62 3116.52
   12:17:43.543.27-Mar-2021 3369.01 7276.48 62.03 12.00  28.82 3116.52
   12:17:43.743.27-Mar-2021 3369.01 7275.86 62.03 12.00  29.02 3116.52
   12:17:43.943.27-Mar-2021 3369.01 7275.86 62.03 12.00  29.22 3116.52
   12:17:44.143.27-Mar-2021 3369.01 7275.81 62.03 12.00  29.42 3116.52
   12:17:44.343.27-Mar-2021 3369.01 7275.61 62.03 12.00  29.62 3116.52
   12:17:44.544.27-Mar-2021 3369.01 7276.09 62.03 12.00  29.82 3116.52
   12:17:44.744.27-Mar-2021 3369.01 7275.97 62.03 12.00  30.02 3116.52
   12:17:44.944.27-Mar-2021 3369.01 7275.97 62.03 12.00  30.22 3116.52
   12:17:45.144.27-Mar-2021 3369.01 7276.24 62.03 12.00  30.42 3116.52
   12:17:45.344.27-Mar-2021 3369.01 7275.94 62.03 12.00  30.62 3116.52
   12:17:45.544.27-Mar-2021 3369.01 7275.83 62.03 12.00  30.82 3116.52
   12:17:45.744.27-Mar-2021 3369.01 7279.79 62.03 12.00  31.02 3116.52
   12:17:45.945.27-Mar-2021 3369.01 7279.79 62.03 12.00  31.22 3116.52
   12:17:46.145.27-Mar-2021 3369.01 7276.40 62.03 12.00  31.42 3116.52
   12:17:46.345.27-Mar-2021 3369.01 7275.96 62.03 12.00  31.62 3116.52
   12:17:46.545.27-Mar-2021 3369.01 7276.04 62.03 12.00  31.82 3116.52
   12:17:46.745.27-Mar-2021 3369.01 7277.47 62.03 12.00  32.02 3116.52
   12:17:46.945.27-Mar-2021 3369.01 7277.47 62.03 12.00  32.22 3116.52
   12:17:47.145.27-Mar-2021 3369.01 7275.68 62.03 12.00  32.42 3116.52
   12:17:47.346.27-Mar-2021 3369.01 7277.35 62.03 12.00  32.62 3116.52
   12:17:47.546.27-Mar-2021 3369.01 7276.29 62.03 12.00  32.82 3116.52
   12:17:47.746.27-Mar-2021 3369.01 7276.39 62.03 12.00  33.02 3116.52
   12:17:47.946.27-Mar-2021 3369.01 7276.39 62.03 12.00  33.22 3116.52
   12:17:48.146.27-Mar-2021 3369.01 7279.64 62.03 12.00  33.42 3116.52
   12:17:48.346.27-Mar-2021 3369.01 7277.06 62.03 12.00  33.62 3116.52
   12:17:48.546.27-Mar-2021 3369.01 7277.71 62.03 12.00  33.82 3116.52
   12:17:48.747.27-Mar-2021 3369.01 7277.30 62.03 12.00  34.02 3116.52
   12:17:48.947.27-Mar-2021 3369.01 7277.30 62.03 12.00  34.22 3116.52
   12:17:49.147.27-Mar-2021 3369.01 7277.01 62.03 12.00  34.42 3116.52
   12:17:49.347.27-Mar-2021 3369.01 7280.59 62.03 12.00  34.62 3116.52
   12:17:49.547.27-Mar-2021 3369.01 7275.73 62.03 12.00  34.82 3116.52
   12:17:49.747.27-Mar-2021 3369.01 7285.27 62.03 12.00  35.02 3116.52
   12:17:49.947.27-Mar-2021 3369.01 7285.27 62.03 12.00  35.22 3116.52
   12:17:50.148.27-Mar-2021 3369.01 7350.68 62.03 12.00  35.43 3116.52
   12:17:50.348.27-Mar-2021 3369.01 7375.34 62.02 12.00  35.63 3116.52
   12:17:50.548.27-Mar-2021 3369.01 7387.71 62.02 12.00  35.83 3116.52
   12:17:50.748.27-Mar-2021 3369.01 7381.33 62.02 12.00  36.03 3116.52
   12:17:50.948.27-Mar-2021 3369.01 7381.33 62.02 12.00  36.23 3116.52
   12:17:51.148.27-Mar-2021 3369.01 7369.71 62.02 12.00  36.43 3116.52
   12:17:51.348.27-Mar-2021 3369.01 7366.64 62.02 12.00  36.63 3116.52
   12:17:51.549.27-Mar-2021 3369.01 7364.09 62.02 12.00  36.83 3116.52
   12:17:51.749.27-Mar-2021 3369.01 7361.59 62.02 12.00  37.03 3116.52
   12:17:51.949.27-Mar-2021 3369.01 7361.59 62.02 12.00  37.23 3116.52
   12:17:52.149.27-Mar-2021 3369.01 7350.86 62.02 12.00  37.43 3116.52
   12:17:52.349.27-Mar-2021 3369.01 7338.34 62.02 12.00  37.63 3116.52
   12:17:52.549.27-Mar-2021 3369.01 7333.28 62.02 12.00  37.83 3116.52
   12:17:52.749.27-Mar-2021 3369.01 7332.55 62.02 12.00  38.03 3116.52
   12:17:52.950.27-Mar-2021 3369.01 7332.55 62.02 12.00  38.23 3116.52
   12:17:53.150.27-Mar-2021 3369.01 7316.20 62.02 12.00  38.43 3116.52
   12:17:53.350.27-Mar-2021 3369.01 7311.76 62.02 12.00  38.63 3116.52
   12:17:53.550.27-Mar-2021 3369.01 7306.42 62.02 12.00  38.83 3116.52
   12:17:53.750.27-Mar-2021 3369.01 7301.79 62.02 12.00  39.03 3116.52
   12:17:53.950.27-Mar-2021 3369.01 7301.79 62.02 12.00  39.23 3116.52
   12:17:54.150.27-Mar-2021 3369.01 7293.23 62.02 12.00  39.43 3116.52
   12:17:54.351.27-Mar-2021 3369.01 7288.82 62.02 12.00  39.63 3116.52
   12:17:54.551.27-Mar-2021 3369.01 7282.19 62.02 12.00  39.83 3116.52
   12:17:54.751.27-Mar-2021 3369.01 7276.02 62.02 12.00  40.03 3116.52
   12:17:54.951.27-Mar-2021 3369.01 7276.02 62.02 12.00  40.23 3116.52
   12:17:55.151.27-Mar-2021 3369.01 7267.68 62.02 12.00  40.43 3116.52
   12:17:55.351.27-Mar-2021 3369.01 7262.92 62.02 12.00  40.63 3116.52
   12:17:55.551.27-Mar-2021 3369.01 7256.15 62.02 12.00  40.83 3116.52
   12:17:55.752.27-Mar-2021 3369.01 7248.93 62.02 12.00  41.03 3116.52
   12:17:55.952.27-Mar-2021 3369.01 7248.93 62.02 12.00  41.23 3116.52
   12:17:56.152.27-Mar-2021 3369.01 7237.57 62.02 12.00  41.43 3116.52
   12:17:56.352.27-Mar-2021 3369.01 7227.19 62.02 12.00  41.63 3116.52
   12:17:56.552.27-Mar-2021 3369.01 7222.80 62.02 12.00  41.83 3116.52
   12:17:56.752.27-Mar-2021 3369.01 7207.75 62.02 12.00  42.03 3116.52
   12:17:56.952.27-Mar-2021 3369.01 7207.75 62.02 12.00  42.23 3116.52
   12:17:57.153.27-Mar-2021 3369.01 7097.64 62.02 12.00  42.43 3116.52
   12:17:57.353.27-Mar-2021 3369.01 7003.79 62.02 12.00  42.63 3116.52
   12:17:57.553.27-Mar-2021 3369.01 6920.65 62.02 12.00  42.83 3116.52
   12:17:57.753.27-Mar-2021 3369.01 6827.92 62.02 12.00  43.03 3116.52
   12:17:57.953.27-Mar-2021 3369.01 6827.92 62.02 12.00  43.23 3116.52
   12:17:58.153.27-Mar-2021 3369.01 6607.44 62.01 12.00  43.43 3116.52
   12:17:58.353.27-Mar-2021 3369.01 6510.75 62.01 12.00  43.63 3116.52
   12:17:58.554.27-Mar-2021 3369.01 6414.65 62.01 12.00  43.83 3116.52
   12:17:58.754.27-Mar-2021 3369.01 6327.08 62.01 12.00  44.03 3116.52
   12:17:58.954.27-Mar-2021 3369.01 6327.08 62.01 12.00  44.23 3116.52
   12:17:59.154.27-Mar-2021 3369.01 6227.06 62.01 12.00  44.43 3116.52
   12:17:59.354.27-Mar-2021 3369.01 6269.16 62.01 12.00  44.63 3116.52
   12:17:59.554.27-Mar-2021 3369.01 6171.88 62.01 12.00  44.83 3116.52
   12:17:59.754.27-Mar-2021 3369.01 6010.70 62.01 12.00  45.03 3116.52
