~Version Information
 VERS.                  2.0:   CWLS log ASCII Standard -VERSION 2.0
 WRAP.                   NO:   One line per depth step
~Well Information Block
#MNEM.UNIT     VALUE/NAME     DESCRIPTION
#---------     -----------    ---------------------------
 STRT.S             07:58:58 27-Mar-21: START TIME 07:58:58 27-Mar-21
 STOP.S             08:06:05 27-Mar-21: STOP TIME  08:06:05 27-Mar-21
 STEP.S                   0.00: STEP TIME
 NULL.                 -999.25: NULL VALUE
 DFWT.                        :  DIST FWL TEXT
 DFST.                        :  DIST FSL TEXT
 DMF .             Drill Floor:  DRILL MEAS FROM
 STIM.      20.26.40 11-Mar-21:  START TIME
 DATE.      20.26.40 30-Mar-21:  END TIME
 SPUD.               11-Mar-21:  SPUD DATE
 NREF.                    Grid:  NORTH REFERENCE
 HPTY.       Minimum Curvature:  HOLE POS TYPE
 DMOD.             Drill Model:  DRILL MOD DESC
 SVYD.                  Survey:  SURVEY DESC
 ILTD.               Lithology:  INTERP LTH DESC
 FTOP.          Formation Tops:  FORM TOPS DESC
 SON .        AZ-XX-0906805385:  JOB NUMBER
 WTYP.                Deviated:  WELL TYPE
 COMP.     BP Exploration (Caspian Sea) Ltd.:  COMPANY
 UWI .            /AZE00000198:  UNIQUE WELL IDENTIFIER
 API .            /AZE00000198:  API NUMBER
 BASE.              Azerbaijan:  LOGGING EQUIPMENT BASE LOCATION
 REGN.                   EESSA:  REGION
 PROV.                    Baku:  PROVINCE
 STAT.                    Baku:  STATE NAME
 CTRY.              Azerbaijan:  COUNTRY NAME
 FLD .                     ACG:  FIELD NAME
 SRVC.     Turan Drilling & Engineering:  CONTRACTOR
 MWDS.                    Baku:  MWD SHOP
 WELL.                    D09z:  WELL NAME
 JOBN.        AZ-XX-0906805385:  JOB TICKET NUMB
 RIG .              East Azeri:  RIG NAME
 DOE .                     N/A:  DOE NUMBER
 DCON.         Sperry Drilling:  DIRECTNL CONTR
 UNIT.                     N/A:  LOGGING EQUIPMENT ID
 PDAT.          Mean Sea Level:  PERMANENT DATUM
 MDS .        Operator Entered:  MAG DATA SOURCE
 CNTY.                        :  COUNTY
 LOC .                        :  LOCATION
 LMF .             Drill Floor:  LOG MEASURED FROM
 TVDS.m                  43.60:  TVDSS CORRECTN
 LATI.deg                40.02:  LATITUDE
 LONG.deg                51.45:  LONGITUDE
 WHNS.m                 -17.04:  WELL HEAD N/S
 WHEW.m                  -6.28:  WELL HEAD E/W
 UTMX.m              538763.98:  UTM X
 UTMY.m             4431880.20:  UTM Y
 DFWL.m                   0.00:  DISTANCE FWL
 DFSL.m                   0.00:  DISTANCE FSL
 SDEP.m                2680.01:  START DEPTH
 TDD .m                4000.01:  TOTAL DEPTH (DRILLER)
 VSDR.deg               225.71:  VERT SEC DIRECT
 GVFD.g                   1.00:  GRAVITY FIELD
 MFLD.nT              50353.00:  MAGNETIC FIELD
 MDIP.deg                59.49:  MAGNETIC DIP
 MDEC.deg                 6.46:  MAGNETIC DECL
 GRDC.deg                 0.29:  GRID CORRECTION
 AZTC.deg                 6.17:  AZM TOTAL CORR
 EPD .m                   0.00:  ELEVATION
 EGL .m                   0.00:  GROUND ELEVATION
 WDMS.m                 151.80:  WD ELEV
 APD .m                  43.60:  DEPTH ABOVE PD
 AGAP.m                  43.60:  AIR GAP
 VSEW.m                  -6.28:  VERT SEC E/W
 VSNS.m                 -17.04:  VERT SEC N/S
 DEP .m                2656.31:  DEPTH
 EKB .m                  43.60:  KB ELEVATION
 EDF .m                  43.60:  DF ELEVATION
 VSC .                       0:  VS TO CLOSURE
 MAGU.                 1851247:  MAGUTM CHECKSUM
~Parameter Information Block
#MNEM.UNIT       Value        Description
#---------     -----------    ---------------------------
 AV  .mps                 3.00:  Ann Velocity 
 AVMX.mps                 8.00:  Max Ann Veloc 
 AZIF.deg                 0.00:  Azm, Final 
 BHAT.                   Other:  BHA Type 
 BREV.rev                 0.00:  Rev Bit Total 
 BROT.°/30m               0.00:  Build Rotating 
 BS  .in                 10.25:  Bit Size 
 BTPL.psig              511.00:  Bit Press Loss 
 CABU.                      No:  Customer Abuse 
 CGEO.           Asif Pashayev:  Customer Geo 
 COMM.                     ôNh:  Run Comments 1 
 TCS .hr                 24.03:  Time Ciculation Ended 
 CV  .mps                 3.50:  Crit Velocity 
 CVMX.mps                 4.00:  Max Crit Veloc 
 DD1 .             Aziz Aliyev:  Direct Drillr 1 
 DD2 .      Fakhraddin Guliyev:  Direct Drillr 2 
 DDSV.                   Other:  DD Service 
 DEFF.%                  99.00:  % Det Eff 
 DLRX.°/30m               0.00:  Dogleg Rot Max 
 DLSO.°/30m               0.00:  Dogleg Oriented 
 DLSX.°/30m               0.00:  Dogleg Str Max 
 DRET.      23.00.40 28-Mar-21:  Drill End Time 
 DRST.      23.30.40 25-Mar-21:  Drill Start Tim 
 DTIM.hr                  0.00:  Time Drilling 
 EDEP.m                3886.01:  End Depth 
 ENG1.         Almaz Almadatov:  Engineer 1 
 ENG2.      Artemiy Matviyanov:  Engineer 2 
 ENG3.           Samir Gafarov:  Engineer 3 
 ETIM.      23.00.40 28-Mar-21:  End Time 
 FLOI.gpm               550.00:  Flow In 
 FLON.gpm               500.00:  Flow In Min 
 FLOS.cptm                0.00:  Fluid Loss 
 FLOX.gpm               590.00:  Flow In Max 
 HFLO.                      No:  High Flow 
 HPRE.                      No:  High Pressure 
 HTEM.                      No:  High Temp 
 HYDO.m                   1.80:  Hydro Offset 
 IFIN.deg                 0.00:  Inc, Final 
 IMAX.deg                 0.00:  Inc Max 
 IMIN.deg                 0.00:  Inc Min 
 IMND.m                   0.00:  Inc Min Depth 
 IMXD.m                   0.00:  Inc Max Depth 
 JARR.                      No:  Jarring 
 LETM.      03.22.40 28-Mar-21:  Log End Time 
 LOST.hr                     0:  Lost Rig Time 
 LSTM.      23.30.40 25-Mar-21:  Log Start Time 
 MDCL.ppm             34000.00:  Mud Chlorides 
 MDES.     Inversion Oil/Synthetic:  Mud Desc 
 DFD .sg                  1.51:  Mud Density 
 MDMN.sg                  1.51:  Dens Mud Min 
 MDMX.sg                  1.51:  Dens Mud Max 
 MOIL.                      70:  Run Mud Oil % 
 MOWR.                   70:30:  Run Mud OWR 
 MSND.                     0.2:  Run Mud Sand % 
 MSOL.                   21.60:  Run Mud Solids% 
 DFV .spqt               74.00:  Mud Viscosity 
 MWOD.in                  6.75:  MWD Tool OD 
 MWSI.                      No:  Serv Intrp, MWD 
 OTIM.hr                 69.09:  Time Operating 
 PCON.           Look Like New:  Pad Condition 
 PMAX.psia             3500.00:  Press Op, Max 
 PV  .cP                 70.00:  Mud PV 
 RUN .                     400:  Run Number 
 ROPA.m/hr                0.00:  ROP Avg 
 ROPN.m/hr                0.00:  ROP Min 
 ROPX.m/hr                0.00:  ROP Max 
 RPMA.rpm                80.00:  RPM Surface Avg 
 RPMN.rpm                10.00:  RPM Surface Min 
 RPMX.rpm               100.00:  RPM Surface Max 
 RRUN.                    0400:  Rig Run Number 
 RTIM.hr                  3.00:  Time Reaming 
 SAZI.deg                 0.00:  Azm, Start 
 SDEP.m                3886.01:  Start Depth 
 SIDD.                      No:  Serv Intrp, DD 
 SINC.deg                 0.00:  Inc, Start 
 SPPA.psig             3270.00:  SPP Avg 
 SPPN.psig             3220.00:  SPP Min 
 SPPX.psig             4430.00:  SPP Max 
 STIM.      23.30.40 25-Mar-21:  Start Time 
 SVCS.                 DD, MWD:  Services 
 SVER.                    9.20:  Sperry Version 
 TDAT.m                   0.00:  Tot Depth Attmp 
 TDDF.                      No:  Trip for DD 
 TFF .                      No:  Trip for Fail 
 TQAA.f-kp                8.00:  Torque Abs Avg 
 TQAN.f-kp                7.00:  Torque Abs Min 
 TQAX.f-kp               11.00:  Torque Abs Max 
 TRRT.°/30m               0.00:  Turn Rotating 
 MRT .                  EWR-M5:  Maximum Recorded Temperature 
 TTMX.degC               76.47:  Max Tool Temp 
 VS01.                90640857:  Virtual Str1 SN 
 VS02.                90639246:  Virtual Str2 SN 
 VS03.                90642265:  Virtual Str3 SN 
 VS04.                11654497:  Virtual Str4 SN 
 WBMN.klb                 0.00:  WOB Min 
 WITN.      Kamran Keberlinkiy:  Customer Rep 
 WITN.           Murad Guliyev:  Customer Rep 2 
 WOBA.klb                 0.00:  WOB Avg 
 WOBX.klb                 0.00:  WOB Max 
 YP  .lhf2               36.00:  Yield Point 
~Curve Information Block
#MNEM.UNIT                 API CODE     Curve Description
#---------               -----------    ---------------------------
 TIME.HHMMSS            00 000 000 000:  GT Time & Date
 GTDEPTH.m              00 000 000 000:  GT Depth
 GTPQH.psia             00 000 000 000:  GT HR Quartz Pressure
 GTTQ.degC              00 000 000 000:  GT Quartz Temperature
 GTTN.NONE              00 000 000 000:  GT Test Number
 GTET.sec               00 000 000 000:  GT Elapsed Test Time
 GTTVD.m                00 000 000 000:  GT True Vertical Depth
#Other Information
#
#WARRANTY: Halliburton will use its best efforts to furnish customers with 
#accurate information and interpretations that are part of, and incident to, the services 
#provided.  However, Halliburton cannot and does not warrant the accuracy 
#or correctness of such information and interpretations.  Under no circumstances should any 
#such information or interpretation be relied upon as the sole basis for any drilling, 
#completion, production, or financial decision or any procedure involving any risk to the 
#safety of any drilling venture, drilling rig or its crew or any other third party.  The 
#Customer has full responsibility for all drilling, completion and production operation.  
#Halliburton makes no representations or warranties, either expressed or 
#implied, including, but not limited to, the implied warranties of merchantability or fitness 
#for a particular purpose, with respect to the services rendered.  In no event will 
#Halliburton be liable for failure to obtain any particular results or for 
#any damages, including, but not limited to, indirect, special or consequential damages, 
#resulting from the use of any information or interpretation provided by Halliburton.
#
~A           TIME           GTDEPTH  GTPQH  GTTQ  GTTN  GTET   GTTVD  
# ...
   07:59:44.000.27-Mar-2021 3413.01 6662.32 60.88 7.00  46.00 3157.73
   07:59:44.200.27-Mar-2021 3413.01 6662.32 60.88 7.00  46.20 3157.73
   07:59:44.400.27-Mar-2021 3413.01 6423.29 60.88 7.00  46.40 3157.73
   07:59:44.600.27-Mar-2021 3413.01 6282.08 60.88 7.00  46.60 3157.73
   07:59:44.800.27-Mar-2021 3413.01 6162.06 60.88 7.00  46.80 3157.73
   07:59:45.000.27-Mar-2021 3413.01 6063.84 60.88 7.00  47.00 3157.73
   07:59:45.200.27-Mar-2021 3413.01 6063.84 60.88 7.00  47.20 3157.73
   07:59:45.400.27-Mar-2021 3413.01 5929.03 60.88 7.00  47.40 3157.73
   07:59:45.600.27-Mar-2021 3413.01 5879.32 60.88 7.00  47.60 3157.73
   07:59:45.800.27-Mar-2021 3413.01 5857.13 60.88 7.00  47.80 3157.73
   07:59:46.000.27-Mar-2021 3413.01 5841.35 60.88 7.00  48.00 3157.73
   07:59:46.200.27-Mar-2021 3413.01 5841.35 60.88 7.00  48.20 3157.73
   07:59:46.400.27-Mar-2021 3413.01 5825.43 60.88 7.00  48.40 3157.73
   07:59:46.600.27-Mar-2021 3413.01 5821.73 60.87 7.00  48.60 3157.73
   07:59:46.800.27-Mar-2021 3413.01 5819.77 60.87 7.00  48.80 3157.73
   07:59:47.000.27-Mar-2021 3413.01 5819.07 60.87 7.00  49.00 3157.73
   07:59:47.200.27-Mar-2021 3413.01 5819.07 60.87 7.00  49.20 3157.73
   07:59:47.400.27-Mar-2021 3413.01 5817.08 60.87 7.00  49.40 3157.73
   07:59:47.600.27-Mar-2021 3413.01 5816.83 60.87 7.00  49.60 3157.73
   07:59:47.800.27-Mar-2021 3413.01 5814.40 60.87 7.00  49.80 3157.73
   07:59:48.000.27-Mar-2021 3413.01 5813.10 60.87 7.00  50.00 3157.73
   07:59:48.200.27-Mar-2021 3413.01 5813.10 60.87 7.00  50.20 3157.73
   07:59:48.400.27-Mar-2021 3413.01 5845.21 60.87 7.00  50.40 3157.73
   07:59:48.600.27-Mar-2021 3413.01 5414.67 60.86 7.00  50.60 3157.73
   07:59:48.800.27-Mar-2021 3413.01 4548.85 60.86 7.00  50.80 3157.73
   07:59:49.000.27-Mar-2021 3413.01 4466.16 60.86 7.00  51.00 3157.73
   07:59:49.200.27-Mar-2021 3413.01 4466.16 60.86 7.00  51.20 3157.73
   07:59:49.400.27-Mar-2021 3413.01 4522.15 60.86 7.00  51.40 3157.73
   07:59:49.600.27-Mar-2021 3413.01 4524.96 60.86 7.00  51.60 3157.73
   07:59:49.800.27-Mar-2021 3413.01 4525.79 60.86 7.00  51.80 3157.73
   07:59:50.000.27-Mar-2021 3413.01 4532.69 60.86 7.00  52.00 3157.73
   07:59:50.200.27-Mar-2021 3413.01 4532.69 60.86 7.00  52.20 3157.73
   07:59:50.400.27-Mar-2021 3413.01 4548.43 60.85 7.00  52.40 3157.73
   07:59:50.600.27-Mar-2021 3413.01 4551.58 60.85 7.00  52.60 3157.73
   07:59:50.800.27-Mar-2021 3413.01 4554.14 60.85 7.00  52.80 3157.73
   07:59:51.000.27-Mar-2021 3413.01 4556.73 60.85 7.00  53.00 3157.73
   07:59:51.200.27-Mar-2021 3413.01 4556.73 60.85 7.00  53.20 3157.73
   07:59:51.400.27-Mar-2021 3413.01 4561.78 60.85 7.00  53.40 3157.73
   07:59:51.600.27-Mar-2021 3413.01 4564.77 60.84 7.00  53.60 3157.73
   07:59:51.800.27-Mar-2021 3413.01 4560.66 60.84 7.00  53.80 3157.73
   07:59:52.000.27-Mar-2021 3413.01 4564.24 60.84 7.00  54.00 3157.73
   07:59:52.200.27-Mar-2021 3413.01 4564.24 60.84 7.00  54.20 3157.73
   07:59:52.400.27-Mar-2021 3413.01 4570.05 60.84 7.00  54.40 3157.73
   07:59:52.600.27-Mar-2021 3413.01 4577.51 60.84 7.00  54.60 3157.73
   07:59:52.800.27-Mar-2021 3413.01 4572.69 60.83 7.00  54.80 3157.73
   07:59:53.000.27-Mar-2021 3413.01 4573.67 60.83 7.00  55.00 3157.73
   07:59:53.200.27-Mar-2021 3413.01 4573.67 60.83 7.00  55.20 3157.73
   07:59:53.400.27-Mar-2021 3413.01 4572.71 60.83 7.00  55.40 3157.73
   07:59:53.600.27-Mar-2021 3413.01 4576.15 60.83 7.00  55.60 3157.73
   07:59:53.800.27-Mar-2021 3413.01 4576.12 60.83 7.00  55.80 3157.73
   07:59:54.000.27-Mar-2021 3413.01 4577.13 60.83 7.00  56.00 3157.73
   07:59:54.200.27-Mar-2021 3413.01 4577.13 60.83 7.00  56.20 3157.73
   07:59:54.400.27-Mar-2021 3413.01 4576.89 60.83 7.00  56.40 3157.73
   07:59:54.600.27-Mar-2021 3413.01 4576.25 60.82 7.00  56.60 3157.73
   07:59:54.800.27-Mar-2021 3413.01 4579.31 60.82 7.00  56.80 3157.73
   07:59:55.000.27-Mar-2021 3413.01 4581.91 60.82 7.00  57.00 3157.73
   07:59:55.200.27-Mar-2021 3413.01 4581.91 60.82 7.00  57.20 3157.73
   07:59:55.400.27-Mar-2021 3413.01 4582.45 60.82 7.00  57.40 3157.73
   07:59:55.600.27-Mar-2021 3413.01 4581.87 60.82 7.00  57.60 3157.73
   07:59:55.800.27-Mar-2021 3413.01 4582.93 60.82 7.00  57.80 3157.73
   07:59:56.000.27-Mar-2021 3413.01 4583.59 60.82 7.00  58.00 3157.73
   07:59:56.200.27-Mar-2021 3413.01 4583.59 60.82 7.00  58.20 3157.73
   07:59:56.400.27-Mar-2021 3413.01 4582.65 60.82 7.00  58.40 3157.73
   07:59:56.600.27-Mar-2021 3413.01 4581.16 60.82 7.00  58.60 3157.73
   07:59:56.800.27-Mar-2021 3413.01 4581.01 60.81 7.00  58.80 3157.73
   07:59:57.000.27-Mar-2021 3413.01 4579.85 60.81 7.00  59.00 3157.73
   07:59:57.200.27-Mar-2021 3413.01 4579.85 60.81 7.00  59.20 3157.73
   07:59:57.400.27-Mar-2021 3413.01 4583.53 60.81 7.00  59.40 3157.73
   07:59:57.600.27-Mar-2021 3413.01 4583.67 60.81 7.00  59.60 3157.73
   07:59:57.800.27-Mar-2021 3413.01 4583.16 60.81 7.00  59.80 3157.73
   07:59:58.000.27-Mar-2021 3413.01 4583.09 60.81 7.00  60.00 3157.73
   07:59:58.200.27-Mar-2021 3413.01 4583.09 60.81 7.00  60.20 3157.73
   07:59:58.400.27-Mar-2021 3413.01 4686.24 60.81 7.00  60.40 3157.73
   07:59:58.600.27-Mar-2021 3413.01 4748.93 60.81 7.00  60.60 3157.73
   07:59:58.800.27-Mar-2021 3413.01 4751.02 60.81 7.00  60.80 3157.73
   07:59:59.000.27-Mar-2021 3413.01 4750.97 60.81 7.00  61.00 3157.73
   07:59:59.200.27-Mar-2021 3413.01 4750.97 60.81 7.00  61.20 3157.73
   07:59:59.400.27-Mar-2021 3413.01 4751.22 60.81 7.00  61.40 3157.73
   07:59:59.600.27-Mar-2021 3413.01 4751.63 60.81 7.00  61.60 3157.73
   07:59:59.800.27-Mar-2021 3413.01 4751.48 60.81 7.00  61.80 3157.73
   08:00:00.000.27-Mar-2021 3413.01 4751.34 60.81 7.00  62.00 3157.73
   08:00:00.200.27-Mar-2021 3413.01 4751.34 60.81 7.00  62.20 3157.73
   08:00:00.400.27-Mar-2021 3413.01 4751.53 60.81 7.00  62.40 3157.73
   08:00:00.600.27-Mar-2021 3413.01 4751.56 60.81 7.00  62.60 3157.73
   08:00:00.800.27-Mar-2021 3413.01 4751.53 60.81 7.00  62.80 3157.73
   08:00:01.000.27-Mar-2021 3413.01 4752.08 60.81 7.00  63.00 3157.73
   08:00:01.200.27-Mar-2021 3413.01 4752.08 60.81 7.00  63.20 3157.73
   08:00:01.400.27-Mar-2021 3413.01 4751.74 60.81 7.00  63.40 3157.73
   08:00:01.600.27-Mar-2021 3413.01 4751.75 60.81 7.00  63.60 3157.73
   08:00:01.800.27-Mar-2021 3413.01 4751.81 60.81 7.00  63.80 3157.73
   08:00:02.000.27-Mar-2021 3413.01 4751.70 60.81 7.00  64.00 3157.73
   08:00:02.200.27-Mar-2021 3413.01 4751.70 60.81 7.00  64.20 3157.73
   08:00:02.400.27-Mar-2021 3413.01 4752.24 60.81 7.00  64.40 3157.73
   08:00:02.600.27-Mar-2021 3413.01 4751.82 60.81 7.00  64.60 3157.73
   08:00:02.800.27-Mar-2021 3413.01 4751.85 60.81 7.00  64.80 3157.73
   08:00:03.000.27-Mar-2021 3413.01 4751.75 60.81 7.00  65.00 3157.73
   08:00:03.200.27-Mar-2021 3413.01 4751.75 60.81 7.00  65.20 3157.73
   08:00:03.400.27-Mar-2021 3413.01 4751.90 60.81 7.00  65.40 3157.73
   08:00:03.600.27-Mar-2021 3413.01 4751.92 60.81 7.00  65.60 3157.73
   08:00:03.800.27-Mar-2021 3413.01 4751.98 60.81 7.00  65.80 3157.73
   08:00:04.000.27-Mar-2021 3413.01 4751.77 60.81 7.00  66.00 3157.73
   08:00:04.200.27-Mar-2021 3413.01 4751.77 60.81 7.00  66.20 3157.73
   08:00:04.400.27-Mar-2021 3413.01 4751.93 60.81 7.00  66.40 3157.73
   08:00:04.600.27-Mar-2021 3413.01 4753.27 60.81 7.00  66.60 3157.73
   08:00:04.800.27-Mar-2021 3413.01 4752.20 60.81 7.00  66.80 3157.73
   08:00:05.000.27-Mar-2021 3413.01 4752.04 60.81 7.00  67.00 3157.73
   08:00:05.200.27-Mar-2021 3413.01 4752.04 60.81 7.00  67.20 3157.73
   08:00:05.400.27-Mar-2021 3413.01 4752.19 60.81 7.00  67.40 3157.73
   08:00:05.600.27-Mar-2021 3413.01 4752.16 60.81 7.00  67.60 3157.73
   08:00:05.800.27-Mar-2021 3413.01 4752.02 60.81 7.00  67.80 3157.73
   08:00:06.000.27-Mar-2021 3413.01 4751.90 60.81 7.00  68.00 3157.73
   08:00:06.200.27-Mar-2021 3413.01 4751.90 60.81 7.00  68.20 3157.73
   08:00:06.400.27-Mar-2021 3413.01 4751.84 60.81 7.00  68.40 3157.73
   08:00:06.600.27-Mar-2021 3413.01 4751.92 60.81 7.00  68.60 3157.73
   08:00:06.800.27-Mar-2021 3413.01 4751.92 60.81 7.00  68.80 3157.73
