~Version Information
 VERS.                  2.0:   CWLS log ASCII Standard -VERSION 2.0
 WRAP.                   NO:   One line per depth step
~Well Information Block
#MNEM.UNIT     VALUE/NAME     DESCRIPTION
#---------     -----------    ---------------------------
 STRT.S             06:42:15 27-Mar-21: START TIME 06:42:15 27-Mar-21
 STOP.S             06:49:25 27-Mar-21: STOP TIME  06:49:25 27-Mar-21
 STEP.S                   0.00: STEP TIME
 NULL.                 -999.25: NULL VALUE
 DFWT.                        :  DIST FWL TEXT
 DFST.                        :  DIST FSL TEXT
 DMF .             Drill Floor:  DRILL MEAS FROM
 STIM.      20.26.40 11-Mar-21:  START TIME
 DATE.      20.26.40 30-Mar-21:  END TIME
 SPUD.               11-Mar-21:  SPUD DATE
 NREF.                    Grid:  NORTH REFERENCE
 HPTY.       Minimum Curvature:  HOLE POS TYPE
 DMOD.             Drill Model:  DRILL MOD DESC
 SVYD.                  Survey:  SURVEY DESC
 ILTD.               Lithology:  INTERP LTH DESC
 FTOP.          Formation Tops:  FORM TOPS DESC
 SON .        AZ-XX-0906805385:  JOB NUMBER
 WTYP.                Deviated:  WELL TYPE
 COMP.     BP Exploration (Caspian Sea) Ltd.:  COMPANY
 UWI .            /AZE00000198:  UNIQUE WELL IDENTIFIER
 API .            /AZE00000198:  API NUMBER
 BASE.              Azerbaijan:  LOGGING EQUIPMENT BASE LOCATION
 REGN.                   EESSA:  REGION
 PROV.                    Baku:  PROVINCE
 STAT.                    Baku:  STATE NAME
 CTRY.              Azerbaijan:  COUNTRY NAME
 FLD .                     ACG:  FIELD NAME
 SRVC.     Turan Drilling & Engineering:  CONTRACTOR
 MWDS.                    Baku:  MWD SHOP
 WELL.                    D09z:  WELL NAME
 JOBN.        AZ-XX-0906805385:  JOB TICKET NUMB
 RIG .              East Azeri:  RIG NAME
 DOE .                     N/A:  DOE NUMBER
 DCON.         Sperry Drilling:  DIRECTNL CONTR
 UNIT.                     N/A:  LOGGING EQUIPMENT ID
 PDAT.          Mean Sea Level:  PERMANENT DATUM
 MDS .        Operator Entered:  MAG DATA SOURCE
 CNTY.                        :  COUNTY
 LOC .                        :  LOCATION
 LMF .             Drill Floor:  LOG MEASURED FROM
 TVDS.m                  43.60:  TVDSS CORRECTN
 LATI.deg                40.02:  LATITUDE
 LONG.deg                51.45:  LONGITUDE
 WHNS.m                 -17.04:  WELL HEAD N/S
 WHEW.m                  -6.28:  WELL HEAD E/W
 UTMX.m              538763.98:  UTM X
 UTMY.m             4431880.20:  UTM Y
 DFWL.m                   0.00:  DISTANCE FWL
 DFSL.m                   0.00:  DISTANCE FSL
 SDEP.m                2680.01:  START DEPTH
 TDD .m                4000.01:  TOTAL DEPTH (DRILLER)
 VSDR.deg               225.71:  VERT SEC DIRECT
 GVFD.g                   1.00:  GRAVITY FIELD
 MFLD.nT              50353.00:  MAGNETIC FIELD
 MDIP.deg                59.49:  MAGNETIC DIP
 MDEC.deg                 6.46:  MAGNETIC DECL
 GRDC.deg                 0.29:  GRID CORRECTION
 AZTC.deg                 6.17:  AZM TOTAL CORR
 EPD .m                   0.00:  ELEVATION
 EGL .m                   0.00:  GROUND ELEVATION
 WDMS.m                 151.80:  WD ELEV
 APD .m                  43.60:  DEPTH ABOVE PD
 AGAP.m                  43.60:  AIR GAP
 VSEW.m                  -6.28:  VERT SEC E/W
 VSNS.m                 -17.04:  VERT SEC N/S
 DEP .m                2656.31:  DEPTH
 EKB .m                  43.60:  KB ELEVATION
 EDF .m                  43.60:  DF ELEVATION
 VSC .                       0:  VS TO CLOSURE
 MAGU.                 1851247:  MAGUTM CHECKSUM
~Parameter Information Block
#MNEM.UNIT       Value        Description
#---------     -----------    ---------------------------
 AV  .mps                 3.00:  Ann Velocity 
 AVMX.mps                 8.00:  Max Ann Veloc 
 AZIF.deg                 0.00:  Azm, Final 
 BHAT.                   Other:  BHA Type 
 BREV.rev                 0.00:  Rev Bit Total 
 BROT.°/30m               0.00:  Build Rotating 
 BS  .in                 10.25:  Bit Size 
 BTPL.psig              511.00:  Bit Press Loss 
 CABU.                      No:  Customer Abuse 
 CGEO.           Asif Pashayev:  Customer Geo 
 COMM.                     lÇi:  Run Comments 1 
 TCS .hr                 24.03:  Time Ciculation Ended 
 CV  .mps                 3.50:  Crit Velocity 
 CVMX.mps                 4.00:  Max Crit Veloc 
 DD1 .             Aziz Aliyev:  Direct Drillr 1 
 DD2 .      Fakhraddin Guliyev:  Direct Drillr 2 
 DDSV.                   Other:  DD Service 
 DEFF.%                  99.00:  % Det Eff 
 DLRX.°/30m               0.00:  Dogleg Rot Max 
 DLSO.°/30m               0.00:  Dogleg Oriented 
 DLSX.°/30m               0.00:  Dogleg Str Max 
 DRET.      23.00.40 28-Mar-21:  Drill End Time 
 DRST.      23.30.40 25-Mar-21:  Drill Start Tim 
 DTIM.hr                  0.00:  Time Drilling 
 EDEP.m                3886.01:  End Depth 
 ENG1.         Almaz Almadatov:  Engineer 1 
 ENG2.      Artemiy Matviyanov:  Engineer 2 
 ENG3.           Samir Gafarov:  Engineer 3 
 ETIM.      23.00.40 28-Mar-21:  End Time 
 FLOI.gpm               550.00:  Flow In 
 FLON.gpm               500.00:  Flow In Min 
 FLOS.cptm                0.00:  Fluid Loss 
 FLOX.gpm               590.00:  Flow In Max 
 HFLO.                      No:  High Flow 
 HPRE.                      No:  High Pressure 
 HTEM.                      No:  High Temp 
 HYDO.m                   1.80:  Hydro Offset 
 IFIN.deg                 0.00:  Inc, Final 
 IMAX.deg                 0.00:  Inc Max 
 IMIN.deg                 0.00:  Inc Min 
 IMND.m                   0.00:  Inc Min Depth 
 IMXD.m                   0.00:  Inc Max Depth 
 JARR.                      No:  Jarring 
 LETM.      03.22.40 28-Mar-21:  Log End Time 
 LOST.hr                     0:  Lost Rig Time 
 LSTM.      23.30.40 25-Mar-21:  Log Start Time 
 MDCL.ppm             34000.00:  Mud Chlorides 
 MDES.     Inversion Oil/Synthetic:  Mud Desc 
 DFD .sg                  1.51:  Mud Density 
 MDMN.sg                  1.51:  Dens Mud Min 
 MDMX.sg                  1.51:  Dens Mud Max 
 MOIL.                      70:  Run Mud Oil % 
 MOWR.                   70:30:  Run Mud OWR 
 MSND.                     0.2:  Run Mud Sand % 
 MSOL.                   21.60:  Run Mud Solids% 
 DFV .spqt               74.00:  Mud Viscosity 
 MWOD.in                  6.75:  MWD Tool OD 
 MWSI.                      No:  Serv Intrp, MWD 
 OTIM.hr                 69.09:  Time Operating 
 PCON.           Look Like New:  Pad Condition 
 PMAX.psia             3500.00:  Press Op, Max 
 PV  .cP                 70.00:  Mud PV 
 RUN .                     400:  Run Number 
 ROPA.m/hr                0.00:  ROP Avg 
 ROPN.m/hr                0.00:  ROP Min 
 ROPX.m/hr                0.00:  ROP Max 
 RPMA.rpm                80.00:  RPM Surface Avg 
 RPMN.rpm                10.00:  RPM Surface Min 
 RPMX.rpm               100.00:  RPM Surface Max 
 RRUN.                    0400:  Rig Run Number 
 RTIM.hr                  3.00:  Time Reaming 
 SAZI.deg                 0.00:  Azm, Start 
 SDEP.m                3886.01:  Start Depth 
 SIDD.                      No:  Serv Intrp, DD 
 SINC.deg                 0.00:  Inc, Start 
 SPPA.psig             3270.00:  SPP Avg 
 SPPN.psig             3220.00:  SPP Min 
 SPPX.psig             4430.00:  SPP Max 
 STIM.      23.30.40 25-Mar-21:  Start Time 
 SVCS.                 DD, MWD:  Services 
 SVER.                    9.20:  Sperry Version 
 TDAT.m                   0.00:  Tot Depth Attmp 
 TDDF.                      No:  Trip for DD 
 TFF .                      No:  Trip for Fail 
 TQAA.f-kp                8.00:  Torque Abs Avg 
 TQAN.f-kp                7.00:  Torque Abs Min 
 TQAX.f-kp               11.00:  Torque Abs Max 
 TRRT.°/30m               0.00:  Turn Rotating 
 MRT .                  EWR-M5:  Maximum Recorded Temperature 
 TTMX.degC               76.47:  Max Tool Temp 
 VS01.                90640857:  Virtual Str1 SN 
 VS02.                90639246:  Virtual Str2 SN 
 VS03.                90642265:  Virtual Str3 SN 
 VS04.                11654497:  Virtual Str4 SN 
 WBMN.klb                 0.00:  WOB Min 
 WITN.      Kamran Keberlinkiy:  Customer Rep 
 WITN.           Murad Guliyev:  Customer Rep 2 
 WOBA.klb                 0.00:  WOB Avg 
 WOBX.klb                 0.00:  WOB Max 
 YP  .lhf2               36.00:  Yield Point 
~Curve Information Block
#MNEM.UNIT                 API CODE     Curve Description
#---------               -----------    ---------------------------
 TIME.HHMMSS            00 000 000 000:  GT Time & Date
 GTDEPTH.m              00 000 000 000:  GT Depth
 GTPQH.psia             00 000 000 000:  GT HR Quartz Pressure
 GTTQ.degC              00 000 000 000:  GT Quartz Temperature
 GTTN.NONE              00 000 000 000:  GT Test Number
 GTET.sec               00 000 000 000:  GT Elapsed Test Time
 GTTVD.m                00 000 000 000:  GT True Vertical Depth
#Other Information
#
#WARRANTY: Halliburton will use its best efforts to furnish customers with 
#accurate information and interpretations that are part of, and incident to, the services 
#provided.  However, Halliburton cannot and does not warrant the accuracy 
#or correctness of such information and interpretations.  Under no circumstances should any 
#such information or interpretation be relied upon as the sole basis for any drilling, 
#completion, production, or financial decision or any procedure involving any risk to the 
#safety of any drilling venture, drilling rig or its crew or any other third party.  The 
#Customer has full responsibility for all drilling, completion and production operation.  
#Halliburton makes no representations or warranties, either expressed or 
#implied, including, but not limited to, the implied warranties of merchantability or fitness 
#for a particular purpose, with respect to the services rendered.  In no event will 
#Halliburton be liable for failure to obtain any particular results or for 
#any damages, including, but not limited to, indirect, special or consequential damages, 
#resulting from the use of any information or interpretation provided by Halliburton.
#
~A           TIME           GTDEPTH  GTPQH  GTTQ  GTTN  GTET   GTTVD  
# ...
   06:47:37.303.27-Mar-2021 3443.51 5071.14 60.36 5.00 322.08 3186.30
   06:47:37.503.27-Mar-2021 3443.51 5071.14 60.36 5.00 322.28 3186.30
   06:47:37.703.27-Mar-2021 3443.51 5071.00 60.36 5.00 322.48 3186.30
   06:47:37.903.27-Mar-2021 3443.51 5071.31 60.36 5.00 322.68 3186.30
   06:47:38.103.27-Mar-2021 3443.51 5070.80 60.36 5.00 322.88 3186.30
   06:47:38.303.27-Mar-2021 3443.51 5071.18 60.36 5.00 323.08 3186.30
   06:47:38.503.27-Mar-2021 3443.51 5071.18 60.36 5.00 323.28 3186.30
   06:47:38.703.27-Mar-2021 3443.51 5071.10 60.36 5.00 323.48 3186.30
   06:47:38.903.27-Mar-2021 3443.51 5071.07 60.36 5.00 323.68 3186.30
   06:47:39.103.27-Mar-2021 3443.51 5071.13 60.36 5.00 323.88 3186.30
   06:47:39.303.27-Mar-2021 3443.51 5071.10 60.36 5.00 324.08 3186.30
   06:47:39.503.27-Mar-2021 3443.51 5071.10 60.36 5.00 324.28 3186.30
   06:47:39.703.27-Mar-2021 3443.51 5071.22 60.36 5.00 324.48 3186.30
   06:47:39.904.27-Mar-2021 3443.51 5070.98 60.36 5.00 324.68 3186.30
   06:47:40.104.27-Mar-2021 3443.51 5071.13 60.36 5.00 324.88 3186.30
   06:47:40.304.27-Mar-2021 3443.51 5070.95 60.36 5.00 325.08 3186.30
   06:47:40.504.27-Mar-2021 3443.51 5070.95 60.36 5.00 325.28 3186.30
   06:47:40.704.27-Mar-2021 3443.51 5071.02 60.36 5.00 325.48 3186.30
   06:47:40.904.27-Mar-2021 3443.51 5070.86 60.36 5.00 325.68 3186.30
   06:47:41.104.27-Mar-2021 3443.51 5071.30 60.36 5.00 325.88 3186.30
   06:47:41.304.27-Mar-2021 3443.51 5070.98 60.36 5.00 326.08 3186.30
   06:47:41.504.27-Mar-2021 3443.51 5070.98 60.36 5.00 326.28 3186.30
   06:47:41.704.27-Mar-2021 3443.51 5071.27 60.36 5.00 326.48 3186.30
   06:47:41.904.27-Mar-2021 3443.51 5070.98 60.36 5.00 326.68 3186.30
   06:47:42.104.27-Mar-2021 3443.51 5071.00 60.36 5.00 326.88 3186.30
   06:47:42.304.27-Mar-2021 3443.51 5071.24 60.36 5.00 327.08 3186.30
   06:47:42.504.27-Mar-2021 3443.51 5071.24 60.36 5.00 327.28 3186.30
   06:47:42.704.27-Mar-2021 3443.51 5070.96 60.36 5.00 327.48 3186.30
   06:47:42.904.27-Mar-2021 3443.51 5071.15 60.36 5.00 327.68 3186.30
   06:47:43.104.27-Mar-2021 3443.51 5071.03 60.36 5.00 327.88 3186.30
   06:47:43.304.27-Mar-2021 3443.51 5070.92 60.36 5.00 328.08 3186.30
   06:47:43.504.27-Mar-2021 3443.51 5070.92 60.36 5.00 328.28 3186.30
   06:47:43.704.27-Mar-2021 3443.51 5071.18 60.36 5.00 328.48 3186.30
   06:47:43.905.27-Mar-2021 3443.51 5071.13 60.36 5.00 328.68 3186.30
   06:47:44.105.27-Mar-2021 3443.51 5071.05 60.36 5.00 328.88 3186.30
   06:47:44.305.27-Mar-2021 3443.51 5070.73 60.36 5.00 329.08 3186.30
   06:47:44.505.27-Mar-2021 3443.51 5070.73 60.36 5.00 329.28 3186.30
   06:47:44.705.27-Mar-2021 3443.51 5071.02 60.36 5.00 329.48 3186.30
   06:47:44.905.27-Mar-2021 3443.51 5071.22 60.36 5.00 329.68 3186.30
   06:47:45.105.27-Mar-2021 3443.51 5071.13 60.36 5.00 329.88 3186.30
   06:47:45.305.27-Mar-2021 3443.51 5071.20 60.36 5.00 330.08 3186.30
   06:47:45.505.27-Mar-2021 3443.51 5071.20 60.36 5.00 330.28 3186.30
   06:47:45.705.27-Mar-2021 3443.51 5070.97 60.36 5.00 330.48 3186.30
   06:47:45.905.27-Mar-2021 3443.51 5071.10 60.36 5.00 330.68 3186.30
   06:47:46.105.27-Mar-2021 3443.51 5071.19 60.36 5.00 330.88 3186.30
   06:47:46.305.27-Mar-2021 3443.51 5071.04 60.36 5.00 331.08 3186.30
   06:47:46.505.27-Mar-2021 3443.51 5071.04 60.36 5.00 331.28 3186.30
   06:47:46.705.27-Mar-2021 3443.51 5071.08 60.36 5.00 331.48 3186.30
   06:47:46.905.27-Mar-2021 3443.51 5071.11 60.36 5.00 331.68 3186.30
   06:47:47.105.27-Mar-2021 3443.51 5070.94 60.36 5.00 331.88 3186.30
   06:47:47.305.27-Mar-2021 3443.51 5071.01 60.36 5.00 332.08 3186.30
   06:47:47.505.27-Mar-2021 3443.51 5071.01 60.36 5.00 332.28 3186.30
   06:47:47.705.27-Mar-2021 3443.51 5071.31 60.36 5.00 332.48 3186.30
   06:47:47.906.27-Mar-2021 3443.51 5071.39 60.36 5.00 332.68 3186.30
   06:47:48.106.27-Mar-2021 3443.51 5070.77 60.36 5.00 332.88 3186.30
   06:47:48.306.27-Mar-2021 3443.51 5070.93 60.36 5.00 333.08 3186.30
   06:47:48.506.27-Mar-2021 3443.51 5070.93 60.36 5.00 333.28 3186.30
   06:47:48.706.27-Mar-2021 3443.51 5071.05 60.36 5.00 333.48 3186.30
   06:47:48.906.27-Mar-2021 3443.51 5070.91 60.36 5.00 333.68 3186.30
   06:47:49.106.27-Mar-2021 3443.51 5071.16 60.36 5.00 333.88 3186.30
   06:47:49.306.27-Mar-2021 3443.51 5070.98 60.36 5.00 334.08 3186.30
   06:47:49.506.27-Mar-2021 3443.51 5070.98 60.36 5.00 334.28 3186.30
   06:47:49.706.27-Mar-2021 3443.51 5071.06 60.36 5.00 334.48 3186.30
   06:47:49.906.27-Mar-2021 3443.51 5071.29 60.36 5.00 334.68 3186.30
   06:47:50.106.27-Mar-2021 3443.51 5070.82 60.36 5.00 334.88 3186.30
   06:47:50.306.27-Mar-2021 3443.51 5070.98 60.36 5.00 335.08 3186.30
   06:47:50.506.27-Mar-2021 3443.51 5070.98 60.36 5.00 335.28 3186.30
   06:47:50.706.27-Mar-2021 3443.51 5071.15 60.36 5.00 335.48 3186.30
   06:47:50.906.27-Mar-2021 3443.51 5070.92 60.36 5.00 335.68 3186.30
   06:47:51.106.27-Mar-2021 3443.51 5071.26 60.36 5.00 335.88 3186.30
   06:47:51.306.27-Mar-2021 3443.51 5070.87 60.36 5.00 336.08 3186.30
   06:47:51.506.27-Mar-2021 3443.51 5070.87 60.36 5.00 336.28 3186.30
   06:47:51.706.27-Mar-2021 3443.51 5070.95 60.36 5.00 336.48 3186.30
   06:47:51.906.27-Mar-2021 3443.51 5071.04 60.36 5.00 336.68 3186.30
   06:47:52.107.27-Mar-2021 3443.51 5071.22 60.36 5.00 336.88 3186.30
   06:47:52.307.27-Mar-2021 3443.51 5070.90 60.36 5.00 337.08 3186.30
   06:47:52.507.27-Mar-2021 3443.51 5070.90 60.36 5.00 337.28 3186.30
   06:47:52.707.27-Mar-2021 3443.51 5071.22 60.36 5.00 337.48 3186.30
   06:47:52.907.27-Mar-2021 3443.51 5071.12 60.36 5.00 337.68 3186.30
   06:47:53.107.27-Mar-2021 3443.51 5071.02 60.36 5.00 337.88 3186.30
   06:47:53.307.27-Mar-2021 3443.51 5071.14 60.36 5.00 338.08 3186.30
   06:47:53.507.27-Mar-2021 3443.51 5071.14 60.36 5.00 338.28 3186.30
   06:47:53.707.27-Mar-2021 3443.51 5071.08 60.36 5.00 338.48 3186.30
   06:47:53.907.27-Mar-2021 3443.51 5071.05 60.36 5.00 338.68 3186.30
   06:47:54.107.27-Mar-2021 3443.51 5070.96 60.36 5.00 338.88 3186.30
   06:47:54.307.27-Mar-2021 3443.51 5071.29 60.36 5.00 339.08 3186.30
   06:47:54.507.27-Mar-2021 3443.51 5071.29 60.36 5.00 339.28 3186.30
   06:47:54.707.27-Mar-2021 3443.51 5071.12 60.36 5.00 339.48 3186.30
   06:47:54.907.27-Mar-2021 3443.51 5070.87 60.36 5.00 339.68 3186.30
   06:47:55.107.27-Mar-2021 3443.51 5071.27 60.36 5.00 339.88 3186.30
   06:47:55.307.27-Mar-2021 3443.51 5070.99 60.36 5.00 340.08 3186.30
   06:47:55.507.27-Mar-2021 3443.51 5070.99 60.36 5.00 340.28 3186.30
   06:47:55.707.27-Mar-2021 3443.51 5071.32 60.36 5.00 340.48 3186.30
   06:47:55.907.27-Mar-2021 3443.51 5070.97 60.36 5.00 340.68 3186.30
   06:47:56.108.27-Mar-2021 3443.51 5071.34 60.36 5.00 340.88 3186.30
   06:47:56.308.27-Mar-2021 3443.51 5070.69 60.36 5.00 341.08 3186.30
   06:47:56.508.27-Mar-2021 3443.51 5070.69 60.36 5.00 341.28 3186.30
   06:47:56.708.27-Mar-2021 3443.51 5071.22 60.36 5.00 341.49 3186.30
   06:47:56.908.27-Mar-2021 3443.51 5070.99 60.36 5.00 341.69 3186.30
   06:47:57.108.27-Mar-2021 3443.51 5071.08 60.36 5.00 341.89 3186.30
   06:47:57.308.27-Mar-2021 3443.51 5071.09 60.36 5.00 342.09 3186.30
   06:47:57.508.27-Mar-2021 3443.51 5071.09 60.36 5.00 342.29 3186.30
   06:47:57.708.27-Mar-2021 3443.51 5070.81 60.36 5.00 342.49 3186.30
   06:47:57.908.27-Mar-2021 3443.51 5071.40 60.36 5.00 342.69 3186.30
   06:47:58.108.27-Mar-2021 3443.51 5071.17 60.36 5.00 342.89 3186.30
   06:47:58.308.27-Mar-2021 3443.51 5071.26 60.36 5.00 343.09 3186.30
   06:47:58.508.27-Mar-2021 3443.51 5071.26 60.36 5.00 343.29 3186.30
   06:47:58.708.27-Mar-2021 3443.51 5071.00 60.36 5.00 343.49 3186.30
   06:47:58.908.27-Mar-2021 3443.51 5071.06 60.36 5.00 343.69 3186.30
   06:47:59.108.27-Mar-2021 3443.51 5070.88 60.36 5.00 343.89 3186.30
   06:47:59.308.27-Mar-2021 3443.51 5071.22 60.36 5.00 344.09 3186.30
   06:47:59.508.27-Mar-2021 3443.51 5071.22 60.36 5.00 344.29 3186.30
   06:47:59.708.27-Mar-2021 3443.51 5071.07 60.36 5.00 344.49 3186.30
   06:47:59.908.27-Mar-2021 3443.51 5071.20 60.36 5.00 344.69 3186.30
   06:48:00.109.27-Mar-2021 3443.51 5071.15 60.36 5.00 344.89 3186.30
