~Version Information
 VERS.                  2.0:   CWLS log ASCII Standard -VERSION 2.0
 WRAP.                   NO:   One line per depth step
~Well Information Block
#MNEM.UNIT     VALUE/NAME     DESCRIPTION
#---------     -----------    ---------------------------
 STRT.S             11:05:10 27-Mar-21: START TIME 11:05:10 27-Mar-21
 STOP.S             11:12:21 27-Mar-21: STOP TIME  11:12:21 27-Mar-21
 STEP.S                   0.00: STEP TIME
 NULL.                 -999.25: NULL VALUE
 DFWT.                        :  DIST FWL TEXT
 DFST.                        :  DIST FSL TEXT
 DMF .             Drill Floor:  DRILL MEAS FROM
 STIM.      20.26.40 11-Mar-21:  START TIME
 DATE.      20.26.40 30-Mar-21:  END TIME
 SPUD.               11-Mar-21:  SPUD DATE
 NREF.                    Grid:  NORTH REFERENCE
 HPTY.       Minimum Curvature:  HOLE POS TYPE
 DMOD.             Drill Model:  DRILL MOD DESC
 SVYD.                  Survey:  SURVEY DESC
 ILTD.               Lithology:  INTERP LTH DESC
 FTOP.          Formation Tops:  FORM TOPS DESC
 SON .        AZ-XX-0906805385:  JOB NUMBER
 WTYP.                Deviated:  WELL TYPE
 COMP.     BP Exploration (Caspian Sea) Ltd.:  COMPANY
 UWI .            /AZE00000198:  UNIQUE WELL IDENTIFIER
 API .            /AZE00000198:  API NUMBER
 BASE.              Azerbaijan:  LOGGING EQUIPMENT BASE LOCATION
 REGN.                   EESSA:  REGION
 PROV.                    Baku:  PROVINCE
 STAT.                    Baku:  STATE NAME
 CTRY.              Azerbaijan:  COUNTRY NAME
 FLD .                     ACG:  FIELD NAME
 SRVC.     Turan Drilling & Engineering:  CONTRACTOR
 MWDS.                    Baku:  MWD SHOP
 WELL.                    D09z:  WELL NAME
 JOBN.        AZ-XX-0906805385:  JOB TICKET NUMB
 RIG .              East Azeri:  RIG NAME
 DOE .                     N/A:  DOE NUMBER
 DCON.         Sperry Drilling:  DIRECTNL CONTR
 UNIT.                     N/A:  LOGGING EQUIPMENT ID
 PDAT.          Mean Sea Level:  PERMANENT DATUM
 MDS .        Operator Entered:  MAG DATA SOURCE
 CNTY.                        :  COUNTY
 LOC .                        :  LOCATION
 LMF .             Drill Floor:  LOG MEASURED FROM
 TVDS.m                  43.60:  TVDSS CORRECTN
 LATI.deg                40.02:  LATITUDE
 LONG.deg                51.45:  LONGITUDE
 WHNS.m                 -17.04:  WELL HEAD N/S
 WHEW.m                  -6.28:  WELL HEAD E/W
 UTMX.m              538763.98:  UTM X
 UTMY.m             4431880.20:  UTM Y
 DFWL.m                   0.00:  DISTANCE FWL
 DFSL.m                   0.00:  DISTANCE FSL
 SDEP.m                2680.01:  START DEPTH
 TDD .m                4000.01:  TOTAL DEPTH (DRILLER)
 VSDR.deg               225.71:  VERT SEC DIRECT
 GVFD.g                   1.00:  GRAVITY FIELD
 MFLD.nT              50353.00:  MAGNETIC FIELD
 MDIP.deg                59.49:  MAGNETIC DIP
 MDEC.deg                 6.46:  MAGNETIC DECL
 GRDC.deg                 0.29:  GRID CORRECTION
 AZTC.deg                 6.17:  AZM TOTAL CORR
 EPD .m                   0.00:  ELEVATION
 EGL .m                   0.00:  GROUND ELEVATION
 WDMS.m                 151.80:  WD ELEV
 APD .m                  43.60:  DEPTH ABOVE PD
 AGAP.m                  43.60:  AIR GAP
 VSEW.m                  -6.28:  VERT SEC E/W
 VSNS.m                 -17.04:  VERT SEC N/S
 DEP .m                2656.31:  DEPTH
 EKB .m                  43.60:  KB ELEVATION
 EDF .m                  43.60:  DF ELEVATION
 VSC .                       0:  VS TO CLOSURE
 MAGU.                 1851247:  MAGUTM CHECKSUM
~Parameter Information Block
#MNEM.UNIT       Value        Description
#---------     -----------    ---------------------------
 AV  .mps                 3.00:  Ann Velocity 
 AVMX.mps                 8.00:  Max Ann Veloc 
 AZIF.deg                 0.00:  Azm, Final 
 BHAT.                   Other:  BHA Type 
 BREV.rev                 0.00:  Rev Bit Total 
 BROT.°/30m               0.00:  Build Rotating 
 BS  .in                 10.25:  Bit Size 
 BTPL.psig              511.00:  Bit Press Loss 
 CABU.                      No:  Customer Abuse 
 CGEO.           Asif Pashayev:  Customer Geo 
 COMM.                     $Ml:  Run Comments 1 
 TCS .hr                 24.03:  Time Ciculation Ended 
 CV  .mps                 3.50:  Crit Velocity 
 CVMX.mps                 4.00:  Max Crit Veloc 
 DD1 .             Aziz Aliyev:  Direct Drillr 1 
 DD2 .      Fakhraddin Guliyev:  Direct Drillr 2 
 DDSV.                   Other:  DD Service 
 DEFF.%                  99.00:  % Det Eff 
 DLRX.°/30m               0.00:  Dogleg Rot Max 
 DLSO.°/30m               0.00:  Dogleg Oriented 
 DLSX.°/30m               0.00:  Dogleg Str Max 
 DRET.      23.00.40 28-Mar-21:  Drill End Time 
 DRST.      23.30.40 25-Mar-21:  Drill Start Tim 
 DTIM.hr                  0.00:  Time Drilling 
 EDEP.m                3886.01:  End Depth 
 ENG1.         Almaz Almadatov:  Engineer 1 
 ENG2.      Artemiy Matviyanov:  Engineer 2 
 ENG3.           Samir Gafarov:  Engineer 3 
 ETIM.      23.00.40 28-Mar-21:  End Time 
 FLOI.gpm               550.00:  Flow In 
 FLON.gpm               500.00:  Flow In Min 
 FLOS.cptm                0.00:  Fluid Loss 
 FLOX.gpm               590.00:  Flow In Max 
 HFLO.                      No:  High Flow 
 HPRE.                      No:  High Pressure 
 HTEM.                      No:  High Temp 
 HYDO.m                   1.80:  Hydro Offset 
 IFIN.deg                 0.00:  Inc, Final 
 IMAX.deg                 0.00:  Inc Max 
 IMIN.deg                 0.00:  Inc Min 
 IMND.m                   0.00:  Inc Min Depth 
 IMXD.m                   0.00:  Inc Max Depth 
 JARR.                      No:  Jarring 
 LETM.      03.22.40 28-Mar-21:  Log End Time 
 LOST.hr                     0:  Lost Rig Time 
 LSTM.      23.30.40 25-Mar-21:  Log Start Time 
 MDCL.ppm             34000.00:  Mud Chlorides 
 MDES.     Inversion Oil/Synthetic:  Mud Desc 
 DFD .sg                  1.51:  Mud Density 
 MDMN.sg                  1.51:  Dens Mud Min 
 MDMX.sg                  1.51:  Dens Mud Max 
 MOIL.                      70:  Run Mud Oil % 
 MOWR.                   70:30:  Run Mud OWR 
 MSND.                     0.2:  Run Mud Sand % 
 MSOL.                   21.60:  Run Mud Solids% 
 DFV .spqt               74.00:  Mud Viscosity 
 MWOD.in                  6.75:  MWD Tool OD 
 MWSI.                      No:  Serv Intrp, MWD 
 OTIM.hr                 69.09:  Time Operating 
 PCON.           Look Like New:  Pad Condition 
 PMAX.psia             3500.00:  Press Op, Max 
 PV  .cP                 70.00:  Mud PV 
 RUN .                     400:  Run Number 
 ROPA.m/hr                0.00:  ROP Avg 
 ROPN.m/hr                0.00:  ROP Min 
 ROPX.m/hr                0.00:  ROP Max 
 RPMA.rpm                80.00:  RPM Surface Avg 
 RPMN.rpm                10.00:  RPM Surface Min 
 RPMX.rpm               100.00:  RPM Surface Max 
 RRUN.                    0400:  Rig Run Number 
 RTIM.hr                  3.00:  Time Reaming 
 SAZI.deg                 0.00:  Azm, Start 
 SDEP.m                3886.01:  Start Depth 
 SIDD.                      No:  Serv Intrp, DD 
 SINC.deg                 0.00:  Inc, Start 
 SPPA.psig             3270.00:  SPP Avg 
 SPPN.psig             3220.00:  SPP Min 
 SPPX.psig             4430.00:  SPP Max 
 STIM.      23.30.40 25-Mar-21:  Start Time 
 SVCS.                 DD, MWD:  Services 
 SVER.                    9.20:  Sperry Version 
 TDAT.m                   0.00:  Tot Depth Attmp 
 TDDF.                      No:  Trip for DD 
 TFF .                      No:  Trip for Fail 
 TQAA.f-kp                8.00:  Torque Abs Avg 
 TQAN.f-kp                7.00:  Torque Abs Min 
 TQAX.f-kp               11.00:  Torque Abs Max 
 TRRT.°/30m               0.00:  Turn Rotating 
 MRT .                  EWR-M5:  Maximum Recorded Temperature 
 TTMX.degC               76.47:  Max Tool Temp 
 VS01.                90640857:  Virtual Str1 SN 
 VS02.                90639246:  Virtual Str2 SN 
 VS03.                90642265:  Virtual Str3 SN 
 VS04.                11654497:  Virtual Str4 SN 
 WBMN.klb                 0.00:  WOB Min 
 WITN.      Kamran Keberlinkiy:  Customer Rep 
 WITN.           Murad Guliyev:  Customer Rep 2 
 WOBA.klb                 0.00:  WOB Avg 
 WOBX.klb                 0.00:  WOB Max 
 YP  .lhf2               36.00:  Yield Point 
~Curve Information Block
#MNEM.UNIT                 API CODE     Curve Description
#---------               -----------    ---------------------------
 TIME.HHMMSS            00 000 000 000:  GT Time & Date
 GTDEPTH.m              00 000 000 000:  GT Depth
 GTPQH.psia             00 000 000 000:  GT HR Quartz Pressure
 GTTQ.degC              00 000 000 000:  GT Quartz Temperature
 GTTN.NONE              00 000 000 000:  GT Test Number
 GTET.sec               00 000 000 000:  GT Elapsed Test Time
 GTTVD.m                00 000 000 000:  GT True Vertical Depth
#Other Information
#
#WARRANTY: Halliburton will use its best efforts to furnish customers with 
#accurate information and interpretations that are part of, and incident to, the services 
#provided.  However, Halliburton cannot and does not warrant the accuracy 
#or correctness of such information and interpretations.  Under no circumstances should any 
#such information or interpretation be relied upon as the sole basis for any drilling, 
#completion, production, or financial decision or any procedure involving any risk to the 
#safety of any drilling venture, drilling rig or its crew or any other third party.  The 
#Customer has full responsibility for all drilling, completion and production operation.  
#Halliburton makes no representations or warranties, either expressed or 
#implied, including, but not limited to, the implied warranties of merchantability or fitness 
#for a particular purpose, with respect to the services rendered.  In no event will 
#Halliburton be liable for failure to obtain any particular results or for 
#any damages, including, but not limited to, indirect, special or consequential damages, 
#resulting from the use of any information or interpretation provided by Halliburton.
#
~A           TIME           GTDEPTH  GTPQH  GTTQ  GTTN   GTET   GTTVD  
# ...
   11:10:04.096.27-Mar-2021 3279.01 4781.48 61.26 11.00 293.87 3032.17
   11:10:04.296.27-Mar-2021 3279.01 4781.19 61.26 11.00 294.07 3032.17
   11:10:04.496.27-Mar-2021 3279.01 4781.19 61.26 11.00 294.27 3032.17
   11:10:04.696.27-Mar-2021 3279.01 4781.50 61.26 11.00 294.47 3032.17
   11:10:04.896.27-Mar-2021 3279.01 4781.20 61.26 11.00 294.67 3032.17
   11:10:05.096.27-Mar-2021 3279.01 4782.78 61.27 11.00 294.87 3032.17
   11:10:05.296.27-Mar-2021 3279.01 4782.44 61.26 11.00 295.07 3032.17
   11:10:05.496.27-Mar-2021 3279.01 4782.44 61.26 11.00 295.27 3032.17
   11:10:05.696.27-Mar-2021 3279.01 4782.00 61.27 11.00 295.47 3032.17
   11:10:05.896.27-Mar-2021 3279.01 4782.39 61.27 11.00 295.67 3032.17
   11:10:06.096.27-Mar-2021 3279.01 4781.89 61.27 11.00 295.87 3032.17
   11:10:06.296.27-Mar-2021 3279.01 4781.21 61.27 11.00 296.07 3032.17
   11:10:06.496.27-Mar-2021 3279.01 4781.21 61.27 11.00 296.27 3032.17
   11:10:06.696.27-Mar-2021 3279.01 4783.03 61.27 11.00 296.47 3032.17
   11:10:06.896.27-Mar-2021 3279.01 4781.40 61.27 11.00 296.67 3032.17
   11:10:07.096.27-Mar-2021 3279.01 4781.40 61.27 11.00 296.87 3032.17
   11:10:07.296.27-Mar-2021 3279.01 4782.27 61.27 11.00 297.07 3032.17
   11:10:07.496.27-Mar-2021 3279.01 4782.27 61.27 11.00 297.27 3032.17
   11:10:07.696.27-Mar-2021 3279.01 4781.73 61.27 11.00 297.47 3032.17
   11:10:07.896.27-Mar-2021 3279.01 4781.49 61.27 11.00 297.67 3032.17
   11:10:08.097.27-Mar-2021 3279.01 4781.87 61.27 11.00 297.87 3032.17
   11:10:08.297.27-Mar-2021 3279.01 4782.11 61.27 11.00 298.07 3032.17
   11:10:08.497.27-Mar-2021 3279.01 4782.11 61.27 11.00 298.27 3032.17
   11:10:08.697.27-Mar-2021 3279.01 4781.85 61.27 11.00 298.47 3032.17
   11:10:08.897.27-Mar-2021 3279.01 4781.80 61.27 11.00 298.67 3032.17
   11:10:09.097.27-Mar-2021 3279.01 4781.95 61.27 11.00 298.87 3032.17
   11:10:09.297.27-Mar-2021 3279.01 4781.77 61.27 11.00 299.07 3032.17
   11:10:09.497.27-Mar-2021 3279.01 4781.77 61.27 11.00 299.27 3032.17
   11:10:09.697.27-Mar-2021 3279.01 4782.49 61.27 11.00 299.47 3032.17
   11:10:09.897.27-Mar-2021 3279.01 4782.59 61.27 11.00 299.67 3032.17
   11:10:10.097.27-Mar-2021 3279.01 4781.16 61.27 11.00 299.87 3032.17
   11:10:10.297.27-Mar-2021 3279.01 4781.83 61.27 11.00 300.07 3032.17
   11:10:10.497.27-Mar-2021 3279.01 4781.83 61.27 11.00 300.27 3032.17
   11:10:10.697.27-Mar-2021 3279.01 4781.99 61.27 11.00 300.47 3032.17
   11:10:10.897.27-Mar-2021 3279.01 4781.83 61.27 11.00 300.67 3032.17
   11:10:11.097.27-Mar-2021 3279.01 4782.07 61.27 11.00 300.87 3032.17
   11:10:11.297.27-Mar-2021 3279.01 4782.29 61.27 11.00 301.07 3032.17
   11:10:11.497.27-Mar-2021 3279.01 4782.29 61.27 11.00 301.27 3032.17
   11:10:11.697.27-Mar-2021 3279.01 4781.89 61.27 11.00 301.47 3032.17
   11:10:11.897.27-Mar-2021 3279.01 4782.15 61.27 11.00 301.67 3032.17
   11:10:12.097.27-Mar-2021 3279.01 4781.76 61.27 11.00 301.87 3032.17
   11:10:12.297.27-Mar-2021 3279.01 4781.87 61.27 11.00 302.07 3032.17
   11:10:12.498.27-Mar-2021 3279.01 4781.87 61.27 11.00 302.27 3032.17
   11:10:12.698.27-Mar-2021 3279.01 4781.67 61.27 11.00 302.47 3032.17
   11:10:12.898.27-Mar-2021 3279.01 4782.07 61.27 11.00 302.67 3032.17
   11:10:13.098.27-Mar-2021 3279.01 4782.33 61.27 11.00 302.87 3032.17
   11:10:13.298.27-Mar-2021 3279.01 4782.03 61.27 11.00 303.07 3032.17
   11:10:13.498.27-Mar-2021 3279.01 4782.03 61.27 11.00 303.27 3032.17
   11:10:13.698.27-Mar-2021 3279.01 4782.02 61.27 11.00 303.47 3032.17
   11:10:13.898.27-Mar-2021 3279.01 4781.66 61.27 11.00 303.67 3032.17
   11:10:14.098.27-Mar-2021 3279.01 4782.65 61.27 11.00 303.87 3032.17
   11:10:14.298.27-Mar-2021 3279.01 4782.33 61.26 11.00 304.07 3032.17
   11:10:14.498.27-Mar-2021 3279.01 4782.33 61.26 11.00 304.27 3032.17
   11:10:14.698.27-Mar-2021 3279.01 4781.74 61.26 11.00 304.47 3032.17
   11:10:14.898.27-Mar-2021 3279.01 4782.20 61.26 11.00 304.67 3032.17
   11:10:15.098.27-Mar-2021 3279.01 4781.72 61.26 11.00 304.87 3032.17
   11:10:15.298.27-Mar-2021 3279.01 4782.46 61.27 11.00 305.07 3032.17
   11:10:15.498.27-Mar-2021 3279.01 4782.46 61.27 11.00 305.27 3032.17
   11:10:15.698.27-Mar-2021 3279.01 4781.87 61.26 11.00 305.47 3032.17
   11:10:15.898.27-Mar-2021 3279.01 4782.34 61.26 11.00 305.67 3032.17
   11:10:16.098.27-Mar-2021 3279.01 4782.15 61.26 11.00 305.87 3032.17
   11:10:16.298.27-Mar-2021 3279.01 4781.89 61.26 11.00 306.07 3032.17
   11:10:16.498.27-Mar-2021 3279.01 4781.89 61.26 11.00 306.27 3032.17
   11:10:16.699.27-Mar-2021 3279.01 4781.58 61.26 11.00 306.47 3032.17
   11:10:16.899.27-Mar-2021 3279.01 4782.18 61.26 11.00 306.67 3032.17
   11:10:17.099.27-Mar-2021 3279.01 4782.73 61.26 11.00 306.87 3032.17
   11:10:17.299.27-Mar-2021 3279.01 4782.40 61.26 11.00 307.07 3032.17
   11:10:17.499.27-Mar-2021 3279.01 4782.40 61.26 11.00 307.27 3032.17
   11:10:17.699.27-Mar-2021 3279.01 4782.00 61.26 11.00 307.47 3032.17
   11:10:17.899.27-Mar-2021 3279.01 4782.23 61.26 11.00 307.67 3032.17
   11:10:18.099.27-Mar-2021 3279.01 4781.99 61.26 11.00 307.87 3032.17
   11:10:18.299.27-Mar-2021 3279.01 4782.23 61.26 11.00 308.07 3032.17
   11:10:18.499.27-Mar-2021 3279.01 4782.23 61.26 11.00 308.27 3032.17
   11:10:18.699.27-Mar-2021 3279.01 4782.31 61.26 11.00 308.47 3032.17
   11:10:18.899.27-Mar-2021 3279.01 4782.22 61.26 11.00 308.67 3032.17
   11:10:19.099.27-Mar-2021 3279.01 4782.11 61.26 11.00 308.87 3032.17
   11:10:19.299.27-Mar-2021 3279.01 4782.08 61.26 11.00 309.07 3032.17
   11:10:19.499.27-Mar-2021 3279.01 4782.08 61.26 11.00 309.27 3032.17
   11:10:19.699.27-Mar-2021 3279.01 4782.64 61.26 11.00 309.47 3032.17
   11:10:19.899.27-Mar-2021 3279.01 4782.13 61.26 11.00 309.67 3032.17
   11:10:20.099.27-Mar-2021 3279.01 4782.81 61.26 11.00 309.87 3032.17
   11:10:20.299.27-Mar-2021 3279.01 4782.18 61.26 11.00 310.07 3032.17
   11:10:20.499.27-Mar-2021 3279.01 4782.18 61.26 11.00 310.27 3032.17
   11:10:20.699.27-Mar-2021 3279.01 4781.99 61.26 11.00 310.47 3032.17
   11:10:20.900.27-Mar-2021 3279.01 4782.48 61.26 11.00 310.67 3032.17
   11:10:21.100.27-Mar-2021 3279.01 4782.31 61.26 11.00 310.87 3032.17
   11:10:21.300.27-Mar-2021 3279.01 4782.31 61.26 11.00 311.07 3032.17
   11:10:21.500.27-Mar-2021 3279.01 4782.31 61.26 11.00 311.27 3032.17
   11:10:21.700.27-Mar-2021 3279.01 4782.31 61.26 11.00 311.47 3032.17
   11:10:21.900.27-Mar-2021 3279.01 4782.13 61.26 11.00 311.67 3032.17
   11:10:22.100.27-Mar-2021 3279.01 4781.87 61.26 11.00 311.87 3032.17
   11:10:22.300.27-Mar-2021 3279.01 4781.79 61.26 11.00 312.07 3032.17
   11:10:22.500.27-Mar-2021 3279.01 4781.79 61.26 11.00 312.27 3032.17
   11:10:22.700.27-Mar-2021 3279.01 4782.45 61.26 11.00 312.47 3032.17
   11:10:22.900.27-Mar-2021 3279.01 4782.00 61.26 11.00 312.67 3032.17
   11:10:23.100.27-Mar-2021 3279.01 4781.87 61.26 11.00 312.87 3032.17
   11:10:23.300.27-Mar-2021 3279.01 4782.22 61.26 11.00 313.07 3032.17
   11:10:23.500.27-Mar-2021 3279.01 4782.22 61.26 11.00 313.27 3032.17
   11:10:23.700.27-Mar-2021 3279.01 4781.86 61.26 11.00 313.47 3032.17
   11:10:23.900.27-Mar-2021 3279.01 4782.30 61.26 11.00 313.67 3032.17
   11:10:24.100.27-Mar-2021 3279.01 4781.62 61.26 11.00 313.87 3032.17
   11:10:24.300.27-Mar-2021 3279.01 4782.47 61.26 11.00 314.07 3032.17
   11:10:24.500.27-Mar-2021 3279.01 4782.47 61.26 11.00 314.27 3032.17
   11:10:24.700.27-Mar-2021 3279.01 4781.54 61.26 11.00 314.47 3032.17
   11:10:24.900.27-Mar-2021 3279.01 4782.86 61.26 11.00 314.67 3032.17
   11:10:25.100.27-Mar-2021 3279.01 4782.81 61.26 11.00 314.87 3032.17
   11:10:25.301.27-Mar-2021 3279.01 4781.70 61.26 11.00 315.07 3032.17
   11:10:25.501.27-Mar-2021 3279.01 4781.70 61.26 11.00 315.27 3032.17
   11:10:25.701.27-Mar-2021 3279.01 4782.03 61.26 11.00 315.47 3032.17
   11:10:25.901.27-Mar-2021 3279.01 4782.27 61.26 11.00 315.67 3032.17
   11:10:26.101.27-Mar-2021 3279.01 4783.54 61.26 11.00 315.87 3032.17
   11:10:26.301.27-Mar-2021 3279.01 4781.99 61.26 11.00 316.07 3032.17
   11:10:26.501.27-Mar-2021 3279.01 4781.99 61.26 11.00 316.27 3032.17
