~Version Information
 VERS.                  2.0:   CWLS log ASCII Standard -VERSION 2.0
 WRAP.                   NO:   One line per depth step
~Well Information Block
#MNEM.UNIT     VALUE/NAME     DESCRIPTION
#---------     -----------    ---------------------------
 STRT.S             10:17:32 27-Mar-21: START TIME 10:17:32 27-Mar-21
 STOP.S             10:24:40 27-Mar-21: STOP TIME  10:24:40 27-Mar-21
 STEP.S                   0.00: STEP TIME
 NULL.                 -999.25: NULL VALUE
 DFWT.                        :  DIST FWL TEXT
 DFST.                        :  DIST FSL TEXT
 DMF .             Drill Floor:  DRILL MEAS FROM
 STIM.      20.26.40 11-Mar-21:  START TIME
 DATE.      20.26.40 30-Mar-21:  END TIME
 SPUD.               11-Mar-21:  SPUD DATE
 NREF.                    Grid:  NORTH REFERENCE
 HPTY.       Minimum Curvature:  HOLE POS TYPE
 DMOD.             Drill Model:  DRILL MOD DESC
 SVYD.                  Survey:  SURVEY DESC
 ILTD.               Lithology:  INTERP LTH DESC
 FTOP.          Formation Tops:  FORM TOPS DESC
 SON .        AZ-XX-0906805385:  JOB NUMBER
 WTYP.                Deviated:  WELL TYPE
 COMP.     BP Exploration (Caspian Sea) Ltd.:  COMPANY
 UWI .            /AZE00000198:  UNIQUE WELL IDENTIFIER
 API .            /AZE00000198:  API NUMBER
 BASE.              Azerbaijan:  LOGGING EQUIPMENT BASE LOCATION
 REGN.                   EESSA:  REGION
 PROV.                    Baku:  PROVINCE
 STAT.                    Baku:  STATE NAME
 CTRY.              Azerbaijan:  COUNTRY NAME
 FLD .                     ACG:  FIELD NAME
 SRVC.     Turan Drilling & Engineering:  CONTRACTOR
 MWDS.                    Baku:  MWD SHOP
 WELL.                    D09z:  WELL NAME
 JOBN.        AZ-XX-0906805385:  JOB TICKET NUMB
 RIG .              East Azeri:  RIG NAME
 DOE .                     N/A:  DOE NUMBER
 DCON.         Sperry Drilling:  DIRECTNL CONTR
 UNIT.                     N/A:  LOGGING EQUIPMENT ID
 PDAT.          Mean Sea Level:  PERMANENT DATUM
 MDS .        Operator Entered:  MAG DATA SOURCE
 CNTY.                        :  COUNTY
 LOC .                        :  LOCATION
 LMF .             Drill Floor:  LOG MEASURED FROM
 TVDS.m                  43.60:  TVDSS CORRECTN
 LATI.deg                40.02:  LATITUDE
 LONG.deg                51.45:  LONGITUDE
 WHNS.m                 -17.04:  WELL HEAD N/S
 WHEW.m                  -6.28:  WELL HEAD E/W
 UTMX.m              538763.98:  UTM X
 UTMY.m             4431880.20:  UTM Y
 DFWL.m                   0.00:  DISTANCE FWL
 DFSL.m                   0.00:  DISTANCE FSL
 SDEP.m                2680.01:  START DEPTH
 TDD .m                4000.01:  TOTAL DEPTH (DRILLER)
 VSDR.deg               225.71:  VERT SEC DIRECT
 GVFD.g                   1.00:  GRAVITY FIELD
 MFLD.nT              50353.00:  MAGNETIC FIELD
 MDIP.deg                59.49:  MAGNETIC DIP
 MDEC.deg                 6.46:  MAGNETIC DECL
 GRDC.deg                 0.29:  GRID CORRECTION
 AZTC.deg                 6.17:  AZM TOTAL CORR
 EPD .m                   0.00:  ELEVATION
 EGL .m                   0.00:  GROUND ELEVATION
 WDMS.m                 151.80:  WD ELEV
 APD .m                  43.60:  DEPTH ABOVE PD
 AGAP.m                  43.60:  AIR GAP
 VSEW.m                  -6.28:  VERT SEC E/W
 VSNS.m                 -17.04:  VERT SEC N/S
 DEP .m                2656.31:  DEPTH
 EKB .m                  43.60:  KB ELEVATION
 EDF .m                  43.60:  DF ELEVATION
 VSC .                       0:  VS TO CLOSURE
 MAGU.                 1851247:  MAGUTM CHECKSUM
~Parameter Information Block
#MNEM.UNIT       Value        Description
#---------     -----------    ---------------------------
 AV  .mps                 3.00:  Ann Velocity 
 AVMX.mps                 8.00:  Max Ann Veloc 
 AZIF.deg                 0.00:  Azm, Final 
 BHAT.                   Other:  BHA Type 
 BREV.rev                 0.00:  Rev Bit Total 
 BROT.°/30m               0.00:  Build Rotating 
 BS  .in                 10.25:  Bit Size 
 BTPL.psig              511.00:  Bit Press Loss 
 CABU.                      No:  Customer Abuse 
 CGEO.           Asif Pashayev:  Customer Geo 
 COMM.                     LLx:  Run Comments 1 
 TCS .hr                 24.03:  Time Ciculation Ended 
 CV  .mps                 3.50:  Crit Velocity 
 CVMX.mps                 4.00:  Max Crit Veloc 
 DD1 .             Aziz Aliyev:  Direct Drillr 1 
 DD2 .      Fakhraddin Guliyev:  Direct Drillr 2 
 DDSV.                   Other:  DD Service 
 DEFF.%                  99.00:  % Det Eff 
 DLRX.°/30m               0.00:  Dogleg Rot Max 
 DLSO.°/30m               0.00:  Dogleg Oriented 
 DLSX.°/30m               0.00:  Dogleg Str Max 
 DRET.      23.00.40 28-Mar-21:  Drill End Time 
 DRST.      23.30.40 25-Mar-21:  Drill Start Tim 
 DTIM.hr                  0.00:  Time Drilling 
 EDEP.m                3886.01:  End Depth 
 ENG1.         Almaz Almadatov:  Engineer 1 
 ENG2.      Artemiy Matviyanov:  Engineer 2 
 ENG3.           Samir Gafarov:  Engineer 3 
 ETIM.      23.00.40 28-Mar-21:  End Time 
 FLOI.gpm               550.00:  Flow In 
 FLON.gpm               500.00:  Flow In Min 
 FLOS.cptm                0.00:  Fluid Loss 
 FLOX.gpm               590.00:  Flow In Max 
 HFLO.                      No:  High Flow 
 HPRE.                      No:  High Pressure 
 HTEM.                      No:  High Temp 
 HYDO.m                   1.80:  Hydro Offset 
 IFIN.deg                 0.00:  Inc, Final 
 IMAX.deg                 0.00:  Inc Max 
 IMIN.deg                 0.00:  Inc Min 
 IMND.m                   0.00:  Inc Min Depth 
 IMXD.m                   0.00:  Inc Max Depth 
 JARR.                      No:  Jarring 
 LETM.      03.22.40 28-Mar-21:  Log End Time 
 LOST.hr                     0:  Lost Rig Time 
 LSTM.      23.30.40 25-Mar-21:  Log Start Time 
 MDCL.ppm             34000.00:  Mud Chlorides 
 MDES.     Inversion Oil/Synthetic:  Mud Desc 
 DFD .sg                  1.51:  Mud Density 
 MDMN.sg                  1.51:  Dens Mud Min 
 MDMX.sg                  1.51:  Dens Mud Max 
 MOIL.                      70:  Run Mud Oil % 
 MOWR.                   70:30:  Run Mud OWR 
 MSND.                     0.2:  Run Mud Sand % 
 MSOL.                   21.60:  Run Mud Solids% 
 DFV .spqt               74.00:  Mud Viscosity 
 MWOD.in                  6.75:  MWD Tool OD 
 MWSI.                      No:  Serv Intrp, MWD 
 OTIM.hr                 69.09:  Time Operating 
 PCON.           Look Like New:  Pad Condition 
 PMAX.psia             3500.00:  Press Op, Max 
 PV  .cP                 70.00:  Mud PV 
 RUN .                     400:  Run Number 
 ROPA.m/hr                0.00:  ROP Avg 
 ROPN.m/hr                0.00:  ROP Min 
 ROPX.m/hr                0.00:  ROP Max 
 RPMA.rpm                80.00:  RPM Surface Avg 
 RPMN.rpm                10.00:  RPM Surface Min 
 RPMX.rpm               100.00:  RPM Surface Max 
 RRUN.                    0400:  Rig Run Number 
 RTIM.hr                  3.00:  Time Reaming 
 SAZI.deg                 0.00:  Azm, Start 
 SDEP.m                3886.01:  Start Depth 
 SIDD.                      No:  Serv Intrp, DD 
 SINC.deg                 0.00:  Inc, Start 
 SPPA.psig             3270.00:  SPP Avg 
 SPPN.psig             3220.00:  SPP Min 
 SPPX.psig             4430.00:  SPP Max 
 STIM.      23.30.40 25-Mar-21:  Start Time 
 SVCS.                 DD, MWD:  Services 
 SVER.                    9.20:  Sperry Version 
 TDAT.m                   0.00:  Tot Depth Attmp 
 TDDF.                      No:  Trip for DD 
 TFF .                      No:  Trip for Fail 
 TQAA.f-kp                8.00:  Torque Abs Avg 
 TQAN.f-kp                7.00:  Torque Abs Min 
 TQAX.f-kp               11.00:  Torque Abs Max 
 TRRT.°/30m               0.00:  Turn Rotating 
 MRT .                  EWR-M5:  Maximum Recorded Temperature 
 TTMX.degC               76.47:  Max Tool Temp 
 VS01.                90640857:  Virtual Str1 SN 
 VS02.                90639246:  Virtual Str2 SN 
 VS03.                90642265:  Virtual Str3 SN 
 VS04.                11654497:  Virtual Str4 SN 
 WBMN.klb                 0.00:  WOB Min 
 WITN.      Kamran Keberlinkiy:  Customer Rep 
 WITN.           Murad Guliyev:  Customer Rep 2 
 WOBA.klb                 0.00:  WOB Avg 
 WOBX.klb                 0.00:  WOB Max 
 YP  .lhf2               36.00:  Yield Point 
~Curve Information Block
#MNEM.UNIT                 API CODE     Curve Description
#---------               -----------    ---------------------------
 TIME.HHMMSS            00 000 000 000:  GT Time & Date
 GTDEPTH.m              00 000 000 000:  GT Depth
 GTPQH.psia             00 000 000 000:  GT HR Quartz Pressure
 GTTQ.degC              00 000 000 000:  GT Quartz Temperature
 GTTN.NONE              00 000 000 000:  GT Test Number
 GTET.sec               00 000 000 000:  GT Elapsed Test Time
 GTTVD.m                00 000 000 000:  GT True Vertical Depth
#Other Information
#
#WARRANTY: Halliburton will use its best efforts to furnish customers with 
#accurate information and interpretations that are part of, and incident to, the services 
#provided.  However, Halliburton cannot and does not warrant the accuracy 
#or correctness of such information and interpretations.  Under no circumstances should any 
#such information or interpretation be relied upon as the sole basis for any drilling, 
#completion, production, or financial decision or any procedure involving any risk to the 
#safety of any drilling venture, drilling rig or its crew or any other third party.  The 
#Customer has full responsibility for all drilling, completion and production operation.  
#Halliburton makes no representations or warranties, either expressed or 
#implied, including, but not limited to, the implied warranties of merchantability or fitness 
#for a particular purpose, with respect to the services rendered.  In no event will 
#Halliburton be liable for failure to obtain any particular results or for 
#any damages, including, but not limited to, indirect, special or consequential damages, 
#resulting from the use of any information or interpretation provided by Halliburton.
#
~A           TIME           GTDEPTH  GTPQH  GTTQ  GTTN   GTET   GTTVD  
# ...
   10:21:18.000.27-Mar-2021 3325.51 4588.38 61.06 10.00 226.00 3075.77
   10:21:18.200.27-Mar-2021 3325.51 4588.38 61.06 10.00 226.20 3075.77
   10:21:18.400.27-Mar-2021 3325.51 4588.45 61.06 10.00 226.40 3075.77
   10:21:18.600.27-Mar-2021 3325.51 4588.58 61.06 10.00 226.60 3075.77
   10:21:18.800.27-Mar-2021 3325.51 4588.23 61.06 10.00 226.80 3075.77
   10:21:19.000.27-Mar-2021 3325.51 4588.56 61.06 10.00 227.00 3075.77
   10:21:19.200.27-Mar-2021 3325.51 4588.56 61.06 10.00 227.20 3075.77
   10:21:19.400.27-Mar-2021 3325.51 4588.45 61.06 10.00 227.40 3075.77
   10:21:19.600.27-Mar-2021 3325.51 4588.49 61.06 10.00 227.60 3075.77
   10:21:19.800.27-Mar-2021 3325.51 4588.43 61.06 10.00 227.80 3075.77
   10:21:20.000.27-Mar-2021 3325.51 4588.47 61.06 10.00 228.00 3075.77
   10:21:20.200.27-Mar-2021 3325.51 4588.47 61.06 10.00 228.20 3075.77
   10:21:20.400.27-Mar-2021 3325.51 4588.43 61.06 10.00 228.40 3075.77
   10:21:20.600.27-Mar-2021 3325.51 4588.46 61.06 10.00 228.60 3075.77
   10:21:20.800.27-Mar-2021 3325.51 4588.46 61.06 10.00 228.80 3075.77
   10:21:21.000.27-Mar-2021 3325.51 4588.44 61.06 10.00 229.00 3075.77
   10:21:21.200.27-Mar-2021 3325.51 4588.44 61.06 10.00 229.20 3075.77
   10:21:21.400.27-Mar-2021 3325.51 4588.50 61.06 10.00 229.40 3075.77
   10:21:21.600.27-Mar-2021 3325.51 4588.44 61.07 10.00 229.60 3075.77
   10:21:21.800.27-Mar-2021 3325.51 4588.57 61.07 10.00 229.80 3075.77
   10:21:22.000.27-Mar-2021 3325.51 4588.36 61.06 10.00 230.00 3075.77
   10:21:22.200.27-Mar-2021 3325.51 4588.36 61.06 10.00 230.20 3075.77
   10:21:22.400.27-Mar-2021 3325.51 4588.47 61.07 10.00 230.40 3075.77
   10:21:22.600.27-Mar-2021 3325.51 4588.49 61.07 10.00 230.60 3075.77
   10:21:22.800.27-Mar-2021 3325.51 4588.50 61.07 10.00 230.80 3075.77
   10:21:23.000.27-Mar-2021 3325.51 4588.41 61.07 10.00 231.00 3075.77
   10:21:23.200.27-Mar-2021 3325.51 4588.41 61.07 10.00 231.20 3075.77
   10:21:23.400.27-Mar-2021 3325.51 4588.41 61.07 10.00 231.40 3075.77
   10:21:23.600.27-Mar-2021 3325.51 4588.48 61.07 10.00 231.60 3075.77
   10:21:23.800.27-Mar-2021 3325.51 4588.46 61.07 10.00 231.80 3075.77
   10:21:24.000.27-Mar-2021 3325.51 4588.40 61.07 10.00 232.00 3075.77
   10:21:24.200.27-Mar-2021 3325.51 4588.40 61.07 10.00 232.20 3075.77
   10:21:24.400.27-Mar-2021 3325.51 4588.51 61.07 10.00 232.40 3075.77
   10:21:24.600.27-Mar-2021 3325.51 4588.47 61.07 10.00 232.60 3075.77
   10:21:24.800.27-Mar-2021 3325.51 4588.53 61.07 10.00 232.80 3075.77
   10:21:25.000.27-Mar-2021 3325.51 4588.45 61.07 10.00 233.00 3075.77
   10:21:25.200.27-Mar-2021 3325.51 4588.45 61.07 10.00 233.20 3075.77
   10:21:25.400.27-Mar-2021 3325.51 4588.43 61.07 10.00 233.40 3075.77
   10:21:25.600.27-Mar-2021 3325.51 4588.43 61.07 10.00 233.60 3075.77
   10:21:25.800.27-Mar-2021 3325.51 4588.49 61.07 10.00 233.80 3075.77
   10:21:26.000.27-Mar-2021 3325.51 4588.62 61.07 10.00 234.00 3075.77
   10:21:26.200.27-Mar-2021 3325.51 4588.62 61.07 10.00 234.20 3075.77
   10:21:26.400.27-Mar-2021 3325.51 4588.35 61.07 10.00 234.40 3075.77
   10:21:26.600.27-Mar-2021 3325.51 4588.45 61.07 10.00 234.60 3075.77
   10:21:26.800.27-Mar-2021 3325.51 4588.48 61.07 10.00 234.80 3075.77
   10:21:27.000.27-Mar-2021 3325.51 4588.46 61.07 10.00 235.00 3075.77
   10:21:27.200.27-Mar-2021 3325.51 4588.46 61.07 10.00 235.20 3075.77
   10:21:27.400.27-Mar-2021 3325.51 4588.47 61.07 10.00 235.40 3075.77
   10:21:27.600.27-Mar-2021 3325.51 4588.51 61.07 10.00 235.60 3075.77
   10:21:27.800.27-Mar-2021 3325.51 4588.48 61.07 10.00 235.80 3075.77
   10:21:28.000.27-Mar-2021 3325.51 4588.46 61.07 10.00 236.00 3075.77
   10:21:28.200.27-Mar-2021 3325.51 4588.46 61.07 10.00 236.20 3075.77
   10:21:28.400.27-Mar-2021 3325.51 4588.40 61.07 10.00 236.40 3075.77
   10:21:28.600.27-Mar-2021 3325.51 4588.77 61.07 10.00 236.60 3075.77
   10:21:28.800.27-Mar-2021 3325.51 4588.26 61.07 10.00 236.80 3075.77
   10:21:29.000.27-Mar-2021 3325.51 4588.55 61.07 10.00 237.00 3075.77
   10:21:29.200.27-Mar-2021 3325.51 4588.55 61.07 10.00 237.20 3075.77
   10:21:29.400.27-Mar-2021 3325.51 4588.46 61.07 10.00 237.40 3075.77
   10:21:29.600.27-Mar-2021 3325.51 4588.44 61.07 10.00 237.60 3075.77
   10:21:29.800.27-Mar-2021 3325.51 4588.44 61.07 10.00 237.80 3075.77
   10:21:30.000.27-Mar-2021 3325.51 4588.42 61.07 10.00 238.00 3075.77
   10:21:30.200.27-Mar-2021 3325.51 4588.42 61.07 10.00 238.20 3075.77
   10:21:30.400.27-Mar-2021 3325.51 4588.47 61.07 10.00 238.40 3075.77
   10:21:30.600.27-Mar-2021 3325.51 4588.51 61.07 10.00 238.60 3075.77
   10:21:30.800.27-Mar-2021 3325.51 4588.48 61.07 10.00 238.80 3075.77
   10:21:31.000.27-Mar-2021 3325.51 4588.51 61.07 10.00 239.00 3075.77
   10:21:31.200.27-Mar-2021 3325.51 4588.51 61.07 10.00 239.20 3075.77
   10:21:31.400.27-Mar-2021 3325.51 4588.47 61.07 10.00 239.40 3075.77
   10:21:31.600.27-Mar-2021 3325.51 4588.41 61.07 10.00 239.60 3075.77
   10:21:31.800.27-Mar-2021 3325.51 4588.69 61.07 10.00 239.80 3075.77
   10:21:32.000.27-Mar-2021 3325.51 4588.30 61.07 10.00 240.00 3075.77
   10:21:32.200.27-Mar-2021 3325.51 4588.30 61.07 10.00 240.20 3075.77
   10:21:32.400.27-Mar-2021 3325.51 4588.34 61.07 10.00 240.40 3075.77
   10:21:32.600.27-Mar-2021 3325.51 4588.49 61.07 10.00 240.60 3075.77
   10:21:32.800.27-Mar-2021 3325.51 4588.41 61.07 10.00 240.80 3075.77
   10:21:33.000.27-Mar-2021 3325.51 4588.54 61.07 10.00 241.00 3075.77
   10:21:33.200.27-Mar-2021 3325.51 4588.54 61.07 10.00 241.20 3075.77
   10:21:33.400.27-Mar-2021 3325.51 4588.51 61.07 10.00 241.40 3075.77
   10:21:33.600.27-Mar-2021 3325.51 4588.49 61.07 10.00 241.60 3075.77
   10:21:33.800.27-Mar-2021 3325.51 4588.44 61.07 10.00 241.80 3075.77
   10:21:34.000.27-Mar-2021 3325.51 4588.43 61.07 10.00 242.00 3075.77
   10:21:34.200.27-Mar-2021 3325.51 4588.43 61.07 10.00 242.20 3075.77
   10:21:34.400.27-Mar-2021 3325.51 4588.45 61.07 10.00 242.40 3075.77
   10:21:34.600.27-Mar-2021 3325.51 4588.37 61.07 10.00 242.60 3075.77
   10:21:34.800.27-Mar-2021 3325.51 4588.39 61.07 10.00 242.80 3075.77
   10:21:35.000.27-Mar-2021 3325.51 4588.49 61.07 10.00 243.00 3075.77
   10:21:35.200.27-Mar-2021 3325.51 4588.49 61.07 10.00 243.20 3075.77
   10:21:35.400.27-Mar-2021 3325.51 4588.41 61.07 10.00 243.40 3075.77
   10:21:35.600.27-Mar-2021 3325.51 4588.54 61.07 10.00 243.60 3075.77
   10:21:35.800.27-Mar-2021 3325.51 4588.36 61.07 10.00 243.80 3075.77
   10:21:36.000.27-Mar-2021 3325.51 4588.57 61.07 10.00 244.00 3075.77
   10:21:36.200.27-Mar-2021 3325.51 4588.57 61.07 10.00 244.20 3075.77
   10:21:36.400.27-Mar-2021 3325.51 4588.52 61.07 10.00 244.40 3075.77
   10:21:36.600.27-Mar-2021 3325.51 4588.47 61.07 10.00 244.60 3075.77
   10:21:36.800.27-Mar-2021 3325.51 4588.43 61.07 10.00 244.80 3075.77
   10:21:37.000.27-Mar-2021 3325.51 4588.61 61.07 10.00 245.00 3075.77
   10:21:37.200.27-Mar-2021 3325.51 4588.61 61.07 10.00 245.20 3075.77
   10:21:37.400.27-Mar-2021 3325.51 4588.42 61.07 10.00 245.40 3075.77
   10:21:37.600.27-Mar-2021 3325.51 4588.39 61.07 10.00 245.60 3075.77
   10:21:37.800.27-Mar-2021 3325.51 4588.55 61.07 10.00 245.80 3075.77
   10:21:38.000.27-Mar-2021 3325.51 4588.58 61.07 10.00 246.00 3075.77
   10:21:38.200.27-Mar-2021 3325.51 4588.58 61.07 10.00 246.20 3075.77
   10:21:38.400.27-Mar-2021 3325.51 4588.50 61.07 10.00 246.40 3075.77
   10:21:38.600.27-Mar-2021 3325.51 4588.36 61.07 10.00 246.60 3075.77
   10:21:38.800.27-Mar-2021 3325.51 4588.52 61.07 10.00 246.80 3075.77
   10:21:39.000.27-Mar-2021 3325.51 4588.53 61.07 10.00 247.00 3075.77
   10:21:39.200.27-Mar-2021 3325.51 4588.53 61.07 10.00 247.20 3075.77
   10:21:39.400.27-Mar-2021 3325.51 4588.55 61.07 10.00 247.40 3075.77
   10:21:39.600.27-Mar-2021 3325.51 4588.39 61.07 10.00 247.60 3075.77
   10:21:39.800.27-Mar-2021 3325.51 4588.48 61.07 10.00 247.80 3075.77
   10:21:40.000.27-Mar-2021 3325.51 4588.47 61.07 10.00 248.00 3075.77
   10:21:40.200.27-Mar-2021 3325.51 4588.47 61.07 10.00 248.20 3075.77
   10:21:40.400.27-Mar-2021 3325.51 4588.43 61.07 10.00 248.40 3075.77
