~Version Information
 VERS.                  2.0:   CWLS log ASCII Standard -VERSION 2.0
 WRAP.                   NO:   One line per depth step
~Well Information Block
#MNEM.UNIT     VALUE/NAME     DESCRIPTION
#---------     -----------    ---------------------------
 STRT.S             10:17:32 27-Mar-21: START TIME 10:17:32 27-Mar-21
 STOP.S             10:24:40 27-Mar-21: STOP TIME  10:24:40 27-Mar-21
 STEP.S                   0.00: STEP TIME
 NULL.                 -999.25: NULL VALUE
 DFWT.                        :  DIST FWL TEXT
 DFST.                        :  DIST FSL TEXT
 DMF .             Drill Floor:  DRILL MEAS FROM
 STIM.      20.26.40 11-Mar-21:  START TIME
 DATE.      20.26.40 30-Mar-21:  END TIME
 SPUD.               11-Mar-21:  SPUD DATE
 NREF.                    Grid:  NORTH REFERENCE
 HPTY.       Minimum Curvature:  HOLE POS TYPE
 DMOD.             Drill Model:  DRILL MOD DESC
 SVYD.                  Survey:  SURVEY DESC
 ILTD.               Lithology:  INTERP LTH DESC
 FTOP.          Formation Tops:  FORM TOPS DESC
 SON .        AZ-XX-0906805385:  JOB NUMBER
 WTYP.                Deviated:  WELL TYPE
 COMP.     BP Exploration (Caspian Sea) Ltd.:  COMPANY
 UWI .            /AZE00000198:  UNIQUE WELL IDENTIFIER
 API .            /AZE00000198:  API NUMBER
 BASE.              Azerbaijan:  LOGGING EQUIPMENT BASE LOCATION
 REGN.                   EESSA:  REGION
 PROV.                    Baku:  PROVINCE
 STAT.                    Baku:  STATE NAME
 CTRY.              Azerbaijan:  COUNTRY NAME
 FLD .                     ACG:  FIELD NAME
 SRVC.     Turan Drilling & Engineering:  CONTRACTOR
 MWDS.                    Baku:  MWD SHOP
 WELL.                    D09z:  WELL NAME
 JOBN.        AZ-XX-0906805385:  JOB TICKET NUMB
 RIG .              East Azeri:  RIG NAME
 DOE .                     N/A:  DOE NUMBER
 DCON.         Sperry Drilling:  DIRECTNL CONTR
 UNIT.                     N/A:  LOGGING EQUIPMENT ID
 PDAT.          Mean Sea Level:  PERMANENT DATUM
 MDS .        Operator Entered:  MAG DATA SOURCE
 CNTY.                        :  COUNTY
 LOC .                        :  LOCATION
 LMF .             Drill Floor:  LOG MEASURED FROM
 TVDS.m                  43.60:  TVDSS CORRECTN
 LATI.deg                40.02:  LATITUDE
 LONG.deg                51.45:  LONGITUDE
 WHNS.m                 -17.04:  WELL HEAD N/S
 WHEW.m                  -6.28:  WELL HEAD E/W
 UTMX.m              538763.98:  UTM X
 UTMY.m             4431880.20:  UTM Y
 DFWL.m                   0.00:  DISTANCE FWL
 DFSL.m                   0.00:  DISTANCE FSL
 SDEP.m                2680.01:  START DEPTH
 TDD .m                4000.01:  TOTAL DEPTH (DRILLER)
 VSDR.deg               225.71:  VERT SEC DIRECT
 GVFD.g                   1.00:  GRAVITY FIELD
 MFLD.nT              50353.00:  MAGNETIC FIELD
 MDIP.deg                59.49:  MAGNETIC DIP
 MDEC.deg                 6.46:  MAGNETIC DECL
 GRDC.deg                 0.29:  GRID CORRECTION
 AZTC.deg                 6.17:  AZM TOTAL CORR
 EPD .m                   0.00:  ELEVATION
 EGL .m                   0.00:  GROUND ELEVATION
 WDMS.m                 151.80:  WD ELEV
 APD .m                  43.60:  DEPTH ABOVE PD
 AGAP.m                  43.60:  AIR GAP
 VSEW.m                  -6.28:  VERT SEC E/W
 VSNS.m                 -17.04:  VERT SEC N/S
 DEP .m                2656.31:  DEPTH
 EKB .m                  43.60:  KB ELEVATION
 EDF .m                  43.60:  DF ELEVATION
 VSC .                       0:  VS TO CLOSURE
 MAGU.                 1851247:  MAGUTM CHECKSUM
~Parameter Information Block
#MNEM.UNIT       Value        Description
#---------     -----------    ---------------------------
 AV  .mps                 3.00:  Ann Velocity 
 AVMX.mps                 8.00:  Max Ann Veloc 
 AZIF.deg                 0.00:  Azm, Final 
 BHAT.                   Other:  BHA Type 
 BREV.rev                 0.00:  Rev Bit Total 
 BROT.°/30m               0.00:  Build Rotating 
 BS  .in                 10.25:  Bit Size 
 BTPL.psig              511.00:  Bit Press Loss 
 CABU.                      No:  Customer Abuse 
 CGEO.           Asif Pashayev:  Customer Geo 
 COMM.                     LLx:  Run Comments 1 
 TCS .hr                 24.03:  Time Ciculation Ended 
 CV  .mps                 3.50:  Crit Velocity 
 CVMX.mps                 4.00:  Max Crit Veloc 
 DD1 .             Aziz Aliyev:  Direct Drillr 1 
 DD2 .      Fakhraddin Guliyev:  Direct Drillr 2 
 DDSV.                   Other:  DD Service 
 DEFF.%                  99.00:  % Det Eff 
 DLRX.°/30m               0.00:  Dogleg Rot Max 
 DLSO.°/30m               0.00:  Dogleg Oriented 
 DLSX.°/30m               0.00:  Dogleg Str Max 
 DRET.      23.00.40 28-Mar-21:  Drill End Time 
 DRST.      23.30.40 25-Mar-21:  Drill Start Tim 
 DTIM.hr                  0.00:  Time Drilling 
 EDEP.m                3886.01:  End Depth 
 ENG1.         Almaz Almadatov:  Engineer 1 
 ENG2.      Artemiy Matviyanov:  Engineer 2 
 ENG3.           Samir Gafarov:  Engineer 3 
 ETIM.      23.00.40 28-Mar-21:  End Time 
 FLOI.gpm               550.00:  Flow In 
 FLON.gpm               500.00:  Flow In Min 
 FLOS.cptm                0.00:  Fluid Loss 
 FLOX.gpm               590.00:  Flow In Max 
 HFLO.                      No:  High Flow 
 HPRE.                      No:  High Pressure 
 HTEM.                      No:  High Temp 
 HYDO.m                   1.80:  Hydro Offset 
 IFIN.deg                 0.00:  Inc, Final 
 IMAX.deg                 0.00:  Inc Max 
 IMIN.deg                 0.00:  Inc Min 
 IMND.m                   0.00:  Inc Min Depth 
 IMXD.m                   0.00:  Inc Max Depth 
 JARR.                      No:  Jarring 
 LETM.      03.22.40 28-Mar-21:  Log End Time 
 LOST.hr                     0:  Lost Rig Time 
 LSTM.      23.30.40 25-Mar-21:  Log Start Time 
 MDCL.ppm             34000.00:  Mud Chlorides 
 MDES.     Inversion Oil/Synthetic:  Mud Desc 
 DFD .sg                  1.51:  Mud Density 
 MDMN.sg                  1.51:  Dens Mud Min 
 MDMX.sg                  1.51:  Dens Mud Max 
 MOIL.                      70:  Run Mud Oil % 
 MOWR.                   70:30:  Run Mud OWR 
 MSND.                     0.2:  Run Mud Sand % 
 MSOL.                   21.60:  Run Mud Solids% 
 DFV .spqt               74.00:  Mud Viscosity 
 MWOD.in                  6.75:  MWD Tool OD 
 MWSI.                      No:  Serv Intrp, MWD 
 OTIM.hr                 69.09:  Time Operating 
 PCON.           Look Like New:  Pad Condition 
 PMAX.psia             3500.00:  Press Op, Max 
 PV  .cP                 70.00:  Mud PV 
 RUN .                     400:  Run Number 
 ROPA.m/hr                0.00:  ROP Avg 
 ROPN.m/hr                0.00:  ROP Min 
 ROPX.m/hr                0.00:  ROP Max 
 RPMA.rpm                80.00:  RPM Surface Avg 
 RPMN.rpm                10.00:  RPM Surface Min 
 RPMX.rpm               100.00:  RPM Surface Max 
 RRUN.                    0400:  Rig Run Number 
 RTIM.hr                  3.00:  Time Reaming 
 SAZI.deg                 0.00:  Azm, Start 
 SDEP.m                3886.01:  Start Depth 
 SIDD.                      No:  Serv Intrp, DD 
 SINC.deg                 0.00:  Inc, Start 
 SPPA.psig             3270.00:  SPP Avg 
 SPPN.psig             3220.00:  SPP Min 
 SPPX.psig             4430.00:  SPP Max 
 STIM.      23.30.40 25-Mar-21:  Start Time 
 SVCS.                 DD, MWD:  Services 
 SVER.                    9.20:  Sperry Version 
 TDAT.m                   0.00:  Tot Depth Attmp 
 TDDF.                      No:  Trip for DD 
 TFF .                      No:  Trip for Fail 
 TQAA.f-kp                8.00:  Torque Abs Avg 
 TQAN.f-kp                7.00:  Torque Abs Min 
 TQAX.f-kp               11.00:  Torque Abs Max 
 TRRT.°/30m               0.00:  Turn Rotating 
 MRT .                  EWR-M5:  Maximum Recorded Temperature 
 TTMX.degC               76.47:  Max Tool Temp 
 VS01.                90640857:  Virtual Str1 SN 
 VS02.                90639246:  Virtual Str2 SN 
 VS03.                90642265:  Virtual Str3 SN 
 VS04.                11654497:  Virtual Str4 SN 
 WBMN.klb                 0.00:  WOB Min 
 WITN.      Kamran Keberlinkiy:  Customer Rep 
 WITN.           Murad Guliyev:  Customer Rep 2 
 WOBA.klb                 0.00:  WOB Avg 
 WOBX.klb                 0.00:  WOB Max 
 YP  .lhf2               36.00:  Yield Point 
~Curve Information Block
#MNEM.UNIT                 API CODE     Curve Description
#---------               -----------    ---------------------------
 TIME.HHMMSS            00 000 000 000:  GT Time & Date
 GTDEPTH.m              00 000 000 000:  GT Depth
 GTPQH.psia             00 000 000 000:  GT HR Quartz Pressure
 GTTQ.degC              00 000 000 000:  GT Quartz Temperature
 GTTN.NONE              00 000 000 000:  GT Test Number
 GTET.sec               00 000 000 000:  GT Elapsed Test Time
 GTTVD.m                00 000 000 000:  GT True Vertical Depth
#Other Information
#
#WARRANTY: Halliburton will use its best efforts to furnish customers with 
#accurate information and interpretations that are part of, and incident to, the services 
#provided.  However, Halliburton cannot and does not warrant the accuracy 
#or correctness of such information and interpretations.  Under no circumstances should any 
#such information or interpretation be relied upon as the sole basis for any drilling, 
#completion, production, or financial decision or any procedure involving any risk to the 
#safety of any drilling venture, drilling rig or its crew or any other third party.  The 
#Customer has full responsibility for all drilling, completion and production operation.  
#Halliburton makes no representations or warranties, either expressed or 
#implied, including, but not limited to, the implied warranties of merchantability or fitness 
#for a particular purpose, with respect to the services rendered.  In no event will 
#Halliburton be liable for failure to obtain any particular results or for 
#any damages, including, but not limited to, indirect, special or consequential damages, 
#resulting from the use of any information or interpretation provided by Halliburton.
#
~A           TIME           GTDEPTH  GTPQH  GTTQ  GTTN   GTET   GTTVD  
# ...
   10:20:32.800.27-Mar-2021 3325.51 4588.38 61.05 10.00 180.80 3075.77
   10:20:33.000.27-Mar-2021 3325.51 4588.32 61.05 10.00 181.00 3075.77
   10:20:33.200.27-Mar-2021 3325.51 4588.32 61.05 10.00 181.20 3075.77
   10:20:33.400.27-Mar-2021 3325.51 4588.39 61.05 10.00 181.40 3075.77
   10:20:33.600.27-Mar-2021 3325.51 4588.56 61.05 10.00 181.60 3075.77
   10:20:33.800.27-Mar-2021 3325.51 4588.31 61.05 10.00 181.80 3075.77
   10:20:34.000.27-Mar-2021 3325.51 4588.35 61.05 10.00 182.00 3075.77
   10:20:34.200.27-Mar-2021 3325.51 4588.35 61.05 10.00 182.20 3075.77
   10:20:34.400.27-Mar-2021 3325.51 4588.37 61.05 10.00 182.40 3075.77
   10:20:34.600.27-Mar-2021 3325.51 4588.37 61.05 10.00 182.60 3075.77
   10:20:34.800.27-Mar-2021 3325.51 4588.39 61.05 10.00 182.80 3075.77
   10:20:35.000.27-Mar-2021 3325.51 4588.40 61.05 10.00 183.00 3075.77
   10:20:35.200.27-Mar-2021 3325.51 4588.40 61.05 10.00 183.20 3075.77
   10:20:35.400.27-Mar-2021 3325.51 4588.38 61.05 10.00 183.40 3075.77
   10:20:35.600.27-Mar-2021 3325.51 4588.40 61.05 10.00 183.60 3075.77
   10:20:35.800.27-Mar-2021 3325.51 4588.40 61.05 10.00 183.80 3075.77
   10:20:36.000.27-Mar-2021 3325.51 4588.56 61.05 10.00 184.00 3075.77
   10:20:36.200.27-Mar-2021 3325.51 4588.56 61.05 10.00 184.20 3075.77
   10:20:36.400.27-Mar-2021 3325.51 4588.31 61.05 10.00 184.40 3075.77
   10:20:36.600.27-Mar-2021 3325.51 4588.33 61.05 10.00 184.60 3075.77
   10:20:36.800.27-Mar-2021 3325.51 4588.40 61.06 10.00 184.80 3075.77
   10:20:37.000.27-Mar-2021 3325.51 4588.44 61.05 10.00 185.00 3075.77
   10:20:37.200.27-Mar-2021 3325.51 4588.44 61.05 10.00 185.20 3075.77
   10:20:37.400.27-Mar-2021 3325.51 4588.49 61.06 10.00 185.40 3075.77
   10:20:37.600.27-Mar-2021 3325.51 4588.26 61.06 10.00 185.60 3075.77
   10:20:37.800.27-Mar-2021 3325.51 4588.45 61.06 10.00 185.80 3075.77
   10:20:38.000.27-Mar-2021 3325.51 4588.38 61.06 10.00 186.00 3075.77
   10:20:38.200.27-Mar-2021 3325.51 4588.38 61.06 10.00 186.20 3075.77
   10:20:38.400.27-Mar-2021 3325.51 4588.38 61.06 10.00 186.40 3075.77
   10:20:38.600.27-Mar-2021 3325.51 4588.40 61.06 10.00 186.60 3075.77
   10:20:38.800.27-Mar-2021 3325.51 4588.51 61.06 10.00 186.80 3075.77
   10:20:39.000.27-Mar-2021 3325.51 4588.34 61.06 10.00 187.00 3075.77
   10:20:39.200.27-Mar-2021 3325.51 4588.34 61.06 10.00 187.20 3075.77
   10:20:39.400.27-Mar-2021 3325.51 4588.43 61.06 10.00 187.40 3075.77
   10:20:39.600.27-Mar-2021 3325.51 4588.33 61.06 10.00 187.60 3075.77
   10:20:39.800.27-Mar-2021 3325.51 4588.58 61.06 10.00 187.80 3075.77
   10:20:40.000.27-Mar-2021 3325.51 4588.24 61.06 10.00 188.00 3075.77
   10:20:40.200.27-Mar-2021 3325.51 4588.24 61.06 10.00 188.20 3075.77
   10:20:40.400.27-Mar-2021 3325.51 4588.40 61.06 10.00 188.40 3075.77
   10:20:40.600.27-Mar-2021 3325.51 4588.35 61.06 10.00 188.60 3075.77
   10:20:40.800.27-Mar-2021 3325.51 4588.48 61.06 10.00 188.80 3075.77
   10:20:41.000.27-Mar-2021 3325.51 4588.32 61.06 10.00 189.00 3075.77
   10:20:41.200.27-Mar-2021 3325.51 4588.32 61.06 10.00 189.20 3075.77
   10:20:41.400.27-Mar-2021 3325.51 4588.36 61.06 10.00 189.40 3075.77
   10:20:41.600.27-Mar-2021 3325.51 4588.44 61.06 10.00 189.60 3075.77
   10:20:41.800.27-Mar-2021 3325.51 4588.45 61.06 10.00 189.80 3075.77
   10:20:42.000.27-Mar-2021 3325.51 4588.46 61.06 10.00 190.00 3075.77
   10:20:42.200.27-Mar-2021 3325.51 4588.46 61.06 10.00 190.20 3075.77
   10:20:42.400.27-Mar-2021 3325.51 4588.36 61.06 10.00 190.40 3075.77
   10:20:42.600.27-Mar-2021 3325.51 4588.45 61.06 10.00 190.60 3075.77
   10:20:42.800.27-Mar-2021 3325.51 4588.34 61.06 10.00 190.80 3075.77
   10:20:43.000.27-Mar-2021 3325.51 4588.50 61.06 10.00 191.00 3075.77
   10:20:43.200.27-Mar-2021 3325.51 4588.50 61.06 10.00 191.20 3075.77
   10:20:43.400.27-Mar-2021 3325.51 4588.47 61.06 10.00 191.40 3075.77
   10:20:43.600.27-Mar-2021 3325.51 4588.46 61.06 10.00 191.60 3075.77
   10:20:43.800.27-Mar-2021 3325.51 4588.48 61.06 10.00 191.80 3075.77
   10:20:44.000.27-Mar-2021 3325.51 4588.46 61.06 10.00 192.00 3075.77
   10:20:44.200.27-Mar-2021 3325.51 4588.46 61.06 10.00 192.20 3075.77
   10:20:44.400.27-Mar-2021 3325.51 4588.43 61.06 10.00 192.40 3075.77
   10:20:44.600.27-Mar-2021 3325.51 4588.42 61.06 10.00 192.60 3075.77
   10:20:44.800.27-Mar-2021 3325.51 4588.41 61.06 10.00 192.80 3075.77
   10:20:45.000.27-Mar-2021 3325.51 4588.44 61.06 10.00 193.00 3075.77
   10:20:45.200.27-Mar-2021 3325.51 4588.44 61.06 10.00 193.20 3075.77
   10:20:45.400.27-Mar-2021 3325.51 4588.51 61.06 10.00 193.40 3075.77
   10:20:45.600.27-Mar-2021 3325.51 4588.41 61.06 10.00 193.60 3075.77
   10:20:45.800.27-Mar-2021 3325.51 4588.32 61.06 10.00 193.80 3075.77
   10:20:46.000.27-Mar-2021 3325.51 4588.55 61.06 10.00 194.00 3075.77
   10:20:46.200.27-Mar-2021 3325.51 4588.55 61.06 10.00 194.20 3075.77
   10:20:46.400.27-Mar-2021 3325.51 4588.35 61.06 10.00 194.40 3075.77
   10:20:46.600.27-Mar-2021 3325.51 4588.52 61.06 10.00 194.60 3075.77
   10:20:46.800.27-Mar-2021 3325.51 4588.37 61.06 10.00 194.80 3075.77
   10:20:47.000.27-Mar-2021 3325.51 4588.42 61.06 10.00 195.00 3075.77
   10:20:47.200.27-Mar-2021 3325.51 4588.42 61.06 10.00 195.20 3075.77
   10:20:47.400.27-Mar-2021 3325.51 4588.47 61.06 10.00 195.40 3075.77
   10:20:47.600.27-Mar-2021 3325.51 4588.36 61.06 10.00 195.60 3075.77
   10:20:47.800.27-Mar-2021 3325.51 4588.58 61.06 10.00 195.80 3075.77
   10:20:48.000.27-Mar-2021 3325.51 4588.39 61.06 10.00 196.00 3075.77
   10:20:48.200.27-Mar-2021 3325.51 4588.39 61.06 10.00 196.20 3075.77
   10:20:48.400.27-Mar-2021 3325.51 4588.38 61.06 10.00 196.40 3075.77
   10:20:48.600.27-Mar-2021 3325.51 4588.36 61.06 10.00 196.60 3075.77
   10:20:48.800.27-Mar-2021 3325.51 4588.58 61.06 10.00 196.80 3075.77
   10:20:49.000.27-Mar-2021 3325.51 4588.35 61.06 10.00 197.00 3075.77
   10:20:49.200.27-Mar-2021 3325.51 4588.35 61.06 10.00 197.20 3075.77
   10:20:49.400.27-Mar-2021 3325.51 4588.42 61.06 10.00 197.40 3075.77
   10:20:49.600.27-Mar-2021 3325.51 4588.39 61.06 10.00 197.60 3075.77
   10:20:49.800.27-Mar-2021 3325.51 4588.62 61.06 10.00 197.80 3075.77
   10:20:50.000.27-Mar-2021 3325.51 4588.25 61.06 10.00 198.00 3075.77
   10:20:50.200.27-Mar-2021 3325.51 4588.25 61.06 10.00 198.20 3075.77
   10:20:50.400.27-Mar-2021 3325.51 4588.37 61.06 10.00 198.40 3075.77
   10:20:50.600.27-Mar-2021 3325.51 4588.38 61.06 10.00 198.60 3075.77
   10:20:50.800.27-Mar-2021 3325.51 4588.45 61.06 10.00 198.80 3075.77
   10:20:51.000.27-Mar-2021 3325.51 4588.46 61.06 10.00 199.00 3075.77
   10:20:51.200.27-Mar-2021 3325.51 4588.46 61.06 10.00 199.20 3075.77
   10:20:51.400.27-Mar-2021 3325.51 4588.46 61.06 10.00 199.40 3075.77
   10:20:51.600.27-Mar-2021 3325.51 4588.40 61.06 10.00 199.60 3075.77
   10:20:51.800.27-Mar-2021 3325.51 4588.43 61.06 10.00 199.80 3075.77
   10:20:52.000.27-Mar-2021 3325.51 4588.43 61.06 10.00 200.00 3075.77
   10:20:52.200.27-Mar-2021 3325.51 4588.43 61.06 10.00 200.20 3075.77
   10:20:52.400.27-Mar-2021 3325.51 4588.40 61.06 10.00 200.40 3075.77
   10:20:52.600.27-Mar-2021 3325.51 4588.41 61.06 10.00 200.60 3075.77
   10:20:52.800.27-Mar-2021 3325.51 4588.51 61.06 10.00 200.80 3075.77
   10:20:53.000.27-Mar-2021 3325.51 4588.50 61.06 10.00 201.00 3075.77
   10:20:53.200.27-Mar-2021 3325.51 4588.50 61.06 10.00 201.20 3075.77
   10:20:53.400.27-Mar-2021 3325.51 4588.50 61.06 10.00 201.40 3075.77
   10:20:53.600.27-Mar-2021 3325.51 4588.42 61.06 10.00 201.60 3075.77
   10:20:53.800.27-Mar-2021 3325.51 4588.43 61.06 10.00 201.80 3075.77
   10:20:54.000.27-Mar-2021 3325.51 4588.46 61.06 10.00 202.00 3075.77
   10:20:54.200.27-Mar-2021 3325.51 4588.46 61.06 10.00 202.20 3075.77
   10:20:54.400.27-Mar-2021 3325.51 4588.42 61.06 10.00 202.40 3075.77
   10:20:54.600.27-Mar-2021 3325.51 4588.41 61.06 10.00 202.60 3075.77
   10:20:54.800.27-Mar-2021 3325.51 4588.45 61.06 10.00 202.80 3075.77
   10:20:55.000.27-Mar-2021 3325.51 4588.40 61.06 10.00 203.00 3075.77
   10:20:55.200.27-Mar-2021 3325.51 4588.40 61.06 10.00 203.20 3075.77
