~Version Information
 VERS.                  2.0:   CWLS log ASCII Standard -VERSION 2.0
 WRAP.                   NO:   One line per depth step
~Well Information Block
#MNEM.UNIT     VALUE/NAME     DESCRIPTION
#---------     -----------    ---------------------------
 STRT.S             09:55:14 27-Mar-21: START TIME 09:55:14 27-Mar-21
 STOP.S             10:02:25 27-Mar-21: STOP TIME  10:02:25 27-Mar-21
 STEP.S                   0.00: STEP TIME
 NULL.                 -999.25: NULL VALUE
 DFWT.                        :  DIST FWL TEXT
 DFST.                        :  DIST FSL TEXT
 DMF .             Drill Floor:  DRILL MEAS FROM
 STIM.      20.26.40 11-Mar-21:  START TIME
 DATE.      20.26.40 30-Mar-21:  END TIME
 SPUD.               11-Mar-21:  SPUD DATE
 NREF.                    Grid:  NORTH REFERENCE
 HPTY.       Minimum Curvature:  HOLE POS TYPE
 DMOD.             Drill Model:  DRILL MOD DESC
 SVYD.                  Survey:  SURVEY DESC
 ILTD.               Lithology:  INTERP LTH DESC
 FTOP.          Formation Tops:  FORM TOPS DESC
 SON .        AZ-XX-0906805385:  JOB NUMBER
 WTYP.                Deviated:  WELL TYPE
 COMP.     BP Exploration (Caspian Sea) Ltd.:  COMPANY
 UWI .            /AZE00000198:  UNIQUE WELL IDENTIFIER
 API .            /AZE00000198:  API NUMBER
 BASE.              Azerbaijan:  LOGGING EQUIPMENT BASE LOCATION
 REGN.                   EESSA:  REGION
 PROV.                    Baku:  PROVINCE
 STAT.                    Baku:  STATE NAME
 CTRY.              Azerbaijan:  COUNTRY NAME
 FLD .                     ACG:  FIELD NAME
 SRVC.     Turan Drilling & Engineering:  CONTRACTOR
 MWDS.                    Baku:  MWD SHOP
 WELL.                    D09z:  WELL NAME
 JOBN.        AZ-XX-0906805385:  JOB TICKET NUMB
 RIG .              East Azeri:  RIG NAME
 DOE .                     N/A:  DOE NUMBER
 DCON.         Sperry Drilling:  DIRECTNL CONTR
 UNIT.                     N/A:  LOGGING EQUIPMENT ID
 PDAT.          Mean Sea Level:  PERMANENT DATUM
 MDS .        Operator Entered:  MAG DATA SOURCE
 CNTY.                        :  COUNTY
 LOC .                        :  LOCATION
 LMF .             Drill Floor:  LOG MEASURED FROM
 TVDS.m                  43.60:  TVDSS CORRECTN
 LATI.deg                40.02:  LATITUDE
 LONG.deg                51.45:  LONGITUDE
 WHNS.m                 -17.04:  WELL HEAD N/S
 WHEW.m                  -6.28:  WELL HEAD E/W
 UTMX.m              538763.98:  UTM X
 UTMY.m             4431880.20:  UTM Y
 DFWL.m                   0.00:  DISTANCE FWL
 DFSL.m                   0.00:  DISTANCE FSL
 SDEP.m                2680.01:  START DEPTH
 TDD .m                4000.01:  TOTAL DEPTH (DRILLER)
 VSDR.deg               225.71:  VERT SEC DIRECT
 GVFD.g                   1.00:  GRAVITY FIELD
 MFLD.nT              50353.00:  MAGNETIC FIELD
 MDIP.deg                59.49:  MAGNETIC DIP
 MDEC.deg                 6.46:  MAGNETIC DECL
 GRDC.deg                 0.29:  GRID CORRECTION
 AZTC.deg                 6.17:  AZM TOTAL CORR
 EPD .m                   0.00:  ELEVATION
 EGL .m                   0.00:  GROUND ELEVATION
 WDMS.m                 151.80:  WD ELEV
 APD .m                  43.60:  DEPTH ABOVE PD
 AGAP.m                  43.60:  AIR GAP
 VSEW.m                  -6.28:  VERT SEC E/W
 VSNS.m                 -17.04:  VERT SEC N/S
 DEP .m                2656.31:  DEPTH
 EKB .m                  43.60:  KB ELEVATION
 EDF .m                  43.60:  DF ELEVATION
 VSC .                       0:  VS TO CLOSURE
 MAGU.                 1851247:  MAGUTM CHECKSUM
~Parameter Information Block
#MNEM.UNIT       Value        Description
#---------     -----------    ---------------------------
 AV  .mps                 3.00:  Ann Velocity 
 AVMX.mps                 8.00:  Max Ann Veloc 
 AZIF.deg                 0.00:  Azm, Final 
 BHAT.                   Other:  BHA Type 
 BREV.rev                 0.00:  Rev Bit Total 
 BROT.°/30m               0.00:  Build Rotating 
 BS  .in                 10.25:  Bit Size 
 BTPL.psig              511.00:  Bit Press Loss 
 CABU.                      No:  Customer Abuse 
 CGEO.           Asif Pashayev:  Customer Geo 
 COMM.                     ”Rk:  Run Comments 1 
 TCS .hr                 24.03:  Time Ciculation Ended 
 CV  .mps                 3.50:  Crit Velocity 
 CVMX.mps                 4.00:  Max Crit Veloc 
 DD1 .             Aziz Aliyev:  Direct Drillr 1 
 DD2 .      Fakhraddin Guliyev:  Direct Drillr 2 
 DDSV.                   Other:  DD Service 
 DEFF.%                  99.00:  % Det Eff 
 DLRX.°/30m               0.00:  Dogleg Rot Max 
 DLSO.°/30m               0.00:  Dogleg Oriented 
 DLSX.°/30m               0.00:  Dogleg Str Max 
 DRET.      23.00.40 28-Mar-21:  Drill End Time 
 DRST.      23.30.40 25-Mar-21:  Drill Start Tim 
 DTIM.hr                  0.00:  Time Drilling 
 EDEP.m                3886.01:  End Depth 
 ENG1.         Almaz Almadatov:  Engineer 1 
 ENG2.      Artemiy Matviyanov:  Engineer 2 
 ENG3.           Samir Gafarov:  Engineer 3 
 ETIM.      23.00.40 28-Mar-21:  End Time 
 FLOI.gpm               550.00:  Flow In 
 FLON.gpm               500.00:  Flow In Min 
 FLOS.cptm                0.00:  Fluid Loss 
 FLOX.gpm               590.00:  Flow In Max 
 HFLO.                      No:  High Flow 
 HPRE.                      No:  High Pressure 
 HTEM.                      No:  High Temp 
 HYDO.m                   1.80:  Hydro Offset 
 IFIN.deg                 0.00:  Inc, Final 
 IMAX.deg                 0.00:  Inc Max 
 IMIN.deg                 0.00:  Inc Min 
 IMND.m                   0.00:  Inc Min Depth 
 IMXD.m                   0.00:  Inc Max Depth 
 JARR.                      No:  Jarring 
 LETM.      03.22.40 28-Mar-21:  Log End Time 
 LOST.hr                     0:  Lost Rig Time 
 LSTM.      23.30.40 25-Mar-21:  Log Start Time 
 MDCL.ppm             34000.00:  Mud Chlorides 
 MDES.     Inversion Oil/Synthetic:  Mud Desc 
 DFD .sg                  1.51:  Mud Density 
 MDMN.sg                  1.51:  Dens Mud Min 
 MDMX.sg                  1.51:  Dens Mud Max 
 MOIL.                      70:  Run Mud Oil % 
 MOWR.                   70:30:  Run Mud OWR 
 MSND.                     0.2:  Run Mud Sand % 
 MSOL.                   21.60:  Run Mud Solids% 
 DFV .spqt               74.00:  Mud Viscosity 
 MWOD.in                  6.75:  MWD Tool OD 
 MWSI.                      No:  Serv Intrp, MWD 
 OTIM.hr                 69.09:  Time Operating 
 PCON.           Look Like New:  Pad Condition 
 PMAX.psia             3500.00:  Press Op, Max 
 PV  .cP                 70.00:  Mud PV 
 RUN .                     400:  Run Number 
 ROPA.m/hr                0.00:  ROP Avg 
 ROPN.m/hr                0.00:  ROP Min 
 ROPX.m/hr                0.00:  ROP Max 
 RPMA.rpm                80.00:  RPM Surface Avg 
 RPMN.rpm                10.00:  RPM Surface Min 
 RPMX.rpm               100.00:  RPM Surface Max 
 RRUN.                    0400:  Rig Run Number 
 RTIM.hr                  3.00:  Time Reaming 
 SAZI.deg                 0.00:  Azm, Start 
 SDEP.m                3886.01:  Start Depth 
 SIDD.                      No:  Serv Intrp, DD 
 SINC.deg                 0.00:  Inc, Start 
 SPPA.psig             3270.00:  SPP Avg 
 SPPN.psig             3220.00:  SPP Min 
 SPPX.psig             4430.00:  SPP Max 
 STIM.      23.30.40 25-Mar-21:  Start Time 
 SVCS.                 DD, MWD:  Services 
 SVER.                    9.20:  Sperry Version 
 TDAT.m                   0.00:  Tot Depth Attmp 
 TDDF.                      No:  Trip for DD 
 TFF .                      No:  Trip for Fail 
 TQAA.f-kp                8.00:  Torque Abs Avg 
 TQAN.f-kp                7.00:  Torque Abs Min 
 TQAX.f-kp               11.00:  Torque Abs Max 
 TRRT.°/30m               0.00:  Turn Rotating 
 MRT .                  EWR-M5:  Maximum Recorded Temperature 
 TTMX.degC               76.47:  Max Tool Temp 
 VS01.                90640857:  Virtual Str1 SN 
 VS02.                90639246:  Virtual Str2 SN 
 VS03.                90642265:  Virtual Str3 SN 
 VS04.                11654497:  Virtual Str4 SN 
 WBMN.klb                 0.00:  WOB Min 
 WITN.      Kamran Keberlinkiy:  Customer Rep 
 WITN.           Murad Guliyev:  Customer Rep 2 
 WOBA.klb                 0.00:  WOB Avg 
 WOBX.klb                 0.00:  WOB Max 
 YP  .lhf2               36.00:  Yield Point 
~Curve Information Block
#MNEM.UNIT                 API CODE     Curve Description
#---------               -----------    ---------------------------
 TIME.HHMMSS            00 000 000 000:  GT Time & Date
 GTDEPTH.m              00 000 000 000:  GT Depth
 GTPQH.psia             00 000 000 000:  GT HR Quartz Pressure
 GTTQ.degC              00 000 000 000:  GT Quartz Temperature
 GTTN.NONE              00 000 000 000:  GT Test Number
 GTET.sec               00 000 000 000:  GT Elapsed Test Time
 GTTVD.m                00 000 000 000:  GT True Vertical Depth
#Other Information
#
#WARRANTY: Halliburton will use its best efforts to furnish customers with 
#accurate information and interpretations that are part of, and incident to, the services 
#provided.  However, Halliburton cannot and does not warrant the accuracy 
#or correctness of such information and interpretations.  Under no circumstances should any 
#such information or interpretation be relied upon as the sole basis for any drilling, 
#completion, production, or financial decision or any procedure involving any risk to the 
#safety of any drilling venture, drilling rig or its crew or any other third party.  The 
#Customer has full responsibility for all drilling, completion and production operation.  
#Halliburton makes no representations or warranties, either expressed or 
#implied, including, but not limited to, the implied warranties of merchantability or fitness 
#for a particular purpose, with respect to the services rendered.  In no event will 
#Halliburton be liable for failure to obtain any particular results or for 
#any damages, including, but not limited to, indirect, special or consequential damages, 
#resulting from the use of any information or interpretation provided by Halliburton.
#
~A           TIME           GTDEPTH  GTPQH  GTTQ  GTTN  GTET   GTTVD  
# ...
   09:59:50.000.27-Mar-2021 3319.01 4333.53 60.89 9.00 276.00 3069.68
   09:59:50.200.27-Mar-2021 3319.01 4333.53 60.89 9.00 276.20 3069.68
   09:59:50.400.27-Mar-2021 3319.01 4332.11 60.89 9.00 276.40 3069.68
   09:59:50.600.27-Mar-2021 3319.01 4331.32 60.89 9.00 276.60 3069.68
   09:59:50.800.27-Mar-2021 3319.01 4330.39 60.89 9.00 276.80 3069.68
   09:59:51.000.27-Mar-2021 3319.01 4332.68 60.89 9.00 277.00 3069.68
   09:59:51.200.27-Mar-2021 3319.01 4332.68 60.89 9.00 277.20 3069.68
   09:59:51.400.27-Mar-2021 3319.01 4331.41 60.89 9.00 277.40 3069.68
   09:59:51.600.27-Mar-2021 3319.01 4329.43 60.89 9.00 277.60 3069.68
   09:59:51.800.27-Mar-2021 3319.01 4330.55 60.89 9.00 277.80 3069.68
   09:59:52.000.27-Mar-2021 3319.01 4429.15 60.89 9.00 278.00 3069.68
   09:59:52.200.27-Mar-2021 3319.01 4429.15 60.89 9.00 278.20 3069.68
   09:59:52.400.27-Mar-2021 3319.01 4577.72 60.89 9.00 278.40 3069.68
   09:59:52.600.27-Mar-2021 3319.01 4583.60 60.89 9.00 278.60 3069.68
   09:59:52.800.27-Mar-2021 3319.01 4584.19 60.89 9.00 278.80 3069.68
   09:59:53.000.27-Mar-2021 3319.01 4584.48 60.89 9.00 279.00 3069.68
   09:59:53.200.27-Mar-2021 3319.01 4584.48 60.89 9.00 279.20 3069.68
   09:59:53.400.27-Mar-2021 3319.01 4585.06 60.89 9.00 279.40 3069.68
   09:59:53.600.27-Mar-2021 3319.01 4584.94 60.89 9.00 279.60 3069.68
   09:59:53.800.27-Mar-2021 3319.01 4585.32 60.89 9.00 279.80 3069.68
   09:59:54.000.27-Mar-2021 3319.01 4585.27 60.89 9.00 280.00 3069.68
   09:59:54.200.27-Mar-2021 3319.01 4585.27 60.89 9.00 280.20 3069.68
   09:59:54.400.27-Mar-2021 3319.01 4585.25 60.89 9.00 280.40 3069.68
   09:59:54.600.27-Mar-2021 3319.01 4585.53 60.89 9.00 280.60 3069.68
   09:59:54.800.27-Mar-2021 3319.01 4585.69 60.89 9.00 280.80 3069.68
   09:59:55.000.27-Mar-2021 3319.01 4585.62 60.89 9.00 281.00 3069.68
   09:59:55.200.27-Mar-2021 3319.01 4585.62 60.89 9.00 281.20 3069.68
   09:59:55.400.27-Mar-2021 3319.01 4585.67 60.89 9.00 281.40 3069.68
   09:59:55.600.27-Mar-2021 3319.01 4585.65 60.89 9.00 281.60 3069.68
   09:59:55.800.27-Mar-2021 3319.01 4585.64 60.89 9.00 281.80 3069.68
   09:59:56.000.27-Mar-2021 3319.01 4585.74 60.89 9.00 282.00 3069.68
   09:59:56.200.27-Mar-2021 3319.01 4585.74 60.89 9.00 282.20 3069.68
   09:59:56.400.27-Mar-2021 3319.01 4585.73 60.89 9.00 282.40 3069.68
   09:59:56.600.27-Mar-2021 3319.01 4585.75 60.89 9.00 282.60 3069.68
   09:59:56.800.27-Mar-2021 3319.01 4585.76 60.89 9.00 282.80 3069.68
   09:59:57.000.27-Mar-2021 3319.01 4585.79 60.89 9.00 283.00 3069.68
   09:59:57.200.27-Mar-2021 3319.01 4585.79 60.89 9.00 283.20 3069.68
   09:59:57.400.27-Mar-2021 3319.01 4585.76 60.89 9.00 283.40 3069.68
   09:59:57.600.27-Mar-2021 3319.01 4585.66 60.89 9.00 283.60 3069.68
   09:59:57.800.27-Mar-2021 3319.01 4585.95 60.89 9.00 283.80 3069.68
   09:59:58.000.27-Mar-2021 3319.01 4585.99 60.89 9.00 284.00 3069.68
   09:59:58.200.27-Mar-2021 3319.01 4585.99 60.89 9.00 284.20 3069.68
   09:59:58.400.27-Mar-2021 3319.01 4585.91 60.89 9.00 284.40 3069.68
   09:59:58.600.27-Mar-2021 3319.01 4585.97 60.89 9.00 284.60 3069.68
   09:59:58.800.27-Mar-2021 3319.01 4585.94 60.89 9.00 284.80 3069.68
   09:59:59.000.27-Mar-2021 3319.01 4585.93 60.89 9.00 285.00 3069.68
   09:59:59.200.27-Mar-2021 3319.01 4585.93 60.89 9.00 285.20 3069.68
   09:59:59.400.27-Mar-2021 3319.01 4585.92 60.89 9.00 285.40 3069.68
   09:59:59.600.27-Mar-2021 3319.01 4585.99 60.89 9.00 285.60 3069.68
   09:59:59.800.27-Mar-2021 3319.01 4585.95 60.89 9.00 285.80 3069.68
   10:00:00.000.27-Mar-2021 3319.01 4585.92 60.89 9.00 286.00 3069.68
   10:00:00.200.27-Mar-2021 3319.01 4585.92 60.89 9.00 286.20 3069.68
   10:00:00.400.27-Mar-2021 3319.01 4586.23 60.90 9.00 286.40 3069.68
   10:00:00.600.27-Mar-2021 3319.01 4586.10 60.90 9.00 286.60 3069.68
   10:00:00.800.27-Mar-2021 3319.01 4586.04 60.90 9.00 286.80 3069.68
   10:00:01.000.27-Mar-2021 3319.01 4586.02 60.90 9.00 287.00 3069.68
   10:00:01.200.27-Mar-2021 3319.01 4586.02 60.90 9.00 287.20 3069.68
   10:00:01.400.27-Mar-2021 3319.01 4586.04 60.90 9.00 287.40 3069.68
   10:00:01.600.27-Mar-2021 3319.01 4586.01 60.90 9.00 287.60 3069.68
   10:00:01.800.27-Mar-2021 3319.01 4586.07 60.90 9.00 287.80 3069.68
   10:00:02.000.27-Mar-2021 3319.01 4586.01 60.90 9.00 288.00 3069.68
   10:00:02.200.27-Mar-2021 3319.01 4586.01 60.90 9.00 288.20 3069.68
   10:00:02.400.27-Mar-2021 3319.01 4586.07 60.90 9.00 288.40 3069.68
   10:00:02.600.27-Mar-2021 3319.01 4586.06 60.90 9.00 288.60 3069.68
   10:00:02.800.27-Mar-2021 3319.01 4586.12 60.90 9.00 288.80 3069.68
   10:00:03.000.27-Mar-2021 3319.01 4585.86 60.90 9.00 289.00 3069.68
   10:00:03.200.27-Mar-2021 3319.01 4585.86 60.90 9.00 289.20 3069.68
   10:00:03.400.27-Mar-2021 3319.01 4586.13 60.90 9.00 289.40 3069.68
   10:00:03.600.27-Mar-2021 3319.01 4586.13 60.90 9.00 289.60 3069.68
   10:00:03.800.27-Mar-2021 3319.01 4586.11 60.90 9.00 289.80 3069.68
   10:00:04.000.27-Mar-2021 3319.01 4586.13 60.90 9.00 290.00 3069.68
   10:00:04.200.27-Mar-2021 3319.01 4586.13 60.90 9.00 290.20 3069.68
   10:00:04.400.27-Mar-2021 3319.01 4586.04 60.90 9.00 290.40 3069.68
   10:00:04.600.27-Mar-2021 3319.01 4586.10 60.90 9.00 290.60 3069.68
   10:00:04.800.27-Mar-2021 3319.01 4586.15 60.90 9.00 290.80 3069.68
   10:00:05.000.27-Mar-2021 3319.01 4586.13 60.90 9.00 291.00 3069.68
   10:00:05.200.27-Mar-2021 3319.01 4586.13 60.90 9.00 291.20 3069.68
   10:00:05.400.27-Mar-2021 3319.01 4586.14 60.90 9.00 291.40 3069.68
   10:00:05.600.27-Mar-2021 3319.01 4586.10 60.90 9.00 291.60 3069.68
   10:00:05.800.27-Mar-2021 3319.01 4586.17 60.90 9.00 291.80 3069.68
   10:00:06.000.27-Mar-2021 3319.01 4586.12 60.90 9.00 292.00 3069.68
   10:00:06.200.27-Mar-2021 3319.01 4586.12 60.90 9.00 292.20 3069.68
   10:00:06.400.27-Mar-2021 3319.01 4586.13 60.90 9.00 292.40 3069.68
   10:00:06.600.27-Mar-2021 3319.01 4586.17 60.90 9.00 292.60 3069.68
   10:00:06.800.27-Mar-2021 3319.01 4586.16 60.90 9.00 292.80 3069.68
   10:00:07.000.27-Mar-2021 3319.01 4586.11 60.90 9.00 293.00 3069.68
   10:00:07.200.27-Mar-2021 3319.01 4586.11 60.90 9.00 293.20 3069.68
   10:00:07.400.27-Mar-2021 3319.01 4586.08 60.90 9.00 293.40 3069.68
   10:00:07.600.27-Mar-2021 3319.01 4586.07 60.90 9.00 293.60 3069.68
   10:00:07.800.27-Mar-2021 3319.01 4586.13 60.90 9.00 293.80 3069.68
   10:00:08.000.27-Mar-2021 3319.01 4586.23 60.90 9.00 294.00 3069.68
   10:00:08.200.27-Mar-2021 3319.01 4586.23 60.90 9.00 294.20 3069.68
   10:00:08.400.27-Mar-2021 3319.01 4586.17 60.90 9.00 294.40 3069.68
   10:00:08.600.27-Mar-2021 3319.01 4586.16 60.90 9.00 294.60 3069.68
   10:00:08.800.27-Mar-2021 3319.01 4586.13 60.90 9.00 294.80 3069.68
   10:00:09.000.27-Mar-2021 3319.01 4586.18 60.90 9.00 295.00 3069.68
   10:00:09.200.27-Mar-2021 3319.01 4586.18 60.90 9.00 295.20 3069.68
   10:00:09.400.27-Mar-2021 3319.01 4586.19 60.90 9.00 295.40 3069.68
   10:00:09.600.27-Mar-2021 3319.01 4586.19 60.90 9.00 295.60 3069.68
   10:00:09.800.27-Mar-2021 3319.01 4586.16 60.90 9.00 295.80 3069.68
   10:00:10.000.27-Mar-2021 3319.01 4586.13 60.90 9.00 296.00 3069.68
   10:00:10.200.27-Mar-2021 3319.01 4586.13 60.90 9.00 296.20 3069.68
   10:00:10.400.27-Mar-2021 3319.01 4586.11 60.90 9.00 296.40 3069.68
   10:00:10.600.27-Mar-2021 3319.01 4586.32 60.90 9.00 296.60 3069.68
   10:00:10.800.27-Mar-2021 3319.01 4586.15 60.90 9.00 296.80 3069.68
   10:00:11.000.27-Mar-2021 3319.01 4586.14 60.90 9.00 297.00 3069.68
   10:00:11.200.27-Mar-2021 3319.01 4586.14 60.90 9.00 297.20 3069.68
   10:00:11.400.27-Mar-2021 3319.01 4586.17 60.90 9.00 297.40 3069.68
   10:00:11.600.27-Mar-2021 3319.01 4586.03 60.90 9.00 297.60 3069.68
   10:00:11.800.27-Mar-2021 3319.01 4586.35 60.90 9.00 297.80 3069.68
   10:00:12.000.27-Mar-2021 3319.01 4586.15 60.90 9.00 298.00 3069.68
   10:00:12.200.27-Mar-2021 3319.01 4586.15 60.90 9.00 298.20 3069.68
   10:00:12.400.27-Mar-2021 3319.01 4586.20 60.90 9.00 298.40 3069.68
   10:00:12.600.27-Mar-2021 3319.01 4586.22 60.90 9.00 298.60 3069.68
   10:00:12.800.27-Mar-2021 3319.01 4586.20 60.90 9.00 298.80 3069.68
