~Version Information
 VERS.                  2.0:   CWLS log ASCII Standard -VERSION 2.0
 WRAP.                   NO:   One line per depth step
~Well Information Block
#MNEM.UNIT     VALUE/NAME     DESCRIPTION
#---------     -----------    ---------------------------
 STRT.S             06:42:15 27-Mar-21: START TIME 06:42:15 27-Mar-21
 STOP.S             06:49:25 27-Mar-21: STOP TIME  06:49:25 27-Mar-21
 STEP.S                   0.00: STEP TIME
 NULL.                 -999.25: NULL VALUE
 DFWT.                        :  DIST FWL TEXT
 DFST.                        :  DIST FSL TEXT
 DMF .             Drill Floor:  DRILL MEAS FROM
 STIM.      20.26.40 11-Mar-21:  START TIME
 DATE.      20.26.40 30-Mar-21:  END TIME
 SPUD.               11-Mar-21:  SPUD DATE
 NREF.                    Grid:  NORTH REFERENCE
 HPTY.       Minimum Curvature:  HOLE POS TYPE
 DMOD.             Drill Model:  DRILL MOD DESC
 SVYD.                  Survey:  SURVEY DESC
 ILTD.               Lithology:  INTERP LTH DESC
 FTOP.          Formation Tops:  FORM TOPS DESC
 SON .        AZ-XX-0906805385:  JOB NUMBER
 WTYP.                Deviated:  WELL TYPE
 COMP.     BP Exploration (Caspian Sea) Ltd.:  COMPANY
 UWI .            /AZE00000198:  UNIQUE WELL IDENTIFIER
 API .            /AZE00000198:  API NUMBER
 BASE.              Azerbaijan:  LOGGING EQUIPMENT BASE LOCATION
 REGN.                   EESSA:  REGION
 PROV.                    Baku:  PROVINCE
 STAT.                    Baku:  STATE NAME
 CTRY.              Azerbaijan:  COUNTRY NAME
 FLD .                     ACG:  FIELD NAME
 SRVC.     Turan Drilling & Engineering:  CONTRACTOR
 MWDS.                    Baku:  MWD SHOP
 WELL.                    D09z:  WELL NAME
 JOBN.        AZ-XX-0906805385:  JOB TICKET NUMB
 RIG .              East Azeri:  RIG NAME
 DOE .                     N/A:  DOE NUMBER
 DCON.         Sperry Drilling:  DIRECTNL CONTR
 UNIT.                     N/A:  LOGGING EQUIPMENT ID
 PDAT.          Mean Sea Level:  PERMANENT DATUM
 MDS .        Operator Entered:  MAG DATA SOURCE
 CNTY.                        :  COUNTY
 LOC .                        :  LOCATION
 LMF .             Drill Floor:  LOG MEASURED FROM
 TVDS.m                  43.60:  TVDSS CORRECTN
 LATI.deg                40.02:  LATITUDE
 LONG.deg                51.45:  LONGITUDE
 WHNS.m                 -17.04:  WELL HEAD N/S
 WHEW.m                  -6.28:  WELL HEAD E/W
 UTMX.m              538763.98:  UTM X
 UTMY.m             4431880.20:  UTM Y
 DFWL.m                   0.00:  DISTANCE FWL
 DFSL.m                   0.00:  DISTANCE FSL
 SDEP.m                2680.01:  START DEPTH
 TDD .m                4000.01:  TOTAL DEPTH (DRILLER)
 VSDR.deg               225.71:  VERT SEC DIRECT
 GVFD.g                   1.00:  GRAVITY FIELD
 MFLD.nT              50353.00:  MAGNETIC FIELD
 MDIP.deg                59.49:  MAGNETIC DIP
 MDEC.deg                 6.46:  MAGNETIC DECL
 GRDC.deg                 0.29:  GRID CORRECTION
 AZTC.deg                 6.17:  AZM TOTAL CORR
 EPD .m                   0.00:  ELEVATION
 EGL .m                   0.00:  GROUND ELEVATION
 WDMS.m                 151.80:  WD ELEV
 APD .m                  43.60:  DEPTH ABOVE PD
 AGAP.m                  43.60:  AIR GAP
 VSEW.m                  -6.28:  VERT SEC E/W
 VSNS.m                 -17.04:  VERT SEC N/S
 DEP .m                2656.31:  DEPTH
 EKB .m                  43.60:  KB ELEVATION
 EDF .m                  43.60:  DF ELEVATION
 VSC .                       0:  VS TO CLOSURE
 MAGU.                 1851247:  MAGUTM CHECKSUM
~Parameter Information Block
#MNEM.UNIT       Value        Description
#---------     -----------    ---------------------------
 AV  .mps                 3.00:  Ann Velocity 
 AVMX.mps                 8.00:  Max Ann Veloc 
 AZIF.deg                 0.00:  Azm, Final 
 BHAT.                   Other:  BHA Type 
 BREV.rev                 0.00:  Rev Bit Total 
 BROT.°/30m               0.00:  Build Rotating 
 BS  .in                 10.25:  Bit Size 
 BTPL.psig              511.00:  Bit Press Loss 
 CABU.                      No:  Customer Abuse 
 CGEO.           Asif Pashayev:  Customer Geo 
 COMM.                     lÇi:  Run Comments 1 
 TCS .hr                 24.03:  Time Ciculation Ended 
 CV  .mps                 3.50:  Crit Velocity 
 CVMX.mps                 4.00:  Max Crit Veloc 
 DD1 .             Aziz Aliyev:  Direct Drillr 1 
 DD2 .      Fakhraddin Guliyev:  Direct Drillr 2 
 DDSV.                   Other:  DD Service 
 DEFF.%                  99.00:  % Det Eff 
 DLRX.°/30m               0.00:  Dogleg Rot Max 
 DLSO.°/30m               0.00:  Dogleg Oriented 
 DLSX.°/30m               0.00:  Dogleg Str Max 
 DRET.      23.00.40 28-Mar-21:  Drill End Time 
 DRST.      23.30.40 25-Mar-21:  Drill Start Tim 
 DTIM.hr                  0.00:  Time Drilling 
 EDEP.m                3886.01:  End Depth 
 ENG1.         Almaz Almadatov:  Engineer 1 
 ENG2.      Artemiy Matviyanov:  Engineer 2 
 ENG3.           Samir Gafarov:  Engineer 3 
 ETIM.      23.00.40 28-Mar-21:  End Time 
 FLOI.gpm               550.00:  Flow In 
 FLON.gpm               500.00:  Flow In Min 
 FLOS.cptm                0.00:  Fluid Loss 
 FLOX.gpm               590.00:  Flow In Max 
 HFLO.                      No:  High Flow 
 HPRE.                      No:  High Pressure 
 HTEM.                      No:  High Temp 
 HYDO.m                   1.80:  Hydro Offset 
 IFIN.deg                 0.00:  Inc, Final 
 IMAX.deg                 0.00:  Inc Max 
 IMIN.deg                 0.00:  Inc Min 
 IMND.m                   0.00:  Inc Min Depth 
 IMXD.m                   0.00:  Inc Max Depth 
 JARR.                      No:  Jarring 
 LETM.      03.22.40 28-Mar-21:  Log End Time 
 LOST.hr                     0:  Lost Rig Time 
 LSTM.      23.30.40 25-Mar-21:  Log Start Time 
 MDCL.ppm             34000.00:  Mud Chlorides 
 MDES.     Inversion Oil/Synthetic:  Mud Desc 
 DFD .sg                  1.51:  Mud Density 
 MDMN.sg                  1.51:  Dens Mud Min 
 MDMX.sg                  1.51:  Dens Mud Max 
 MOIL.                      70:  Run Mud Oil % 
 MOWR.                   70:30:  Run Mud OWR 
 MSND.                     0.2:  Run Mud Sand % 
 MSOL.                   21.60:  Run Mud Solids% 
 DFV .spqt               74.00:  Mud Viscosity 
 MWOD.in                  6.75:  MWD Tool OD 
 MWSI.                      No:  Serv Intrp, MWD 
 OTIM.hr                 69.09:  Time Operating 
 PCON.           Look Like New:  Pad Condition 
 PMAX.psia             3500.00:  Press Op, Max 
 PV  .cP                 70.00:  Mud PV 
 RUN .                     400:  Run Number 
 ROPA.m/hr                0.00:  ROP Avg 
 ROPN.m/hr                0.00:  ROP Min 
 ROPX.m/hr                0.00:  ROP Max 
 RPMA.rpm                80.00:  RPM Surface Avg 
 RPMN.rpm                10.00:  RPM Surface Min 
 RPMX.rpm               100.00:  RPM Surface Max 
 RRUN.                    0400:  Rig Run Number 
 RTIM.hr                  3.00:  Time Reaming 
 SAZI.deg                 0.00:  Azm, Start 
 SDEP.m                3886.01:  Start Depth 
 SIDD.                      No:  Serv Intrp, DD 
 SINC.deg                 0.00:  Inc, Start 
 SPPA.psig             3270.00:  SPP Avg 
 SPPN.psig             3220.00:  SPP Min 
 SPPX.psig             4430.00:  SPP Max 
 STIM.      23.30.40 25-Mar-21:  Start Time 
 SVCS.                 DD, MWD:  Services 
 SVER.                    9.20:  Sperry Version 
 TDAT.m                   0.00:  Tot Depth Attmp 
 TDDF.                      No:  Trip for DD 
 TFF .                      No:  Trip for Fail 
 TQAA.f-kp                8.00:  Torque Abs Avg 
 TQAN.f-kp                7.00:  Torque Abs Min 
 TQAX.f-kp               11.00:  Torque Abs Max 
 TRRT.°/30m               0.00:  Turn Rotating 
 MRT .                  EWR-M5:  Maximum Recorded Temperature 
 TTMX.degC               76.47:  Max Tool Temp 
 VS01.                90640857:  Virtual Str1 SN 
 VS02.                90639246:  Virtual Str2 SN 
 VS03.                90642265:  Virtual Str3 SN 
 VS04.                11654497:  Virtual Str4 SN 
 WBMN.klb                 0.00:  WOB Min 
 WITN.      Kamran Keberlinkiy:  Customer Rep 
 WITN.           Murad Guliyev:  Customer Rep 2 
 WOBA.klb                 0.00:  WOB Avg 
 WOBX.klb                 0.00:  WOB Max 
 YP  .lhf2               36.00:  Yield Point 
~Curve Information Block
#MNEM.UNIT                 API CODE     Curve Description
#---------               -----------    ---------------------------
 TIME.HHMMSS            00 000 000 000:  GT Time & Date
 GTDEPTH.m              00 000 000 000:  GT Depth
 GTPQH.psia             00 000 000 000:  GT HR Quartz Pressure
 GTTQ.degC              00 000 000 000:  GT Quartz Temperature
 GTTN.NONE              00 000 000 000:  GT Test Number
 GTET.sec               00 000 000 000:  GT Elapsed Test Time
 GTTVD.m                00 000 000 000:  GT True Vertical Depth
#Other Information
#
#WARRANTY: Halliburton will use its best efforts to furnish customers with 
#accurate information and interpretations that are part of, and incident to, the services 
#provided.  However, Halliburton cannot and does not warrant the accuracy 
#or correctness of such information and interpretations.  Under no circumstances should any 
#such information or interpretation be relied upon as the sole basis for any drilling, 
#completion, production, or financial decision or any procedure involving any risk to the 
#safety of any drilling venture, drilling rig or its crew or any other third party.  The 
#Customer has full responsibility for all drilling, completion and production operation.  
#Halliburton makes no representations or warranties, either expressed or 
#implied, including, but not limited to, the implied warranties of merchantability or fitness 
#for a particular purpose, with respect to the services rendered.  In no event will 
#Halliburton be liable for failure to obtain any particular results or for 
#any damages, including, but not limited to, indirect, special or consequential damages, 
#resulting from the use of any information or interpretation provided by Halliburton.
#
~A           TIME           GTDEPTH  GTPQH  GTTQ  GTTN  GTET   GTTVD  
# ...
   06:48:46.320.27-Mar-2021 3443.51 7427.45 60.41 5.00 391.10 3186.30
   06:48:46.520.27-Mar-2021 3443.51 7427.45 60.41 5.00 391.30 3186.30
   06:48:46.720.27-Mar-2021 3443.51 7427.74 60.41 5.00 391.50 3186.30
   06:48:46.920.27-Mar-2021 3443.51 7427.77 60.41 5.00 391.70 3186.30
   06:48:47.120.27-Mar-2021 3443.51 7427.61 60.41 5.00 391.90 3186.30
   06:48:47.320.27-Mar-2021 3443.51 7427.65 60.41 5.00 392.10 3186.30
   06:48:47.520.27-Mar-2021 3443.51 7427.65 60.41 5.00 392.30 3186.30
   06:48:47.720.27-Mar-2021 3443.51 7427.63 60.41 5.00 392.50 3186.30
   06:48:47.920.27-Mar-2021 3443.51 7429.63 60.41 5.00 392.70 3186.30
   06:48:48.120.27-Mar-2021 3443.51 7429.32 60.41 5.00 392.90 3186.30
   06:48:48.321.27-Mar-2021 3443.51 7427.63 60.41 5.00 393.10 3186.30
   06:48:48.521.27-Mar-2021 3443.51 7427.63 60.41 5.00 393.30 3186.30
   06:48:48.721.27-Mar-2021 3443.51 7428.21 60.41 5.00 393.50 3186.30
   06:48:48.921.27-Mar-2021 3443.51 7428.15 60.41 5.00 393.70 3186.30
   06:48:49.121.27-Mar-2021 3443.51 7426.95 60.41 5.00 393.90 3186.30
   06:48:49.321.27-Mar-2021 3443.51 7427.13 60.41 5.00 394.10 3186.30
   06:48:49.521.27-Mar-2021 3443.51 7427.13 60.41 5.00 394.30 3186.30
   06:48:49.721.27-Mar-2021 3443.51 7427.62 60.41 5.00 394.50 3186.30
   06:48:49.921.27-Mar-2021 3443.51 7427.13 60.41 5.00 394.70 3186.30
   06:48:50.121.27-Mar-2021 3443.51 7427.12 60.41 5.00 394.90 3186.30
   06:48:50.321.27-Mar-2021 3443.51 7427.41 60.41 5.00 395.10 3186.30
   06:48:50.521.27-Mar-2021 3443.51 7427.41 60.41 5.00 395.30 3186.30
   06:48:50.721.27-Mar-2021 3443.51 7431.41 60.41 5.00 395.50 3186.30
   06:48:50.921.27-Mar-2021 3443.51 7426.73 60.41 5.00 395.70 3186.30
   06:48:51.121.27-Mar-2021 3443.51 7427.67 60.41 5.00 395.90 3186.30
   06:48:51.321.27-Mar-2021 3443.51 7428.05 60.41 5.00 396.10 3186.30
   06:48:51.521.27-Mar-2021 3443.51 7428.05 60.41 5.00 396.30 3186.30
   06:48:51.721.27-Mar-2021 3443.51 7428.88 60.41 5.00 396.50 3186.30
   06:48:51.921.27-Mar-2021 3443.51 7426.66 60.41 5.00 396.70 3186.30
   06:48:52.121.27-Mar-2021 3443.51 7428.00 60.41 5.00 396.90 3186.30
   06:48:52.322.27-Mar-2021 3443.51 7428.97 60.41 5.00 397.10 3186.30
   06:48:52.522.27-Mar-2021 3443.51 7428.97 60.41 5.00 397.30 3186.30
   06:48:52.722.27-Mar-2021 3443.51 7426.93 60.41 5.00 397.50 3186.30
   06:48:52.922.27-Mar-2021 3443.51 7428.46 60.41 5.00 397.70 3186.30
   06:48:53.122.27-Mar-2021 3443.51 7427.64 60.41 5.00 397.90 3186.30
   06:48:53.322.27-Mar-2021 3443.51 7429.08 60.41 5.00 398.10 3186.30
   06:48:53.522.27-Mar-2021 3443.51 7429.08 60.41 5.00 398.30 3186.30
   06:48:53.722.27-Mar-2021 3443.51 7429.74 60.41 5.00 398.50 3186.30
   06:48:53.922.27-Mar-2021 3443.51 7429.40 60.41 5.00 398.70 3186.30
   06:48:54.122.27-Mar-2021 3443.51 7428.63 60.41 5.00 398.90 3186.30
   06:48:54.322.27-Mar-2021 3443.51 7429.15 60.41 5.00 399.10 3186.30
   06:48:54.522.27-Mar-2021 3443.51 7429.15 60.41 5.00 399.30 3186.30
   06:48:54.722.27-Mar-2021 3443.51 7429.03 60.41 5.00 399.50 3186.30
   06:48:54.922.27-Mar-2021 3443.51 7427.88 60.41 5.00 399.70 3186.30
   06:48:55.122.27-Mar-2021 3443.51 7428.10 60.41 5.00 399.90 3186.30
   06:48:55.322.27-Mar-2021 3443.51 7427.39 60.41 5.00 400.10 3186.30
   06:48:55.522.27-Mar-2021 3443.51 7427.39 60.41 5.00 400.30 3186.30
   06:48:55.722.27-Mar-2021 3443.51 7427.83 60.41 5.00 400.50 3186.30
   06:48:55.922.27-Mar-2021 3443.51 7427.52 60.40 5.00 400.70 3186.30
   06:48:56.122.27-Mar-2021 3443.51 7427.62 60.40 5.00 400.90 3186.30
   06:48:56.323.27-Mar-2021 3443.51 7427.72 60.40 5.00 401.10 3186.30
   06:48:56.523.27-Mar-2021 3443.51 7427.72 60.40 5.00 401.30 3186.30
   06:48:56.723.27-Mar-2021 3443.51 7427.90 60.40 5.00 401.50 3186.30
   06:48:56.923.27-Mar-2021 3443.51 7427.89 60.40 5.00 401.70 3186.30
   06:48:57.123.27-Mar-2021 3443.51 7431.31 60.40 5.00 401.90 3186.30
   06:48:57.323.27-Mar-2021 3443.51 7427.19 60.40 5.00 402.10 3186.30
   06:48:57.523.27-Mar-2021 3443.51 7427.19 60.40 5.00 402.30 3186.30
   06:48:57.723.27-Mar-2021 3443.51 7428.14 60.40 5.00 402.50 3186.30
   06:48:57.923.27-Mar-2021 3443.51 7428.27 60.40 5.00 402.70 3186.30
   06:48:58.123.27-Mar-2021 3443.51 7427.25 60.40 5.00 402.90 3186.30
   06:48:58.323.27-Mar-2021 3443.51 7427.01 60.40 5.00 403.10 3186.30
   06:48:58.523.27-Mar-2021 3443.51 7427.01 60.40 5.00 403.30 3186.30
   06:48:58.723.27-Mar-2021 3443.51 7426.99 60.40 5.00 403.50 3186.30
   06:48:58.923.27-Mar-2021 3443.51 7427.33 60.40 5.00 403.70 3186.30
   06:48:59.123.27-Mar-2021 3443.51 7427.23 60.40 5.00 403.90 3186.30
   06:48:59.323.27-Mar-2021 3443.51 7427.36 60.40 5.00 404.10 3186.30
   06:48:59.523.27-Mar-2021 3443.51 7427.36 60.40 5.00 404.30 3186.30
   06:48:59.723.27-Mar-2021 3443.51 7427.51 60.40 5.00 404.50 3186.30
   06:48:59.923.27-Mar-2021 3443.51 7430.94 60.40 5.00 404.70 3186.30
   06:49:00.123.27-Mar-2021 3443.51 7427.82 60.40 5.00 404.90 3186.30
   06:49:00.324.27-Mar-2021 3443.51 7428.53 60.40 5.00 405.10 3186.30
   06:49:00.524.27-Mar-2021 3443.51 7428.53 60.40 5.00 405.30 3186.30
   06:49:00.724.27-Mar-2021 3443.51 7431.58 60.40 5.00 405.50 3186.30
   06:49:00.924.27-Mar-2021 3443.51 7427.30 60.40 5.00 405.70 3186.30
   06:49:01.124.27-Mar-2021 3443.51 7428.10 60.40 5.00 405.90 3186.30
   06:49:01.324.27-Mar-2021 3443.51 7427.38 60.40 5.00 406.10 3186.30
   06:49:01.524.27-Mar-2021 3443.51 7427.38 60.40 5.00 406.30 3186.30
   06:49:01.724.27-Mar-2021 3443.51 7426.41 60.40 5.00 406.50 3186.30
   06:49:01.924.27-Mar-2021 3443.51 7427.48 60.40 5.00 406.70 3186.30
   06:49:02.124.27-Mar-2021 3443.51 7428.28 60.40 5.00 406.90 3186.30
   06:49:02.324.27-Mar-2021 3443.51 7428.28 60.40 5.00 407.10 3186.30
   06:49:02.524.27-Mar-2021 3443.51 7428.50 60.40 5.00 407.30 3186.30
   06:49:02.724.27-Mar-2021 3443.51 7427.63 60.40 5.00 407.50 3186.30
   06:49:02.924.27-Mar-2021 3443.51 7432.33 60.40 5.00 407.70 3186.30
   06:49:03.124.27-Mar-2021 3443.51 7427.05 60.40 5.00 407.90 3186.30
   06:49:03.324.27-Mar-2021 3443.51 7428.98 60.40 5.00 408.10 3186.30
   06:49:03.524.27-Mar-2021 3443.51 7428.98 60.40 5.00 408.30 3186.30
   06:49:03.724.27-Mar-2021 3443.51 7428.52 60.40 5.00 408.50 3186.30
   06:49:03.924.27-Mar-2021 3443.51 7428.90 60.40 5.00 408.70 3186.30
   06:49:04.124.27-Mar-2021 3443.51 7427.78 60.40 5.00 408.90 3186.30
   06:49:04.325.27-Mar-2021 3443.51 7427.65 60.40 5.00 409.10 3186.30
   06:49:04.525.27-Mar-2021 3443.51 7427.65 60.40 5.00 409.30 3186.30
   06:49:04.725.27-Mar-2021 3443.51 7428.11 60.40 5.00 409.50 3186.30
   06:49:04.925.27-Mar-2021 3443.51 7427.61 60.40 5.00 409.70 3186.30
   06:49:05.125.27-Mar-2021 3443.51 7427.58 60.40 5.00 409.90 3186.30
   06:49:05.325.27-Mar-2021 3443.51 7427.50 60.40 5.00 410.10 3186.30
   06:49:05.525.27-Mar-2021 3443.51 7427.50 60.40 5.00 410.30 3186.30
   06:49:05.725.27-Mar-2021 3443.51 7427.73 60.40 5.00 410.50 3186.30
   06:49:05.925.27-Mar-2021 3443.51 7427.83 60.40 5.00 410.70 3186.30
   06:49:06.125.27-Mar-2021 3443.51 7428.01 60.40 5.00 410.90 3186.30
   06:49:06.325.27-Mar-2021 3443.51 7430.81 60.40 5.00 411.10 3186.30
   06:49:06.525.27-Mar-2021 3443.51 7430.81 60.40 5.00 411.30 3186.30
   06:49:06.725.27-Mar-2021 3443.51 7428.62 60.40 5.00 411.50 3186.30
   06:49:06.925.27-Mar-2021 3443.51 7427.97 60.40 5.00 411.70 3186.30
   06:49:07.125.27-Mar-2021 3443.51 7427.85 60.40 5.00 411.90 3186.30
   06:49:07.325.27-Mar-2021 3443.51 7427.02 60.40 5.00 412.10 3186.30
   06:49:07.525.27-Mar-2021 3443.51 7427.02 60.40 5.00 412.30 3186.30
   06:49:07.725.27-Mar-2021 3443.51 7427.02 60.40 5.00 412.50 3186.30
   06:49:07.925.27-Mar-2021 3443.51 7427.18 60.40 5.00 412.70 3186.30
   06:49:08.125.27-Mar-2021 3443.51 7427.45 60.40 5.00 412.90 3186.30
   06:49:08.326.27-Mar-2021 3443.51 7427.45 60.40 5.00 413.10 3186.30
   06:49:08.526.27-Mar-2021 3443.51 7427.45 60.40 5.00 413.30 3186.30
   06:49:08.726.27-Mar-2021 3443.51 7427.34 60.40 5.00 413.50 3186.30
   06:49:08.926.27-Mar-2021 3443.51 7429.40 60.40 5.00 413.70 3186.30
   06:49:09.126.27-Mar-2021 3443.51 7428.93 60.40 5.00 413.90 3186.30
