~Version Information
 VERS.                  2.0:   CWLS log ASCII Standard -VERSION 2.0
 WRAP.                   NO:   One line per depth step
~Well Information Block
#MNEM.UNIT     VALUE/NAME     DESCRIPTION
#---------     -----------    ---------------------------
 STRT.S             01:51:11 27-Mar-21: START TIME 01:51:11 27-Mar-21
 STOP.S             01:58:18 27-Mar-21: STOP TIME  01:58:18 27-Mar-21
 STEP.S                   0.00: STEP TIME
 NULL.                 -999.25: NULL VALUE
 DFWT.                        :  DIST FWL TEXT
 DFST.                        :  DIST FSL TEXT
 DMF .             Drill Floor:  DRILL MEAS FROM
 STIM.      20.26.40 11-Mar-21:  START TIME
 DATE.      20.26.40 30-Mar-21:  END TIME
 SPUD.               11-Mar-21:  SPUD DATE
 NREF.                    Grid:  NORTH REFERENCE
 HPTY.       Minimum Curvature:  HOLE POS TYPE
 DMOD.             Drill Model:  DRILL MOD DESC
 SVYD.                  Survey:  SURVEY DESC
 ILTD.               Lithology:  INTERP LTH DESC
 FTOP.          Formation Tops:  FORM TOPS DESC
 SON .        AZ-XX-0906805385:  JOB NUMBER
 WTYP.                Deviated:  WELL TYPE
 COMP.     BP Exploration (Caspian Sea) Ltd.:  COMPANY
 UWI .            /AZE00000198:  UNIQUE WELL IDENTIFIER
 API .            /AZE00000198:  API NUMBER
 BASE.              Azerbaijan:  LOGGING EQUIPMENT BASE LOCATION
 REGN.                   EESSA:  REGION
 PROV.                    Baku:  PROVINCE
 STAT.                    Baku:  STATE NAME
 CTRY.              Azerbaijan:  COUNTRY NAME
 FLD .                     ACG:  FIELD NAME
 SRVC.     Turan Drilling & Engineering:  CONTRACTOR
 MWDS.                    Baku:  MWD SHOP
 WELL.                    D09z:  WELL NAME
 JOBN.        AZ-XX-0906805385:  JOB TICKET NUMB
 RIG .              East Azeri:  RIG NAME
 DOE .                     N/A:  DOE NUMBER
 DCON.         Sperry Drilling:  DIRECTNL CONTR
 UNIT.                     N/A:  LOGGING EQUIPMENT ID
 PDAT.          Mean Sea Level:  PERMANENT DATUM
 MDS .        Operator Entered:  MAG DATA SOURCE
 CNTY.                        :  COUNTY
 LOC .                        :  LOCATION
 LMF .             Drill Floor:  LOG MEASURED FROM
 TVDS.m                  43.60:  TVDSS CORRECTN
 LATI.deg                40.02:  LATITUDE
 LONG.deg                51.45:  LONGITUDE
 WHNS.m                 -17.04:  WELL HEAD N/S
 WHEW.m                  -6.28:  WELL HEAD E/W
 UTMX.m              538763.98:  UTM X
 UTMY.m             4431880.20:  UTM Y
 DFWL.m                   0.00:  DISTANCE FWL
 DFSL.m                   0.00:  DISTANCE FSL
 SDEP.m                2680.01:  START DEPTH
 TDD .m                4000.01:  TOTAL DEPTH (DRILLER)
 VSDR.deg               225.71:  VERT SEC DIRECT
 GVFD.g                   1.00:  GRAVITY FIELD
 MFLD.nT              50353.00:  MAGNETIC FIELD
 MDIP.deg                59.49:  MAGNETIC DIP
 MDEC.deg                 6.46:  MAGNETIC DECL
 GRDC.deg                 0.29:  GRID CORRECTION
 AZTC.deg                 6.17:  AZM TOTAL CORR
 EPD .m                   0.00:  ELEVATION
 EGL .m                   0.00:  GROUND ELEVATION
 WDMS.m                 151.80:  WD ELEV
 APD .m                  43.60:  DEPTH ABOVE PD
 AGAP.m                  43.60:  AIR GAP
 VSEW.m                  -6.28:  VERT SEC E/W
 VSNS.m                 -17.04:  VERT SEC N/S
 DEP .m                2656.31:  DEPTH
 EKB .m                  43.60:  KB ELEVATION
 EDF .m                  43.60:  DF ELEVATION
 VSC .                       0:  VS TO CLOSURE
 MAGU.                 1851247:  MAGUTM CHECKSUM
~Parameter Information Block
#MNEM.UNIT       Value        Description
#---------     -----------    ---------------------------
 AV  .mps                 3.00:  Ann Velocity 
 AVMX.mps                 8.00:  Max Ann Veloc 
 AZIF.deg                 0.00:  Azm, Final 
 BHAT.                   Other:  BHA Type 
 BREV.rev                 0.00:  Rev Bit Total 
 BROT.°/30m               0.00:  Build Rotating 
 BS  .in                 10.25:  Bit Size 
 BTPL.psig              511.00:  Bit Press Loss 
 CABU.                      No:  Customer Abuse 
 CGEO.           Asif Pashayev:  Customer Geo 
 COMM.                     |ºg:  Run Comments 1 
 TCS .hr                 24.03:  Time Ciculation Ended 
 CV  .mps                 3.50:  Crit Velocity 
 CVMX.mps                 4.00:  Max Crit Veloc 
 DD1 .             Aziz Aliyev:  Direct Drillr 1 
 DD2 .      Fakhraddin Guliyev:  Direct Drillr 2 
 DDSV.                   Other:  DD Service 
 DEFF.%                  99.00:  % Det Eff 
 DLRX.°/30m               0.00:  Dogleg Rot Max 
 DLSO.°/30m               0.00:  Dogleg Oriented 
 DLSX.°/30m               0.00:  Dogleg Str Max 
 DRET.      23.00.40 28-Mar-21:  Drill End Time 
 DRST.      23.30.40 25-Mar-21:  Drill Start Tim 
 DTIM.hr                  0.00:  Time Drilling 
 EDEP.m                3886.01:  End Depth 
 ENG1.         Almaz Almadatov:  Engineer 1 
 ENG2.      Artemiy Matviyanov:  Engineer 2 
 ENG3.           Samir Gafarov:  Engineer 3 
 ETIM.      23.00.40 28-Mar-21:  End Time 
 FLOI.gpm               550.00:  Flow In 
 FLON.gpm               500.00:  Flow In Min 
 FLOS.cptm                0.00:  Fluid Loss 
 FLOX.gpm               590.00:  Flow In Max 
 HFLO.                      No:  High Flow 
 HPRE.                      No:  High Pressure 
 HTEM.                      No:  High Temp 
 HYDO.m                   1.80:  Hydro Offset 
 IFIN.deg                 0.00:  Inc, Final 
 IMAX.deg                 0.00:  Inc Max 
 IMIN.deg                 0.00:  Inc Min 
 IMND.m                   0.00:  Inc Min Depth 
 IMXD.m                   0.00:  Inc Max Depth 
 JARR.                      No:  Jarring 
 LETM.      03.22.40 28-Mar-21:  Log End Time 
 LOST.hr                     0:  Lost Rig Time 
 LSTM.      23.30.40 25-Mar-21:  Log Start Time 
 MDCL.ppm             34000.00:  Mud Chlorides 
 MDES.     Inversion Oil/Synthetic:  Mud Desc 
 DFD .sg                  1.51:  Mud Density 
 MDMN.sg                  1.51:  Dens Mud Min 
 MDMX.sg                  1.51:  Dens Mud Max 
 MOIL.                      70:  Run Mud Oil % 
 MOWR.                   70:30:  Run Mud OWR 
 MSND.                     0.2:  Run Mud Sand % 
 MSOL.                   21.60:  Run Mud Solids% 
 DFV .spqt               74.00:  Mud Viscosity 
 MWOD.in                  6.75:  MWD Tool OD 
 MWSI.                      No:  Serv Intrp, MWD 
 OTIM.hr                 69.09:  Time Operating 
 PCON.           Look Like New:  Pad Condition 
 PMAX.psia             3500.00:  Press Op, Max 
 PV  .cP                 70.00:  Mud PV 
 RUN .                     400:  Run Number 
 ROPA.m/hr                0.00:  ROP Avg 
 ROPN.m/hr                0.00:  ROP Min 
 ROPX.m/hr                0.00:  ROP Max 
 RPMA.rpm                80.00:  RPM Surface Avg 
 RPMN.rpm                10.00:  RPM Surface Min 
 RPMX.rpm               100.00:  RPM Surface Max 
 RRUN.                    0400:  Rig Run Number 
 RTIM.hr                  3.00:  Time Reaming 
 SAZI.deg                 0.00:  Azm, Start 
 SDEP.m                3886.01:  Start Depth 
 SIDD.                      No:  Serv Intrp, DD 
 SINC.deg                 0.00:  Inc, Start 
 SPPA.psig             3270.00:  SPP Avg 
 SPPN.psig             3220.00:  SPP Min 
 SPPX.psig             4430.00:  SPP Max 
 STIM.      23.30.40 25-Mar-21:  Start Time 
 SVCS.                 DD, MWD:  Services 
 SVER.                    9.20:  Sperry Version 
 TDAT.m                   0.00:  Tot Depth Attmp 
 TDDF.                      No:  Trip for DD 
 TFF .                      No:  Trip for Fail 
 TQAA.f-kp                8.00:  Torque Abs Avg 
 TQAN.f-kp                7.00:  Torque Abs Min 
 TQAX.f-kp               11.00:  Torque Abs Max 
 TRRT.°/30m               0.00:  Turn Rotating 
 MRT .                  EWR-M5:  Maximum Recorded Temperature 
 TTMX.degC               76.47:  Max Tool Temp 
 VS01.                90640857:  Virtual Str1 SN 
 VS02.                90639246:  Virtual Str2 SN 
 VS03.                90642265:  Virtual Str3 SN 
 VS04.                11654497:  Virtual Str4 SN 
 WBMN.klb                 0.00:  WOB Min 
 WITN.      Kamran Keberlinkiy:  Customer Rep 
 WITN.           Murad Guliyev:  Customer Rep 2 
 WOBA.klb                 0.00:  WOB Avg 
 WOBX.klb                 0.00:  WOB Max 
 YP  .lhf2               36.00:  Yield Point 
~Curve Information Block
#MNEM.UNIT                 API CODE     Curve Description
#---------               -----------    ---------------------------
 TIME.HHMMSS            00 000 000 000:  GT Time & Date
 GTDEPTH.m              00 000 000 000:  GT Depth
 GTPQH.psia             00 000 000 000:  GT HR Quartz Pressure
 GTTQ.degC              00 000 000 000:  GT Quartz Temperature
 GTTN.NONE              00 000 000 000:  GT Test Number
 GTET.sec               00 000 000 000:  GT Elapsed Test Time
 GTTVD.m                00 000 000 000:  GT True Vertical Depth
#Other Information
#
#WARRANTY: Halliburton will use its best efforts to furnish customers with 
#accurate information and interpretations that are part of, and incident to, the services 
#provided.  However, Halliburton cannot and does not warrant the accuracy 
#or correctness of such information and interpretations.  Under no circumstances should any 
#such information or interpretation be relied upon as the sole basis for any drilling, 
#completion, production, or financial decision or any procedure involving any risk to the 
#safety of any drilling venture, drilling rig or its crew or any other third party.  The 
#Customer has full responsibility for all drilling, completion and production operation.  
#Halliburton makes no representations or warranties, either expressed or 
#implied, including, but not limited to, the implied warranties of merchantability or fitness 
#for a particular purpose, with respect to the services rendered.  In no event will 
#Halliburton be liable for failure to obtain any particular results or for 
#any damages, including, but not limited to, indirect, special or consequential damages, 
#resulting from the use of any information or interpretation provided by Halliburton.
#
~A           TIME           GTDEPTH  GTPQH  GTTQ  GTTN  GTET   GTTVD  
# ...
   01:56:33.707.27-Mar-2021 3763.51 4955.25 59.98 1.00 322.07 3487.00
   01:56:33.907.27-Mar-2021 3763.51 4955.25 59.98 1.00 322.27 3487.00
   01:56:34.107.27-Mar-2021 3763.51 4955.11 59.98 1.00 322.47 3487.00
   01:56:34.307.27-Mar-2021 3763.51 4955.19 59.98 1.00 322.67 3487.00
   01:56:34.507.27-Mar-2021 3763.51 4955.17 59.98 1.00 322.87 3487.00
   01:56:34.707.27-Mar-2021 3763.51 4955.21 59.98 1.00 323.07 3487.00
   01:56:34.907.27-Mar-2021 3763.51 4955.21 59.98 1.00 323.27 3487.00
   01:56:35.107.27-Mar-2021 3763.51 4955.17 59.98 1.00 323.47 3487.00
   01:56:35.307.27-Mar-2021 3763.51 4955.16 59.98 1.00 323.67 3487.00
   01:56:35.507.27-Mar-2021 3763.51 4955.20 59.98 1.00 323.87 3487.00
   01:56:35.708.27-Mar-2021 3763.51 4955.20 59.98 1.00 324.07 3487.00
   01:56:35.908.27-Mar-2021 3763.51 4955.20 59.98 1.00 324.27 3487.00
   01:56:36.108.27-Mar-2021 3763.51 4955.27 59.98 1.00 324.47 3487.00
   01:56:36.308.27-Mar-2021 3763.51 4955.22 59.98 1.00 324.67 3487.00
   01:56:36.508.27-Mar-2021 3763.51 4955.09 59.98 1.00 324.87 3487.00
   01:56:36.708.27-Mar-2021 3763.51 4955.21 59.98 1.00 325.07 3487.00
   01:56:36.908.27-Mar-2021 3763.51 4955.21 59.98 1.00 325.27 3487.00
   01:56:37.108.27-Mar-2021 3763.51 4955.19 59.98 1.00 325.47 3487.00
   01:56:37.308.27-Mar-2021 3763.51 4955.25 59.98 1.00 325.67 3487.00
   01:56:37.508.27-Mar-2021 3763.51 4955.25 59.98 1.00 325.87 3487.00
   01:56:37.708.27-Mar-2021 3763.51 4955.07 59.98 1.00 326.07 3487.00
   01:56:37.908.27-Mar-2021 3763.51 4955.07 59.98 1.00 326.27 3487.00
   01:56:38.108.27-Mar-2021 3763.51 4955.25 59.98 1.00 326.47 3487.00
   01:56:38.308.27-Mar-2021 3763.51 4955.15 59.98 1.00 326.67 3487.00
   01:56:38.508.27-Mar-2021 3763.51 4955.16 59.98 1.00 326.87 3487.00
   01:56:38.708.27-Mar-2021 3763.51 4955.22 59.98 1.00 327.07 3487.00
   01:56:38.908.27-Mar-2021 3763.51 4955.22 59.98 1.00 327.27 3487.00
   01:56:39.108.27-Mar-2021 3763.51 4955.18 59.98 1.00 327.47 3487.00
   01:56:39.308.27-Mar-2021 3763.51 4955.20 59.98 1.00 327.67 3487.00
   01:56:39.508.27-Mar-2021 3763.51 4955.21 59.98 1.00 327.87 3487.00
   01:56:39.708.27-Mar-2021 3763.51 4955.17 59.98 1.00 328.07 3487.00
   01:56:39.908.27-Mar-2021 3763.51 4955.17 59.98 1.00 328.27 3487.00
   01:56:40.108.27-Mar-2021 3763.51 4955.19 59.98 1.00 328.47 3487.00
   01:56:40.308.27-Mar-2021 3763.51 4955.22 59.98 1.00 328.67 3487.00
   01:56:40.509.27-Mar-2021 3763.51 4955.19 59.98 1.00 328.87 3487.00
   01:56:40.709.27-Mar-2021 3763.51 4955.25 59.98 1.00 329.07 3487.00
   01:56:40.909.27-Mar-2021 3763.51 4955.25 59.98 1.00 329.27 3487.00
   01:56:41.109.27-Mar-2021 3763.51 4955.19 59.98 1.00 329.47 3487.00
   01:56:41.309.27-Mar-2021 3763.51 4955.23 59.98 1.00 329.67 3487.00
   01:56:41.509.27-Mar-2021 3763.51 4955.18 59.98 1.00 329.87 3487.00
   01:56:41.709.27-Mar-2021 3763.51 4955.19 59.98 1.00 330.07 3487.00
   01:56:41.909.27-Mar-2021 3763.51 4955.19 59.98 1.00 330.27 3487.00
   01:56:42.109.27-Mar-2021 3763.51 4955.17 59.98 1.00 330.47 3487.00
   01:56:42.309.27-Mar-2021 3763.51 4955.23 59.98 1.00 330.67 3487.00
   01:56:42.509.27-Mar-2021 3763.51 4955.20 59.98 1.00 330.87 3487.00
   01:56:42.709.27-Mar-2021 3763.51 4955.18 59.98 1.00 331.07 3487.00
   01:56:42.909.27-Mar-2021 3763.51 4955.18 59.98 1.00 331.27 3487.00
   01:56:43.109.27-Mar-2021 3763.51 4955.19 59.98 1.00 331.47 3487.00
   01:56:43.309.27-Mar-2021 3763.51 4955.21 59.98 1.00 331.67 3487.00
   01:56:43.509.27-Mar-2021 3763.51 4955.18 59.98 1.00 331.87 3487.00
   01:56:43.709.27-Mar-2021 3763.51 4955.26 59.98 1.00 332.07 3487.00
   01:56:43.909.27-Mar-2021 3763.51 4955.26 59.98 1.00 332.27 3487.00
   01:56:44.109.27-Mar-2021 3763.51 4955.17 59.98 1.00 332.47 3487.00
   01:56:44.309.27-Mar-2021 3763.51 4955.28 59.98 1.00 332.67 3487.00
   01:56:44.509.27-Mar-2021 3763.51 4955.10 59.98 1.00 332.87 3487.00
   01:56:44.709.27-Mar-2021 3763.51 4955.22 59.98 1.00 333.07 3487.00
   01:56:44.909.27-Mar-2021 3763.51 4955.22 59.98 1.00 333.27 3487.00
   01:56:45.109.27-Mar-2021 3763.51 4955.17 59.98 1.00 333.47 3487.00
   01:56:45.310.27-Mar-2021 3763.51 4955.18 59.98 1.00 333.67 3487.00
   01:56:45.510.27-Mar-2021 3763.51 4955.19 59.98 1.00 333.87 3487.00
   01:56:45.710.27-Mar-2021 3763.51 4955.21 59.98 1.00 334.07 3487.00
   01:56:45.910.27-Mar-2021 3763.51 4955.21 59.98 1.00 334.27 3487.00
   01:56:46.110.27-Mar-2021 3763.51 4955.25 59.98 1.00 334.47 3487.00
   01:56:46.310.27-Mar-2021 3763.51 4955.14 59.98 1.00 334.67 3487.00
   01:56:46.510.27-Mar-2021 3763.51 4955.17 59.98 1.00 334.87 3487.00
   01:56:46.710.27-Mar-2021 3763.51 4955.22 59.98 1.00 335.07 3487.00
   01:56:46.910.27-Mar-2021 3763.51 4955.22 59.98 1.00 335.27 3487.00
   01:56:47.110.27-Mar-2021 3763.51 4955.18 59.98 1.00 335.47 3487.00
   01:56:47.310.27-Mar-2021 3763.51 4955.26 59.98 1.00 335.67 3487.00
   01:56:47.510.27-Mar-2021 3763.51 4955.21 59.98 1.00 335.87 3487.00
   01:56:47.710.27-Mar-2021 3763.51 4955.10 59.98 1.00 336.07 3487.00
   01:56:47.910.27-Mar-2021 3763.51 4955.10 59.98 1.00 336.27 3487.00
   01:56:48.110.27-Mar-2021 3763.51 4955.22 59.98 1.00 336.47 3487.00
   01:56:48.310.27-Mar-2021 3763.51 4955.19 59.98 1.00 336.67 3487.00
   01:56:48.510.27-Mar-2021 3763.51 4955.17 59.98 1.00 336.87 3487.00
   01:56:48.710.27-Mar-2021 3763.51 4955.18 59.99 1.00 337.07 3487.00
   01:56:48.910.27-Mar-2021 3763.51 4955.18 59.99 1.00 337.27 3487.00
   01:56:49.110.27-Mar-2021 3763.51 4955.20 59.98 1.00 337.47 3487.00
   01:56:49.310.27-Mar-2021 3763.51 4955.20 59.99 1.00 337.67 3487.00
   01:56:49.510.27-Mar-2021 3763.51 4955.21 59.99 1.00 337.87 3487.00
   01:56:49.710.27-Mar-2021 3763.51 4955.23 59.99 1.00 338.07 3487.00
   01:56:49.910.27-Mar-2021 3763.51 4955.23 59.99 1.00 338.27 3487.00
   01:56:50.110.27-Mar-2021 3763.51 4955.17 59.99 1.00 338.47 3487.00
   01:56:50.311.27-Mar-2021 3763.51 4955.22 59.99 1.00 338.67 3487.00
   01:56:50.511.27-Mar-2021 3763.51 4955.24 59.99 1.00 338.87 3487.00
   01:56:50.711.27-Mar-2021 3763.51 4955.11 59.99 1.00 339.07 3487.00
   01:56:50.911.27-Mar-2021 3763.51 4955.11 59.99 1.00 339.27 3487.00
   01:56:51.111.27-Mar-2021 3763.51 4955.20 59.99 1.00 339.47 3487.00
   01:56:51.311.27-Mar-2021 3763.51 4955.17 59.99 1.00 339.67 3487.00
   01:56:51.511.27-Mar-2021 3763.51 4955.21 59.99 1.00 339.87 3487.00
   01:56:51.711.27-Mar-2021 3763.51 4955.18 59.99 1.00 340.07 3487.00
   01:56:51.911.27-Mar-2021 3763.51 4955.18 59.99 1.00 340.27 3487.00
   01:56:52.111.27-Mar-2021 3763.51 4955.18 59.99 1.00 340.47 3487.00
   01:56:52.311.27-Mar-2021 3763.51 4955.21 59.99 1.00 340.67 3487.00
   01:56:52.511.27-Mar-2021 3763.51 4955.19 59.99 1.00 340.87 3487.00
   01:56:52.711.27-Mar-2021 3763.51 4955.20 59.99 1.00 341.07 3487.00
   01:56:52.911.27-Mar-2021 3763.51 4955.20 59.99 1.00 341.27 3487.00
   01:56:53.111.27-Mar-2021 3763.51 4955.28 59.99 1.00 341.47 3487.00
   01:56:53.311.27-Mar-2021 3763.51 4955.11 59.99 1.00 341.67 3487.00
   01:56:53.511.27-Mar-2021 3763.51 4955.20 59.99 1.00 341.87 3487.00
   01:56:53.711.27-Mar-2021 3763.51 4955.20 59.99 1.00 342.07 3487.00
   01:56:53.911.27-Mar-2021 3763.51 4955.20 59.99 1.00 342.27 3487.00
   01:56:54.111.27-Mar-2021 3763.51 4955.25 59.99 1.00 342.47 3487.00
   01:56:54.311.27-Mar-2021 3763.51 4955.09 59.99 1.00 342.67 3487.00
   01:56:54.511.27-Mar-2021 3763.51 4955.16 59.99 1.00 342.87 3487.00
   01:56:54.711.27-Mar-2021 3763.51 4955.22 59.99 1.00 343.07 3487.00
   01:56:54.911.27-Mar-2021 3763.51 4955.22 59.99 1.00 343.27 3487.00
   01:56:55.112.27-Mar-2021 3763.51 4955.16 59.99 1.00 343.47 3487.00
   01:56:55.312.27-Mar-2021 3763.51 4955.19 59.99 1.00 343.67 3487.00
   01:56:55.512.27-Mar-2021 3763.51 4955.28 59.99 1.00 343.87 3487.00
   01:56:55.712.27-Mar-2021 3763.51 4955.14 59.99 1.00 344.07 3487.00
   01:56:55.912.27-Mar-2021 3763.51 4955.14 59.99 1.00 344.27 3487.00
   01:56:56.112.27-Mar-2021 3763.51 4955.18 59.99 1.00 344.47 3487.00
   01:56:56.312.27-Mar-2021 3763.51 4955.19 59.99 1.00 344.67 3487.00
   01:56:56.512.27-Mar-2021 3763.51 4955.18 59.99 1.00 344.87 3487.00
