~Version Information
 VERS.                  2.0:   CWLS log ASCII Standard -VERSION 2.0
 WRAP.                   NO:   One line per depth step
~Well Information Block
#MNEM.UNIT     VALUE/NAME     DESCRIPTION
#---------     -----------    ---------------------------
 STRT.S             01:51:11 27-Mar-21: START TIME 01:51:11 27-Mar-21
 STOP.S             01:58:18 27-Mar-21: STOP TIME  01:58:18 27-Mar-21
 STEP.S                   0.00: STEP TIME
 NULL.                 -999.25: NULL VALUE
 DFWT.                        :  DIST FWL TEXT
 DFST.                        :  DIST FSL TEXT
 DMF .             Drill Floor:  DRILL MEAS FROM
 STIM.      20.26.40 11-Mar-21:  START TIME
 DATE.      20.26.40 30-Mar-21:  END TIME
 SPUD.               11-Mar-21:  SPUD DATE
 NREF.                    Grid:  NORTH REFERENCE
 HPTY.       Minimum Curvature:  HOLE POS TYPE
 DMOD.             Drill Model:  DRILL MOD DESC
 SVYD.                  Survey:  SURVEY DESC
 ILTD.               Lithology:  INTERP LTH DESC
 FTOP.          Formation Tops:  FORM TOPS DESC
 SON .        AZ-XX-0906805385:  JOB NUMBER
 WTYP.                Deviated:  WELL TYPE
 COMP.     BP Exploration (Caspian Sea) Ltd.:  COMPANY
 UWI .            /AZE00000198:  UNIQUE WELL IDENTIFIER
 API .            /AZE00000198:  API NUMBER
 BASE.              Azerbaijan:  LOGGING EQUIPMENT BASE LOCATION
 REGN.                   EESSA:  REGION
 PROV.                    Baku:  PROVINCE
 STAT.                    Baku:  STATE NAME
 CTRY.              Azerbaijan:  COUNTRY NAME
 FLD .                     ACG:  FIELD NAME
 SRVC.     Turan Drilling & Engineering:  CONTRACTOR
 MWDS.                    Baku:  MWD SHOP
 WELL.                    D09z:  WELL NAME
 JOBN.        AZ-XX-0906805385:  JOB TICKET NUMB
 RIG .              East Azeri:  RIG NAME
 DOE .                     N/A:  DOE NUMBER
 DCON.         Sperry Drilling:  DIRECTNL CONTR
 UNIT.                     N/A:  LOGGING EQUIPMENT ID
 PDAT.          Mean Sea Level:  PERMANENT DATUM
 MDS .        Operator Entered:  MAG DATA SOURCE
 CNTY.                        :  COUNTY
 LOC .                        :  LOCATION
 LMF .             Drill Floor:  LOG MEASURED FROM
 TVDS.m                  43.60:  TVDSS CORRECTN
 LATI.deg                40.02:  LATITUDE
 LONG.deg                51.45:  LONGITUDE
 WHNS.m                 -17.04:  WELL HEAD N/S
 WHEW.m                  -6.28:  WELL HEAD E/W
 UTMX.m              538763.98:  UTM X
 UTMY.m             4431880.20:  UTM Y
 DFWL.m                   0.00:  DISTANCE FWL
 DFSL.m                   0.00:  DISTANCE FSL
 SDEP.m                2680.01:  START DEPTH
 TDD .m                4000.01:  TOTAL DEPTH (DRILLER)
 VSDR.deg               225.71:  VERT SEC DIRECT
 GVFD.g                   1.00:  GRAVITY FIELD
 MFLD.nT              50353.00:  MAGNETIC FIELD
 MDIP.deg                59.49:  MAGNETIC DIP
 MDEC.deg                 6.46:  MAGNETIC DECL
 GRDC.deg                 0.29:  GRID CORRECTION
 AZTC.deg                 6.17:  AZM TOTAL CORR
 EPD .m                   0.00:  ELEVATION
 EGL .m                   0.00:  GROUND ELEVATION
 WDMS.m                 151.80:  WD ELEV
 APD .m                  43.60:  DEPTH ABOVE PD
 AGAP.m                  43.60:  AIR GAP
 VSEW.m                  -6.28:  VERT SEC E/W
 VSNS.m                 -17.04:  VERT SEC N/S
 DEP .m                2656.31:  DEPTH
 EKB .m                  43.60:  KB ELEVATION
 EDF .m                  43.60:  DF ELEVATION
 VSC .                       0:  VS TO CLOSURE
 MAGU.                 1851247:  MAGUTM CHECKSUM
~Parameter Information Block
#MNEM.UNIT       Value        Description
#---------     -----------    ---------------------------
 AV  .mps                 3.00:  Ann Velocity 
 AVMX.mps                 8.00:  Max Ann Veloc 
 AZIF.deg                 0.00:  Azm, Final 
 BHAT.                   Other:  BHA Type 
 BREV.rev                 0.00:  Rev Bit Total 
 BROT.°/30m               0.00:  Build Rotating 
 BS  .in                 10.25:  Bit Size 
 BTPL.psig              511.00:  Bit Press Loss 
 CABU.                      No:  Customer Abuse 
 CGEO.           Asif Pashayev:  Customer Geo 
 COMM.                     |ºg:  Run Comments 1 
 TCS .hr                 24.03:  Time Ciculation Ended 
 CV  .mps                 3.50:  Crit Velocity 
 CVMX.mps                 4.00:  Max Crit Veloc 
 DD1 .             Aziz Aliyev:  Direct Drillr 1 
 DD2 .      Fakhraddin Guliyev:  Direct Drillr 2 
 DDSV.                   Other:  DD Service 
 DEFF.%                  99.00:  % Det Eff 
 DLRX.°/30m               0.00:  Dogleg Rot Max 
 DLSO.°/30m               0.00:  Dogleg Oriented 
 DLSX.°/30m               0.00:  Dogleg Str Max 
 DRET.      23.00.40 28-Mar-21:  Drill End Time 
 DRST.      23.30.40 25-Mar-21:  Drill Start Tim 
 DTIM.hr                  0.00:  Time Drilling 
 EDEP.m                3886.01:  End Depth 
 ENG1.         Almaz Almadatov:  Engineer 1 
 ENG2.      Artemiy Matviyanov:  Engineer 2 
 ENG3.           Samir Gafarov:  Engineer 3 
 ETIM.      23.00.40 28-Mar-21:  End Time 
 FLOI.gpm               550.00:  Flow In 
 FLON.gpm               500.00:  Flow In Min 
 FLOS.cptm                0.00:  Fluid Loss 
 FLOX.gpm               590.00:  Flow In Max 
 HFLO.                      No:  High Flow 
 HPRE.                      No:  High Pressure 
 HTEM.                      No:  High Temp 
 HYDO.m                   1.80:  Hydro Offset 
 IFIN.deg                 0.00:  Inc, Final 
 IMAX.deg                 0.00:  Inc Max 
 IMIN.deg                 0.00:  Inc Min 
 IMND.m                   0.00:  Inc Min Depth 
 IMXD.m                   0.00:  Inc Max Depth 
 JARR.                      No:  Jarring 
 LETM.      03.22.40 28-Mar-21:  Log End Time 
 LOST.hr                     0:  Lost Rig Time 
 LSTM.      23.30.40 25-Mar-21:  Log Start Time 
 MDCL.ppm             34000.00:  Mud Chlorides 
 MDES.     Inversion Oil/Synthetic:  Mud Desc 
 DFD .sg                  1.51:  Mud Density 
 MDMN.sg                  1.51:  Dens Mud Min 
 MDMX.sg                  1.51:  Dens Mud Max 
 MOIL.                      70:  Run Mud Oil % 
 MOWR.                   70:30:  Run Mud OWR 
 MSND.                     0.2:  Run Mud Sand % 
 MSOL.                   21.60:  Run Mud Solids% 
 DFV .spqt               74.00:  Mud Viscosity 
 MWOD.in                  6.75:  MWD Tool OD 
 MWSI.                      No:  Serv Intrp, MWD 
 OTIM.hr                 69.09:  Time Operating 
 PCON.           Look Like New:  Pad Condition 
 PMAX.psia             3500.00:  Press Op, Max 
 PV  .cP                 70.00:  Mud PV 
 RUN .                     400:  Run Number 
 ROPA.m/hr                0.00:  ROP Avg 
 ROPN.m/hr                0.00:  ROP Min 
 ROPX.m/hr                0.00:  ROP Max 
 RPMA.rpm                80.00:  RPM Surface Avg 
 RPMN.rpm                10.00:  RPM Surface Min 
 RPMX.rpm               100.00:  RPM Surface Max 
 RRUN.                    0400:  Rig Run Number 
 RTIM.hr                  3.00:  Time Reaming 
 SAZI.deg                 0.00:  Azm, Start 
 SDEP.m                3886.01:  Start Depth 
 SIDD.                      No:  Serv Intrp, DD 
 SINC.deg                 0.00:  Inc, Start 
 SPPA.psig             3270.00:  SPP Avg 
 SPPN.psig             3220.00:  SPP Min 
 SPPX.psig             4430.00:  SPP Max 
 STIM.      23.30.40 25-Mar-21:  Start Time 
 SVCS.                 DD, MWD:  Services 
 SVER.                    9.20:  Sperry Version 
 TDAT.m                   0.00:  Tot Depth Attmp 
 TDDF.                      No:  Trip for DD 
 TFF .                      No:  Trip for Fail 
 TQAA.f-kp                8.00:  Torque Abs Avg 
 TQAN.f-kp                7.00:  Torque Abs Min 
 TQAX.f-kp               11.00:  Torque Abs Max 
 TRRT.°/30m               0.00:  Turn Rotating 
 MRT .                  EWR-M5:  Maximum Recorded Temperature 
 TTMX.degC               76.47:  Max Tool Temp 
 VS01.                90640857:  Virtual Str1 SN 
 VS02.                90639246:  Virtual Str2 SN 
 VS03.                90642265:  Virtual Str3 SN 
 VS04.                11654497:  Virtual Str4 SN 
 WBMN.klb                 0.00:  WOB Min 
 WITN.      Kamran Keberlinkiy:  Customer Rep 
 WITN.           Murad Guliyev:  Customer Rep 2 
 WOBA.klb                 0.00:  WOB Avg 
 WOBX.klb                 0.00:  WOB Max 
 YP  .lhf2               36.00:  Yield Point 
~Curve Information Block
#MNEM.UNIT                 API CODE     Curve Description
#---------               -----------    ---------------------------
 TIME.HHMMSS            00 000 000 000:  GT Time & Date
 GTDEPTH.m              00 000 000 000:  GT Depth
 GTPQH.psia             00 000 000 000:  GT HR Quartz Pressure
 GTTQ.degC              00 000 000 000:  GT Quartz Temperature
 GTTN.NONE              00 000 000 000:  GT Test Number
 GTET.sec               00 000 000 000:  GT Elapsed Test Time
 GTTVD.m                00 000 000 000:  GT True Vertical Depth
#Other Information
#
#WARRANTY: Halliburton will use its best efforts to furnish customers with 
#accurate information and interpretations that are part of, and incident to, the services 
#provided.  However, Halliburton cannot and does not warrant the accuracy 
#or correctness of such information and interpretations.  Under no circumstances should any 
#such information or interpretation be relied upon as the sole basis for any drilling, 
#completion, production, or financial decision or any procedure involving any risk to the 
#safety of any drilling venture, drilling rig or its crew or any other third party.  The 
#Customer has full responsibility for all drilling, completion and production operation.  
#Halliburton makes no representations or warranties, either expressed or 
#implied, including, but not limited to, the implied warranties of merchantability or fitness 
#for a particular purpose, with respect to the services rendered.  In no event will 
#Halliburton be liable for failure to obtain any particular results or for 
#any damages, including, but not limited to, indirect, special or consequential damages, 
#resulting from the use of any information or interpretation provided by Halliburton.
#
~A           TIME           GTDEPTH  GTPQH  GTTQ  GTTN  GTET   GTTVD  
# ...
   01:53:52.674.27-Mar-2021 3763.51 4911.94 59.90 1.00 161.03 3487.00
   01:53:52.874.27-Mar-2021 3763.51 4911.94 59.90 1.00 161.23 3487.00
   01:53:53.074.27-Mar-2021 3763.51 4912.23 59.90 1.00 161.43 3487.00
   01:53:53.274.27-Mar-2021 3763.51 4911.96 59.90 1.00 161.63 3487.00
   01:53:53.474.27-Mar-2021 3763.51 4912.81 59.90 1.00 161.83 3487.00
   01:53:53.674.27-Mar-2021 3763.51 4912.28 59.90 1.00 162.03 3487.00
   01:53:53.874.27-Mar-2021 3763.51 4912.28 59.90 1.00 162.23 3487.00
   01:53:54.074.27-Mar-2021 3763.51 4912.71 59.90 1.00 162.43 3487.00
   01:53:54.274.27-Mar-2021 3763.51 4912.64 59.90 1.00 162.63 3487.00
   01:53:54.474.27-Mar-2021 3763.51 4913.14 59.90 1.00 162.83 3487.00
   01:53:54.674.27-Mar-2021 3763.51 4913.14 59.90 1.00 163.03 3487.00
   01:53:54.874.27-Mar-2021 3763.51 4913.14 59.90 1.00 163.23 3487.00
   01:53:55.074.27-Mar-2021 3763.51 4912.45 59.90 1.00 163.43 3487.00
   01:53:55.274.27-Mar-2021 3763.51 4912.83 59.90 1.00 163.63 3487.00
   01:53:55.474.27-Mar-2021 3763.51 4912.36 59.90 1.00 163.83 3487.00
   01:53:55.674.27-Mar-2021 3763.51 4912.41 59.90 1.00 164.03 3487.00
   01:53:55.874.27-Mar-2021 3763.51 4912.41 59.90 1.00 164.23 3487.00
   01:53:56.074.27-Mar-2021 3763.51 4912.52 59.90 1.00 164.43 3487.00
   01:53:56.275.27-Mar-2021 3763.51 4912.40 59.90 1.00 164.63 3487.00
   01:53:56.475.27-Mar-2021 3763.51 4912.48 59.90 1.00 164.83 3487.00
   01:53:56.675.27-Mar-2021 3763.51 4912.79 59.90 1.00 165.03 3487.00
   01:53:56.875.27-Mar-2021 3763.51 4912.79 59.90 1.00 165.23 3487.00
   01:53:57.075.27-Mar-2021 3763.51 4913.17 59.90 1.00 165.43 3487.00
   01:53:57.275.27-Mar-2021 3763.51 4913.18 59.90 1.00 165.63 3487.00
   01:53:57.475.27-Mar-2021 3763.51 4913.21 59.90 1.00 165.83 3487.00
   01:53:57.675.27-Mar-2021 3763.51 4913.13 59.90 1.00 166.03 3487.00
   01:53:57.875.27-Mar-2021 3763.51 4913.13 59.90 1.00 166.23 3487.00
   01:53:58.075.27-Mar-2021 3763.51 4912.81 59.90 1.00 166.43 3487.00
   01:53:58.275.27-Mar-2021 3763.51 4915.92 59.90 1.00 166.63 3487.00
   01:53:58.475.27-Mar-2021 3763.51 4952.79 59.90 1.00 166.83 3487.00
   01:53:58.675.27-Mar-2021 3763.51 4954.87 59.90 1.00 167.03 3487.00
   01:53:58.875.27-Mar-2021 3763.51 4954.87 59.90 1.00 167.23 3487.00
   01:53:59.075.27-Mar-2021 3763.51 4955.06 59.90 1.00 167.43 3487.00
   01:53:59.275.27-Mar-2021 3763.51 4955.06 59.90 1.00 167.63 3487.00
   01:53:59.475.27-Mar-2021 3763.51 4955.11 59.90 1.00 167.83 3487.00
   01:53:59.675.27-Mar-2021 3763.51 4955.09 59.90 1.00 168.03 3487.00
   01:53:59.875.27-Mar-2021 3763.51 4955.09 59.90 1.00 168.23 3487.00
   01:54:00.075.27-Mar-2021 3763.51 4955.24 59.90 1.00 168.43 3487.00
   01:54:00.275.27-Mar-2021 3763.51 4955.38 59.90 1.00 168.63 3487.00
   01:54:00.475.27-Mar-2021 3763.51 4955.18 59.90 1.00 168.83 3487.00
   01:54:00.675.27-Mar-2021 3763.51 4955.25 59.90 1.00 169.03 3487.00
   01:54:00.875.27-Mar-2021 3763.51 4955.25 59.90 1.00 169.24 3487.00
   01:54:01.075.27-Mar-2021 3763.51 4955.28 59.90 1.00 169.44 3487.00
   01:54:01.276.27-Mar-2021 3763.51 4955.24 59.90 1.00 169.64 3487.00
   01:54:01.476.27-Mar-2021 3763.51 4955.56 59.90 1.00 169.84 3487.00
   01:54:01.676.27-Mar-2021 3763.51 4955.45 59.90 1.00 170.04 3487.00
   01:54:01.876.27-Mar-2021 3763.51 4955.45 59.90 1.00 170.24 3487.00
   01:54:02.076.27-Mar-2021 3763.51 4955.38 59.90 1.00 170.44 3487.00
   01:54:02.276.27-Mar-2021 3763.51 4955.39 59.90 1.00 170.64 3487.00
   01:54:02.476.27-Mar-2021 3763.51 4955.40 59.90 1.00 170.84 3487.00
   01:54:02.676.27-Mar-2021 3763.51 4955.49 59.90 1.00 171.04 3487.00
   01:54:02.876.27-Mar-2021 3763.51 4955.49 59.90 1.00 171.24 3487.00
   01:54:03.076.27-Mar-2021 3763.51 4955.29 59.90 1.00 171.44 3487.00
   01:54:03.276.27-Mar-2021 3763.51 4955.71 59.90 1.00 171.64 3487.00
   01:54:03.476.27-Mar-2021 3763.51 4955.51 59.90 1.00 171.84 3487.00
   01:54:03.676.27-Mar-2021 3763.51 4955.27 59.90 1.00 172.04 3487.00
   01:54:03.876.27-Mar-2021 3763.51 4955.27 59.90 1.00 172.24 3487.00
   01:54:04.076.27-Mar-2021 3763.51 4955.42 59.90 1.00 172.44 3487.00
   01:54:04.276.27-Mar-2021 3763.51 4955.32 59.90 1.00 172.64 3487.00
   01:54:04.476.27-Mar-2021 3763.51 4955.36 59.90 1.00 172.84 3487.00
   01:54:04.676.27-Mar-2021 3763.51 4955.37 59.90 1.00 173.04 3487.00
   01:54:04.876.27-Mar-2021 3763.51 4955.37 59.90 1.00 173.24 3487.00
   01:54:05.076.27-Mar-2021 3763.51 4955.36 59.90 1.00 173.44 3487.00
   01:54:05.276.27-Mar-2021 3763.51 4955.36 59.90 1.00 173.64 3487.00
   01:54:05.476.27-Mar-2021 3763.51 4955.35 59.90 1.00 173.84 3487.00
   01:54:05.676.27-Mar-2021 3763.51 4955.38 59.90 1.00 174.04 3487.00
   01:54:05.876.27-Mar-2021 3763.51 4955.38 59.90 1.00 174.24 3487.00
   01:54:06.077.27-Mar-2021 3763.51 4955.37 59.90 1.00 174.44 3487.00
   01:54:06.277.27-Mar-2021 3763.51 4955.41 59.90 1.00 174.64 3487.00
   01:54:06.477.27-Mar-2021 3763.51 4955.50 59.90 1.00 174.84 3487.00
   01:54:06.677.27-Mar-2021 3763.51 4955.29 59.90 1.00 175.04 3487.00
   01:54:06.877.27-Mar-2021 3763.51 4955.29 59.90 1.00 175.24 3487.00
   01:54:07.077.27-Mar-2021 3763.51 4955.46 59.90 1.00 175.44 3487.00
   01:54:07.277.27-Mar-2021 3763.51 4955.36 59.90 1.00 175.64 3487.00
   01:54:07.477.27-Mar-2021 3763.51 4955.34 59.90 1.00 175.84 3487.00
   01:54:07.677.27-Mar-2021 3763.51 4955.36 59.90 1.00 176.04 3487.00
   01:54:07.877.27-Mar-2021 3763.51 4955.36 59.90 1.00 176.24 3487.00
   01:54:08.077.27-Mar-2021 3763.51 4955.36 59.90 1.00 176.44 3487.00
   01:54:08.277.27-Mar-2021 3763.51 4955.36 59.91 1.00 176.64 3487.00
   01:54:08.477.27-Mar-2021 3763.51 4955.37 59.91 1.00 176.84 3487.00
   01:54:08.677.27-Mar-2021 3763.51 4955.38 59.91 1.00 177.04 3487.00
   01:54:08.877.27-Mar-2021 3763.51 4955.38 59.91 1.00 177.24 3487.00
   01:54:09.077.27-Mar-2021 3763.51 4955.48 59.91 1.00 177.44 3487.00
   01:54:09.277.27-Mar-2021 3763.51 4955.29 59.91 1.00 177.64 3487.00
   01:54:09.477.27-Mar-2021 3763.51 4955.43 59.91 1.00 177.84 3487.00
   01:54:09.677.27-Mar-2021 3763.51 4955.43 59.91 1.00 178.04 3487.00
   01:54:09.877.27-Mar-2021 3763.51 4955.43 59.91 1.00 178.24 3487.00
   01:54:10.077.27-Mar-2021 3763.51 4955.50 59.91 1.00 178.44 3487.00
   01:54:10.277.27-Mar-2021 3763.51 4955.32 59.91 1.00 178.64 3487.00
   01:54:10.477.27-Mar-2021 3763.51 4955.42 59.91 1.00 178.84 3487.00
   01:54:10.677.27-Mar-2021 3763.51 4955.44 59.91 1.00 179.04 3487.00
   01:54:10.878.27-Mar-2021 3763.51 4955.44 59.91 1.00 179.24 3487.00
   01:54:11.078.27-Mar-2021 3763.51 4955.35 59.91 1.00 179.44 3487.00
   01:54:11.278.27-Mar-2021 3763.51 4955.42 59.91 1.00 179.64 3487.00
   01:54:11.478.27-Mar-2021 3763.51 4955.50 59.91 1.00 179.84 3487.00
   01:54:11.678.27-Mar-2021 3763.51 4955.34 59.91 1.00 180.04 3487.00
   01:54:11.878.27-Mar-2021 3763.51 4955.34 59.91 1.00 180.24 3487.00
   01:54:12.078.27-Mar-2021 3763.51 4955.56 59.91 1.00 180.44 3487.00
   01:54:12.278.27-Mar-2021 3763.51 4955.47 59.91 1.00 180.64 3487.00
   01:54:12.478.27-Mar-2021 3763.51 4955.26 59.91 1.00 180.84 3487.00
   01:54:12.678.27-Mar-2021 3763.51 4955.40 59.91 1.00 181.04 3487.00
   01:54:12.878.27-Mar-2021 3763.51 4955.40 59.91 1.00 181.24 3487.00
   01:54:13.078.27-Mar-2021 3763.51 4955.32 59.91 1.00 181.44 3487.00
   01:54:13.278.27-Mar-2021 3763.51 4955.38 59.91 1.00 181.64 3487.00
   01:54:13.478.27-Mar-2021 3763.51 4955.40 59.91 1.00 181.84 3487.00
   01:54:13.678.27-Mar-2021 3763.51 4955.38 59.91 1.00 182.04 3487.00
   01:54:13.878.27-Mar-2021 3763.51 4955.38 59.91 1.00 182.24 3487.00
   01:54:14.078.27-Mar-2021 3763.51 4955.38 59.91 1.00 182.44 3487.00
   01:54:14.278.27-Mar-2021 3763.51 4955.41 59.91 1.00 182.64 3487.00
   01:54:14.478.27-Mar-2021 3763.51 4955.37 59.91 1.00 182.84 3487.00
   01:54:14.678.27-Mar-2021 3763.51 4955.34 59.91 1.00 183.04 3487.00
   01:54:14.878.27-Mar-2021 3763.51 4955.34 59.91 1.00 183.24 3487.00
   01:54:15.078.27-Mar-2021 3763.51 4955.47 59.91 1.00 183.44 3487.00
   01:54:15.278.27-Mar-2021 3763.51 4955.44 59.91 1.00 183.64 3487.00
   01:54:15.478.27-Mar-2021 3763.51 4955.27 59.91 1.00 183.84 3487.00
