~Version Information
 VERS.                  2.0:   CWLS log ASCII Standard -VERSION 2.0
 WRAP.                   NO:   One line per depth step
~Well Information Block
#MNEM.UNIT     VALUE/NAME     DESCRIPTION
#---------     -----------    ---------------------------
 STRT.S             11:05:10 27-Mar-21: START TIME 11:05:10 27-Mar-21
 STOP.S             11:12:21 27-Mar-21: STOP TIME  11:12:21 27-Mar-21
 STEP.S                   0.00: STEP TIME
 NULL.                 -999.25: NULL VALUE
 DFWT.                        :  DIST FWL TEXT
 DFST.                        :  DIST FSL TEXT
 DMF .             Drill Floor:  DRILL MEAS FROM
 STIM.      20.26.40 11-Mar-21:  START TIME
 DATE.      20.26.40 30-Mar-21:  END TIME
 SPUD.               11-Mar-21:  SPUD DATE
 NREF.                    Grid:  NORTH REFERENCE
 HPTY.       Minimum Curvature:  HOLE POS TYPE
 DMOD.             Drill Model:  DRILL MOD DESC
 SVYD.                  Survey:  SURVEY DESC
 ILTD.               Lithology:  INTERP LTH DESC
 FTOP.          Formation Tops:  FORM TOPS DESC
 SON .        AZ-XX-0906805385:  JOB NUMBER
 WTYP.                Deviated:  WELL TYPE
 COMP.     BP Exploration (Caspian Sea) Ltd.:  COMPANY
 UWI .            /AZE00000198:  UNIQUE WELL IDENTIFIER
 API .            /AZE00000198:  API NUMBER
 BASE.              Azerbaijan:  LOGGING EQUIPMENT BASE LOCATION
 REGN.                   EESSA:  REGION
 PROV.                    Baku:  PROVINCE
 STAT.                    Baku:  STATE NAME
 CTRY.              Azerbaijan:  COUNTRY NAME
 FLD .                     ACG:  FIELD NAME
 SRVC.     Turan Drilling & Engineering:  CONTRACTOR
 MWDS.                    Baku:  MWD SHOP
 WELL.                    D09z:  WELL NAME
 JOBN.        AZ-XX-0906805385:  JOB TICKET NUMB
 RIG .              East Azeri:  RIG NAME
 DOE .                     N/A:  DOE NUMBER
 DCON.         Sperry Drilling:  DIRECTNL CONTR
 UNIT.                     N/A:  LOGGING EQUIPMENT ID
 PDAT.          Mean Sea Level:  PERMANENT DATUM
 MDS .        Operator Entered:  MAG DATA SOURCE
 CNTY.                        :  COUNTY
 LOC .                        :  LOCATION
 LMF .             Drill Floor:  LOG MEASURED FROM
 TVDS.m                  43.60:  TVDSS CORRECTN
 LATI.deg                40.02:  LATITUDE
 LONG.deg                51.45:  LONGITUDE
 WHNS.m                 -17.04:  WELL HEAD N/S
 WHEW.m                  -6.28:  WELL HEAD E/W
 UTMX.m              538763.98:  UTM X
 UTMY.m             4431880.20:  UTM Y
 DFWL.m                   0.00:  DISTANCE FWL
 DFSL.m                   0.00:  DISTANCE FSL
 SDEP.m                2680.01:  START DEPTH
 TDD .m                4000.01:  TOTAL DEPTH (DRILLER)
 VSDR.deg               225.71:  VERT SEC DIRECT
 GVFD.g                   1.00:  GRAVITY FIELD
 MFLD.nT              50353.00:  MAGNETIC FIELD
 MDIP.deg                59.49:  MAGNETIC DIP
 MDEC.deg                 6.46:  MAGNETIC DECL
 GRDC.deg                 0.29:  GRID CORRECTION
 AZTC.deg                 6.17:  AZM TOTAL CORR
 EPD .m                   0.00:  ELEVATION
 EGL .m                   0.00:  GROUND ELEVATION
 WDMS.m                 151.80:  WD ELEV
 APD .m                  43.60:  DEPTH ABOVE PD
 AGAP.m                  43.60:  AIR GAP
 VSEW.m                  -6.28:  VERT SEC E/W
 VSNS.m                 -17.04:  VERT SEC N/S
 DEP .m                2656.31:  DEPTH
 EKB .m                  43.60:  KB ELEVATION
 EDF .m                  43.60:  DF ELEVATION
 VSC .                       0:  VS TO CLOSURE
 MAGU.                 1851247:  MAGUTM CHECKSUM
~Parameter Information Block
#MNEM.UNIT       Value        Description
#---------     -----------    ---------------------------
 AV  .mps                 3.00:  Ann Velocity 
 AVMX.mps                 8.00:  Max Ann Veloc 
 AZIF.deg                 0.00:  Azm, Final 
 BHAT.                   Other:  BHA Type 
 BREV.rev                 0.00:  Rev Bit Total 
 BROT.°/30m               0.00:  Build Rotating 
 BS  .in                 10.25:  Bit Size 
 BTPL.psig              511.00:  Bit Press Loss 
 CABU.                      No:  Customer Abuse 
 CGEO.           Asif Pashayev:  Customer Geo 
 COMM.                     $Ml:  Run Comments 1 
 TCS .hr                 24.03:  Time Ciculation Ended 
 CV  .mps                 3.50:  Crit Velocity 
 CVMX.mps                 4.00:  Max Crit Veloc 
 DD1 .             Aziz Aliyev:  Direct Drillr 1 
 DD2 .      Fakhraddin Guliyev:  Direct Drillr 2 
 DDSV.                   Other:  DD Service 
 DEFF.%                  99.00:  % Det Eff 
 DLRX.°/30m               0.00:  Dogleg Rot Max 
 DLSO.°/30m               0.00:  Dogleg Oriented 
 DLSX.°/30m               0.00:  Dogleg Str Max 
 DRET.      23.00.40 28-Mar-21:  Drill End Time 
 DRST.      23.30.40 25-Mar-21:  Drill Start Tim 
 DTIM.hr                  0.00:  Time Drilling 
 EDEP.m                3886.01:  End Depth 
 ENG1.         Almaz Almadatov:  Engineer 1 
 ENG2.      Artemiy Matviyanov:  Engineer 2 
 ENG3.           Samir Gafarov:  Engineer 3 
 ETIM.      23.00.40 28-Mar-21:  End Time 
 FLOI.gpm               550.00:  Flow In 
 FLON.gpm               500.00:  Flow In Min 
 FLOS.cptm                0.00:  Fluid Loss 
 FLOX.gpm               590.00:  Flow In Max 
 HFLO.                      No:  High Flow 
 HPRE.                      No:  High Pressure 
 HTEM.                      No:  High Temp 
 HYDO.m                   1.80:  Hydro Offset 
 IFIN.deg                 0.00:  Inc, Final 
 IMAX.deg                 0.00:  Inc Max 
 IMIN.deg                 0.00:  Inc Min 
 IMND.m                   0.00:  Inc Min Depth 
 IMXD.m                   0.00:  Inc Max Depth 
 JARR.                      No:  Jarring 
 LETM.      03.22.40 28-Mar-21:  Log End Time 
 LOST.hr                     0:  Lost Rig Time 
 LSTM.      23.30.40 25-Mar-21:  Log Start Time 
 MDCL.ppm             34000.00:  Mud Chlorides 
 MDES.     Inversion Oil/Synthetic:  Mud Desc 
 DFD .sg                  1.51:  Mud Density 
 MDMN.sg                  1.51:  Dens Mud Min 
 MDMX.sg                  1.51:  Dens Mud Max 
 MOIL.                      70:  Run Mud Oil % 
 MOWR.                   70:30:  Run Mud OWR 
 MSND.                     0.2:  Run Mud Sand % 
 MSOL.                   21.60:  Run Mud Solids% 
 DFV .spqt               74.00:  Mud Viscosity 
 MWOD.in                  6.75:  MWD Tool OD 
 MWSI.                      No:  Serv Intrp, MWD 
 OTIM.hr                 69.09:  Time Operating 
 PCON.           Look Like New:  Pad Condition 
 PMAX.psia             3500.00:  Press Op, Max 
 PV  .cP                 70.00:  Mud PV 
 RUN .                     400:  Run Number 
 ROPA.m/hr                0.00:  ROP Avg 
 ROPN.m/hr                0.00:  ROP Min 
 ROPX.m/hr                0.00:  ROP Max 
 RPMA.rpm                80.00:  RPM Surface Avg 
 RPMN.rpm                10.00:  RPM Surface Min 
 RPMX.rpm               100.00:  RPM Surface Max 
 RRUN.                    0400:  Rig Run Number 
 RTIM.hr                  3.00:  Time Reaming 
 SAZI.deg                 0.00:  Azm, Start 
 SDEP.m                3886.01:  Start Depth 
 SIDD.                      No:  Serv Intrp, DD 
 SINC.deg                 0.00:  Inc, Start 
 SPPA.psig             3270.00:  SPP Avg 
 SPPN.psig             3220.00:  SPP Min 
 SPPX.psig             4430.00:  SPP Max 
 STIM.      23.30.40 25-Mar-21:  Start Time 
 SVCS.                 DD, MWD:  Services 
 SVER.                    9.20:  Sperry Version 
 TDAT.m                   0.00:  Tot Depth Attmp 
 TDDF.                      No:  Trip for DD 
 TFF .                      No:  Trip for Fail 
 TQAA.f-kp                8.00:  Torque Abs Avg 
 TQAN.f-kp                7.00:  Torque Abs Min 
 TQAX.f-kp               11.00:  Torque Abs Max 
 TRRT.°/30m               0.00:  Turn Rotating 
 MRT .                  EWR-M5:  Maximum Recorded Temperature 
 TTMX.degC               76.47:  Max Tool Temp 
 VS01.                90640857:  Virtual Str1 SN 
 VS02.                90639246:  Virtual Str2 SN 
 VS03.                90642265:  Virtual Str3 SN 
 VS04.                11654497:  Virtual Str4 SN 
 WBMN.klb                 0.00:  WOB Min 
 WITN.      Kamran Keberlinkiy:  Customer Rep 
 WITN.           Murad Guliyev:  Customer Rep 2 
 WOBA.klb                 0.00:  WOB Avg 
 WOBX.klb                 0.00:  WOB Max 
 YP  .lhf2               36.00:  Yield Point 
~Curve Information Block
#MNEM.UNIT                 API CODE     Curve Description
#---------               -----------    ---------------------------
 TIME.HHMMSS            00 000 000 000:  GT Time & Date
 GTDEPTH.m              00 000 000 000:  GT Depth
 GTPQH.psia             00 000 000 000:  GT HR Quartz Pressure
 GTTQ.degC              00 000 000 000:  GT Quartz Temperature
 GTTN.NONE              00 000 000 000:  GT Test Number
 GTET.sec               00 000 000 000:  GT Elapsed Test Time
 GTTVD.m                00 000 000 000:  GT True Vertical Depth
#Other Information
#
#WARRANTY: Halliburton will use its best efforts to furnish customers with 
#accurate information and interpretations that are part of, and incident to, the services 
#provided.  However, Halliburton cannot and does not warrant the accuracy 
#or correctness of such information and interpretations.  Under no circumstances should any 
#such information or interpretation be relied upon as the sole basis for any drilling, 
#completion, production, or financial decision or any procedure involving any risk to the 
#safety of any drilling venture, drilling rig or its crew or any other third party.  The 
#Customer has full responsibility for all drilling, completion and production operation.  
#Halliburton makes no representations or warranties, either expressed or 
#implied, including, but not limited to, the implied warranties of merchantability or fitness 
#for a particular purpose, with respect to the services rendered.  In no event will 
#Halliburton be liable for failure to obtain any particular results or for 
#any damages, including, but not limited to, indirect, special or consequential damages, 
#resulting from the use of any information or interpretation provided by Halliburton.
#
~A           TIME           GTDEPTH  GTPQH  GTTQ  GTTN   GTET   GTTVD  
# ...
   11:11:57.122.27-Mar-2021 3279.01 7079.22 61.31 11.00 406.90 3032.17
   11:11:57.322.27-Mar-2021 3279.01 7079.22 61.31 11.00 407.10 3032.17
   11:11:57.522.27-Mar-2021 3279.01 7079.22 61.31 11.00 407.30 3032.17
   11:11:57.722.27-Mar-2021 3279.01 7079.49 61.31 11.00 407.50 3032.17
   11:11:57.922.27-Mar-2021 3279.01 7079.04 61.31 11.00 407.70 3032.17
   11:11:58.122.27-Mar-2021 3279.01 7079.00 61.31 11.00 407.90 3032.17
   11:11:58.322.27-Mar-2021 3279.01 7078.99 61.31 11.00 408.10 3032.17
   11:11:58.522.27-Mar-2021 3279.01 7078.99 61.31 11.00 408.30 3032.17
   11:11:58.722.27-Mar-2021 3279.01 7079.11 61.31 11.00 408.50 3032.17
   11:11:58.922.27-Mar-2021 3279.01 7082.59 61.31 11.00 408.70 3032.17
   11:11:59.122.27-Mar-2021 3279.01 7078.76 61.31 11.00 408.90 3032.17
   11:11:59.323.27-Mar-2021 3279.01 7079.26 61.31 11.00 409.10 3032.17
   11:11:59.523.27-Mar-2021 3279.01 7079.26 61.31 11.00 409.30 3032.17
   11:11:59.723.27-Mar-2021 3279.01 7078.90 61.31 11.00 409.50 3032.17
   11:11:59.923.27-Mar-2021 3279.01 7078.68 61.31 11.00 409.70 3032.17
   11:12:00.123.27-Mar-2021 3279.01 7078.37 61.31 11.00 409.90 3032.17
   11:12:00.323.27-Mar-2021 3279.01 7083.41 61.31 11.00 410.10 3032.17
   11:12:00.523.27-Mar-2021 3279.01 7083.41 61.31 11.00 410.30 3032.17
   11:12:00.723.27-Mar-2021 3279.01 7079.41 61.31 11.00 410.50 3032.17
   11:12:00.923.27-Mar-2021 3279.01 7079.63 61.31 11.00 410.70 3032.17
   11:12:01.123.27-Mar-2021 3279.01 7079.34 61.31 11.00 410.90 3032.17
   11:12:01.323.27-Mar-2021 3279.01 7082.78 61.31 11.00 411.10 3032.17
   11:12:01.523.27-Mar-2021 3279.01 7082.78 61.31 11.00 411.30 3032.17
   11:12:01.723.27-Mar-2021 3279.01 7080.25 61.31 11.00 411.50 3032.17
   11:12:01.923.27-Mar-2021 3279.01 7079.43 61.31 11.00 411.70 3032.17
   11:12:02.123.27-Mar-2021 3279.01 7079.69 61.31 11.00 411.90 3032.17
   11:12:02.323.27-Mar-2021 3279.01 7079.69 61.31 11.00 412.10 3032.17
   11:12:02.523.27-Mar-2021 3279.01 7079.69 61.31 11.00 412.30 3032.17
   11:12:02.723.27-Mar-2021 3279.01 7078.80 61.31 11.00 412.50 3032.17
   11:12:02.923.27-Mar-2021 3279.01 7079.85 61.31 11.00 412.70 3032.17
   11:12:03.123.27-Mar-2021 3279.01 7079.57 61.31 11.00 412.90 3032.17
   11:12:03.323.27-Mar-2021 3279.01 7079.65 61.31 11.00 413.10 3032.17
   11:12:03.524.27-Mar-2021 3279.01 7079.65 61.31 11.00 413.30 3032.17
   11:12:03.724.27-Mar-2021 3279.01 7079.10 61.31 11.00 413.50 3032.17
   11:12:03.924.27-Mar-2021 3279.01 7079.73 61.31 11.00 413.70 3032.17
   11:12:04.124.27-Mar-2021 3279.01 7079.28 61.31 11.00 413.90 3032.17
   11:12:04.324.27-Mar-2021 3279.01 7079.45 61.31 11.00 414.10 3032.17
   11:12:04.524.27-Mar-2021 3279.01 7079.45 61.31 11.00 414.30 3032.17
   11:12:04.724.27-Mar-2021 3279.01 7079.75 61.31 11.00 414.50 3032.17
   11:12:04.924.27-Mar-2021 3279.01 7079.60 61.31 11.00 414.70 3032.17
   11:12:05.124.27-Mar-2021 3279.01 7079.27 61.31 11.00 414.90 3032.17
   11:12:05.324.27-Mar-2021 3279.01 7078.74 61.31 11.00 415.10 3032.17
   11:12:05.524.27-Mar-2021 3279.01 7078.74 61.31 11.00 415.30 3032.17
   11:12:05.724.27-Mar-2021 3279.01 7078.44 61.31 11.00 415.50 3032.17
   11:12:05.924.27-Mar-2021 3279.01 7082.05 61.30 11.00 415.70 3032.17
   11:12:06.124.27-Mar-2021 3279.01 7078.97 61.30 11.00 415.90 3032.17
   11:12:06.324.27-Mar-2021 3279.01 7079.81 61.30 11.00 416.10 3032.17
   11:12:06.524.27-Mar-2021 3279.01 7079.81 61.30 11.00 416.30 3032.17
   11:12:06.724.27-Mar-2021 3279.01 7078.75 61.30 11.00 416.50 3032.17
   11:12:06.924.27-Mar-2021 3279.01 7078.98 61.30 11.00 416.70 3032.17
   11:12:07.124.27-Mar-2021 3279.01 7078.53 61.30 11.00 416.90 3032.17
   11:12:07.324.27-Mar-2021 3279.01 7079.37 61.30 11.00 417.10 3032.17
   11:12:07.524.27-Mar-2021 3279.01 7079.37 61.30 11.00 417.30 3032.17
   11:12:07.725.27-Mar-2021 3279.01 7078.47 61.30 11.00 417.50 3032.17
   11:12:07.925.27-Mar-2021 3279.01 7078.65 61.30 11.00 417.70 3032.17
   11:12:08.125.27-Mar-2021 3279.01 7078.52 61.30 11.00 417.90 3032.17
   11:12:08.325.27-Mar-2021 3279.01 7078.60 61.30 11.00 418.10 3032.17
   11:12:08.525.27-Mar-2021 3279.01 7078.60 61.30 11.00 418.30 3032.17
   11:12:08.725.27-Mar-2021 3279.01 7077.77 61.30 11.00 418.50 3032.17
   11:12:08.925.27-Mar-2021 3279.01 7078.73 61.30 11.00 418.70 3032.17
   11:12:09.125.27-Mar-2021 3279.01 7078.95 61.30 11.00 418.90 3032.17
   11:12:09.325.27-Mar-2021 3279.01 7078.70 61.30 11.00 419.10 3032.17
   11:12:09.525.27-Mar-2021 3279.01 7078.70 61.30 11.00 419.30 3032.17
   11:12:09.725.27-Mar-2021 3279.01 7077.92 61.30 11.00 419.50 3032.17
   11:12:09.925.27-Mar-2021 3279.01 7082.32 61.30 11.00 419.70 3032.17
   11:12:10.125.27-Mar-2021 3279.01 7078.18 61.30 11.00 419.90 3032.17
   11:12:10.325.27-Mar-2021 3279.01 7078.63 61.30 11.00 420.10 3032.17
   11:12:10.525.27-Mar-2021 3279.01 7078.63 61.30 11.00 420.30 3032.17
   11:12:10.725.27-Mar-2021 3279.01 7079.07 61.30 11.00 420.50 3032.17
   11:12:10.925.27-Mar-2021 3279.01 7083.34 61.30 11.00 420.70 3032.17
   11:12:11.125.27-Mar-2021 3279.01 7078.09 61.30 11.00 420.90 3032.17
   11:12:11.325.27-Mar-2021 3279.01 7079.63 61.30 11.00 421.10 3032.17
   11:12:11.525.27-Mar-2021 3279.01 7079.63 61.30 11.00 421.30 3032.17
   11:12:11.725.27-Mar-2021 3279.01 7079.51 61.30 11.00 421.50 3032.17
   11:12:11.925.27-Mar-2021 3279.01 7079.50 61.30 11.00 421.70 3032.17
   11:12:12.126.27-Mar-2021 3279.01 7082.48 61.30 11.00 421.90 3032.17
   11:12:12.326.27-Mar-2021 3279.01 7079.28 61.30 11.00 422.10 3032.17
   11:12:12.526.27-Mar-2021 3279.01 7079.28 61.30 11.00 422.30 3032.17
   11:12:12.726.27-Mar-2021 3279.01 7079.56 61.30 11.00 422.50 3032.17
   11:12:12.926.27-Mar-2021 3279.01 7079.29 61.30 11.00 422.70 3032.17
   11:12:13.126.27-Mar-2021 3279.01 7079.26 61.30 11.00 422.90 3032.17
   11:12:13.326.27-Mar-2021 3279.01 7078.88 61.30 11.00 423.10 3032.17
   11:12:13.526.27-Mar-2021 3279.01 7078.88 61.30 11.00 423.30 3032.17
   11:12:13.726.27-Mar-2021 3279.01 7078.69 61.30 11.00 423.50 3032.17
   11:12:13.926.27-Mar-2021 3279.01 7079.00 61.30 11.00 423.70 3032.17
   11:12:14.126.27-Mar-2021 3279.01 7079.25 61.30 11.00 423.90 3032.17
   11:12:14.326.27-Mar-2021 3279.01 7079.42 61.30 11.00 424.10 3032.17
   11:12:14.526.27-Mar-2021 3279.01 7079.42 61.30 11.00 424.30 3032.17
   11:12:14.726.27-Mar-2021 3279.01 7079.15 61.30 11.00 424.50 3032.17
   11:12:14.926.27-Mar-2021 3279.01 7078.61 61.30 11.00 424.70 3032.17
   11:12:15.126.27-Mar-2021 3279.01 7078.66 61.30 11.00 424.90 3032.17
   11:12:15.326.27-Mar-2021 3279.01 7078.48 61.30 11.00 425.10 3032.17
   11:12:15.526.27-Mar-2021 3279.01 7078.48 61.30 11.00 425.30 3032.17
   11:12:15.726.27-Mar-2021 3279.01 7077.99 61.30 11.00 425.50 3032.17
   11:12:15.926.27-Mar-2021 3279.01 7079.60 61.30 11.00 425.70 3032.17
   11:12:16.126.27-Mar-2021 3279.01 7079.53 61.30 11.00 425.90 3032.17
   11:12:16.327.27-Mar-2021 3279.01 7079.07 61.30 11.00 426.10 3032.17
   11:12:16.527.27-Mar-2021 3279.01 7079.07 61.30 11.00 426.30 3032.17
   11:12:16.727.27-Mar-2021 3279.01 7078.91 61.30 11.00 426.50 3032.17
   11:12:16.927.27-Mar-2021 3279.01 7079.63 61.30 11.00 426.70 3032.17
   11:12:17.127.27-Mar-2021 3279.01 7079.07 61.30 11.00 426.90 3032.17
   11:12:17.327.27-Mar-2021 3279.01 7078.91 61.30 11.00 427.10 3032.17
   11:12:17.527.27-Mar-2021 3279.01 7078.91 61.30 11.00 427.30 3032.17
   11:12:17.727.27-Mar-2021 3279.01 7078.87 61.30 11.00 427.50 3032.17
   11:12:17.927.27-Mar-2021 3279.01 7078.76 61.30 11.00 427.70 3032.17
   11:12:18.127.27-Mar-2021 3279.01 7082.71 61.30 11.00 427.90 3032.17
   11:12:18.327.27-Mar-2021 3279.01 7078.87 61.30 11.00 428.10 3032.17
   11:12:18.527.27-Mar-2021 3279.01 7078.87 61.30 11.00 428.30 3032.17
   11:12:18.727.27-Mar-2021 3279.01 7079.10 61.30 11.00 428.50 3032.17
   11:12:18.927.27-Mar-2021 3279.01 7078.82 61.30 11.00 428.70 3032.17
   11:12:19.127.27-Mar-2021 3279.01 7078.64 61.30 11.00 428.90 3032.17
   11:12:19.327.27-Mar-2021 3279.01 7078.30 61.30 11.00 429.10 3032.17
   11:12:19.527.27-Mar-2021 3279.01 7078.30 61.30 11.00 429.30 3032.17
