~Version Information
 VERS.                  2.0:   CWLS log ASCII Standard -VERSION 2.0
 WRAP.                   NO:   One line per depth step
~Well Information Block
#MNEM.UNIT     VALUE/NAME     DESCRIPTION
#---------     -----------    ---------------------------
 STRT.S             10:17:32 27-Mar-21: START TIME 10:17:32 27-Mar-21
 STOP.S             10:24:40 27-Mar-21: STOP TIME  10:24:40 27-Mar-21
 STEP.S                   0.00: STEP TIME
 NULL.                 -999.25: NULL VALUE
 DFWT.                        :  DIST FWL TEXT
 DFST.                        :  DIST FSL TEXT
 DMF .             Drill Floor:  DRILL MEAS FROM
 STIM.      20.26.40 11-Mar-21:  START TIME
 DATE.      20.26.40 30-Mar-21:  END TIME
 SPUD.               11-Mar-21:  SPUD DATE
 NREF.                    Grid:  NORTH REFERENCE
 HPTY.       Minimum Curvature:  HOLE POS TYPE
 DMOD.             Drill Model:  DRILL MOD DESC
 SVYD.                  Survey:  SURVEY DESC
 ILTD.               Lithology:  INTERP LTH DESC
 FTOP.          Formation Tops:  FORM TOPS DESC
 SON .        AZ-XX-0906805385:  JOB NUMBER
 WTYP.                Deviated:  WELL TYPE
 COMP.     BP Exploration (Caspian Sea) Ltd.:  COMPANY
 UWI .            /AZE00000198:  UNIQUE WELL IDENTIFIER
 API .            /AZE00000198:  API NUMBER
 BASE.              Azerbaijan:  LOGGING EQUIPMENT BASE LOCATION
 REGN.                   EESSA:  REGION
 PROV.                    Baku:  PROVINCE
 STAT.                    Baku:  STATE NAME
 CTRY.              Azerbaijan:  COUNTRY NAME
 FLD .                     ACG:  FIELD NAME
 SRVC.     Turan Drilling & Engineering:  CONTRACTOR
 MWDS.                    Baku:  MWD SHOP
 WELL.                    D09z:  WELL NAME
 JOBN.        AZ-XX-0906805385:  JOB TICKET NUMB
 RIG .              East Azeri:  RIG NAME
 DOE .                     N/A:  DOE NUMBER
 DCON.         Sperry Drilling:  DIRECTNL CONTR
 UNIT.                     N/A:  LOGGING EQUIPMENT ID
 PDAT.          Mean Sea Level:  PERMANENT DATUM
 MDS .        Operator Entered:  MAG DATA SOURCE
 CNTY.                        :  COUNTY
 LOC .                        :  LOCATION
 LMF .             Drill Floor:  LOG MEASURED FROM
 TVDS.m                  43.60:  TVDSS CORRECTN
 LATI.deg                40.02:  LATITUDE
 LONG.deg                51.45:  LONGITUDE
 WHNS.m                 -17.04:  WELL HEAD N/S
 WHEW.m                  -6.28:  WELL HEAD E/W
 UTMX.m              538763.98:  UTM X
 UTMY.m             4431880.20:  UTM Y
 DFWL.m                   0.00:  DISTANCE FWL
 DFSL.m                   0.00:  DISTANCE FSL
 SDEP.m                2680.01:  START DEPTH
 TDD .m                4000.01:  TOTAL DEPTH (DRILLER)
 VSDR.deg               225.71:  VERT SEC DIRECT
 GVFD.g                   1.00:  GRAVITY FIELD
 MFLD.nT              50353.00:  MAGNETIC FIELD
 MDIP.deg                59.49:  MAGNETIC DIP
 MDEC.deg                 6.46:  MAGNETIC DECL
 GRDC.deg                 0.29:  GRID CORRECTION
 AZTC.deg                 6.17:  AZM TOTAL CORR
 EPD .m                   0.00:  ELEVATION
 EGL .m                   0.00:  GROUND ELEVATION
 WDMS.m                 151.80:  WD ELEV
 APD .m                  43.60:  DEPTH ABOVE PD
 AGAP.m                  43.60:  AIR GAP
 VSEW.m                  -6.28:  VERT SEC E/W
 VSNS.m                 -17.04:  VERT SEC N/S
 DEP .m                2656.31:  DEPTH
 EKB .m                  43.60:  KB ELEVATION
 EDF .m                  43.60:  DF ELEVATION
 VSC .                       0:  VS TO CLOSURE
 MAGU.                 1851247:  MAGUTM CHECKSUM
~Parameter Information Block
#MNEM.UNIT       Value        Description
#---------     -----------    ---------------------------
 AV  .mps                 3.00:  Ann Velocity 
 AVMX.mps                 8.00:  Max Ann Veloc 
 AZIF.deg                 0.00:  Azm, Final 
 BHAT.                   Other:  BHA Type 
 BREV.rev                 0.00:  Rev Bit Total 
 BROT.°/30m               0.00:  Build Rotating 
 BS  .in                 10.25:  Bit Size 
 BTPL.psig              511.00:  Bit Press Loss 
 CABU.                      No:  Customer Abuse 
 CGEO.           Asif Pashayev:  Customer Geo 
 COMM.                     LLx:  Run Comments 1 
 TCS .hr                 24.03:  Time Ciculation Ended 
 CV  .mps                 3.50:  Crit Velocity 
 CVMX.mps                 4.00:  Max Crit Veloc 
 DD1 .             Aziz Aliyev:  Direct Drillr 1 
 DD2 .      Fakhraddin Guliyev:  Direct Drillr 2 
 DDSV.                   Other:  DD Service 
 DEFF.%                  99.00:  % Det Eff 
 DLRX.°/30m               0.00:  Dogleg Rot Max 
 DLSO.°/30m               0.00:  Dogleg Oriented 
 DLSX.°/30m               0.00:  Dogleg Str Max 
 DRET.      23.00.40 28-Mar-21:  Drill End Time 
 DRST.      23.30.40 25-Mar-21:  Drill Start Tim 
 DTIM.hr                  0.00:  Time Drilling 
 EDEP.m                3886.01:  End Depth 
 ENG1.         Almaz Almadatov:  Engineer 1 
 ENG2.      Artemiy Matviyanov:  Engineer 2 
 ENG3.           Samir Gafarov:  Engineer 3 
 ETIM.      23.00.40 28-Mar-21:  End Time 
 FLOI.gpm               550.00:  Flow In 
 FLON.gpm               500.00:  Flow In Min 
 FLOS.cptm                0.00:  Fluid Loss 
 FLOX.gpm               590.00:  Flow In Max 
 HFLO.                      No:  High Flow 
 HPRE.                      No:  High Pressure 
 HTEM.                      No:  High Temp 
 HYDO.m                   1.80:  Hydro Offset 
 IFIN.deg                 0.00:  Inc, Final 
 IMAX.deg                 0.00:  Inc Max 
 IMIN.deg                 0.00:  Inc Min 
 IMND.m                   0.00:  Inc Min Depth 
 IMXD.m                   0.00:  Inc Max Depth 
 JARR.                      No:  Jarring 
 LETM.      03.22.40 28-Mar-21:  Log End Time 
 LOST.hr                     0:  Lost Rig Time 
 LSTM.      23.30.40 25-Mar-21:  Log Start Time 
 MDCL.ppm             34000.00:  Mud Chlorides 
 MDES.     Inversion Oil/Synthetic:  Mud Desc 
 DFD .sg                  1.51:  Mud Density 
 MDMN.sg                  1.51:  Dens Mud Min 
 MDMX.sg                  1.51:  Dens Mud Max 
 MOIL.                      70:  Run Mud Oil % 
 MOWR.                   70:30:  Run Mud OWR 
 MSND.                     0.2:  Run Mud Sand % 
 MSOL.                   21.60:  Run Mud Solids% 
 DFV .spqt               74.00:  Mud Viscosity 
 MWOD.in                  6.75:  MWD Tool OD 
 MWSI.                      No:  Serv Intrp, MWD 
 OTIM.hr                 69.09:  Time Operating 
 PCON.           Look Like New:  Pad Condition 
 PMAX.psia             3500.00:  Press Op, Max 
 PV  .cP                 70.00:  Mud PV 
 RUN .                     400:  Run Number 
 ROPA.m/hr                0.00:  ROP Avg 
 ROPN.m/hr                0.00:  ROP Min 
 ROPX.m/hr                0.00:  ROP Max 
 RPMA.rpm                80.00:  RPM Surface Avg 
 RPMN.rpm                10.00:  RPM Surface Min 
 RPMX.rpm               100.00:  RPM Surface Max 
 RRUN.                    0400:  Rig Run Number 
 RTIM.hr                  3.00:  Time Reaming 
 SAZI.deg                 0.00:  Azm, Start 
 SDEP.m                3886.01:  Start Depth 
 SIDD.                      No:  Serv Intrp, DD 
 SINC.deg                 0.00:  Inc, Start 
 SPPA.psig             3270.00:  SPP Avg 
 SPPN.psig             3220.00:  SPP Min 
 SPPX.psig             4430.00:  SPP Max 
 STIM.      23.30.40 25-Mar-21:  Start Time 
 SVCS.                 DD, MWD:  Services 
 SVER.                    9.20:  Sperry Version 
 TDAT.m                   0.00:  Tot Depth Attmp 
 TDDF.                      No:  Trip for DD 
 TFF .                      No:  Trip for Fail 
 TQAA.f-kp                8.00:  Torque Abs Avg 
 TQAN.f-kp                7.00:  Torque Abs Min 
 TQAX.f-kp               11.00:  Torque Abs Max 
 TRRT.°/30m               0.00:  Turn Rotating 
 MRT .                  EWR-M5:  Maximum Recorded Temperature 
 TTMX.degC               76.47:  Max Tool Temp 
 VS01.                90640857:  Virtual Str1 SN 
 VS02.                90639246:  Virtual Str2 SN 
 VS03.                90642265:  Virtual Str3 SN 
 VS04.                11654497:  Virtual Str4 SN 
 WBMN.klb                 0.00:  WOB Min 
 WITN.      Kamran Keberlinkiy:  Customer Rep 
 WITN.           Murad Guliyev:  Customer Rep 2 
 WOBA.klb                 0.00:  WOB Avg 
 WOBX.klb                 0.00:  WOB Max 
 YP  .lhf2               36.00:  Yield Point 
~Curve Information Block
#MNEM.UNIT                 API CODE     Curve Description
#---------               -----------    ---------------------------
 TIME.HHMMSS            00 000 000 000:  GT Time & Date
 GTDEPTH.m              00 000 000 000:  GT Depth
 GTPQH.psia             00 000 000 000:  GT HR Quartz Pressure
 GTTQ.degC              00 000 000 000:  GT Quartz Temperature
 GTTN.NONE              00 000 000 000:  GT Test Number
 GTET.sec               00 000 000 000:  GT Elapsed Test Time
 GTTVD.m                00 000 000 000:  GT True Vertical Depth
#Other Information
#
#WARRANTY: Halliburton will use its best efforts to furnish customers with 
#accurate information and interpretations that are part of, and incident to, the services 
#provided.  However, Halliburton cannot and does not warrant the accuracy 
#or correctness of such information and interpretations.  Under no circumstances should any 
#such information or interpretation be relied upon as the sole basis for any drilling, 
#completion, production, or financial decision or any procedure involving any risk to the 
#safety of any drilling venture, drilling rig or its crew or any other third party.  The 
#Customer has full responsibility for all drilling, completion and production operation.  
#Halliburton makes no representations or warranties, either expressed or 
#implied, including, but not limited to, the implied warranties of merchantability or fitness 
#for a particular purpose, with respect to the services rendered.  In no event will 
#Halliburton be liable for failure to obtain any particular results or for 
#any damages, including, but not limited to, indirect, special or consequential damages, 
#resulting from the use of any information or interpretation provided by Halliburton.
#
~A           TIME           GTDEPTH  GTPQH  GTTQ  GTTN   GTET   GTTVD  
# ...
   10:19:47.600.27-Mar-2021 3325.51 4588.71 61.04 10.00 135.60 3075.77
   10:19:47.800.27-Mar-2021 3325.51 4588.72 61.04 10.00 135.80 3075.77
   10:19:48.000.27-Mar-2021 3325.51 4588.91 61.04 10.00 136.00 3075.77
   10:19:48.200.27-Mar-2021 3325.51 4588.91 61.04 10.00 136.20 3075.77
   10:19:48.400.27-Mar-2021 3325.51 4588.73 61.04 10.00 136.40 3075.77
   10:19:48.600.27-Mar-2021 3325.51 4588.70 61.04 10.00 136.60 3075.77
   10:19:48.800.27-Mar-2021 3325.51 4588.74 61.04 10.00 136.80 3075.77
   10:19:49.000.27-Mar-2021 3325.51 4588.71 61.04 10.00 137.00 3075.77
   10:19:49.200.27-Mar-2021 3325.51 4588.71 61.04 10.00 137.20 3075.77
   10:19:49.400.27-Mar-2021 3325.51 4588.70 61.04 10.00 137.40 3075.77
   10:19:49.600.27-Mar-2021 3325.51 4588.74 61.04 10.00 137.60 3075.77
   10:19:49.800.27-Mar-2021 3325.51 4588.80 61.04 10.00 137.80 3075.77
   10:19:50.000.27-Mar-2021 3325.51 4588.70 61.04 10.00 138.00 3075.77
   10:19:50.200.27-Mar-2021 3325.51 4588.70 61.04 10.00 138.20 3075.77
   10:19:50.400.27-Mar-2021 3325.51 4588.67 61.04 10.00 138.40 3075.77
   10:19:50.600.27-Mar-2021 3325.51 4588.81 61.04 10.00 138.60 3075.77
   10:19:50.800.27-Mar-2021 3325.51 4588.80 61.04 10.00 138.80 3075.77
   10:19:51.000.27-Mar-2021 3325.51 4588.63 61.04 10.00 139.00 3075.77
   10:19:51.200.27-Mar-2021 3325.51 4588.63 61.04 10.00 139.20 3075.77
   10:19:51.400.27-Mar-2021 3325.51 4588.70 61.04 10.00 139.40 3075.77
   10:19:51.600.27-Mar-2021 3325.51 4588.85 61.04 10.00 139.60 3075.77
   10:19:51.800.27-Mar-2021 3325.51 4588.66 61.04 10.00 139.80 3075.77
   10:19:52.000.27-Mar-2021 3325.51 4588.75 61.04 10.00 140.00 3075.77
   10:19:52.200.27-Mar-2021 3325.51 4588.75 61.04 10.00 140.20 3075.77
   10:19:52.400.27-Mar-2021 3325.51 4588.76 61.04 10.00 140.40 3075.77
   10:19:52.600.27-Mar-2021 3325.51 4588.68 61.04 10.00 140.60 3075.77
   10:19:52.800.27-Mar-2021 3325.51 4588.63 61.04 10.00 140.80 3075.77
   10:19:53.000.27-Mar-2021 3325.51 4588.76 61.04 10.00 141.00 3075.77
   10:19:53.200.27-Mar-2021 3325.51 4588.76 61.04 10.00 141.20 3075.77
   10:19:53.400.27-Mar-2021 3325.51 4588.79 61.04 10.00 141.40 3075.77
   10:19:53.600.27-Mar-2021 3325.51 4588.72 61.04 10.00 141.60 3075.77
   10:19:53.800.27-Mar-2021 3325.51 4588.69 61.04 10.00 141.80 3075.77
   10:19:54.000.27-Mar-2021 3325.51 4588.74 61.04 10.00 142.00 3075.77
   10:19:54.200.27-Mar-2021 3325.51 4588.74 61.04 10.00 142.20 3075.77
   10:19:54.400.27-Mar-2021 3325.51 4588.73 61.04 10.00 142.40 3075.77
   10:19:54.600.27-Mar-2021 3325.51 4588.67 61.04 10.00 142.60 3075.77
   10:19:54.800.27-Mar-2021 3325.51 4588.84 61.04 10.00 142.80 3075.77
   10:19:55.000.27-Mar-2021 3325.51 4588.75 61.04 10.00 143.00 3075.77
   10:19:55.200.27-Mar-2021 3325.51 4588.75 61.04 10.00 143.20 3075.77
   10:19:55.400.27-Mar-2021 3325.51 4588.82 61.04 10.00 143.40 3075.77
   10:19:55.600.27-Mar-2021 3325.51 4588.65 61.04 10.00 143.60 3075.77
   10:19:55.800.27-Mar-2021 3325.51 4588.71 61.04 10.00 143.80 3075.77
   10:19:56.000.27-Mar-2021 3325.51 4588.72 61.04 10.00 144.00 3075.77
   10:19:56.200.27-Mar-2021 3325.51 4588.72 61.04 10.00 144.20 3075.77
   10:19:56.400.27-Mar-2021 3325.51 4588.73 61.04 10.00 144.40 3075.77
   10:19:56.600.27-Mar-2021 3325.51 4588.69 61.04 10.00 144.60 3075.77
   10:19:56.800.27-Mar-2021 3325.51 4588.78 61.04 10.00 144.80 3075.77
   10:19:57.000.27-Mar-2021 3325.51 4588.63 61.04 10.00 145.00 3075.77
   10:19:57.200.27-Mar-2021 3325.51 4588.63 61.04 10.00 145.20 3075.77
   10:19:57.400.27-Mar-2021 3325.51 4588.83 61.04 10.00 145.40 3075.77
   10:19:57.600.27-Mar-2021 3325.51 4588.64 61.05 10.00 145.60 3075.77
   10:19:57.800.27-Mar-2021 3325.51 4588.72 61.05 10.00 145.80 3075.77
   10:19:58.000.27-Mar-2021 3325.51 4588.73 61.05 10.00 146.00 3075.77
   10:19:58.200.27-Mar-2021 3325.51 4588.73 61.05 10.00 146.20 3075.77
   10:19:58.400.27-Mar-2021 3325.51 4588.76 61.05 10.00 146.40 3075.77
   10:19:58.600.27-Mar-2021 3325.51 4588.69 61.05 10.00 146.60 3075.77
   10:19:58.800.27-Mar-2021 3325.51 4588.76 61.05 10.00 146.80 3075.77
   10:19:59.000.27-Mar-2021 3325.51 4588.62 61.05 10.00 147.00 3075.77
   10:19:59.200.27-Mar-2021 3325.51 4588.62 61.05 10.00 147.20 3075.77
   10:19:59.400.27-Mar-2021 3325.51 4588.74 61.05 10.00 147.40 3075.77
   10:19:59.600.27-Mar-2021 3325.51 4588.72 61.05 10.00 147.60 3075.77
   10:19:59.800.27-Mar-2021 3325.51 4588.69 61.05 10.00 147.80 3075.77
   10:20:00.000.27-Mar-2021 3325.51 4588.74 61.05 10.00 148.00 3075.77
   10:20:00.200.27-Mar-2021 3325.51 4588.74 61.05 10.00 148.20 3075.77
   10:20:00.400.27-Mar-2021 3325.51 4588.69 61.05 10.00 148.40 3075.77
   10:20:00.600.27-Mar-2021 3325.51 4588.71 61.05 10.00 148.60 3075.77
   10:20:00.800.27-Mar-2021 3325.51 4588.78 61.05 10.00 148.80 3075.77
   10:20:01.000.27-Mar-2021 3325.51 4588.63 61.05 10.00 149.00 3075.77
   10:20:01.200.27-Mar-2021 3325.51 4588.63 61.05 10.00 149.20 3075.77
   10:20:01.400.27-Mar-2021 3325.51 4588.42 61.05 10.00 149.40 3075.77
   10:20:01.600.27-Mar-2021 3325.51 4589.00 61.05 10.00 149.60 3075.77
   10:20:01.800.27-Mar-2021 3325.51 4588.64 61.05 10.00 149.80 3075.77
   10:20:02.000.27-Mar-2021 3325.51 4588.71 61.05 10.00 150.00 3075.77
   10:20:02.200.27-Mar-2021 3325.51 4588.71 61.05 10.00 150.20 3075.77
   10:20:02.400.27-Mar-2021 3325.51 4588.62 61.05 10.00 150.40 3075.77
   10:20:02.600.27-Mar-2021 3325.51 4588.78 61.05 10.00 150.60 3075.77
   10:20:02.800.27-Mar-2021 3325.51 4588.76 61.05 10.00 150.80 3075.77
   10:20:03.000.27-Mar-2021 3325.51 4588.77 61.05 10.00 151.00 3075.77
   10:20:03.200.27-Mar-2021 3325.51 4588.77 61.05 10.00 151.20 3075.77
   10:20:03.400.27-Mar-2021 3325.51 4588.68 61.05 10.00 151.40 3075.77
   10:20:03.600.27-Mar-2021 3325.51 4588.71 61.05 10.00 151.60 3075.77
   10:20:03.800.27-Mar-2021 3325.51 4588.71 61.05 10.00 151.80 3075.77
   10:20:04.000.27-Mar-2021 3325.51 4588.78 61.05 10.00 152.00 3075.77
   10:20:04.200.27-Mar-2021 3325.51 4588.78 61.05 10.00 152.20 3075.77
   10:20:04.400.27-Mar-2021 3325.51 4588.75 61.05 10.00 152.40 3075.77
   10:20:04.600.27-Mar-2021 3325.51 4588.48 61.05 10.00 152.60 3075.77
   10:20:04.800.27-Mar-2021 3325.51 4588.94 61.05 10.00 152.80 3075.77
   10:20:05.000.27-Mar-2021 3325.51 4588.68 61.05 10.00 153.00 3075.77
   10:20:05.200.27-Mar-2021 3325.51 4588.68 61.05 10.00 153.20 3075.77
   10:20:05.400.27-Mar-2021 3325.51 4588.78 61.05 10.00 153.40 3075.77
   10:20:05.600.27-Mar-2021 3325.51 4588.63 61.05 10.00 153.60 3075.77
   10:20:05.800.27-Mar-2021 3325.51 4588.75 61.05 10.00 153.80 3075.77
   10:20:06.000.27-Mar-2021 3325.51 4588.70 61.05 10.00 154.00 3075.77
   10:20:06.200.27-Mar-2021 3325.51 4588.70 61.05 10.00 154.20 3075.77
   10:20:06.400.27-Mar-2021 3325.51 4588.72 61.05 10.00 154.40 3075.77
   10:20:06.600.27-Mar-2021 3325.51 4588.75 61.05 10.00 154.60 3075.77
   10:20:06.800.27-Mar-2021 3325.51 4588.70 61.05 10.00 154.80 3075.77
   10:20:07.000.27-Mar-2021 3325.51 4588.79 61.05 10.00 155.00 3075.77
   10:20:07.200.27-Mar-2021 3325.51 4588.79 61.05 10.00 155.20 3075.77
   10:20:07.400.27-Mar-2021 3325.51 4588.93 61.05 10.00 155.40 3075.77
   10:20:07.600.27-Mar-2021 3325.51 4588.60 61.05 10.00 155.60 3075.77
   10:20:07.800.27-Mar-2021 3325.51 4588.70 61.05 10.00 155.80 3075.77
   10:20:08.000.27-Mar-2021 3325.51 4588.71 61.05 10.00 156.00 3075.77
   10:20:08.200.27-Mar-2021 3325.51 4588.71 61.05 10.00 156.20 3075.77
   10:20:08.400.27-Mar-2021 3325.51 4588.65 61.05 10.00 156.40 3075.77
   10:20:08.600.27-Mar-2021 3325.51 4588.80 61.05 10.00 156.60 3075.77
   10:20:08.800.27-Mar-2021 3325.51 4588.65 61.05 10.00 156.80 3075.77
   10:20:09.000.27-Mar-2021 3325.51 4588.72 61.05 10.00 157.00 3075.77
   10:20:09.200.27-Mar-2021 3325.51 4588.72 61.05 10.00 157.20 3075.77
   10:20:09.400.27-Mar-2021 3325.51 4588.68 61.05 10.00 157.40 3075.77
   10:20:09.600.27-Mar-2021 3325.51 4588.73 61.05 10.00 157.60 3075.77
   10:20:09.800.27-Mar-2021 3325.51 4588.67 61.05 10.00 157.80 3075.77
   10:20:10.000.27-Mar-2021 3325.51 4588.61 61.05 10.00 158.00 3075.77
