~Version Information
 VERS.                  2.0:   CWLS log ASCII Standard -VERSION 2.0
 WRAP.                   NO:   One line per depth step
~Well Information Block
#MNEM.UNIT     VALUE/NAME     DESCRIPTION
#---------     -----------    ---------------------------
 STRT.S             09:03:10 27-Mar-21: START TIME 09:03:10 27-Mar-21
 STOP.S             09:10:16 27-Mar-21: STOP TIME  09:10:16 27-Mar-21
 STEP.S                   0.00: STEP TIME
 NULL.                 -999.25: NULL VALUE
 DFWT.                        :  DIST FWL TEXT
 DFST.                        :  DIST FSL TEXT
 DMF .             Drill Floor:  DRILL MEAS FROM
 STIM.      20.26.40 11-Mar-21:  START TIME
 DATE.      20.26.40 30-Mar-21:  END TIME
 SPUD.               11-Mar-21:  SPUD DATE
 NREF.                    Grid:  NORTH REFERENCE
 HPTY.       Minimum Curvature:  HOLE POS TYPE
 DMOD.             Drill Model:  DRILL MOD DESC
 SVYD.                  Survey:  SURVEY DESC
 ILTD.               Lithology:  INTERP LTH DESC
 FTOP.          Formation Tops:  FORM TOPS DESC
 SON .        AZ-XX-0906805385:  JOB NUMBER
 WTYP.                Deviated:  WELL TYPE
 COMP.     BP Exploration (Caspian Sea) Ltd.:  COMPANY
 UWI .            /AZE00000198:  UNIQUE WELL IDENTIFIER
 API .            /AZE00000198:  API NUMBER
 BASE.              Azerbaijan:  LOGGING EQUIPMENT BASE LOCATION
 REGN.                   EESSA:  REGION
 PROV.                    Baku:  PROVINCE
 STAT.                    Baku:  STATE NAME
 CTRY.              Azerbaijan:  COUNTRY NAME
 FLD .                     ACG:  FIELD NAME
 SRVC.     Turan Drilling & Engineering:  CONTRACTOR
 MWDS.                    Baku:  MWD SHOP
 WELL.                    D09z:  WELL NAME
 JOBN.        AZ-XX-0906805385:  JOB TICKET NUMB
 RIG .              East Azeri:  RIG NAME
 DOE .                     N/A:  DOE NUMBER
 DCON.         Sperry Drilling:  DIRECTNL CONTR
 UNIT.                     N/A:  LOGGING EQUIPMENT ID
 PDAT.          Mean Sea Level:  PERMANENT DATUM
 MDS .        Operator Entered:  MAG DATA SOURCE
 CNTY.                        :  COUNTY
 LOC .                        :  LOCATION
 LMF .             Drill Floor:  LOG MEASURED FROM
 TVDS.m                  43.60:  TVDSS CORRECTN
 LATI.deg                40.02:  LATITUDE
 LONG.deg                51.45:  LONGITUDE
 WHNS.m                 -17.04:  WELL HEAD N/S
 WHEW.m                  -6.28:  WELL HEAD E/W
 UTMX.m              538763.98:  UTM X
 UTMY.m             4431880.20:  UTM Y
 DFWL.m                   0.00:  DISTANCE FWL
 DFSL.m                   0.00:  DISTANCE FSL
 SDEP.m                2680.01:  START DEPTH
 TDD .m                4000.01:  TOTAL DEPTH (DRILLER)
 VSDR.deg               225.71:  VERT SEC DIRECT
 GVFD.g                   1.00:  GRAVITY FIELD
 MFLD.nT              50353.00:  MAGNETIC FIELD
 MDIP.deg                59.49:  MAGNETIC DIP
 MDEC.deg                 6.46:  MAGNETIC DECL
 GRDC.deg                 0.29:  GRID CORRECTION
 AZTC.deg                 6.17:  AZM TOTAL CORR
 EPD .m                   0.00:  ELEVATION
 EGL .m                   0.00:  GROUND ELEVATION
 WDMS.m                 151.80:  WD ELEV
 APD .m                  43.60:  DEPTH ABOVE PD
 AGAP.m                  43.60:  AIR GAP
 VSEW.m                  -6.28:  VERT SEC E/W
 VSNS.m                 -17.04:  VERT SEC N/S
 DEP .m                2656.31:  DEPTH
 EKB .m                  43.60:  KB ELEVATION
 EDF .m                  43.60:  DF ELEVATION
 VSC .                       0:  VS TO CLOSURE
 MAGU.                 1851247:  MAGUTM CHECKSUM
~Parameter Information Block
#MNEM.UNIT       Value        Description
#---------     -----------    ---------------------------
 AV  .mps                 3.00:  Ann Velocity 
 AVMX.mps                 8.00:  Max Ann Veloc 
 AZIF.deg                 0.00:  Azm, Final 
 BHAT.                   Other:  BHA Type 
 BREV.rev                 0.00:  Rev Bit Total 
 BROT.°/30m               0.00:  Build Rotating 
 BS  .in                 10.25:  Bit Size 
 BTPL.psig              511.00:  Bit Press Loss 
 CABU.                      No:  Customer Abuse 
 CGEO.           Asif Pashayev:  Customer Geo 
 TCS .hr                 24.03:  Time Ciculation Ended 
 CV  .mps                 3.50:  Crit Velocity 
 CVMX.mps                 4.00:  Max Crit Veloc 
 DD1 .             Aziz Aliyev:  Direct Drillr 1 
 DD2 .      Fakhraddin Guliyev:  Direct Drillr 2 
 DDSV.                   Other:  DD Service 
 DEFF.%                  99.00:  % Det Eff 
 DLRX.°/30m               0.00:  Dogleg Rot Max 
 DLSO.°/30m               0.00:  Dogleg Oriented 
 DLSX.°/30m               0.00:  Dogleg Str Max 
 DRET.      23.00.40 28-Mar-21:  Drill End Time 
 DRST.      23.30.40 25-Mar-21:  Drill Start Tim 
 DTIM.hr                  0.00:  Time Drilling 
 EDEP.m                3886.01:  End Depth 
 ENG1.         Almaz Almadatov:  Engineer 1 
 ENG2.      Artemiy Matviyanov:  Engineer 2 
 ENG3.           Samir Gafarov:  Engineer 3 
 ETIM.      23.00.40 28-Mar-21:  End Time 
 FLOI.gpm               550.00:  Flow In 
 FLON.gpm               500.00:  Flow In Min 
 FLOS.cptm                0.00:  Fluid Loss 
 FLOX.gpm               590.00:  Flow In Max 
 HFLO.                      No:  High Flow 
 HPRE.                      No:  High Pressure 
 HTEM.                      No:  High Temp 
 HYDO.m                   1.80:  Hydro Offset 
 IFIN.deg                 0.00:  Inc, Final 
 IMAX.deg                 0.00:  Inc Max 
 IMIN.deg                 0.00:  Inc Min 
 IMND.m                   0.00:  Inc Min Depth 
 IMXD.m                   0.00:  Inc Max Depth 
 JARR.                      No:  Jarring 
 LETM.      03.22.40 28-Mar-21:  Log End Time 
 LOST.hr                     0:  Lost Rig Time 
 LSTM.      23.30.40 25-Mar-21:  Log Start Time 
 MDCL.ppm             34000.00:  Mud Chlorides 
 MDES.     Inversion Oil/Synthetic:  Mud Desc 
 DFD .sg                  1.51:  Mud Density 
 MDMN.sg                  1.51:  Dens Mud Min 
 MDMX.sg                  1.51:  Dens Mud Max 
 MOIL.                      70:  Run Mud Oil % 
 MOWR.                   70:30:  Run Mud OWR 
 MSND.                     0.2:  Run Mud Sand % 
 MSOL.                   21.60:  Run Mud Solids% 
 DFV .spqt               74.00:  Mud Viscosity 
 MWOD.in                  6.75:  MWD Tool OD 
 MWSI.                      No:  Serv Intrp, MWD 
 OTIM.hr                 69.09:  Time Operating 
 PCON.           Look Like New:  Pad Condition 
 PMAX.psia             3500.00:  Press Op, Max 
 PV  .cP                 70.00:  Mud PV 
 RUN .                     400:  Run Number 
 ROPA.m/hr                0.00:  ROP Avg 
 ROPN.m/hr                0.00:  ROP Min 
 ROPX.m/hr                0.00:  ROP Max 
 RPMA.rpm                80.00:  RPM Surface Avg 
 RPMN.rpm                10.00:  RPM Surface Min 
 RPMX.rpm               100.00:  RPM Surface Max 
 RRUN.                    0400:  Rig Run Number 
 RTIM.hr                  3.00:  Time Reaming 
 SAZI.deg                 0.00:  Azm, Start 
 SDEP.m                3886.01:  Start Depth 
 SIDD.                      No:  Serv Intrp, DD 
 SINC.deg                 0.00:  Inc, Start 
 SPPA.psig             3270.00:  SPP Avg 
 SPPN.psig             3220.00:  SPP Min 
 SPPX.psig             4430.00:  SPP Max 
 STIM.      23.30.40 25-Mar-21:  Start Time 
 SVCS.                 DD, MWD:  Services 
 SVER.                    9.20:  Sperry Version 
 TDAT.m                   0.00:  Tot Depth Attmp 
 TDDF.                      No:  Trip for DD 
 TFF .                      No:  Trip for Fail 
 TQAA.f-kp                8.00:  Torque Abs Avg 
 TQAN.f-kp                7.00:  Torque Abs Min 
 TQAX.f-kp               11.00:  Torque Abs Max 
 TRRT.°/30m               0.00:  Turn Rotating 
 MRT .                  EWR-M5:  Maximum Recorded Temperature 
 TTMX.degC               76.47:  Max Tool Temp 
 VS01.                90640857:  Virtual Str1 SN 
 VS02.                90639246:  Virtual Str2 SN 
 VS03.                90642265:  Virtual Str3 SN 
 VS04.                11654497:  Virtual Str4 SN 
 WBMN.klb                 0.00:  WOB Min 
 WITN.      Kamran Keberlinkiy:  Customer Rep 
 WITN.           Murad Guliyev:  Customer Rep 2 
 WOBA.klb                 0.00:  WOB Avg 
 WOBX.klb                 0.00:  WOB Max 
 YP  .lhf2               36.00:  Yield Point 
~Curve Information Block
#MNEM.UNIT                 API CODE     Curve Description
#---------               -----------    ---------------------------
 TIME.HHMMSS            00 000 000 000:  GT Time & Date
 GTDEPTH.m              00 000 000 000:  GT Depth
 GTPQH.psia             00 000 000 000:  GT HR Quartz Pressure
 GTTQ.degC              00 000 000 000:  GT Quartz Temperature
 GTTN.NONE              00 000 000 000:  GT Test Number
 GTET.sec               00 000 000 000:  GT Elapsed Test Time
 GTTVD.m                00 000 000 000:  GT True Vertical Depth
#Other Information
#
#WARRANTY: Halliburton will use its best efforts to furnish customers with 
#accurate information and interpretations that are part of, and incident to, the services 
#provided.  However, Halliburton cannot and does not warrant the accuracy 
#or correctness of such information and interpretations.  Under no circumstances should any 
#such information or interpretation be relied upon as the sole basis for any drilling, 
#completion, production, or financial decision or any procedure involving any risk to the 
#safety of any drilling venture, drilling rig or its crew or any other third party.  The 
#Customer has full responsibility for all drilling, completion and production operation.  
#Halliburton makes no representations or warranties, either expressed or 
#implied, including, but not limited to, the implied warranties of merchantability or fitness 
#for a particular purpose, with respect to the services rendered.  In no event will 
#Halliburton be liable for failure to obtain any particular results or for 
#any damages, including, but not limited to, indirect, special or consequential damages, 
#resulting from the use of any information or interpretation provided by Halliburton.
#
~A           TIME           GTDEPTH  GTPQH  GTTQ  GTTN  GTET   GTTVD  
# ...
   09:09:41.000.27-Mar-2021 3361.51 7252.48 61.04 8.00 391.00 3109.50
   09:09:41.200.27-Mar-2021 3361.51 7252.48 61.04 8.00 391.20 3109.50
   09:09:41.400.27-Mar-2021 3361.51 7252.43 61.04 8.00 391.40 3109.50
   09:09:41.600.27-Mar-2021 3361.51 7256.16 61.04 8.00 391.60 3109.50
   09:09:41.800.27-Mar-2021 3361.51 7252.09 61.04 8.00 391.80 3109.50
   09:09:42.000.27-Mar-2021 3361.51 7252.95 61.04 8.00 392.00 3109.50
   09:09:42.200.27-Mar-2021 3361.51 7252.95 61.04 8.00 392.20 3109.50
   09:09:42.400.27-Mar-2021 3361.51 7256.24 61.04 8.00 392.40 3109.50
   09:09:42.600.27-Mar-2021 3361.51 7252.23 61.04 8.00 392.60 3109.50
   09:09:42.800.27-Mar-2021 3361.51 7252.55 61.04 8.00 392.80 3109.50
   09:09:43.000.27-Mar-2021 3361.51 7252.21 61.04 8.00 393.00 3109.50
   09:09:43.200.27-Mar-2021 3361.51 7252.21 61.04 8.00 393.20 3109.50
   09:09:43.400.27-Mar-2021 3361.51 7252.59 61.04 8.00 393.40 3109.50
   09:09:43.600.27-Mar-2021 3361.51 7252.06 61.04 8.00 393.60 3109.50
   09:09:43.800.27-Mar-2021 3361.51 7254.07 61.04 8.00 393.80 3109.50
   09:09:44.000.27-Mar-2021 3361.51 7254.65 61.04 8.00 394.00 3109.50
   09:09:44.200.27-Mar-2021 3361.51 7254.65 61.04 8.00 394.20 3109.50
   09:09:44.400.27-Mar-2021 3361.51 7253.25 61.04 8.00 394.40 3109.50
   09:09:44.600.27-Mar-2021 3361.51 7252.95 61.04 8.00 394.60 3109.50
   09:09:44.800.27-Mar-2021 3361.51 7253.32 61.04 8.00 394.80 3109.50
   09:09:45.000.27-Mar-2021 3361.51 7253.58 61.04 8.00 395.00 3109.50
   09:09:45.200.27-Mar-2021 3361.51 7253.58 61.04 8.00 395.20 3109.50
   09:09:45.400.27-Mar-2021 3361.51 7256.59 61.04 8.00 395.40 3109.50
   09:09:45.600.27-Mar-2021 3361.51 7252.64 61.04 8.00 395.60 3109.50
   09:09:45.800.27-Mar-2021 3361.51 7253.26 61.04 8.00 395.80 3109.50
   09:09:46.000.27-Mar-2021 3361.51 7253.00 61.04 8.00 396.00 3109.50
   09:09:46.200.27-Mar-2021 3361.51 7253.00 61.04 8.00 396.20 3109.50
   09:09:46.400.27-Mar-2021 3361.51 7253.48 61.04 8.00 396.40 3109.50
   09:09:46.600.27-Mar-2021 3361.51 7252.39 61.04 8.00 396.60 3109.50
   09:09:46.800.27-Mar-2021 3361.51 7252.46 61.04 8.00 396.80 3109.50
   09:09:47.000.27-Mar-2021 3361.51 7253.09 61.04 8.00 397.00 3109.50
   09:09:47.200.27-Mar-2021 3361.51 7253.09 61.04 8.00 397.20 3109.50
   09:09:47.400.27-Mar-2021 3361.51 7252.76 61.04 8.00 397.40 3109.50
   09:09:47.600.27-Mar-2021 3361.51 7252.76 61.04 8.00 397.60 3109.50
   09:09:47.800.27-Mar-2021 3361.51 7252.86 61.04 8.00 397.80 3109.50
   09:09:48.000.27-Mar-2021 3361.51 7252.46 61.04 8.00 398.00 3109.50
   09:09:48.200.27-Mar-2021 3361.51 7252.46 61.04 8.00 398.20 3109.50
   09:09:48.400.27-Mar-2021 3361.51 7252.65 61.04 8.00 398.40 3109.50
   09:09:48.600.27-Mar-2021 3361.51 7256.35 61.04 8.00 398.60 3109.50
   09:09:48.800.27-Mar-2021 3361.51 7251.07 61.04 8.00 398.80 3109.50
   09:09:49.000.27-Mar-2021 3361.51 7252.51 61.04 8.00 399.00 3109.50
   09:09:49.200.27-Mar-2021 3361.51 7252.51 61.04 8.00 399.20 3109.50
   09:09:49.400.27-Mar-2021 3361.51 7252.18 61.03 8.00 399.40 3109.50
   09:09:49.600.27-Mar-2021 3361.51 7252.24 61.03 8.00 399.60 3109.50
   09:09:49.800.27-Mar-2021 3361.51 7252.37 61.03 8.00 399.80 3109.50
   09:09:50.000.27-Mar-2021 3361.51 7251.90 61.03 8.00 400.00 3109.50
   09:09:50.200.27-Mar-2021 3361.51 7251.90 61.03 8.00 400.20 3109.50
   09:09:50.400.27-Mar-2021 3361.51 7251.77 61.03 8.00 400.40 3109.50
   09:09:50.600.27-Mar-2021 3361.51 7252.45 61.03 8.00 400.60 3109.50
   09:09:50.800.27-Mar-2021 3361.51 7252.38 61.03 8.00 400.80 3109.50
   09:09:51.000.27-Mar-2021 3361.51 7252.01 61.03 8.00 401.00 3109.50
   09:09:51.200.27-Mar-2021 3361.51 7252.01 61.03 8.00 401.20 3109.50
   09:09:51.400.27-Mar-2021 3361.51 7255.98 61.03 8.00 401.40 3109.50
   09:09:51.600.27-Mar-2021 3361.51 7252.28 61.03 8.00 401.60 3109.50
   09:09:51.800.27-Mar-2021 3361.51 7253.08 61.03 8.00 401.80 3109.50
   09:09:52.000.27-Mar-2021 3361.51 7252.66 61.03 8.00 402.00 3109.50
   09:09:52.200.27-Mar-2021 3361.51 7252.66 61.03 8.00 402.20 3109.50
   09:09:52.400.27-Mar-2021 3361.51 7252.57 61.03 8.00 402.40 3109.50
   09:09:52.600.27-Mar-2021 3361.51 7252.42 61.03 8.00 402.60 3109.50
   09:09:52.800.27-Mar-2021 3361.51 7252.30 61.03 8.00 402.80 3109.50
   09:09:53.000.27-Mar-2021 3361.51 7252.59 61.03 8.00 403.00 3109.50
   09:09:53.200.27-Mar-2021 3361.51 7252.59 61.03 8.00 403.20 3109.50
   09:09:53.400.27-Mar-2021 3361.51 7252.08 61.03 8.00 403.40 3109.50
   09:09:53.600.27-Mar-2021 3361.51 7256.72 61.03 8.00 403.60 3109.50
   09:09:53.800.27-Mar-2021 3361.51 7252.03 61.03 8.00 403.80 3109.50
   09:09:54.000.27-Mar-2021 3361.51 7252.63 61.03 8.00 404.00 3109.50
   09:09:54.200.27-Mar-2021 3361.51 7252.63 61.03 8.00 404.20 3109.50
   09:09:54.400.27-Mar-2021 3361.51 7253.03 61.03 8.00 404.40 3109.50
   09:09:54.600.27-Mar-2021 3361.51 7253.19 61.03 8.00 404.60 3109.50
   09:09:54.800.27-Mar-2021 3361.51 7253.19 61.03 8.00 404.80 3109.50
   09:09:55.000.27-Mar-2021 3361.51 7254.02 61.03 8.00 405.00 3109.50
   09:09:55.200.27-Mar-2021 3361.51 7254.02 61.03 8.00 405.20 3109.50
   09:09:55.400.27-Mar-2021 3361.51 7252.62 61.03 8.00 405.40 3109.50
   09:09:55.600.27-Mar-2021 3361.51 7253.25 61.03 8.00 405.60 3109.50
   09:09:55.800.27-Mar-2021 3361.51 7252.68 61.03 8.00 405.80 3109.50
   09:09:56.000.27-Mar-2021 3361.51 7252.91 61.03 8.00 406.00 3109.50
   09:09:56.200.27-Mar-2021 3361.51 7252.91 61.03 8.00 406.20 3109.50
   09:09:56.400.27-Mar-2021 3361.51 7252.10 61.03 8.00 406.40 3109.50
   09:09:56.600.27-Mar-2021 3361.51 7252.96 61.03 8.00 406.60 3109.50
   09:09:56.800.27-Mar-2021 3361.51 7252.59 61.03 8.00 406.80 3109.50
   09:09:57.000.27-Mar-2021 3361.51 7252.77 61.03 8.00 407.00 3109.50
   09:09:57.200.27-Mar-2021 3361.51 7252.77 61.03 8.00 407.20 3109.50
   09:09:57.400.27-Mar-2021 3361.51 7252.99 61.03 8.00 407.40 3109.50
   09:09:57.600.27-Mar-2021 3361.51 7252.87 61.03 8.00 407.60 3109.50
   09:09:57.800.27-Mar-2021 3361.51 7252.60 61.03 8.00 407.80 3109.50
   09:09:58.000.27-Mar-2021 3361.51 7252.69 61.03 8.00 408.00 3109.50
   09:09:58.200.27-Mar-2021 3361.51 7252.69 61.03 8.00 408.20 3109.50
   09:09:58.400.27-Mar-2021 3361.51 7255.92 61.03 8.00 408.40 3109.50
   09:09:58.600.27-Mar-2021 3361.51 7251.56 61.03 8.00 408.60 3109.50
   09:09:58.800.27-Mar-2021 3361.51 7252.98 61.03 8.00 408.80 3109.50
   09:09:59.000.27-Mar-2021 3361.51 7252.73 61.03 8.00 409.00 3109.50
   09:09:59.200.27-Mar-2021 3361.51 7252.73 61.03 8.00 409.20 3109.50
   09:09:59.400.27-Mar-2021 3361.51 7252.41 61.03 8.00 409.40 3109.50
   09:09:59.600.27-Mar-2021 3361.51 7252.04 61.02 8.00 409.60 3109.50
   09:09:59.800.27-Mar-2021 3361.51 7251.93 61.02 8.00 409.80 3109.50
   09:10:00.000.27-Mar-2021 3361.51 7252.58 61.02 8.00 410.00 3109.50
   09:10:00.200.27-Mar-2021 3361.51 7252.58 61.02 8.00 410.20 3109.50
   09:10:00.400.27-Mar-2021 3361.51 7252.25 61.02 8.00 410.40 3109.50
   09:10:00.600.27-Mar-2021 3361.51 7252.07 61.02 8.00 410.60 3109.50
   09:10:00.800.27-Mar-2021 3361.51 7252.00 61.02 8.00 410.80 3109.50
   09:10:01.000.27-Mar-2021 3361.51 7254.33 61.02 8.00 411.00 3109.50
   09:10:01.200.27-Mar-2021 3361.51 7254.33 61.02 8.00 411.20 3109.50
   09:10:01.400.27-Mar-2021 3361.51 7252.19 61.02 8.00 411.40 3109.50
   09:10:01.600.27-Mar-2021 3361.51 7252.66 61.02 8.00 411.60 3109.50
   09:10:01.800.27-Mar-2021 3361.51 7252.31 61.02 8.00 411.80 3109.50
   09:10:02.000.27-Mar-2021 3361.51 7255.77 61.02 8.00 412.00 3109.50
   09:10:02.200.27-Mar-2021 3361.51 7255.77 61.02 8.00 412.20 3109.50
   09:10:02.400.27-Mar-2021 3361.51 7252.43 61.02 8.00 412.40 3109.50
   09:10:02.600.27-Mar-2021 3361.51 7252.99 61.02 8.00 412.60 3109.50
   09:10:02.800.27-Mar-2021 3361.51 7252.17 61.02 8.00 412.80 3109.50
   09:10:03.000.27-Mar-2021 3361.51 7252.51 61.02 8.00 413.00 3109.50
   09:10:03.200.27-Mar-2021 3361.51 7252.51 61.02 8.00 413.20 3109.50
   09:10:03.400.27-Mar-2021 3361.51 7256.15 61.02 8.00 413.40 3109.50
   09:10:03.600.27-Mar-2021 3361.51 7252.62 61.02 8.00 413.60 3109.50
   09:10:03.800.27-Mar-2021 3361.51 7253.16 61.02 8.00 413.80 3109.50
