~Version Information
 VERS.                  2.0:   CWLS log ASCII Standard -VERSION 2.0
 WRAP.                   NO:   One line per depth step
~Well Information Block
#MNEM.UNIT     VALUE/NAME     DESCRIPTION
#---------     -----------    ---------------------------
 STRT.S             07:02:33 27-Mar-21: START TIME 07:02:33 27-Mar-21
 STOP.S             07:09:44 27-Mar-21: STOP TIME  07:09:44 27-Mar-21
 STEP.S                   0.00: STEP TIME
 NULL.                 -999.25: NULL VALUE
 DFWT.                        :  DIST FWL TEXT
 DFST.                        :  DIST FSL TEXT
 DMF .             Drill Floor:  DRILL MEAS FROM
 STIM.      20.26.40 11-Mar-21:  START TIME
 DATE.      20.26.40 30-Mar-21:  END TIME
 SPUD.               11-Mar-21:  SPUD DATE
 NREF.                    Grid:  NORTH REFERENCE
 HPTY.       Minimum Curvature:  HOLE POS TYPE
 DMOD.             Drill Model:  DRILL MOD DESC
 SVYD.                  Survey:  SURVEY DESC
 ILTD.               Lithology:  INTERP LTH DESC
 FTOP.          Formation Tops:  FORM TOPS DESC
 SON .        AZ-XX-0906805385:  JOB NUMBER
 WTYP.                Deviated:  WELL TYPE
 COMP.     BP Exploration (Caspian Sea) Ltd.:  COMPANY
 UWI .            /AZE00000198:  UNIQUE WELL IDENTIFIER
 API .            /AZE00000198:  API NUMBER
 BASE.              Azerbaijan:  LOGGING EQUIPMENT BASE LOCATION
 REGN.                   EESSA:  REGION
 PROV.                    Baku:  PROVINCE
 STAT.                    Baku:  STATE NAME
 CTRY.              Azerbaijan:  COUNTRY NAME
 FLD .                     ACG:  FIELD NAME
 SRVC.     Turan Drilling & Engineering:  CONTRACTOR
 MWDS.                    Baku:  MWD SHOP
 WELL.                    D09z:  WELL NAME
 JOBN.        AZ-XX-0906805385:  JOB TICKET NUMB
 RIG .              East Azeri:  RIG NAME
 DOE .                     N/A:  DOE NUMBER
 DCON.         Sperry Drilling:  DIRECTNL CONTR
 UNIT.                     N/A:  LOGGING EQUIPMENT ID
 PDAT.          Mean Sea Level:  PERMANENT DATUM
 MDS .        Operator Entered:  MAG DATA SOURCE
 CNTY.                        :  COUNTY
 LOC .                        :  LOCATION
 LMF .             Drill Floor:  LOG MEASURED FROM
 TVDS.m                  43.60:  TVDSS CORRECTN
 LATI.deg                40.02:  LATITUDE
 LONG.deg                51.45:  LONGITUDE
 WHNS.m                 -17.04:  WELL HEAD N/S
 WHEW.m                  -6.28:  WELL HEAD E/W
 UTMX.m              538763.98:  UTM X
 UTMY.m             4431880.20:  UTM Y
 DFWL.m                   0.00:  DISTANCE FWL
 DFSL.m                   0.00:  DISTANCE FSL
 SDEP.m                2680.01:  START DEPTH
 TDD .m                4000.01:  TOTAL DEPTH (DRILLER)
 VSDR.deg               225.71:  VERT SEC DIRECT
 GVFD.g                   1.00:  GRAVITY FIELD
 MFLD.nT              50353.00:  MAGNETIC FIELD
 MDIP.deg                59.49:  MAGNETIC DIP
 MDEC.deg                 6.46:  MAGNETIC DECL
 GRDC.deg                 0.29:  GRID CORRECTION
 AZTC.deg                 6.17:  AZM TOTAL CORR
 EPD .m                   0.00:  ELEVATION
 EGL .m                   0.00:  GROUND ELEVATION
 WDMS.m                 151.80:  WD ELEV
 APD .m                  43.60:  DEPTH ABOVE PD
 AGAP.m                  43.60:  AIR GAP
 VSEW.m                  -6.28:  VERT SEC E/W
 VSNS.m                 -17.04:  VERT SEC N/S
 DEP .m                2656.31:  DEPTH
 EKB .m                  43.60:  KB ELEVATION
 EDF .m                  43.60:  DF ELEVATION
 VSC .                       0:  VS TO CLOSURE
 MAGU.                 1851247:  MAGUTM CHECKSUM
~Parameter Information Block
#MNEM.UNIT       Value        Description
#---------     -----------    ---------------------------
 AV  .mps                 3.00:  Ann Velocity 
 AVMX.mps                 8.00:  Max Ann Veloc 
 AZIF.deg                 0.00:  Azm, Final 
 BHAT.                   Other:  BHA Type 
 BREV.rev                 0.00:  Rev Bit Total 
 BROT.°/30m               0.00:  Build Rotating 
 BS  .in                 10.25:  Bit Size 
 BTPL.psig              511.00:  Bit Press Loss 
 CABU.                      No:  Customer Abuse 
 CGEO.           Asif Pashayev:  Customer Geo 
 COMM.                     ¬\q:  Run Comments 1 
 TCS .hr                 24.03:  Time Ciculation Ended 
 CV  .mps                 3.50:  Crit Velocity 
 CVMX.mps                 4.00:  Max Crit Veloc 
 DD1 .             Aziz Aliyev:  Direct Drillr 1 
 DD2 .      Fakhraddin Guliyev:  Direct Drillr 2 
 DDSV.                   Other:  DD Service 
 DEFF.%                  99.00:  % Det Eff 
 DLRX.°/30m               0.00:  Dogleg Rot Max 
 DLSO.°/30m               0.00:  Dogleg Oriented 
 DLSX.°/30m               0.00:  Dogleg Str Max 
 DRET.      23.00.40 28-Mar-21:  Drill End Time 
 DRST.      23.30.40 25-Mar-21:  Drill Start Tim 
 DTIM.hr                  0.00:  Time Drilling 
 EDEP.m                3886.01:  End Depth 
 ENG1.         Almaz Almadatov:  Engineer 1 
 ENG2.      Artemiy Matviyanov:  Engineer 2 
 ENG3.           Samir Gafarov:  Engineer 3 
 ETIM.      23.00.40 28-Mar-21:  End Time 
 FLOI.gpm               550.00:  Flow In 
 FLON.gpm               500.00:  Flow In Min 
 FLOS.cptm                0.00:  Fluid Loss 
 FLOX.gpm               590.00:  Flow In Max 
 HFLO.                      No:  High Flow 
 HPRE.                      No:  High Pressure 
 HTEM.                      No:  High Temp 
 HYDO.m                   1.80:  Hydro Offset 
 IFIN.deg                 0.00:  Inc, Final 
 IMAX.deg                 0.00:  Inc Max 
 IMIN.deg                 0.00:  Inc Min 
 IMND.m                   0.00:  Inc Min Depth 
 IMXD.m                   0.00:  Inc Max Depth 
 JARR.                      No:  Jarring 
 LETM.      03.22.40 28-Mar-21:  Log End Time 
 LOST.hr                     0:  Lost Rig Time 
 LSTM.      23.30.40 25-Mar-21:  Log Start Time 
 MDCL.ppm             34000.00:  Mud Chlorides 
 MDES.     Inversion Oil/Synthetic:  Mud Desc 
 DFD .sg                  1.51:  Mud Density 
 MDMN.sg                  1.51:  Dens Mud Min 
 MDMX.sg                  1.51:  Dens Mud Max 
 MOIL.                      70:  Run Mud Oil % 
 MOWR.                   70:30:  Run Mud OWR 
 MSND.                     0.2:  Run Mud Sand % 
 MSOL.                   21.60:  Run Mud Solids% 
 DFV .spqt               74.00:  Mud Viscosity 
 MWOD.in                  6.75:  MWD Tool OD 
 MWSI.                      No:  Serv Intrp, MWD 
 OTIM.hr                 69.09:  Time Operating 
 PCON.           Look Like New:  Pad Condition 
 PMAX.psia             3500.00:  Press Op, Max 
 PV  .cP                 70.00:  Mud PV 
 RUN .                     400:  Run Number 
 ROPA.m/hr                0.00:  ROP Avg 
 ROPN.m/hr                0.00:  ROP Min 
 ROPX.m/hr                0.00:  ROP Max 
 RPMA.rpm                80.00:  RPM Surface Avg 
 RPMN.rpm                10.00:  RPM Surface Min 
 RPMX.rpm               100.00:  RPM Surface Max 
 RRUN.                    0400:  Rig Run Number 
 RTIM.hr                  3.00:  Time Reaming 
 SAZI.deg                 0.00:  Azm, Start 
 SDEP.m                3886.01:  Start Depth 
 SIDD.                      No:  Serv Intrp, DD 
 SINC.deg                 0.00:  Inc, Start 
 SPPA.psig             3270.00:  SPP Avg 
 SPPN.psig             3220.00:  SPP Min 
 SPPX.psig             4430.00:  SPP Max 
 STIM.      23.30.40 25-Mar-21:  Start Time 
 SVCS.                 DD, MWD:  Services 
 SVER.                    9.20:  Sperry Version 
 TDAT.m                   0.00:  Tot Depth Attmp 
 TDDF.                      No:  Trip for DD 
 TFF .                      No:  Trip for Fail 
 TQAA.f-kp                8.00:  Torque Abs Avg 
 TQAN.f-kp                7.00:  Torque Abs Min 
 TQAX.f-kp               11.00:  Torque Abs Max 
 TRRT.°/30m               0.00:  Turn Rotating 
 MRT .                  EWR-M5:  Maximum Recorded Temperature 
 TTMX.degC               76.47:  Max Tool Temp 
 VS01.                90640857:  Virtual Str1 SN 
 VS02.                90639246:  Virtual Str2 SN 
 VS03.                90642265:  Virtual Str3 SN 
 VS04.                11654497:  Virtual Str4 SN 
 WBMN.klb                 0.00:  WOB Min 
 WITN.      Kamran Keberlinkiy:  Customer Rep 
 WITN.           Murad Guliyev:  Customer Rep 2 
 WOBA.klb                 0.00:  WOB Avg 
 WOBX.klb                 0.00:  WOB Max 
 YP  .lhf2               36.00:  Yield Point 
~Curve Information Block
#MNEM.UNIT                 API CODE     Curve Description
#---------               -----------    ---------------------------
 TIME.HHMMSS            00 000 000 000:  GT Time & Date
 GTDEPTH.m              00 000 000 000:  GT Depth
 GTPQH.psia             00 000 000 000:  GT HR Quartz Pressure
 GTTQ.degC              00 000 000 000:  GT Quartz Temperature
 GTTN.NONE              00 000 000 000:  GT Test Number
 GTET.sec               00 000 000 000:  GT Elapsed Test Time
 GTTVD.m                00 000 000 000:  GT True Vertical Depth
#Other Information
#
#WARRANTY: Halliburton will use its best efforts to furnish customers with 
#accurate information and interpretations that are part of, and incident to, the services 
#provided.  However, Halliburton cannot and does not warrant the accuracy 
#or correctness of such information and interpretations.  Under no circumstances should any 
#such information or interpretation be relied upon as the sole basis for any drilling, 
#completion, production, or financial decision or any procedure involving any risk to the 
#safety of any drilling venture, drilling rig or its crew or any other third party.  The 
#Customer has full responsibility for all drilling, completion and production operation.  
#Halliburton makes no representations or warranties, either expressed or 
#implied, including, but not limited to, the implied warranties of merchantability or fitness 
#for a particular purpose, with respect to the services rendered.  In no event will 
#Halliburton be liable for failure to obtain any particular results or for 
#any damages, including, but not limited to, indirect, special or consequential damages, 
#resulting from the use of any information or interpretation provided by Halliburton.
#
~A           TIME           GTDEPTH  GTPQH  GTTQ  GTTN  GTET   GTTVD  
# ...
   07:05:14.566.27-Mar-2021 3426.01 4617.34 60.34 6.00 161.04 3169.91
   07:05:14.766.27-Mar-2021 3426.01 4617.34 60.34 6.00 161.24 3169.91
   07:05:14.966.27-Mar-2021 3426.01 4617.58 60.34 6.00 161.44 3169.91
   07:05:15.166.27-Mar-2021 3426.01 4616.88 60.34 6.00 161.64 3169.91
   07:05:15.366.27-Mar-2021 3426.01 4616.09 60.34 6.00 161.84 3169.91
   07:05:15.566.27-Mar-2021 3426.01 4616.72 60.34 6.00 162.04 3169.91
   07:05:15.766.27-Mar-2021 3426.01 4616.72 60.34 6.00 162.24 3169.91
   07:05:15.966.27-Mar-2021 3426.01 4621.96 60.34 6.00 162.44 3169.91
   07:05:16.167.27-Mar-2021 3426.01 4620.87 60.34 6.00 162.64 3169.91
   07:05:16.367.27-Mar-2021 3426.01 4619.84 60.34 6.00 162.84 3169.91
   07:05:16.567.27-Mar-2021 3426.01 4619.33 60.34 6.00 163.04 3169.91
   07:05:16.767.27-Mar-2021 3426.01 4619.33 60.34 6.00 163.24 3169.91
   07:05:16.967.27-Mar-2021 3426.01 4619.93 60.34 6.00 163.44 3169.91
   07:05:17.167.27-Mar-2021 3426.01 4618.01 60.34 6.00 163.64 3169.91
   07:05:17.367.27-Mar-2021 3426.01 4618.45 60.34 6.00 163.84 3169.91
   07:05:17.567.27-Mar-2021 3426.01 4618.23 60.34 6.00 164.04 3169.91
   07:05:17.767.27-Mar-2021 3426.01 4618.23 60.34 6.00 164.24 3169.91
   07:05:17.967.27-Mar-2021 3426.01 4617.75 60.34 6.00 164.44 3169.91
   07:05:18.167.27-Mar-2021 3426.01 4617.40 60.34 6.00 164.64 3169.91
   07:05:18.367.27-Mar-2021 3426.01 4621.21 60.34 6.00 164.84 3169.91
   07:05:18.567.27-Mar-2021 3426.01 4617.72 60.34 6.00 165.04 3169.91
   07:05:18.767.27-Mar-2021 3426.01 4617.72 60.34 6.00 165.24 3169.91
   07:05:18.967.27-Mar-2021 3426.01 4619.88 60.34 6.00 165.44 3169.91
   07:05:19.167.27-Mar-2021 3426.01 4619.78 60.34 6.00 165.64 3169.91
   07:05:19.367.27-Mar-2021 3426.01 4620.93 60.34 6.00 165.84 3169.91
   07:05:19.567.27-Mar-2021 3426.01 4618.12 60.34 6.00 166.04 3169.91
   07:05:19.767.27-Mar-2021 3426.01 4618.12 60.34 6.00 166.24 3169.91
   07:05:19.967.27-Mar-2021 3426.01 4618.78 60.34 6.00 166.44 3169.91
   07:05:20.168.27-Mar-2021 3426.01 4617.57 60.34 6.00 166.64 3169.91
   07:05:20.368.27-Mar-2021 3426.01 4617.65 60.34 6.00 166.84 3169.91
   07:05:20.568.27-Mar-2021 3426.01 4617.61 60.34 6.00 167.04 3169.91
   07:05:20.768.27-Mar-2021 3426.01 4617.61 60.34 6.00 167.24 3169.91
   07:05:20.968.27-Mar-2021 3426.01 4617.25 60.34 6.00 167.44 3169.91
   07:05:21.168.27-Mar-2021 3426.01 4616.76 60.34 6.00 167.64 3169.91
   07:05:21.368.27-Mar-2021 3426.01 4616.91 60.34 6.00 167.84 3169.91
   07:05:21.568.27-Mar-2021 3426.01 4616.34 60.34 6.00 168.04 3169.91
   07:05:21.768.27-Mar-2021 3426.01 4616.34 60.34 6.00 168.24 3169.91
   07:05:21.968.27-Mar-2021 3426.01 4617.48 60.34 6.00 168.44 3169.91
   07:05:22.168.27-Mar-2021 3426.01 4617.21 60.34 6.00 168.64 3169.91
   07:05:22.368.27-Mar-2021 3426.01 4618.05 60.34 6.00 168.84 3169.91
   07:05:22.568.27-Mar-2021 3426.01 4617.90 60.34 6.00 169.04 3169.91
   07:05:22.768.27-Mar-2021 3426.01 4617.90 60.34 6.00 169.24 3169.91
   07:05:22.968.27-Mar-2021 3426.01 4617.29 60.34 6.00 169.44 3169.91
   07:05:23.168.27-Mar-2021 3426.01 4617.26 60.34 6.00 169.64 3169.91
   07:05:23.368.27-Mar-2021 3426.01 4615.91 60.34 6.00 169.84 3169.91
   07:05:23.568.27-Mar-2021 3426.01 4616.47 60.34 6.00 170.04 3169.91
   07:05:23.768.27-Mar-2021 3426.01 4616.47 60.34 6.00 170.24 3169.91
   07:05:23.968.27-Mar-2021 3426.01 4622.56 60.34 6.00 170.44 3169.91
   07:05:24.169.27-Mar-2021 3426.01 4743.11 60.34 6.00 170.64 3169.91
   07:05:24.369.27-Mar-2021 3426.01 4769.57 60.34 6.00 170.84 3169.91
   07:05:24.569.27-Mar-2021 3426.01 4771.26 60.34 6.00 171.04 3169.91
   07:05:24.769.27-Mar-2021 3426.01 4771.26 60.34 6.00 171.24 3169.91
   07:05:24.969.27-Mar-2021 3426.01 4771.27 60.34 6.00 171.44 3169.91
   07:05:25.169.27-Mar-2021 3426.01 4771.48 60.34 6.00 171.64 3169.91
   07:05:25.369.27-Mar-2021 3426.01 4771.55 60.34 6.00 171.84 3169.91
   07:05:25.569.27-Mar-2021 3426.01 4771.58 60.34 6.00 172.04 3169.91
   07:05:25.769.27-Mar-2021 3426.01 4771.58 60.34 6.00 172.24 3169.91
   07:05:25.969.27-Mar-2021 3426.01 4771.72 60.34 6.00 172.44 3169.91
   07:05:26.169.27-Mar-2021 3426.01 4771.71 60.34 6.00 172.64 3169.91
   07:05:26.369.27-Mar-2021 3426.01 4771.74 60.34 6.00 172.84 3169.91
   07:05:26.569.27-Mar-2021 3426.01 4771.80 60.34 6.00 173.04 3169.91
   07:05:26.769.27-Mar-2021 3426.01 4771.80 60.34 6.00 173.24 3169.91
   07:05:26.969.27-Mar-2021 3426.01 4771.86 60.34 6.00 173.44 3169.91
   07:05:27.169.27-Mar-2021 3426.01 4771.85 60.34 6.00 173.64 3169.91
   07:05:27.369.27-Mar-2021 3426.01 4771.96 60.34 6.00 173.84 3169.91
   07:05:27.569.27-Mar-2021 3426.01 4771.84 60.34 6.00 174.04 3169.91
   07:05:27.769.27-Mar-2021 3426.01 4771.84 60.34 6.00 174.24 3169.91
   07:05:27.969.27-Mar-2021 3426.01 4771.99 60.34 6.00 174.44 3169.91
   07:05:28.170.27-Mar-2021 3426.01 4771.85 60.34 6.00 174.64 3169.91
   07:05:28.370.27-Mar-2021 3426.01 4772.15 60.34 6.00 174.84 3169.91
   07:05:28.570.27-Mar-2021 3426.01 4772.02 60.34 6.00 175.04 3169.91
   07:05:28.770.27-Mar-2021 3426.01 4772.02 60.34 6.00 175.24 3169.91
   07:05:28.970.27-Mar-2021 3426.01 4772.04 60.34 6.00 175.44 3169.91
   07:05:29.170.27-Mar-2021 3426.01 4772.20 60.34 6.00 175.64 3169.91
   07:05:29.370.27-Mar-2021 3426.01 4771.94 60.34 6.00 175.84 3169.91
   07:05:29.570.27-Mar-2021 3426.01 4772.08 60.34 6.00 176.04 3169.91
   07:05:29.770.27-Mar-2021 3426.01 4772.08 60.34 6.00 176.24 3169.91
   07:05:29.970.27-Mar-2021 3426.01 4772.15 60.34 6.00 176.44 3169.91
   07:05:30.170.27-Mar-2021 3426.01 4772.08 60.34 6.00 176.64 3169.91
   07:05:30.370.27-Mar-2021 3426.01 4772.08 60.34 6.00 176.84 3169.91
   07:05:30.570.27-Mar-2021 3426.01 4772.20 60.34 6.00 177.04 3169.91
   07:05:30.770.27-Mar-2021 3426.01 4772.20 60.34 6.00 177.24 3169.91
   07:05:30.970.27-Mar-2021 3426.01 4772.12 60.34 6.00 177.44 3169.91
   07:05:31.170.27-Mar-2021 3426.01 4772.13 60.34 6.00 177.64 3169.91
   07:05:31.370.27-Mar-2021 3426.01 4772.13 60.34 6.00 177.84 3169.91
   07:05:31.570.27-Mar-2021 3426.01 4772.06 60.34 6.00 178.04 3169.91
   07:05:31.770.27-Mar-2021 3426.01 4772.06 60.34 6.00 178.24 3169.91
   07:05:31.970.27-Mar-2021 3426.01 4772.10 60.34 6.00 178.44 3169.91
   07:05:32.171.27-Mar-2021 3426.01 4772.14 60.34 6.00 178.64 3169.91
   07:05:32.371.27-Mar-2021 3426.01 4772.14 60.34 6.00 178.84 3169.91
   07:05:32.571.27-Mar-2021 3426.01 4772.12 60.34 6.00 179.04 3169.91
   07:05:32.771.27-Mar-2021 3426.01 4772.12 60.34 6.00 179.24 3169.91
   07:05:32.971.27-Mar-2021 3426.01 4772.16 60.34 6.00 179.44 3169.91
   07:05:33.171.27-Mar-2021 3426.01 4772.12 60.34 6.00 179.64 3169.91
   07:05:33.371.27-Mar-2021 3426.01 4772.14 60.34 6.00 179.84 3169.91
   07:05:33.571.27-Mar-2021 3426.01 4772.17 60.34 6.00 180.04 3169.91
   07:05:33.771.27-Mar-2021 3426.01 4772.17 60.34 6.00 180.24 3169.91
   07:05:33.971.27-Mar-2021 3426.01 4772.06 60.34 6.00 180.44 3169.91
   07:05:34.171.27-Mar-2021 3426.01 4772.19 60.34 6.00 180.64 3169.91
   07:05:34.371.27-Mar-2021 3426.01 4772.11 60.35 6.00 180.85 3169.91
   07:05:34.571.27-Mar-2021 3426.01 4772.17 60.35 6.00 181.05 3169.91
   07:05:34.771.27-Mar-2021 3426.01 4772.17 60.35 6.00 181.25 3169.91
   07:05:34.971.27-Mar-2021 3426.01 4772.16 60.35 6.00 181.45 3169.91
   07:05:35.171.27-Mar-2021 3426.01 4772.18 60.35 6.00 181.65 3169.91
   07:05:35.371.27-Mar-2021 3426.01 4772.15 60.35 6.00 181.85 3169.91
   07:05:35.571.27-Mar-2021 3426.01 4772.14 60.35 6.00 182.05 3169.91
   07:05:35.771.27-Mar-2021 3426.01 4772.14 60.35 6.00 182.25 3169.91
   07:05:35.971.27-Mar-2021 3426.01 4772.19 60.35 6.00 182.45 3169.91
   07:05:36.172.27-Mar-2021 3426.01 4772.15 60.35 6.00 182.65 3169.91
   07:05:36.372.27-Mar-2021 3426.01 4772.18 60.35 6.00 182.85 3169.91
   07:05:36.572.27-Mar-2021 3426.01 4772.09 60.35 6.00 183.05 3169.91
   07:05:36.772.27-Mar-2021 3426.01 4772.09 60.35 6.00 183.25 3169.91
   07:05:36.972.27-Mar-2021 3426.01 4772.13 60.35 6.00 183.45 3169.91
   07:05:37.172.27-Mar-2021 3426.01 4772.18 60.35 6.00 183.65 3169.91
   07:05:37.372.27-Mar-2021 3426.01 4772.16 60.35 6.00 183.85 3169.91
