~Version Information
 VERS.                  2.0:   CWLS log ASCII Standard -VERSION 2.0
 WRAP.                   NO:   One line per depth step
~Well Information Block
#MNEM.UNIT     VALUE/NAME     DESCRIPTION
#---------     -----------    ---------------------------
 STRT.S             02:41:19 27-Mar-21: START TIME 02:41:19 27-Mar-21
 STOP.S             02:48:28 27-Mar-21: STOP TIME  02:48:28 27-Mar-21
 STEP.S                   0.00: STEP TIME
 NULL.                 -999.25: NULL VALUE
 DFWT.                        :  DIST FWL TEXT
 DFST.                        :  DIST FSL TEXT
 DMF .             Drill Floor:  DRILL MEAS FROM
 STIM.      20.26.40 11-Mar-21:  START TIME
 DATE.      20.26.40 30-Mar-21:  END TIME
 SPUD.               11-Mar-21:  SPUD DATE
 NREF.                    Grid:  NORTH REFERENCE
 HPTY.       Minimum Curvature:  HOLE POS TYPE
 DMOD.             Drill Model:  DRILL MOD DESC
 SVYD.                  Survey:  SURVEY DESC
 ILTD.               Lithology:  INTERP LTH DESC
 FTOP.          Formation Tops:  FORM TOPS DESC
 SON .        AZ-XX-0906805385:  JOB NUMBER
 WTYP.                Deviated:  WELL TYPE
 COMP.     BP Exploration (Caspian Sea) Ltd.:  COMPANY
 UWI .            /AZE00000198:  UNIQUE WELL IDENTIFIER
 API .            /AZE00000198:  API NUMBER
 BASE.              Azerbaijan:  LOGGING EQUIPMENT BASE LOCATION
 REGN.                   EESSA:  REGION
 PROV.                    Baku:  PROVINCE
 STAT.                    Baku:  STATE NAME
 CTRY.              Azerbaijan:  COUNTRY NAME
 FLD .                     ACG:  FIELD NAME
 SRVC.     Turan Drilling & Engineering:  CONTRACTOR
 MWDS.                    Baku:  MWD SHOP
 WELL.                    D09z:  WELL NAME
 JOBN.        AZ-XX-0906805385:  JOB TICKET NUMB
 RIG .              East Azeri:  RIG NAME
 DOE .                     N/A:  DOE NUMBER
 DCON.         Sperry Drilling:  DIRECTNL CONTR
 UNIT.                     N/A:  LOGGING EQUIPMENT ID
 PDAT.          Mean Sea Level:  PERMANENT DATUM
 MDS .        Operator Entered:  MAG DATA SOURCE
 CNTY.                        :  COUNTY
 LOC .                        :  LOCATION
 LMF .             Drill Floor:  LOG MEASURED FROM
 TVDS.m                  43.60:  TVDSS CORRECTN
 LATI.deg                40.02:  LATITUDE
 LONG.deg                51.45:  LONGITUDE
 WHNS.m                 -17.04:  WELL HEAD N/S
 WHEW.m                  -6.28:  WELL HEAD E/W
 UTMX.m              538763.98:  UTM X
 UTMY.m             4431880.20:  UTM Y
 DFWL.m                   0.00:  DISTANCE FWL
 DFSL.m                   0.00:  DISTANCE FSL
 SDEP.m                2680.01:  START DEPTH
 TDD .m                4000.01:  TOTAL DEPTH (DRILLER)
 VSDR.deg               225.71:  VERT SEC DIRECT
 GVFD.g                   1.00:  GRAVITY FIELD
 MFLD.nT              50353.00:  MAGNETIC FIELD
 MDIP.deg                59.49:  MAGNETIC DIP
 MDEC.deg                 6.46:  MAGNETIC DECL
 GRDC.deg                 0.29:  GRID CORRECTION
 AZTC.deg                 6.17:  AZM TOTAL CORR
 EPD .m                   0.00:  ELEVATION
 EGL .m                   0.00:  GROUND ELEVATION
 WDMS.m                 151.80:  WD ELEV
 APD .m                  43.60:  DEPTH ABOVE PD
 AGAP.m                  43.60:  AIR GAP
 VSEW.m                  -6.28:  VERT SEC E/W
 VSNS.m                 -17.04:  VERT SEC N/S
 DEP .m                2656.31:  DEPTH
 EKB .m                  43.60:  KB ELEVATION
 EDF .m                  43.60:  DF ELEVATION
 VSC .                       0:  VS TO CLOSURE
 MAGU.                 1851247:  MAGUTM CHECKSUM
~Parameter Information Block
#MNEM.UNIT       Value        Description
#---------     -----------    ---------------------------
 AV  .mps                 3.00:  Ann Velocity 
 AVMX.mps                 8.00:  Max Ann Veloc 
 AZIF.deg                 0.00:  Azm, Final 
 BHAT.                   Other:  BHA Type 
 BREV.rev                 0.00:  Rev Bit Total 
 BROT.°/30m               0.00:  Build Rotating 
 BS  .in                 10.25:  Bit Size 
 BTPL.psig              511.00:  Bit Press Loss 
 CABU.                      No:  Customer Abuse 
 CGEO.           Asif Pashayev:  Customer Geo 
 COMM.                     ºI:  Run Comments 1 
 TCS .hr                 24.03:  Time Ciculation Ended 
 CV  .mps                 3.50:  Crit Velocity 
 CVMX.mps                 4.00:  Max Crit Veloc 
 DD1 .             Aziz Aliyev:  Direct Drillr 1 
 DD2 .      Fakhraddin Guliyev:  Direct Drillr 2 
 DDSV.                   Other:  DD Service 
 DEFF.%                  99.00:  % Det Eff 
 DLRX.°/30m               0.00:  Dogleg Rot Max 
 DLSO.°/30m               0.00:  Dogleg Oriented 
 DLSX.°/30m               0.00:  Dogleg Str Max 
 DRET.      23.00.40 28-Mar-21:  Drill End Time 
 DRST.      23.30.40 25-Mar-21:  Drill Start Tim 
 DTIM.hr                  0.00:  Time Drilling 
 EDEP.m                3886.01:  End Depth 
 ENG1.         Almaz Almadatov:  Engineer 1 
 ENG2.      Artemiy Matviyanov:  Engineer 2 
 ENG3.           Samir Gafarov:  Engineer 3 
 ETIM.      23.00.40 28-Mar-21:  End Time 
 FLOI.gpm               550.00:  Flow In 
 FLON.gpm               500.00:  Flow In Min 
 FLOS.cptm                0.00:  Fluid Loss 
 FLOX.gpm               590.00:  Flow In Max 
 HFLO.                      No:  High Flow 
 HPRE.                      No:  High Pressure 
 HTEM.                      No:  High Temp 
 HYDO.m                   1.80:  Hydro Offset 
 IFIN.deg                 0.00:  Inc, Final 
 IMAX.deg                 0.00:  Inc Max 
 IMIN.deg                 0.00:  Inc Min 
 IMND.m                   0.00:  Inc Min Depth 
 IMXD.m                   0.00:  Inc Max Depth 
 JARR.                      No:  Jarring 
 LETM.      03.22.40 28-Mar-21:  Log End Time 
 LOST.hr                     0:  Lost Rig Time 
 LSTM.      23.30.40 25-Mar-21:  Log Start Time 
 MDCL.ppm             34000.00:  Mud Chlorides 
 MDES.     Inversion Oil/Synthetic:  Mud Desc 
 DFD .sg                  1.51:  Mud Density 
 MDMN.sg                  1.51:  Dens Mud Min 
 MDMX.sg                  1.51:  Dens Mud Max 
 MOIL.                      70:  Run Mud Oil % 
 MOWR.                   70:30:  Run Mud OWR 
 MSND.                     0.2:  Run Mud Sand % 
 MSOL.                   21.60:  Run Mud Solids% 
 DFV .spqt               74.00:  Mud Viscosity 
 MWOD.in                  6.75:  MWD Tool OD 
 MWSI.                      No:  Serv Intrp, MWD 
 OTIM.hr                 69.09:  Time Operating 
 PCON.           Look Like New:  Pad Condition 
 PMAX.psia             3500.00:  Press Op, Max 
 PV  .cP                 70.00:  Mud PV 
 RUN .                     400:  Run Number 
 ROPA.m/hr                0.00:  ROP Avg 
 ROPN.m/hr                0.00:  ROP Min 
 ROPX.m/hr                0.00:  ROP Max 
 RPMA.rpm                80.00:  RPM Surface Avg 
 RPMN.rpm                10.00:  RPM Surface Min 
 RPMX.rpm               100.00:  RPM Surface Max 
 RRUN.                    0400:  Rig Run Number 
 RTIM.hr                  3.00:  Time Reaming 
 SAZI.deg                 0.00:  Azm, Start 
 SDEP.m                3886.01:  Start Depth 
 SIDD.                      No:  Serv Intrp, DD 
 SINC.deg                 0.00:  Inc, Start 
 SPPA.psig             3270.00:  SPP Avg 
 SPPN.psig             3220.00:  SPP Min 
 SPPX.psig             4430.00:  SPP Max 
 STIM.      23.30.40 25-Mar-21:  Start Time 
 SVCS.                 DD, MWD:  Services 
 SVER.                    9.20:  Sperry Version 
 TDAT.m                   0.00:  Tot Depth Attmp 
 TDDF.                      No:  Trip for DD 
 TFF .                      No:  Trip for Fail 
 TQAA.f-kp                8.00:  Torque Abs Avg 
 TQAN.f-kp                7.00:  Torque Abs Min 
 TQAX.f-kp               11.00:  Torque Abs Max 
 TRRT.°/30m               0.00:  Turn Rotating 
 MRT .                  EWR-M5:  Maximum Recorded Temperature 
 TTMX.degC               76.47:  Max Tool Temp 
 VS01.                90640857:  Virtual Str1 SN 
 VS02.                90639246:  Virtual Str2 SN 
 VS03.                90642265:  Virtual Str3 SN 
 VS04.                11654497:  Virtual Str4 SN 
 WBMN.klb                 0.00:  WOB Min 
 WITN.      Kamran Keberlinkiy:  Customer Rep 
 WITN.           Murad Guliyev:  Customer Rep 2 
 WOBA.klb                 0.00:  WOB Avg 
 WOBX.klb                 0.00:  WOB Max 
 YP  .lhf2               36.00:  Yield Point 
~Curve Information Block
#MNEM.UNIT                 API CODE     Curve Description
#---------               -----------    ---------------------------
 TIME.HHMMSS            00 000 000 000:  GT Time & Date
 GTDEPTH.m              00 000 000 000:  GT Depth
 GTPQH.psia             00 000 000 000:  GT HR Quartz Pressure
 GTTQ.degC              00 000 000 000:  GT Quartz Temperature
 GTTN.NONE              00 000 000 000:  GT Test Number
 GTET.sec               00 000 000 000:  GT Elapsed Test Time
 GTTVD.m                00 000 000 000:  GT True Vertical Depth
#Other Information
#
#WARRANTY: Halliburton will use its best efforts to furnish customers with 
#accurate information and interpretations that are part of, and incident to, the services 
#provided.  However, Halliburton cannot and does not warrant the accuracy 
#or correctness of such information and interpretations.  Under no circumstances should any 
#such information or interpretation be relied upon as the sole basis for any drilling, 
#completion, production, or financial decision or any procedure involving any risk to the 
#safety of any drilling venture, drilling rig or its crew or any other third party.  The 
#Customer has full responsibility for all drilling, completion and production operation.  
#Halliburton makes no representations or warranties, either expressed or 
#implied, including, but not limited to, the implied warranties of merchantability or fitness 
#for a particular purpose, with respect to the services rendered.  In no event will 
#Halliburton be liable for failure to obtain any particular results or for 
#any damages, including, but not limited to, indirect, special or consequential damages, 
#resulting from the use of any information or interpretation provided by Halliburton.
#
~A           TIME           GTDEPTH  GTPQH  GTTQ  GTTN  GTET   GTTVD  
# ...
   02:48:13.000.27-Mar-2021 3741.51 8044.19 60.87 2.00 414.00 3466.32
   02:48:13.200.27-Mar-2021 3741.51 8044.19 60.87 2.00 414.20 3466.32
   02:48:13.400.27-Mar-2021 3741.51 8043.20 60.87 2.00 414.40 3466.32
   02:48:13.600.27-Mar-2021 3741.51 8043.54 60.87 2.00 414.60 3466.32
   02:48:13.800.27-Mar-2021 3741.51 8043.08 60.87 2.00 414.80 3466.32
   02:48:14.000.27-Mar-2021 3741.51 8048.00 60.87 2.00 415.00 3466.32
   02:48:14.200.27-Mar-2021 3741.51 8048.00 60.87 2.00 415.20 3466.32
   02:48:14.400.27-Mar-2021 3741.51 8046.29 60.87 2.00 415.40 3466.32
   02:48:14.600.27-Mar-2021 3741.51 8044.61 60.87 2.00 415.60 3466.32
   02:48:14.800.27-Mar-2021 3741.51 8044.28 60.87 2.00 415.80 3466.32
   02:48:15.000.27-Mar-2021 3741.51 8044.10 60.87 2.00 416.00 3466.32
   02:48:15.200.27-Mar-2021 3741.51 8044.10 60.87 2.00 416.20 3466.32
   02:48:15.400.27-Mar-2021 3741.51 8045.53 60.87 2.00 416.40 3466.32
   02:48:15.600.27-Mar-2021 3741.51 8045.98 60.87 2.00 416.60 3466.32
   02:48:15.800.27-Mar-2021 3741.51 8044.06 60.87 2.00 416.80 3466.32
   02:48:16.000.27-Mar-2021 3741.51 8044.36 60.87 2.00 417.00 3466.32
   02:48:16.200.27-Mar-2021 3741.51 8044.36 60.87 2.00 417.20 3466.32
   02:48:16.400.27-Mar-2021 3741.51 8043.82 60.87 2.00 417.40 3466.32
   02:48:16.600.27-Mar-2021 3741.51 8043.73 60.87 2.00 417.60 3466.32
   02:48:16.800.27-Mar-2021 3741.51 8044.12 60.87 2.00 417.80 3466.32
   02:48:17.000.27-Mar-2021 3741.51 8043.66 60.87 2.00 418.00 3466.32
   02:48:17.200.27-Mar-2021 3741.51 8043.66 60.87 2.00 418.20 3466.32
   02:48:17.400.27-Mar-2021 3741.51 8043.77 60.87 2.00 418.40 3466.32
   02:48:17.600.27-Mar-2021 3741.51 8043.86 60.87 2.00 418.60 3466.32
   02:48:17.800.27-Mar-2021 3741.51 8044.57 60.87 2.00 418.80 3466.32
   02:48:18.000.27-Mar-2021 3741.51 8044.95 60.87 2.00 419.00 3466.32
   02:48:18.200.27-Mar-2021 3741.51 8044.95 60.87 2.00 419.20 3466.32
   02:48:18.400.27-Mar-2021 3741.51 8044.87 60.87 2.00 419.40 3466.32
   02:48:18.600.27-Mar-2021 3741.51 8047.57 60.87 2.00 419.60 3466.32
   02:48:18.800.27-Mar-2021 3741.51 8046.29 60.87 2.00 419.80 3466.32
   02:48:19.000.27-Mar-2021 3741.51 8044.95 60.87 2.00 420.00 3466.32
   02:48:19.200.27-Mar-2021 3741.51 8044.95 60.87 2.00 420.20 3466.32
   02:48:19.400.27-Mar-2021 3741.51 8043.85 60.87 2.00 420.40 3466.32
   02:48:19.600.27-Mar-2021 3741.51 8043.84 60.87 2.00 420.60 3466.32
   02:48:19.800.27-Mar-2021 3741.51 8043.48 60.87 2.00 420.80 3466.32
   02:48:20.000.27-Mar-2021 3741.51 8043.22 60.87 2.00 421.00 3466.32
   02:48:20.200.27-Mar-2021 3741.51 8043.22 60.87 2.00 421.20 3466.32
   02:48:20.400.27-Mar-2021 3741.51 8043.29 60.87 2.00 421.40 3466.32
   02:48:20.600.27-Mar-2021 3741.51 8043.31 60.87 2.00 421.60 3466.32
   02:48:20.800.27-Mar-2021 3741.51 8043.88 60.87 2.00 421.80 3466.32
   02:48:21.000.27-Mar-2021 3741.51 8044.06 60.87 2.00 422.00 3466.32
   02:48:21.200.27-Mar-2021 3741.51 8044.06 60.87 2.00 422.20 3466.32
   02:48:21.400.27-Mar-2021 3741.51 8045.80 60.87 2.00 422.40 3466.32
   02:48:21.600.27-Mar-2021 3741.51 8046.19 60.87 2.00 422.60 3466.32
   02:48:21.800.27-Mar-2021 3741.51 8044.62 60.87 2.00 422.80 3466.32
   02:48:22.000.27-Mar-2021 3741.51 8045.12 60.87 2.00 423.00 3466.32
   02:48:22.200.27-Mar-2021 3741.51 8045.12 60.87 2.00 423.20 3466.32
   02:48:22.400.27-Mar-2021 3741.51 8047.51 60.87 2.00 423.40 3466.32
   02:48:22.600.27-Mar-2021 3741.51 8043.05 60.87 2.00 423.60 3466.32
   02:48:22.800.27-Mar-2021 3741.51 8045.08 60.87 2.00 423.80 3466.32
   02:48:23.000.27-Mar-2021 3741.51 8043.70 60.87 2.00 424.00 3466.32
   02:48:23.200.27-Mar-2021 3741.51 8043.70 60.87 2.00 424.20 3466.32
   02:48:23.400.27-Mar-2021 3741.51 8043.15 60.87 2.00 424.40 3466.32
   02:48:23.600.27-Mar-2021 3741.51 8046.15 60.87 2.00 424.60 3466.32
   02:48:23.800.27-Mar-2021 3741.51 8045.70 60.87 2.00 424.80 3466.32
   02:48:24.000.27-Mar-2021 3741.51 8046.70 60.87 2.00 425.00 3466.32
   02:48:24.200.27-Mar-2021 3741.51 8046.70 60.87 2.00 425.20 3466.32
   02:48:24.400.27-Mar-2021 3741.51 8045.57 60.87 2.00 425.40 3466.32
   02:48:24.600.27-Mar-2021 3741.51 8043.99 60.87 2.00 425.60 3466.32
   02:48:24.800.27-Mar-2021 3741.51 8049.07 60.87 2.00 425.80 3466.32
   02:48:25.000.27-Mar-2021 3741.51 8044.50 60.87 2.00 426.00 3466.32
   02:48:25.200.27-Mar-2021 3741.51 8044.50 60.87 2.00 426.20 3466.32
   02:48:25.400.27-Mar-2021 3741.51 8045.51 60.87 2.00 426.40 3466.32
   02:48:25.600.27-Mar-2021 3741.51 8045.57 60.87 2.00 426.60 3466.32
   02:48:25.800.27-Mar-2021 3741.51 8044.18 60.87 2.00 426.80 3466.32
   02:48:26.000.27-Mar-2021 3741.51 8044.47 60.87 2.00 427.00 3466.32
   02:48:26.200.27-Mar-2021 3741.51 8044.47 60.87 2.00 427.20 3466.32
   02:48:26.400.27-Mar-2021 3741.51 8044.32 60.87 2.00 427.40 3466.32
   02:48:26.600.27-Mar-2021 3741.51 8044.00 60.87 2.00 427.60 3466.32
   02:48:26.800.27-Mar-2021 3741.51 8044.07 60.87 2.00 427.80 3466.32
   02:48:27.000.27-Mar-2021 3741.51 8043.51 60.87 2.00 428.00 3466.32
   02:48:27.200.27-Mar-2021 3741.51 8043.51 60.87 2.00 428.20 3466.32
   02:48:27.400.27-Mar-2021 3741.51 8044.57 60.87 2.00 428.40 3466.32
   02:48:27.600.27-Mar-2021 3741.51 8044.75 60.87 2.00 428.60 3466.32
   02:48:27.800.27-Mar-2021 3741.51 8045.02 60.87 2.00 428.80 3466.32
   02:48:28.000.27-Mar-2021 3741.51 8044.89 60.87 2.00 429.00 3466.32
   02:48:28.200.27-Mar-2021 3741.51 8044.89 60.87 2.00 429.20 3466.32
   02:48:28.400.27-Mar-2021 3741.51 8045.40 60.86 2.00 429.40 3466.32
   02:48:28.600.27-Mar-2021 3741.51 8045.70 60.86 2.00 429.60 3466.32
   02:48:28.800.27-Mar-2021 3741.51 8044.27 60.86 2.00 429.80 3466.32
