~Version Information
 VERS.                  2.0:   CWLS log ASCII Standard -VERSION 2.0
 WRAP.                   NO:   One line per depth step
~Well Information Block
#MNEM.UNIT     VALUE/NAME     DESCRIPTION
#---------     -----------    ---------------------------
 STRT.S             12:58:23 27-Mar-21: START TIME 12:58:23 27-Mar-21
 STOP.S             13:05:33 27-Mar-21: STOP TIME  13:05:33 27-Mar-21
 STEP.S                   0.00: STEP TIME
 NULL.                 -999.25: NULL VALUE
 DFWT.                        :  DIST FWL TEXT
 DFST.                        :  DIST FSL TEXT
 DMF .             Drill Floor:  DRILL MEAS FROM
 STIM.      20.26.40 11-Mar-21:  START TIME
 DATE.      20.26.40 30-Mar-21:  END TIME
 SPUD.               11-Mar-21:  SPUD DATE
 NREF.                    Grid:  NORTH REFERENCE
 HPTY.       Minimum Curvature:  HOLE POS TYPE
 DMOD.             Drill Model:  DRILL MOD DESC
 SVYD.                  Survey:  SURVEY DESC
 ILTD.               Lithology:  INTERP LTH DESC
 FTOP.          Formation Tops:  FORM TOPS DESC
 SON .        AZ-XX-0906805385:  JOB NUMBER
 WTYP.                Deviated:  WELL TYPE
 COMP.     BP Exploration (Caspian Sea) Ltd.:  COMPANY
 UWI .            /AZE00000198:  UNIQUE WELL IDENTIFIER
 API .            /AZE00000198:  API NUMBER
 BASE.              Azerbaijan:  LOGGING EQUIPMENT BASE LOCATION
 REGN.                   EESSA:  REGION
 PROV.                    Baku:  PROVINCE
 STAT.                    Baku:  STATE NAME
 CTRY.              Azerbaijan:  COUNTRY NAME
 FLD .                     ACG:  FIELD NAME
 SRVC.     Turan Drilling & Engineering:  CONTRACTOR
 MWDS.                    Baku:  MWD SHOP
 WELL.                    D09z:  WELL NAME
 JOBN.        AZ-XX-0906805385:  JOB TICKET NUMB
 RIG .              East Azeri:  RIG NAME
 DOE .                     N/A:  DOE NUMBER
 DCON.         Sperry Drilling:  DIRECTNL CONTR
 UNIT.                     N/A:  LOGGING EQUIPMENT ID
 PDAT.          Mean Sea Level:  PERMANENT DATUM
 MDS .        Operator Entered:  MAG DATA SOURCE
 CNTY.                        :  COUNTY
 LOC .                        :  LOCATION
 LMF .             Drill Floor:  LOG MEASURED FROM
 TVDS.m                  43.60:  TVDSS CORRECTN
 LATI.deg                40.02:  LATITUDE
 LONG.deg                51.45:  LONGITUDE
 WHNS.m                 -17.04:  WELL HEAD N/S
 WHEW.m                  -6.28:  WELL HEAD E/W
 UTMX.m              538763.98:  UTM X
 UTMY.m             4431880.20:  UTM Y
 DFWL.m                   0.00:  DISTANCE FWL
 DFSL.m                   0.00:  DISTANCE FSL
 SDEP.m                2680.01:  START DEPTH
 TDD .m                4000.01:  TOTAL DEPTH (DRILLER)
 VSDR.deg               225.71:  VERT SEC DIRECT
 GVFD.g                   1.00:  GRAVITY FIELD
 MFLD.nT              50353.00:  MAGNETIC FIELD
 MDIP.deg                59.49:  MAGNETIC DIP
 MDEC.deg                 6.46:  MAGNETIC DECL
 GRDC.deg                 0.29:  GRID CORRECTION
 AZTC.deg                 6.17:  AZM TOTAL CORR
 EPD .m                   0.00:  ELEVATION
 EGL .m                   0.00:  GROUND ELEVATION
 WDMS.m                 151.80:  WD ELEV
 APD .m                  43.60:  DEPTH ABOVE PD
 AGAP.m                  43.60:  AIR GAP
 VSEW.m                  -6.28:  VERT SEC E/W
 VSNS.m                 -17.04:  VERT SEC N/S
 DEP .m                2656.31:  DEPTH
 EKB .m                  43.60:  KB ELEVATION
 EDF .m                  43.60:  DF ELEVATION
 VSC .                       0:  VS TO CLOSURE
 MAGU.                 1851247:  MAGUTM CHECKSUM
~Parameter Information Block
#MNEM.UNIT       Value        Description
#---------     -----------    ---------------------------
 AV  .mps                 3.00:  Ann Velocity 
 AVMX.mps                 8.00:  Max Ann Veloc 
 AZIF.deg                 0.00:  Azm, Final 
 BHAT.                   Other:  BHA Type 
 BREV.rev                 0.00:  Rev Bit Total 
 BROT.°/30m               0.00:  Build Rotating 
 BS  .in                 10.25:  Bit Size 
 BTPL.psig              511.00:  Bit Press Loss 
 CABU.                      No:  Customer Abuse 
 CGEO.           Asif Pashayev:  Customer Geo 
 COMM.                     „¼n:  Run Comments 1 
 TCS .hr                 24.03:  Time Ciculation Ended 
 CV  .mps                 3.50:  Crit Velocity 
 CVMX.mps                 4.00:  Max Crit Veloc 
 DD1 .             Aziz Aliyev:  Direct Drillr 1 
 DD2 .      Fakhraddin Guliyev:  Direct Drillr 2 
 DDSV.                   Other:  DD Service 
 DEFF.%                  99.00:  % Det Eff 
 DLRX.°/30m               0.00:  Dogleg Rot Max 
 DLSO.°/30m               0.00:  Dogleg Oriented 
 DLSX.°/30m               0.00:  Dogleg Str Max 
 DRET.      23.00.40 28-Mar-21:  Drill End Time 
 DRST.      23.30.40 25-Mar-21:  Drill Start Tim 
 DTIM.hr                  0.00:  Time Drilling 
 EDEP.m                3886.01:  End Depth 
 ENG1.         Almaz Almadatov:  Engineer 1 
 ENG2.      Artemiy Matviyanov:  Engineer 2 
 ENG3.           Samir Gafarov:  Engineer 3 
 ETIM.      23.00.40 28-Mar-21:  End Time 
 FLOI.gpm               550.00:  Flow In 
 FLON.gpm               500.00:  Flow In Min 
 FLOS.cptm                0.00:  Fluid Loss 
 FLOX.gpm               590.00:  Flow In Max 
 HFLO.                      No:  High Flow 
 HPRE.                      No:  High Pressure 
 HTEM.                      No:  High Temp 
 HYDO.m                   1.80:  Hydro Offset 
 IFIN.deg                 0.00:  Inc, Final 
 IMAX.deg                 0.00:  Inc Max 
 IMIN.deg                 0.00:  Inc Min 
 IMND.m                   0.00:  Inc Min Depth 
 IMXD.m                   0.00:  Inc Max Depth 
 JARR.                      No:  Jarring 
 LETM.      03.22.40 28-Mar-21:  Log End Time 
 LOST.hr                     0:  Lost Rig Time 
 LSTM.      23.30.40 25-Mar-21:  Log Start Time 
 MDCL.ppm             34000.00:  Mud Chlorides 
 MDES.     Inversion Oil/Synthetic:  Mud Desc 
 DFD .sg                  1.51:  Mud Density 
 MDMN.sg                  1.51:  Dens Mud Min 
 MDMX.sg                  1.51:  Dens Mud Max 
 MOIL.                      70:  Run Mud Oil % 
 MOWR.                   70:30:  Run Mud OWR 
 MSND.                     0.2:  Run Mud Sand % 
 MSOL.                   21.60:  Run Mud Solids% 
 DFV .spqt               74.00:  Mud Viscosity 
 MWOD.in                  6.75:  MWD Tool OD 
 MWSI.                      No:  Serv Intrp, MWD 
 OTIM.hr                 69.09:  Time Operating 
 PCON.           Look Like New:  Pad Condition 
 PMAX.psia             3500.00:  Press Op, Max 
 PV  .cP                 70.00:  Mud PV 
 RUN .                     400:  Run Number 
 ROPA.m/hr                0.00:  ROP Avg 
 ROPN.m/hr                0.00:  ROP Min 
 ROPX.m/hr                0.00:  ROP Max 
 RPMA.rpm                80.00:  RPM Surface Avg 
 RPMN.rpm                10.00:  RPM Surface Min 
 RPMX.rpm               100.00:  RPM Surface Max 
 RRUN.                    0400:  Rig Run Number 
 RTIM.hr                  3.00:  Time Reaming 
 SAZI.deg                 0.00:  Azm, Start 
 SDEP.m                3886.01:  Start Depth 
 SIDD.                      No:  Serv Intrp, DD 
 SINC.deg                 0.00:  Inc, Start 
 SPPA.psig             3270.00:  SPP Avg 
 SPPN.psig             3220.00:  SPP Min 
 SPPX.psig             4430.00:  SPP Max 
 STIM.      23.30.40 25-Mar-21:  Start Time 
 SVCS.                 DD, MWD:  Services 
 SVER.                    9.20:  Sperry Version 
 TDAT.m                   0.00:  Tot Depth Attmp 
 TDDF.                      No:  Trip for DD 
 TFF .                      No:  Trip for Fail 
 TQAA.f-kp                8.00:  Torque Abs Avg 
 TQAN.f-kp                7.00:  Torque Abs Min 
 TQAX.f-kp               11.00:  Torque Abs Max 
 TRRT.°/30m               0.00:  Turn Rotating 
 MRT .                  EWR-M5:  Maximum Recorded Temperature 
 TTMX.degC               76.47:  Max Tool Temp 
 VS01.                90640857:  Virtual Str1 SN 
 VS02.                90639246:  Virtual Str2 SN 
 VS03.                90642265:  Virtual Str3 SN 
 VS04.                11654497:  Virtual Str4 SN 
 WBMN.klb                 0.00:  WOB Min 
 WITN.      Kamran Keberlinkiy:  Customer Rep 
 WITN.           Murad Guliyev:  Customer Rep 2 
 WOBA.klb                 0.00:  WOB Avg 
 WOBX.klb                 0.00:  WOB Max 
 YP  .lhf2               36.00:  Yield Point 
~Curve Information Block
#MNEM.UNIT                 API CODE     Curve Description
#---------               -----------    ---------------------------
 TIME.HHMMSS            00 000 000 000:  GT Time & Date
 GTDEPTH.m              00 000 000 000:  GT Depth
 GTPQH.psia             00 000 000 000:  GT HR Quartz Pressure
 GTTQ.degC              00 000 000 000:  GT Quartz Temperature
 GTTN.NONE              00 000 000 000:  GT Test Number
 GTET.sec               00 000 000 000:  GT Elapsed Test Time
 GTTVD.m                00 000 000 000:  GT True Vertical Depth
#Other Information
#
#WARRANTY: Halliburton will use its best efforts to furnish customers with 
#accurate information and interpretations that are part of, and incident to, the services 
#provided.  However, Halliburton cannot and does not warrant the accuracy 
#or correctness of such information and interpretations.  Under no circumstances should any 
#such information or interpretation be relied upon as the sole basis for any drilling, 
#completion, production, or financial decision or any procedure involving any risk to the 
#safety of any drilling venture, drilling rig or its crew or any other third party.  The 
#Customer has full responsibility for all drilling, completion and production operation.  
#Halliburton makes no representations or warranties, either expressed or 
#implied, including, but not limited to, the implied warranties of merchantability or fitness 
#for a particular purpose, with respect to the services rendered.  In no event will 
#Halliburton be liable for failure to obtain any particular results or for 
#any damages, including, but not limited to, indirect, special or consequential damages, 
#resulting from the use of any information or interpretation provided by Halliburton.
#
~A           TIME           GTDEPTH  GTPQH  GTTQ  GTTN   GTET   GTTVD  
# ...
   12:59:08.200.27-Mar-2021 3393.01 6779.24 61.82 13.00  45.20 3139.00
   12:59:08.400.27-Mar-2021 3393.01 6748.61 61.82 13.00  45.40 3139.00
   12:59:08.600.27-Mar-2021 3393.01 6638.21 61.82 13.00  45.60 3139.00
   12:59:08.800.27-Mar-2021 3393.01 6531.28 61.81 13.00  45.80 3139.00
   12:59:09.000.27-Mar-2021 3393.01 6424.07 61.81 13.00  46.00 3139.00
   12:59:09.200.27-Mar-2021 3393.01 6424.07 61.81 13.00  46.20 3139.00
   12:59:09.400.27-Mar-2021 3393.01 6181.49 61.81 13.00  46.40 3139.00
   12:59:09.600.27-Mar-2021 3393.01 6054.04 61.81 13.00  46.60 3139.00
   12:59:09.800.27-Mar-2021 3393.01 5916.94 61.81 13.00  46.80 3139.00
   12:59:10.000.27-Mar-2021 3393.01 5779.27 61.81 13.00  47.00 3139.00
   12:59:10.200.27-Mar-2021 3393.01 5779.27 61.81 13.00  47.20 3139.00
   12:59:10.400.27-Mar-2021 3393.01 5567.55 61.81 13.00  47.40 3139.00
   12:59:10.600.27-Mar-2021 3393.01 5534.22 61.81 13.00  47.60 3139.00
   12:59:10.800.27-Mar-2021 3393.01 5515.88 61.81 13.00  47.80 3139.00
   12:59:11.000.27-Mar-2021 3393.01 5497.19 61.81 13.00  48.00 3139.00
   12:59:11.200.27-Mar-2021 3393.01 5497.19 61.81 13.00  48.20 3139.00
   12:59:11.400.27-Mar-2021 3393.01 5463.82 61.81 13.00  48.40 3139.00
   12:59:11.600.27-Mar-2021 3393.01 5429.21 61.80 13.00  48.60 3139.00
   12:59:11.800.27-Mar-2021 3393.01 5385.19 61.80 13.00  48.80 3139.00
   12:59:12.000.27-Mar-2021 3393.01 5340.95 61.80 13.00  49.00 3139.00
   12:59:12.200.27-Mar-2021 3393.01 5340.95 61.80 13.00  49.20 3139.00
   12:59:12.400.27-Mar-2021 3393.01 5297.16 61.80 13.00  49.40 3139.00
   12:59:12.600.27-Mar-2021 3393.01 5279.02 61.80 13.00  49.60 3139.00
   12:59:12.800.27-Mar-2021 3393.01 5266.87 61.80 13.00  49.80 3139.00
   12:59:13.000.27-Mar-2021 3393.01 5258.99 61.80 13.00  50.00 3139.00
   12:59:13.200.27-Mar-2021 3393.01 5258.99 61.80 13.00  50.20 3139.00
   12:59:13.400.27-Mar-2021 3393.01 5247.02 61.79 13.00  50.40 3139.00
   12:59:13.600.27-Mar-2021 3393.01 5244.68 61.79 13.00  50.60 3139.00
   12:59:13.800.27-Mar-2021 3393.01 5236.22 61.79 13.00  50.80 3139.00
   12:59:14.000.27-Mar-2021 3393.01 5234.02 61.79 13.00  51.00 3139.00
   12:59:14.200.27-Mar-2021 3393.01 5234.02 61.79 13.00  51.20 3139.00
   12:59:14.400.27-Mar-2021 3393.01 5233.04 61.79 13.00  51.40 3139.00
   12:59:14.600.27-Mar-2021 3393.01 5233.17 61.79 13.00  51.60 3139.00
   12:59:14.800.27-Mar-2021 3393.01 5234.70 61.78 13.00  51.80 3139.00
   12:59:15.000.27-Mar-2021 3393.01 5235.04 61.78 13.00  52.00 3139.00
   12:59:15.200.27-Mar-2021 3393.01 5235.04 61.78 13.00  52.20 3139.00
   12:59:15.400.27-Mar-2021 3393.01 5233.66 61.78 13.00  52.40 3139.00
   12:59:15.600.27-Mar-2021 3393.01 5234.62 61.78 13.00  52.60 3139.00
   12:59:15.800.27-Mar-2021 3393.01 5235.67 61.78 13.00  52.80 3139.00
   12:59:16.000.27-Mar-2021 3393.01 5236.26 61.78 13.00  53.00 3139.00
   12:59:16.200.27-Mar-2021 3393.01 5236.26 61.78 13.00  53.20 3139.00
   12:59:16.400.27-Mar-2021 3393.01 5223.42 61.78 13.00  53.40 3139.00
   12:59:16.600.27-Mar-2021 3393.01 5127.16 61.77 13.00  53.60 3139.00
   12:59:16.800.27-Mar-2021 3393.01 4544.71 61.77 13.00  53.80 3139.00
   12:59:17.000.27-Mar-2021 3393.01 4083.30 61.77 13.00  54.00 3139.00
   12:59:17.200.27-Mar-2021 3393.01 4083.30 61.77 13.00  54.20 3139.00
   12:59:17.400.27-Mar-2021 3393.01 4195.78 61.77 13.00  54.40 3139.00
   12:59:17.600.27-Mar-2021 3393.01 4208.94 61.77 13.00  54.60 3139.00
   12:59:17.800.27-Mar-2021 3393.01 4222.99 61.77 13.00  54.80 3139.00
   12:59:18.000.27-Mar-2021 3393.01 4241.14 61.77 13.00  55.00 3139.00
   12:59:18.200.27-Mar-2021 3393.01 4241.14 61.77 13.00  55.20 3139.00
   12:59:18.400.27-Mar-2021 3393.01 4259.16 61.76 13.00  55.40 3139.00
   12:59:18.600.27-Mar-2021 3393.01 4267.98 61.76 13.00  55.60 3139.00
   12:59:18.800.27-Mar-2021 3393.01 4276.77 61.76 13.00  55.80 3139.00
   12:59:19.000.27-Mar-2021 3393.01 4289.59 61.76 13.00  56.00 3139.00
   12:59:19.200.27-Mar-2021 3393.01 4289.59 61.76 13.00  56.20 3139.00
   12:59:19.400.27-Mar-2021 3393.01 4293.45 61.76 13.00  56.40 3139.00
   12:59:19.600.27-Mar-2021 3393.01 4294.71 61.76 13.00  56.60 3139.00
   12:59:19.800.27-Mar-2021 3393.01 4296.83 61.76 13.00  56.80 3139.00
   12:59:20.000.27-Mar-2021 3393.01 4296.47 61.76 13.00  57.00 3139.00
   12:59:20.200.27-Mar-2021 3393.01 4296.47 61.76 13.00  57.20 3139.00
   12:59:20.400.27-Mar-2021 3393.01 4296.47 61.75 13.00  57.40 3139.00
   12:59:20.600.27-Mar-2021 3393.01 4304.20 61.75 13.00  57.60 3139.00
   12:59:20.800.27-Mar-2021 3393.01 4305.20 61.75 13.00  57.80 3139.00
   12:59:21.000.27-Mar-2021 3393.01 4307.53 61.75 13.00  58.00 3139.00
   12:59:21.200.27-Mar-2021 3393.01 4307.53 61.75 13.00  58.20 3139.00
   12:59:21.400.27-Mar-2021 3393.01 4309.71 61.75 13.00  58.40 3139.00
   12:59:21.600.27-Mar-2021 3393.01 4312.63 61.75 13.00  58.60 3139.00
   12:59:21.800.27-Mar-2021 3393.01 4316.77 61.75 13.00  58.80 3139.00
   12:59:22.000.27-Mar-2021 3393.01 4317.48 61.75 13.00  59.00 3139.00
   12:59:22.200.27-Mar-2021 3393.01 4317.48 61.75 13.00  59.20 3139.00
   12:59:22.400.27-Mar-2021 3393.01 4326.77 61.74 13.00  59.40 3139.00
   12:59:22.600.27-Mar-2021 3393.01 4326.71 61.74 13.00  59.60 3139.00
   12:59:22.800.27-Mar-2021 3393.01 4327.16 61.74 13.00  59.80 3139.00
   12:59:23.000.27-Mar-2021 3393.01 4327.84 61.74 13.00  60.00 3139.00
   12:59:23.200.27-Mar-2021 3393.01 4327.84 61.74 13.00  60.20 3139.00
   12:59:23.400.27-Mar-2021 3393.01 4329.73 61.74 13.00  60.40 3139.00
   12:59:23.600.27-Mar-2021 3393.01 4328.01 61.74 13.00  60.60 3139.00
   12:59:23.800.27-Mar-2021 3393.01 4328.48 61.74 13.00  60.80 3139.00
   12:59:24.000.27-Mar-2021 3393.01 4329.74 61.74 13.00  61.00 3139.00
   12:59:24.200.27-Mar-2021 3393.01 4329.74 61.74 13.00  61.20 3139.00
   12:59:24.400.27-Mar-2021 3393.01 4328.79 61.74 13.00  61.40 3139.00
   12:59:24.600.27-Mar-2021 3393.01 4332.06 61.74 13.00  61.60 3139.00
   12:59:24.800.27-Mar-2021 3393.01 4333.65 61.74 13.00  61.80 3139.00
   12:59:25.000.27-Mar-2021 3393.01 4330.34 61.74 13.00  62.00 3139.00
   12:59:25.200.27-Mar-2021 3393.01 4330.34 61.74 13.00  62.20 3139.00
   12:59:25.400.27-Mar-2021 3393.01 4326.89 61.74 13.00  62.40 3139.00
   12:59:25.600.27-Mar-2021 3393.01 4328.92 61.74 13.00  62.60 3139.00
   12:59:25.800.27-Mar-2021 3393.01 4330.40 61.74 13.00  62.80 3139.00
   12:59:26.000.27-Mar-2021 3393.01 4327.12 61.74 13.00  63.00 3139.00
   12:59:26.200.27-Mar-2021 3393.01 4327.12 61.74 13.00  63.20 3139.00
   12:59:26.400.27-Mar-2021 3393.01 4329.58 61.74 13.00  63.40 3139.00
   12:59:26.600.27-Mar-2021 3393.01 4531.25 61.74 13.00  63.60 3139.00
   12:59:26.800.27-Mar-2021 3393.01 4638.32 61.74 13.00  63.80 3139.00
   12:59:27.000.27-Mar-2021 3393.01 4654.58 61.73 13.00  64.00 3139.00
   12:59:27.200.27-Mar-2021 3393.01 4654.58 61.73 13.00  64.20 3139.00
   12:59:27.400.27-Mar-2021 3393.01 4661.29 61.73 13.00  64.40 3139.00
   12:59:27.600.27-Mar-2021 3393.01 4662.42 61.73 13.00  64.60 3139.00
   12:59:27.800.27-Mar-2021 3393.01 4663.32 61.73 13.00  64.80 3139.00
   12:59:28.000.27-Mar-2021 3393.01 4664.28 61.73 13.00  65.00 3139.00
   12:59:28.200.27-Mar-2021 3393.01 4664.28 61.73 13.00  65.20 3139.00
   12:59:28.400.27-Mar-2021 3393.01 4665.45 61.73 13.00  65.40 3139.00
   12:59:28.600.27-Mar-2021 3393.01 4665.90 61.74 13.00  65.60 3139.00
   12:59:28.800.27-Mar-2021 3393.01 4666.18 61.74 13.00  65.80 3139.00
   12:59:29.000.27-Mar-2021 3393.01 4666.56 61.74 13.00  66.00 3139.00
   12:59:29.200.27-Mar-2021 3393.01 4666.56 61.74 13.00  66.20 3139.00
   12:59:29.400.27-Mar-2021 3393.01 4667.12 61.74 13.00  66.40 3139.00
   12:59:29.600.27-Mar-2021 3393.01 4667.77 61.74 13.00  66.60 3139.00
   12:59:29.800.27-Mar-2021 3393.01 4667.82 61.74 13.00  66.80 3139.00
   12:59:30.000.27-Mar-2021 3393.01 4668.20 61.74 13.00  67.00 3139.00
   12:59:30.200.27-Mar-2021 3393.01 4668.20 61.74 13.00  67.20 3139.00
   12:59:30.400.27-Mar-2021 3393.01 4668.20 61.74 13.00  67.40 3139.00
   12:59:30.600.27-Mar-2021 3393.01 4668.31 61.74 13.00  67.60 3139.00
