~Version Information
 VERS.                  2.0:   CWLS log ASCII Standard -VERSION 2.0
 WRAP.                   NO:   One line per depth step
~Well Information Block
#MNEM.UNIT     VALUE/NAME     DESCRIPTION
#---------     -----------    ---------------------------
 STRT.S             03:27:53 27-Mar-21: START TIME 03:27:53 27-Mar-21
 STOP.S             03:35:02 27-Mar-21: STOP TIME  03:35:02 27-Mar-21
 STEP.S                   0.00: STEP TIME
 NULL.                 -999.25: NULL VALUE
 DFWT.                        :  DIST FWL TEXT
 DFST.                        :  DIST FSL TEXT
 DMF .             Drill Floor:  DRILL MEAS FROM
 STIM.      20.26.40 11-Mar-21:  START TIME
 DATE.      20.26.40 30-Mar-21:  END TIME
 SPUD.               11-Mar-21:  SPUD DATE
 NREF.                    Grid:  NORTH REFERENCE
 HPTY.       Minimum Curvature:  HOLE POS TYPE
 DMOD.             Drill Model:  DRILL MOD DESC
 SVYD.                  Survey:  SURVEY DESC
 ILTD.               Lithology:  INTERP LTH DESC
 FTOP.          Formation Tops:  FORM TOPS DESC
 SON .        AZ-XX-0906805385:  JOB NUMBER
 WTYP.                Deviated:  WELL TYPE
 COMP.     BP Exploration (Caspian Sea) Ltd.:  COMPANY
 UWI .            /AZE00000198:  UNIQUE WELL IDENTIFIER
 API .            /AZE00000198:  API NUMBER
 BASE.              Azerbaijan:  LOGGING EQUIPMENT BASE LOCATION
 REGN.                   EESSA:  REGION
 PROV.                    Baku:  PROVINCE
 STAT.                    Baku:  STATE NAME
 CTRY.              Azerbaijan:  COUNTRY NAME
 FLD .                     ACG:  FIELD NAME
 SRVC.     Turan Drilling & Engineering:  CONTRACTOR
 MWDS.                    Baku:  MWD SHOP
 WELL.                    D09z:  WELL NAME
 JOBN.        AZ-XX-0906805385:  JOB TICKET NUMB
 RIG .              East Azeri:  RIG NAME
 DOE .                     N/A:  DOE NUMBER
 DCON.         Sperry Drilling:  DIRECTNL CONTR
 UNIT.                     N/A:  LOGGING EQUIPMENT ID
 PDAT.          Mean Sea Level:  PERMANENT DATUM
 MDS .        Operator Entered:  MAG DATA SOURCE
 CNTY.                        :  COUNTY
 LOC .                        :  LOCATION
 LMF .             Drill Floor:  LOG MEASURED FROM
 TVDS.m                  43.60:  TVDSS CORRECTN
 LATI.deg                40.02:  LATITUDE
 LONG.deg                51.45:  LONGITUDE
 WHNS.m                 -17.04:  WELL HEAD N/S
 WHEW.m                  -6.28:  WELL HEAD E/W
 UTMX.m              538763.98:  UTM X
 UTMY.m             4431880.20:  UTM Y
 DFWL.m                   0.00:  DISTANCE FWL
 DFSL.m                   0.00:  DISTANCE FSL
 SDEP.m                2680.01:  START DEPTH
 TDD .m                4000.01:  TOTAL DEPTH (DRILLER)
 VSDR.deg               225.71:  VERT SEC DIRECT
 GVFD.g                   1.00:  GRAVITY FIELD
 MFLD.nT              50353.00:  MAGNETIC FIELD
 MDIP.deg                59.49:  MAGNETIC DIP
 MDEC.deg                 6.46:  MAGNETIC DECL
 GRDC.deg                 0.29:  GRID CORRECTION
 AZTC.deg                 6.17:  AZM TOTAL CORR
 EPD .m                   0.00:  ELEVATION
 EGL .m                   0.00:  GROUND ELEVATION
 WDMS.m                 151.80:  WD ELEV
 APD .m                  43.60:  DEPTH ABOVE PD
 AGAP.m                  43.60:  AIR GAP
 VSEW.m                  -6.28:  VERT SEC E/W
 VSNS.m                 -17.04:  VERT SEC N/S
 DEP .m                2656.31:  DEPTH
 EKB .m                  43.60:  KB ELEVATION
 EDF .m                  43.60:  DF ELEVATION
 VSC .                       0:  VS TO CLOSURE
 MAGU.                 1851247:  MAGUTM CHECKSUM
~Parameter Information Block
#MNEM.UNIT       Value        Description
#---------     -----------    ---------------------------
 AV  .mps                 3.00:  Ann Velocity 
 AVMX.mps                 8.00:  Max Ann Veloc 
 AZIF.deg                 0.00:  Azm, Final 
 BHAT.                   Other:  BHA Type 
 BREV.rev                 0.00:  Rev Bit Total 
 BROT.°/30m               0.00:  Build Rotating 
 BS  .in                 10.25:  Bit Size 
 BTPL.psig              511.00:  Bit Press Loss 
 CABU.                      No:  Customer Abuse 
 CGEO.           Asif Pashayev:  Customer Geo 
 COMM.                     ¼Fy:  Run Comments 1 
 TCS .hr                 24.03:  Time Ciculation Ended 
 CV  .mps                 3.50:  Crit Velocity 
 CVMX.mps                 4.00:  Max Crit Veloc 
 DD1 .             Aziz Aliyev:  Direct Drillr 1 
 DD2 .      Fakhraddin Guliyev:  Direct Drillr 2 
 DDSV.                   Other:  DD Service 
 DEFF.%                  99.00:  % Det Eff 
 DLRX.°/30m               0.00:  Dogleg Rot Max 
 DLSO.°/30m               0.00:  Dogleg Oriented 
 DLSX.°/30m               0.00:  Dogleg Str Max 
 DRET.      23.00.40 28-Mar-21:  Drill End Time 
 DRST.      23.30.40 25-Mar-21:  Drill Start Tim 
 DTIM.hr                  0.00:  Time Drilling 
 EDEP.m                3886.01:  End Depth 
 ENG1.         Almaz Almadatov:  Engineer 1 
 ENG2.      Artemiy Matviyanov:  Engineer 2 
 ENG3.           Samir Gafarov:  Engineer 3 
 ETIM.      23.00.40 28-Mar-21:  End Time 
 FLOI.gpm               550.00:  Flow In 
 FLON.gpm               500.00:  Flow In Min 
 FLOS.cptm                0.00:  Fluid Loss 
 FLOX.gpm               590.00:  Flow In Max 
 HFLO.                      No:  High Flow 
 HPRE.                      No:  High Pressure 
 HTEM.                      No:  High Temp 
 HYDO.m                   1.80:  Hydro Offset 
 IFIN.deg                 0.00:  Inc, Final 
 IMAX.deg                 0.00:  Inc Max 
 IMIN.deg                 0.00:  Inc Min 
 IMND.m                   0.00:  Inc Min Depth 
 IMXD.m                   0.00:  Inc Max Depth 
 JARR.                      No:  Jarring 
 LETM.      03.22.40 28-Mar-21:  Log End Time 
 LOST.hr                     0:  Lost Rig Time 
 LSTM.      23.30.40 25-Mar-21:  Log Start Time 
 MDCL.ppm             34000.00:  Mud Chlorides 
 MDES.     Inversion Oil/Synthetic:  Mud Desc 
 DFD .sg                  1.51:  Mud Density 
 MDMN.sg                  1.51:  Dens Mud Min 
 MDMX.sg                  1.51:  Dens Mud Max 
 MOIL.                      70:  Run Mud Oil % 
 MOWR.                   70:30:  Run Mud OWR 
 MSND.                     0.2:  Run Mud Sand % 
 MSOL.                   21.60:  Run Mud Solids% 
 DFV .spqt               74.00:  Mud Viscosity 
 MWOD.in                  6.75:  MWD Tool OD 
 MWSI.                      No:  Serv Intrp, MWD 
 OTIM.hr                 69.09:  Time Operating 
 PCON.           Look Like New:  Pad Condition 
 PMAX.psia             3500.00:  Press Op, Max 
 PV  .cP                 70.00:  Mud PV 
 RUN .                     400:  Run Number 
 ROPA.m/hr                0.00:  ROP Avg 
 ROPN.m/hr                0.00:  ROP Min 
 ROPX.m/hr                0.00:  ROP Max 
 RPMA.rpm                80.00:  RPM Surface Avg 
 RPMN.rpm                10.00:  RPM Surface Min 
 RPMX.rpm               100.00:  RPM Surface Max 
 RRUN.                    0400:  Rig Run Number 
 RTIM.hr                  3.00:  Time Reaming 
 SAZI.deg                 0.00:  Azm, Start 
 SDEP.m                3886.01:  Start Depth 
 SIDD.                      No:  Serv Intrp, DD 
 SINC.deg                 0.00:  Inc, Start 
 SPPA.psig             3270.00:  SPP Avg 
 SPPN.psig             3220.00:  SPP Min 
 SPPX.psig             4430.00:  SPP Max 
 STIM.      23.30.40 25-Mar-21:  Start Time 
 SVCS.                 DD, MWD:  Services 
 SVER.                    9.20:  Sperry Version 
 TDAT.m                   0.00:  Tot Depth Attmp 
 TDDF.                      No:  Trip for DD 
 TFF .                      No:  Trip for Fail 
 TQAA.f-kp                8.00:  Torque Abs Avg 
 TQAN.f-kp                7.00:  Torque Abs Min 
 TQAX.f-kp               11.00:  Torque Abs Max 
 TRRT.°/30m               0.00:  Turn Rotating 
 MRT .                  EWR-M5:  Maximum Recorded Temperature 
 TTMX.degC               76.47:  Max Tool Temp 
 VS01.                90640857:  Virtual Str1 SN 
 VS02.                90639246:  Virtual Str2 SN 
 VS03.                90642265:  Virtual Str3 SN 
 VS04.                11654497:  Virtual Str4 SN 
 WBMN.klb                 0.00:  WOB Min 
 WITN.      Kamran Keberlinkiy:  Customer Rep 
 WITN.           Murad Guliyev:  Customer Rep 2 
 WOBA.klb                 0.00:  WOB Avg 
 WOBX.klb                 0.00:  WOB Max 
 YP  .lhf2               36.00:  Yield Point 
~Curve Information Block
#MNEM.UNIT                 API CODE     Curve Description
#---------               -----------    ---------------------------
 TIME.HHMMSS            00 000 000 000:  GT Time & Date
 GTDEPTH.m              00 000 000 000:  GT Depth
 GTPQH.psia             00 000 000 000:  GT HR Quartz Pressure
 GTTQ.degC              00 000 000 000:  GT Quartz Temperature
 GTTN.NONE              00 000 000 000:  GT Test Number
 GTET.sec               00 000 000 000:  GT Elapsed Test Time
 GTTVD.m                00 000 000 000:  GT True Vertical Depth
#Other Information
#
#WARRANTY: Halliburton will use its best efforts to furnish customers with 
#accurate information and interpretations that are part of, and incident to, the services 
#provided.  However, Halliburton cannot and does not warrant the accuracy 
#or correctness of such information and interpretations.  Under no circumstances should any 
#such information or interpretation be relied upon as the sole basis for any drilling, 
#completion, production, or financial decision or any procedure involving any risk to the 
#safety of any drilling venture, drilling rig or its crew or any other third party.  The 
#Customer has full responsibility for all drilling, completion and production operation.  
#Halliburton makes no representations or warranties, either expressed or 
#implied, including, but not limited to, the implied warranties of merchantability or fitness 
#for a particular purpose, with respect to the services rendered.  In no event will 
#Halliburton be liable for failure to obtain any particular results or for 
#any damages, including, but not limited to, indirect, special or consequential damages, 
#resulting from the use of any information or interpretation provided by Halliburton.
#
~A           TIME           GTDEPTH  GTPQH  GTTQ  GTTN  GTET   GTTVD  
# ...
   03:32:06.159.27-Mar-2021 3725.51 5265.22 61.45 3.00 253.03 3451.28
   03:32:06.359.27-Mar-2021 3725.51 5265.22 61.45 3.00 253.23 3451.28
   03:32:06.559.27-Mar-2021 3725.51 5265.54 61.45 3.00 253.43 3451.28
   03:32:06.759.27-Mar-2021 3725.51 5265.59 61.45 3.00 253.63 3451.28
   03:32:06.959.27-Mar-2021 3725.51 5265.17 61.45 3.00 253.83 3451.28
   03:32:07.159.27-Mar-2021 3725.51 5265.32 61.45 3.00 254.03 3451.28
   03:32:07.359.27-Mar-2021 3725.51 5265.32 61.45 3.00 254.23 3451.28
   03:32:07.559.27-Mar-2021 3725.51 5265.29 61.45 3.00 254.43 3451.28
   03:32:07.759.27-Mar-2021 3725.51 5265.56 61.45 3.00 254.63 3451.28
   03:32:07.959.27-Mar-2021 3725.51 5265.35 61.45 3.00 254.83 3451.28
   03:32:08.159.27-Mar-2021 3725.51 5265.36 61.45 3.00 255.03 3451.28
   03:32:08.359.27-Mar-2021 3725.51 5265.36 61.45 3.00 255.23 3451.28
   03:32:08.559.27-Mar-2021 3725.51 5265.36 61.45 3.00 255.43 3451.28
   03:32:08.759.27-Mar-2021 3725.51 5265.37 61.45 3.00 255.63 3451.28
   03:32:08.959.27-Mar-2021 3725.51 5265.47 61.45 3.00 255.83 3451.28
   03:32:09.159.27-Mar-2021 3725.51 5265.39 61.45 3.00 256.03 3451.28
   03:32:09.359.27-Mar-2021 3725.51 5265.39 61.45 3.00 256.23 3451.28
   03:32:09.559.27-Mar-2021 3725.51 5265.44 61.45 3.00 256.43 3451.28
   03:32:09.759.27-Mar-2021 3725.51 5265.48 61.45 3.00 256.63 3451.28
   03:32:09.959.27-Mar-2021 3725.51 5265.37 61.45 3.00 256.83 3451.28
   03:32:10.159.27-Mar-2021 3725.51 5265.37 61.45 3.00 257.03 3451.28
   03:32:10.359.27-Mar-2021 3725.51 5265.37 61.45 3.00 257.23 3451.28
   03:32:10.559.27-Mar-2021 3725.51 5265.37 61.45 3.00 257.43 3451.28
   03:32:10.759.27-Mar-2021 3725.51 5265.27 61.45 3.00 257.63 3451.28
   03:32:10.959.27-Mar-2021 3725.51 5265.73 61.45 3.00 257.83 3451.28
   03:32:11.159.27-Mar-2021 3725.51 5265.23 61.45 3.00 258.03 3451.28
   03:32:11.359.27-Mar-2021 3725.51 5265.23 61.45 3.00 258.23 3451.28
   03:32:11.559.27-Mar-2021 3725.51 5265.62 61.45 3.00 258.43 3451.28
   03:32:11.759.27-Mar-2021 3725.51 5265.31 61.45 3.00 258.63 3451.28
   03:32:11.959.27-Mar-2021 3725.51 5265.29 61.45 3.00 258.83 3451.28
   03:32:12.159.27-Mar-2021 3725.51 5265.48 61.45 3.00 259.03 3451.28
   03:32:12.359.27-Mar-2021 3725.51 5265.48 61.45 3.00 259.23 3451.28
   03:32:12.559.27-Mar-2021 3725.51 5265.31 61.45 3.00 259.43 3451.28
   03:32:12.760.27-Mar-2021 3725.51 5265.39 61.45 3.00 259.63 3451.28
   03:32:12.960.27-Mar-2021 3725.51 5265.44 61.45 3.00 259.83 3451.28
   03:32:13.160.27-Mar-2021 3725.51 5265.37 61.45 3.00 260.03 3451.28
   03:32:13.360.27-Mar-2021 3725.51 5265.37 61.45 3.00 260.23 3451.28
   03:32:13.560.27-Mar-2021 3725.51 5265.41 61.45 3.00 260.43 3451.28
   03:32:13.760.27-Mar-2021 3725.51 5265.33 61.45 3.00 260.63 3451.28
   03:32:13.960.27-Mar-2021 3725.51 5265.72 61.45 3.00 260.83 3451.28
   03:32:14.160.27-Mar-2021 3725.51 5265.27 61.45 3.00 261.03 3451.28
   03:32:14.360.27-Mar-2021 3725.51 5265.27 61.45 3.00 261.23 3451.28
   03:32:14.560.27-Mar-2021 3725.51 5265.50 61.45 3.00 261.43 3451.28
   03:32:14.760.27-Mar-2021 3725.51 5265.41 61.45 3.00 261.63 3451.28
   03:32:14.960.27-Mar-2021 3725.51 5265.16 61.45 3.00 261.83 3451.28
   03:32:15.160.27-Mar-2021 3725.51 5265.88 61.45 3.00 262.03 3451.28
   03:32:15.360.27-Mar-2021 3725.51 5265.88 61.45 3.00 262.23 3451.28
   03:32:15.560.27-Mar-2021 3725.51 5265.15 61.45 3.00 262.43 3451.28
   03:32:15.760.27-Mar-2021 3725.51 5265.56 61.45 3.00 262.63 3451.28
   03:32:15.960.27-Mar-2021 3725.51 5265.60 61.45 3.00 262.83 3451.28
   03:32:16.160.27-Mar-2021 3725.51 5265.23 61.45 3.00 263.03 3451.28
   03:32:16.360.27-Mar-2021 3725.51 5265.23 61.45 3.00 263.23 3451.28
   03:32:16.560.27-Mar-2021 3725.51 5265.54 61.45 3.00 263.43 3451.28
   03:32:16.760.27-Mar-2021 3725.51 5265.44 61.45 3.00 263.63 3451.28
   03:32:16.960.27-Mar-2021 3725.51 5265.18 61.45 3.00 263.83 3451.28
   03:32:17.160.27-Mar-2021 3725.51 5265.48 61.45 3.00 264.03 3451.28
   03:32:17.360.27-Mar-2021 3725.51 5265.48 61.45 3.00 264.23 3451.28
   03:32:17.560.27-Mar-2021 3725.51 5265.32 61.45 3.00 264.43 3451.28
   03:32:17.760.27-Mar-2021 3725.51 5265.47 61.45 3.00 264.63 3451.28
   03:32:17.960.27-Mar-2021 3725.51 5265.31 61.45 3.00 264.83 3451.28
   03:32:18.160.27-Mar-2021 3725.51 5265.46 61.45 3.00 265.03 3451.28
   03:32:18.360.27-Mar-2021 3725.51 5265.46 61.45 3.00 265.23 3451.28
   03:32:18.560.27-Mar-2021 3725.51 5265.31 61.45 3.00 265.43 3451.28
   03:32:18.760.27-Mar-2021 3725.51 5265.35 61.45 3.00 265.63 3451.28
   03:32:18.960.27-Mar-2021 3725.51 5264.56 61.45 3.00 265.83 3451.28
   03:32:19.160.27-Mar-2021 3725.51 5209.70 61.45 3.00 266.03 3451.28
   03:32:19.360.27-Mar-2021 3725.51 5209.70 61.45 3.00 266.23 3451.28
   03:32:19.560.27-Mar-2021 3725.51 5171.51 61.45 3.00 266.43 3451.28
   03:32:19.760.27-Mar-2021 3725.51 5172.34 61.45 3.00 266.63 3451.28
   03:32:19.960.27-Mar-2021 3725.51 5170.24 61.45 3.00 266.83 3451.28
   03:32:20.160.27-Mar-2021 3725.51 5171.21 61.45 3.00 267.03 3451.28
   03:32:20.360.27-Mar-2021 3725.51 5171.21 61.45 3.00 267.23 3451.28
   03:32:20.560.27-Mar-2021 3725.51 5169.94 61.45 3.00 267.43 3451.28
   03:32:20.761.27-Mar-2021 3725.51 5170.90 61.45 3.00 267.63 3451.28
   03:32:20.961.27-Mar-2021 3725.51 5171.58 61.45 3.00 267.83 3451.28
   03:32:21.161.27-Mar-2021 3725.51 5171.43 61.45 3.00 268.03 3451.28
   03:32:21.361.27-Mar-2021 3725.51 5171.43 61.45 3.00 268.23 3451.28
   03:32:21.561.27-Mar-2021 3725.51 5170.91 61.45 3.00 268.43 3451.28
   03:32:21.761.27-Mar-2021 3725.51 5170.09 61.45 3.00 268.63 3451.28
   03:32:21.961.27-Mar-2021 3725.51 5171.77 61.45 3.00 268.83 3451.28
   03:32:22.161.27-Mar-2021 3725.51 5171.22 61.45 3.00 269.03 3451.28
   03:32:22.361.27-Mar-2021 3725.51 5171.22 61.45 3.00 269.23 3451.28
   03:32:22.561.27-Mar-2021 3725.51 5171.37 61.45 3.00 269.43 3451.28
   03:32:22.761.27-Mar-2021 3725.51 5171.65 61.45 3.00 269.63 3451.28
   03:32:22.961.27-Mar-2021 3725.51 5171.98 61.45 3.00 269.83 3451.28
   03:32:23.161.27-Mar-2021 3725.51 5171.02 61.45 3.00 270.03 3451.28
   03:32:23.361.27-Mar-2021 3725.51 5171.02 61.45 3.00 270.23 3451.28
   03:32:23.561.27-Mar-2021 3725.51 5170.41 61.45 3.00 270.43 3451.28
   03:32:23.761.27-Mar-2021 3725.51 5171.23 61.45 3.00 270.63 3451.28
   03:32:23.961.27-Mar-2021 3725.51 5170.49 61.45 3.00 270.83 3451.28
   03:32:24.161.27-Mar-2021 3725.51 5171.55 61.45 3.00 271.03 3451.28
   03:32:24.361.27-Mar-2021 3725.51 5171.55 61.45 3.00 271.23 3451.28
   03:32:24.561.27-Mar-2021 3725.51 5171.43 61.45 3.00 271.43 3451.28
   03:32:24.761.27-Mar-2021 3725.51 5171.10 61.45 3.00 271.63 3451.28
   03:32:24.961.27-Mar-2021 3725.51 5170.27 61.45 3.00 271.83 3451.28
   03:32:25.161.27-Mar-2021 3725.51 5171.19 61.45 3.00 272.03 3451.28
   03:32:25.361.27-Mar-2021 3725.51 5171.19 61.45 3.00 272.23 3451.28
   03:32:25.561.27-Mar-2021 3725.51 5172.13 61.45 3.00 272.43 3451.28
   03:32:25.761.27-Mar-2021 3725.51 5171.54 61.45 3.00 272.63 3451.28
   03:32:25.961.27-Mar-2021 3725.51 5171.60 61.45 3.00 272.83 3451.28
   03:32:26.161.27-Mar-2021 3725.51 5171.60 61.45 3.00 273.03 3451.28
   03:32:26.361.27-Mar-2021 3725.51 5171.60 61.45 3.00 273.23 3451.28
   03:32:26.561.27-Mar-2021 3725.51 5172.37 61.45 3.00 273.43 3451.28
   03:32:26.761.27-Mar-2021 3725.51 5172.04 61.45 3.00 273.63 3451.28
   03:32:26.961.27-Mar-2021 3725.51 5172.37 61.45 3.00 273.83 3451.28
   03:32:27.161.27-Mar-2021 3725.51 5172.00 61.45 3.00 274.03 3451.28
   03:32:27.361.27-Mar-2021 3725.51 5172.00 61.45 3.00 274.23 3451.28
   03:32:27.561.27-Mar-2021 3725.51 5172.44 61.45 3.00 274.43 3451.28
   03:32:27.761.27-Mar-2021 3725.51 5172.61 61.45 3.00 274.63 3451.28
   03:32:27.961.27-Mar-2021 3725.51 5173.07 61.45 3.00 274.83 3451.28
   03:32:28.161.27-Mar-2021 3725.51 5172.08 61.45 3.00 275.03 3451.28
   03:32:28.361.27-Mar-2021 3725.51 5172.08 61.45 3.00 275.23 3451.28
   03:32:28.561.27-Mar-2021 3725.51 5171.18 61.45 3.00 275.43 3451.28
   03:32:28.762.27-Mar-2021 3725.51 5172.09 61.45 3.00 275.63 3451.28
   03:32:28.962.27-Mar-2021 3725.51 5173.72 61.45 3.00 275.83 3451.28
