~Version Information
 VERS.                  2.0:   CWLS log ASCII Standard -VERSION 2.0
 WRAP.                   NO:   One line per depth step
~Well Information Block
#MNEM.UNIT     VALUE/NAME     DESCRIPTION
#---------     -----------    ---------------------------
 STRT.S             03:27:53 27-Mar-21: START TIME 03:27:53 27-Mar-21
 STOP.S             03:35:02 27-Mar-21: STOP TIME  03:35:02 27-Mar-21
 STEP.S                   0.00: STEP TIME
 NULL.                 -999.25: NULL VALUE
 DFWT.                        :  DIST FWL TEXT
 DFST.                        :  DIST FSL TEXT
 DMF .             Drill Floor:  DRILL MEAS FROM
 STIM.      20.26.40 11-Mar-21:  START TIME
 DATE.      20.26.40 30-Mar-21:  END TIME
 SPUD.               11-Mar-21:  SPUD DATE
 NREF.                    Grid:  NORTH REFERENCE
 HPTY.       Minimum Curvature:  HOLE POS TYPE
 DMOD.             Drill Model:  DRILL MOD DESC
 SVYD.                  Survey:  SURVEY DESC
 ILTD.               Lithology:  INTERP LTH DESC
 FTOP.          Formation Tops:  FORM TOPS DESC
 SON .        AZ-XX-0906805385:  JOB NUMBER
 WTYP.                Deviated:  WELL TYPE
 COMP.     BP Exploration (Caspian Sea) Ltd.:  COMPANY
 UWI .            /AZE00000198:  UNIQUE WELL IDENTIFIER
 API .            /AZE00000198:  API NUMBER
 BASE.              Azerbaijan:  LOGGING EQUIPMENT BASE LOCATION
 REGN.                   EESSA:  REGION
 PROV.                    Baku:  PROVINCE
 STAT.                    Baku:  STATE NAME
 CTRY.              Azerbaijan:  COUNTRY NAME
 FLD .                     ACG:  FIELD NAME
 SRVC.     Turan Drilling & Engineering:  CONTRACTOR
 MWDS.                    Baku:  MWD SHOP
 WELL.                    D09z:  WELL NAME
 JOBN.        AZ-XX-0906805385:  JOB TICKET NUMB
 RIG .              East Azeri:  RIG NAME
 DOE .                     N/A:  DOE NUMBER
 DCON.         Sperry Drilling:  DIRECTNL CONTR
 UNIT.                     N/A:  LOGGING EQUIPMENT ID
 PDAT.          Mean Sea Level:  PERMANENT DATUM
 MDS .        Operator Entered:  MAG DATA SOURCE
 CNTY.                        :  COUNTY
 LOC .                        :  LOCATION
 LMF .             Drill Floor:  LOG MEASURED FROM
 TVDS.m                  43.60:  TVDSS CORRECTN
 LATI.deg                40.02:  LATITUDE
 LONG.deg                51.45:  LONGITUDE
 WHNS.m                 -17.04:  WELL HEAD N/S
 WHEW.m                  -6.28:  WELL HEAD E/W
 UTMX.m              538763.98:  UTM X
 UTMY.m             4431880.20:  UTM Y
 DFWL.m                   0.00:  DISTANCE FWL
 DFSL.m                   0.00:  DISTANCE FSL
 SDEP.m                2680.01:  START DEPTH
 TDD .m                4000.01:  TOTAL DEPTH (DRILLER)
 VSDR.deg               225.71:  VERT SEC DIRECT
 GVFD.g                   1.00:  GRAVITY FIELD
 MFLD.nT              50353.00:  MAGNETIC FIELD
 MDIP.deg                59.49:  MAGNETIC DIP
 MDEC.deg                 6.46:  MAGNETIC DECL
 GRDC.deg                 0.29:  GRID CORRECTION
 AZTC.deg                 6.17:  AZM TOTAL CORR
 EPD .m                   0.00:  ELEVATION
 EGL .m                   0.00:  GROUND ELEVATION
 WDMS.m                 151.80:  WD ELEV
 APD .m                  43.60:  DEPTH ABOVE PD
 AGAP.m                  43.60:  AIR GAP
 VSEW.m                  -6.28:  VERT SEC E/W
 VSNS.m                 -17.04:  VERT SEC N/S
 DEP .m                2656.31:  DEPTH
 EKB .m                  43.60:  KB ELEVATION
 EDF .m                  43.60:  DF ELEVATION
 VSC .                       0:  VS TO CLOSURE
 MAGU.                 1851247:  MAGUTM CHECKSUM
~Parameter Information Block
#MNEM.UNIT       Value        Description
#---------     -----------    ---------------------------
 AV  .mps                 3.00:  Ann Velocity 
 AVMX.mps                 8.00:  Max Ann Veloc 
 AZIF.deg                 0.00:  Azm, Final 
 BHAT.                   Other:  BHA Type 
 BREV.rev                 0.00:  Rev Bit Total 
 BROT.°/30m               0.00:  Build Rotating 
 BS  .in                 10.25:  Bit Size 
 BTPL.psig              511.00:  Bit Press Loss 
 CABU.                      No:  Customer Abuse 
 CGEO.           Asif Pashayev:  Customer Geo 
 COMM.                     ¼Fy:  Run Comments 1 
 TCS .hr                 24.03:  Time Ciculation Ended 
 CV  .mps                 3.50:  Crit Velocity 
 CVMX.mps                 4.00:  Max Crit Veloc 
 DD1 .             Aziz Aliyev:  Direct Drillr 1 
 DD2 .      Fakhraddin Guliyev:  Direct Drillr 2 
 DDSV.                   Other:  DD Service 
 DEFF.%                  99.00:  % Det Eff 
 DLRX.°/30m               0.00:  Dogleg Rot Max 
 DLSO.°/30m               0.00:  Dogleg Oriented 
 DLSX.°/30m               0.00:  Dogleg Str Max 
 DRET.      23.00.40 28-Mar-21:  Drill End Time 
 DRST.      23.30.40 25-Mar-21:  Drill Start Tim 
 DTIM.hr                  0.00:  Time Drilling 
 EDEP.m                3886.01:  End Depth 
 ENG1.         Almaz Almadatov:  Engineer 1 
 ENG2.      Artemiy Matviyanov:  Engineer 2 
 ENG3.           Samir Gafarov:  Engineer 3 
 ETIM.      23.00.40 28-Mar-21:  End Time 
 FLOI.gpm               550.00:  Flow In 
 FLON.gpm               500.00:  Flow In Min 
 FLOS.cptm                0.00:  Fluid Loss 
 FLOX.gpm               590.00:  Flow In Max 
 HFLO.                      No:  High Flow 
 HPRE.                      No:  High Pressure 
 HTEM.                      No:  High Temp 
 HYDO.m                   1.80:  Hydro Offset 
 IFIN.deg                 0.00:  Inc, Final 
 IMAX.deg                 0.00:  Inc Max 
 IMIN.deg                 0.00:  Inc Min 
 IMND.m                   0.00:  Inc Min Depth 
 IMXD.m                   0.00:  Inc Max Depth 
 JARR.                      No:  Jarring 
 LETM.      03.22.40 28-Mar-21:  Log End Time 
 LOST.hr                     0:  Lost Rig Time 
 LSTM.      23.30.40 25-Mar-21:  Log Start Time 
 MDCL.ppm             34000.00:  Mud Chlorides 
 MDES.     Inversion Oil/Synthetic:  Mud Desc 
 DFD .sg                  1.51:  Mud Density 
 MDMN.sg                  1.51:  Dens Mud Min 
 MDMX.sg                  1.51:  Dens Mud Max 
 MOIL.                      70:  Run Mud Oil % 
 MOWR.                   70:30:  Run Mud OWR 
 MSND.                     0.2:  Run Mud Sand % 
 MSOL.                   21.60:  Run Mud Solids% 
 DFV .spqt               74.00:  Mud Viscosity 
 MWOD.in                  6.75:  MWD Tool OD 
 MWSI.                      No:  Serv Intrp, MWD 
 OTIM.hr                 69.09:  Time Operating 
 PCON.           Look Like New:  Pad Condition 
 PMAX.psia             3500.00:  Press Op, Max 
 PV  .cP                 70.00:  Mud PV 
 RUN .                     400:  Run Number 
 ROPA.m/hr                0.00:  ROP Avg 
 ROPN.m/hr                0.00:  ROP Min 
 ROPX.m/hr                0.00:  ROP Max 
 RPMA.rpm                80.00:  RPM Surface Avg 
 RPMN.rpm                10.00:  RPM Surface Min 
 RPMX.rpm               100.00:  RPM Surface Max 
 RRUN.                    0400:  Rig Run Number 
 RTIM.hr                  3.00:  Time Reaming 
 SAZI.deg                 0.00:  Azm, Start 
 SDEP.m                3886.01:  Start Depth 
 SIDD.                      No:  Serv Intrp, DD 
 SINC.deg                 0.00:  Inc, Start 
 SPPA.psig             3270.00:  SPP Avg 
 SPPN.psig             3220.00:  SPP Min 
 SPPX.psig             4430.00:  SPP Max 
 STIM.      23.30.40 25-Mar-21:  Start Time 
 SVCS.                 DD, MWD:  Services 
 SVER.                    9.20:  Sperry Version 
 TDAT.m                   0.00:  Tot Depth Attmp 
 TDDF.                      No:  Trip for DD 
 TFF .                      No:  Trip for Fail 
 TQAA.f-kp                8.00:  Torque Abs Avg 
 TQAN.f-kp                7.00:  Torque Abs Min 
 TQAX.f-kp               11.00:  Torque Abs Max 
 TRRT.°/30m               0.00:  Turn Rotating 
 MRT .                  EWR-M5:  Maximum Recorded Temperature 
 TTMX.degC               76.47:  Max Tool Temp 
 VS01.                90640857:  Virtual Str1 SN 
 VS02.                90639246:  Virtual Str2 SN 
 VS03.                90642265:  Virtual Str3 SN 
 VS04.                11654497:  Virtual Str4 SN 
 WBMN.klb                 0.00:  WOB Min 
 WITN.      Kamran Keberlinkiy:  Customer Rep 
 WITN.           Murad Guliyev:  Customer Rep 2 
 WOBA.klb                 0.00:  WOB Avg 
 WOBX.klb                 0.00:  WOB Max 
 YP  .lhf2               36.00:  Yield Point 
~Curve Information Block
#MNEM.UNIT                 API CODE     Curve Description
#---------               -----------    ---------------------------
 TIME.HHMMSS            00 000 000 000:  GT Time & Date
 GTDEPTH.m              00 000 000 000:  GT Depth
 GTPQH.psia             00 000 000 000:  GT HR Quartz Pressure
 GTTQ.degC              00 000 000 000:  GT Quartz Temperature
 GTTN.NONE              00 000 000 000:  GT Test Number
 GTET.sec               00 000 000 000:  GT Elapsed Test Time
 GTTVD.m                00 000 000 000:  GT True Vertical Depth
#Other Information
#
#WARRANTY: Halliburton will use its best efforts to furnish customers with 
#accurate information and interpretations that are part of, and incident to, the services 
#provided.  However, Halliburton cannot and does not warrant the accuracy 
#or correctness of such information and interpretations.  Under no circumstances should any 
#such information or interpretation be relied upon as the sole basis for any drilling, 
#completion, production, or financial decision or any procedure involving any risk to the 
#safety of any drilling venture, drilling rig or its crew or any other third party.  The 
#Customer has full responsibility for all drilling, completion and production operation.  
#Halliburton makes no representations or warranties, either expressed or 
#implied, including, but not limited to, the implied warranties of merchantability or fitness 
#for a particular purpose, with respect to the services rendered.  In no event will 
#Halliburton be liable for failure to obtain any particular results or for 
#any damages, including, but not limited to, indirect, special or consequential damages, 
#resulting from the use of any information or interpretation provided by Halliburton.
#
~A           TIME           GTDEPTH  GTPQH  GTTQ  GTTN  GTET   GTTVD  
# ...
   03:29:48.141.27-Mar-2021 3725.51 5265.67 61.45 3.00 115.01 3451.28
   03:29:48.341.27-Mar-2021 3725.51 5265.67 61.45 3.00 115.21 3451.28
   03:29:48.541.27-Mar-2021 3725.51 5265.67 61.45 3.00 115.41 3451.28
   03:29:48.741.27-Mar-2021 3725.51 5265.65 61.45 3.00 115.61 3451.28
   03:29:48.941.27-Mar-2021 3725.51 5265.54 61.45 3.00 115.81 3451.28
   03:29:49.141.27-Mar-2021 3725.51 5265.97 61.45 3.00 116.01 3451.28
   03:29:49.342.27-Mar-2021 3725.51 5265.97 61.45 3.00 116.21 3451.28
   03:29:49.542.27-Mar-2021 3725.51 5265.54 61.45 3.00 116.41 3451.28
   03:29:49.742.27-Mar-2021 3725.51 5265.93 61.45 3.00 116.61 3451.28
   03:29:49.942.27-Mar-2021 3725.51 5265.55 61.45 3.00 116.81 3451.28
   03:29:50.142.27-Mar-2021 3725.51 5265.43 61.45 3.00 117.01 3451.28
   03:29:50.342.27-Mar-2021 3725.51 5265.43 61.45 3.00 117.21 3451.28
   03:29:50.542.27-Mar-2021 3725.51 5265.67 61.45 3.00 117.41 3451.28
   03:29:50.742.27-Mar-2021 3725.51 5265.57 61.45 3.00 117.61 3451.28
   03:29:50.942.27-Mar-2021 3725.51 5265.70 61.45 3.00 117.81 3451.28
   03:29:51.142.27-Mar-2021 3725.51 5265.75 61.45 3.00 118.01 3451.28
   03:29:51.342.27-Mar-2021 3725.51 5265.75 61.45 3.00 118.21 3451.28
   03:29:51.542.27-Mar-2021 3725.51 5265.70 61.45 3.00 118.41 3451.28
   03:29:51.742.27-Mar-2021 3725.51 5265.71 61.45 3.00 118.61 3451.28
   03:29:51.942.27-Mar-2021 3725.51 5265.55 61.45 3.00 118.81 3451.28
   03:29:52.142.27-Mar-2021 3725.51 5265.94 61.45 3.00 119.01 3451.28
   03:29:52.342.27-Mar-2021 3725.51 5265.94 61.45 3.00 119.21 3451.28
   03:29:52.542.27-Mar-2021 3725.51 5265.42 61.45 3.00 119.41 3451.28
   03:29:52.742.27-Mar-2021 3725.51 5265.84 61.45 3.00 119.62 3451.28
   03:29:52.942.27-Mar-2021 3725.51 5265.65 61.45 3.00 119.82 3451.28
   03:29:53.142.27-Mar-2021 3725.51 5265.41 61.45 3.00 120.02 3451.28
   03:29:53.342.27-Mar-2021 3725.51 5265.41 61.45 3.00 120.22 3451.28
   03:29:53.542.27-Mar-2021 3725.51 5265.51 61.45 3.00 120.42 3451.28
   03:29:53.742.27-Mar-2021 3725.51 5265.29 61.45 3.00 120.62 3451.28
   03:29:53.942.27-Mar-2021 3725.51 5265.85 61.45 3.00 120.82 3451.28
   03:29:54.142.27-Mar-2021 3725.51 5265.78 61.45 3.00 121.02 3451.28
   03:29:54.342.27-Mar-2021 3725.51 5265.78 61.45 3.00 121.22 3451.28
   03:29:54.542.27-Mar-2021 3725.51 5265.47 61.45 3.00 121.42 3451.28
   03:29:54.742.27-Mar-2021 3725.51 5265.82 61.45 3.00 121.62 3451.28
   03:29:54.942.27-Mar-2021 3725.51 5265.65 61.45 3.00 121.82 3451.28
   03:29:55.142.27-Mar-2021 3725.51 5265.42 61.45 3.00 122.02 3451.28
   03:29:55.342.27-Mar-2021 3725.51 5265.42 61.45 3.00 122.22 3451.28
   03:29:55.542.27-Mar-2021 3725.51 5265.60 61.45 3.00 122.42 3451.28
   03:29:55.742.27-Mar-2021 3725.51 5265.58 61.45 3.00 122.62 3451.28
   03:29:55.942.27-Mar-2021 3725.51 5265.74 61.45 3.00 122.82 3451.28
   03:29:56.142.27-Mar-2021 3725.51 5265.53 61.45 3.00 123.02 3451.28
   03:29:56.342.27-Mar-2021 3725.51 5265.53 61.45 3.00 123.22 3451.28
   03:29:56.542.27-Mar-2021 3725.51 5265.79 61.45 3.00 123.42 3451.28
   03:29:56.742.27-Mar-2021 3725.51 5265.50 61.45 3.00 123.62 3451.28
   03:29:56.942.27-Mar-2021 3725.51 5265.65 61.45 3.00 123.82 3451.28
   03:29:57.142.27-Mar-2021 3725.51 5265.70 61.45 3.00 124.02 3451.28
   03:29:57.343.27-Mar-2021 3725.51 5265.70 61.45 3.00 124.22 3451.28
   03:29:57.543.27-Mar-2021 3725.51 5265.60 61.45 3.00 124.42 3451.28
   03:29:57.743.27-Mar-2021 3725.51 5265.70 61.45 3.00 124.62 3451.28
   03:29:57.943.27-Mar-2021 3725.51 5265.70 61.45 3.00 124.82 3451.28
   03:29:58.143.27-Mar-2021 3725.51 5265.64 61.45 3.00 125.02 3451.28
   03:29:58.343.27-Mar-2021 3725.51 5265.64 61.45 3.00 125.22 3451.28
   03:29:58.543.27-Mar-2021 3725.51 5265.81 61.45 3.00 125.42 3451.28
   03:29:58.743.27-Mar-2021 3725.51 5265.43 61.45 3.00 125.62 3451.28
   03:29:58.943.27-Mar-2021 3725.51 5265.76 61.45 3.00 125.82 3451.28
   03:29:59.143.27-Mar-2021 3725.51 5265.80 61.45 3.00 126.02 3451.28
   03:29:59.343.27-Mar-2021 3725.51 5265.80 61.45 3.00 126.22 3451.28
   03:29:59.543.27-Mar-2021 3725.51 5265.68 61.45 3.00 126.42 3451.28
   03:29:59.743.27-Mar-2021 3725.51 5265.79 61.45 3.00 126.62 3451.28
   03:29:59.943.27-Mar-2021 3725.51 5265.47 61.45 3.00 126.82 3451.28
   03:30:00.143.27-Mar-2021 3725.51 5265.65 61.45 3.00 127.02 3451.28
   03:30:00.343.27-Mar-2021 3725.51 5265.65 61.45 3.00 127.22 3451.28
   03:30:00.543.27-Mar-2021 3725.51 5265.61 61.45 3.00 127.42 3451.28
   03:30:00.743.27-Mar-2021 3725.51 5265.51 61.45 3.00 127.62 3451.28
   03:30:00.943.27-Mar-2021 3725.51 5265.75 61.45 3.00 127.82 3451.28
   03:30:01.143.27-Mar-2021 3725.51 5265.69 61.45 3.00 128.02 3451.28
   03:30:01.343.27-Mar-2021 3725.51 5265.69 61.45 3.00 128.22 3451.28
   03:30:01.543.27-Mar-2021 3725.51 5265.85 61.45 3.00 128.42 3451.28
   03:30:01.743.27-Mar-2021 3725.51 5265.33 61.45 3.00 128.62 3451.28
   03:30:01.943.27-Mar-2021 3725.51 5265.73 61.45 3.00 128.82 3451.28
   03:30:02.143.27-Mar-2021 3725.51 5265.69 61.45 3.00 129.02 3451.28
   03:30:02.343.27-Mar-2021 3725.51 5265.69 61.45 3.00 129.22 3451.28
   03:30:02.543.27-Mar-2021 3725.51 5265.87 61.45 3.00 129.42 3451.28
   03:30:02.743.27-Mar-2021 3725.51 5266.00 61.45 3.00 129.62 3451.28
   03:30:02.943.27-Mar-2021 3725.51 5265.08 61.45 3.00 129.82 3451.28
   03:30:03.143.27-Mar-2021 3725.51 5265.74 61.45 3.00 130.02 3451.28
   03:30:03.343.27-Mar-2021 3725.51 5265.74 61.45 3.00 130.22 3451.28
   03:30:03.543.27-Mar-2021 3725.51 5265.70 61.45 3.00 130.42 3451.28
   03:30:03.743.27-Mar-2021 3725.51 5265.53 61.45 3.00 130.62 3451.28
   03:30:03.943.27-Mar-2021 3725.51 5265.62 61.45 3.00 130.82 3451.28
   03:30:04.143.27-Mar-2021 3725.51 5265.76 61.45 3.00 131.02 3451.28
   03:30:04.343.27-Mar-2021 3725.51 5265.76 61.45 3.00 131.22 3451.28
   03:30:04.543.27-Mar-2021 3725.51 5265.55 61.45 3.00 131.42 3451.28
   03:30:04.743.27-Mar-2021 3725.51 5265.85 61.45 3.00 131.62 3451.28
   03:30:04.943.27-Mar-2021 3725.51 5265.43 61.45 3.00 131.82 3451.28
   03:30:05.143.27-Mar-2021 3725.51 5265.95 61.45 3.00 132.02 3451.28
   03:30:05.344.27-Mar-2021 3725.51 5265.95 61.45 3.00 132.22 3451.28
   03:30:05.544.27-Mar-2021 3725.51 5265.44 61.45 3.00 132.42 3451.28
   03:30:05.744.27-Mar-2021 3725.51 5265.89 61.45 3.00 132.62 3451.28
   03:30:05.944.27-Mar-2021 3725.51 5265.55 61.45 3.00 132.82 3451.28
   03:30:06.144.27-Mar-2021 3725.51 5265.46 61.45 3.00 133.02 3451.28
   03:30:06.344.27-Mar-2021 3725.51 5265.46 61.45 3.00 133.22 3451.28
   03:30:06.544.27-Mar-2021 3725.51 5265.65 61.45 3.00 133.42 3451.28
   03:30:06.744.27-Mar-2021 3725.51 5265.56 61.45 3.00 133.62 3451.28
   03:30:06.944.27-Mar-2021 3725.51 5265.66 61.45 3.00 133.82 3451.28
   03:30:07.144.27-Mar-2021 3725.51 5265.72 61.45 3.00 134.02 3451.28
   03:30:07.344.27-Mar-2021 3725.51 5265.72 61.45 3.00 134.22 3451.28
   03:30:07.544.27-Mar-2021 3725.51 5265.61 61.45 3.00 134.42 3451.28
   03:30:07.744.27-Mar-2021 3725.51 5265.65 61.45 3.00 134.62 3451.28
   03:30:07.944.27-Mar-2021 3725.51 5265.72 61.45 3.00 134.82 3451.28
   03:30:08.144.27-Mar-2021 3725.51 5265.49 61.45 3.00 135.02 3451.28
   03:30:08.344.27-Mar-2021 3725.51 5265.49 61.45 3.00 135.22 3451.28
   03:30:08.544.27-Mar-2021 3725.51 5265.50 61.45 3.00 135.42 3451.28
   03:30:08.744.27-Mar-2021 3725.51 5265.46 61.45 3.00 135.62 3451.28
   03:30:08.944.27-Mar-2021 3725.51 5265.78 61.45 3.00 135.82 3451.28
   03:30:09.144.27-Mar-2021 3725.51 5265.55 61.45 3.00 136.02 3451.28
   03:30:09.344.27-Mar-2021 3725.51 5265.55 61.45 3.00 136.22 3451.28
   03:30:09.544.27-Mar-2021 3725.51 5265.76 61.45 3.00 136.42 3451.28
   03:30:09.744.27-Mar-2021 3725.51 5265.69 61.45 3.00 136.62 3451.28
   03:30:09.944.27-Mar-2021 3725.51 5265.55 61.45 3.00 136.82 3451.28
   03:30:10.144.27-Mar-2021 3725.51 5265.64 61.45 3.00 137.02 3451.28
   03:30:10.344.27-Mar-2021 3725.51 5265.64 61.45 3.00 137.22 3451.28
   03:30:10.544.27-Mar-2021 3725.51 5265.60 61.45 3.00 137.42 3451.28
   03:30:10.744.27-Mar-2021 3725.51 5265.96 61.45 3.00 137.62 3451.28
   03:30:10.944.27-Mar-2021 3725.51 5265.42 61.45 3.00 137.82 3451.28
