~Version Information
 VERS.                  2.0:   CWLS log ASCII Standard -VERSION 2.0
 WRAP.                   NO:   One line per depth step
~Well Information Block
#MNEM.UNIT     VALUE/NAME     DESCRIPTION
#---------     -----------    ---------------------------
 STRT.S             12:17:14 27-Mar-21: START TIME 12:17:14 27-Mar-21
 STOP.S             12:24:16 27-Mar-21: STOP TIME  12:24:16 27-Mar-21
 STEP.S                   0.00: STEP TIME
 NULL.                 -999.25: NULL VALUE
 DFWT.                        :  DIST FWL TEXT
 DFST.                        :  DIST FSL TEXT
 DMF .             Drill Floor:  DRILL MEAS FROM
 STIM.      20.26.40 11-Mar-21:  START TIME
 DATE.      20.26.40 30-Mar-21:  END TIME
 SPUD.               11-Mar-21:  SPUD DATE
 NREF.                    Grid:  NORTH REFERENCE
 HPTY.       Minimum Curvature:  HOLE POS TYPE
 DMOD.             Drill Model:  DRILL MOD DESC
 SVYD.                  Survey:  SURVEY DESC
 ILTD.               Lithology:  INTERP LTH DESC
 FTOP.          Formation Tops:  FORM TOPS DESC
 SON .        AZ-XX-0906805385:  JOB NUMBER
 WTYP.                Deviated:  WELL TYPE
 COMP.     BP Exploration (Caspian Sea) Ltd.:  COMPANY
 UWI .            /AZE00000198:  UNIQUE WELL IDENTIFIER
 API .            /AZE00000198:  API NUMBER
 BASE.              Azerbaijan:  LOGGING EQUIPMENT BASE LOCATION
 REGN.                   EESSA:  REGION
 PROV.                    Baku:  PROVINCE
 STAT.                    Baku:  STATE NAME
 CTRY.              Azerbaijan:  COUNTRY NAME
 FLD .                     ACG:  FIELD NAME
 SRVC.     Turan Drilling & Engineering:  CONTRACTOR
 MWDS.                    Baku:  MWD SHOP
 WELL.                    D09z:  WELL NAME
 JOBN.        AZ-XX-0906805385:  JOB TICKET NUMB
 RIG .              East Azeri:  RIG NAME
 DOE .                     N/A:  DOE NUMBER
 DCON.         Sperry Drilling:  DIRECTNL CONTR
 UNIT.                     N/A:  LOGGING EQUIPMENT ID
 PDAT.          Mean Sea Level:  PERMANENT DATUM
 MDS .        Operator Entered:  MAG DATA SOURCE
 CNTY.                        :  COUNTY
 LOC .                        :  LOCATION
 LMF .             Drill Floor:  LOG MEASURED FROM
 TVDS.m                  43.60:  TVDSS CORRECTN
 LATI.deg                40.02:  LATITUDE
 LONG.deg                51.45:  LONGITUDE
 WHNS.m                 -17.04:  WELL HEAD N/S
 WHEW.m                  -6.28:  WELL HEAD E/W
 UTMX.m              538763.98:  UTM X
 UTMY.m             4431880.20:  UTM Y
 DFWL.m                   0.00:  DISTANCE FWL
 DFSL.m                   0.00:  DISTANCE FSL
 SDEP.m                2680.01:  START DEPTH
 TDD .m                4000.01:  TOTAL DEPTH (DRILLER)
 VSDR.deg               225.71:  VERT SEC DIRECT
 GVFD.g                   1.00:  GRAVITY FIELD
 MFLD.nT              50353.00:  MAGNETIC FIELD
 MDIP.deg                59.49:  MAGNETIC DIP
 MDEC.deg                 6.46:  MAGNETIC DECL
 GRDC.deg                 0.29:  GRID CORRECTION
 AZTC.deg                 6.17:  AZM TOTAL CORR
 EPD .m                   0.00:  ELEVATION
 EGL .m                   0.00:  GROUND ELEVATION
 WDMS.m                 151.80:  WD ELEV
 APD .m                  43.60:  DEPTH ABOVE PD
 AGAP.m                  43.60:  AIR GAP
 VSEW.m                  -6.28:  VERT SEC E/W
 VSNS.m                 -17.04:  VERT SEC N/S
 DEP .m                2656.31:  DEPTH
 EKB .m                  43.60:  KB ELEVATION
 EDF .m                  43.60:  DF ELEVATION
 VSC .                       0:  VS TO CLOSURE
 MAGU.                 1851247:  MAGUTM CHECKSUM
~Parameter Information Block
#MNEM.UNIT       Value        Description
#---------     -----------    ---------------------------
 AV  .mps                 3.00:  Ann Velocity 
 AVMX.mps                 8.00:  Max Ann Veloc 
 AZIF.deg                 0.00:  Azm, Final 
 BHAT.                   Other:  BHA Type 
 BREV.rev                 0.00:  Rev Bit Total 
 BROT.°/30m               0.00:  Build Rotating 
 BS  .in                 10.25:  Bit Size 
 BTPL.psig              511.00:  Bit Press Loss 
 CABU.                      No:  Customer Abuse 
 CGEO.           Asif Pashayev:  Customer Geo 
 COMM.                     4'd:  Run Comments 1 
 TCS .hr                 24.03:  Time Ciculation Ended 
 CV  .mps                 3.50:  Crit Velocity 
 CVMX.mps                 4.00:  Max Crit Veloc 
 DD1 .             Aziz Aliyev:  Direct Drillr 1 
 DD2 .      Fakhraddin Guliyev:  Direct Drillr 2 
 DDSV.                   Other:  DD Service 
 DEFF.%                  99.00:  % Det Eff 
 DLRX.°/30m               0.00:  Dogleg Rot Max 
 DLSO.°/30m               0.00:  Dogleg Oriented 
 DLSX.°/30m               0.00:  Dogleg Str Max 
 DRET.      23.00.40 28-Mar-21:  Drill End Time 
 DRST.      23.30.40 25-Mar-21:  Drill Start Tim 
 DTIM.hr                  0.00:  Time Drilling 
 EDEP.m                3886.01:  End Depth 
 ENG1.         Almaz Almadatov:  Engineer 1 
 ENG2.      Artemiy Matviyanov:  Engineer 2 
 ENG3.           Samir Gafarov:  Engineer 3 
 ETIM.      23.00.40 28-Mar-21:  End Time 
 FLOI.gpm               550.00:  Flow In 
 FLON.gpm               500.00:  Flow In Min 
 FLOS.cptm                0.00:  Fluid Loss 
 FLOX.gpm               590.00:  Flow In Max 
 HFLO.                      No:  High Flow 
 HPRE.                      No:  High Pressure 
 HTEM.                      No:  High Temp 
 HYDO.m                   1.80:  Hydro Offset 
 IFIN.deg                 0.00:  Inc, Final 
 IMAX.deg                 0.00:  Inc Max 
 IMIN.deg                 0.00:  Inc Min 
 IMND.m                   0.00:  Inc Min Depth 
 IMXD.m                   0.00:  Inc Max Depth 
 JARR.                      No:  Jarring 
 LETM.      03.22.40 28-Mar-21:  Log End Time 
 LOST.hr                     0:  Lost Rig Time 
 LSTM.      23.30.40 25-Mar-21:  Log Start Time 
 MDCL.ppm             34000.00:  Mud Chlorides 
 MDES.     Inversion Oil/Synthetic:  Mud Desc 
 DFD .sg                  1.51:  Mud Density 
 MDMN.sg                  1.51:  Dens Mud Min 
 MDMX.sg                  1.51:  Dens Mud Max 
 MOIL.                      70:  Run Mud Oil % 
 MOWR.                   70:30:  Run Mud OWR 
 MSND.                     0.2:  Run Mud Sand % 
 MSOL.                   21.60:  Run Mud Solids% 
 DFV .spqt               74.00:  Mud Viscosity 
 MWOD.in                  6.75:  MWD Tool OD 
 MWSI.                      No:  Serv Intrp, MWD 
 OTIM.hr                 69.09:  Time Operating 
 PCON.           Look Like New:  Pad Condition 
 PMAX.psia             3500.00:  Press Op, Max 
 PV  .cP                 70.00:  Mud PV 
 RUN .                     400:  Run Number 
 ROPA.m/hr                0.00:  ROP Avg 
 ROPN.m/hr                0.00:  ROP Min 
 ROPX.m/hr                0.00:  ROP Max 
 RPMA.rpm                80.00:  RPM Surface Avg 
 RPMN.rpm                10.00:  RPM Surface Min 
 RPMX.rpm               100.00:  RPM Surface Max 
 RRUN.                    0400:  Rig Run Number 
 RTIM.hr                  3.00:  Time Reaming 
 SAZI.deg                 0.00:  Azm, Start 
 SDEP.m                3886.01:  Start Depth 
 SIDD.                      No:  Serv Intrp, DD 
 SINC.deg                 0.00:  Inc, Start 
 SPPA.psig             3270.00:  SPP Avg 
 SPPN.psig             3220.00:  SPP Min 
 SPPX.psig             4430.00:  SPP Max 
 STIM.      23.30.40 25-Mar-21:  Start Time 
 SVCS.                 DD, MWD:  Services 
 SVER.                    9.20:  Sperry Version 
 TDAT.m                   0.00:  Tot Depth Attmp 
 TDDF.                      No:  Trip for DD 
 TFF .                      No:  Trip for Fail 
 TQAA.f-kp                8.00:  Torque Abs Avg 
 TQAN.f-kp                7.00:  Torque Abs Min 
 TQAX.f-kp               11.00:  Torque Abs Max 
 TRRT.°/30m               0.00:  Turn Rotating 
 MRT .                  EWR-M5:  Maximum Recorded Temperature 
 TTMX.degC               76.47:  Max Tool Temp 
 VS01.                90640857:  Virtual Str1 SN 
 VS02.                90639246:  Virtual Str2 SN 
 VS03.                90642265:  Virtual Str3 SN 
 VS04.                11654497:  Virtual Str4 SN 
 WBMN.klb                 0.00:  WOB Min 
 WITN.      Kamran Keberlinkiy:  Customer Rep 
 WITN.           Murad Guliyev:  Customer Rep 2 
 WOBA.klb                 0.00:  WOB Avg 
 WOBX.klb                 0.00:  WOB Max 
 YP  .lhf2               36.00:  Yield Point 
~Curve Information Block
#MNEM.UNIT                 API CODE     Curve Description
#---------               -----------    ---------------------------
 TIME.HHMMSS            00 000 000 000:  GT Time & Date
 GTDEPTH.m              00 000 000 000:  GT Depth
 GTPQH.psia             00 000 000 000:  GT HR Quartz Pressure
 GTTQ.degC              00 000 000 000:  GT Quartz Temperature
 GTTN.NONE              00 000 000 000:  GT Test Number
 GTET.sec               00 000 000 000:  GT Elapsed Test Time
 GTTVD.m                00 000 000 000:  GT True Vertical Depth
#Other Information
#
#WARRANTY: Halliburton will use its best efforts to furnish customers with 
#accurate information and interpretations that are part of, and incident to, the services 
#provided.  However, Halliburton cannot and does not warrant the accuracy 
#or correctness of such information and interpretations.  Under no circumstances should any 
#such information or interpretation be relied upon as the sole basis for any drilling, 
#completion, production, or financial decision or any procedure involving any risk to the 
#safety of any drilling venture, drilling rig or its crew or any other third party.  The 
#Customer has full responsibility for all drilling, completion and production operation.  
#Halliburton makes no representations or warranties, either expressed or 
#implied, including, but not limited to, the implied warranties of merchantability or fitness 
#for a particular purpose, with respect to the services rendered.  In no event will 
#Halliburton be liable for failure to obtain any particular results or for 
#any damages, including, but not limited to, indirect, special or consequential damages, 
#resulting from the use of any information or interpretation provided by Halliburton.
#
~A           TIME           GTDEPTH  GTPQH  GTTQ  GTTN   GTET   GTTVD  
# ...
   12:17:59.955.27-Mar-2021 3369.01 6010.70 62.01 12.00  45.23 3116.52
   12:18:00.155.27-Mar-2021 3369.01 5713.46 62.01 12.00  45.43 3116.52
   12:18:00.355.27-Mar-2021 3369.01 5555.16 62.01 12.00  45.63 3116.52
   12:18:00.555.27-Mar-2021 3369.01 5403.65 62.01 12.00  45.83 3116.52
   12:18:00.755.27-Mar-2021 3369.01 5260.35 62.00 12.00  46.03 3116.52
   12:18:00.955.27-Mar-2021 3369.01 5260.35 62.00 12.00  46.23 3116.52
   12:18:01.155.27-Mar-2021 3369.01 4976.11 62.00 12.00  46.43 3116.52
   12:18:01.355.27-Mar-2021 3369.01 4836.04 62.00 12.00  46.63 3116.52
   12:18:01.556.27-Mar-2021 3369.01 4709.82 62.00 12.00  46.83 3116.52
   12:18:01.756.27-Mar-2021 3369.01 4588.16 62.00 12.00  47.03 3116.52
   12:18:01.956.27-Mar-2021 3369.01 4588.16 62.00 12.00  47.23 3116.52
   12:18:02.156.27-Mar-2021 3369.01 4392.39 62.00 12.00  47.43 3116.52
   12:18:02.356.27-Mar-2021 3369.01 4314.06 61.99 12.00  47.63 3116.52
   12:18:02.556.27-Mar-2021 3369.01 4232.78 61.99 12.00  47.83 3116.52
   12:18:02.756.27-Mar-2021 3369.01 4171.77 61.99 12.00  48.03 3116.52
   12:18:02.957.27-Mar-2021 3369.01 4171.77 61.99 12.00  48.23 3116.52
   12:18:03.157.27-Mar-2021 3369.01 4098.37 61.99 12.00  48.43 3116.52
   12:18:03.357.27-Mar-2021 3369.01 4134.34 61.98 12.00  48.63 3116.52
   12:18:03.557.27-Mar-2021 3369.01 4187.11 61.98 12.00  48.83 3116.52
   12:18:03.757.27-Mar-2021 3369.01 4257.80 61.98 12.00  49.03 3116.52
   12:18:03.957.27-Mar-2021 3369.01 4257.80 61.98 12.00  49.23 3116.52
   12:18:04.157.27-Mar-2021 3369.01 4296.01 61.98 12.00  49.43 3116.52
   12:18:04.358.27-Mar-2021 3369.01 4285.76 61.97 12.00  49.64 3116.52
   12:18:04.558.27-Mar-2021 3369.01 4284.95 61.97 12.00  49.84 3116.52
   12:18:04.758.27-Mar-2021 3369.01 4313.02 61.97 12.00  50.04 3116.52
   12:18:04.958.27-Mar-2021 3369.01 4313.02 61.97 12.00  50.24 3116.52
   12:18:05.158.27-Mar-2021 3369.01 4425.91 61.97 12.00  50.44 3116.52
   12:18:05.358.27-Mar-2021 3369.01 4476.09 61.96 12.00  50.64 3116.52
   12:18:05.558.27-Mar-2021 3369.01 4520.03 61.96 12.00  50.84 3116.52
   12:18:05.759.27-Mar-2021 3369.01 4559.07 61.96 12.00  51.04 3116.52
   12:18:05.959.27-Mar-2021 3369.01 4559.07 61.96 12.00  51.24 3116.52
   12:18:06.159.27-Mar-2021 3369.01 4626.63 61.96 12.00  51.44 3116.52
   12:18:06.359.27-Mar-2021 3369.01 4648.84 61.95 12.00  51.64 3116.52
   12:18:06.559.27-Mar-2021 3369.01 4672.29 61.95 12.00  51.84 3116.52
   12:18:06.759.27-Mar-2021 3369.01 4692.74 61.95 12.00  52.04 3116.52
   12:18:06.959.27-Mar-2021 3369.01 4692.74 61.95 12.00  52.24 3116.52
   12:18:07.160.27-Mar-2021 3369.01 4728.69 61.95 12.00  52.44 3116.52
   12:18:07.360.27-Mar-2021 3369.01 4741.76 61.95 12.00  52.64 3116.52
   12:18:07.560.27-Mar-2021 3369.01 4754.85 61.95 12.00  52.84 3116.52
   12:18:07.760.27-Mar-2021 3369.01 4765.60 61.94 12.00  53.04 3116.52
   12:18:07.960.27-Mar-2021 3369.01 4765.60 61.94 12.00  53.24 3116.52
   12:18:08.160.27-Mar-2021 3369.01 4785.38 61.94 12.00  53.44 3116.52
   12:18:08.360.27-Mar-2021 3369.01 4792.79 61.94 12.00  53.64 3116.52
   12:18:08.561.27-Mar-2021 3369.01 4798.62 61.94 12.00  53.84 3116.52
   12:18:08.761.27-Mar-2021 3369.01 4795.82 61.94 12.00  54.04 3116.52
   12:18:08.961.27-Mar-2021 3369.01 4795.82 61.94 12.00  54.24 3116.52
   12:18:09.161.27-Mar-2021 3369.01 4256.20 61.94 12.00  54.44 3116.52
   12:18:09.361.27-Mar-2021 3369.01 3434.14 61.94 12.00  54.64 3116.52
   12:18:09.561.27-Mar-2021 3369.01 2823.34 61.94 12.00  54.84 3116.52
   12:18:09.761.27-Mar-2021 3369.01 2367.92 61.94 12.00  55.04 3116.52
   12:18:09.962.27-Mar-2021 3369.01 2367.92 61.94 12.00  55.24 3116.52
   12:18:10.162.27-Mar-2021 3369.01 1792.83 61.93 12.00  55.44 3116.52
   12:18:10.362.27-Mar-2021 3369.01 1752.88 61.93 12.00  55.64 3116.52
   12:18:10.562.27-Mar-2021 3369.01 1746.23 61.93 12.00  55.84 3116.52
   12:18:10.762.27-Mar-2021 3369.01 1736.94 61.93 12.00  56.04 3116.52
   12:18:10.962.27-Mar-2021 3369.01 1736.94 61.93 12.00  56.24 3116.52
   12:18:11.162.27-Mar-2021 3369.01 1720.54 61.93 12.00  56.44 3116.52
   12:18:11.363.27-Mar-2021 3369.01 1710.90 61.92 12.00  56.64 3116.52
   12:18:11.563.27-Mar-2021 3369.01 1709.57 61.92 12.00  56.84 3116.52
   12:18:11.763.27-Mar-2021 3369.01 1717.10 61.92 12.00  57.04 3116.52
   12:18:11.963.27-Mar-2021 3369.01 1717.10 61.92 12.00  57.24 3116.52
   12:18:12.163.27-Mar-2021 3369.01 1749.14 61.92 12.00  57.44 3116.52
   12:18:12.363.27-Mar-2021 3369.01 1753.49 61.91 12.00  57.64 3116.52
   12:18:12.563.27-Mar-2021 3369.01 1751.34 61.91 12.00  57.84 3116.52
   12:18:12.764.27-Mar-2021 3369.01 1756.70 61.91 12.00  58.04 3116.52
   12:18:12.964.27-Mar-2021 3369.01 1756.70 61.91 12.00  58.24 3116.52
   12:18:13.164.27-Mar-2021 3369.01 1749.58 61.91 12.00  58.44 3116.52
   12:18:13.364.27-Mar-2021 3369.01 1749.88 61.90 12.00  58.64 3116.52
   12:18:13.564.27-Mar-2021 3369.01 1754.36 61.90 12.00  58.84 3116.52
   12:18:13.764.27-Mar-2021 3369.01 1758.00 61.90 12.00  59.04 3116.52
   12:18:13.964.27-Mar-2021 3369.01 1758.00 61.90 12.00  59.24 3116.52
   12:18:14.165.27-Mar-2021 3369.01 1751.99 61.90 12.00  59.44 3116.52
   12:18:14.365.27-Mar-2021 3369.01 1744.51 61.89 12.00  59.64 3116.52
   12:18:14.565.27-Mar-2021 3369.01 1737.64 61.89 12.00  59.84 3116.52
   12:18:14.765.27-Mar-2021 3369.01 1734.24 61.89 12.00  60.04 3116.52
   12:18:14.965.27-Mar-2021 3369.01 1734.24 61.89 12.00  60.24 3116.52
   12:18:15.165.27-Mar-2021 3369.01 1738.51 61.88 12.00  60.44 3116.52
   12:18:15.365.27-Mar-2021 3369.01 1745.43 61.88 12.00  60.64 3116.52
   12:18:15.566.27-Mar-2021 3369.01 1742.06 61.88 12.00  60.84 3116.52
   12:18:15.766.27-Mar-2021 3369.01 1740.40 61.88 12.00  61.04 3116.52
   12:18:15.966.27-Mar-2021 3369.01 1740.40 61.88 12.00  61.24 3116.52
   12:18:16.166.27-Mar-2021 3369.01 1737.82 61.87 12.00  61.44 3116.52
   12:18:16.366.27-Mar-2021 3369.01 1735.48 61.87 12.00  61.64 3116.52
   12:18:16.566.27-Mar-2021 3369.01 1737.98 61.87 12.00  61.84 3116.52
   12:18:16.766.27-Mar-2021 3369.01 1739.16 61.87 12.00  62.04 3116.52
   12:18:16.967.27-Mar-2021 3369.01 1739.16 61.87 12.00  62.24 3116.52
   12:18:17.167.27-Mar-2021 3369.01 1739.63 61.87 12.00  62.44 3116.52
   12:18:17.367.27-Mar-2021 3369.01 1739.84 61.87 12.00  62.64 3116.52
   12:18:17.567.27-Mar-2021 3369.01 1739.22 61.86 12.00  62.84 3116.52
   12:18:17.767.27-Mar-2021 3369.01 1734.64 61.86 12.00  63.04 3116.52
   12:18:17.967.27-Mar-2021 3369.01 1734.64 61.86 12.00  63.24 3116.52
   12:18:18.167.27-Mar-2021 3369.01 1724.85 61.86 12.00  63.44 3116.52
   12:18:18.368.27-Mar-2021 3369.01 1730.71 61.86 12.00  63.64 3116.52
   12:18:18.568.27-Mar-2021 3369.01 1732.81 61.86 12.00  63.85 3116.52
   12:18:18.768.27-Mar-2021 3369.01 1735.91 61.86 12.00  64.05 3116.52
   12:18:18.968.27-Mar-2021 3369.01 1735.91 61.86 12.00  64.25 3116.52
   12:18:19.168.27-Mar-2021 3369.01 2290.73 61.86 12.00  64.45 3116.52
   12:18:19.368.27-Mar-2021 3369.01 2603.02 61.86 12.00  64.65 3116.52
   12:18:19.568.27-Mar-2021 3369.01 2869.59 61.85 12.00  64.85 3116.52
   12:18:19.769.27-Mar-2021 3369.01 3098.70 61.85 12.00  65.05 3116.52
   12:18:19.969.27-Mar-2021 3369.01 3098.70 61.85 12.00  65.25 3116.52
   12:18:20.169.27-Mar-2021 3369.01 3470.76 61.85 12.00  65.45 3116.52
   12:18:20.369.27-Mar-2021 3369.01 3621.24 61.85 12.00  65.65 3116.52
   12:18:20.569.27-Mar-2021 3369.01 3752.91 61.85 12.00  65.85 3116.52
   12:18:20.769.27-Mar-2021 3369.01 3869.01 61.85 12.00  66.05 3116.52
   12:18:20.969.27-Mar-2021 3369.01 3869.01 61.85 12.00  66.25 3116.52
   12:18:21.170.27-Mar-2021 3369.01 4058.97 61.85 12.00  66.45 3116.52
   12:18:21.370.27-Mar-2021 3369.01 4138.00 61.85 12.00  66.65 3116.52
   12:18:21.570.27-Mar-2021 3369.01 4207.67 61.85 12.00  66.85 3116.52
   12:18:21.770.27-Mar-2021 3369.01 4269.60 61.86 12.00  67.05 3116.52
   12:18:21.970.27-Mar-2021 3369.01 4269.60 61.86 12.00  67.25 3116.52
   12:18:22.170.27-Mar-2021 3369.01 4373.61 61.86 12.00  67.45 3116.52
   12:18:22.370.27-Mar-2021 3369.01 4417.36 61.86 12.00  67.65 3116.52
