~Version Information
 VERS.                  2.0:   CWLS log ASCII Standard -VERSION 2.0
 WRAP.                   NO:   One line per depth step
~Well Information Block
#MNEM.UNIT     VALUE/NAME     DESCRIPTION
#---------     -----------    ---------------------------
 STRT.S             07:02:33 27-Mar-21: START TIME 07:02:33 27-Mar-21
 STOP.S             07:09:44 27-Mar-21: STOP TIME  07:09:44 27-Mar-21
 STEP.S                   0.00: STEP TIME
 NULL.                 -999.25: NULL VALUE
 DFWT.                        :  DIST FWL TEXT
 DFST.                        :  DIST FSL TEXT
 DMF .             Drill Floor:  DRILL MEAS FROM
 STIM.      20.26.40 11-Mar-21:  START TIME
 DATE.      20.26.40 30-Mar-21:  END TIME
 SPUD.               11-Mar-21:  SPUD DATE
 NREF.                    Grid:  NORTH REFERENCE
 HPTY.       Minimum Curvature:  HOLE POS TYPE
 DMOD.             Drill Model:  DRILL MOD DESC
 SVYD.                  Survey:  SURVEY DESC
 ILTD.               Lithology:  INTERP LTH DESC
 FTOP.          Formation Tops:  FORM TOPS DESC
 SON .        AZ-XX-0906805385:  JOB NUMBER
 WTYP.                Deviated:  WELL TYPE
 COMP.     BP Exploration (Caspian Sea) Ltd.:  COMPANY
 UWI .            /AZE00000198:  UNIQUE WELL IDENTIFIER
 API .            /AZE00000198:  API NUMBER
 BASE.              Azerbaijan:  LOGGING EQUIPMENT BASE LOCATION
 REGN.                   EESSA:  REGION
 PROV.                    Baku:  PROVINCE
 STAT.                    Baku:  STATE NAME
 CTRY.              Azerbaijan:  COUNTRY NAME
 FLD .                     ACG:  FIELD NAME
 SRVC.     Turan Drilling & Engineering:  CONTRACTOR
 MWDS.                    Baku:  MWD SHOP
 WELL.                    D09z:  WELL NAME
 JOBN.        AZ-XX-0906805385:  JOB TICKET NUMB
 RIG .              East Azeri:  RIG NAME
 DOE .                     N/A:  DOE NUMBER
 DCON.         Sperry Drilling:  DIRECTNL CONTR
 UNIT.                     N/A:  LOGGING EQUIPMENT ID
 PDAT.          Mean Sea Level:  PERMANENT DATUM
 MDS .        Operator Entered:  MAG DATA SOURCE
 CNTY.                        :  COUNTY
 LOC .                        :  LOCATION
 LMF .             Drill Floor:  LOG MEASURED FROM
 TVDS.m                  43.60:  TVDSS CORRECTN
 LATI.deg                40.02:  LATITUDE
 LONG.deg                51.45:  LONGITUDE
 WHNS.m                 -17.04:  WELL HEAD N/S
 WHEW.m                  -6.28:  WELL HEAD E/W
 UTMX.m              538763.98:  UTM X
 UTMY.m             4431880.20:  UTM Y
 DFWL.m                   0.00:  DISTANCE FWL
 DFSL.m                   0.00:  DISTANCE FSL
 SDEP.m                2680.01:  START DEPTH
 TDD .m                4000.01:  TOTAL DEPTH (DRILLER)
 VSDR.deg               225.71:  VERT SEC DIRECT
 GVFD.g                   1.00:  GRAVITY FIELD
 MFLD.nT              50353.00:  MAGNETIC FIELD
 MDIP.deg                59.49:  MAGNETIC DIP
 MDEC.deg                 6.46:  MAGNETIC DECL
 GRDC.deg                 0.29:  GRID CORRECTION
 AZTC.deg                 6.17:  AZM TOTAL CORR
 EPD .m                   0.00:  ELEVATION
 EGL .m                   0.00:  GROUND ELEVATION
 WDMS.m                 151.80:  WD ELEV
 APD .m                  43.60:  DEPTH ABOVE PD
 AGAP.m                  43.60:  AIR GAP
 VSEW.m                  -6.28:  VERT SEC E/W
 VSNS.m                 -17.04:  VERT SEC N/S
 DEP .m                2656.31:  DEPTH
 EKB .m                  43.60:  KB ELEVATION
 EDF .m                  43.60:  DF ELEVATION
 VSC .                       0:  VS TO CLOSURE
 MAGU.                 1851247:  MAGUTM CHECKSUM
~Parameter Information Block
#MNEM.UNIT       Value        Description
#---------     -----------    ---------------------------
 AV  .mps                 3.00:  Ann Velocity 
 AVMX.mps                 8.00:  Max Ann Veloc 
 AZIF.deg                 0.00:  Azm, Final 
 BHAT.                   Other:  BHA Type 
 BREV.rev                 0.00:  Rev Bit Total 
 BROT.°/30m               0.00:  Build Rotating 
 BS  .in                 10.25:  Bit Size 
 BTPL.psig              511.00:  Bit Press Loss 
 CABU.                      No:  Customer Abuse 
 CGEO.           Asif Pashayev:  Customer Geo 
 COMM.                     ¬\q:  Run Comments 1 
 TCS .hr                 24.03:  Time Ciculation Ended 
 CV  .mps                 3.50:  Crit Velocity 
 CVMX.mps                 4.00:  Max Crit Veloc 
 DD1 .             Aziz Aliyev:  Direct Drillr 1 
 DD2 .      Fakhraddin Guliyev:  Direct Drillr 2 
 DDSV.                   Other:  DD Service 
 DEFF.%                  99.00:  % Det Eff 
 DLRX.°/30m               0.00:  Dogleg Rot Max 
 DLSO.°/30m               0.00:  Dogleg Oriented 
 DLSX.°/30m               0.00:  Dogleg Str Max 
 DRET.      23.00.40 28-Mar-21:  Drill End Time 
 DRST.      23.30.40 25-Mar-21:  Drill Start Tim 
 DTIM.hr                  0.00:  Time Drilling 
 EDEP.m                3886.01:  End Depth 
 ENG1.         Almaz Almadatov:  Engineer 1 
 ENG2.      Artemiy Matviyanov:  Engineer 2 
 ENG3.           Samir Gafarov:  Engineer 3 
 ETIM.      23.00.40 28-Mar-21:  End Time 
 FLOI.gpm               550.00:  Flow In 
 FLON.gpm               500.00:  Flow In Min 
 FLOS.cptm                0.00:  Fluid Loss 
 FLOX.gpm               590.00:  Flow In Max 
 HFLO.                      No:  High Flow 
 HPRE.                      No:  High Pressure 
 HTEM.                      No:  High Temp 
 HYDO.m                   1.80:  Hydro Offset 
 IFIN.deg                 0.00:  Inc, Final 
 IMAX.deg                 0.00:  Inc Max 
 IMIN.deg                 0.00:  Inc Min 
 IMND.m                   0.00:  Inc Min Depth 
 IMXD.m                   0.00:  Inc Max Depth 
 JARR.                      No:  Jarring 
 LETM.      03.22.40 28-Mar-21:  Log End Time 
 LOST.hr                     0:  Lost Rig Time 
 LSTM.      23.30.40 25-Mar-21:  Log Start Time 
 MDCL.ppm             34000.00:  Mud Chlorides 
 MDES.     Inversion Oil/Synthetic:  Mud Desc 
 DFD .sg                  1.51:  Mud Density 
 MDMN.sg                  1.51:  Dens Mud Min 
 MDMX.sg                  1.51:  Dens Mud Max 
 MOIL.                      70:  Run Mud Oil % 
 MOWR.                   70:30:  Run Mud OWR 
 MSND.                     0.2:  Run Mud Sand % 
 MSOL.                   21.60:  Run Mud Solids% 
 DFV .spqt               74.00:  Mud Viscosity 
 MWOD.in                  6.75:  MWD Tool OD 
 MWSI.                      No:  Serv Intrp, MWD 
 OTIM.hr                 69.09:  Time Operating 
 PCON.           Look Like New:  Pad Condition 
 PMAX.psia             3500.00:  Press Op, Max 
 PV  .cP                 70.00:  Mud PV 
 RUN .                     400:  Run Number 
 ROPA.m/hr                0.00:  ROP Avg 
 ROPN.m/hr                0.00:  ROP Min 
 ROPX.m/hr                0.00:  ROP Max 
 RPMA.rpm                80.00:  RPM Surface Avg 
 RPMN.rpm                10.00:  RPM Surface Min 
 RPMX.rpm               100.00:  RPM Surface Max 
 RRUN.                    0400:  Rig Run Number 
 RTIM.hr                  3.00:  Time Reaming 
 SAZI.deg                 0.00:  Azm, Start 
 SDEP.m                3886.01:  Start Depth 
 SIDD.                      No:  Serv Intrp, DD 
 SINC.deg                 0.00:  Inc, Start 
 SPPA.psig             3270.00:  SPP Avg 
 SPPN.psig             3220.00:  SPP Min 
 SPPX.psig             4430.00:  SPP Max 
 STIM.      23.30.40 25-Mar-21:  Start Time 
 SVCS.                 DD, MWD:  Services 
 SVER.                    9.20:  Sperry Version 
 TDAT.m                   0.00:  Tot Depth Attmp 
 TDDF.                      No:  Trip for DD 
 TFF .                      No:  Trip for Fail 
 TQAA.f-kp                8.00:  Torque Abs Avg 
 TQAN.f-kp                7.00:  Torque Abs Min 
 TQAX.f-kp               11.00:  Torque Abs Max 
 TRRT.°/30m               0.00:  Turn Rotating 
 MRT .                  EWR-M5:  Maximum Recorded Temperature 
 TTMX.degC               76.47:  Max Tool Temp 
 VS01.                90640857:  Virtual Str1 SN 
 VS02.                90639246:  Virtual Str2 SN 
 VS03.                90642265:  Virtual Str3 SN 
 VS04.                11654497:  Virtual Str4 SN 
 WBMN.klb                 0.00:  WOB Min 
 WITN.      Kamran Keberlinkiy:  Customer Rep 
 WITN.           Murad Guliyev:  Customer Rep 2 
 WOBA.klb                 0.00:  WOB Avg 
 WOBX.klb                 0.00:  WOB Max 
 YP  .lhf2               36.00:  Yield Point 
~Curve Information Block
#MNEM.UNIT                 API CODE     Curve Description
#---------               -----------    ---------------------------
 TIME.HHMMSS            00 000 000 000:  GT Time & Date
 GTDEPTH.m              00 000 000 000:  GT Depth
 GTPQH.psia             00 000 000 000:  GT HR Quartz Pressure
 GTTQ.degC              00 000 000 000:  GT Quartz Temperature
 GTTN.NONE              00 000 000 000:  GT Test Number
 GTET.sec               00 000 000 000:  GT Elapsed Test Time
 GTTVD.m                00 000 000 000:  GT True Vertical Depth
#Other Information
#
#WARRANTY: Halliburton will use its best efforts to furnish customers with 
#accurate information and interpretations that are part of, and incident to, the services 
#provided.  However, Halliburton cannot and does not warrant the accuracy 
#or correctness of such information and interpretations.  Under no circumstances should any 
#such information or interpretation be relied upon as the sole basis for any drilling, 
#completion, production, or financial decision or any procedure involving any risk to the 
#safety of any drilling venture, drilling rig or its crew or any other third party.  The 
#Customer has full responsibility for all drilling, completion and production operation.  
#Halliburton makes no representations or warranties, either expressed or 
#implied, including, but not limited to, the implied warranties of merchantability or fitness 
#for a particular purpose, with respect to the services rendered.  In no event will 
#Halliburton be liable for failure to obtain any particular results or for 
#any damages, including, but not limited to, indirect, special or consequential damages, 
#resulting from the use of any information or interpretation provided by Halliburton.
#
~A           TIME           GTDEPTH  GTPQH  GTTQ  GTTN  GTET   GTTVD  
# ...
   07:05:37.572.27-Mar-2021 3426.01 4772.22 60.35 6.00 184.05 3169.91
   07:05:37.772.27-Mar-2021 3426.01 4772.22 60.35 6.00 184.25 3169.91
   07:05:37.972.27-Mar-2021 3426.01 4772.29 60.35 6.00 184.45 3169.91
   07:05:38.172.27-Mar-2021 3426.01 4772.29 60.35 6.00 184.65 3169.91
   07:05:38.372.27-Mar-2021 3426.01 4772.14 60.35 6.00 184.85 3169.91
   07:05:38.572.27-Mar-2021 3426.01 4772.05 60.35 6.00 185.05 3169.91
   07:05:38.772.27-Mar-2021 3426.01 4772.05 60.35 6.00 185.25 3169.91
   07:05:38.972.27-Mar-2021 3426.01 4772.17 60.35 6.00 185.45 3169.91
   07:05:39.172.27-Mar-2021 3426.01 4772.18 60.35 6.00 185.65 3169.91
   07:05:39.372.27-Mar-2021 3426.01 4772.20 60.35 6.00 185.85 3169.91
   07:05:39.572.27-Mar-2021 3426.01 4772.22 60.35 6.00 186.05 3169.91
   07:05:39.772.27-Mar-2021 3426.01 4772.22 60.35 6.00 186.25 3169.91
   07:05:39.972.27-Mar-2021 3426.01 4772.40 60.35 6.00 186.45 3169.91
   07:05:40.173.27-Mar-2021 3426.01 4772.26 60.35 6.00 186.65 3169.91
   07:05:40.373.27-Mar-2021 3426.01 4772.15 60.35 6.00 186.85 3169.91
   07:05:40.573.27-Mar-2021 3426.01 4772.23 60.35 6.00 187.05 3169.91
   07:05:40.773.27-Mar-2021 3426.01 4772.23 60.35 6.00 187.25 3169.91
   07:05:40.973.27-Mar-2021 3426.01 4772.21 60.35 6.00 187.45 3169.91
   07:05:41.173.27-Mar-2021 3426.01 4772.22 60.35 6.00 187.65 3169.91
   07:05:41.373.27-Mar-2021 3426.01 4772.21 60.35 6.00 187.85 3169.91
   07:05:41.573.27-Mar-2021 3426.01 4772.22 60.35 6.00 188.05 3169.91
   07:05:41.773.27-Mar-2021 3426.01 4772.22 60.35 6.00 188.25 3169.91
   07:05:41.973.27-Mar-2021 3426.01 4772.20 60.35 6.00 188.45 3169.91
   07:05:42.173.27-Mar-2021 3426.01 4772.22 60.35 6.00 188.65 3169.91
   07:05:42.373.27-Mar-2021 3426.01 4772.23 60.35 6.00 188.85 3169.91
   07:05:42.573.27-Mar-2021 3426.01 4772.21 60.35 6.00 189.05 3169.91
   07:05:42.773.27-Mar-2021 3426.01 4772.21 60.35 6.00 189.25 3169.91
   07:05:42.973.27-Mar-2021 3426.01 4772.09 60.35 6.00 189.45 3169.91
   07:05:43.173.27-Mar-2021 3426.01 4772.34 60.35 6.00 189.65 3169.91
   07:05:43.373.27-Mar-2021 3426.01 4772.19 60.35 6.00 189.85 3169.91
   07:05:43.573.27-Mar-2021 3426.01 4772.23 60.35 6.00 190.05 3169.91
   07:05:43.773.27-Mar-2021 3426.01 4772.23 60.35 6.00 190.25 3169.91
   07:05:43.973.27-Mar-2021 3426.01 4772.23 60.35 6.00 190.45 3169.91
   07:05:44.173.27-Mar-2021 3426.01 4772.21 60.35 6.00 190.65 3169.91
   07:05:44.374.27-Mar-2021 3426.01 4772.25 60.35 6.00 190.85 3169.91
   07:05:44.574.27-Mar-2021 3426.01 4772.21 60.35 6.00 191.05 3169.91
   07:05:44.774.27-Mar-2021 3426.01 4772.21 60.35 6.00 191.25 3169.91
   07:05:44.974.27-Mar-2021 3426.01 4772.23 60.35 6.00 191.45 3169.91
   07:05:45.174.27-Mar-2021 3426.01 4772.25 60.35 6.00 191.65 3169.91
   07:05:45.374.27-Mar-2021 3426.01 4772.23 60.35 6.00 191.85 3169.91
   07:05:45.574.27-Mar-2021 3426.01 4772.06 60.35 6.00 192.05 3169.91
   07:05:45.774.27-Mar-2021 3426.01 4772.06 60.35 6.00 192.25 3169.91
   07:05:45.974.27-Mar-2021 3426.01 4772.24 60.35 6.00 192.45 3169.91
   07:05:46.174.27-Mar-2021 3426.01 4772.18 60.35 6.00 192.65 3169.91
   07:05:46.374.27-Mar-2021 3426.01 4772.24 60.35 6.00 192.85 3169.91
   07:05:46.574.27-Mar-2021 3426.01 4772.23 60.35 6.00 193.05 3169.91
   07:05:46.774.27-Mar-2021 3426.01 4772.23 60.35 6.00 193.25 3169.91
   07:05:46.974.27-Mar-2021 3426.01 4772.09 60.35 6.00 193.45 3169.91
   07:05:47.174.27-Mar-2021 3426.01 4772.26 60.35 6.00 193.65 3169.91
   07:05:47.374.27-Mar-2021 3426.01 4772.22 60.35 6.00 193.85 3169.91
   07:05:47.574.27-Mar-2021 3426.01 4772.23 60.35 6.00 194.05 3169.91
   07:05:47.774.27-Mar-2021 3426.01 4772.23 60.35 6.00 194.25 3169.91
   07:05:47.974.27-Mar-2021 3426.01 4772.28 60.35 6.00 194.45 3169.91
   07:05:48.174.27-Mar-2021 3426.01 4772.17 60.35 6.00 194.65 3169.91
   07:05:48.375.27-Mar-2021 3426.01 4772.28 60.35 6.00 194.85 3169.91
   07:05:48.575.27-Mar-2021 3426.01 4772.16 60.35 6.00 195.05 3169.91
   07:05:48.775.27-Mar-2021 3426.01 4772.16 60.35 6.00 195.25 3169.91
   07:05:48.975.27-Mar-2021 3426.01 4772.04 60.35 6.00 195.45 3169.91
   07:05:49.175.27-Mar-2021 3426.01 4772.37 60.35 6.00 195.65 3169.91
   07:05:49.375.27-Mar-2021 3426.01 4772.30 60.35 6.00 195.85 3169.91
   07:05:49.575.27-Mar-2021 3426.01 4772.19 60.35 6.00 196.05 3169.91
   07:05:49.775.27-Mar-2021 3426.01 4772.19 60.35 6.00 196.25 3169.91
   07:05:49.975.27-Mar-2021 3426.01 4772.23 60.35 6.00 196.45 3169.91
   07:05:50.175.27-Mar-2021 3426.01 4772.25 60.35 6.00 196.65 3169.91
   07:05:50.375.27-Mar-2021 3426.01 4772.26 60.35 6.00 196.85 3169.91
   07:05:50.575.27-Mar-2021 3426.01 4772.24 60.35 6.00 197.05 3169.91
   07:05:50.775.27-Mar-2021 3426.01 4772.24 60.35 6.00 197.25 3169.91
   07:05:50.975.27-Mar-2021 3426.01 4772.25 60.35 6.00 197.45 3169.91
   07:05:51.175.27-Mar-2021 3426.01 4772.26 60.35 6.00 197.65 3169.91
   07:05:51.375.27-Mar-2021 3426.01 4772.23 60.35 6.00 197.85 3169.91
   07:05:51.575.27-Mar-2021 3426.01 4772.27 60.35 6.00 198.05 3169.91
   07:05:51.775.27-Mar-2021 3426.01 4772.27 60.35 6.00 198.25 3169.91
   07:05:51.975.27-Mar-2021 3426.01 4772.23 60.35 6.00 198.45 3169.91
   07:05:52.175.27-Mar-2021 3426.01 4772.13 60.35 6.00 198.65 3169.91
   07:05:52.376.27-Mar-2021 3426.01 4772.37 60.35 6.00 198.85 3169.91
   07:05:52.576.27-Mar-2021 3426.01 4772.23 60.35 6.00 199.05 3169.91
   07:05:52.776.27-Mar-2021 3426.01 4772.23 60.35 6.00 199.25 3169.91
   07:05:52.976.27-Mar-2021 3426.01 4772.25 60.35 6.00 199.45 3169.91
   07:05:53.176.27-Mar-2021 3426.01 4772.26 60.35 6.00 199.65 3169.91
   07:05:53.376.27-Mar-2021 3426.01 4772.26 60.35 6.00 199.85 3169.91
   07:05:53.576.27-Mar-2021 3426.01 4772.27 60.35 6.00 200.05 3169.91
   07:05:53.776.27-Mar-2021 3426.01 4772.27 60.35 6.00 200.25 3169.91
   07:05:53.976.27-Mar-2021 3426.01 4772.27 60.35 6.00 200.45 3169.91
   07:05:54.176.27-Mar-2021 3426.01 4772.27 60.35 6.00 200.65 3169.91
   07:05:54.376.27-Mar-2021 3426.01 4772.23 60.35 6.00 200.85 3169.91
   07:05:54.576.27-Mar-2021 3426.01 4772.28 60.35 6.00 201.05 3169.91
   07:05:54.776.27-Mar-2021 3426.01 4772.28 60.35 6.00 201.25 3169.91
   07:05:54.976.27-Mar-2021 3426.01 4772.34 60.35 6.00 201.45 3169.91
   07:05:55.176.27-Mar-2021 3426.01 4772.25 60.35 6.00 201.65 3169.91
   07:05:55.376.27-Mar-2021 3426.01 4772.25 60.35 6.00 201.85 3169.91
   07:05:55.576.27-Mar-2021 3426.01 4772.26 60.35 6.00 202.05 3169.91
   07:05:55.776.27-Mar-2021 3426.01 4772.26 60.35 6.00 202.25 3169.91
   07:05:55.976.27-Mar-2021 3426.01 4772.25 60.35 6.00 202.45 3169.91
   07:05:56.176.27-Mar-2021 3426.01 4772.14 60.35 6.00 202.65 3169.91
   07:05:56.377.27-Mar-2021 3426.01 4772.28 60.35 6.00 202.85 3169.91
   07:05:56.577.27-Mar-2021 3426.01 4772.27 60.35 6.00 203.05 3169.91
   07:05:56.777.27-Mar-2021 3426.01 4772.27 60.35 6.00 203.25 3169.91
   07:05:56.977.27-Mar-2021 3426.01 4772.27 60.35 6.00 203.45 3169.91
   07:05:57.177.27-Mar-2021 3426.01 4772.28 60.35 6.00 203.65 3169.91
   07:05:57.377.27-Mar-2021 3426.01 4772.16 60.35 6.00 203.85 3169.91
   07:05:57.577.27-Mar-2021 3426.01 4772.33 60.35 6.00 204.05 3169.91
   07:05:57.777.27-Mar-2021 3426.01 4772.33 60.35 6.00 204.25 3169.91
   07:05:57.977.27-Mar-2021 3426.01 4772.26 60.35 6.00 204.45 3169.91
   07:05:58.177.27-Mar-2021 3426.01 4772.08 60.35 6.00 204.65 3169.91
   07:05:58.377.27-Mar-2021 3426.01 4772.34 60.35 6.00 204.85 3169.91
   07:05:58.577.27-Mar-2021 3426.01 4772.27 60.35 6.00 205.05 3169.91
   07:05:58.777.27-Mar-2021 3426.01 4772.27 60.35 6.00 205.25 3169.91
   07:05:58.977.27-Mar-2021 3426.01 4772.26 60.35 6.00 205.45 3169.91
   07:05:59.177.27-Mar-2021 3426.01 4772.26 60.35 6.00 205.65 3169.91
   07:05:59.377.27-Mar-2021 3426.01 4772.29 60.35 6.00 205.85 3169.91
   07:05:59.577.27-Mar-2021 3426.01 4772.28 60.35 6.00 206.05 3169.91
   07:05:59.777.27-Mar-2021 3426.01 4772.28 60.35 6.00 206.25 3169.91
   07:05:59.977.27-Mar-2021 3426.01 4772.27 60.35 6.00 206.45 3169.91
   07:06:00.177.27-Mar-2021 3426.01 4772.26 60.35 6.00 206.65 3169.91
   07:06:00.378.27-Mar-2021 3426.01 4772.27 60.35 6.00 206.85 3169.91
