~Version Information
 VERS.                  2.0:   CWLS log ASCII Standard -VERSION 2.0
 WRAP.                   NO:   One line per depth step
~Well Information Block
#MNEM.UNIT     VALUE/NAME     DESCRIPTION
#---------     -----------    ---------------------------
 STRT.S             07:02:33 27-Mar-21: START TIME 07:02:33 27-Mar-21
 STOP.S             07:09:44 27-Mar-21: STOP TIME  07:09:44 27-Mar-21
 STEP.S                   0.00: STEP TIME
 NULL.                 -999.25: NULL VALUE
 DFWT.                        :  DIST FWL TEXT
 DFST.                        :  DIST FSL TEXT
 DMF .             Drill Floor:  DRILL MEAS FROM
 STIM.      20.26.40 11-Mar-21:  START TIME
 DATE.      20.26.40 30-Mar-21:  END TIME
 SPUD.               11-Mar-21:  SPUD DATE
 NREF.                    Grid:  NORTH REFERENCE
 HPTY.       Minimum Curvature:  HOLE POS TYPE
 DMOD.             Drill Model:  DRILL MOD DESC
 SVYD.                  Survey:  SURVEY DESC
 ILTD.               Lithology:  INTERP LTH DESC
 FTOP.          Formation Tops:  FORM TOPS DESC
 SON .        AZ-XX-0906805385:  JOB NUMBER
 WTYP.                Deviated:  WELL TYPE
 COMP.     BP Exploration (Caspian Sea) Ltd.:  COMPANY
 UWI .            /AZE00000198:  UNIQUE WELL IDENTIFIER
 API .            /AZE00000198:  API NUMBER
 BASE.              Azerbaijan:  LOGGING EQUIPMENT BASE LOCATION
 REGN.                   EESSA:  REGION
 PROV.                    Baku:  PROVINCE
 STAT.                    Baku:  STATE NAME
 CTRY.              Azerbaijan:  COUNTRY NAME
 FLD .                     ACG:  FIELD NAME
 SRVC.     Turan Drilling & Engineering:  CONTRACTOR
 MWDS.                    Baku:  MWD SHOP
 WELL.                    D09z:  WELL NAME
 JOBN.        AZ-XX-0906805385:  JOB TICKET NUMB
 RIG .              East Azeri:  RIG NAME
 DOE .                     N/A:  DOE NUMBER
 DCON.         Sperry Drilling:  DIRECTNL CONTR
 UNIT.                     N/A:  LOGGING EQUIPMENT ID
 PDAT.          Mean Sea Level:  PERMANENT DATUM
 MDS .        Operator Entered:  MAG DATA SOURCE
 CNTY.                        :  COUNTY
 LOC .                        :  LOCATION
 LMF .             Drill Floor:  LOG MEASURED FROM
 TVDS.m                  43.60:  TVDSS CORRECTN
 LATI.deg                40.02:  LATITUDE
 LONG.deg                51.45:  LONGITUDE
 WHNS.m                 -17.04:  WELL HEAD N/S
 WHEW.m                  -6.28:  WELL HEAD E/W
 UTMX.m              538763.98:  UTM X
 UTMY.m             4431880.20:  UTM Y
 DFWL.m                   0.00:  DISTANCE FWL
 DFSL.m                   0.00:  DISTANCE FSL
 SDEP.m                2680.01:  START DEPTH
 TDD .m                4000.01:  TOTAL DEPTH (DRILLER)
 VSDR.deg               225.71:  VERT SEC DIRECT
 GVFD.g                   1.00:  GRAVITY FIELD
 MFLD.nT              50353.00:  MAGNETIC FIELD
 MDIP.deg                59.49:  MAGNETIC DIP
 MDEC.deg                 6.46:  MAGNETIC DECL
 GRDC.deg                 0.29:  GRID CORRECTION
 AZTC.deg                 6.17:  AZM TOTAL CORR
 EPD .m                   0.00:  ELEVATION
 EGL .m                   0.00:  GROUND ELEVATION
 WDMS.m                 151.80:  WD ELEV
 APD .m                  43.60:  DEPTH ABOVE PD
 AGAP.m                  43.60:  AIR GAP
 VSEW.m                  -6.28:  VERT SEC E/W
 VSNS.m                 -17.04:  VERT SEC N/S
 DEP .m                2656.31:  DEPTH
 EKB .m                  43.60:  KB ELEVATION
 EDF .m                  43.60:  DF ELEVATION
 VSC .                       0:  VS TO CLOSURE
 MAGU.                 1851247:  MAGUTM CHECKSUM
~Parameter Information Block
#MNEM.UNIT       Value        Description
#---------     -----------    ---------------------------
 AV  .mps                 3.00:  Ann Velocity 
 AVMX.mps                 8.00:  Max Ann Veloc 
 AZIF.deg                 0.00:  Azm, Final 
 BHAT.                   Other:  BHA Type 
 BREV.rev                 0.00:  Rev Bit Total 
 BROT.°/30m               0.00:  Build Rotating 
 BS  .in                 10.25:  Bit Size 
 BTPL.psig              511.00:  Bit Press Loss 
 CABU.                      No:  Customer Abuse 
 CGEO.           Asif Pashayev:  Customer Geo 
 COMM.                     ¬\q:  Run Comments 1 
 TCS .hr                 24.03:  Time Ciculation Ended 
 CV  .mps                 3.50:  Crit Velocity 
 CVMX.mps                 4.00:  Max Crit Veloc 
 DD1 .             Aziz Aliyev:  Direct Drillr 1 
 DD2 .      Fakhraddin Guliyev:  Direct Drillr 2 
 DDSV.                   Other:  DD Service 
 DEFF.%                  99.00:  % Det Eff 
 DLRX.°/30m               0.00:  Dogleg Rot Max 
 DLSO.°/30m               0.00:  Dogleg Oriented 
 DLSX.°/30m               0.00:  Dogleg Str Max 
 DRET.      23.00.40 28-Mar-21:  Drill End Time 
 DRST.      23.30.40 25-Mar-21:  Drill Start Tim 
 DTIM.hr                  0.00:  Time Drilling 
 EDEP.m                3886.01:  End Depth 
 ENG1.         Almaz Almadatov:  Engineer 1 
 ENG2.      Artemiy Matviyanov:  Engineer 2 
 ENG3.           Samir Gafarov:  Engineer 3 
 ETIM.      23.00.40 28-Mar-21:  End Time 
 FLOI.gpm               550.00:  Flow In 
 FLON.gpm               500.00:  Flow In Min 
 FLOS.cptm                0.00:  Fluid Loss 
 FLOX.gpm               590.00:  Flow In Max 
 HFLO.                      No:  High Flow 
 HPRE.                      No:  High Pressure 
 HTEM.                      No:  High Temp 
 HYDO.m                   1.80:  Hydro Offset 
 IFIN.deg                 0.00:  Inc, Final 
 IMAX.deg                 0.00:  Inc Max 
 IMIN.deg                 0.00:  Inc Min 
 IMND.m                   0.00:  Inc Min Depth 
 IMXD.m                   0.00:  Inc Max Depth 
 JARR.                      No:  Jarring 
 LETM.      03.22.40 28-Mar-21:  Log End Time 
 LOST.hr                     0:  Lost Rig Time 
 LSTM.      23.30.40 25-Mar-21:  Log Start Time 
 MDCL.ppm             34000.00:  Mud Chlorides 
 MDES.     Inversion Oil/Synthetic:  Mud Desc 
 DFD .sg                  1.51:  Mud Density 
 MDMN.sg                  1.51:  Dens Mud Min 
 MDMX.sg                  1.51:  Dens Mud Max 
 MOIL.                      70:  Run Mud Oil % 
 MOWR.                   70:30:  Run Mud OWR 
 MSND.                     0.2:  Run Mud Sand % 
 MSOL.                   21.60:  Run Mud Solids% 
 DFV .spqt               74.00:  Mud Viscosity 
 MWOD.in                  6.75:  MWD Tool OD 
 MWSI.                      No:  Serv Intrp, MWD 
 OTIM.hr                 69.09:  Time Operating 
 PCON.           Look Like New:  Pad Condition 
 PMAX.psia             3500.00:  Press Op, Max 
 PV  .cP                 70.00:  Mud PV 
 RUN .                     400:  Run Number 
 ROPA.m/hr                0.00:  ROP Avg 
 ROPN.m/hr                0.00:  ROP Min 
 ROPX.m/hr                0.00:  ROP Max 
 RPMA.rpm                80.00:  RPM Surface Avg 
 RPMN.rpm                10.00:  RPM Surface Min 
 RPMX.rpm               100.00:  RPM Surface Max 
 RRUN.                    0400:  Rig Run Number 
 RTIM.hr                  3.00:  Time Reaming 
 SAZI.deg                 0.00:  Azm, Start 
 SDEP.m                3886.01:  Start Depth 
 SIDD.                      No:  Serv Intrp, DD 
 SINC.deg                 0.00:  Inc, Start 
 SPPA.psig             3270.00:  SPP Avg 
 SPPN.psig             3220.00:  SPP Min 
 SPPX.psig             4430.00:  SPP Max 
 STIM.      23.30.40 25-Mar-21:  Start Time 
 SVCS.                 DD, MWD:  Services 
 SVER.                    9.20:  Sperry Version 
 TDAT.m                   0.00:  Tot Depth Attmp 
 TDDF.                      No:  Trip for DD 
 TFF .                      No:  Trip for Fail 
 TQAA.f-kp                8.00:  Torque Abs Avg 
 TQAN.f-kp                7.00:  Torque Abs Min 
 TQAX.f-kp               11.00:  Torque Abs Max 
 TRRT.°/30m               0.00:  Turn Rotating 
 MRT .                  EWR-M5:  Maximum Recorded Temperature 
 TTMX.degC               76.47:  Max Tool Temp 
 VS01.                90640857:  Virtual Str1 SN 
 VS02.                90639246:  Virtual Str2 SN 
 VS03.                90642265:  Virtual Str3 SN 
 VS04.                11654497:  Virtual Str4 SN 
 WBMN.klb                 0.00:  WOB Min 
 WITN.      Kamran Keberlinkiy:  Customer Rep 
 WITN.           Murad Guliyev:  Customer Rep 2 
 WOBA.klb                 0.00:  WOB Avg 
 WOBX.klb                 0.00:  WOB Max 
 YP  .lhf2               36.00:  Yield Point 
~Curve Information Block
#MNEM.UNIT                 API CODE     Curve Description
#---------               -----------    ---------------------------
 TIME.HHMMSS            00 000 000 000:  GT Time & Date
 GTDEPTH.m              00 000 000 000:  GT Depth
 GTPQH.psia             00 000 000 000:  GT HR Quartz Pressure
 GTTQ.degC              00 000 000 000:  GT Quartz Temperature
 GTTN.NONE              00 000 000 000:  GT Test Number
 GTET.sec               00 000 000 000:  GT Elapsed Test Time
 GTTVD.m                00 000 000 000:  GT True Vertical Depth
#Other Information
#
#WARRANTY: Halliburton will use its best efforts to furnish customers with 
#accurate information and interpretations that are part of, and incident to, the services 
#provided.  However, Halliburton cannot and does not warrant the accuracy 
#or correctness of such information and interpretations.  Under no circumstances should any 
#such information or interpretation be relied upon as the sole basis for any drilling, 
#completion, production, or financial decision or any procedure involving any risk to the 
#safety of any drilling venture, drilling rig or its crew or any other third party.  The 
#Customer has full responsibility for all drilling, completion and production operation.  
#Halliburton makes no representations or warranties, either expressed or 
#implied, including, but not limited to, the implied warranties of merchantability or fitness 
#for a particular purpose, with respect to the services rendered.  In no event will 
#Halliburton be liable for failure to obtain any particular results or for 
#any damages, including, but not limited to, indirect, special or consequential damages, 
#resulting from the use of any information or interpretation provided by Halliburton.
#
~A           TIME           GTDEPTH  GTPQH  GTTQ  GTTN  GTET   GTTVD  
# ...
   07:07:32.600.27-Mar-2021 3426.01 4772.06 60.39 6.00 299.07 3169.91
   07:07:32.801.27-Mar-2021 3426.01 4772.06 60.39 6.00 299.27 3169.91
   07:07:33.001.27-Mar-2021 3426.01 4772.03 60.39 6.00 299.47 3169.91
   07:07:33.201.27-Mar-2021 3426.01 4772.05 60.39 6.00 299.67 3169.91
   07:07:33.401.27-Mar-2021 3426.01 4771.96 60.39 6.00 299.87 3169.91
   07:07:33.601.27-Mar-2021 3426.01 4772.20 60.39 6.00 300.07 3169.91
   07:07:33.801.27-Mar-2021 3426.01 4772.20 60.39 6.00 300.27 3169.91
   07:07:34.001.27-Mar-2021 3426.01 4772.06 60.39 6.00 300.47 3169.91
   07:07:34.201.27-Mar-2021 3426.01 4772.09 60.39 6.00 300.67 3169.91
   07:07:34.401.27-Mar-2021 3426.01 4772.06 60.39 6.00 300.87 3169.91
   07:07:34.601.27-Mar-2021 3426.01 4772.05 60.39 6.00 301.07 3169.91
   07:07:34.801.27-Mar-2021 3426.01 4772.05 60.39 6.00 301.28 3169.91
   07:07:35.001.27-Mar-2021 3426.01 4772.06 60.39 6.00 301.48 3169.91
   07:07:35.201.27-Mar-2021 3426.01 4772.08 60.39 6.00 301.68 3169.91
   07:07:35.401.27-Mar-2021 3426.01 4772.08 60.39 6.00 301.88 3169.91
   07:07:35.601.27-Mar-2021 3426.01 4772.06 60.39 6.00 302.08 3169.91
   07:07:35.801.27-Mar-2021 3426.01 4772.06 60.39 6.00 302.28 3169.91
   07:07:36.001.27-Mar-2021 3426.01 4771.93 60.39 6.00 302.48 3169.91
   07:07:36.201.27-Mar-2021 3426.01 4772.19 60.39 6.00 302.68 3169.91
   07:07:36.401.27-Mar-2021 3426.01 4772.09 60.39 6.00 302.88 3169.91
   07:07:36.601.27-Mar-2021 3426.01 4772.07 60.39 6.00 303.08 3169.91
   07:07:36.802.27-Mar-2021 3426.01 4772.07 60.39 6.00 303.28 3169.91
   07:07:37.002.27-Mar-2021 3426.01 4772.06 60.39 6.00 303.48 3169.91
   07:07:37.202.27-Mar-2021 3426.01 4772.04 60.39 6.00 303.68 3169.91
   07:07:37.402.27-Mar-2021 3426.01 4771.96 60.39 6.00 303.88 3169.91
   07:07:37.602.27-Mar-2021 3426.01 4772.21 60.39 6.00 304.08 3169.91
   07:07:37.802.27-Mar-2021 3426.01 4772.21 60.39 6.00 304.28 3169.91
   07:07:38.002.27-Mar-2021 3426.01 4772.05 60.39 6.00 304.48 3169.91
   07:07:38.202.27-Mar-2021 3426.01 4772.07 60.39 6.00 304.68 3169.91
   07:07:38.402.27-Mar-2021 3426.01 4772.08 60.39 6.00 304.88 3169.91
   07:07:38.602.27-Mar-2021 3426.01 4772.07 60.39 6.00 305.08 3169.91
   07:07:38.802.27-Mar-2021 3426.01 4772.07 60.39 6.00 305.28 3169.91
   07:07:39.002.27-Mar-2021 3426.01 4772.00 60.39 6.00 305.48 3169.91
   07:07:39.202.27-Mar-2021 3426.01 4772.10 60.39 6.00 305.68 3169.91
   07:07:39.402.27-Mar-2021 3426.01 4771.87 60.39 6.00 305.88 3169.91
   07:07:39.602.27-Mar-2021 3426.01 4772.26 60.39 6.00 306.08 3169.91
   07:07:39.802.27-Mar-2021 3426.01 4772.26 60.39 6.00 306.28 3169.91
   07:07:40.002.27-Mar-2021 3426.01 4772.03 60.39 6.00 306.48 3169.91
   07:07:40.202.27-Mar-2021 3426.01 4772.07 60.39 6.00 306.68 3169.91
   07:07:40.402.27-Mar-2021 3426.01 4772.10 60.39 6.00 306.88 3169.91
   07:07:40.602.27-Mar-2021 3426.01 4772.10 60.39 6.00 307.08 3169.91
   07:07:40.803.27-Mar-2021 3426.01 4772.10 60.39 6.00 307.28 3169.91
   07:07:41.003.27-Mar-2021 3426.01 4772.05 60.39 6.00 307.48 3169.91
   07:07:41.203.27-Mar-2021 3426.01 4772.12 60.39 6.00 307.68 3169.91
   07:07:41.403.27-Mar-2021 3426.01 4772.07 60.39 6.00 307.88 3169.91
   07:07:41.603.27-Mar-2021 3426.01 4772.09 60.39 6.00 308.08 3169.91
   07:07:41.803.27-Mar-2021 3426.01 4772.09 60.39 6.00 308.28 3169.91
   07:07:42.003.27-Mar-2021 3426.01 4772.09 60.39 6.00 308.48 3169.91
   07:07:42.203.27-Mar-2021 3426.01 4772.07 60.39 6.00 308.68 3169.91
   07:07:42.403.27-Mar-2021 3426.01 4772.06 60.39 6.00 308.88 3169.91
   07:07:42.603.27-Mar-2021 3426.01 4771.95 60.39 6.00 309.08 3169.91
   07:07:42.803.27-Mar-2021 3426.01 4771.95 60.39 6.00 309.28 3169.91
   07:07:43.003.27-Mar-2021 3426.01 4772.06 60.39 6.00 309.48 3169.91
   07:07:43.203.27-Mar-2021 3426.01 4772.07 60.39 6.00 309.68 3169.91
   07:07:43.403.27-Mar-2021 3426.01 4772.07 60.39 6.00 309.88 3169.91
   07:07:43.603.27-Mar-2021 3426.01 4772.12 60.39 6.00 310.08 3169.91
   07:07:43.803.27-Mar-2021 3426.01 4772.12 60.39 6.00 310.28 3169.91
   07:07:44.003.27-Mar-2021 3426.01 4772.06 60.39 6.00 310.48 3169.91
   07:07:44.203.27-Mar-2021 3426.01 4772.08 60.39 6.00 310.68 3169.91
   07:07:44.403.27-Mar-2021 3426.01 4772.10 60.39 6.00 310.88 3169.91
   07:07:44.603.27-Mar-2021 3426.01 4772.13 60.39 6.00 311.08 3169.91
   07:07:44.804.27-Mar-2021 3426.01 4772.13 60.39 6.00 311.28 3169.91
   07:07:45.004.27-Mar-2021 3426.01 4772.11 60.39 6.00 311.48 3169.91
   07:07:45.204.27-Mar-2021 3426.01 4771.95 60.39 6.00 311.68 3169.91
   07:07:45.404.27-Mar-2021 3426.01 4772.23 60.39 6.00 311.88 3169.91
   07:07:45.604.27-Mar-2021 3426.01 4771.99 60.39 6.00 312.08 3169.91
   07:07:45.804.27-Mar-2021 3426.01 4771.99 60.39 6.00 312.28 3169.91
   07:07:46.004.27-Mar-2021 3426.01 4772.11 60.39 6.00 312.48 3169.91
   07:07:46.204.27-Mar-2021 3426.01 4772.08 60.39 6.00 312.68 3169.91
   07:07:46.404.27-Mar-2021 3426.01 4772.11 60.39 6.00 312.88 3169.91
   07:07:46.604.27-Mar-2021 3426.01 4771.96 60.39 6.00 313.08 3169.91
   07:07:46.804.27-Mar-2021 3426.01 4771.96 60.39 6.00 313.28 3169.91
   07:07:47.004.27-Mar-2021 3426.01 4772.12 60.39 6.00 313.48 3169.91
   07:07:47.204.27-Mar-2021 3426.01 4772.11 60.39 6.00 313.68 3169.91
   07:07:47.404.27-Mar-2021 3426.01 4772.06 60.39 6.00 313.88 3169.91
   07:07:47.604.27-Mar-2021 3426.01 4772.13 60.39 6.00 314.08 3169.91
   07:07:47.804.27-Mar-2021 3426.01 4772.13 60.39 6.00 314.28 3169.91
   07:07:48.004.27-Mar-2021 3426.01 4772.15 60.39 6.00 314.48 3169.91
   07:07:48.204.27-Mar-2021 3426.01 4771.99 60.39 6.00 314.68 3169.91
   07:07:48.404.27-Mar-2021 3426.01 4772.13 60.39 6.00 314.88 3169.91
   07:07:48.604.27-Mar-2021 3426.01 4771.90 60.39 6.00 315.08 3169.91
   07:07:48.805.27-Mar-2021 3426.01 4771.90 60.39 6.00 315.28 3169.91
   07:07:49.005.27-Mar-2021 3426.01 4772.13 60.39 6.00 315.48 3169.91
   07:07:49.205.27-Mar-2021 3426.01 4772.05 60.39 6.00 315.68 3169.91
   07:07:49.405.27-Mar-2021 3426.01 4772.11 60.39 6.00 315.88 3169.91
   07:07:49.605.27-Mar-2021 3426.01 4772.04 60.39 6.00 316.08 3169.91
   07:07:49.805.27-Mar-2021 3426.01 4772.04 60.39 6.00 316.28 3169.91
   07:07:50.005.27-Mar-2021 3426.01 4772.10 60.39 6.00 316.48 3169.91
   07:07:50.205.27-Mar-2021 3426.01 4772.06 60.39 6.00 316.68 3169.91
   07:07:50.405.27-Mar-2021 3426.01 4772.13 60.39 6.00 316.88 3169.91
   07:07:50.605.27-Mar-2021 3426.01 4772.14 60.39 6.00 317.08 3169.91
   07:07:50.805.27-Mar-2021 3426.01 4772.14 60.39 6.00 317.28 3169.91
   07:07:51.005.27-Mar-2021 3426.01 4772.10 60.39 6.00 317.48 3169.91
   07:07:51.205.27-Mar-2021 3426.01 4772.11 60.39 6.00 317.68 3169.91
   07:07:51.405.27-Mar-2021 3426.01 4772.11 60.39 6.00 317.88 3169.91
   07:07:51.605.27-Mar-2021 3426.01 4772.08 60.39 6.00 318.08 3169.91
   07:07:51.805.27-Mar-2021 3426.01 4772.08 60.39 6.00 318.28 3169.91
   07:07:52.005.27-Mar-2021 3426.01 4772.23 60.39 6.00 318.48 3169.91
   07:07:52.205.27-Mar-2021 3426.01 4772.09 60.39 6.00 318.68 3169.91
   07:07:52.405.27-Mar-2021 3426.01 4772.07 60.39 6.00 318.88 3169.91
   07:07:52.605.27-Mar-2021 3426.01 4772.11 60.39 6.00 319.08 3169.91
   07:07:52.806.27-Mar-2021 3426.01 4772.11 60.39 6.00 319.28 3169.91
   07:07:53.006.27-Mar-2021 3426.01 4772.09 60.39 6.00 319.48 3169.91
   07:07:53.206.27-Mar-2021 3426.01 4772.09 60.39 6.00 319.68 3169.91
   07:07:53.406.27-Mar-2021 3426.01 4772.11 60.39 6.00 319.88 3169.91
   07:07:53.606.27-Mar-2021 3426.01 4772.13 60.39 6.00 320.08 3169.91
   07:07:53.806.27-Mar-2021 3426.01 4772.13 60.39 6.00 320.28 3169.91
   07:07:54.006.27-Mar-2021 3426.01 4772.13 60.39 6.00 320.48 3169.91
   07:07:54.206.27-Mar-2021 3426.01 4772.11 60.39 6.00 320.68 3169.91
   07:07:54.406.27-Mar-2021 3426.01 4771.98 60.39 6.00 320.88 3169.91
   07:07:54.606.27-Mar-2021 3426.01 4772.27 60.39 6.00 321.08 3169.91
   07:07:54.806.27-Mar-2021 3426.01 4772.27 60.39 6.00 321.28 3169.91
   07:07:55.006.27-Mar-2021 3426.01 4772.10 60.39 6.00 321.48 3169.91
   07:07:55.206.27-Mar-2021 3426.01 4772.12 60.39 6.00 321.68 3169.91
   07:07:55.406.27-Mar-2021 3426.01 4772.08 60.39 6.00 321.88 3169.91
