~Version Information
 VERS.                  2.0:   CWLS log ASCII Standard -VERSION 2.0
 WRAP.                   NO:   One line per depth step
~Well Information Block
#MNEM.UNIT     VALUE/NAME     DESCRIPTION
#---------     -----------    ---------------------------
 STRT.S             07:02:33 27-Mar-21: START TIME 07:02:33 27-Mar-21
 STOP.S             07:09:44 27-Mar-21: STOP TIME  07:09:44 27-Mar-21
 STEP.S                   0.00: STEP TIME
 NULL.                 -999.25: NULL VALUE
 DFWT.                        :  DIST FWL TEXT
 DFST.                        :  DIST FSL TEXT
 DMF .             Drill Floor:  DRILL MEAS FROM
 STIM.      20.26.40 11-Mar-21:  START TIME
 DATE.      20.26.40 30-Mar-21:  END TIME
 SPUD.               11-Mar-21:  SPUD DATE
 NREF.                    Grid:  NORTH REFERENCE
 HPTY.       Minimum Curvature:  HOLE POS TYPE
 DMOD.             Drill Model:  DRILL MOD DESC
 SVYD.                  Survey:  SURVEY DESC
 ILTD.               Lithology:  INTERP LTH DESC
 FTOP.          Formation Tops:  FORM TOPS DESC
 SON .        AZ-XX-0906805385:  JOB NUMBER
 WTYP.                Deviated:  WELL TYPE
 COMP.     BP Exploration (Caspian Sea) Ltd.:  COMPANY
 UWI .            /AZE00000198:  UNIQUE WELL IDENTIFIER
 API .            /AZE00000198:  API NUMBER
 BASE.              Azerbaijan:  LOGGING EQUIPMENT BASE LOCATION
 REGN.                   EESSA:  REGION
 PROV.                    Baku:  PROVINCE
 STAT.                    Baku:  STATE NAME
 CTRY.              Azerbaijan:  COUNTRY NAME
 FLD .                     ACG:  FIELD NAME
 SRVC.     Turan Drilling & Engineering:  CONTRACTOR
 MWDS.                    Baku:  MWD SHOP
 WELL.                    D09z:  WELL NAME
 JOBN.        AZ-XX-0906805385:  JOB TICKET NUMB
 RIG .              East Azeri:  RIG NAME
 DOE .                     N/A:  DOE NUMBER
 DCON.         Sperry Drilling:  DIRECTNL CONTR
 UNIT.                     N/A:  LOGGING EQUIPMENT ID
 PDAT.          Mean Sea Level:  PERMANENT DATUM
 MDS .        Operator Entered:  MAG DATA SOURCE
 CNTY.                        :  COUNTY
 LOC .                        :  LOCATION
 LMF .             Drill Floor:  LOG MEASURED FROM
 TVDS.m                  43.60:  TVDSS CORRECTN
 LATI.deg                40.02:  LATITUDE
 LONG.deg                51.45:  LONGITUDE
 WHNS.m                 -17.04:  WELL HEAD N/S
 WHEW.m                  -6.28:  WELL HEAD E/W
 UTMX.m              538763.98:  UTM X
 UTMY.m             4431880.20:  UTM Y
 DFWL.m                   0.00:  DISTANCE FWL
 DFSL.m                   0.00:  DISTANCE FSL
 SDEP.m                2680.01:  START DEPTH
 TDD .m                4000.01:  TOTAL DEPTH (DRILLER)
 VSDR.deg               225.71:  VERT SEC DIRECT
 GVFD.g                   1.00:  GRAVITY FIELD
 MFLD.nT              50353.00:  MAGNETIC FIELD
 MDIP.deg                59.49:  MAGNETIC DIP
 MDEC.deg                 6.46:  MAGNETIC DECL
 GRDC.deg                 0.29:  GRID CORRECTION
 AZTC.deg                 6.17:  AZM TOTAL CORR
 EPD .m                   0.00:  ELEVATION
 EGL .m                   0.00:  GROUND ELEVATION
 WDMS.m                 151.80:  WD ELEV
 APD .m                  43.60:  DEPTH ABOVE PD
 AGAP.m                  43.60:  AIR GAP
 VSEW.m                  -6.28:  VERT SEC E/W
 VSNS.m                 -17.04:  VERT SEC N/S
 DEP .m                2656.31:  DEPTH
 EKB .m                  43.60:  KB ELEVATION
 EDF .m                  43.60:  DF ELEVATION
 VSC .                       0:  VS TO CLOSURE
 MAGU.                 1851247:  MAGUTM CHECKSUM
~Parameter Information Block
#MNEM.UNIT       Value        Description
#---------     -----------    ---------------------------
 AV  .mps                 3.00:  Ann Velocity 
 AVMX.mps                 8.00:  Max Ann Veloc 
 AZIF.deg                 0.00:  Azm, Final 
 BHAT.                   Other:  BHA Type 
 BREV.rev                 0.00:  Rev Bit Total 
 BROT.°/30m               0.00:  Build Rotating 
 BS  .in                 10.25:  Bit Size 
 BTPL.psig              511.00:  Bit Press Loss 
 CABU.                      No:  Customer Abuse 
 CGEO.           Asif Pashayev:  Customer Geo 
 COMM.                     ¬\q:  Run Comments 1 
 TCS .hr                 24.03:  Time Ciculation Ended 
 CV  .mps                 3.50:  Crit Velocity 
 CVMX.mps                 4.00:  Max Crit Veloc 
 DD1 .             Aziz Aliyev:  Direct Drillr 1 
 DD2 .      Fakhraddin Guliyev:  Direct Drillr 2 
 DDSV.                   Other:  DD Service 
 DEFF.%                  99.00:  % Det Eff 
 DLRX.°/30m               0.00:  Dogleg Rot Max 
 DLSO.°/30m               0.00:  Dogleg Oriented 
 DLSX.°/30m               0.00:  Dogleg Str Max 
 DRET.      23.00.40 28-Mar-21:  Drill End Time 
 DRST.      23.30.40 25-Mar-21:  Drill Start Tim 
 DTIM.hr                  0.00:  Time Drilling 
 EDEP.m                3886.01:  End Depth 
 ENG1.         Almaz Almadatov:  Engineer 1 
 ENG2.      Artemiy Matviyanov:  Engineer 2 
 ENG3.           Samir Gafarov:  Engineer 3 
 ETIM.      23.00.40 28-Mar-21:  End Time 
 FLOI.gpm               550.00:  Flow In 
 FLON.gpm               500.00:  Flow In Min 
 FLOS.cptm                0.00:  Fluid Loss 
 FLOX.gpm               590.00:  Flow In Max 
 HFLO.                      No:  High Flow 
 HPRE.                      No:  High Pressure 
 HTEM.                      No:  High Temp 
 HYDO.m                   1.80:  Hydro Offset 
 IFIN.deg                 0.00:  Inc, Final 
 IMAX.deg                 0.00:  Inc Max 
 IMIN.deg                 0.00:  Inc Min 
 IMND.m                   0.00:  Inc Min Depth 
 IMXD.m                   0.00:  Inc Max Depth 
 JARR.                      No:  Jarring 
 LETM.      03.22.40 28-Mar-21:  Log End Time 
 LOST.hr                     0:  Lost Rig Time 
 LSTM.      23.30.40 25-Mar-21:  Log Start Time 
 MDCL.ppm             34000.00:  Mud Chlorides 
 MDES.     Inversion Oil/Synthetic:  Mud Desc 
 DFD .sg                  1.51:  Mud Density 
 MDMN.sg                  1.51:  Dens Mud Min 
 MDMX.sg                  1.51:  Dens Mud Max 
 MOIL.                      70:  Run Mud Oil % 
 MOWR.                   70:30:  Run Mud OWR 
 MSND.                     0.2:  Run Mud Sand % 
 MSOL.                   21.60:  Run Mud Solids% 
 DFV .spqt               74.00:  Mud Viscosity 
 MWOD.in                  6.75:  MWD Tool OD 
 MWSI.                      No:  Serv Intrp, MWD 
 OTIM.hr                 69.09:  Time Operating 
 PCON.           Look Like New:  Pad Condition 
 PMAX.psia             3500.00:  Press Op, Max 
 PV  .cP                 70.00:  Mud PV 
 RUN .                     400:  Run Number 
 ROPA.m/hr                0.00:  ROP Avg 
 ROPN.m/hr                0.00:  ROP Min 
 ROPX.m/hr                0.00:  ROP Max 
 RPMA.rpm                80.00:  RPM Surface Avg 
 RPMN.rpm                10.00:  RPM Surface Min 
 RPMX.rpm               100.00:  RPM Surface Max 
 RRUN.                    0400:  Rig Run Number 
 RTIM.hr                  3.00:  Time Reaming 
 SAZI.deg                 0.00:  Azm, Start 
 SDEP.m                3886.01:  Start Depth 
 SIDD.                      No:  Serv Intrp, DD 
 SINC.deg                 0.00:  Inc, Start 
 SPPA.psig             3270.00:  SPP Avg 
 SPPN.psig             3220.00:  SPP Min 
 SPPX.psig             4430.00:  SPP Max 
 STIM.      23.30.40 25-Mar-21:  Start Time 
 SVCS.                 DD, MWD:  Services 
 SVER.                    9.20:  Sperry Version 
 TDAT.m                   0.00:  Tot Depth Attmp 
 TDDF.                      No:  Trip for DD 
 TFF .                      No:  Trip for Fail 
 TQAA.f-kp                8.00:  Torque Abs Avg 
 TQAN.f-kp                7.00:  Torque Abs Min 
 TQAX.f-kp               11.00:  Torque Abs Max 
 TRRT.°/30m               0.00:  Turn Rotating 
 MRT .                  EWR-M5:  Maximum Recorded Temperature 
 TTMX.degC               76.47:  Max Tool Temp 
 VS01.                90640857:  Virtual Str1 SN 
 VS02.                90639246:  Virtual Str2 SN 
 VS03.                90642265:  Virtual Str3 SN 
 VS04.                11654497:  Virtual Str4 SN 
 WBMN.klb                 0.00:  WOB Min 
 WITN.      Kamran Keberlinkiy:  Customer Rep 
 WITN.           Murad Guliyev:  Customer Rep 2 
 WOBA.klb                 0.00:  WOB Avg 
 WOBX.klb                 0.00:  WOB Max 
 YP  .lhf2               36.00:  Yield Point 
~Curve Information Block
#MNEM.UNIT                 API CODE     Curve Description
#---------               -----------    ---------------------------
 TIME.HHMMSS            00 000 000 000:  GT Time & Date
 GTDEPTH.m              00 000 000 000:  GT Depth
 GTPQH.psia             00 000 000 000:  GT HR Quartz Pressure
 GTTQ.degC              00 000 000 000:  GT Quartz Temperature
 GTTN.NONE              00 000 000 000:  GT Test Number
 GTET.sec               00 000 000 000:  GT Elapsed Test Time
 GTTVD.m                00 000 000 000:  GT True Vertical Depth
#Other Information
#
#WARRANTY: Halliburton will use its best efforts to furnish customers with 
#accurate information and interpretations that are part of, and incident to, the services 
#provided.  However, Halliburton cannot and does not warrant the accuracy 
#or correctness of such information and interpretations.  Under no circumstances should any 
#such information or interpretation be relied upon as the sole basis for any drilling, 
#completion, production, or financial decision or any procedure involving any risk to the 
#safety of any drilling venture, drilling rig or its crew or any other third party.  The 
#Customer has full responsibility for all drilling, completion and production operation.  
#Halliburton makes no representations or warranties, either expressed or 
#implied, including, but not limited to, the implied warranties of merchantability or fitness 
#for a particular purpose, with respect to the services rendered.  In no event will 
#Halliburton be liable for failure to obtain any particular results or for 
#any damages, including, but not limited to, indirect, special or consequential damages, 
#resulting from the use of any information or interpretation provided by Halliburton.
#
~A           TIME           GTDEPTH  GTPQH  GTTQ  GTTN  GTET   GTTVD  
# ...
   07:07:09.595.27-Mar-2021 3426.01 4616.48 60.37 6.00 276.07 3169.91
   07:07:09.795.27-Mar-2021 3426.01 4616.48 60.37 6.00 276.27 3169.91
   07:07:09.995.27-Mar-2021 3426.01 4615.06 60.37 6.00 276.47 3169.91
   07:07:10.195.27-Mar-2021 3426.01 4616.44 60.37 6.00 276.67 3169.91
   07:07:10.395.27-Mar-2021 3426.01 4616.68 60.37 6.00 276.87 3169.91
   07:07:10.595.27-Mar-2021 3426.01 4616.36 60.37 6.00 277.07 3169.91
   07:07:10.795.27-Mar-2021 3426.01 4616.36 60.37 6.00 277.27 3169.91
   07:07:10.995.27-Mar-2021 3426.01 4616.63 60.37 6.00 277.47 3169.91
   07:07:11.195.27-Mar-2021 3426.01 4717.57 60.37 6.00 277.67 3169.91
   07:07:11.395.27-Mar-2021 3426.01 4766.59 60.37 6.00 277.87 3169.91
   07:07:11.595.27-Mar-2021 3426.01 4770.89 60.38 6.00 278.07 3169.91
   07:07:11.795.27-Mar-2021 3426.01 4770.89 60.38 6.00 278.27 3169.91
   07:07:11.995.27-Mar-2021 3426.01 4771.33 60.38 6.00 278.47 3169.91
   07:07:12.195.27-Mar-2021 3426.01 4771.37 60.38 6.00 278.67 3169.91
   07:07:12.395.27-Mar-2021 3426.01 4771.33 60.38 6.00 278.87 3169.91
   07:07:12.596.27-Mar-2021 3426.01 4771.45 60.38 6.00 279.07 3169.91
   07:07:12.796.27-Mar-2021 3426.01 4771.45 60.38 6.00 279.27 3169.91
   07:07:12.996.27-Mar-2021 3426.01 4771.50 60.38 6.00 279.47 3169.91
   07:07:13.196.27-Mar-2021 3426.01 4771.55 60.38 6.00 279.67 3169.91
   07:07:13.396.27-Mar-2021 3426.01 4771.58 60.38 6.00 279.87 3169.91
   07:07:13.596.27-Mar-2021 3426.01 4771.63 60.38 6.00 280.07 3169.91
   07:07:13.796.27-Mar-2021 3426.01 4771.63 60.38 6.00 280.27 3169.91
   07:07:13.996.27-Mar-2021 3426.01 4771.65 60.38 6.00 280.47 3169.91
   07:07:14.196.27-Mar-2021 3426.01 4771.65 60.38 6.00 280.67 3169.91
   07:07:14.396.27-Mar-2021 3426.01 4771.64 60.38 6.00 280.87 3169.91
   07:07:14.596.27-Mar-2021 3426.01 4771.60 60.38 6.00 281.07 3169.91
   07:07:14.796.27-Mar-2021 3426.01 4771.60 60.38 6.00 281.27 3169.91
   07:07:14.996.27-Mar-2021 3426.01 4771.57 60.38 6.00 281.47 3169.91
   07:07:15.196.27-Mar-2021 3426.01 4771.86 60.38 6.00 281.67 3169.91
   07:07:15.396.27-Mar-2021 3426.01 4771.76 60.38 6.00 281.87 3169.91
   07:07:15.596.27-Mar-2021 3426.01 4771.83 60.38 6.00 282.07 3169.91
   07:07:15.796.27-Mar-2021 3426.01 4771.83 60.38 6.00 282.27 3169.91
   07:07:15.996.27-Mar-2021 3426.01 4771.83 60.38 6.00 282.47 3169.91
   07:07:16.196.27-Mar-2021 3426.01 4771.84 60.38 6.00 282.67 3169.91
   07:07:16.396.27-Mar-2021 3426.01 4771.88 60.38 6.00 282.87 3169.91
   07:07:16.597.27-Mar-2021 3426.01 4771.79 60.38 6.00 283.07 3169.91
   07:07:16.797.27-Mar-2021 3426.01 4771.79 60.38 6.00 283.27 3169.91
   07:07:16.997.27-Mar-2021 3426.01 4771.90 60.38 6.00 283.47 3169.91
   07:07:17.197.27-Mar-2021 3426.01 4771.85 60.38 6.00 283.67 3169.91
   07:07:17.397.27-Mar-2021 3426.01 4771.88 60.38 6.00 283.87 3169.91
   07:07:17.597.27-Mar-2021 3426.01 4771.74 60.38 6.00 284.07 3169.91
   07:07:17.797.27-Mar-2021 3426.01 4771.74 60.38 6.00 284.27 3169.91
   07:07:17.997.27-Mar-2021 3426.01 4771.84 60.38 6.00 284.47 3169.91
   07:07:18.197.27-Mar-2021 3426.01 4771.90 60.38 6.00 284.67 3169.91
   07:07:18.397.27-Mar-2021 3426.01 4771.96 60.38 6.00 284.87 3169.91
   07:07:18.597.27-Mar-2021 3426.01 4771.71 60.38 6.00 285.07 3169.91
   07:07:18.797.27-Mar-2021 3426.01 4771.71 60.38 6.00 285.27 3169.91
   07:07:18.997.27-Mar-2021 3426.01 4772.02 60.38 6.00 285.47 3169.91
   07:07:19.197.27-Mar-2021 3426.01 4771.86 60.38 6.00 285.67 3169.91
   07:07:19.397.27-Mar-2021 3426.01 4771.76 60.38 6.00 285.87 3169.91
   07:07:19.597.27-Mar-2021 3426.01 4772.07 60.38 6.00 286.07 3169.91
   07:07:19.797.27-Mar-2021 3426.01 4772.07 60.38 6.00 286.27 3169.91
   07:07:19.997.27-Mar-2021 3426.01 4771.92 60.38 6.00 286.47 3169.91
   07:07:20.197.27-Mar-2021 3426.01 4771.96 60.38 6.00 286.67 3169.91
   07:07:20.397.27-Mar-2021 3426.01 4772.03 60.38 6.00 286.87 3169.91
   07:07:20.598.27-Mar-2021 3426.01 4771.99 60.38 6.00 287.07 3169.91
   07:07:20.798.27-Mar-2021 3426.01 4771.99 60.38 6.00 287.27 3169.91
   07:07:20.998.27-Mar-2021 3426.01 4772.04 60.38 6.00 287.47 3169.91
   07:07:21.198.27-Mar-2021 3426.01 4771.89 60.38 6.00 287.67 3169.91
   07:07:21.398.27-Mar-2021 3426.01 4772.02 60.38 6.00 287.87 3169.91
   07:07:21.598.27-Mar-2021 3426.01 4771.99 60.38 6.00 288.07 3169.91
   07:07:21.798.27-Mar-2021 3426.01 4771.99 60.38 6.00 288.27 3169.91
   07:07:21.998.27-Mar-2021 3426.01 4771.95 60.38 6.00 288.47 3169.91
   07:07:22.198.27-Mar-2021 3426.01 4772.03 60.38 6.00 288.67 3169.91
   07:07:22.398.27-Mar-2021 3426.01 4771.98 60.38 6.00 288.87 3169.91
   07:07:22.598.27-Mar-2021 3426.01 4772.00 60.38 6.00 289.07 3169.91
   07:07:22.798.27-Mar-2021 3426.01 4772.00 60.38 6.00 289.27 3169.91
   07:07:22.998.27-Mar-2021 3426.01 4772.02 60.38 6.00 289.47 3169.91
   07:07:23.198.27-Mar-2021 3426.01 4772.02 60.38 6.00 289.67 3169.91
   07:07:23.398.27-Mar-2021 3426.01 4772.02 60.38 6.00 289.87 3169.91
   07:07:23.598.27-Mar-2021 3426.01 4772.00 60.38 6.00 290.07 3169.91
   07:07:23.798.27-Mar-2021 3426.01 4772.00 60.38 6.00 290.27 3169.91
   07:07:23.998.27-Mar-2021 3426.01 4772.03 60.38 6.00 290.47 3169.91
   07:07:24.198.27-Mar-2021 3426.01 4772.00 60.38 6.00 290.67 3169.91
   07:07:24.398.27-Mar-2021 3426.01 4771.96 60.38 6.00 290.87 3169.91
   07:07:24.599.27-Mar-2021 3426.01 4772.08 60.38 6.00 291.07 3169.91
   07:07:24.799.27-Mar-2021 3426.01 4772.08 60.38 6.00 291.27 3169.91
   07:07:24.999.27-Mar-2021 3426.01 4772.01 60.38 6.00 291.47 3169.91
   07:07:25.199.27-Mar-2021 3426.01 4772.01 60.38 6.00 291.67 3169.91
   07:07:25.399.27-Mar-2021 3426.01 4772.04 60.38 6.00 291.87 3169.91
   07:07:25.599.27-Mar-2021 3426.01 4772.01 60.38 6.00 292.07 3169.91
   07:07:25.799.27-Mar-2021 3426.01 4772.01 60.38 6.00 292.27 3169.91
   07:07:25.999.27-Mar-2021 3426.01 4772.04 60.38 6.00 292.47 3169.91
   07:07:26.199.27-Mar-2021 3426.01 4772.00 60.38 6.00 292.67 3169.91
   07:07:26.399.27-Mar-2021 3426.01 4772.04 60.38 6.00 292.87 3169.91
   07:07:26.599.27-Mar-2021 3426.01 4772.00 60.38 6.00 293.07 3169.91
   07:07:26.799.27-Mar-2021 3426.01 4772.00 60.38 6.00 293.27 3169.91
   07:07:26.999.27-Mar-2021 3426.01 4772.05 60.38 6.00 293.47 3169.91
   07:07:27.199.27-Mar-2021 3426.01 4772.10 60.38 6.00 293.67 3169.91
   07:07:27.399.27-Mar-2021 3426.01 4771.96 60.38 6.00 293.87 3169.91
   07:07:27.599.27-Mar-2021 3426.01 4772.06 60.38 6.00 294.07 3169.91
   07:07:27.799.27-Mar-2021 3426.01 4772.06 60.38 6.00 294.27 3169.91
   07:07:27.999.27-Mar-2021 3426.01 4772.05 60.38 6.00 294.47 3169.91
   07:07:28.199.27-Mar-2021 3426.01 4771.83 60.38 6.00 294.67 3169.91
   07:07:28.399.27-Mar-2021 3426.01 4772.13 60.39 6.00 294.87 3169.91
   07:07:28.600.27-Mar-2021 3426.01 4772.14 60.38 6.00 295.07 3169.91
   07:07:28.800.27-Mar-2021 3426.01 4772.14 60.38 6.00 295.27 3169.91
   07:07:29.000.27-Mar-2021 3426.01 4771.92 60.39 6.00 295.47 3169.91
   07:07:29.200.27-Mar-2021 3426.01 4772.16 60.39 6.00 295.67 3169.91
   07:07:29.400.27-Mar-2021 3426.01 4772.05 60.39 6.00 295.87 3169.91
   07:07:29.600.27-Mar-2021 3426.01 4772.04 60.39 6.00 296.07 3169.91
   07:07:29.800.27-Mar-2021 3426.01 4772.04 60.39 6.00 296.27 3169.91
   07:07:30.000.27-Mar-2021 3426.01 4772.11 60.39 6.00 296.47 3169.91
   07:07:30.200.27-Mar-2021 3426.01 4771.82 60.39 6.00 296.67 3169.91
   07:07:30.400.27-Mar-2021 3426.01 4772.26 60.39 6.00 296.87 3169.91
   07:07:30.600.27-Mar-2021 3426.01 4772.11 60.39 6.00 297.07 3169.91
   07:07:30.800.27-Mar-2021 3426.01 4772.11 60.39 6.00 297.27 3169.91
   07:07:31.000.27-Mar-2021 3426.01 4772.03 60.39 6.00 297.47 3169.91
   07:07:31.200.27-Mar-2021 3426.01 4772.10 60.39 6.00 297.67 3169.91
   07:07:31.400.27-Mar-2021 3426.01 4772.03 60.39 6.00 297.87 3169.91
   07:07:31.600.27-Mar-2021 3426.01 4772.06 60.39 6.00 298.07 3169.91
   07:07:31.800.27-Mar-2021 3426.01 4772.06 60.39 6.00 298.27 3169.91
   07:07:32.000.27-Mar-2021 3426.01 4772.07 60.39 6.00 298.47 3169.91
   07:07:32.200.27-Mar-2021 3426.01 4772.04 60.39 6.00 298.67 3169.91
   07:07:32.400.27-Mar-2021 3426.01 4772.09 60.39 6.00 298.87 3169.91
