~Version Information
 VERS.                  2.0:   CWLS log ASCII Standard -VERSION 2.0
 WRAP.                   NO:   One line per depth step
~Well Information Block
#MNEM.UNIT     VALUE/NAME     DESCRIPTION
#---------     -----------    ---------------------------
 STRT.S             03:27:53 27-Mar-21: START TIME 03:27:53 27-Mar-21
 STOP.S             03:35:02 27-Mar-21: STOP TIME  03:35:02 27-Mar-21
 STEP.S                   0.00: STEP TIME
 NULL.                 -999.25: NULL VALUE
 DFWT.                        :  DIST FWL TEXT
 DFST.                        :  DIST FSL TEXT
 DMF .             Drill Floor:  DRILL MEAS FROM
 STIM.      20.26.40 11-Mar-21:  START TIME
 DATE.      20.26.40 30-Mar-21:  END TIME
 SPUD.               11-Mar-21:  SPUD DATE
 NREF.                    Grid:  NORTH REFERENCE
 HPTY.       Minimum Curvature:  HOLE POS TYPE
 DMOD.             Drill Model:  DRILL MOD DESC
 SVYD.                  Survey:  SURVEY DESC
 ILTD.               Lithology:  INTERP LTH DESC
 FTOP.          Formation Tops:  FORM TOPS DESC
 SON .        AZ-XX-0906805385:  JOB NUMBER
 WTYP.                Deviated:  WELL TYPE
 COMP.     BP Exploration (Caspian Sea) Ltd.:  COMPANY
 UWI .            /AZE00000198:  UNIQUE WELL IDENTIFIER
 API .            /AZE00000198:  API NUMBER
 BASE.              Azerbaijan:  LOGGING EQUIPMENT BASE LOCATION
 REGN.                   EESSA:  REGION
 PROV.                    Baku:  PROVINCE
 STAT.                    Baku:  STATE NAME
 CTRY.              Azerbaijan:  COUNTRY NAME
 FLD .                     ACG:  FIELD NAME
 SRVC.     Turan Drilling & Engineering:  CONTRACTOR
 MWDS.                    Baku:  MWD SHOP
 WELL.                    D09z:  WELL NAME
 JOBN.        AZ-XX-0906805385:  JOB TICKET NUMB
 RIG .              East Azeri:  RIG NAME
 DOE .                     N/A:  DOE NUMBER
 DCON.         Sperry Drilling:  DIRECTNL CONTR
 UNIT.                     N/A:  LOGGING EQUIPMENT ID
 PDAT.          Mean Sea Level:  PERMANENT DATUM
 MDS .        Operator Entered:  MAG DATA SOURCE
 CNTY.                        :  COUNTY
 LOC .                        :  LOCATION
 LMF .             Drill Floor:  LOG MEASURED FROM
 TVDS.m                  43.60:  TVDSS CORRECTN
 LATI.deg                40.02:  LATITUDE
 LONG.deg                51.45:  LONGITUDE
 WHNS.m                 -17.04:  WELL HEAD N/S
 WHEW.m                  -6.28:  WELL HEAD E/W
 UTMX.m              538763.98:  UTM X
 UTMY.m             4431880.20:  UTM Y
 DFWL.m                   0.00:  DISTANCE FWL
 DFSL.m                   0.00:  DISTANCE FSL
 SDEP.m                2680.01:  START DEPTH
 TDD .m                4000.01:  TOTAL DEPTH (DRILLER)
 VSDR.deg               225.71:  VERT SEC DIRECT
 GVFD.g                   1.00:  GRAVITY FIELD
 MFLD.nT              50353.00:  MAGNETIC FIELD
 MDIP.deg                59.49:  MAGNETIC DIP
 MDEC.deg                 6.46:  MAGNETIC DECL
 GRDC.deg                 0.29:  GRID CORRECTION
 AZTC.deg                 6.17:  AZM TOTAL CORR
 EPD .m                   0.00:  ELEVATION
 EGL .m                   0.00:  GROUND ELEVATION
 WDMS.m                 151.80:  WD ELEV
 APD .m                  43.60:  DEPTH ABOVE PD
 AGAP.m                  43.60:  AIR GAP
 VSEW.m                  -6.28:  VERT SEC E/W
 VSNS.m                 -17.04:  VERT SEC N/S
 DEP .m                2656.31:  DEPTH
 EKB .m                  43.60:  KB ELEVATION
 EDF .m                  43.60:  DF ELEVATION
 VSC .                       0:  VS TO CLOSURE
 MAGU.                 1851247:  MAGUTM CHECKSUM
~Parameter Information Block
#MNEM.UNIT       Value        Description
#---------     -----------    ---------------------------
 AV  .mps                 3.00:  Ann Velocity 
 AVMX.mps                 8.00:  Max Ann Veloc 
 AZIF.deg                 0.00:  Azm, Final 
 BHAT.                   Other:  BHA Type 
 BREV.rev                 0.00:  Rev Bit Total 
 BROT.°/30m               0.00:  Build Rotating 
 BS  .in                 10.25:  Bit Size 
 BTPL.psig              511.00:  Bit Press Loss 
 CABU.                      No:  Customer Abuse 
 CGEO.           Asif Pashayev:  Customer Geo 
 COMM.                     ¼Fy:  Run Comments 1 
 TCS .hr                 24.03:  Time Ciculation Ended 
 CV  .mps                 3.50:  Crit Velocity 
 CVMX.mps                 4.00:  Max Crit Veloc 
 DD1 .             Aziz Aliyev:  Direct Drillr 1 
 DD2 .      Fakhraddin Guliyev:  Direct Drillr 2 
 DDSV.                   Other:  DD Service 
 DEFF.%                  99.00:  % Det Eff 
 DLRX.°/30m               0.00:  Dogleg Rot Max 
 DLSO.°/30m               0.00:  Dogleg Oriented 
 DLSX.°/30m               0.00:  Dogleg Str Max 
 DRET.      23.00.40 28-Mar-21:  Drill End Time 
 DRST.      23.30.40 25-Mar-21:  Drill Start Tim 
 DTIM.hr                  0.00:  Time Drilling 
 EDEP.m                3886.01:  End Depth 
 ENG1.         Almaz Almadatov:  Engineer 1 
 ENG2.      Artemiy Matviyanov:  Engineer 2 
 ENG3.           Samir Gafarov:  Engineer 3 
 ETIM.      23.00.40 28-Mar-21:  End Time 
 FLOI.gpm               550.00:  Flow In 
 FLON.gpm               500.00:  Flow In Min 
 FLOS.cptm                0.00:  Fluid Loss 
 FLOX.gpm               590.00:  Flow In Max 
 HFLO.                      No:  High Flow 
 HPRE.                      No:  High Pressure 
 HTEM.                      No:  High Temp 
 HYDO.m                   1.80:  Hydro Offset 
 IFIN.deg                 0.00:  Inc, Final 
 IMAX.deg                 0.00:  Inc Max 
 IMIN.deg                 0.00:  Inc Min 
 IMND.m                   0.00:  Inc Min Depth 
 IMXD.m                   0.00:  Inc Max Depth 
 JARR.                      No:  Jarring 
 LETM.      03.22.40 28-Mar-21:  Log End Time 
 LOST.hr                     0:  Lost Rig Time 
 LSTM.      23.30.40 25-Mar-21:  Log Start Time 
 MDCL.ppm             34000.00:  Mud Chlorides 
 MDES.     Inversion Oil/Synthetic:  Mud Desc 
 DFD .sg                  1.51:  Mud Density 
 MDMN.sg                  1.51:  Dens Mud Min 
 MDMX.sg                  1.51:  Dens Mud Max 
 MOIL.                      70:  Run Mud Oil % 
 MOWR.                   70:30:  Run Mud OWR 
 MSND.                     0.2:  Run Mud Sand % 
 MSOL.                   21.60:  Run Mud Solids% 
 DFV .spqt               74.00:  Mud Viscosity 
 MWOD.in                  6.75:  MWD Tool OD 
 MWSI.                      No:  Serv Intrp, MWD 
 OTIM.hr                 69.09:  Time Operating 
 PCON.           Look Like New:  Pad Condition 
 PMAX.psia             3500.00:  Press Op, Max 
 PV  .cP                 70.00:  Mud PV 
 RUN .                     400:  Run Number 
 ROPA.m/hr                0.00:  ROP Avg 
 ROPN.m/hr                0.00:  ROP Min 
 ROPX.m/hr                0.00:  ROP Max 
 RPMA.rpm                80.00:  RPM Surface Avg 
 RPMN.rpm                10.00:  RPM Surface Min 
 RPMX.rpm               100.00:  RPM Surface Max 
 RRUN.                    0400:  Rig Run Number 
 RTIM.hr                  3.00:  Time Reaming 
 SAZI.deg                 0.00:  Azm, Start 
 SDEP.m                3886.01:  Start Depth 
 SIDD.                      No:  Serv Intrp, DD 
 SINC.deg                 0.00:  Inc, Start 
 SPPA.psig             3270.00:  SPP Avg 
 SPPN.psig             3220.00:  SPP Min 
 SPPX.psig             4430.00:  SPP Max 
 STIM.      23.30.40 25-Mar-21:  Start Time 
 SVCS.                 DD, MWD:  Services 
 SVER.                    9.20:  Sperry Version 
 TDAT.m                   0.00:  Tot Depth Attmp 
 TDDF.                      No:  Trip for DD 
 TFF .                      No:  Trip for Fail 
 TQAA.f-kp                8.00:  Torque Abs Avg 
 TQAN.f-kp                7.00:  Torque Abs Min 
 TQAX.f-kp               11.00:  Torque Abs Max 
 TRRT.°/30m               0.00:  Turn Rotating 
 MRT .                  EWR-M5:  Maximum Recorded Temperature 
 TTMX.degC               76.47:  Max Tool Temp 
 VS01.                90640857:  Virtual Str1 SN 
 VS02.                90639246:  Virtual Str2 SN 
 VS03.                90642265:  Virtual Str3 SN 
 VS04.                11654497:  Virtual Str4 SN 
 WBMN.klb                 0.00:  WOB Min 
 WITN.      Kamran Keberlinkiy:  Customer Rep 
 WITN.           Murad Guliyev:  Customer Rep 2 
 WOBA.klb                 0.00:  WOB Avg 
 WOBX.klb                 0.00:  WOB Max 
 YP  .lhf2               36.00:  Yield Point 
~Curve Information Block
#MNEM.UNIT                 API CODE     Curve Description
#---------               -----------    ---------------------------
 TIME.HHMMSS            00 000 000 000:  GT Time & Date
 GTDEPTH.m              00 000 000 000:  GT Depth
 GTPQH.psia             00 000 000 000:  GT HR Quartz Pressure
 GTTQ.degC              00 000 000 000:  GT Quartz Temperature
 GTTN.NONE              00 000 000 000:  GT Test Number
 GTET.sec               00 000 000 000:  GT Elapsed Test Time
 GTTVD.m                00 000 000 000:  GT True Vertical Depth
#Other Information
#
#WARRANTY: Halliburton will use its best efforts to furnish customers with 
#accurate information and interpretations that are part of, and incident to, the services 
#provided.  However, Halliburton cannot and does not warrant the accuracy 
#or correctness of such information and interpretations.  Under no circumstances should any 
#such information or interpretation be relied upon as the sole basis for any drilling, 
#completion, production, or financial decision or any procedure involving any risk to the 
#safety of any drilling venture, drilling rig or its crew or any other third party.  The 
#Customer has full responsibility for all drilling, completion and production operation.  
#Halliburton makes no representations or warranties, either expressed or 
#implied, including, but not limited to, the implied warranties of merchantability or fitness 
#for a particular purpose, with respect to the services rendered.  In no event will 
#Halliburton be liable for failure to obtain any particular results or for 
#any damages, including, but not limited to, indirect, special or consequential damages, 
#resulting from the use of any information or interpretation provided by Halliburton.
#
~A           TIME           GTDEPTH  GTPQH  GTTQ  GTTN  GTET   GTTVD  
# ...
   03:34:01.173.27-Mar-2021 3725.51 5265.35 61.45 3.00 368.05 3451.28
   03:34:01.373.27-Mar-2021 3725.51 5265.35 61.45 3.00 368.25 3451.28
   03:34:01.573.27-Mar-2021 3725.51 5265.09 61.45 3.00 368.45 3451.28
   03:34:01.773.27-Mar-2021 3725.51 5265.27 61.45 3.00 368.65 3451.28
   03:34:01.973.27-Mar-2021 3725.51 5265.31 61.45 3.00 368.85 3451.28
   03:34:02.173.27-Mar-2021 3725.51 5265.30 61.45 3.00 369.05 3451.28
   03:34:02.373.27-Mar-2021 3725.51 5265.30 61.45 3.00 369.25 3451.28
   03:34:02.573.27-Mar-2021 3725.51 5265.20 61.45 3.00 369.45 3451.28
   03:34:02.773.27-Mar-2021 3725.51 5265.22 61.45 3.00 369.65 3451.28
   03:34:02.973.27-Mar-2021 3725.51 5265.28 61.45 3.00 369.85 3451.28
   03:34:03.173.27-Mar-2021 3725.51 5265.31 61.45 3.00 370.05 3451.28
   03:34:03.373.27-Mar-2021 3725.51 5265.31 61.45 3.00 370.25 3451.28
   03:34:03.573.27-Mar-2021 3725.51 5265.25 61.45 3.00 370.45 3451.28
   03:34:03.773.27-Mar-2021 3725.51 5265.25 61.45 3.00 370.65 3451.28
   03:34:03.973.27-Mar-2021 3725.51 5265.28 61.45 3.00 370.85 3451.28
   03:34:04.173.27-Mar-2021 3725.51 5265.25 61.45 3.00 371.05 3451.28
   03:34:04.374.27-Mar-2021 3725.51 5265.25 61.45 3.00 371.25 3451.28
   03:34:04.574.27-Mar-2021 3725.51 5265.42 61.45 3.00 371.45 3451.28
   03:34:04.774.27-Mar-2021 3725.51 5264.94 61.45 3.00 371.65 3451.28
   03:34:04.974.27-Mar-2021 3725.51 5265.29 61.45 3.00 371.85 3451.28
   03:34:05.174.27-Mar-2021 3725.51 5265.46 61.45 3.00 372.05 3451.28
   03:34:05.374.27-Mar-2021 3725.51 5265.46 61.45 3.00 372.25 3451.28
   03:34:05.574.27-Mar-2021 3725.51 5265.21 61.45 3.00 372.45 3451.28
   03:34:05.774.27-Mar-2021 3725.51 5265.24 61.45 3.00 372.65 3451.28
   03:34:05.974.27-Mar-2021 3725.51 5265.26 61.45 3.00 372.85 3451.28
   03:34:06.174.27-Mar-2021 3725.51 5278.38 61.45 3.00 373.05 3451.28
   03:34:06.374.27-Mar-2021 3725.51 5278.38 61.45 3.00 373.25 3451.28
   03:34:06.574.27-Mar-2021 3725.51 5838.99 61.45 3.00 373.45 3451.28
   03:34:06.774.27-Mar-2021 3725.51 8015.78 61.45 3.00 373.65 3451.28
   03:34:06.974.27-Mar-2021 3725.51 8012.83 61.45 3.00 373.85 3451.28
   03:34:07.174.27-Mar-2021 3725.51 8013.68 61.45 3.00 374.05 3451.28
   03:34:07.374.27-Mar-2021 3725.51 8013.68 61.45 3.00 374.25 3451.28
   03:34:07.574.27-Mar-2021 3725.51 8013.01 61.46 3.00 374.45 3451.28
   03:34:07.774.27-Mar-2021 3725.51 8013.10 61.46 3.00 374.65 3451.28
   03:34:07.974.27-Mar-2021 3725.51 8015.52 61.46 3.00 374.85 3451.28
   03:34:08.174.27-Mar-2021 3725.51 8014.77 61.46 3.00 375.05 3451.28
   03:34:08.374.27-Mar-2021 3725.51 8014.77 61.46 3.00 375.25 3451.28
   03:34:08.574.27-Mar-2021 3725.51 8015.04 61.46 3.00 375.45 3451.28
   03:34:08.774.27-Mar-2021 3725.51 8015.40 61.46 3.00 375.65 3451.28
   03:34:08.974.27-Mar-2021 3725.51 8015.19 61.46 3.00 375.85 3451.28
   03:34:09.174.27-Mar-2021 3725.51 8018.90 61.47 3.00 376.05 3451.28
   03:34:09.374.27-Mar-2021 3725.51 8018.90 61.47 3.00 376.25 3451.28
   03:34:09.574.27-Mar-2021 3725.51 8018.54 61.47 3.00 376.45 3451.28
   03:34:09.774.27-Mar-2021 3725.51 8016.95 61.47 3.00 376.65 3451.28
   03:34:09.974.27-Mar-2021 3725.51 8017.40 61.47 3.00 376.85 3451.28
   03:34:10.174.27-Mar-2021 3725.51 8017.57 61.48 3.00 377.05 3451.28
   03:34:10.374.27-Mar-2021 3725.51 8017.57 61.48 3.00 377.25 3451.28
   03:34:10.574.27-Mar-2021 3725.51 8017.23 61.48 3.00 377.45 3451.28
   03:34:10.774.27-Mar-2021 3725.51 8020.61 61.48 3.00 377.65 3451.28
   03:34:10.974.27-Mar-2021 3725.51 8019.05 61.48 3.00 377.85 3451.28
   03:34:11.174.27-Mar-2021 3725.51 8018.76 61.49 3.00 378.05 3451.28
   03:34:11.374.27-Mar-2021 3725.51 8018.76 61.49 3.00 378.25 3451.28
   03:34:11.574.27-Mar-2021 3725.51 8018.41 61.49 3.00 378.45 3451.28
   03:34:11.774.27-Mar-2021 3725.51 8018.97 61.49 3.00 378.65 3451.28
   03:34:11.974.27-Mar-2021 3725.51 8018.52 61.49 3.00 378.85 3451.28
   03:34:12.174.27-Mar-2021 3725.51 8018.20 61.49 3.00 379.05 3451.28
   03:34:12.375.27-Mar-2021 3725.51 8018.20 61.49 3.00 379.25 3451.28
   03:34:12.575.27-Mar-2021 3725.51 8018.18 61.50 3.00 379.45 3451.28
   03:34:12.775.27-Mar-2021 3725.51 8018.42 61.50 3.00 379.65 3451.28
   03:34:12.975.27-Mar-2021 3725.51 8018.71 61.50 3.00 379.85 3451.28
   03:34:13.175.27-Mar-2021 3725.51 8019.13 61.50 3.00 380.05 3451.28
   03:34:13.375.27-Mar-2021 3725.51 8019.13 61.50 3.00 380.25 3451.28
   03:34:13.575.27-Mar-2021 3725.51 8023.67 61.50 3.00 380.45 3451.28
   03:34:13.775.27-Mar-2021 3725.51 8018.22 61.51 3.00 380.65 3451.28
   03:34:13.975.27-Mar-2021 3725.51 8020.37 61.51 3.00 380.85 3451.28
   03:34:14.175.27-Mar-2021 3725.51 8019.58 61.51 3.00 381.05 3451.28
   03:34:14.375.27-Mar-2021 3725.51 8019.58 61.51 3.00 381.25 3451.28
   03:34:14.575.27-Mar-2021 3725.51 8018.31 61.51 3.00 381.45 3451.28
   03:34:14.775.27-Mar-2021 3725.51 8018.67 61.51 3.00 381.65 3451.28
   03:34:14.975.27-Mar-2021 3725.51 8018.23 61.51 3.00 381.85 3451.28
   03:34:15.175.27-Mar-2021 3725.51 8017.76 61.51 3.00 382.05 3451.28
   03:34:15.375.27-Mar-2021 3725.51 8017.76 61.51 3.00 382.25 3451.28
   03:34:15.575.27-Mar-2021 3725.51 8018.13 61.51 3.00 382.45 3451.28
   03:34:15.775.27-Mar-2021 3725.51 8017.96 61.52 3.00 382.65 3451.28
   03:34:15.975.27-Mar-2021 3725.51 8018.87 61.52 3.00 382.85 3451.28
   03:34:16.175.27-Mar-2021 3725.51 8018.96 61.52 3.00 383.05 3451.28
   03:34:16.375.27-Mar-2021 3725.51 8018.96 61.52 3.00 383.25 3451.28
   03:34:16.575.27-Mar-2021 3725.51 8020.83 61.52 3.00 383.45 3451.28
   03:34:16.775.27-Mar-2021 3725.51 8020.58 61.52 3.00 383.65 3451.28
   03:34:16.975.27-Mar-2021 3725.51 8019.11 61.52 3.00 383.85 3451.28
   03:34:17.175.27-Mar-2021 3725.51 8019.57 61.52 3.00 384.05 3451.28
   03:34:17.375.27-Mar-2021 3725.51 8019.57 61.52 3.00 384.25 3451.28
   03:34:17.575.27-Mar-2021 3725.51 8021.58 61.52 3.00 384.45 3451.28
   03:34:17.775.27-Mar-2021 3725.51 8020.14 61.52 3.00 384.65 3451.28
   03:34:17.975.27-Mar-2021 3725.51 8019.58 61.52 3.00 384.85 3451.28
   03:34:18.175.27-Mar-2021 3725.51 8017.98 61.52 3.00 385.05 3451.28
   03:34:18.375.27-Mar-2021 3725.51 8017.98 61.52 3.00 385.25 3451.28
   03:34:18.575.27-Mar-2021 3725.51 8021.60 61.52 3.00 385.45 3451.28
   03:34:18.775.27-Mar-2021 3725.51 8018.81 61.52 3.00 385.65 3451.28
   03:34:18.975.27-Mar-2021 3725.51 8021.25 61.52 3.00 385.85 3451.28
   03:34:19.175.27-Mar-2021 3725.51 8018.96 61.52 3.00 386.05 3451.28
   03:34:19.375.27-Mar-2021 3725.51 8018.96 61.52 3.00 386.25 3451.28
   03:34:19.575.27-Mar-2021 3725.51 8019.15 61.52 3.00 386.45 3451.28
   03:34:19.775.27-Mar-2021 3725.51 8021.29 61.52 3.00 386.65 3451.28
   03:34:19.975.27-Mar-2021 3725.51 8020.40 61.52 3.00 386.85 3451.28
   03:34:20.175.27-Mar-2021 3725.51 8022.04 61.52 3.00 387.05 3451.28
   03:34:20.376.27-Mar-2021 3725.51 8022.04 61.52 3.00 387.25 3451.28
   03:34:20.576.27-Mar-2021 3725.51 8019.57 61.52 3.00 387.45 3451.28
   03:34:20.776.27-Mar-2021 3725.51 8019.08 61.52 3.00 387.65 3451.28
   03:34:20.976.27-Mar-2021 3725.51 8019.31 61.52 3.00 387.85 3451.28
   03:34:21.176.27-Mar-2021 3725.51 8019.42 61.52 3.00 388.05 3451.28
   03:34:21.376.27-Mar-2021 3725.51 8019.42 61.52 3.00 388.25 3451.28
   03:34:21.576.27-Mar-2021 3725.51 8018.52 61.52 3.00 388.45 3451.28
   03:34:21.776.27-Mar-2021 3725.51 8018.54 61.52 3.00 388.65 3451.28
   03:34:21.976.27-Mar-2021 3725.51 8018.54 61.52 3.00 388.85 3451.28
   03:34:22.176.27-Mar-2021 3725.51 8018.70 61.52 3.00 389.05 3451.28
   03:34:22.376.27-Mar-2021 3725.51 8018.70 61.52 3.00 389.25 3451.28
   03:34:22.576.27-Mar-2021 3725.51 8019.79 61.52 3.00 389.45 3451.28
   03:34:22.776.27-Mar-2021 3725.51 8019.47 61.52 3.00 389.65 3451.28
   03:34:22.976.27-Mar-2021 3725.51 8019.48 61.52 3.00 389.85 3451.28
   03:34:23.176.27-Mar-2021 3725.51 8023.67 61.52 3.00 390.05 3451.28
   03:34:23.376.27-Mar-2021 3725.51 8023.67 61.52 3.00 390.25 3451.28
   03:34:23.576.27-Mar-2021 3725.51 8020.78 61.52 3.00 390.45 3451.28
   03:34:23.776.27-Mar-2021 3725.51 8019.77 61.52 3.00 390.65 3451.28
   03:34:23.976.27-Mar-2021 3725.51 8019.45 61.52 3.00 390.85 3451.28
