~Version Information
 VERS.                  2.0:   CWLS log ASCII Standard -VERSION 2.0
 WRAP.                   NO:   One line per depth step
~Well Information Block
#MNEM.UNIT     VALUE/NAME     DESCRIPTION
#---------     -----------    ---------------------------
 STRT.S             09:03:10 27-Mar-21: START TIME 09:03:10 27-Mar-21
 STOP.S             09:10:16 27-Mar-21: STOP TIME  09:10:16 27-Mar-21
 STEP.S                   0.00: STEP TIME
 NULL.                 -999.25: NULL VALUE
 DFWT.                        :  DIST FWL TEXT
 DFST.                        :  DIST FSL TEXT
 DMF .             Drill Floor:  DRILL MEAS FROM
 STIM.      20.26.40 11-Mar-21:  START TIME
 DATE.      20.26.40 30-Mar-21:  END TIME
 SPUD.               11-Mar-21:  SPUD DATE
 NREF.                    Grid:  NORTH REFERENCE
 HPTY.       Minimum Curvature:  HOLE POS TYPE
 DMOD.             Drill Model:  DRILL MOD DESC
 SVYD.                  Survey:  SURVEY DESC
 ILTD.               Lithology:  INTERP LTH DESC
 FTOP.          Formation Tops:  FORM TOPS DESC
 SON .        AZ-XX-0906805385:  JOB NUMBER
 WTYP.                Deviated:  WELL TYPE
 COMP.     BP Exploration (Caspian Sea) Ltd.:  COMPANY
 UWI .            /AZE00000198:  UNIQUE WELL IDENTIFIER
 API .            /AZE00000198:  API NUMBER
 BASE.              Azerbaijan:  LOGGING EQUIPMENT BASE LOCATION
 REGN.                   EESSA:  REGION
 PROV.                    Baku:  PROVINCE
 STAT.                    Baku:  STATE NAME
 CTRY.              Azerbaijan:  COUNTRY NAME
 FLD .                     ACG:  FIELD NAME
 SRVC.     Turan Drilling & Engineering:  CONTRACTOR
 MWDS.                    Baku:  MWD SHOP
 WELL.                    D09z:  WELL NAME
 JOBN.        AZ-XX-0906805385:  JOB TICKET NUMB
 RIG .              East Azeri:  RIG NAME
 DOE .                     N/A:  DOE NUMBER
 DCON.         Sperry Drilling:  DIRECTNL CONTR
 UNIT.                     N/A:  LOGGING EQUIPMENT ID
 PDAT.          Mean Sea Level:  PERMANENT DATUM
 MDS .        Operator Entered:  MAG DATA SOURCE
 CNTY.                        :  COUNTY
 LOC .                        :  LOCATION
 LMF .             Drill Floor:  LOG MEASURED FROM
 TVDS.m                  43.60:  TVDSS CORRECTN
 LATI.deg                40.02:  LATITUDE
 LONG.deg                51.45:  LONGITUDE
 WHNS.m                 -17.04:  WELL HEAD N/S
 WHEW.m                  -6.28:  WELL HEAD E/W
 UTMX.m              538763.98:  UTM X
 UTMY.m             4431880.20:  UTM Y
 DFWL.m                   0.00:  DISTANCE FWL
 DFSL.m                   0.00:  DISTANCE FSL
 SDEP.m                2680.01:  START DEPTH
 TDD .m                4000.01:  TOTAL DEPTH (DRILLER)
 VSDR.deg               225.71:  VERT SEC DIRECT
 GVFD.g                   1.00:  GRAVITY FIELD
 MFLD.nT              50353.00:  MAGNETIC FIELD
 MDIP.deg                59.49:  MAGNETIC DIP
 MDEC.deg                 6.46:  MAGNETIC DECL
 GRDC.deg                 0.29:  GRID CORRECTION
 AZTC.deg                 6.17:  AZM TOTAL CORR
 EPD .m                   0.00:  ELEVATION
 EGL .m                   0.00:  GROUND ELEVATION
 WDMS.m                 151.80:  WD ELEV
 APD .m                  43.60:  DEPTH ABOVE PD
 AGAP.m                  43.60:  AIR GAP
 VSEW.m                  -6.28:  VERT SEC E/W
 VSNS.m                 -17.04:  VERT SEC N/S
 DEP .m                2656.31:  DEPTH
 EKB .m                  43.60:  KB ELEVATION
 EDF .m                  43.60:  DF ELEVATION
 VSC .                       0:  VS TO CLOSURE
 MAGU.                 1851247:  MAGUTM CHECKSUM
~Parameter Information Block
#MNEM.UNIT       Value        Description
#---------     -----------    ---------------------------
 AV  .mps                 3.00:  Ann Velocity 
 AVMX.mps                 8.00:  Max Ann Veloc 
 AZIF.deg                 0.00:  Azm, Final 
 BHAT.                   Other:  BHA Type 
 BREV.rev                 0.00:  Rev Bit Total 
 BROT.°/30m               0.00:  Build Rotating 
 BS  .in                 10.25:  Bit Size 
 BTPL.psig              511.00:  Bit Press Loss 
 CABU.                      No:  Customer Abuse 
 CGEO.           Asif Pashayev:  Customer Geo 
 TCS .hr                 24.03:  Time Ciculation Ended 
 CV  .mps                 3.50:  Crit Velocity 
 CVMX.mps                 4.00:  Max Crit Veloc 
 DD1 .             Aziz Aliyev:  Direct Drillr 1 
 DD2 .      Fakhraddin Guliyev:  Direct Drillr 2 
 DDSV.                   Other:  DD Service 
 DEFF.%                  99.00:  % Det Eff 
 DLRX.°/30m               0.00:  Dogleg Rot Max 
 DLSO.°/30m               0.00:  Dogleg Oriented 
 DLSX.°/30m               0.00:  Dogleg Str Max 
 DRET.      23.00.40 28-Mar-21:  Drill End Time 
 DRST.      23.30.40 25-Mar-21:  Drill Start Tim 
 DTIM.hr                  0.00:  Time Drilling 
 EDEP.m                3886.01:  End Depth 
 ENG1.         Almaz Almadatov:  Engineer 1 
 ENG2.      Artemiy Matviyanov:  Engineer 2 
 ENG3.           Samir Gafarov:  Engineer 3 
 ETIM.      23.00.40 28-Mar-21:  End Time 
 FLOI.gpm               550.00:  Flow In 
 FLON.gpm               500.00:  Flow In Min 
 FLOS.cptm                0.00:  Fluid Loss 
 FLOX.gpm               590.00:  Flow In Max 
 HFLO.                      No:  High Flow 
 HPRE.                      No:  High Pressure 
 HTEM.                      No:  High Temp 
 HYDO.m                   1.80:  Hydro Offset 
 IFIN.deg                 0.00:  Inc, Final 
 IMAX.deg                 0.00:  Inc Max 
 IMIN.deg                 0.00:  Inc Min 
 IMND.m                   0.00:  Inc Min Depth 
 IMXD.m                   0.00:  Inc Max Depth 
 JARR.                      No:  Jarring 
 LETM.      03.22.40 28-Mar-21:  Log End Time 
 LOST.hr                     0:  Lost Rig Time 
 LSTM.      23.30.40 25-Mar-21:  Log Start Time 
 MDCL.ppm             34000.00:  Mud Chlorides 
 MDES.     Inversion Oil/Synthetic:  Mud Desc 
 DFD .sg                  1.51:  Mud Density 
 MDMN.sg                  1.51:  Dens Mud Min 
 MDMX.sg                  1.51:  Dens Mud Max 
 MOIL.                      70:  Run Mud Oil % 
 MOWR.                   70:30:  Run Mud OWR 
 MSND.                     0.2:  Run Mud Sand % 
 MSOL.                   21.60:  Run Mud Solids% 
 DFV .spqt               74.00:  Mud Viscosity 
 MWOD.in                  6.75:  MWD Tool OD 
 MWSI.                      No:  Serv Intrp, MWD 
 OTIM.hr                 69.09:  Time Operating 
 PCON.           Look Like New:  Pad Condition 
 PMAX.psia             3500.00:  Press Op, Max 
 PV  .cP                 70.00:  Mud PV 
 RUN .                     400:  Run Number 
 ROPA.m/hr                0.00:  ROP Avg 
 ROPN.m/hr                0.00:  ROP Min 
 ROPX.m/hr                0.00:  ROP Max 
 RPMA.rpm                80.00:  RPM Surface Avg 
 RPMN.rpm                10.00:  RPM Surface Min 
 RPMX.rpm               100.00:  RPM Surface Max 
 RRUN.                    0400:  Rig Run Number 
 RTIM.hr                  3.00:  Time Reaming 
 SAZI.deg                 0.00:  Azm, Start 
 SDEP.m                3886.01:  Start Depth 
 SIDD.                      No:  Serv Intrp, DD 
 SINC.deg                 0.00:  Inc, Start 
 SPPA.psig             3270.00:  SPP Avg 
 SPPN.psig             3220.00:  SPP Min 
 SPPX.psig             4430.00:  SPP Max 
 STIM.      23.30.40 25-Mar-21:  Start Time 
 SVCS.                 DD, MWD:  Services 
 SVER.                    9.20:  Sperry Version 
 TDAT.m                   0.00:  Tot Depth Attmp 
 TDDF.                      No:  Trip for DD 
 TFF .                      No:  Trip for Fail 
 TQAA.f-kp                8.00:  Torque Abs Avg 
 TQAN.f-kp                7.00:  Torque Abs Min 
 TQAX.f-kp               11.00:  Torque Abs Max 
 TRRT.°/30m               0.00:  Turn Rotating 
 MRT .                  EWR-M5:  Maximum Recorded Temperature 
 TTMX.degC               76.47:  Max Tool Temp 
 VS01.                90640857:  Virtual Str1 SN 
 VS02.                90639246:  Virtual Str2 SN 
 VS03.                90642265:  Virtual Str3 SN 
 VS04.                11654497:  Virtual Str4 SN 
 WBMN.klb                 0.00:  WOB Min 
 WITN.      Kamran Keberlinkiy:  Customer Rep 
 WITN.           Murad Guliyev:  Customer Rep 2 
 WOBA.klb                 0.00:  WOB Avg 
 WOBX.klb                 0.00:  WOB Max 
 YP  .lhf2               36.00:  Yield Point 
~Curve Information Block
#MNEM.UNIT                 API CODE     Curve Description
#---------               -----------    ---------------------------
 TIME.HHMMSS            00 000 000 000:  GT Time & Date
 GTDEPTH.m              00 000 000 000:  GT Depth
 GTPQH.psia             00 000 000 000:  GT HR Quartz Pressure
 GTTQ.degC              00 000 000 000:  GT Quartz Temperature
 GTTN.NONE              00 000 000 000:  GT Test Number
 GTET.sec               00 000 000 000:  GT Elapsed Test Time
 GTTVD.m                00 000 000 000:  GT True Vertical Depth
#Other Information
#
#WARRANTY: Halliburton will use its best efforts to furnish customers with 
#accurate information and interpretations that are part of, and incident to, the services 
#provided.  However, Halliburton cannot and does not warrant the accuracy 
#or correctness of such information and interpretations.  Under no circumstances should any 
#such information or interpretation be relied upon as the sole basis for any drilling, 
#completion, production, or financial decision or any procedure involving any risk to the 
#safety of any drilling venture, drilling rig or its crew or any other third party.  The 
#Customer has full responsibility for all drilling, completion and production operation.  
#Halliburton makes no representations or warranties, either expressed or 
#implied, including, but not limited to, the implied warranties of merchantability or fitness 
#for a particular purpose, with respect to the services rendered.  In no event will 
#Halliburton be liable for failure to obtain any particular results or for 
#any damages, including, but not limited to, indirect, special or consequential damages, 
#resulting from the use of any information or interpretation provided by Halliburton.
#
~A           TIME           GTDEPTH  GTPQH  GTTQ  GTTN  GTET   GTTVD  
# ...
   09:03:56.000.27-Mar-2021 3361.51 7274.07 61.19 8.00  46.00 3109.50
   09:03:56.200.27-Mar-2021 3361.51 7274.07 61.19 8.00  46.20 3109.50
   09:03:56.400.27-Mar-2021 3361.51 7266.23 61.19 8.00  46.40 3109.50
   09:03:56.600.27-Mar-2021 3361.51 7264.62 61.19 8.00  46.60 3109.50
   09:03:56.800.27-Mar-2021 3361.51 7262.42 61.19 8.00  46.80 3109.50
   09:03:57.000.27-Mar-2021 3361.51 7260.53 61.19 8.00  47.00 3109.50
   09:03:57.200.27-Mar-2021 3361.51 7260.53 61.19 8.00  47.20 3109.50
   09:03:57.400.27-Mar-2021 3361.51 7256.58 61.19 8.00  47.40 3109.50
   09:03:57.600.27-Mar-2021 3361.51 7255.26 61.19 8.00  47.60 3109.50
   09:03:57.800.27-Mar-2021 3361.51 7252.65 61.19 8.00  47.80 3109.50
   09:03:58.000.27-Mar-2021 3361.51 7251.22 61.19 8.00  48.00 3109.50
   09:03:58.200.27-Mar-2021 3361.51 7251.22 61.19 8.00  48.20 3109.50
   09:03:58.400.27-Mar-2021 3361.51 7248.26 61.19 8.00  48.40 3109.50
   09:03:58.600.27-Mar-2021 3361.51 7247.38 61.19 8.00  48.60 3109.50
   09:03:58.800.27-Mar-2021 3361.51 7248.43 61.19 8.00  48.80 3109.50
   09:03:59.000.27-Mar-2021 3361.51 7243.68 61.18 8.00  49.00 3109.50
   09:03:59.200.27-Mar-2021 3361.51 7243.68 61.18 8.00  49.20 3109.50
   09:03:59.400.27-Mar-2021 3361.51 7244.29 61.18 8.00  49.40 3109.50
   09:03:59.600.27-Mar-2021 3361.51 7242.09 61.18 8.00  49.60 3109.50
   09:03:59.800.27-Mar-2021 3361.51 7174.26 61.18 8.00  49.80 3109.50
   09:04:00.000.27-Mar-2021 3361.51 6899.06 61.18 8.00  50.00 3109.50
   09:04:00.200.27-Mar-2021 3361.51 6899.06 61.18 8.00  50.20 3109.50
   09:04:00.400.27-Mar-2021 3361.51 5531.92 61.18 8.00  50.40 3109.50
   09:04:00.600.27-Mar-2021 3361.51 4792.46 61.18 8.00  50.60 3109.50
   09:04:00.800.27-Mar-2021 3361.51 4711.38 61.18 8.00  50.80 3109.50
   09:04:01.000.27-Mar-2021 3361.51 4727.62 61.18 8.00  51.00 3109.50
   09:04:01.200.27-Mar-2021 3361.51 4727.62 61.18 8.00  51.20 3109.50
   09:04:01.400.27-Mar-2021 3361.51 4706.75 61.18 8.00  51.40 3109.50
   09:04:01.600.27-Mar-2021 3361.51 4700.27 61.18 8.00  51.60 3109.50
   09:04:01.800.27-Mar-2021 3361.51 4703.50 61.18 8.00  51.80 3109.50
   09:04:02.000.27-Mar-2021 3361.51 4720.14 61.18 8.00  52.00 3109.50
   09:04:02.200.27-Mar-2021 3361.51 4720.14 61.18 8.00  52.20 3109.50
   09:04:02.400.27-Mar-2021 3361.51 4720.78 61.17 8.00  52.40 3109.50
   09:04:02.600.27-Mar-2021 3361.51 4723.42 61.17 8.00  52.60 3109.50
   09:04:02.800.27-Mar-2021 3361.51 4723.87 61.17 8.00  52.80 3109.50
   09:04:03.000.27-Mar-2021 3361.51 4721.61 61.17 8.00  53.00 3109.50
   09:04:03.200.27-Mar-2021 3361.51 4721.61 61.17 8.00  53.20 3109.50
   09:04:03.400.27-Mar-2021 3361.51 4719.60 61.17 8.00  53.40 3109.50
   09:04:03.600.27-Mar-2021 3361.51 4719.68 61.16 8.00  53.60 3109.50
   09:04:03.800.27-Mar-2021 3361.51 4719.32 61.16 8.00  53.80 3109.50
   09:04:04.000.27-Mar-2021 3361.51 4719.24 61.16 8.00  54.00 3109.50
   09:04:04.200.27-Mar-2021 3361.51 4719.24 61.16 8.00  54.20 3109.50
   09:04:04.400.27-Mar-2021 3361.51 4717.78 61.15 8.00  54.40 3109.50
   09:04:04.600.27-Mar-2021 3361.51 4717.72 61.15 8.00  54.60 3109.50
   09:04:04.800.27-Mar-2021 3361.51 4722.76 61.15 8.00  54.80 3109.50
   09:04:05.000.27-Mar-2021 3361.51 4721.76 61.15 8.00  55.00 3109.50
   09:04:05.200.27-Mar-2021 3361.51 4721.76 61.15 8.00  55.20 3109.50
   09:04:05.400.27-Mar-2021 3361.51 4718.23 61.14 8.00  55.40 3109.50
   09:04:05.600.27-Mar-2021 3361.51 4719.87 61.14 8.00  55.60 3109.50
   09:04:05.800.27-Mar-2021 3361.51 4718.87 61.14 8.00  55.80 3109.50
   09:04:06.000.27-Mar-2021 3361.51 4718.20 61.14 8.00  56.00 3109.50
   09:04:06.200.27-Mar-2021 3361.51 4718.20 61.14 8.00  56.20 3109.50
   09:04:06.400.27-Mar-2021 3361.51 4718.88 61.14 8.00  56.40 3109.50
   09:04:06.600.27-Mar-2021 3361.51 4719.58 61.13 8.00  56.60 3109.50
   09:04:06.800.27-Mar-2021 3361.51 4719.40 61.13 8.00  56.80 3109.50
   09:04:07.000.27-Mar-2021 3361.51 4719.69 61.13 8.00  57.00 3109.50
   09:04:07.200.27-Mar-2021 3361.51 4719.69 61.13 8.00  57.20 3109.50
   09:04:07.400.27-Mar-2021 3361.51 4719.66 61.13 8.00  57.40 3109.50
   09:04:07.600.27-Mar-2021 3361.51 4719.62 61.13 8.00  57.60 3109.50
   09:04:07.800.27-Mar-2021 3361.51 4719.91 61.13 8.00  57.80 3109.50
   09:04:08.000.27-Mar-2021 3361.51 4719.07 61.13 8.00  58.00 3109.50
   09:04:08.200.27-Mar-2021 3361.51 4719.07 61.13 8.00  58.20 3109.50
   09:04:08.400.27-Mar-2021 3361.51 4718.63 61.12 8.00  58.40 3109.50
   09:04:08.600.27-Mar-2021 3361.51 4718.53 61.12 8.00  58.60 3109.50
   09:04:08.800.27-Mar-2021 3361.51 4720.30 61.12 8.00  58.80 3109.50
   09:04:09.000.27-Mar-2021 3361.51 4719.85 61.12 8.00  59.00 3109.50
   09:04:09.200.27-Mar-2021 3361.51 4719.85 61.12 8.00  59.20 3109.50
   09:04:09.400.27-Mar-2021 3361.51 4718.84 61.12 8.00  59.40 3109.50
   09:04:09.600.27-Mar-2021 3361.51 4737.23 61.12 8.00  59.60 3109.50
   09:04:09.800.27-Mar-2021 3361.51 4824.97 61.12 8.00  59.80 3109.50
   09:04:10.000.27-Mar-2021 3361.51 4829.10 61.12 8.00  60.00 3109.50
   09:04:10.200.27-Mar-2021 3361.51 4829.10 61.12 8.00  60.20 3109.50
   09:04:10.400.27-Mar-2021 3361.51 4829.75 61.11 8.00  60.40 3109.50
   09:04:10.600.27-Mar-2021 3361.51 4828.73 61.11 8.00  60.60 3109.50
   09:04:10.800.27-Mar-2021 3361.51 4829.12 61.11 8.00  60.80 3109.50
   09:04:11.000.27-Mar-2021 3361.51 4829.57 61.11 8.00  61.00 3109.50
   09:04:11.200.27-Mar-2021 3361.51 4829.57 61.11 8.00  61.20 3109.50
   09:04:11.400.27-Mar-2021 3361.51 4829.54 61.11 8.00  61.40 3109.50
   09:04:11.600.27-Mar-2021 3361.51 4828.84 61.11 8.00  61.60 3109.50
   09:04:11.800.27-Mar-2021 3361.51 4829.76 61.11 8.00  61.80 3109.50
   09:04:12.000.27-Mar-2021 3361.51 4829.70 61.11 8.00  62.00 3109.50
   09:04:12.200.27-Mar-2021 3361.51 4829.70 61.11 8.00  62.20 3109.50
   09:04:12.400.27-Mar-2021 3361.51 4829.34 61.11 8.00  62.40 3109.50
   09:04:12.600.27-Mar-2021 3361.51 4829.55 61.11 8.00  62.60 3109.50
   09:04:12.800.27-Mar-2021 3361.51 4829.53 61.11 8.00  62.80 3109.50
   09:04:13.000.27-Mar-2021 3361.51 4829.54 61.11 8.00  63.00 3109.50
   09:04:13.200.27-Mar-2021 3361.51 4829.54 61.11 8.00  63.20 3109.50
   09:04:13.400.27-Mar-2021 3361.51 4829.56 61.11 8.00  63.40 3109.50
   09:04:13.600.27-Mar-2021 3361.51 4829.60 61.11 8.00  63.60 3109.50
   09:04:13.800.27-Mar-2021 3361.51 4829.60 61.11 8.00  63.80 3109.50
   09:04:14.000.27-Mar-2021 3361.51 4829.57 61.11 8.00  64.00 3109.50
   09:04:14.200.27-Mar-2021 3361.51 4829.57 61.11 8.00  64.20 3109.50
   09:04:14.400.27-Mar-2021 3361.51 4829.65 61.11 8.00  64.40 3109.50
   09:04:14.600.27-Mar-2021 3361.51 4829.61 61.11 8.00  64.60 3109.50
   09:04:14.800.27-Mar-2021 3361.51 4829.44 61.11 8.00  64.80 3109.50
   09:04:15.000.27-Mar-2021 3361.51 4830.16 61.11 8.00  65.00 3109.50
   09:04:15.200.27-Mar-2021 3361.51 4830.16 61.11 8.00  65.20 3109.50
   09:04:15.400.27-Mar-2021 3361.51 4829.39 61.11 8.00  65.40 3109.50
   09:04:15.600.27-Mar-2021 3361.51 4829.62 61.11 8.00  65.60 3109.50
   09:04:15.800.27-Mar-2021 3361.51 4829.71 61.11 8.00  65.80 3109.50
   09:04:16.000.27-Mar-2021 3361.51 4829.57 61.11 8.00  66.00 3109.50
   09:04:16.200.27-Mar-2021 3361.51 4829.57 61.11 8.00  66.20 3109.50
   09:04:16.400.27-Mar-2021 3361.51 4829.65 61.11 8.00  66.40 3109.50
   09:04:16.600.27-Mar-2021 3361.51 4829.65 61.11 8.00  66.60 3109.50
   09:04:16.800.27-Mar-2021 3361.51 4829.61 61.11 8.00  66.80 3109.50
   09:04:17.000.27-Mar-2021 3361.51 4829.63 61.11 8.00  67.00 3109.50
   09:04:17.200.27-Mar-2021 3361.51 4829.63 61.11 8.00  67.20 3109.50
   09:04:17.400.27-Mar-2021 3361.51 4829.42 61.11 8.00  67.40 3109.50
   09:04:17.600.27-Mar-2021 3361.51 4830.28 61.11 8.00  67.60 3109.50
   09:04:17.800.27-Mar-2021 3361.51 4829.40 61.11 8.00  67.80 3109.50
   09:04:18.000.27-Mar-2021 3361.51 4829.31 61.11 8.00  68.00 3109.50
   09:04:18.200.27-Mar-2021 3361.51 4829.31 61.11 8.00  68.20 3109.50
   09:04:18.400.27-Mar-2021 3361.51 4829.90 61.11 8.00  68.40 3109.50
   09:04:18.600.27-Mar-2021 3361.51 4829.02 61.11 8.00  68.60 3109.50
   09:04:18.800.27-Mar-2021 3361.51 4829.98 61.11 8.00  68.80 3109.50
