~Version Information
 VERS.                  2.0:   CWLS log ASCII Standard -VERSION 2.0
 WRAP.                   NO:   One line per depth step
~Well Information Block
#MNEM.UNIT     VALUE/NAME     DESCRIPTION
#---------     -----------    ---------------------------
 STRT.S             12:17:14 27-Mar-21: START TIME 12:17:14 27-Mar-21
 STOP.S             12:24:16 27-Mar-21: STOP TIME  12:24:16 27-Mar-21
 STEP.S                   0.00: STEP TIME
 NULL.                 -999.25: NULL VALUE
 DFWT.                        :  DIST FWL TEXT
 DFST.                        :  DIST FSL TEXT
 DMF .             Drill Floor:  DRILL MEAS FROM
 STIM.      20.26.40 11-Mar-21:  START TIME
 DATE.      20.26.40 30-Mar-21:  END TIME
 SPUD.               11-Mar-21:  SPUD DATE
 NREF.                    Grid:  NORTH REFERENCE
 HPTY.       Minimum Curvature:  HOLE POS TYPE
 DMOD.             Drill Model:  DRILL MOD DESC
 SVYD.                  Survey:  SURVEY DESC
 ILTD.               Lithology:  INTERP LTH DESC
 FTOP.          Formation Tops:  FORM TOPS DESC
 SON .        AZ-XX-0906805385:  JOB NUMBER
 WTYP.                Deviated:  WELL TYPE
 COMP.     BP Exploration (Caspian Sea) Ltd.:  COMPANY
 UWI .            /AZE00000198:  UNIQUE WELL IDENTIFIER
 API .            /AZE00000198:  API NUMBER
 BASE.              Azerbaijan:  LOGGING EQUIPMENT BASE LOCATION
 REGN.                   EESSA:  REGION
 PROV.                    Baku:  PROVINCE
 STAT.                    Baku:  STATE NAME
 CTRY.              Azerbaijan:  COUNTRY NAME
 FLD .                     ACG:  FIELD NAME
 SRVC.     Turan Drilling & Engineering:  CONTRACTOR
 MWDS.                    Baku:  MWD SHOP
 WELL.                    D09z:  WELL NAME
 JOBN.        AZ-XX-0906805385:  JOB TICKET NUMB
 RIG .              East Azeri:  RIG NAME
 DOE .                     N/A:  DOE NUMBER
 DCON.         Sperry Drilling:  DIRECTNL CONTR
 UNIT.                     N/A:  LOGGING EQUIPMENT ID
 PDAT.          Mean Sea Level:  PERMANENT DATUM
 MDS .        Operator Entered:  MAG DATA SOURCE
 CNTY.                        :  COUNTY
 LOC .                        :  LOCATION
 LMF .             Drill Floor:  LOG MEASURED FROM
 TVDS.m                  43.60:  TVDSS CORRECTN
 LATI.deg                40.02:  LATITUDE
 LONG.deg                51.45:  LONGITUDE
 WHNS.m                 -17.04:  WELL HEAD N/S
 WHEW.m                  -6.28:  WELL HEAD E/W
 UTMX.m              538763.98:  UTM X
 UTMY.m             4431880.20:  UTM Y
 DFWL.m                   0.00:  DISTANCE FWL
 DFSL.m                   0.00:  DISTANCE FSL
 SDEP.m                2680.01:  START DEPTH
 TDD .m                4000.01:  TOTAL DEPTH (DRILLER)
 VSDR.deg               225.71:  VERT SEC DIRECT
 GVFD.g                   1.00:  GRAVITY FIELD
 MFLD.nT              50353.00:  MAGNETIC FIELD
 MDIP.deg                59.49:  MAGNETIC DIP
 MDEC.deg                 6.46:  MAGNETIC DECL
 GRDC.deg                 0.29:  GRID CORRECTION
 AZTC.deg                 6.17:  AZM TOTAL CORR
 EPD .m                   0.00:  ELEVATION
 EGL .m                   0.00:  GROUND ELEVATION
 WDMS.m                 151.80:  WD ELEV
 APD .m                  43.60:  DEPTH ABOVE PD
 AGAP.m                  43.60:  AIR GAP
 VSEW.m                  -6.28:  VERT SEC E/W
 VSNS.m                 -17.04:  VERT SEC N/S
 DEP .m                2656.31:  DEPTH
 EKB .m                  43.60:  KB ELEVATION
 EDF .m                  43.60:  DF ELEVATION
 VSC .                       0:  VS TO CLOSURE
 MAGU.                 1851247:  MAGUTM CHECKSUM
~Parameter Information Block
#MNEM.UNIT       Value        Description
#---------     -----------    ---------------------------
 AV  .mps                 3.00:  Ann Velocity 
 AVMX.mps                 8.00:  Max Ann Veloc 
 AZIF.deg                 0.00:  Azm, Final 
 BHAT.                   Other:  BHA Type 
 BREV.rev                 0.00:  Rev Bit Total 
 BROT.°/30m               0.00:  Build Rotating 
 BS  .in                 10.25:  Bit Size 
 BTPL.psig              511.00:  Bit Press Loss 
 CABU.                      No:  Customer Abuse 
 CGEO.           Asif Pashayev:  Customer Geo 
 COMM.                     4'd:  Run Comments 1 
 TCS .hr                 24.03:  Time Ciculation Ended 
 CV  .mps                 3.50:  Crit Velocity 
 CVMX.mps                 4.00:  Max Crit Veloc 
 DD1 .             Aziz Aliyev:  Direct Drillr 1 
 DD2 .      Fakhraddin Guliyev:  Direct Drillr 2 
 DDSV.                   Other:  DD Service 
 DEFF.%                  99.00:  % Det Eff 
 DLRX.°/30m               0.00:  Dogleg Rot Max 
 DLSO.°/30m               0.00:  Dogleg Oriented 
 DLSX.°/30m               0.00:  Dogleg Str Max 
 DRET.      23.00.40 28-Mar-21:  Drill End Time 
 DRST.      23.30.40 25-Mar-21:  Drill Start Tim 
 DTIM.hr                  0.00:  Time Drilling 
 EDEP.m                3886.01:  End Depth 
 ENG1.         Almaz Almadatov:  Engineer 1 
 ENG2.      Artemiy Matviyanov:  Engineer 2 
 ENG3.           Samir Gafarov:  Engineer 3 
 ETIM.      23.00.40 28-Mar-21:  End Time 
 FLOI.gpm               550.00:  Flow In 
 FLON.gpm               500.00:  Flow In Min 
 FLOS.cptm                0.00:  Fluid Loss 
 FLOX.gpm               590.00:  Flow In Max 
 HFLO.                      No:  High Flow 
 HPRE.                      No:  High Pressure 
 HTEM.                      No:  High Temp 
 HYDO.m                   1.80:  Hydro Offset 
 IFIN.deg                 0.00:  Inc, Final 
 IMAX.deg                 0.00:  Inc Max 
 IMIN.deg                 0.00:  Inc Min 
 IMND.m                   0.00:  Inc Min Depth 
 IMXD.m                   0.00:  Inc Max Depth 
 JARR.                      No:  Jarring 
 LETM.      03.22.40 28-Mar-21:  Log End Time 
 LOST.hr                     0:  Lost Rig Time 
 LSTM.      23.30.40 25-Mar-21:  Log Start Time 
 MDCL.ppm             34000.00:  Mud Chlorides 
 MDES.     Inversion Oil/Synthetic:  Mud Desc 
 DFD .sg                  1.51:  Mud Density 
 MDMN.sg                  1.51:  Dens Mud Min 
 MDMX.sg                  1.51:  Dens Mud Max 
 MOIL.                      70:  Run Mud Oil % 
 MOWR.                   70:30:  Run Mud OWR 
 MSND.                     0.2:  Run Mud Sand % 
 MSOL.                   21.60:  Run Mud Solids% 
 DFV .spqt               74.00:  Mud Viscosity 
 MWOD.in                  6.75:  MWD Tool OD 
 MWSI.                      No:  Serv Intrp, MWD 
 OTIM.hr                 69.09:  Time Operating 
 PCON.           Look Like New:  Pad Condition 
 PMAX.psia             3500.00:  Press Op, Max 
 PV  .cP                 70.00:  Mud PV 
 RUN .                     400:  Run Number 
 ROPA.m/hr                0.00:  ROP Avg 
 ROPN.m/hr                0.00:  ROP Min 
 ROPX.m/hr                0.00:  ROP Max 
 RPMA.rpm                80.00:  RPM Surface Avg 
 RPMN.rpm                10.00:  RPM Surface Min 
 RPMX.rpm               100.00:  RPM Surface Max 
 RRUN.                    0400:  Rig Run Number 
 RTIM.hr                  3.00:  Time Reaming 
 SAZI.deg                 0.00:  Azm, Start 
 SDEP.m                3886.01:  Start Depth 
 SIDD.                      No:  Serv Intrp, DD 
 SINC.deg                 0.00:  Inc, Start 
 SPPA.psig             3270.00:  SPP Avg 
 SPPN.psig             3220.00:  SPP Min 
 SPPX.psig             4430.00:  SPP Max 
 STIM.      23.30.40 25-Mar-21:  Start Time 
 SVCS.                 DD, MWD:  Services 
 SVER.                    9.20:  Sperry Version 
 TDAT.m                   0.00:  Tot Depth Attmp 
 TDDF.                      No:  Trip for DD 
 TFF .                      No:  Trip for Fail 
 TQAA.f-kp                8.00:  Torque Abs Avg 
 TQAN.f-kp                7.00:  Torque Abs Min 
 TQAX.f-kp               11.00:  Torque Abs Max 
 TRRT.°/30m               0.00:  Turn Rotating 
 MRT .                  EWR-M5:  Maximum Recorded Temperature 
 TTMX.degC               76.47:  Max Tool Temp 
 VS01.                90640857:  Virtual Str1 SN 
 VS02.                90639246:  Virtual Str2 SN 
 VS03.                90642265:  Virtual Str3 SN 
 VS04.                11654497:  Virtual Str4 SN 
 WBMN.klb                 0.00:  WOB Min 
 WITN.      Kamran Keberlinkiy:  Customer Rep 
 WITN.           Murad Guliyev:  Customer Rep 2 
 WOBA.klb                 0.00:  WOB Avg 
 WOBX.klb                 0.00:  WOB Max 
 YP  .lhf2               36.00:  Yield Point 
~Curve Information Block
#MNEM.UNIT                 API CODE     Curve Description
#---------               -----------    ---------------------------
 TIME.HHMMSS            00 000 000 000:  GT Time & Date
 GTDEPTH.m              00 000 000 000:  GT Depth
 GTPQH.psia             00 000 000 000:  GT HR Quartz Pressure
 GTTQ.degC              00 000 000 000:  GT Quartz Temperature
 GTTN.NONE              00 000 000 000:  GT Test Number
 GTET.sec               00 000 000 000:  GT Elapsed Test Time
 GTTVD.m                00 000 000 000:  GT True Vertical Depth
#Other Information
#
#WARRANTY: Halliburton will use its best efforts to furnish customers with 
#accurate information and interpretations that are part of, and incident to, the services 
#provided.  However, Halliburton cannot and does not warrant the accuracy 
#or correctness of such information and interpretations.  Under no circumstances should any 
#such information or interpretation be relied upon as the sole basis for any drilling, 
#completion, production, or financial decision or any procedure involving any risk to the 
#safety of any drilling venture, drilling rig or its crew or any other third party.  The 
#Customer has full responsibility for all drilling, completion and production operation.  
#Halliburton makes no representations or warranties, either expressed or 
#implied, including, but not limited to, the implied warranties of merchantability or fitness 
#for a particular purpose, with respect to the services rendered.  In no event will 
#Halliburton be liable for failure to obtain any particular results or for 
#any damages, including, but not limited to, indirect, special or consequential damages, 
#resulting from the use of any information or interpretation provided by Halliburton.
#
~A           TIME           GTDEPTH  GTPQH  GTTQ  GTTN   GTET   GTTVD  
# ...
   12:19:07.802.27-Mar-2021 3369.01 4844.95 61.91 12.00 113.08 3116.52
   12:19:08.003.27-Mar-2021 3369.01 4844.95 61.91 12.00 113.28 3116.52
   12:19:08.203.27-Mar-2021 3369.01 4845.06 61.91 12.00 113.48 3116.52
   12:19:08.403.27-Mar-2021 3369.01 4845.42 61.91 12.00 113.68 3116.52
   12:19:08.603.27-Mar-2021 3369.01 4845.18 61.91 12.00 113.88 3116.52
   12:19:08.803.27-Mar-2021 3369.01 4845.97 61.91 12.00 114.08 3116.52
   12:19:09.003.27-Mar-2021 3369.01 4845.97 61.91 12.00 114.28 3116.52
   12:19:09.203.27-Mar-2021 3369.01 4846.17 61.91 12.00 114.48 3116.52
   12:19:09.404.27-Mar-2021 3369.01 4845.93 61.91 12.00 114.68 3116.52
   12:19:09.604.27-Mar-2021 3369.01 4845.74 61.91 12.00 114.88 3116.52
   12:19:09.804.27-Mar-2021 3369.01 4845.48 61.91 12.00 115.08 3116.52
   12:19:10.004.27-Mar-2021 3369.01 4845.48 61.91 12.00 115.28 3116.52
   12:19:10.204.27-Mar-2021 3369.01 4845.24 61.91 12.00 115.48 3116.52
   12:19:10.404.27-Mar-2021 3369.01 4845.36 61.91 12.00 115.68 3116.52
   12:19:10.604.27-Mar-2021 3369.01 4845.27 61.91 12.00 115.88 3116.52
   12:19:10.805.27-Mar-2021 3369.01 4845.59 61.91 12.00 116.08 3116.52
   12:19:11.005.27-Mar-2021 3369.01 4845.59 61.91 12.00 116.28 3116.52
   12:19:11.205.27-Mar-2021 3369.01 4845.63 61.91 12.00 116.48 3116.52
   12:19:11.405.27-Mar-2021 3369.01 4845.68 61.91 12.00 116.68 3116.52
   12:19:11.605.27-Mar-2021 3369.01 4845.57 61.91 12.00 116.88 3116.52
   12:19:11.805.27-Mar-2021 3369.01 4845.40 61.91 12.00 117.08 3116.52
   12:19:12.005.27-Mar-2021 3369.01 4845.40 61.91 12.00 117.28 3116.52
   12:19:12.206.27-Mar-2021 3369.01 4845.61 61.91 12.00 117.48 3116.52
   12:19:12.406.27-Mar-2021 3369.01 4845.47 61.91 12.00 117.68 3116.52
   12:19:12.606.27-Mar-2021 3369.01 4845.23 61.91 12.00 117.88 3116.52
   12:19:12.806.27-Mar-2021 3369.01 4845.39 61.91 12.00 118.08 3116.52
   12:19:13.006.27-Mar-2021 3369.01 4845.39 61.91 12.00 118.28 3116.52
   12:19:13.206.27-Mar-2021 3369.01 4845.50 61.91 12.00 118.48 3116.52
   12:19:13.406.27-Mar-2021 3369.01 4845.69 61.91 12.00 118.68 3116.52
   12:19:13.607.27-Mar-2021 3369.01 4845.69 61.91 12.00 118.88 3116.52
   12:19:13.807.27-Mar-2021 3369.01 4845.64 61.91 12.00 119.08 3116.52
   12:19:14.007.27-Mar-2021 3369.01 4845.64 61.91 12.00 119.28 3116.52
   12:19:14.207.27-Mar-2021 3369.01 4846.00 61.91 12.00 119.48 3116.52
   12:19:14.407.27-Mar-2021 3369.01 4845.77 61.91 12.00 119.68 3116.52
   12:19:14.607.27-Mar-2021 3369.01 4845.16 61.91 12.00 119.88 3116.52
   12:19:14.807.27-Mar-2021 3369.01 4845.51 61.91 12.00 120.08 3116.52
   12:19:15.008.27-Mar-2021 3369.01 4845.51 61.91 12.00 120.29 3116.52
   12:19:15.208.27-Mar-2021 3369.01 4846.00 61.91 12.00 120.49 3116.52
   12:19:15.408.27-Mar-2021 3369.01 4845.83 61.91 12.00 120.69 3116.52
   12:19:15.608.27-Mar-2021 3369.01 4845.66 61.91 12.00 120.89 3116.52
   12:19:15.808.27-Mar-2021 3369.01 4845.45 61.90 12.00 121.09 3116.52
   12:19:16.008.27-Mar-2021 3369.01 4845.45 61.90 12.00 121.29 3116.52
   12:19:16.208.27-Mar-2021 3369.01 4846.05 61.90 12.00 121.49 3116.52
   12:19:16.409.27-Mar-2021 3369.01 4845.83 61.90 12.00 121.69 3116.52
   12:19:16.609.27-Mar-2021 3369.01 4845.91 61.90 12.00 121.89 3116.52
   12:19:16.809.27-Mar-2021 3369.01 4846.02 61.90 12.00 122.09 3116.52
   12:19:17.009.27-Mar-2021 3369.01 4846.02 61.90 12.00 122.29 3116.52
   12:19:17.209.27-Mar-2021 3369.01 4845.81 61.90 12.00 122.49 3116.52
   12:19:17.409.27-Mar-2021 3369.01 4845.27 61.90 12.00 122.69 3116.52
   12:19:17.609.27-Mar-2021 3369.01 4846.00 61.90 12.00 122.89 3116.52
   12:19:17.810.27-Mar-2021 3369.01 4846.66 61.90 12.00 123.09 3116.52
   12:19:18.010.27-Mar-2021 3369.01 4846.66 61.90 12.00 123.29 3116.52
   12:19:18.210.27-Mar-2021 3369.01 4845.96 61.90 12.00 123.49 3116.52
   12:19:18.410.27-Mar-2021 3369.01 4846.02 61.90 12.00 123.69 3116.52
   12:19:18.610.27-Mar-2021 3369.01 4846.24 61.90 12.00 123.89 3116.52
   12:19:18.810.27-Mar-2021 3369.01 4845.80 61.90 12.00 124.09 3116.52
   12:19:19.010.27-Mar-2021 3369.01 4845.80 61.90 12.00 124.29 3116.52
   12:19:19.211.27-Mar-2021 3369.01 4846.77 61.90 12.00 124.49 3116.52
   12:19:19.411.27-Mar-2021 3369.01 4847.15 61.90 12.00 124.69 3116.52
   12:19:19.611.27-Mar-2021 3369.01 4846.80 61.90 12.00 124.89 3116.52
   12:19:19.811.27-Mar-2021 3369.01 4846.18 61.90 12.00 125.09 3116.52
   12:19:20.011.27-Mar-2021 3369.01 4846.18 61.90 12.00 125.29 3116.52
   12:19:20.211.27-Mar-2021 3369.01 4846.23 61.90 12.00 125.49 3116.52
   12:19:20.411.27-Mar-2021 3369.01 4846.18 61.90 12.00 125.69 3116.52
   12:19:20.612.27-Mar-2021 3369.01 4846.17 61.90 12.00 125.89 3116.52
   12:19:20.812.27-Mar-2021 3369.01 4846.23 61.90 12.00 126.09 3116.52
   12:19:21.012.27-Mar-2021 3369.01 4846.23 61.90 12.00 126.29 3116.52
   12:19:21.212.27-Mar-2021 3369.01 4846.12 61.90 12.00 126.49 3116.52
   12:19:21.412.27-Mar-2021 3369.01 4846.27 61.90 12.00 126.69 3116.52
   12:19:21.612.27-Mar-2021 3369.01 4846.16 61.90 12.00 126.89 3116.52
   12:19:21.812.27-Mar-2021 3369.01 4846.15 61.90 12.00 127.09 3116.52
   12:19:22.013.27-Mar-2021 3369.01 4846.15 61.90 12.00 127.29 3116.52
   12:19:22.213.27-Mar-2021 3369.01 4845.61 61.90 12.00 127.49 3116.52
   12:19:22.413.27-Mar-2021 3369.01 4846.52 61.90 12.00 127.69 3116.52
   12:19:22.613.27-Mar-2021 3369.01 4846.55 61.90 12.00 127.89 3116.52
   12:19:22.813.27-Mar-2021 3369.01 4845.95 61.90 12.00 128.09 3116.52
   12:19:23.013.27-Mar-2021 3369.01 4845.95 61.90 12.00 128.29 3116.52
   12:19:23.213.27-Mar-2021 3369.01 4846.26 61.90 12.00 128.49 3116.52
   12:19:23.414.27-Mar-2021 3369.01 4846.11 61.90 12.00 128.69 3116.52
   12:19:23.614.27-Mar-2021 3369.01 4845.96 61.90 12.00 128.89 3116.52
   12:19:23.814.27-Mar-2021 3369.01 4845.84 61.90 12.00 129.09 3116.52
   12:19:24.014.27-Mar-2021 3369.01 4845.84 61.90 12.00 129.29 3116.52
   12:19:24.214.27-Mar-2021 3369.01 4845.87 61.90 12.00 129.49 3116.52
   12:19:24.414.27-Mar-2021 3369.01 4846.02 61.90 12.00 129.69 3116.52
   12:19:24.614.27-Mar-2021 3369.01 4846.06 61.90 12.00 129.89 3116.52
   12:19:24.814.27-Mar-2021 3369.01 4845.75 61.90 12.00 130.09 3116.52
   12:19:25.015.27-Mar-2021 3369.01 4845.75 61.90 12.00 130.29 3116.52
   12:19:25.215.27-Mar-2021 3369.01 4846.60 61.90 12.00 130.49 3116.52
   12:19:25.415.27-Mar-2021 3369.01 4846.34 61.90 12.00 130.69 3116.52
   12:19:25.615.27-Mar-2021 3369.01 4846.08 61.90 12.00 130.89 3116.52
   12:19:25.815.27-Mar-2021 3369.01 4846.04 61.90 12.00 131.09 3116.52
   12:19:26.015.27-Mar-2021 3369.01 4846.04 61.90 12.00 131.29 3116.52
   12:19:26.215.27-Mar-2021 3369.01 4845.84 61.90 12.00 131.49 3116.52
   12:19:26.416.27-Mar-2021 3369.01 4846.05 61.90 12.00 131.69 3116.52
   12:19:26.616.27-Mar-2021 3369.01 4846.03 61.90 12.00 131.89 3116.52
   12:19:26.816.27-Mar-2021 3369.01 4846.40 61.90 12.00 132.09 3116.52
   12:19:27.016.27-Mar-2021 3369.01 4846.40 61.90 12.00 132.29 3116.52
   12:19:27.216.27-Mar-2021 3369.01 4846.53 61.90 12.00 132.49 3116.52
   12:19:27.416.27-Mar-2021 3369.01 4846.33 61.89 12.00 132.69 3116.52
   12:19:27.616.27-Mar-2021 3369.01 4845.50 61.90 12.00 132.89 3116.52
   12:19:27.817.27-Mar-2021 3369.01 4846.36 61.89 12.00 133.09 3116.52
   12:19:28.017.27-Mar-2021 3369.01 4846.36 61.89 12.00 133.29 3116.52
   12:19:28.217.27-Mar-2021 3369.01 4846.49 61.89 12.00 133.49 3116.52
   12:19:28.417.27-Mar-2021 3369.01 4846.65 61.89 12.00 133.69 3116.52
   12:19:28.617.27-Mar-2021 3369.01 4846.64 61.89 12.00 133.89 3116.52
   12:19:28.817.27-Mar-2021 3369.01 4845.73 61.89 12.00 134.09 3116.52
   12:19:29.017.27-Mar-2021 3369.01 4845.73 61.89 12.00 134.29 3116.52
   12:19:29.218.27-Mar-2021 3369.01 4846.65 61.89 12.00 134.50 3116.52
   12:19:29.418.27-Mar-2021 3369.01 4846.62 61.89 12.00 134.70 3116.52
   12:19:29.618.27-Mar-2021 3369.01 4846.63 61.89 12.00 134.90 3116.52
   12:19:29.818.27-Mar-2021 3369.01 4846.30 61.89 12.00 135.10 3116.52
   12:19:30.018.27-Mar-2021 3369.01 4846.30 61.89 12.00 135.30 3116.52
   12:19:30.218.27-Mar-2021 3369.01 4846.07 61.89 12.00 135.50 3116.52
