~Version Information
 VERS.                  2.0:   CWLS log ASCII Standard -VERSION 2.0
 WRAP.                   NO:   One line per depth step
~Well Information Block
#MNEM.UNIT     VALUE/NAME     DESCRIPTION
#---------     -----------    ---------------------------
 STRT.S             11:05:10 27-Mar-21: START TIME 11:05:10 27-Mar-21
 STOP.S             11:12:21 27-Mar-21: STOP TIME  11:12:21 27-Mar-21
 STEP.S                   0.00: STEP TIME
 NULL.                 -999.25: NULL VALUE
 DFWT.                        :  DIST FWL TEXT
 DFST.                        :  DIST FSL TEXT
 DMF .             Drill Floor:  DRILL MEAS FROM
 STIM.      20.26.40 11-Mar-21:  START TIME
 DATE.      20.26.40 30-Mar-21:  END TIME
 SPUD.               11-Mar-21:  SPUD DATE
 NREF.                    Grid:  NORTH REFERENCE
 HPTY.       Minimum Curvature:  HOLE POS TYPE
 DMOD.             Drill Model:  DRILL MOD DESC
 SVYD.                  Survey:  SURVEY DESC
 ILTD.               Lithology:  INTERP LTH DESC
 FTOP.          Formation Tops:  FORM TOPS DESC
 SON .        AZ-XX-0906805385:  JOB NUMBER
 WTYP.                Deviated:  WELL TYPE
 COMP.     BP Exploration (Caspian Sea) Ltd.:  COMPANY
 UWI .            /AZE00000198:  UNIQUE WELL IDENTIFIER
 API .            /AZE00000198:  API NUMBER
 BASE.              Azerbaijan:  LOGGING EQUIPMENT BASE LOCATION
 REGN.                   EESSA:  REGION
 PROV.                    Baku:  PROVINCE
 STAT.                    Baku:  STATE NAME
 CTRY.              Azerbaijan:  COUNTRY NAME
 FLD .                     ACG:  FIELD NAME
 SRVC.     Turan Drilling & Engineering:  CONTRACTOR
 MWDS.                    Baku:  MWD SHOP
 WELL.                    D09z:  WELL NAME
 JOBN.        AZ-XX-0906805385:  JOB TICKET NUMB
 RIG .              East Azeri:  RIG NAME
 DOE .                     N/A:  DOE NUMBER
 DCON.         Sperry Drilling:  DIRECTNL CONTR
 UNIT.                     N/A:  LOGGING EQUIPMENT ID
 PDAT.          Mean Sea Level:  PERMANENT DATUM
 MDS .        Operator Entered:  MAG DATA SOURCE
 CNTY.                        :  COUNTY
 LOC .                        :  LOCATION
 LMF .             Drill Floor:  LOG MEASURED FROM
 TVDS.m                  43.60:  TVDSS CORRECTN
 LATI.deg                40.02:  LATITUDE
 LONG.deg                51.45:  LONGITUDE
 WHNS.m                 -17.04:  WELL HEAD N/S
 WHEW.m                  -6.28:  WELL HEAD E/W
 UTMX.m              538763.98:  UTM X
 UTMY.m             4431880.20:  UTM Y
 DFWL.m                   0.00:  DISTANCE FWL
 DFSL.m                   0.00:  DISTANCE FSL
 SDEP.m                2680.01:  START DEPTH
 TDD .m                4000.01:  TOTAL DEPTH (DRILLER)
 VSDR.deg               225.71:  VERT SEC DIRECT
 GVFD.g                   1.00:  GRAVITY FIELD
 MFLD.nT              50353.00:  MAGNETIC FIELD
 MDIP.deg                59.49:  MAGNETIC DIP
 MDEC.deg                 6.46:  MAGNETIC DECL
 GRDC.deg                 0.29:  GRID CORRECTION
 AZTC.deg                 6.17:  AZM TOTAL CORR
 EPD .m                   0.00:  ELEVATION
 EGL .m                   0.00:  GROUND ELEVATION
 WDMS.m                 151.80:  WD ELEV
 APD .m                  43.60:  DEPTH ABOVE PD
 AGAP.m                  43.60:  AIR GAP
 VSEW.m                  -6.28:  VERT SEC E/W
 VSNS.m                 -17.04:  VERT SEC N/S
 DEP .m                2656.31:  DEPTH
 EKB .m                  43.60:  KB ELEVATION
 EDF .m                  43.60:  DF ELEVATION
 VSC .                       0:  VS TO CLOSURE
 MAGU.                 1851247:  MAGUTM CHECKSUM
~Parameter Information Block
#MNEM.UNIT       Value        Description
#---------     -----------    ---------------------------
 AV  .mps                 3.00:  Ann Velocity 
 AVMX.mps                 8.00:  Max Ann Veloc 
 AZIF.deg                 0.00:  Azm, Final 
 BHAT.                   Other:  BHA Type 
 BREV.rev                 0.00:  Rev Bit Total 
 BROT.°/30m               0.00:  Build Rotating 
 BS  .in                 10.25:  Bit Size 
 BTPL.psig              511.00:  Bit Press Loss 
 CABU.                      No:  Customer Abuse 
 CGEO.           Asif Pashayev:  Customer Geo 
 COMM.                     $Ml:  Run Comments 1 
 TCS .hr                 24.03:  Time Ciculation Ended 
 CV  .mps                 3.50:  Crit Velocity 
 CVMX.mps                 4.00:  Max Crit Veloc 
 DD1 .             Aziz Aliyev:  Direct Drillr 1 
 DD2 .      Fakhraddin Guliyev:  Direct Drillr 2 
 DDSV.                   Other:  DD Service 
 DEFF.%                  99.00:  % Det Eff 
 DLRX.°/30m               0.00:  Dogleg Rot Max 
 DLSO.°/30m               0.00:  Dogleg Oriented 
 DLSX.°/30m               0.00:  Dogleg Str Max 
 DRET.      23.00.40 28-Mar-21:  Drill End Time 
 DRST.      23.30.40 25-Mar-21:  Drill Start Tim 
 DTIM.hr                  0.00:  Time Drilling 
 EDEP.m                3886.01:  End Depth 
 ENG1.         Almaz Almadatov:  Engineer 1 
 ENG2.      Artemiy Matviyanov:  Engineer 2 
 ENG3.           Samir Gafarov:  Engineer 3 
 ETIM.      23.00.40 28-Mar-21:  End Time 
 FLOI.gpm               550.00:  Flow In 
 FLON.gpm               500.00:  Flow In Min 
 FLOS.cptm                0.00:  Fluid Loss 
 FLOX.gpm               590.00:  Flow In Max 
 HFLO.                      No:  High Flow 
 HPRE.                      No:  High Pressure 
 HTEM.                      No:  High Temp 
 HYDO.m                   1.80:  Hydro Offset 
 IFIN.deg                 0.00:  Inc, Final 
 IMAX.deg                 0.00:  Inc Max 
 IMIN.deg                 0.00:  Inc Min 
 IMND.m                   0.00:  Inc Min Depth 
 IMXD.m                   0.00:  Inc Max Depth 
 JARR.                      No:  Jarring 
 LETM.      03.22.40 28-Mar-21:  Log End Time 
 LOST.hr                     0:  Lost Rig Time 
 LSTM.      23.30.40 25-Mar-21:  Log Start Time 
 MDCL.ppm             34000.00:  Mud Chlorides 
 MDES.     Inversion Oil/Synthetic:  Mud Desc 
 DFD .sg                  1.51:  Mud Density 
 MDMN.sg                  1.51:  Dens Mud Min 
 MDMX.sg                  1.51:  Dens Mud Max 
 MOIL.                      70:  Run Mud Oil % 
 MOWR.                   70:30:  Run Mud OWR 
 MSND.                     0.2:  Run Mud Sand % 
 MSOL.                   21.60:  Run Mud Solids% 
 DFV .spqt               74.00:  Mud Viscosity 
 MWOD.in                  6.75:  MWD Tool OD 
 MWSI.                      No:  Serv Intrp, MWD 
 OTIM.hr                 69.09:  Time Operating 
 PCON.           Look Like New:  Pad Condition 
 PMAX.psia             3500.00:  Press Op, Max 
 PV  .cP                 70.00:  Mud PV 
 RUN .                     400:  Run Number 
 ROPA.m/hr                0.00:  ROP Avg 
 ROPN.m/hr                0.00:  ROP Min 
 ROPX.m/hr                0.00:  ROP Max 
 RPMA.rpm                80.00:  RPM Surface Avg 
 RPMN.rpm                10.00:  RPM Surface Min 
 RPMX.rpm               100.00:  RPM Surface Max 
 RRUN.                    0400:  Rig Run Number 
 RTIM.hr                  3.00:  Time Reaming 
 SAZI.deg                 0.00:  Azm, Start 
 SDEP.m                3886.01:  Start Depth 
 SIDD.                      No:  Serv Intrp, DD 
 SINC.deg                 0.00:  Inc, Start 
 SPPA.psig             3270.00:  SPP Avg 
 SPPN.psig             3220.00:  SPP Min 
 SPPX.psig             4430.00:  SPP Max 
 STIM.      23.30.40 25-Mar-21:  Start Time 
 SVCS.                 DD, MWD:  Services 
 SVER.                    9.20:  Sperry Version 
 TDAT.m                   0.00:  Tot Depth Attmp 
 TDDF.                      No:  Trip for DD 
 TFF .                      No:  Trip for Fail 
 TQAA.f-kp                8.00:  Torque Abs Avg 
 TQAN.f-kp                7.00:  Torque Abs Min 
 TQAX.f-kp               11.00:  Torque Abs Max 
 TRRT.°/30m               0.00:  Turn Rotating 
 MRT .                  EWR-M5:  Maximum Recorded Temperature 
 TTMX.degC               76.47:  Max Tool Temp 
 VS01.                90640857:  Virtual Str1 SN 
 VS02.                90639246:  Virtual Str2 SN 
 VS03.                90642265:  Virtual Str3 SN 
 VS04.                11654497:  Virtual Str4 SN 
 WBMN.klb                 0.00:  WOB Min 
 WITN.      Kamran Keberlinkiy:  Customer Rep 
 WITN.           Murad Guliyev:  Customer Rep 2 
 WOBA.klb                 0.00:  WOB Avg 
 WOBX.klb                 0.00:  WOB Max 
 YP  .lhf2               36.00:  Yield Point 
~Curve Information Block
#MNEM.UNIT                 API CODE     Curve Description
#---------               -----------    ---------------------------
 TIME.HHMMSS            00 000 000 000:  GT Time & Date
 GTDEPTH.m              00 000 000 000:  GT Depth
 GTPQH.psia             00 000 000 000:  GT HR Quartz Pressure
 GTTQ.degC              00 000 000 000:  GT Quartz Temperature
 GTTN.NONE              00 000 000 000:  GT Test Number
 GTET.sec               00 000 000 000:  GT Elapsed Test Time
 GTTVD.m                00 000 000 000:  GT True Vertical Depth
#Other Information
#
#WARRANTY: Halliburton will use its best efforts to furnish customers with 
#accurate information and interpretations that are part of, and incident to, the services 
#provided.  However, Halliburton cannot and does not warrant the accuracy 
#or correctness of such information and interpretations.  Under no circumstances should any 
#such information or interpretation be relied upon as the sole basis for any drilling, 
#completion, production, or financial decision or any procedure involving any risk to the 
#safety of any drilling venture, drilling rig or its crew or any other third party.  The 
#Customer has full responsibility for all drilling, completion and production operation.  
#Halliburton makes no representations or warranties, either expressed or 
#implied, including, but not limited to, the implied warranties of merchantability or fitness 
#for a particular purpose, with respect to the services rendered.  In no event will 
#Halliburton be liable for failure to obtain any particular results or for 
#any damages, including, but not limited to, indirect, special or consequential damages, 
#resulting from the use of any information or interpretation provided by Halliburton.
#
~A           TIME           GTDEPTH  GTPQH  GTTQ  GTTN   GTET   GTTVD  
# ...
   11:07:48.464.27-Mar-2021 3279.01 4783.04 61.27 11.00 158.24 3032.17
   11:07:48.664.27-Mar-2021 3279.01 4783.01 61.27 11.00 158.44 3032.17
   11:07:48.864.27-Mar-2021 3279.01 4781.48 61.27 11.00 158.64 3032.17
   11:07:49.064.27-Mar-2021 3279.01 4783.14 61.27 11.00 158.84 3032.17
   11:07:49.264.27-Mar-2021 3279.01 4783.14 61.27 11.00 159.04 3032.17
   11:07:49.464.27-Mar-2021 3279.01 4783.14 61.27 11.00 159.24 3032.17
   11:07:49.664.27-Mar-2021 3279.01 4782.76 61.27 11.00 159.44 3032.17
   11:07:49.864.27-Mar-2021 3279.01 4782.92 61.27 11.00 159.64 3032.17
   11:07:50.064.27-Mar-2021 3279.01 4782.91 61.27 11.00 159.84 3032.17
   11:07:50.264.27-Mar-2021 3279.01 4782.75 61.27 11.00 160.04 3032.17
   11:07:50.464.27-Mar-2021 3279.01 4782.75 61.27 11.00 160.24 3032.17
   11:07:50.664.27-Mar-2021 3279.01 4748.17 61.27 11.00 160.44 3032.17
   11:07:50.864.27-Mar-2021 3279.01 4333.35 61.27 11.00 160.64 3032.17
   11:07:51.064.27-Mar-2021 3279.01 3957.11 61.27 11.00 160.84 3032.17
   11:07:51.264.27-Mar-2021 3279.01 3757.98 61.27 11.00 161.04 3032.17
   11:07:51.465.27-Mar-2021 3279.01 3757.98 61.27 11.00 161.24 3032.17
   11:07:51.665.27-Mar-2021 3279.01 3583.77 61.27 11.00 161.44 3032.17
   11:07:51.865.27-Mar-2021 3279.01 3549.54 61.27 11.00 161.64 3032.17
   11:07:52.065.27-Mar-2021 3279.01 3532.50 61.27 11.00 161.84 3032.17
   11:07:52.265.27-Mar-2021 3279.01 3522.14 61.26 11.00 162.04 3032.17
   11:07:52.465.27-Mar-2021 3279.01 3522.14 61.26 11.00 162.24 3032.17
   11:07:52.665.27-Mar-2021 3279.01 3516.82 61.26 11.00 162.44 3032.17
   11:07:52.865.27-Mar-2021 3279.01 3522.23 61.26 11.00 162.64 3032.17
   11:07:53.065.27-Mar-2021 3279.01 3528.53 61.26 11.00 162.84 3032.17
   11:07:53.265.27-Mar-2021 3279.01 3523.77 61.26 11.00 163.04 3032.17
   11:07:53.465.27-Mar-2021 3279.01 3523.77 61.26 11.00 163.24 3032.17
   11:07:53.665.27-Mar-2021 3279.01 3520.29 61.26 11.00 163.44 3032.17
   11:07:53.865.27-Mar-2021 3279.01 3525.72 61.26 11.00 163.64 3032.17
   11:07:54.065.27-Mar-2021 3279.01 3526.09 61.26 11.00 163.84 3032.17
   11:07:54.265.27-Mar-2021 3279.01 3526.09 61.26 11.00 164.04 3032.17
   11:07:54.465.27-Mar-2021 3279.01 3524.02 61.26 11.00 164.24 3032.17
   11:07:54.665.27-Mar-2021 3279.01 3535.10 61.26 11.00 164.44 3032.17
   11:07:54.865.27-Mar-2021 3279.01 3539.65 61.26 11.00 164.64 3032.17
   11:07:55.065.27-Mar-2021 3279.01 3539.23 61.25 11.00 164.84 3032.17
   11:07:55.265.27-Mar-2021 3279.01 3544.04 61.25 11.00 165.04 3032.17
   11:07:55.465.27-Mar-2021 3279.01 3544.04 61.25 11.00 165.24 3032.17
   11:07:55.666.27-Mar-2021 3279.01 3540.84 61.25 11.00 165.44 3032.17
   11:07:55.866.27-Mar-2021 3279.01 3534.98 61.25 11.00 165.64 3032.17
   11:07:56.066.27-Mar-2021 3279.01 3537.69 61.25 11.00 165.84 3032.17
   11:07:56.266.27-Mar-2021 3279.01 3535.17 61.25 11.00 166.04 3032.17
   11:07:56.466.27-Mar-2021 3279.01 3535.17 61.25 11.00 166.24 3032.17
   11:07:56.666.27-Mar-2021 3279.01 3532.82 61.25 11.00 166.44 3032.17
   11:07:56.866.27-Mar-2021 3279.01 3532.62 61.25 11.00 166.64 3032.17
   11:07:57.066.27-Mar-2021 3279.01 3536.28 61.25 11.00 166.84 3032.17
   11:07:57.266.27-Mar-2021 3279.01 3533.46 61.25 11.00 167.04 3032.17
   11:07:57.466.27-Mar-2021 3279.01 3533.46 61.25 11.00 167.24 3032.17
   11:07:57.666.27-Mar-2021 3279.01 3537.76 61.24 11.00 167.44 3032.17
   11:07:57.866.27-Mar-2021 3279.01 3532.85 61.24 11.00 167.64 3032.17
   11:07:58.066.27-Mar-2021 3279.01 3527.35 61.24 11.00 167.84 3032.17
   11:07:58.266.27-Mar-2021 3279.01 3525.80 61.24 11.00 168.04 3032.17
   11:07:58.466.27-Mar-2021 3279.01 3525.80 61.24 11.00 168.24 3032.17
   11:07:58.666.27-Mar-2021 3279.01 3522.74 61.24 11.00 168.44 3032.17
   11:07:58.866.27-Mar-2021 3279.01 3523.31 61.24 11.00 168.64 3032.17
   11:07:59.066.27-Mar-2021 3279.01 3525.61 61.24 11.00 168.84 3032.17
   11:07:59.266.27-Mar-2021 3279.01 3526.88 61.24 11.00 169.04 3032.17
   11:07:59.466.27-Mar-2021 3279.01 3526.88 61.24 11.00 169.24 3032.17
   11:07:59.666.27-Mar-2021 3279.01 3530.81 61.24 11.00 169.44 3032.17
   11:07:59.866.27-Mar-2021 3279.01 3531.96 61.24 11.00 169.64 3032.17
   11:08:00.067.27-Mar-2021 3279.01 3527.88 61.24 11.00 169.84 3032.17
   11:08:00.267.27-Mar-2021 3279.01 3530.43 61.24 11.00 170.04 3032.17
   11:08:00.467.27-Mar-2021 3279.01 3530.43 61.24 11.00 170.24 3032.17
   11:08:00.667.27-Mar-2021 3279.01 3529.01 61.24 11.00 170.44 3032.17
   11:08:00.867.27-Mar-2021 3279.01 3649.64 61.24 11.00 170.64 3032.17
   11:08:01.067.27-Mar-2021 3279.01 4044.92 61.24 11.00 170.84 3032.17
   11:08:01.267.27-Mar-2021 3279.01 4317.66 61.24 11.00 171.04 3032.17
   11:08:01.467.27-Mar-2021 3279.01 4317.66 61.24 11.00 171.24 3032.17
   11:08:01.667.27-Mar-2021 3279.01 4608.09 61.24 11.00 171.44 3032.17
   11:08:01.867.27-Mar-2021 3279.01 4673.32 61.24 11.00 171.64 3032.17
   11:08:02.067.27-Mar-2021 3279.01 4711.31 61.24 11.00 171.84 3032.17
   11:08:02.267.27-Mar-2021 3279.01 4735.27 61.24 11.00 172.04 3032.17
   11:08:02.467.27-Mar-2021 3279.01 4735.27 61.24 11.00 172.24 3032.17
   11:08:02.667.27-Mar-2021 3279.01 4758.84 61.24 11.00 172.44 3032.17
   11:08:02.867.27-Mar-2021 3279.01 4765.48 61.24 11.00 172.64 3032.17
   11:08:03.067.27-Mar-2021 3279.01 4769.75 61.24 11.00 172.84 3032.17
   11:08:03.267.27-Mar-2021 3279.01 4772.45 61.24 11.00 173.04 3032.17
   11:08:03.467.27-Mar-2021 3279.01 4772.45 61.24 11.00 173.24 3032.17
   11:08:03.667.27-Mar-2021 3279.01 4775.66 61.24 11.00 173.44 3032.17
   11:08:03.867.27-Mar-2021 3279.01 4776.49 61.24 11.00 173.64 3032.17
   11:08:04.067.27-Mar-2021 3279.01 4777.29 61.24 11.00 173.84 3032.17
   11:08:04.268.27-Mar-2021 3279.01 4777.64 61.24 11.00 174.04 3032.17
   11:08:04.468.27-Mar-2021 3279.01 4777.64 61.24 11.00 174.24 3032.17
   11:08:04.668.27-Mar-2021 3279.01 4778.58 61.24 11.00 174.44 3032.17
   11:08:04.868.27-Mar-2021 3279.01 4778.71 61.24 11.00 174.64 3032.17
   11:08:05.068.27-Mar-2021 3279.01 4778.93 61.24 11.00 174.84 3032.17
   11:08:05.268.27-Mar-2021 3279.01 4779.20 61.24 11.00 175.04 3032.17
   11:08:05.468.27-Mar-2021 3279.01 4779.20 61.24 11.00 175.24 3032.17
   11:08:05.668.27-Mar-2021 3279.01 4778.49 61.25 11.00 175.44 3032.17
   11:08:05.868.27-Mar-2021 3279.01 4779.74 61.25 11.00 175.64 3032.17
   11:08:06.068.27-Mar-2021 3279.01 4779.80 61.25 11.00 175.84 3032.17
   11:08:06.268.27-Mar-2021 3279.01 4779.37 61.25 11.00 176.04 3032.17
   11:08:06.468.27-Mar-2021 3279.01 4779.37 61.25 11.00 176.24 3032.17
   11:08:06.668.27-Mar-2021 3279.01 4780.19 61.25 11.00 176.44 3032.17
   11:08:06.868.27-Mar-2021 3279.01 4780.18 61.25 11.00 176.64 3032.17
   11:08:07.068.27-Mar-2021 3279.01 4780.07 61.25 11.00 176.84 3032.17
   11:08:07.268.27-Mar-2021 3279.01 4780.38 61.25 11.00 177.04 3032.17
   11:08:07.468.27-Mar-2021 3279.01 4780.38 61.25 11.00 177.24 3032.17
   11:08:07.668.27-Mar-2021 3279.01 4780.38 61.25 11.00 177.44 3032.17
   11:08:07.868.27-Mar-2021 3279.01 4780.33 61.25 11.00 177.64 3032.17
   11:08:08.068.27-Mar-2021 3279.01 4780.06 61.26 11.00 177.84 3032.17
   11:08:08.268.27-Mar-2021 3279.01 4780.48 61.26 11.00 178.04 3032.17
   11:08:08.469.27-Mar-2021 3279.01 4780.48 61.26 11.00 178.24 3032.17
   11:08:08.669.27-Mar-2021 3279.01 4781.44 61.26 11.00 178.44 3032.17
   11:08:08.869.27-Mar-2021 3279.01 4780.91 61.26 11.00 178.64 3032.17
   11:08:09.069.27-Mar-2021 3279.01 4780.80 61.26 11.00 178.84 3032.17
   11:08:09.269.27-Mar-2021 3279.01 4780.03 61.26 11.00 179.04 3032.17
   11:08:09.469.27-Mar-2021 3279.01 4780.03 61.26 11.00 179.24 3032.17
   11:08:09.669.27-Mar-2021 3279.01 4781.86 61.26 11.00 179.44 3032.17
   11:08:09.869.27-Mar-2021 3279.01 4780.91 61.26 11.00 179.64 3032.17
   11:08:10.069.27-Mar-2021 3279.01 4781.61 61.26 11.00 179.84 3032.17
   11:08:10.269.27-Mar-2021 3279.01 4781.64 61.26 11.00 180.04 3032.17
   11:08:10.469.27-Mar-2021 3279.01 4781.64 61.26 11.00 180.24 3032.17
   11:08:10.669.27-Mar-2021 3279.01 4780.68 61.26 11.00 180.44 3032.17
   11:08:10.869.27-Mar-2021 3279.01 4781.26 61.26 11.00 180.64 3032.17
