~Version Information
 VERS.                  2.0:   CWLS log ASCII Standard -VERSION 2.0
 WRAP.                   NO:   One line per depth step
~Well Information Block
#MNEM.UNIT     VALUE/NAME     DESCRIPTION
#---------     -----------    ---------------------------
 STRT.S             12:58:23 27-Mar-21: START TIME 12:58:23 27-Mar-21
 STOP.S             13:05:33 27-Mar-21: STOP TIME  13:05:33 27-Mar-21
 STEP.S                   0.00: STEP TIME
 NULL.                 -999.25: NULL VALUE
 DFWT.                        :  DIST FWL TEXT
 DFST.                        :  DIST FSL TEXT
 DMF .             Drill Floor:  DRILL MEAS FROM
 STIM.      20.26.40 11-Mar-21:  START TIME
 DATE.      20.26.40 30-Mar-21:  END TIME
 SPUD.               11-Mar-21:  SPUD DATE
 NREF.                    Grid:  NORTH REFERENCE
 HPTY.       Minimum Curvature:  HOLE POS TYPE
 DMOD.             Drill Model:  DRILL MOD DESC
 SVYD.                  Survey:  SURVEY DESC
 ILTD.               Lithology:  INTERP LTH DESC
 FTOP.          Formation Tops:  FORM TOPS DESC
 SON .        AZ-XX-0906805385:  JOB NUMBER
 WTYP.                Deviated:  WELL TYPE
 COMP.     BP Exploration (Caspian Sea) Ltd.:  COMPANY
 UWI .            /AZE00000198:  UNIQUE WELL IDENTIFIER
 API .            /AZE00000198:  API NUMBER
 BASE.              Azerbaijan:  LOGGING EQUIPMENT BASE LOCATION
 REGN.                   EESSA:  REGION
 PROV.                    Baku:  PROVINCE
 STAT.                    Baku:  STATE NAME
 CTRY.              Azerbaijan:  COUNTRY NAME
 FLD .                     ACG:  FIELD NAME
 SRVC.     Turan Drilling & Engineering:  CONTRACTOR
 MWDS.                    Baku:  MWD SHOP
 WELL.                    D09z:  WELL NAME
 JOBN.        AZ-XX-0906805385:  JOB TICKET NUMB
 RIG .              East Azeri:  RIG NAME
 DOE .                     N/A:  DOE NUMBER
 DCON.         Sperry Drilling:  DIRECTNL CONTR
 UNIT.                     N/A:  LOGGING EQUIPMENT ID
 PDAT.          Mean Sea Level:  PERMANENT DATUM
 MDS .        Operator Entered:  MAG DATA SOURCE
 CNTY.                        :  COUNTY
 LOC .                        :  LOCATION
 LMF .             Drill Floor:  LOG MEASURED FROM
 TVDS.m                  43.60:  TVDSS CORRECTN
 LATI.deg                40.02:  LATITUDE
 LONG.deg                51.45:  LONGITUDE
 WHNS.m                 -17.04:  WELL HEAD N/S
 WHEW.m                  -6.28:  WELL HEAD E/W
 UTMX.m              538763.98:  UTM X
 UTMY.m             4431880.20:  UTM Y
 DFWL.m                   0.00:  DISTANCE FWL
 DFSL.m                   0.00:  DISTANCE FSL
 SDEP.m                2680.01:  START DEPTH
 TDD .m                4000.01:  TOTAL DEPTH (DRILLER)
 VSDR.deg               225.71:  VERT SEC DIRECT
 GVFD.g                   1.00:  GRAVITY FIELD
 MFLD.nT              50353.00:  MAGNETIC FIELD
 MDIP.deg                59.49:  MAGNETIC DIP
 MDEC.deg                 6.46:  MAGNETIC DECL
 GRDC.deg                 0.29:  GRID CORRECTION
 AZTC.deg                 6.17:  AZM TOTAL CORR
 EPD .m                   0.00:  ELEVATION
 EGL .m                   0.00:  GROUND ELEVATION
 WDMS.m                 151.80:  WD ELEV
 APD .m                  43.60:  DEPTH ABOVE PD
 AGAP.m                  43.60:  AIR GAP
 VSEW.m                  -6.28:  VERT SEC E/W
 VSNS.m                 -17.04:  VERT SEC N/S
 DEP .m                2656.31:  DEPTH
 EKB .m                  43.60:  KB ELEVATION
 EDF .m                  43.60:  DF ELEVATION
 VSC .                       0:  VS TO CLOSURE
 MAGU.                 1851247:  MAGUTM CHECKSUM
~Parameter Information Block
#MNEM.UNIT       Value        Description
#---------     -----------    ---------------------------
 AV  .mps                 3.00:  Ann Velocity 
 AVMX.mps                 8.00:  Max Ann Veloc 
 AZIF.deg                 0.00:  Azm, Final 
 BHAT.                   Other:  BHA Type 
 BREV.rev                 0.00:  Rev Bit Total 
 BROT.°/30m               0.00:  Build Rotating 
 BS  .in                 10.25:  Bit Size 
 BTPL.psig              511.00:  Bit Press Loss 
 CABU.                      No:  Customer Abuse 
 CGEO.           Asif Pashayev:  Customer Geo 
 COMM.                     „¼n:  Run Comments 1 
 TCS .hr                 24.03:  Time Ciculation Ended 
 CV  .mps                 3.50:  Crit Velocity 
 CVMX.mps                 4.00:  Max Crit Veloc 
 DD1 .             Aziz Aliyev:  Direct Drillr 1 
 DD2 .      Fakhraddin Guliyev:  Direct Drillr 2 
 DDSV.                   Other:  DD Service 
 DEFF.%                  99.00:  % Det Eff 
 DLRX.°/30m               0.00:  Dogleg Rot Max 
 DLSO.°/30m               0.00:  Dogleg Oriented 
 DLSX.°/30m               0.00:  Dogleg Str Max 
 DRET.      23.00.40 28-Mar-21:  Drill End Time 
 DRST.      23.30.40 25-Mar-21:  Drill Start Tim 
 DTIM.hr                  0.00:  Time Drilling 
 EDEP.m                3886.01:  End Depth 
 ENG1.         Almaz Almadatov:  Engineer 1 
 ENG2.      Artemiy Matviyanov:  Engineer 2 
 ENG3.           Samir Gafarov:  Engineer 3 
 ETIM.      23.00.40 28-Mar-21:  End Time 
 FLOI.gpm               550.00:  Flow In 
 FLON.gpm               500.00:  Flow In Min 
 FLOS.cptm                0.00:  Fluid Loss 
 FLOX.gpm               590.00:  Flow In Max 
 HFLO.                      No:  High Flow 
 HPRE.                      No:  High Pressure 
 HTEM.                      No:  High Temp 
 HYDO.m                   1.80:  Hydro Offset 
 IFIN.deg                 0.00:  Inc, Final 
 IMAX.deg                 0.00:  Inc Max 
 IMIN.deg                 0.00:  Inc Min 
 IMND.m                   0.00:  Inc Min Depth 
 IMXD.m                   0.00:  Inc Max Depth 
 JARR.                      No:  Jarring 
 LETM.      03.22.40 28-Mar-21:  Log End Time 
 LOST.hr                     0:  Lost Rig Time 
 LSTM.      23.30.40 25-Mar-21:  Log Start Time 
 MDCL.ppm             34000.00:  Mud Chlorides 
 MDES.     Inversion Oil/Synthetic:  Mud Desc 
 DFD .sg                  1.51:  Mud Density 
 MDMN.sg                  1.51:  Dens Mud Min 
 MDMX.sg                  1.51:  Dens Mud Max 
 MOIL.                      70:  Run Mud Oil % 
 MOWR.                   70:30:  Run Mud OWR 
 MSND.                     0.2:  Run Mud Sand % 
 MSOL.                   21.60:  Run Mud Solids% 
 DFV .spqt               74.00:  Mud Viscosity 
 MWOD.in                  6.75:  MWD Tool OD 
 MWSI.                      No:  Serv Intrp, MWD 
 OTIM.hr                 69.09:  Time Operating 
 PCON.           Look Like New:  Pad Condition 
 PMAX.psia             3500.00:  Press Op, Max 
 PV  .cP                 70.00:  Mud PV 
 RUN .                     400:  Run Number 
 ROPA.m/hr                0.00:  ROP Avg 
 ROPN.m/hr                0.00:  ROP Min 
 ROPX.m/hr                0.00:  ROP Max 
 RPMA.rpm                80.00:  RPM Surface Avg 
 RPMN.rpm                10.00:  RPM Surface Min 
 RPMX.rpm               100.00:  RPM Surface Max 
 RRUN.                    0400:  Rig Run Number 
 RTIM.hr                  3.00:  Time Reaming 
 SAZI.deg                 0.00:  Azm, Start 
 SDEP.m                3886.01:  Start Depth 
 SIDD.                      No:  Serv Intrp, DD 
 SINC.deg                 0.00:  Inc, Start 
 SPPA.psig             3270.00:  SPP Avg 
 SPPN.psig             3220.00:  SPP Min 
 SPPX.psig             4430.00:  SPP Max 
 STIM.      23.30.40 25-Mar-21:  Start Time 
 SVCS.                 DD, MWD:  Services 
 SVER.                    9.20:  Sperry Version 
 TDAT.m                   0.00:  Tot Depth Attmp 
 TDDF.                      No:  Trip for DD 
 TFF .                      No:  Trip for Fail 
 TQAA.f-kp                8.00:  Torque Abs Avg 
 TQAN.f-kp                7.00:  Torque Abs Min 
 TQAX.f-kp               11.00:  Torque Abs Max 
 TRRT.°/30m               0.00:  Turn Rotating 
 MRT .                  EWR-M5:  Maximum Recorded Temperature 
 TTMX.degC               76.47:  Max Tool Temp 
 VS01.                90640857:  Virtual Str1 SN 
 VS02.                90639246:  Virtual Str2 SN 
 VS03.                90642265:  Virtual Str3 SN 
 VS04.                11654497:  Virtual Str4 SN 
 WBMN.klb                 0.00:  WOB Min 
 WITN.      Kamran Keberlinkiy:  Customer Rep 
 WITN.           Murad Guliyev:  Customer Rep 2 
 WOBA.klb                 0.00:  WOB Avg 
 WOBX.klb                 0.00:  WOB Max 
 YP  .lhf2               36.00:  Yield Point 
~Curve Information Block
#MNEM.UNIT                 API CODE     Curve Description
#---------               -----------    ---------------------------
 TIME.HHMMSS            00 000 000 000:  GT Time & Date
 GTDEPTH.m              00 000 000 000:  GT Depth
 GTPQH.psia             00 000 000 000:  GT HR Quartz Pressure
 GTTQ.degC              00 000 000 000:  GT Quartz Temperature
 GTTN.NONE              00 000 000 000:  GT Test Number
 GTET.sec               00 000 000 000:  GT Elapsed Test Time
 GTTVD.m                00 000 000 000:  GT True Vertical Depth
#Other Information
#
#WARRANTY: Halliburton will use its best efforts to furnish customers with 
#accurate information and interpretations that are part of, and incident to, the services 
#provided.  However, Halliburton cannot and does not warrant the accuracy 
#or correctness of such information and interpretations.  Under no circumstances should any 
#such information or interpretation be relied upon as the sole basis for any drilling, 
#completion, production, or financial decision or any procedure involving any risk to the 
#safety of any drilling venture, drilling rig or its crew or any other third party.  The 
#Customer has full responsibility for all drilling, completion and production operation.  
#Halliburton makes no representations or warranties, either expressed or 
#implied, including, but not limited to, the implied warranties of merchantability or fitness 
#for a particular purpose, with respect to the services rendered.  In no event will 
#Halliburton be liable for failure to obtain any particular results or for 
#any damages, including, but not limited to, indirect, special or consequential damages, 
#resulting from the use of any information or interpretation provided by Halliburton.
#
~A           TIME           GTDEPTH  GTPQH  GTTQ  GTTN   GTET   GTTVD  
   12:58:23.000.27-Mar-2021 3393.01 7302.37 61.84 13.00   0.00 3139.00
   12:58:23.200.27-Mar-2021 3393.01 7302.37 61.84 13.00   0.20 3139.00
   12:58:23.400.27-Mar-2021 3393.01 7302.45 61.84 13.00   0.40 3139.00
   12:58:23.600.27-Mar-2021 3393.01 7305.74 61.84 13.00   0.60 3139.00
   12:58:23.800.27-Mar-2021 3393.01 7303.15 61.84 13.00   0.80 3139.00
   12:58:24.000.27-Mar-2021 3393.01 7304.46 61.84 13.00   1.00 3139.00
   12:58:24.200.27-Mar-2021 3393.01 7304.46 61.84 13.00   1.20 3139.00
   12:58:24.400.27-Mar-2021 3393.01 7303.30 61.84 13.00   1.40 3139.00
   12:58:24.600.27-Mar-2021 3393.01 7306.09 61.84 13.00   1.60 3139.00
   12:58:24.800.27-Mar-2021 3393.01 7304.41 61.84 13.00   1.80 3139.00
   12:58:25.000.27-Mar-2021 3393.01 7303.79 61.84 13.00   2.00 3139.00
   12:58:25.200.27-Mar-2021 3393.01 7303.79 61.84 13.00   2.20 3139.00
   12:58:25.400.27-Mar-2021 3393.01 7307.04 61.84 13.00   2.40 3139.00
   12:58:25.600.27-Mar-2021 3393.01 7305.16 61.84 13.00   2.60 3139.00
   12:58:25.800.27-Mar-2021 3393.01 7304.94 61.84 13.00   2.80 3139.00
   12:58:26.000.27-Mar-2021 3393.01 7305.60 61.84 13.00   3.00 3139.00
   12:58:26.200.27-Mar-2021 3393.01 7305.60 61.84 13.00   3.20 3139.00
   12:58:26.400.27-Mar-2021 3393.01 7305.53 61.84 13.00   3.40 3139.00
   12:58:26.600.27-Mar-2021 3393.01 7305.68 61.84 13.00   3.60 3139.00
   12:58:26.800.27-Mar-2021 3393.01 7308.59 61.84 13.00   3.80 3139.00
   12:58:27.000.27-Mar-2021 3393.01 7305.93 61.84 13.00   4.00 3139.00
   12:58:27.200.27-Mar-2021 3393.01 7305.93 61.84 13.00   4.20 3139.00
   12:58:27.400.27-Mar-2021 3393.01 7306.77 61.84 13.00   4.40 3139.00
   12:58:27.600.27-Mar-2021 3393.01 7306.91 61.84 13.00   4.60 3139.00
   12:58:27.800.27-Mar-2021 3393.01 7306.88 61.84 13.00   4.80 3139.00
   12:58:28.000.27-Mar-2021 3393.01 7306.75 61.84 13.00   5.00 3139.00
   12:58:28.200.27-Mar-2021 3393.01 7306.75 61.84 13.00   5.20 3139.00
   12:58:28.400.27-Mar-2021 3393.01 7307.86 61.84 13.00   5.40 3139.00
   12:58:28.600.27-Mar-2021 3393.01 7307.69 61.84 13.00   5.60 3139.00
   12:58:28.800.27-Mar-2021 3393.01 7307.40 61.84 13.00   5.80 3139.00
   12:58:29.000.27-Mar-2021 3393.01 7307.59 61.84 13.00   6.00 3139.00
   12:58:29.200.27-Mar-2021 3393.01 7307.59 61.84 13.00   6.20 3139.00
   12:58:29.400.27-Mar-2021 3393.01 7307.78 61.84 13.00   6.40 3139.00
   12:58:29.600.27-Mar-2021 3393.01 7308.14 61.84 13.00   6.60 3139.00
   12:58:29.800.27-Mar-2021 3393.01 7308.42 61.84 13.00   6.80 3139.00
   12:58:30.000.27-Mar-2021 3393.01 7310.72 61.84 13.00   7.00 3139.00
   12:58:30.200.27-Mar-2021 3393.01 7310.72 61.84 13.00   7.20 3139.00
   12:58:30.400.27-Mar-2021 3393.01 7308.23 61.84 13.00   7.40 3139.00
   12:58:30.600.27-Mar-2021 3393.01 7309.06 61.84 13.00   7.60 3139.00
   12:58:30.800.27-Mar-2021 3393.01 7308.69 61.84 13.00   7.80 3139.00
   12:58:31.000.27-Mar-2021 3393.01 7308.72 61.84 13.00   8.00 3139.00
   12:58:31.200.27-Mar-2021 3393.01 7308.72 61.84 13.00   8.20 3139.00
   12:58:31.400.27-Mar-2021 3393.01 7308.68 61.84 13.00   8.40 3139.00
   12:58:31.600.27-Mar-2021 3393.01 7309.14 61.84 13.00   8.60 3139.00
   12:58:31.800.27-Mar-2021 3393.01 7309.90 61.84 13.00   8.80 3139.00
   12:58:32.000.27-Mar-2021 3393.01 7309.51 61.84 13.00   9.00 3139.00
   12:58:32.200.27-Mar-2021 3393.01 7309.51 61.84 13.00   9.20 3139.00
   12:58:32.400.27-Mar-2021 3393.01 7309.61 61.84 13.00   9.40 3139.00
   12:58:32.600.27-Mar-2021 3393.01 7309.65 61.84 13.00   9.60 3139.00
   12:58:32.800.27-Mar-2021 3393.01 7309.88 61.84 13.00   9.80 3139.00
   12:58:33.000.27-Mar-2021 3393.01 7310.27 61.84 13.00  10.00 3139.00
   12:58:33.200.27-Mar-2021 3393.01 7310.27 61.84 13.00  10.20 3139.00
   12:58:33.400.27-Mar-2021 3393.01 7309.87 61.84 13.00  10.40 3139.00
   12:58:33.600.27-Mar-2021 3393.01 7313.25 61.84 13.00  10.60 3139.00
   12:58:33.800.27-Mar-2021 3393.01 7310.21 61.84 13.00  10.80 3139.00
   12:58:34.000.27-Mar-2021 3393.01 7310.86 61.84 13.00  11.00 3139.00
   12:58:34.200.27-Mar-2021 3393.01 7310.86 61.84 13.00  11.20 3139.00
   12:58:34.400.27-Mar-2021 3393.01 7313.11 61.84 13.00  11.40 3139.00
   12:58:34.600.27-Mar-2021 3393.01 7311.26 61.84 13.00  11.60 3139.00
   12:58:34.800.27-Mar-2021 3393.01 7310.67 61.84 13.00  11.80 3139.00
   12:58:35.000.27-Mar-2021 3393.01 7311.25 61.84 13.00  12.00 3139.00
   12:58:35.200.27-Mar-2021 3393.01 7311.25 61.84 13.00  12.20 3139.00
   12:58:35.400.27-Mar-2021 3393.01 7312.14 61.84 13.00  12.40 3139.00
   12:58:35.600.27-Mar-2021 3393.01 7311.55 61.84 13.00  12.60 3139.00
   12:58:35.800.27-Mar-2021 3393.01 7311.98 61.84 13.00  12.80 3139.00
   12:58:36.000.27-Mar-2021 3393.01 7312.02 61.84 13.00  13.00 3139.00
   12:58:36.200.27-Mar-2021 3393.01 7312.02 61.84 13.00  13.20 3139.00
   12:58:36.400.27-Mar-2021 3393.01 7312.75 61.84 13.00  13.40 3139.00
   12:58:36.600.27-Mar-2021 3393.01 7312.95 61.84 13.00  13.60 3139.00
   12:58:36.800.27-Mar-2021 3393.01 7312.47 61.84 13.00  13.80 3139.00
   12:58:37.000.27-Mar-2021 3393.01 7313.08 61.83 13.00  14.00 3139.00
   12:58:37.200.27-Mar-2021 3393.01 7313.08 61.83 13.00  14.20 3139.00
   12:58:37.400.27-Mar-2021 3393.01 7315.20 61.83 13.00  14.40 3139.00
   12:58:37.600.27-Mar-2021 3393.01 7313.55 61.83 13.00  14.60 3139.00
   12:58:37.800.27-Mar-2021 3393.01 7313.87 61.83 13.00  14.80 3139.00
   12:58:38.000.27-Mar-2021 3393.01 7313.98 61.83 13.00  15.00 3139.00
   12:58:38.200.27-Mar-2021 3393.01 7313.98 61.83 13.00  15.20 3139.00
   12:58:38.400.27-Mar-2021 3393.01 7313.47 61.83 13.00  15.40 3139.00
   12:58:38.600.27-Mar-2021 3393.01 7313.43 61.83 13.00  15.60 3139.00
   12:58:38.800.27-Mar-2021 3393.01 7313.29 61.83 13.00  15.80 3139.00
   12:58:39.000.27-Mar-2021 3393.01 7313.49 61.83 13.00  16.00 3139.00
   12:58:39.200.27-Mar-2021 3393.01 7313.49 61.83 13.00  16.20 3139.00
   12:58:39.400.27-Mar-2021 3393.01 7313.49 61.83 13.00  16.40 3139.00
   12:58:39.600.27-Mar-2021 3393.01 7314.18 61.83 13.00  16.60 3139.00
   12:58:39.800.27-Mar-2021 3393.01 7314.41 61.83 13.00  16.80 3139.00
   12:58:40.000.27-Mar-2021 3393.01 7314.04 61.83 13.00  17.00 3139.00
   12:58:40.200.27-Mar-2021 3393.01 7314.04 61.83 13.00  17.20 3139.00
   12:58:40.400.27-Mar-2021 3393.01 7314.04 61.83 13.00  17.40 3139.00
   12:58:40.600.27-Mar-2021 3393.01 7314.21 61.83 13.00  17.60 3139.00
   12:58:40.800.27-Mar-2021 3393.01 7317.68 61.83 13.00  17.80 3139.00
   12:58:41.000.27-Mar-2021 3393.01 7314.04 61.83 13.00  18.00 3139.00
   12:58:41.200.27-Mar-2021 3393.01 7314.04 61.83 13.00  18.20 3139.00
   12:58:41.400.27-Mar-2021 3393.01 7314.76 61.83 13.00  18.40 3139.00
   12:58:41.600.27-Mar-2021 3393.01 7314.57 61.83 13.00  18.60 3139.00
   12:58:41.800.27-Mar-2021 3393.01 7314.20 61.83 13.00  18.80 3139.00
   12:58:42.000.27-Mar-2021 3393.01 7314.40 61.83 13.00  19.00 3139.00
   12:58:42.200.27-Mar-2021 3393.01 7314.40 61.83 13.00  19.20 3139.00
   12:58:42.400.27-Mar-2021 3393.01 7315.30 61.83 13.00  19.40 3139.00
   12:58:42.600.27-Mar-2021 3393.01 7314.65 61.83 13.00  19.60 3139.00
   12:58:42.800.27-Mar-2021 3393.01 7314.68 61.83 13.00  19.80 3139.00
   12:58:43.000.27-Mar-2021 3393.01 7314.91 61.83 13.00  20.00 3139.00
   12:58:43.200.27-Mar-2021 3393.01 7314.91 61.83 13.00  20.20 3139.00
   12:58:43.400.27-Mar-2021 3393.01 7317.53 61.83 13.00  20.40 3139.00
   12:58:43.600.27-Mar-2021 3393.01 7316.01 61.83 13.00  20.60 3139.00
   12:58:43.800.27-Mar-2021 3393.01 7315.45 61.83 13.00  20.80 3139.00
   12:58:44.000.27-Mar-2021 3393.01 7315.59 61.83 13.00  21.00 3139.00
   12:58:44.200.27-Mar-2021 3393.01 7315.59 61.83 13.00  21.20 3139.00
   12:58:44.400.27-Mar-2021 3393.01 7314.95 61.83 13.00  21.40 3139.00
   12:58:44.600.27-Mar-2021 3393.01 7314.94 61.83 13.00  21.60 3139.00
   12:58:44.800.27-Mar-2021 3393.01 7318.37 61.83 13.00  21.80 3139.00
   12:58:45.000.27-Mar-2021 3393.01 7315.38 61.83 13.00  22.00 3139.00
   12:58:45.200.27-Mar-2021 3393.01 7315.38 61.83 13.00  22.20 3139.00
   12:58:45.400.27-Mar-2021 3393.01 7316.16 61.83 13.00  22.40 3139.00
