~Version Information
 VERS.                  2.0:   CWLS log ASCII Standard -VERSION 2.0
 WRAP.                   NO:   One line per depth step
~Well Information Block
#MNEM.UNIT     VALUE/NAME     DESCRIPTION
#---------     -----------    ---------------------------
 STRT.S             03:27:53 27-Mar-21: START TIME 03:27:53 27-Mar-21
 STOP.S             03:35:02 27-Mar-21: STOP TIME  03:35:02 27-Mar-21
 STEP.S                   0.00: STEP TIME
 NULL.                 -999.25: NULL VALUE
 DFWT.                        :  DIST FWL TEXT
 DFST.                        :  DIST FSL TEXT
 DMF .             Drill Floor:  DRILL MEAS FROM
 STIM.      20.26.40 11-Mar-21:  START TIME
 DATE.      20.26.40 30-Mar-21:  END TIME
 SPUD.               11-Mar-21:  SPUD DATE
 NREF.                    Grid:  NORTH REFERENCE
 HPTY.       Minimum Curvature:  HOLE POS TYPE
 DMOD.             Drill Model:  DRILL MOD DESC
 SVYD.                  Survey:  SURVEY DESC
 ILTD.               Lithology:  INTERP LTH DESC
 FTOP.          Formation Tops:  FORM TOPS DESC
 SON .        AZ-XX-0906805385:  JOB NUMBER
 WTYP.                Deviated:  WELL TYPE
 COMP.     BP Exploration (Caspian Sea) Ltd.:  COMPANY
 UWI .            /AZE00000198:  UNIQUE WELL IDENTIFIER
 API .            /AZE00000198:  API NUMBER
 BASE.              Azerbaijan:  LOGGING EQUIPMENT BASE LOCATION
 REGN.                   EESSA:  REGION
 PROV.                    Baku:  PROVINCE
 STAT.                    Baku:  STATE NAME
 CTRY.              Azerbaijan:  COUNTRY NAME
 FLD .                     ACG:  FIELD NAME
 SRVC.     Turan Drilling & Engineering:  CONTRACTOR
 MWDS.                    Baku:  MWD SHOP
 WELL.                    D09z:  WELL NAME
 JOBN.        AZ-XX-0906805385:  JOB TICKET NUMB
 RIG .              East Azeri:  RIG NAME
 DOE .                     N/A:  DOE NUMBER
 DCON.         Sperry Drilling:  DIRECTNL CONTR
 UNIT.                     N/A:  LOGGING EQUIPMENT ID
 PDAT.          Mean Sea Level:  PERMANENT DATUM
 MDS .        Operator Entered:  MAG DATA SOURCE
 CNTY.                        :  COUNTY
 LOC .                        :  LOCATION
 LMF .             Drill Floor:  LOG MEASURED FROM
 TVDS.m                  43.60:  TVDSS CORRECTN
 LATI.deg                40.02:  LATITUDE
 LONG.deg                51.45:  LONGITUDE
 WHNS.m                 -17.04:  WELL HEAD N/S
 WHEW.m                  -6.28:  WELL HEAD E/W
 UTMX.m              538763.98:  UTM X
 UTMY.m             4431880.20:  UTM Y
 DFWL.m                   0.00:  DISTANCE FWL
 DFSL.m                   0.00:  DISTANCE FSL
 SDEP.m                2680.01:  START DEPTH
 TDD .m                4000.01:  TOTAL DEPTH (DRILLER)
 VSDR.deg               225.71:  VERT SEC DIRECT
 GVFD.g                   1.00:  GRAVITY FIELD
 MFLD.nT              50353.00:  MAGNETIC FIELD
 MDIP.deg                59.49:  MAGNETIC DIP
 MDEC.deg                 6.46:  MAGNETIC DECL
 GRDC.deg                 0.29:  GRID CORRECTION
 AZTC.deg                 6.17:  AZM TOTAL CORR
 EPD .m                   0.00:  ELEVATION
 EGL .m                   0.00:  GROUND ELEVATION
 WDMS.m                 151.80:  WD ELEV
 APD .m                  43.60:  DEPTH ABOVE PD
 AGAP.m                  43.60:  AIR GAP
 VSEW.m                  -6.28:  VERT SEC E/W
 VSNS.m                 -17.04:  VERT SEC N/S
 DEP .m                2656.31:  DEPTH
 EKB .m                  43.60:  KB ELEVATION
 EDF .m                  43.60:  DF ELEVATION
 VSC .                       0:  VS TO CLOSURE
 MAGU.                 1851247:  MAGUTM CHECKSUM
~Parameter Information Block
#MNEM.UNIT       Value        Description
#---------     -----------    ---------------------------
 AV  .mps                 3.00:  Ann Velocity 
 AVMX.mps                 8.00:  Max Ann Veloc 
 AZIF.deg                 0.00:  Azm, Final 
 BHAT.                   Other:  BHA Type 
 BREV.rev                 0.00:  Rev Bit Total 
 BROT.°/30m               0.00:  Build Rotating 
 BS  .in                 10.25:  Bit Size 
 BTPL.psig              511.00:  Bit Press Loss 
 CABU.                      No:  Customer Abuse 
 CGEO.           Asif Pashayev:  Customer Geo 
 COMM.                     ¼Fy:  Run Comments 1 
 TCS .hr                 24.03:  Time Ciculation Ended 
 CV  .mps                 3.50:  Crit Velocity 
 CVMX.mps                 4.00:  Max Crit Veloc 
 DD1 .             Aziz Aliyev:  Direct Drillr 1 
 DD2 .      Fakhraddin Guliyev:  Direct Drillr 2 
 DDSV.                   Other:  DD Service 
 DEFF.%                  99.00:  % Det Eff 
 DLRX.°/30m               0.00:  Dogleg Rot Max 
 DLSO.°/30m               0.00:  Dogleg Oriented 
 DLSX.°/30m               0.00:  Dogleg Str Max 
 DRET.      23.00.40 28-Mar-21:  Drill End Time 
 DRST.      23.30.40 25-Mar-21:  Drill Start Tim 
 DTIM.hr                  0.00:  Time Drilling 
 EDEP.m                3886.01:  End Depth 
 ENG1.         Almaz Almadatov:  Engineer 1 
 ENG2.      Artemiy Matviyanov:  Engineer 2 
 ENG3.           Samir Gafarov:  Engineer 3 
 ETIM.      23.00.40 28-Mar-21:  End Time 
 FLOI.gpm               550.00:  Flow In 
 FLON.gpm               500.00:  Flow In Min 
 FLOS.cptm                0.00:  Fluid Loss 
 FLOX.gpm               590.00:  Flow In Max 
 HFLO.                      No:  High Flow 
 HPRE.                      No:  High Pressure 
 HTEM.                      No:  High Temp 
 HYDO.m                   1.80:  Hydro Offset 
 IFIN.deg                 0.00:  Inc, Final 
 IMAX.deg                 0.00:  Inc Max 
 IMIN.deg                 0.00:  Inc Min 
 IMND.m                   0.00:  Inc Min Depth 
 IMXD.m                   0.00:  Inc Max Depth 
 JARR.                      No:  Jarring 
 LETM.      03.22.40 28-Mar-21:  Log End Time 
 LOST.hr                     0:  Lost Rig Time 
 LSTM.      23.30.40 25-Mar-21:  Log Start Time 
 MDCL.ppm             34000.00:  Mud Chlorides 
 MDES.     Inversion Oil/Synthetic:  Mud Desc 
 DFD .sg                  1.51:  Mud Density 
 MDMN.sg                  1.51:  Dens Mud Min 
 MDMX.sg                  1.51:  Dens Mud Max 
 MOIL.                      70:  Run Mud Oil % 
 MOWR.                   70:30:  Run Mud OWR 
 MSND.                     0.2:  Run Mud Sand % 
 MSOL.                   21.60:  Run Mud Solids% 
 DFV .spqt               74.00:  Mud Viscosity 
 MWOD.in                  6.75:  MWD Tool OD 
 MWSI.                      No:  Serv Intrp, MWD 
 OTIM.hr                 69.09:  Time Operating 
 PCON.           Look Like New:  Pad Condition 
 PMAX.psia             3500.00:  Press Op, Max 
 PV  .cP                 70.00:  Mud PV 
 RUN .                     400:  Run Number 
 ROPA.m/hr                0.00:  ROP Avg 
 ROPN.m/hr                0.00:  ROP Min 
 ROPX.m/hr                0.00:  ROP Max 
 RPMA.rpm                80.00:  RPM Surface Avg 
 RPMN.rpm                10.00:  RPM Surface Min 
 RPMX.rpm               100.00:  RPM Surface Max 
 RRUN.                    0400:  Rig Run Number 
 RTIM.hr                  3.00:  Time Reaming 
 SAZI.deg                 0.00:  Azm, Start 
 SDEP.m                3886.01:  Start Depth 
 SIDD.                      No:  Serv Intrp, DD 
 SINC.deg                 0.00:  Inc, Start 
 SPPA.psig             3270.00:  SPP Avg 
 SPPN.psig             3220.00:  SPP Min 
 SPPX.psig             4430.00:  SPP Max 
 STIM.      23.30.40 25-Mar-21:  Start Time 
 SVCS.                 DD, MWD:  Services 
 SVER.                    9.20:  Sperry Version 
 TDAT.m                   0.00:  Tot Depth Attmp 
 TDDF.                      No:  Trip for DD 
 TFF .                      No:  Trip for Fail 
 TQAA.f-kp                8.00:  Torque Abs Avg 
 TQAN.f-kp                7.00:  Torque Abs Min 
 TQAX.f-kp               11.00:  Torque Abs Max 
 TRRT.°/30m               0.00:  Turn Rotating 
 MRT .                  EWR-M5:  Maximum Recorded Temperature 
 TTMX.degC               76.47:  Max Tool Temp 
 VS01.                90640857:  Virtual Str1 SN 
 VS02.                90639246:  Virtual Str2 SN 
 VS03.                90642265:  Virtual Str3 SN 
 VS04.                11654497:  Virtual Str4 SN 
 WBMN.klb                 0.00:  WOB Min 
 WITN.      Kamran Keberlinkiy:  Customer Rep 
 WITN.           Murad Guliyev:  Customer Rep 2 
 WOBA.klb                 0.00:  WOB Avg 
 WOBX.klb                 0.00:  WOB Max 
 YP  .lhf2               36.00:  Yield Point 
~Curve Information Block
#MNEM.UNIT                 API CODE     Curve Description
#---------               -----------    ---------------------------
 TIME.HHMMSS            00 000 000 000:  GT Time & Date
 GTDEPTH.m              00 000 000 000:  GT Depth
 GTPQH.psia             00 000 000 000:  GT HR Quartz Pressure
 GTTQ.degC              00 000 000 000:  GT Quartz Temperature
 GTTN.NONE              00 000 000 000:  GT Test Number
 GTET.sec               00 000 000 000:  GT Elapsed Test Time
 GTTVD.m                00 000 000 000:  GT True Vertical Depth
#Other Information
#
#WARRANTY: Halliburton will use its best efforts to furnish customers with 
#accurate information and interpretations that are part of, and incident to, the services 
#provided.  However, Halliburton cannot and does not warrant the accuracy 
#or correctness of such information and interpretations.  Under no circumstances should any 
#such information or interpretation be relied upon as the sole basis for any drilling, 
#completion, production, or financial decision or any procedure involving any risk to the 
#safety of any drilling venture, drilling rig or its crew or any other third party.  The 
#Customer has full responsibility for all drilling, completion and production operation.  
#Halliburton makes no representations or warranties, either expressed or 
#implied, including, but not limited to, the implied warranties of merchantability or fitness 
#for a particular purpose, with respect to the services rendered.  In no event will 
#Halliburton be liable for failure to obtain any particular results or for 
#any damages, including, but not limited to, indirect, special or consequential damages, 
#resulting from the use of any information or interpretation provided by Halliburton.
#
~A           TIME           GTDEPTH  GTPQH  GTTQ  GTTN  GTET   GTTVD  
# ...
   03:30:34.147.27-Mar-2021 3725.51 5168.19 61.45 3.00 161.02 3451.28
   03:30:34.347.27-Mar-2021 3725.51 5168.19 61.45 3.00 161.22 3451.28
   03:30:34.547.27-Mar-2021 3725.51 5169.07 61.45 3.00 161.42 3451.28
   03:30:34.747.27-Mar-2021 3725.51 5169.12 61.45 3.00 161.62 3451.28
   03:30:34.947.27-Mar-2021 3725.51 5169.51 61.45 3.00 161.82 3451.28
   03:30:35.147.27-Mar-2021 3725.51 5168.70 61.45 3.00 162.02 3451.28
   03:30:35.347.27-Mar-2021 3725.51 5168.70 61.45 3.00 162.22 3451.28
   03:30:35.547.27-Mar-2021 3725.51 5169.32 61.45 3.00 162.42 3451.28
   03:30:35.747.27-Mar-2021 3725.51 5169.12 61.45 3.00 162.62 3451.28
   03:30:35.947.27-Mar-2021 3725.51 5169.20 61.45 3.00 162.82 3451.28
   03:30:36.147.27-Mar-2021 3725.51 5169.56 61.45 3.00 163.02 3451.28
   03:30:36.347.27-Mar-2021 3725.51 5169.56 61.45 3.00 163.22 3451.28
   03:30:36.547.27-Mar-2021 3725.51 5168.65 61.45 3.00 163.42 3451.28
   03:30:36.747.27-Mar-2021 3725.51 5169.77 61.45 3.00 163.62 3451.28
   03:30:36.947.27-Mar-2021 3725.51 5168.81 61.45 3.00 163.82 3451.28
   03:30:37.148.27-Mar-2021 3725.51 5169.36 61.45 3.00 164.02 3451.28
   03:30:37.348.27-Mar-2021 3725.51 5169.36 61.45 3.00 164.22 3451.28
   03:30:37.548.27-Mar-2021 3725.51 5170.32 61.45 3.00 164.42 3451.28
   03:30:37.748.27-Mar-2021 3725.51 5168.47 61.45 3.00 164.62 3451.28
   03:30:37.948.27-Mar-2021 3725.51 5169.15 61.45 3.00 164.82 3451.28
   03:30:38.148.27-Mar-2021 3725.51 5168.79 61.45 3.00 165.02 3451.28
   03:30:38.348.27-Mar-2021 3725.51 5168.79 61.45 3.00 165.22 3451.28
   03:30:38.548.27-Mar-2021 3725.51 5169.70 61.45 3.00 165.42 3451.28
   03:30:38.748.27-Mar-2021 3725.51 5169.31 61.45 3.00 165.62 3451.28
   03:30:38.948.27-Mar-2021 3725.51 5169.41 61.45 3.00 165.82 3451.28
   03:30:39.148.27-Mar-2021 3725.51 5169.85 61.45 3.00 166.02 3451.28
   03:30:39.348.27-Mar-2021 3725.51 5169.85 61.45 3.00 166.22 3451.28
   03:30:39.548.27-Mar-2021 3725.51 5169.19 61.45 3.00 166.42 3451.28
   03:30:39.748.27-Mar-2021 3725.51 5169.42 61.45 3.00 166.62 3451.28
   03:30:39.948.27-Mar-2021 3725.51 5169.85 61.45 3.00 166.82 3451.28
   03:30:40.148.27-Mar-2021 3725.51 5169.90 61.45 3.00 167.02 3451.28
   03:30:40.348.27-Mar-2021 3725.51 5169.90 61.45 3.00 167.22 3451.28
   03:30:40.548.27-Mar-2021 3725.51 5170.82 61.45 3.00 167.42 3451.28
   03:30:40.748.27-Mar-2021 3725.51 5169.50 61.45 3.00 167.62 3451.28
   03:30:40.948.27-Mar-2021 3725.51 5170.89 61.45 3.00 167.82 3451.28
   03:30:41.148.27-Mar-2021 3725.51 5170.26 61.45 3.00 168.02 3451.28
   03:30:41.348.27-Mar-2021 3725.51 5170.26 61.45 3.00 168.22 3451.28
   03:30:41.548.27-Mar-2021 3725.51 5171.12 61.45 3.00 168.42 3451.28
   03:30:41.748.27-Mar-2021 3725.51 5169.95 61.45 3.00 168.62 3451.28
   03:30:41.948.27-Mar-2021 3725.51 5170.06 61.45 3.00 168.82 3451.28
   03:30:42.148.27-Mar-2021 3725.51 5177.73 61.45 3.00 169.02 3451.28
   03:30:42.348.27-Mar-2021 3725.51 5177.73 61.45 3.00 169.22 3451.28
   03:30:42.548.27-Mar-2021 3725.51 5264.98 61.45 3.00 169.42 3451.28
   03:30:42.748.27-Mar-2021 3725.51 5264.87 61.45 3.00 169.62 3451.28
   03:30:42.948.27-Mar-2021 3725.51 5265.19 61.45 3.00 169.82 3451.28
   03:30:43.148.27-Mar-2021 3725.51 5264.95 61.45 3.00 170.02 3451.28
   03:30:43.348.27-Mar-2021 3725.51 5264.95 61.45 3.00 170.22 3451.28
   03:30:43.548.27-Mar-2021 3725.51 5265.20 61.45 3.00 170.42 3451.28
   03:30:43.748.27-Mar-2021 3725.51 5265.09 61.45 3.00 170.62 3451.28
   03:30:43.948.27-Mar-2021 3725.51 5265.04 61.45 3.00 170.82 3451.28
   03:30:44.148.27-Mar-2021 3725.51 5265.20 61.45 3.00 171.02 3451.28
   03:30:44.348.27-Mar-2021 3725.51 5265.20 61.45 3.00 171.22 3451.28
   03:30:44.548.27-Mar-2021 3725.51 5265.10 61.45 3.00 171.42 3451.28
   03:30:44.748.27-Mar-2021 3725.51 5265.19 61.45 3.00 171.62 3451.28
   03:30:44.948.27-Mar-2021 3725.51 5265.25 61.45 3.00 171.82 3451.28
   03:30:45.149.27-Mar-2021 3725.51 5265.21 61.45 3.00 172.02 3451.28
   03:30:45.349.27-Mar-2021 3725.51 5265.21 61.45 3.00 172.22 3451.28
   03:30:45.549.27-Mar-2021 3725.51 5265.25 61.45 3.00 172.42 3451.28
   03:30:45.749.27-Mar-2021 3725.51 5265.36 61.45 3.00 172.62 3451.28
   03:30:45.949.27-Mar-2021 3725.51 5265.17 61.45 3.00 172.82 3451.28
   03:30:46.149.27-Mar-2021 3725.51 5265.58 61.45 3.00 173.02 3451.28
   03:30:46.349.27-Mar-2021 3725.51 5265.58 61.45 3.00 173.22 3451.28
   03:30:46.549.27-Mar-2021 3725.51 5265.08 61.45 3.00 173.42 3451.28
   03:30:46.749.27-Mar-2021 3725.51 5265.50 61.45 3.00 173.62 3451.28
   03:30:46.949.27-Mar-2021 3725.51 5265.35 61.45 3.00 173.82 3451.28
   03:30:47.149.27-Mar-2021 3725.51 5265.16 61.45 3.00 174.02 3451.28
   03:30:47.349.27-Mar-2021 3725.51 5265.16 61.45 3.00 174.22 3451.28
   03:30:47.549.27-Mar-2021 3725.51 5265.41 61.45 3.00 174.42 3451.28
   03:30:47.749.27-Mar-2021 3725.51 5265.26 61.45 3.00 174.62 3451.28
   03:30:47.949.27-Mar-2021 3725.51 5265.33 61.45 3.00 174.82 3451.28
   03:30:48.149.27-Mar-2021 3725.51 5265.42 61.45 3.00 175.02 3451.28
   03:30:48.349.27-Mar-2021 3725.51 5265.42 61.45 3.00 175.22 3451.28
   03:30:48.549.27-Mar-2021 3725.51 5265.60 61.45 3.00 175.42 3451.28
   03:30:48.749.27-Mar-2021 3725.51 5265.26 61.45 3.00 175.62 3451.28
   03:30:48.949.27-Mar-2021 3725.51 5265.17 61.45 3.00 175.82 3451.28
   03:30:49.149.27-Mar-2021 3725.51 5265.55 61.45 3.00 176.02 3451.28
   03:30:49.349.27-Mar-2021 3725.51 5265.55 61.45 3.00 176.22 3451.28
   03:30:49.549.27-Mar-2021 3725.51 5265.36 61.45 3.00 176.42 3451.28
   03:30:49.749.27-Mar-2021 3725.51 5265.35 61.45 3.00 176.62 3451.28
   03:30:49.949.27-Mar-2021 3725.51 5265.38 61.45 3.00 176.82 3451.28
   03:30:50.149.27-Mar-2021 3725.51 5265.42 61.45 3.00 177.02 3451.28
   03:30:50.349.27-Mar-2021 3725.51 5265.42 61.45 3.00 177.22 3451.28
   03:30:50.549.27-Mar-2021 3725.51 5265.48 61.45 3.00 177.42 3451.28
   03:30:50.749.27-Mar-2021 3725.51 5265.33 61.45 3.00 177.62 3451.28
   03:30:50.949.27-Mar-2021 3725.51 5265.28 61.45 3.00 177.82 3451.28
   03:30:51.149.27-Mar-2021 3725.51 5265.58 61.45 3.00 178.02 3451.28
   03:30:51.349.27-Mar-2021 3725.51 5265.58 61.45 3.00 178.22 3451.28
   03:30:51.549.27-Mar-2021 3725.51 5265.31 61.45 3.00 178.42 3451.28
   03:30:51.749.27-Mar-2021 3725.51 5265.50 61.45 3.00 178.62 3451.28
   03:30:51.949.27-Mar-2021 3725.51 5265.25 61.45 3.00 178.82 3451.28
   03:30:52.149.27-Mar-2021 3725.51 5265.58 61.45 3.00 179.02 3451.28
   03:30:52.349.27-Mar-2021 3725.51 5265.58 61.45 3.00 179.22 3451.28
   03:30:52.549.27-Mar-2021 3725.51 5265.23 61.45 3.00 179.42 3451.28
   03:30:52.749.27-Mar-2021 3725.51 5265.53 61.45 3.00 179.62 3451.28
   03:30:52.949.27-Mar-2021 3725.51 5265.36 61.45 3.00 179.82 3451.28
   03:30:53.150.27-Mar-2021 3725.51 5265.31 61.45 3.00 180.02 3451.28
   03:30:53.350.27-Mar-2021 3725.51 5265.31 61.45 3.00 180.22 3451.28
   03:30:53.550.27-Mar-2021 3725.51 5265.37 61.45 3.00 180.42 3451.28
   03:30:53.750.27-Mar-2021 3725.51 5265.38 61.45 3.00 180.62 3451.28
   03:30:53.950.27-Mar-2021 3725.51 5265.38 61.45 3.00 180.82 3451.28
   03:30:54.150.27-Mar-2021 3725.51 5265.38 61.45 3.00 181.02 3451.28
   03:30:54.350.27-Mar-2021 3725.51 5265.38 61.45 3.00 181.22 3451.28
   03:30:54.550.27-Mar-2021 3725.51 5265.44 61.45 3.00 181.42 3451.28
   03:30:54.750.27-Mar-2021 3725.51 5265.41 61.45 3.00 181.62 3451.28
   03:30:54.950.27-Mar-2021 3725.51 5265.39 61.45 3.00 181.82 3451.28
   03:30:55.150.27-Mar-2021 3725.51 5265.32 61.45 3.00 182.02 3451.28
   03:30:55.350.27-Mar-2021 3725.51 5265.32 61.45 3.00 182.22 3451.28
   03:30:55.550.27-Mar-2021 3725.51 5265.30 61.45 3.00 182.42 3451.28
   03:30:55.750.27-Mar-2021 3725.51 5265.21 61.45 3.00 182.62 3451.28
   03:30:55.950.27-Mar-2021 3725.51 5265.52 61.45 3.00 182.82 3451.28
   03:30:56.150.27-Mar-2021 3725.51 5265.38 61.45 3.00 183.02 3451.28
   03:30:56.350.27-Mar-2021 3725.51 5265.38 61.45 3.00 183.22 3451.28
   03:30:56.550.27-Mar-2021 3725.51 5265.45 61.45 3.00 183.42 3451.28
   03:30:56.750.27-Mar-2021 3725.51 5265.43 61.45 3.00 183.62 3451.28
   03:30:56.950.27-Mar-2021 3725.51 5265.39 61.45 3.00 183.82 3451.28
