~Version Information
 VERS.                  2.0:   CWLS log ASCII Standard -VERSION 2.0
 WRAP.                   NO:   One line per depth step
~Well Information Block
#MNEM.UNIT     VALUE/NAME     DESCRIPTION
#---------     -----------    ---------------------------
 STRT.S             07:58:58 27-Mar-21: START TIME 07:58:58 27-Mar-21
 STOP.S             08:06:05 27-Mar-21: STOP TIME  08:06:05 27-Mar-21
 STEP.S                   0.00: STEP TIME
 NULL.                 -999.25: NULL VALUE
 DFWT.                        :  DIST FWL TEXT
 DFST.                        :  DIST FSL TEXT
 DMF .             Drill Floor:  DRILL MEAS FROM
 STIM.      20.26.40 11-Mar-21:  START TIME
 DATE.      20.26.40 30-Mar-21:  END TIME
 SPUD.               11-Mar-21:  SPUD DATE
 NREF.                    Grid:  NORTH REFERENCE
 HPTY.       Minimum Curvature:  HOLE POS TYPE
 DMOD.             Drill Model:  DRILL MOD DESC
 SVYD.                  Survey:  SURVEY DESC
 ILTD.               Lithology:  INTERP LTH DESC
 FTOP.          Formation Tops:  FORM TOPS DESC
 SON .        AZ-XX-0906805385:  JOB NUMBER
 WTYP.                Deviated:  WELL TYPE
 COMP.     BP Exploration (Caspian Sea) Ltd.:  COMPANY
 UWI .            /AZE00000198:  UNIQUE WELL IDENTIFIER
 API .            /AZE00000198:  API NUMBER
 BASE.              Azerbaijan:  LOGGING EQUIPMENT BASE LOCATION
 REGN.                   EESSA:  REGION
 PROV.                    Baku:  PROVINCE
 STAT.                    Baku:  STATE NAME
 CTRY.              Azerbaijan:  COUNTRY NAME
 FLD .                     ACG:  FIELD NAME
 SRVC.     Turan Drilling & Engineering:  CONTRACTOR
 MWDS.                    Baku:  MWD SHOP
 WELL.                    D09z:  WELL NAME
 JOBN.        AZ-XX-0906805385:  JOB TICKET NUMB
 RIG .              East Azeri:  RIG NAME
 DOE .                     N/A:  DOE NUMBER
 DCON.         Sperry Drilling:  DIRECTNL CONTR
 UNIT.                     N/A:  LOGGING EQUIPMENT ID
 PDAT.          Mean Sea Level:  PERMANENT DATUM
 MDS .        Operator Entered:  MAG DATA SOURCE
 CNTY.                        :  COUNTY
 LOC .                        :  LOCATION
 LMF .             Drill Floor:  LOG MEASURED FROM
 TVDS.m                  43.60:  TVDSS CORRECTN
 LATI.deg                40.02:  LATITUDE
 LONG.deg                51.45:  LONGITUDE
 WHNS.m                 -17.04:  WELL HEAD N/S
 WHEW.m                  -6.28:  WELL HEAD E/W
 UTMX.m              538763.98:  UTM X
 UTMY.m             4431880.20:  UTM Y
 DFWL.m                   0.00:  DISTANCE FWL
 DFSL.m                   0.00:  DISTANCE FSL
 SDEP.m                2680.01:  START DEPTH
 TDD .m                4000.01:  TOTAL DEPTH (DRILLER)
 VSDR.deg               225.71:  VERT SEC DIRECT
 GVFD.g                   1.00:  GRAVITY FIELD
 MFLD.nT              50353.00:  MAGNETIC FIELD
 MDIP.deg                59.49:  MAGNETIC DIP
 MDEC.deg                 6.46:  MAGNETIC DECL
 GRDC.deg                 0.29:  GRID CORRECTION
 AZTC.deg                 6.17:  AZM TOTAL CORR
 EPD .m                   0.00:  ELEVATION
 EGL .m                   0.00:  GROUND ELEVATION
 WDMS.m                 151.80:  WD ELEV
 APD .m                  43.60:  DEPTH ABOVE PD
 AGAP.m                  43.60:  AIR GAP
 VSEW.m                  -6.28:  VERT SEC E/W
 VSNS.m                 -17.04:  VERT SEC N/S
 DEP .m                2656.31:  DEPTH
 EKB .m                  43.60:  KB ELEVATION
 EDF .m                  43.60:  DF ELEVATION
 VSC .                       0:  VS TO CLOSURE
 MAGU.                 1851247:  MAGUTM CHECKSUM
~Parameter Information Block
#MNEM.UNIT       Value        Description
#---------     -----------    ---------------------------
 AV  .mps                 3.00:  Ann Velocity 
 AVMX.mps                 8.00:  Max Ann Veloc 
 AZIF.deg                 0.00:  Azm, Final 
 BHAT.                   Other:  BHA Type 
 BREV.rev                 0.00:  Rev Bit Total 
 BROT.°/30m               0.00:  Build Rotating 
 BS  .in                 10.25:  Bit Size 
 BTPL.psig              511.00:  Bit Press Loss 
 CABU.                      No:  Customer Abuse 
 CGEO.           Asif Pashayev:  Customer Geo 
 COMM.                     ôNh:  Run Comments 1 
 TCS .hr                 24.03:  Time Ciculation Ended 
 CV  .mps                 3.50:  Crit Velocity 
 CVMX.mps                 4.00:  Max Crit Veloc 
 DD1 .             Aziz Aliyev:  Direct Drillr 1 
 DD2 .      Fakhraddin Guliyev:  Direct Drillr 2 
 DDSV.                   Other:  DD Service 
 DEFF.%                  99.00:  % Det Eff 
 DLRX.°/30m               0.00:  Dogleg Rot Max 
 DLSO.°/30m               0.00:  Dogleg Oriented 
 DLSX.°/30m               0.00:  Dogleg Str Max 
 DRET.      23.00.40 28-Mar-21:  Drill End Time 
 DRST.      23.30.40 25-Mar-21:  Drill Start Tim 
 DTIM.hr                  0.00:  Time Drilling 
 EDEP.m                3886.01:  End Depth 
 ENG1.         Almaz Almadatov:  Engineer 1 
 ENG2.      Artemiy Matviyanov:  Engineer 2 
 ENG3.           Samir Gafarov:  Engineer 3 
 ETIM.      23.00.40 28-Mar-21:  End Time 
 FLOI.gpm               550.00:  Flow In 
 FLON.gpm               500.00:  Flow In Min 
 FLOS.cptm                0.00:  Fluid Loss 
 FLOX.gpm               590.00:  Flow In Max 
 HFLO.                      No:  High Flow 
 HPRE.                      No:  High Pressure 
 HTEM.                      No:  High Temp 
 HYDO.m                   1.80:  Hydro Offset 
 IFIN.deg                 0.00:  Inc, Final 
 IMAX.deg                 0.00:  Inc Max 
 IMIN.deg                 0.00:  Inc Min 
 IMND.m                   0.00:  Inc Min Depth 
 IMXD.m                   0.00:  Inc Max Depth 
 JARR.                      No:  Jarring 
 LETM.      03.22.40 28-Mar-21:  Log End Time 
 LOST.hr                     0:  Lost Rig Time 
 LSTM.      23.30.40 25-Mar-21:  Log Start Time 
 MDCL.ppm             34000.00:  Mud Chlorides 
 MDES.     Inversion Oil/Synthetic:  Mud Desc 
 DFD .sg                  1.51:  Mud Density 
 MDMN.sg                  1.51:  Dens Mud Min 
 MDMX.sg                  1.51:  Dens Mud Max 
 MOIL.                      70:  Run Mud Oil % 
 MOWR.                   70:30:  Run Mud OWR 
 MSND.                     0.2:  Run Mud Sand % 
 MSOL.                   21.60:  Run Mud Solids% 
 DFV .spqt               74.00:  Mud Viscosity 
 MWOD.in                  6.75:  MWD Tool OD 
 MWSI.                      No:  Serv Intrp, MWD 
 OTIM.hr                 69.09:  Time Operating 
 PCON.           Look Like New:  Pad Condition 
 PMAX.psia             3500.00:  Press Op, Max 
 PV  .cP                 70.00:  Mud PV 
 RUN .                     400:  Run Number 
 ROPA.m/hr                0.00:  ROP Avg 
 ROPN.m/hr                0.00:  ROP Min 
 ROPX.m/hr                0.00:  ROP Max 
 RPMA.rpm                80.00:  RPM Surface Avg 
 RPMN.rpm                10.00:  RPM Surface Min 
 RPMX.rpm               100.00:  RPM Surface Max 
 RRUN.                    0400:  Rig Run Number 
 RTIM.hr                  3.00:  Time Reaming 
 SAZI.deg                 0.00:  Azm, Start 
 SDEP.m                3886.01:  Start Depth 
 SIDD.                      No:  Serv Intrp, DD 
 SINC.deg                 0.00:  Inc, Start 
 SPPA.psig             3270.00:  SPP Avg 
 SPPN.psig             3220.00:  SPP Min 
 SPPX.psig             4430.00:  SPP Max 
 STIM.      23.30.40 25-Mar-21:  Start Time 
 SVCS.                 DD, MWD:  Services 
 SVER.                    9.20:  Sperry Version 
 TDAT.m                   0.00:  Tot Depth Attmp 
 TDDF.                      No:  Trip for DD 
 TFF .                      No:  Trip for Fail 
 TQAA.f-kp                8.00:  Torque Abs Avg 
 TQAN.f-kp                7.00:  Torque Abs Min 
 TQAX.f-kp               11.00:  Torque Abs Max 
 TRRT.°/30m               0.00:  Turn Rotating 
 MRT .                  EWR-M5:  Maximum Recorded Temperature 
 TTMX.degC               76.47:  Max Tool Temp 
 VS01.                90640857:  Virtual Str1 SN 
 VS02.                90639246:  Virtual Str2 SN 
 VS03.                90642265:  Virtual Str3 SN 
 VS04.                11654497:  Virtual Str4 SN 
 WBMN.klb                 0.00:  WOB Min 
 WITN.      Kamran Keberlinkiy:  Customer Rep 
 WITN.           Murad Guliyev:  Customer Rep 2 
 WOBA.klb                 0.00:  WOB Avg 
 WOBX.klb                 0.00:  WOB Max 
 YP  .lhf2               36.00:  Yield Point 
~Curve Information Block
#MNEM.UNIT                 API CODE     Curve Description
#---------               -----------    ---------------------------
 TIME.HHMMSS            00 000 000 000:  GT Time & Date
 GTDEPTH.m              00 000 000 000:  GT Depth
 GTPQH.psia             00 000 000 000:  GT HR Quartz Pressure
 GTTQ.degC              00 000 000 000:  GT Quartz Temperature
 GTTN.NONE              00 000 000 000:  GT Test Number
 GTET.sec               00 000 000 000:  GT Elapsed Test Time
 GTTVD.m                00 000 000 000:  GT True Vertical Depth
#Other Information
#
#WARRANTY: Halliburton will use its best efforts to furnish customers with 
#accurate information and interpretations that are part of, and incident to, the services 
#provided.  However, Halliburton cannot and does not warrant the accuracy 
#or correctness of such information and interpretations.  Under no circumstances should any 
#such information or interpretation be relied upon as the sole basis for any drilling, 
#completion, production, or financial decision or any procedure involving any risk to the 
#safety of any drilling venture, drilling rig or its crew or any other third party.  The 
#Customer has full responsibility for all drilling, completion and production operation.  
#Halliburton makes no representations or warranties, either expressed or 
#implied, including, but not limited to, the implied warranties of merchantability or fitness 
#for a particular purpose, with respect to the services rendered.  In no event will 
#Halliburton be liable for failure to obtain any particular results or for 
#any damages, including, but not limited to, indirect, special or consequential damages, 
#resulting from the use of any information or interpretation provided by Halliburton.
#
~A           TIME           GTDEPTH  GTPQH  GTTQ  GTTN  GTET   GTTVD  
# ...
   08:05:06.000.27-Mar-2021 3413.01 4751.96 60.89 7.00 368.00 3157.73
   08:05:06.200.27-Mar-2021 3413.01 4751.96 60.89 7.00 368.20 3157.73
   08:05:06.400.27-Mar-2021 3413.01 4751.88 60.89 7.00 368.40 3157.73
   08:05:06.600.27-Mar-2021 3413.01 4751.92 60.89 7.00 368.60 3157.73
   08:05:06.800.27-Mar-2021 3413.01 4751.91 60.89 7.00 368.80 3157.73
   08:05:07.000.27-Mar-2021 3413.01 4751.77 60.89 7.00 369.00 3157.73
   08:05:07.200.27-Mar-2021 3413.01 4751.77 60.89 7.00 369.20 3157.73
   08:05:07.400.27-Mar-2021 3413.01 4751.91 60.89 7.00 369.40 3157.73
   08:05:07.600.27-Mar-2021 3413.01 4751.85 60.89 7.00 369.60 3157.73
   08:05:07.800.27-Mar-2021 3413.01 4751.94 60.89 7.00 369.80 3157.73
   08:05:08.000.27-Mar-2021 3413.01 4751.92 60.89 7.00 370.00 3157.73
   08:05:08.200.27-Mar-2021 3413.01 4751.92 60.89 7.00 370.20 3157.73
   08:05:08.400.27-Mar-2021 3413.01 4751.91 60.89 7.00 370.40 3157.73
   08:05:08.600.27-Mar-2021 3413.01 4751.91 60.89 7.00 370.60 3157.73
   08:05:08.800.27-Mar-2021 3413.01 4752.47 60.89 7.00 370.80 3157.73
   08:05:09.000.27-Mar-2021 3413.01 4780.61 60.89 7.00 371.00 3157.73
   08:05:09.200.27-Mar-2021 3413.01 4780.61 60.89 7.00 371.20 3157.73
   08:05:09.400.27-Mar-2021 3413.01 6364.94 60.89 7.00 371.40 3157.73
   08:05:09.600.27-Mar-2021 3413.01 7352.97 60.89 7.00 371.60 3157.73
   08:05:09.800.27-Mar-2021 3413.01 7347.79 60.89 7.00 371.80 3157.73
   08:05:10.000.27-Mar-2021 3413.01 7348.73 60.89 7.00 372.00 3157.73
   08:05:10.200.27-Mar-2021 3413.01 7348.73 60.89 7.00 372.20 3157.73
   08:05:10.400.27-Mar-2021 3413.01 7348.63 60.89 7.00 372.40 3157.73
   08:05:10.600.27-Mar-2021 3413.01 7350.14 60.89 7.00 372.60 3157.73
   08:05:10.800.27-Mar-2021 3413.01 7349.56 60.89 7.00 372.80 3157.73
   08:05:11.000.27-Mar-2021 3413.01 7354.27 60.89 7.00 373.00 3157.73
   08:05:11.200.27-Mar-2021 3413.01 7354.27 60.89 7.00 373.20 3157.73
   08:05:11.400.27-Mar-2021 3413.01 7352.25 60.90 7.00 373.40 3157.73
   08:05:11.600.27-Mar-2021 3413.01 7352.04 60.90 7.00 373.60 3157.73
   08:05:11.800.27-Mar-2021 3413.01 7352.79 60.90 7.00 373.80 3157.73
   08:05:12.000.27-Mar-2021 3413.01 7356.73 60.90 7.00 374.00 3157.73
   08:05:12.200.27-Mar-2021 3413.01 7356.73 60.90 7.00 374.20 3157.73
   08:05:12.400.27-Mar-2021 3413.01 7354.17 60.90 7.00 374.40 3157.73
   08:05:12.600.27-Mar-2021 3413.01 7354.19 60.91 7.00 374.60 3157.73
   08:05:12.800.27-Mar-2021 3413.01 7354.44 60.91 7.00 374.80 3157.73
   08:05:13.000.27-Mar-2021 3413.01 7354.46 60.91 7.00 375.00 3157.73
   08:05:13.200.27-Mar-2021 3413.01 7354.46 60.91 7.00 375.20 3157.73
   08:05:13.400.27-Mar-2021 3413.01 7353.86 60.91 7.00 375.40 3157.73
   08:05:13.600.27-Mar-2021 3413.01 7355.61 60.91 7.00 375.60 3157.73
   08:05:13.800.27-Mar-2021 3413.01 7355.42 60.92 7.00 375.80 3157.73
   08:05:14.000.27-Mar-2021 3413.01 7354.78 60.92 7.00 376.00 3157.73
   08:05:14.200.27-Mar-2021 3413.01 7354.78 60.92 7.00 376.20 3157.73
   08:05:14.400.27-Mar-2021 3413.01 7354.43 60.92 7.00 376.40 3157.73
   08:05:14.600.27-Mar-2021 3413.01 7354.79 60.92 7.00 376.60 3157.73
   08:05:14.800.27-Mar-2021 3413.01 7354.32 60.93 7.00 376.80 3157.73
   08:05:15.000.27-Mar-2021 3413.01 7354.86 60.93 7.00 377.00 3157.73
   08:05:15.200.27-Mar-2021 3413.01 7354.86 60.93 7.00 377.20 3157.73
   08:05:15.400.27-Mar-2021 3413.01 7354.71 60.93 7.00 377.40 3157.73
   08:05:15.600.27-Mar-2021 3413.01 7355.04 60.93 7.00 377.60 3157.73
   08:05:15.800.27-Mar-2021 3413.01 7355.14 60.93 7.00 377.80 3157.73
   08:05:16.000.27-Mar-2021 3413.01 7355.10 60.93 7.00 378.00 3157.73
   08:05:16.200.27-Mar-2021 3413.01 7355.10 60.93 7.00 378.20 3157.73
   08:05:16.400.27-Mar-2021 3413.01 7356.22 60.94 7.00 378.40 3157.73
   08:05:16.600.27-Mar-2021 3413.01 7356.74 60.94 7.00 378.60 3157.73
   08:05:16.800.27-Mar-2021 3413.01 7354.49 60.94 7.00 378.80 3157.73
   08:05:17.000.27-Mar-2021 3413.01 7355.81 60.94 7.00 379.00 3157.73
   08:05:17.200.27-Mar-2021 3413.01 7355.81 60.94 7.00 379.20 3157.73
   08:05:17.400.27-Mar-2021 3413.01 7355.46 60.94 7.00 379.40 3157.73
   08:05:17.600.27-Mar-2021 3413.01 7354.36 60.94 7.00 379.60 3157.73
   08:05:17.800.27-Mar-2021 3413.01 7354.65 60.94 7.00 379.80 3157.73
   08:05:18.000.27-Mar-2021 3413.01 7354.69 60.94 7.00 380.00 3157.73
   08:05:18.200.27-Mar-2021 3413.01 7354.69 60.94 7.00 380.20 3157.73
   08:05:18.400.27-Mar-2021 3413.01 7354.93 60.95 7.00 380.40 3157.73
   08:05:18.600.27-Mar-2021 3413.01 7354.83 60.95 7.00 380.60 3157.73
   08:05:18.800.27-Mar-2021 3413.01 7355.05 60.95 7.00 380.80 3157.73
   08:05:19.000.27-Mar-2021 3413.01 7356.25 60.95 7.00 381.00 3157.73
   08:05:19.200.27-Mar-2021 3413.01 7356.25 60.95 7.00 381.20 3157.73
   08:05:19.400.27-Mar-2021 3413.01 7354.97 60.95 7.00 381.40 3157.73
   08:05:19.600.27-Mar-2021 3413.01 7356.18 60.95 7.00 381.60 3157.73
   08:05:19.800.27-Mar-2021 3413.01 7355.09 60.95 7.00 381.80 3157.73
   08:05:20.000.27-Mar-2021 3413.01 7355.63 60.95 7.00 382.00 3157.73
   08:05:20.200.27-Mar-2021 3413.01 7355.63 60.95 7.00 382.20 3157.73
   08:05:20.400.27-Mar-2021 3413.01 7358.47 60.95 7.00 382.40 3157.73
   08:05:20.600.27-Mar-2021 3413.01 7353.90 60.95 7.00 382.60 3157.73
   08:05:20.800.27-Mar-2021 3413.01 7355.50 60.95 7.00 382.80 3157.73
   08:05:21.000.27-Mar-2021 3413.01 7355.69 60.95 7.00 383.00 3157.73
   08:05:21.200.27-Mar-2021 3413.01 7355.69 60.95 7.00 383.20 3157.73
   08:05:21.400.27-Mar-2021 3413.01 7359.86 60.95 7.00 383.40 3157.73
   08:05:21.600.27-Mar-2021 3413.01 7354.38 60.95 7.00 383.60 3157.73
   08:05:21.800.27-Mar-2021 3413.01 7355.82 60.96 7.00 383.80 3157.73
   08:05:22.000.27-Mar-2021 3413.01 7355.44 60.96 7.00 384.00 3157.73
   08:05:22.200.27-Mar-2021 3413.01 7355.44 60.96 7.00 384.20 3157.73
   08:05:22.400.27-Mar-2021 3413.01 7356.09 60.96 7.00 384.40 3157.73
   08:05:22.600.27-Mar-2021 3413.01 7356.91 60.96 7.00 384.60 3157.73
   08:05:22.800.27-Mar-2021 3413.01 7357.65 60.96 7.00 384.80 3157.73
   08:05:23.000.27-Mar-2021 3413.01 7355.85 60.96 7.00 385.00 3157.73
   08:05:23.200.27-Mar-2021 3413.01 7355.85 60.96 7.00 385.20 3157.73
   08:05:23.400.27-Mar-2021 3413.01 7355.80 60.96 7.00 385.40 3157.73
   08:05:23.600.27-Mar-2021 3413.01 7356.20 60.96 7.00 385.60 3157.73
   08:05:23.800.27-Mar-2021 3413.01 7355.29 60.96 7.00 385.80 3157.73
   08:05:24.000.27-Mar-2021 3413.01 7355.34 60.96 7.00 386.00 3157.73
   08:05:24.200.27-Mar-2021 3413.01 7355.34 60.96 7.00 386.20 3157.73
   08:05:24.400.27-Mar-2021 3413.01 7355.70 60.96 7.00 386.40 3157.73
   08:05:24.600.27-Mar-2021 3413.01 7355.28 60.96 7.00 386.60 3157.73
   08:05:24.800.27-Mar-2021 3413.01 7355.23 60.96 7.00 386.80 3157.73
   08:05:25.000.27-Mar-2021 3413.01 7355.54 60.96 7.00 387.00 3157.73
   08:05:25.200.27-Mar-2021 3413.01 7355.54 60.96 7.00 387.20 3157.73
   08:05:25.400.27-Mar-2021 3413.01 7355.67 60.96 7.00 387.40 3157.73
   08:05:25.600.27-Mar-2021 3413.01 7355.15 60.96 7.00 387.60 3157.73
   08:05:25.800.27-Mar-2021 3413.01 7355.08 60.96 7.00 387.80 3157.73
   08:05:26.000.27-Mar-2021 3413.01 7359.15 60.96 7.00 388.00 3157.73
   08:05:26.200.27-Mar-2021 3413.01 7359.15 60.96 7.00 388.20 3157.73
   08:05:26.400.27-Mar-2021 3413.01 7355.53 60.96 7.00 388.40 3157.73
   08:05:26.600.27-Mar-2021 3413.01 7355.49 60.96 7.00 388.60 3157.73
   08:05:26.800.27-Mar-2021 3413.01 7355.19 60.96 7.00 388.80 3157.73
   08:05:27.000.27-Mar-2021 3413.01 7355.02 60.96 7.00 389.00 3157.73
   08:05:27.200.27-Mar-2021 3413.01 7355.02 60.96 7.00 389.20 3157.73
   08:05:27.400.27-Mar-2021 3413.01 7354.91 60.96 7.00 389.40 3157.73
   08:05:27.600.27-Mar-2021 3413.01 7355.03 60.96 7.00 389.60 3157.73
   08:05:27.800.27-Mar-2021 3413.01 7354.85 60.96 7.00 389.80 3157.73
   08:05:28.000.27-Mar-2021 3413.01 7354.84 60.96 7.00 390.00 3157.73
   08:05:28.200.27-Mar-2021 3413.01 7354.84 60.96 7.00 390.20 3157.73
   08:05:28.400.27-Mar-2021 3413.01 7354.82 60.96 7.00 390.40 3157.73
   08:05:28.600.27-Mar-2021 3413.01 7356.27 60.96 7.00 390.60 3157.73
   08:05:28.800.27-Mar-2021 3413.01 7356.84 60.96 7.00 390.80 3157.73
