~Version Information
 VERS.                  2.0:   CWLS log ASCII Standard -VERSION 2.0
 WRAP.                   NO:   One line per depth step
~Well Information Block
#MNEM.UNIT     VALUE/NAME     DESCRIPTION
#---------     -----------    ---------------------------
 STRT.S             11:05:10 27-Mar-21: START TIME 11:05:10 27-Mar-21
 STOP.S             11:12:21 27-Mar-21: STOP TIME  11:12:21 27-Mar-21
 STEP.S                   0.00: STEP TIME
 NULL.                 -999.25: NULL VALUE
 DFWT.                        :  DIST FWL TEXT
 DFST.                        :  DIST FSL TEXT
 DMF .             Drill Floor:  DRILL MEAS FROM
 STIM.      20.26.40 11-Mar-21:  START TIME
 DATE.      20.26.40 30-Mar-21:  END TIME
 SPUD.               11-Mar-21:  SPUD DATE
 NREF.                    Grid:  NORTH REFERENCE
 HPTY.       Minimum Curvature:  HOLE POS TYPE
 DMOD.             Drill Model:  DRILL MOD DESC
 SVYD.                  Survey:  SURVEY DESC
 ILTD.               Lithology:  INTERP LTH DESC
 FTOP.          Formation Tops:  FORM TOPS DESC
 SON .        AZ-XX-0906805385:  JOB NUMBER
 WTYP.                Deviated:  WELL TYPE
 COMP.     BP Exploration (Caspian Sea) Ltd.:  COMPANY
 UWI .            /AZE00000198:  UNIQUE WELL IDENTIFIER
 API .            /AZE00000198:  API NUMBER
 BASE.              Azerbaijan:  LOGGING EQUIPMENT BASE LOCATION
 REGN.                   EESSA:  REGION
 PROV.                    Baku:  PROVINCE
 STAT.                    Baku:  STATE NAME
 CTRY.              Azerbaijan:  COUNTRY NAME
 FLD .                     ACG:  FIELD NAME
 SRVC.     Turan Drilling & Engineering:  CONTRACTOR
 MWDS.                    Baku:  MWD SHOP
 WELL.                    D09z:  WELL NAME
 JOBN.        AZ-XX-0906805385:  JOB TICKET NUMB
 RIG .              East Azeri:  RIG NAME
 DOE .                     N/A:  DOE NUMBER
 DCON.         Sperry Drilling:  DIRECTNL CONTR
 UNIT.                     N/A:  LOGGING EQUIPMENT ID
 PDAT.          Mean Sea Level:  PERMANENT DATUM
 MDS .        Operator Entered:  MAG DATA SOURCE
 CNTY.                        :  COUNTY
 LOC .                        :  LOCATION
 LMF .             Drill Floor:  LOG MEASURED FROM
 TVDS.m                  43.60:  TVDSS CORRECTN
 LATI.deg                40.02:  LATITUDE
 LONG.deg                51.45:  LONGITUDE
 WHNS.m                 -17.04:  WELL HEAD N/S
 WHEW.m                  -6.28:  WELL HEAD E/W
 UTMX.m              538763.98:  UTM X
 UTMY.m             4431880.20:  UTM Y
 DFWL.m                   0.00:  DISTANCE FWL
 DFSL.m                   0.00:  DISTANCE FSL
 SDEP.m                2680.01:  START DEPTH
 TDD .m                4000.01:  TOTAL DEPTH (DRILLER)
 VSDR.deg               225.71:  VERT SEC DIRECT
 GVFD.g                   1.00:  GRAVITY FIELD
 MFLD.nT              50353.00:  MAGNETIC FIELD
 MDIP.deg                59.49:  MAGNETIC DIP
 MDEC.deg                 6.46:  MAGNETIC DECL
 GRDC.deg                 0.29:  GRID CORRECTION
 AZTC.deg                 6.17:  AZM TOTAL CORR
 EPD .m                   0.00:  ELEVATION
 EGL .m                   0.00:  GROUND ELEVATION
 WDMS.m                 151.80:  WD ELEV
 APD .m                  43.60:  DEPTH ABOVE PD
 AGAP.m                  43.60:  AIR GAP
 VSEW.m                  -6.28:  VERT SEC E/W
 VSNS.m                 -17.04:  VERT SEC N/S
 DEP .m                2656.31:  DEPTH
 EKB .m                  43.60:  KB ELEVATION
 EDF .m                  43.60:  DF ELEVATION
 VSC .                       0:  VS TO CLOSURE
 MAGU.                 1851247:  MAGUTM CHECKSUM
~Parameter Information Block
#MNEM.UNIT       Value        Description
#---------     -----------    ---------------------------
 AV  .mps                 3.00:  Ann Velocity 
 AVMX.mps                 8.00:  Max Ann Veloc 
 AZIF.deg                 0.00:  Azm, Final 
 BHAT.                   Other:  BHA Type 
 BREV.rev                 0.00:  Rev Bit Total 
 BROT.°/30m               0.00:  Build Rotating 
 BS  .in                 10.25:  Bit Size 
 BTPL.psig              511.00:  Bit Press Loss 
 CABU.                      No:  Customer Abuse 
 CGEO.           Asif Pashayev:  Customer Geo 
 COMM.                     $Ml:  Run Comments 1 
 TCS .hr                 24.03:  Time Ciculation Ended 
 CV  .mps                 3.50:  Crit Velocity 
 CVMX.mps                 4.00:  Max Crit Veloc 
 DD1 .             Aziz Aliyev:  Direct Drillr 1 
 DD2 .      Fakhraddin Guliyev:  Direct Drillr 2 
 DDSV.                   Other:  DD Service 
 DEFF.%                  99.00:  % Det Eff 
 DLRX.°/30m               0.00:  Dogleg Rot Max 
 DLSO.°/30m               0.00:  Dogleg Oriented 
 DLSX.°/30m               0.00:  Dogleg Str Max 
 DRET.      23.00.40 28-Mar-21:  Drill End Time 
 DRST.      23.30.40 25-Mar-21:  Drill Start Tim 
 DTIM.hr                  0.00:  Time Drilling 
 EDEP.m                3886.01:  End Depth 
 ENG1.         Almaz Almadatov:  Engineer 1 
 ENG2.      Artemiy Matviyanov:  Engineer 2 
 ENG3.           Samir Gafarov:  Engineer 3 
 ETIM.      23.00.40 28-Mar-21:  End Time 
 FLOI.gpm               550.00:  Flow In 
 FLON.gpm               500.00:  Flow In Min 
 FLOS.cptm                0.00:  Fluid Loss 
 FLOX.gpm               590.00:  Flow In Max 
 HFLO.                      No:  High Flow 
 HPRE.                      No:  High Pressure 
 HTEM.                      No:  High Temp 
 HYDO.m                   1.80:  Hydro Offset 
 IFIN.deg                 0.00:  Inc, Final 
 IMAX.deg                 0.00:  Inc Max 
 IMIN.deg                 0.00:  Inc Min 
 IMND.m                   0.00:  Inc Min Depth 
 IMXD.m                   0.00:  Inc Max Depth 
 JARR.                      No:  Jarring 
 LETM.      03.22.40 28-Mar-21:  Log End Time 
 LOST.hr                     0:  Lost Rig Time 
 LSTM.      23.30.40 25-Mar-21:  Log Start Time 
 MDCL.ppm             34000.00:  Mud Chlorides 
 MDES.     Inversion Oil/Synthetic:  Mud Desc 
 DFD .sg                  1.51:  Mud Density 
 MDMN.sg                  1.51:  Dens Mud Min 
 MDMX.sg                  1.51:  Dens Mud Max 
 MOIL.                      70:  Run Mud Oil % 
 MOWR.                   70:30:  Run Mud OWR 
 MSND.                     0.2:  Run Mud Sand % 
 MSOL.                   21.60:  Run Mud Solids% 
 DFV .spqt               74.00:  Mud Viscosity 
 MWOD.in                  6.75:  MWD Tool OD 
 MWSI.                      No:  Serv Intrp, MWD 
 OTIM.hr                 69.09:  Time Operating 
 PCON.           Look Like New:  Pad Condition 
 PMAX.psia             3500.00:  Press Op, Max 
 PV  .cP                 70.00:  Mud PV 
 RUN .                     400:  Run Number 
 ROPA.m/hr                0.00:  ROP Avg 
 ROPN.m/hr                0.00:  ROP Min 
 ROPX.m/hr                0.00:  ROP Max 
 RPMA.rpm                80.00:  RPM Surface Avg 
 RPMN.rpm                10.00:  RPM Surface Min 
 RPMX.rpm               100.00:  RPM Surface Max 
 RRUN.                    0400:  Rig Run Number 
 RTIM.hr                  3.00:  Time Reaming 
 SAZI.deg                 0.00:  Azm, Start 
 SDEP.m                3886.01:  Start Depth 
 SIDD.                      No:  Serv Intrp, DD 
 SINC.deg                 0.00:  Inc, Start 
 SPPA.psig             3270.00:  SPP Avg 
 SPPN.psig             3220.00:  SPP Min 
 SPPX.psig             4430.00:  SPP Max 
 STIM.      23.30.40 25-Mar-21:  Start Time 
 SVCS.                 DD, MWD:  Services 
 SVER.                    9.20:  Sperry Version 
 TDAT.m                   0.00:  Tot Depth Attmp 
 TDDF.                      No:  Trip for DD 
 TFF .                      No:  Trip for Fail 
 TQAA.f-kp                8.00:  Torque Abs Avg 
 TQAN.f-kp                7.00:  Torque Abs Min 
 TQAX.f-kp               11.00:  Torque Abs Max 
 TRRT.°/30m               0.00:  Turn Rotating 
 MRT .                  EWR-M5:  Maximum Recorded Temperature 
 TTMX.degC               76.47:  Max Tool Temp 
 VS01.                90640857:  Virtual Str1 SN 
 VS02.                90639246:  Virtual Str2 SN 
 VS03.                90642265:  Virtual Str3 SN 
 VS04.                11654497:  Virtual Str4 SN 
 WBMN.klb                 0.00:  WOB Min 
 WITN.      Kamran Keberlinkiy:  Customer Rep 
 WITN.           Murad Guliyev:  Customer Rep 2 
 WOBA.klb                 0.00:  WOB Avg 
 WOBX.klb                 0.00:  WOB Max 
 YP  .lhf2               36.00:  Yield Point 
~Curve Information Block
#MNEM.UNIT                 API CODE     Curve Description
#---------               -----------    ---------------------------
 TIME.HHMMSS            00 000 000 000:  GT Time & Date
 GTDEPTH.m              00 000 000 000:  GT Depth
 GTPQH.psia             00 000 000 000:  GT HR Quartz Pressure
 GTTQ.degC              00 000 000 000:  GT Quartz Temperature
 GTTN.NONE              00 000 000 000:  GT Test Number
 GTET.sec               00 000 000 000:  GT Elapsed Test Time
 GTTVD.m                00 000 000 000:  GT True Vertical Depth
#Other Information
#
#WARRANTY: Halliburton will use its best efforts to furnish customers with 
#accurate information and interpretations that are part of, and incident to, the services 
#provided.  However, Halliburton cannot and does not warrant the accuracy 
#or correctness of such information and interpretations.  Under no circumstances should any 
#such information or interpretation be relied upon as the sole basis for any drilling, 
#completion, production, or financial decision or any procedure involving any risk to the 
#safety of any drilling venture, drilling rig or its crew or any other third party.  The 
#Customer has full responsibility for all drilling, completion and production operation.  
#Halliburton makes no representations or warranties, either expressed or 
#implied, including, but not limited to, the implied warranties of merchantability or fitness 
#for a particular purpose, with respect to the services rendered.  In no event will 
#Halliburton be liable for failure to obtain any particular results or for 
#any damages, including, but not limited to, indirect, special or consequential damages, 
#resulting from the use of any information or interpretation provided by Halliburton.
#
~A           TIME           GTDEPTH  GTPQH  GTTQ  GTTN   GTET   GTTVD  
# ...
   11:11:34.517.27-Mar-2021 3279.01 7079.78 61.31 11.00 384.29 3032.17
   11:11:34.717.27-Mar-2021 3279.01 7079.35 61.31 11.00 384.49 3032.17
   11:11:34.917.27-Mar-2021 3279.01 7079.53 61.32 11.00 384.69 3032.17
   11:11:35.117.27-Mar-2021 3279.01 7079.43 61.32 11.00 384.89 3032.17
   11:11:35.317.27-Mar-2021 3279.01 7079.67 61.32 11.00 385.09 3032.17
   11:11:35.517.27-Mar-2021 3279.01 7079.67 61.32 11.00 385.29 3032.17
   11:11:35.717.27-Mar-2021 3279.01 7079.60 61.32 11.00 385.49 3032.17
   11:11:35.917.27-Mar-2021 3279.01 7079.48 61.32 11.00 385.69 3032.17
   11:11:36.117.27-Mar-2021 3279.01 7079.02 61.32 11.00 385.89 3032.17
   11:11:36.317.27-Mar-2021 3279.01 7079.05 61.32 11.00 386.09 3032.17
   11:11:36.517.27-Mar-2021 3279.01 7079.05 61.32 11.00 386.29 3032.17
   11:11:36.717.27-Mar-2021 3279.01 7082.30 61.32 11.00 386.49 3032.17
   11:11:36.917.27-Mar-2021 3279.01 7078.98 61.32 11.00 386.69 3032.17
   11:11:37.117.27-Mar-2021 3279.01 7079.43 61.32 11.00 386.89 3032.17
   11:11:37.317.27-Mar-2021 3279.01 7080.04 61.32 11.00 387.09 3032.17
   11:11:37.517.27-Mar-2021 3279.01 7080.04 61.32 11.00 387.29 3032.17
   11:11:37.717.27-Mar-2021 3279.01 7079.25 61.32 11.00 387.49 3032.17
   11:11:37.918.27-Mar-2021 3279.01 7079.25 61.32 11.00 387.69 3032.17
   11:11:38.118.27-Mar-2021 3279.01 7079.47 61.32 11.00 387.89 3032.17
   11:11:38.318.27-Mar-2021 3279.01 7078.99 61.32 11.00 388.09 3032.17
   11:11:38.518.27-Mar-2021 3279.01 7078.99 61.32 11.00 388.29 3032.17
   11:11:38.718.27-Mar-2021 3279.01 7079.03 61.32 11.00 388.49 3032.17
   11:11:38.918.27-Mar-2021 3279.01 7078.84 61.32 11.00 388.69 3032.17
   11:11:39.118.27-Mar-2021 3279.01 7078.69 61.32 11.00 388.89 3032.17
   11:11:39.318.27-Mar-2021 3279.01 7080.11 61.32 11.00 389.09 3032.17
   11:11:39.518.27-Mar-2021 3279.01 7080.11 61.32 11.00 389.29 3032.17
   11:11:39.718.27-Mar-2021 3279.01 7078.77 61.32 11.00 389.49 3032.17
   11:11:39.918.27-Mar-2021 3279.01 7079.58 61.32 11.00 389.69 3032.17
   11:11:40.118.27-Mar-2021 3279.01 7078.77 61.32 11.00 389.89 3032.17
   11:11:40.318.27-Mar-2021 3279.01 7078.82 61.32 11.00 390.09 3032.17
   11:11:40.518.27-Mar-2021 3279.01 7078.82 61.32 11.00 390.29 3032.17
   11:11:40.718.27-Mar-2021 3279.01 7079.49 61.32 11.00 390.49 3032.17
   11:11:40.918.27-Mar-2021 3279.01 7081.52 61.32 11.00 390.69 3032.17
   11:11:41.118.27-Mar-2021 3279.01 7078.98 61.32 11.00 390.89 3032.17
   11:11:41.318.27-Mar-2021 3279.01 7080.01 61.32 11.00 391.09 3032.17
   11:11:41.518.27-Mar-2021 3279.01 7080.01 61.32 11.00 391.29 3032.17
   11:11:41.718.27-Mar-2021 3279.01 7083.28 61.32 11.00 391.49 3032.17
   11:11:41.918.27-Mar-2021 3279.01 7079.28 61.32 11.00 391.69 3032.17
   11:11:42.119.27-Mar-2021 3279.01 7079.43 61.32 11.00 391.89 3032.17
   11:11:42.319.27-Mar-2021 3279.01 7080.15 61.32 11.00 392.09 3032.17
   11:11:42.519.27-Mar-2021 3279.01 7080.15 61.32 11.00 392.29 3032.17
   11:11:42.719.27-Mar-2021 3279.01 7080.09 61.32 11.00 392.49 3032.17
   11:11:42.919.27-Mar-2021 3279.01 7079.87 61.32 11.00 392.69 3032.17
   11:11:43.119.27-Mar-2021 3279.01 7080.84 61.32 11.00 392.89 3032.17
   11:11:43.319.27-Mar-2021 3279.01 7081.95 61.32 11.00 393.09 3032.17
   11:11:43.519.27-Mar-2021 3279.01 7081.95 61.32 11.00 393.29 3032.17
   11:11:43.719.27-Mar-2021 3279.01 7080.22 61.32 11.00 393.49 3032.17
   11:11:43.919.27-Mar-2021 3279.01 7079.50 61.32 11.00 393.69 3032.17
   11:11:44.119.27-Mar-2021 3279.01 7079.74 61.32 11.00 393.89 3032.17
   11:11:44.319.27-Mar-2021 3279.01 7079.33 61.32 11.00 394.09 3032.17
   11:11:44.519.27-Mar-2021 3279.01 7079.33 61.32 11.00 394.29 3032.17
   11:11:44.719.27-Mar-2021 3279.01 7079.44 61.32 11.00 394.49 3032.17
   11:11:44.919.27-Mar-2021 3279.01 7079.35 61.32 11.00 394.69 3032.17
   11:11:45.119.27-Mar-2021 3279.01 7079.58 61.32 11.00 394.89 3032.17
   11:11:45.319.27-Mar-2021 3279.01 7079.67 61.32 11.00 395.09 3032.17
   11:11:45.519.27-Mar-2021 3279.01 7079.67 61.32 11.00 395.29 3032.17
   11:11:45.719.27-Mar-2021 3279.01 7079.22 61.32 11.00 395.49 3032.17
   11:11:45.919.27-Mar-2021 3279.01 7079.09 61.32 11.00 395.69 3032.17
   11:11:46.119.27-Mar-2021 3279.01 7079.01 61.32 11.00 395.89 3032.17
   11:11:46.319.27-Mar-2021 3279.01 7078.80 61.32 11.00 396.09 3032.17
   11:11:46.520.27-Mar-2021 3279.01 7078.80 61.32 11.00 396.29 3032.17
   11:11:46.720.27-Mar-2021 3279.01 7078.93 61.32 11.00 396.49 3032.17
   11:11:46.920.27-Mar-2021 3279.01 7079.33 61.32 11.00 396.69 3032.17
   11:11:47.120.27-Mar-2021 3279.01 7079.52 61.32 11.00 396.89 3032.17
   11:11:47.320.27-Mar-2021 3279.01 7079.23 61.32 11.00 397.09 3032.17
   11:11:47.520.27-Mar-2021 3279.01 7079.23 61.32 11.00 397.29 3032.17
   11:11:47.720.27-Mar-2021 3279.01 7079.15 61.32 11.00 397.49 3032.17
   11:11:47.920.27-Mar-2021 3279.01 7079.53 61.32 11.00 397.69 3032.17
   11:11:48.120.27-Mar-2021 3279.01 7078.81 61.32 11.00 397.89 3032.17
   11:11:48.320.27-Mar-2021 3279.01 7078.94 61.32 11.00 398.09 3032.17
   11:11:48.520.27-Mar-2021 3279.01 7078.94 61.32 11.00 398.29 3032.17
   11:11:48.720.27-Mar-2021 3279.01 7078.67 61.32 11.00 398.49 3032.17
   11:11:48.920.27-Mar-2021 3279.01 7078.83 61.32 11.00 398.69 3032.17
   11:11:49.120.27-Mar-2021 3279.01 7080.02 61.32 11.00 398.89 3032.17
   11:11:49.320.27-Mar-2021 3279.01 7081.34 61.32 11.00 399.09 3032.17
   11:11:49.520.27-Mar-2021 3279.01 7081.34 61.32 11.00 399.29 3032.17
   11:11:49.720.27-Mar-2021 3279.01 7079.47 61.32 11.00 399.49 3032.17
   11:11:49.920.27-Mar-2021 3279.01 7078.73 61.32 11.00 399.69 3032.17
   11:11:50.120.27-Mar-2021 3279.01 7078.68 61.32 11.00 399.89 3032.17
   11:11:50.320.27-Mar-2021 3279.01 7078.24 61.32 11.00 400.09 3032.17
   11:11:50.520.27-Mar-2021 3279.01 7078.24 61.32 11.00 400.29 3032.17
   11:11:50.721.27-Mar-2021 3279.01 7082.39 61.32 11.00 400.49 3032.17
   11:11:50.921.27-Mar-2021 3279.01 7078.87 61.31 11.00 400.69 3032.17
   11:11:51.121.27-Mar-2021 3279.01 7079.48 61.31 11.00 400.89 3032.17
   11:11:51.321.27-Mar-2021 3279.01 7079.31 61.31 11.00 401.09 3032.17
   11:11:51.521.27-Mar-2021 3279.01 7079.31 61.31 11.00 401.29 3032.17
   11:11:51.721.27-Mar-2021 3279.01 7081.49 61.31 11.00 401.49 3032.17
   11:11:51.921.27-Mar-2021 3279.01 7078.88 61.31 11.00 401.69 3032.17
   11:11:52.121.27-Mar-2021 3279.01 7080.40 61.31 11.00 401.89 3032.17
   11:11:52.321.27-Mar-2021 3279.01 7079.41 61.31 11.00 402.09 3032.17
   11:11:52.521.27-Mar-2021 3279.01 7079.41 61.31 11.00 402.29 3032.17
   11:11:52.721.27-Mar-2021 3279.01 7079.79 61.31 11.00 402.49 3032.17
   11:11:52.921.27-Mar-2021 3279.01 7082.71 61.31 11.00 402.69 3032.17
   11:11:53.121.27-Mar-2021 3279.01 7079.65 61.31 11.00 402.89 3032.17
   11:11:53.321.27-Mar-2021 3279.01 7080.17 61.31 11.00 403.09 3032.17
   11:11:53.521.27-Mar-2021 3279.01 7080.17 61.31 11.00 403.29 3032.17
   11:11:53.721.27-Mar-2021 3279.01 7079.57 61.31 11.00 403.49 3032.17
   11:11:53.921.27-Mar-2021 3279.01 7079.41 61.31 11.00 403.69 3032.17
   11:11:54.121.27-Mar-2021 3279.01 7078.90 61.31 11.00 403.89 3032.17
   11:11:54.321.27-Mar-2021 3279.01 7079.75 61.31 11.00 404.09 3032.17
   11:11:54.521.27-Mar-2021 3279.01 7079.75 61.31 11.00 404.29 3032.17
   11:11:54.721.27-Mar-2021 3279.01 7079.58 61.31 11.00 404.49 3032.17
   11:11:54.922.27-Mar-2021 3279.01 7079.41 61.31 11.00 404.69 3032.17
   11:11:55.122.27-Mar-2021 3279.01 7079.43 61.31 11.00 404.89 3032.17
   11:11:55.322.27-Mar-2021 3279.01 7079.49 61.31 11.00 405.09 3032.17
   11:11:55.522.27-Mar-2021 3279.01 7079.49 61.31 11.00 405.29 3032.17
   11:11:55.722.27-Mar-2021 3279.01 7078.79 61.31 11.00 405.49 3032.17
   11:11:55.922.27-Mar-2021 3279.01 7078.83 61.31 11.00 405.69 3032.17
   11:11:56.122.27-Mar-2021 3279.01 7079.56 61.31 11.00 405.89 3032.17
   11:11:56.322.27-Mar-2021 3279.01 7081.13 61.31 11.00 406.10 3032.17
   11:11:56.522.27-Mar-2021 3279.01 7081.13 61.31 11.00 406.30 3032.17
   11:11:56.722.27-Mar-2021 3279.01 7080.04 61.31 11.00 406.50 3032.17
   11:11:56.922.27-Mar-2021 3279.01 7079.06 61.31 11.00 406.70 3032.17
