~Version Information
 VERS.                  2.0:   CWLS log ASCII Standard -VERSION 2.0
 WRAP.                   NO:   One line per depth step
~Well Information Block
#MNEM.UNIT     VALUE/NAME     DESCRIPTION
#---------     -----------    ---------------------------
 STRT.S             07:02:33 27-Mar-21: START TIME 07:02:33 27-Mar-21
 STOP.S             07:09:44 27-Mar-21: STOP TIME  07:09:44 27-Mar-21
 STEP.S                   0.00: STEP TIME
 NULL.                 -999.25: NULL VALUE
 DFWT.                        :  DIST FWL TEXT
 DFST.                        :  DIST FSL TEXT
 DMF .             Drill Floor:  DRILL MEAS FROM
 STIM.      20.26.40 11-Mar-21:  START TIME
 DATE.      20.26.40 30-Mar-21:  END TIME
 SPUD.               11-Mar-21:  SPUD DATE
 NREF.                    Grid:  NORTH REFERENCE
 HPTY.       Minimum Curvature:  HOLE POS TYPE
 DMOD.             Drill Model:  DRILL MOD DESC
 SVYD.                  Survey:  SURVEY DESC
 ILTD.               Lithology:  INTERP LTH DESC
 FTOP.          Formation Tops:  FORM TOPS DESC
 SON .        AZ-XX-0906805385:  JOB NUMBER
 WTYP.                Deviated:  WELL TYPE
 COMP.     BP Exploration (Caspian Sea) Ltd.:  COMPANY
 UWI .            /AZE00000198:  UNIQUE WELL IDENTIFIER
 API .            /AZE00000198:  API NUMBER
 BASE.              Azerbaijan:  LOGGING EQUIPMENT BASE LOCATION
 REGN.                   EESSA:  REGION
 PROV.                    Baku:  PROVINCE
 STAT.                    Baku:  STATE NAME
 CTRY.              Azerbaijan:  COUNTRY NAME
 FLD .                     ACG:  FIELD NAME
 SRVC.     Turan Drilling & Engineering:  CONTRACTOR
 MWDS.                    Baku:  MWD SHOP
 WELL.                    D09z:  WELL NAME
 JOBN.        AZ-XX-0906805385:  JOB TICKET NUMB
 RIG .              East Azeri:  RIG NAME
 DOE .                     N/A:  DOE NUMBER
 DCON.         Sperry Drilling:  DIRECTNL CONTR
 UNIT.                     N/A:  LOGGING EQUIPMENT ID
 PDAT.          Mean Sea Level:  PERMANENT DATUM
 MDS .        Operator Entered:  MAG DATA SOURCE
 CNTY.                        :  COUNTY
 LOC .                        :  LOCATION
 LMF .             Drill Floor:  LOG MEASURED FROM
 TVDS.m                  43.60:  TVDSS CORRECTN
 LATI.deg                40.02:  LATITUDE
 LONG.deg                51.45:  LONGITUDE
 WHNS.m                 -17.04:  WELL HEAD N/S
 WHEW.m                  -6.28:  WELL HEAD E/W
 UTMX.m              538763.98:  UTM X
 UTMY.m             4431880.20:  UTM Y
 DFWL.m                   0.00:  DISTANCE FWL
 DFSL.m                   0.00:  DISTANCE FSL
 SDEP.m                2680.01:  START DEPTH
 TDD .m                4000.01:  TOTAL DEPTH (DRILLER)
 VSDR.deg               225.71:  VERT SEC DIRECT
 GVFD.g                   1.00:  GRAVITY FIELD
 MFLD.nT              50353.00:  MAGNETIC FIELD
 MDIP.deg                59.49:  MAGNETIC DIP
 MDEC.deg                 6.46:  MAGNETIC DECL
 GRDC.deg                 0.29:  GRID CORRECTION
 AZTC.deg                 6.17:  AZM TOTAL CORR
 EPD .m                   0.00:  ELEVATION
 EGL .m                   0.00:  GROUND ELEVATION
 WDMS.m                 151.80:  WD ELEV
 APD .m                  43.60:  DEPTH ABOVE PD
 AGAP.m                  43.60:  AIR GAP
 VSEW.m                  -6.28:  VERT SEC E/W
 VSNS.m                 -17.04:  VERT SEC N/S
 DEP .m                2656.31:  DEPTH
 EKB .m                  43.60:  KB ELEVATION
 EDF .m                  43.60:  DF ELEVATION
 VSC .                       0:  VS TO CLOSURE
 MAGU.                 1851247:  MAGUTM CHECKSUM
~Parameter Information Block
#MNEM.UNIT       Value        Description
#---------     -----------    ---------------------------
 AV  .mps                 3.00:  Ann Velocity 
 AVMX.mps                 8.00:  Max Ann Veloc 
 AZIF.deg                 0.00:  Azm, Final 
 BHAT.                   Other:  BHA Type 
 BREV.rev                 0.00:  Rev Bit Total 
 BROT.°/30m               0.00:  Build Rotating 
 BS  .in                 10.25:  Bit Size 
 BTPL.psig              511.00:  Bit Press Loss 
 CABU.                      No:  Customer Abuse 
 CGEO.           Asif Pashayev:  Customer Geo 
 COMM.                     ¬\q:  Run Comments 1 
 TCS .hr                 24.03:  Time Ciculation Ended 
 CV  .mps                 3.50:  Crit Velocity 
 CVMX.mps                 4.00:  Max Crit Veloc 
 DD1 .             Aziz Aliyev:  Direct Drillr 1 
 DD2 .      Fakhraddin Guliyev:  Direct Drillr 2 
 DDSV.                   Other:  DD Service 
 DEFF.%                  99.00:  % Det Eff 
 DLRX.°/30m               0.00:  Dogleg Rot Max 
 DLSO.°/30m               0.00:  Dogleg Oriented 
 DLSX.°/30m               0.00:  Dogleg Str Max 
 DRET.      23.00.40 28-Mar-21:  Drill End Time 
 DRST.      23.30.40 25-Mar-21:  Drill Start Tim 
 DTIM.hr                  0.00:  Time Drilling 
 EDEP.m                3886.01:  End Depth 
 ENG1.         Almaz Almadatov:  Engineer 1 
 ENG2.      Artemiy Matviyanov:  Engineer 2 
 ENG3.           Samir Gafarov:  Engineer 3 
 ETIM.      23.00.40 28-Mar-21:  End Time 
 FLOI.gpm               550.00:  Flow In 
 FLON.gpm               500.00:  Flow In Min 
 FLOS.cptm                0.00:  Fluid Loss 
 FLOX.gpm               590.00:  Flow In Max 
 HFLO.                      No:  High Flow 
 HPRE.                      No:  High Pressure 
 HTEM.                      No:  High Temp 
 HYDO.m                   1.80:  Hydro Offset 
 IFIN.deg                 0.00:  Inc, Final 
 IMAX.deg                 0.00:  Inc Max 
 IMIN.deg                 0.00:  Inc Min 
 IMND.m                   0.00:  Inc Min Depth 
 IMXD.m                   0.00:  Inc Max Depth 
 JARR.                      No:  Jarring 
 LETM.      03.22.40 28-Mar-21:  Log End Time 
 LOST.hr                     0:  Lost Rig Time 
 LSTM.      23.30.40 25-Mar-21:  Log Start Time 
 MDCL.ppm             34000.00:  Mud Chlorides 
 MDES.     Inversion Oil/Synthetic:  Mud Desc 
 DFD .sg                  1.51:  Mud Density 
 MDMN.sg                  1.51:  Dens Mud Min 
 MDMX.sg                  1.51:  Dens Mud Max 
 MOIL.                      70:  Run Mud Oil % 
 MOWR.                   70:30:  Run Mud OWR 
 MSND.                     0.2:  Run Mud Sand % 
 MSOL.                   21.60:  Run Mud Solids% 
 DFV .spqt               74.00:  Mud Viscosity 
 MWOD.in                  6.75:  MWD Tool OD 
 MWSI.                      No:  Serv Intrp, MWD 
 OTIM.hr                 69.09:  Time Operating 
 PCON.           Look Like New:  Pad Condition 
 PMAX.psia             3500.00:  Press Op, Max 
 PV  .cP                 70.00:  Mud PV 
 RUN .                     400:  Run Number 
 ROPA.m/hr                0.00:  ROP Avg 
 ROPN.m/hr                0.00:  ROP Min 
 ROPX.m/hr                0.00:  ROP Max 
 RPMA.rpm                80.00:  RPM Surface Avg 
 RPMN.rpm                10.00:  RPM Surface Min 
 RPMX.rpm               100.00:  RPM Surface Max 
 RRUN.                    0400:  Rig Run Number 
 RTIM.hr                  3.00:  Time Reaming 
 SAZI.deg                 0.00:  Azm, Start 
 SDEP.m                3886.01:  Start Depth 
 SIDD.                      No:  Serv Intrp, DD 
 SINC.deg                 0.00:  Inc, Start 
 SPPA.psig             3270.00:  SPP Avg 
 SPPN.psig             3220.00:  SPP Min 
 SPPX.psig             4430.00:  SPP Max 
 STIM.      23.30.40 25-Mar-21:  Start Time 
 SVCS.                 DD, MWD:  Services 
 SVER.                    9.20:  Sperry Version 
 TDAT.m                   0.00:  Tot Depth Attmp 
 TDDF.                      No:  Trip for DD 
 TFF .                      No:  Trip for Fail 
 TQAA.f-kp                8.00:  Torque Abs Avg 
 TQAN.f-kp                7.00:  Torque Abs Min 
 TQAX.f-kp               11.00:  Torque Abs Max 
 TRRT.°/30m               0.00:  Turn Rotating 
 MRT .                  EWR-M5:  Maximum Recorded Temperature 
 TTMX.degC               76.47:  Max Tool Temp 
 VS01.                90640857:  Virtual Str1 SN 
 VS02.                90639246:  Virtual Str2 SN 
 VS03.                90642265:  Virtual Str3 SN 
 VS04.                11654497:  Virtual Str4 SN 
 WBMN.klb                 0.00:  WOB Min 
 WITN.      Kamran Keberlinkiy:  Customer Rep 
 WITN.           Murad Guliyev:  Customer Rep 2 
 WOBA.klb                 0.00:  WOB Avg 
 WOBX.klb                 0.00:  WOB Max 
 YP  .lhf2               36.00:  Yield Point 
~Curve Information Block
#MNEM.UNIT                 API CODE     Curve Description
#---------               -----------    ---------------------------
 TIME.HHMMSS            00 000 000 000:  GT Time & Date
 GTDEPTH.m              00 000 000 000:  GT Depth
 GTPQH.psia             00 000 000 000:  GT HR Quartz Pressure
 GTTQ.degC              00 000 000 000:  GT Quartz Temperature
 GTTN.NONE              00 000 000 000:  GT Test Number
 GTET.sec               00 000 000 000:  GT Elapsed Test Time
 GTTVD.m                00 000 000 000:  GT True Vertical Depth
#Other Information
#
#WARRANTY: Halliburton will use its best efforts to furnish customers with 
#accurate information and interpretations that are part of, and incident to, the services 
#provided.  However, Halliburton cannot and does not warrant the accuracy 
#or correctness of such information and interpretations.  Under no circumstances should any 
#such information or interpretation be relied upon as the sole basis for any drilling, 
#completion, production, or financial decision or any procedure involving any risk to the 
#safety of any drilling venture, drilling rig or its crew or any other third party.  The 
#Customer has full responsibility for all drilling, completion and production operation.  
#Halliburton makes no representations or warranties, either expressed or 
#implied, including, but not limited to, the implied warranties of merchantability or fitness 
#for a particular purpose, with respect to the services rendered.  In no event will 
#Halliburton be liable for failure to obtain any particular results or for 
#any damages, including, but not limited to, indirect, special or consequential damages, 
#resulting from the use of any information or interpretation provided by Halliburton.
#
~A           TIME           GTDEPTH  GTPQH  GTTQ  GTTN  GTET   GTTVD  
# ...
   07:04:51.560.27-Mar-2021 3426.01 4772.52 60.33 6.00 138.03 3169.91
   07:04:51.760.27-Mar-2021 3426.01 4772.52 60.33 6.00 138.23 3169.91
   07:04:51.960.27-Mar-2021 3426.01 4772.43 60.33 6.00 138.43 3169.91
   07:04:52.161.27-Mar-2021 3426.01 4772.38 60.33 6.00 138.63 3169.91
   07:04:52.361.27-Mar-2021 3426.01 4772.59 60.33 6.00 138.83 3169.91
   07:04:52.561.27-Mar-2021 3426.01 4772.46 60.33 6.00 139.03 3169.91
   07:04:52.761.27-Mar-2021 3426.01 4772.46 60.33 6.00 139.23 3169.91
   07:04:52.961.27-Mar-2021 3426.01 4772.57 60.33 6.00 139.43 3169.91
   07:04:53.161.27-Mar-2021 3426.01 4772.58 60.33 6.00 139.63 3169.91
   07:04:53.361.27-Mar-2021 3426.01 4772.44 60.33 6.00 139.83 3169.91
   07:04:53.561.27-Mar-2021 3426.01 4772.53 60.33 6.00 140.03 3169.91
   07:04:53.761.27-Mar-2021 3426.01 4772.53 60.33 6.00 140.23 3169.91
   07:04:53.961.27-Mar-2021 3426.01 4772.63 60.33 6.00 140.43 3169.91
   07:04:54.161.27-Mar-2021 3426.01 4772.42 60.33 6.00 140.64 3169.91
   07:04:54.361.27-Mar-2021 3426.01 4772.40 60.33 6.00 140.84 3169.91
   07:04:54.561.27-Mar-2021 3426.01 4772.56 60.33 6.00 141.04 3169.91
   07:04:54.761.27-Mar-2021 3426.01 4772.56 60.33 6.00 141.24 3169.91
   07:04:54.961.27-Mar-2021 3426.01 4772.46 60.33 6.00 141.44 3169.91
   07:04:55.161.27-Mar-2021 3426.01 4772.54 60.33 6.00 141.64 3169.91
   07:04:55.361.27-Mar-2021 3426.01 4772.53 60.33 6.00 141.84 3169.91
   07:04:55.561.27-Mar-2021 3426.01 4772.44 60.33 6.00 142.04 3169.91
   07:04:55.761.27-Mar-2021 3426.01 4772.44 60.33 6.00 142.24 3169.91
   07:04:55.961.27-Mar-2021 3426.01 4772.52 60.33 6.00 142.44 3169.91
   07:04:56.162.27-Mar-2021 3426.01 4772.51 60.33 6.00 142.64 3169.91
   07:04:56.362.27-Mar-2021 3426.01 4772.51 60.33 6.00 142.84 3169.91
   07:04:56.562.27-Mar-2021 3426.01 4772.52 60.33 6.00 143.04 3169.91
   07:04:56.762.27-Mar-2021 3426.01 4772.52 60.33 6.00 143.24 3169.91
   07:04:56.962.27-Mar-2021 3426.01 4772.52 60.33 6.00 143.44 3169.91
   07:04:57.162.27-Mar-2021 3426.01 4772.45 60.33 6.00 143.64 3169.91
   07:04:57.362.27-Mar-2021 3426.01 4772.33 60.33 6.00 143.84 3169.91
   07:04:57.562.27-Mar-2021 3426.01 4772.48 60.33 6.00 144.04 3169.91
   07:04:57.762.27-Mar-2021 3426.01 4772.48 60.33 6.00 144.24 3169.91
   07:04:57.962.27-Mar-2021 3426.01 4772.51 60.33 6.00 144.44 3169.91
   07:04:58.162.27-Mar-2021 3426.01 4772.50 60.33 6.00 144.64 3169.91
   07:04:58.362.27-Mar-2021 3426.01 4772.49 60.33 6.00 144.84 3169.91
   07:04:58.562.27-Mar-2021 3426.01 4772.52 60.33 6.00 145.04 3169.91
   07:04:58.762.27-Mar-2021 3426.01 4772.52 60.33 6.00 145.24 3169.91
   07:04:58.962.27-Mar-2021 3426.01 4772.57 60.33 6.00 145.44 3169.91
   07:04:59.162.27-Mar-2021 3426.01 4772.51 60.33 6.00 145.64 3169.91
   07:04:59.362.27-Mar-2021 3426.01 4772.51 60.33 6.00 145.84 3169.91
   07:04:59.562.27-Mar-2021 3426.01 4772.53 60.33 6.00 146.04 3169.91
   07:04:59.762.27-Mar-2021 3426.01 4772.53 60.33 6.00 146.24 3169.91
   07:04:59.962.27-Mar-2021 3426.01 4772.36 60.33 6.00 146.44 3169.91
   07:05:00.163.27-Mar-2021 3426.01 4772.46 60.33 6.00 146.64 3169.91
   07:05:00.363.27-Mar-2021 3426.01 4772.54 60.33 6.00 146.84 3169.91
   07:05:00.563.27-Mar-2021 3426.01 4772.52 60.33 6.00 147.04 3169.91
   07:05:00.763.27-Mar-2021 3426.01 4772.52 60.33 6.00 147.24 3169.91
   07:05:00.963.27-Mar-2021 3426.01 4772.51 60.33 6.00 147.44 3169.91
   07:05:01.163.27-Mar-2021 3426.01 4772.50 60.33 6.00 147.64 3169.91
   07:05:01.363.27-Mar-2021 3426.01 4772.34 60.33 6.00 147.84 3169.91
   07:05:01.563.27-Mar-2021 3426.01 4772.48 60.33 6.00 148.04 3169.91
   07:05:01.763.27-Mar-2021 3426.01 4772.48 60.33 6.00 148.24 3169.91
   07:05:01.963.27-Mar-2021 3426.01 4772.29 60.33 6.00 148.44 3169.91
   07:05:02.163.27-Mar-2021 3426.01 4772.57 60.33 6.00 148.64 3169.91
   07:05:02.363.27-Mar-2021 3426.01 4772.65 60.33 6.00 148.84 3169.91
   07:05:02.563.27-Mar-2021 3426.01 4772.46 60.33 6.00 149.04 3169.91
   07:05:02.763.27-Mar-2021 3426.01 4772.46 60.33 6.00 149.24 3169.91
   07:05:02.963.27-Mar-2021 3426.01 4772.39 60.33 6.00 149.44 3169.91
   07:05:03.163.27-Mar-2021 3426.01 4772.61 60.33 6.00 149.64 3169.91
   07:05:03.363.27-Mar-2021 3426.01 4772.50 60.33 6.00 149.84 3169.91
   07:05:03.563.27-Mar-2021 3426.01 4772.47 60.33 6.00 150.04 3169.91
   07:05:03.763.27-Mar-2021 3426.01 4772.47 60.33 6.00 150.24 3169.91
   07:05:03.963.27-Mar-2021 3426.01 4772.52 60.33 6.00 150.44 3169.91
   07:05:04.164.27-Mar-2021 3426.01 4772.54 60.34 6.00 150.64 3169.91
   07:05:04.364.27-Mar-2021 3426.01 4772.51 60.33 6.00 150.84 3169.91
   07:05:04.564.27-Mar-2021 3426.01 4772.52 60.34 6.00 151.04 3169.91
   07:05:04.764.27-Mar-2021 3426.01 4772.52 60.34 6.00 151.24 3169.91
   07:05:04.964.27-Mar-2021 3426.01 4772.52 60.34 6.00 151.44 3169.91
   07:05:05.164.27-Mar-2021 3426.01 4772.49 60.34 6.00 151.64 3169.91
   07:05:05.364.27-Mar-2021 3426.01 4772.50 60.34 6.00 151.84 3169.91
   07:05:05.564.27-Mar-2021 3426.01 4772.52 60.34 6.00 152.04 3169.91
   07:05:05.764.27-Mar-2021 3426.01 4772.52 60.34 6.00 152.24 3169.91
   07:05:05.964.27-Mar-2021 3426.01 4772.57 60.34 6.00 152.44 3169.91
   07:05:06.164.27-Mar-2021 3426.01 4772.54 60.34 6.00 152.64 3169.91
   07:05:06.364.27-Mar-2021 3426.01 4772.58 60.34 6.00 152.84 3169.91
   07:05:06.564.27-Mar-2021 3426.01 4772.37 60.34 6.00 153.04 3169.91
   07:05:06.764.27-Mar-2021 3426.01 4772.37 60.34 6.00 153.24 3169.91
   07:05:06.964.27-Mar-2021 3426.01 4772.56 60.34 6.00 153.44 3169.91
   07:05:07.164.27-Mar-2021 3426.01 4772.54 60.34 6.00 153.64 3169.91
   07:05:07.364.27-Mar-2021 3426.01 4772.56 60.34 6.00 153.84 3169.91
   07:05:07.564.27-Mar-2021 3426.01 4772.54 60.34 6.00 154.04 3169.91
   07:05:07.764.27-Mar-2021 3426.01 4772.54 60.34 6.00 154.24 3169.91
   07:05:07.964.27-Mar-2021 3426.01 4772.54 60.34 6.00 154.44 3169.91
   07:05:08.165.27-Mar-2021 3426.01 4772.59 60.34 6.00 154.64 3169.91
   07:05:08.365.27-Mar-2021 3426.01 4772.52 60.34 6.00 154.84 3169.91
   07:05:08.565.27-Mar-2021 3426.01 4772.54 60.34 6.00 155.04 3169.91
   07:05:08.765.27-Mar-2021 3426.01 4772.54 60.34 6.00 155.24 3169.91
   07:05:08.965.27-Mar-2021 3426.01 4772.60 60.34 6.00 155.44 3169.91
   07:05:09.165.27-Mar-2021 3426.01 4772.36 60.34 6.00 155.64 3169.91
   07:05:09.365.27-Mar-2021 3426.01 4772.54 60.34 6.00 155.84 3169.91
   07:05:09.565.27-Mar-2021 3426.01 4772.57 60.34 6.00 156.04 3169.91
   07:05:09.765.27-Mar-2021 3426.01 4772.57 60.34 6.00 156.24 3169.91
   07:05:09.965.27-Mar-2021 3426.01 4772.51 60.34 6.00 156.44 3169.91
   07:05:10.165.27-Mar-2021 3426.01 4772.58 60.34 6.00 156.64 3169.91
   07:05:10.365.27-Mar-2021 3426.01 4772.58 60.34 6.00 156.84 3169.91
   07:05:10.565.27-Mar-2021 3426.01 4772.33 60.34 6.00 157.04 3169.91
   07:05:10.765.27-Mar-2021 3426.01 4772.33 60.34 6.00 157.24 3169.91
   07:05:10.965.27-Mar-2021 3426.01 4772.52 60.34 6.00 157.44 3169.91
   07:05:11.165.27-Mar-2021 3426.01 4772.35 60.34 6.00 157.64 3169.91
   07:05:11.365.27-Mar-2021 3426.01 4772.59 60.34 6.00 157.84 3169.91
   07:05:11.565.27-Mar-2021 3426.01 4772.64 60.34 6.00 158.04 3169.91
   07:05:11.765.27-Mar-2021 3426.01 4772.64 60.34 6.00 158.24 3169.91
   07:05:11.965.27-Mar-2021 3426.01 4772.54 60.34 6.00 158.44 3169.91
   07:05:12.166.27-Mar-2021 3426.01 4772.37 60.34 6.00 158.64 3169.91
   07:05:12.366.27-Mar-2021 3426.01 4772.70 60.34 6.00 158.84 3169.91
   07:05:12.566.27-Mar-2021 3426.01 4772.49 60.34 6.00 159.04 3169.91
   07:05:12.766.27-Mar-2021 3426.01 4772.49 60.34 6.00 159.24 3169.91
   07:05:12.966.27-Mar-2021 3426.01 4772.56 60.34 6.00 159.44 3169.91
   07:05:13.166.27-Mar-2021 3426.01 4772.52 60.34 6.00 159.64 3169.91
   07:05:13.366.27-Mar-2021 3426.01 4772.54 60.34 6.00 159.84 3169.91
   07:05:13.566.27-Mar-2021 3426.01 4772.56 60.34 6.00 160.04 3169.91
   07:05:13.766.27-Mar-2021 3426.01 4772.56 60.34 6.00 160.24 3169.91
   07:05:13.966.27-Mar-2021 3426.01 4714.26 60.34 6.00 160.44 3169.91
   07:05:14.166.27-Mar-2021 3426.01 4624.80 60.34 6.00 160.64 3169.91
   07:05:14.366.27-Mar-2021 3426.01 4614.65 60.34 6.00 160.84 3169.91
