~Version Information
 VERS.                  2.0:   CWLS log ASCII Standard -VERSION 2.0
 WRAP.                   NO:   One line per depth step
~Well Information Block
#MNEM.UNIT     VALUE/NAME     DESCRIPTION
#---------     -----------    ---------------------------
 STRT.S             12:17:14 27-Mar-21: START TIME 12:17:14 27-Mar-21
 STOP.S             12:24:16 27-Mar-21: STOP TIME  12:24:16 27-Mar-21
 STEP.S                   0.00: STEP TIME
 NULL.                 -999.25: NULL VALUE
 DFWT.                        :  DIST FWL TEXT
 DFST.                        :  DIST FSL TEXT
 DMF .             Drill Floor:  DRILL MEAS FROM
 STIM.      20.26.40 11-Mar-21:  START TIME
 DATE.      20.26.40 30-Mar-21:  END TIME
 SPUD.               11-Mar-21:  SPUD DATE
 NREF.                    Grid:  NORTH REFERENCE
 HPTY.       Minimum Curvature:  HOLE POS TYPE
 DMOD.             Drill Model:  DRILL MOD DESC
 SVYD.                  Survey:  SURVEY DESC
 ILTD.               Lithology:  INTERP LTH DESC
 FTOP.          Formation Tops:  FORM TOPS DESC
 SON .        AZ-XX-0906805385:  JOB NUMBER
 WTYP.                Deviated:  WELL TYPE
 COMP.     BP Exploration (Caspian Sea) Ltd.:  COMPANY
 UWI .            /AZE00000198:  UNIQUE WELL IDENTIFIER
 API .            /AZE00000198:  API NUMBER
 BASE.              Azerbaijan:  LOGGING EQUIPMENT BASE LOCATION
 REGN.                   EESSA:  REGION
 PROV.                    Baku:  PROVINCE
 STAT.                    Baku:  STATE NAME
 CTRY.              Azerbaijan:  COUNTRY NAME
 FLD .                     ACG:  FIELD NAME
 SRVC.     Turan Drilling & Engineering:  CONTRACTOR
 MWDS.                    Baku:  MWD SHOP
 WELL.                    D09z:  WELL NAME
 JOBN.        AZ-XX-0906805385:  JOB TICKET NUMB
 RIG .              East Azeri:  RIG NAME
 DOE .                     N/A:  DOE NUMBER
 DCON.         Sperry Drilling:  DIRECTNL CONTR
 UNIT.                     N/A:  LOGGING EQUIPMENT ID
 PDAT.          Mean Sea Level:  PERMANENT DATUM
 MDS .        Operator Entered:  MAG DATA SOURCE
 CNTY.                        :  COUNTY
 LOC .                        :  LOCATION
 LMF .             Drill Floor:  LOG MEASURED FROM
 TVDS.m                  43.60:  TVDSS CORRECTN
 LATI.deg                40.02:  LATITUDE
 LONG.deg                51.45:  LONGITUDE
 WHNS.m                 -17.04:  WELL HEAD N/S
 WHEW.m                  -6.28:  WELL HEAD E/W
 UTMX.m              538763.98:  UTM X
 UTMY.m             4431880.20:  UTM Y
 DFWL.m                   0.00:  DISTANCE FWL
 DFSL.m                   0.00:  DISTANCE FSL
 SDEP.m                2680.01:  START DEPTH
 TDD .m                4000.01:  TOTAL DEPTH (DRILLER)
 VSDR.deg               225.71:  VERT SEC DIRECT
 GVFD.g                   1.00:  GRAVITY FIELD
 MFLD.nT              50353.00:  MAGNETIC FIELD
 MDIP.deg                59.49:  MAGNETIC DIP
 MDEC.deg                 6.46:  MAGNETIC DECL
 GRDC.deg                 0.29:  GRID CORRECTION
 AZTC.deg                 6.17:  AZM TOTAL CORR
 EPD .m                   0.00:  ELEVATION
 EGL .m                   0.00:  GROUND ELEVATION
 WDMS.m                 151.80:  WD ELEV
 APD .m                  43.60:  DEPTH ABOVE PD
 AGAP.m                  43.60:  AIR GAP
 VSEW.m                  -6.28:  VERT SEC E/W
 VSNS.m                 -17.04:  VERT SEC N/S
 DEP .m                2656.31:  DEPTH
 EKB .m                  43.60:  KB ELEVATION
 EDF .m                  43.60:  DF ELEVATION
 VSC .                       0:  VS TO CLOSURE
 MAGU.                 1851247:  MAGUTM CHECKSUM
~Parameter Information Block
#MNEM.UNIT       Value        Description
#---------     -----------    ---------------------------
 AV  .mps                 3.00:  Ann Velocity 
 AVMX.mps                 8.00:  Max Ann Veloc 
 AZIF.deg                 0.00:  Azm, Final 
 BHAT.                   Other:  BHA Type 
 BREV.rev                 0.00:  Rev Bit Total 
 BROT.°/30m               0.00:  Build Rotating 
 BS  .in                 10.25:  Bit Size 
 BTPL.psig              511.00:  Bit Press Loss 
 CABU.                      No:  Customer Abuse 
 CGEO.           Asif Pashayev:  Customer Geo 
 COMM.                     4'd:  Run Comments 1 
 TCS .hr                 24.03:  Time Ciculation Ended 
 CV  .mps                 3.50:  Crit Velocity 
 CVMX.mps                 4.00:  Max Crit Veloc 
 DD1 .             Aziz Aliyev:  Direct Drillr 1 
 DD2 .      Fakhraddin Guliyev:  Direct Drillr 2 
 DDSV.                   Other:  DD Service 
 DEFF.%                  99.00:  % Det Eff 
 DLRX.°/30m               0.00:  Dogleg Rot Max 
 DLSO.°/30m               0.00:  Dogleg Oriented 
 DLSX.°/30m               0.00:  Dogleg Str Max 
 DRET.      23.00.40 28-Mar-21:  Drill End Time 
 DRST.      23.30.40 25-Mar-21:  Drill Start Tim 
 DTIM.hr                  0.00:  Time Drilling 
 EDEP.m                3886.01:  End Depth 
 ENG1.         Almaz Almadatov:  Engineer 1 
 ENG2.      Artemiy Matviyanov:  Engineer 2 
 ENG3.           Samir Gafarov:  Engineer 3 
 ETIM.      23.00.40 28-Mar-21:  End Time 
 FLOI.gpm               550.00:  Flow In 
 FLON.gpm               500.00:  Flow In Min 
 FLOS.cptm                0.00:  Fluid Loss 
 FLOX.gpm               590.00:  Flow In Max 
 HFLO.                      No:  High Flow 
 HPRE.                      No:  High Pressure 
 HTEM.                      No:  High Temp 
 HYDO.m                   1.80:  Hydro Offset 
 IFIN.deg                 0.00:  Inc, Final 
 IMAX.deg                 0.00:  Inc Max 
 IMIN.deg                 0.00:  Inc Min 
 IMND.m                   0.00:  Inc Min Depth 
 IMXD.m                   0.00:  Inc Max Depth 
 JARR.                      No:  Jarring 
 LETM.      03.22.40 28-Mar-21:  Log End Time 
 LOST.hr                     0:  Lost Rig Time 
 LSTM.      23.30.40 25-Mar-21:  Log Start Time 
 MDCL.ppm             34000.00:  Mud Chlorides 
 MDES.     Inversion Oil/Synthetic:  Mud Desc 
 DFD .sg                  1.51:  Mud Density 
 MDMN.sg                  1.51:  Dens Mud Min 
 MDMX.sg                  1.51:  Dens Mud Max 
 MOIL.                      70:  Run Mud Oil % 
 MOWR.                   70:30:  Run Mud OWR 
 MSND.                     0.2:  Run Mud Sand % 
 MSOL.                   21.60:  Run Mud Solids% 
 DFV .spqt               74.00:  Mud Viscosity 
 MWOD.in                  6.75:  MWD Tool OD 
 MWSI.                      No:  Serv Intrp, MWD 
 OTIM.hr                 69.09:  Time Operating 
 PCON.           Look Like New:  Pad Condition 
 PMAX.psia             3500.00:  Press Op, Max 
 PV  .cP                 70.00:  Mud PV 
 RUN .                     400:  Run Number 
 ROPA.m/hr                0.00:  ROP Avg 
 ROPN.m/hr                0.00:  ROP Min 
 ROPX.m/hr                0.00:  ROP Max 
 RPMA.rpm                80.00:  RPM Surface Avg 
 RPMN.rpm                10.00:  RPM Surface Min 
 RPMX.rpm               100.00:  RPM Surface Max 
 RRUN.                    0400:  Rig Run Number 
 RTIM.hr                  3.00:  Time Reaming 
 SAZI.deg                 0.00:  Azm, Start 
 SDEP.m                3886.01:  Start Depth 
 SIDD.                      No:  Serv Intrp, DD 
 SINC.deg                 0.00:  Inc, Start 
 SPPA.psig             3270.00:  SPP Avg 
 SPPN.psig             3220.00:  SPP Min 
 SPPX.psig             4430.00:  SPP Max 
 STIM.      23.30.40 25-Mar-21:  Start Time 
 SVCS.                 DD, MWD:  Services 
 SVER.                    9.20:  Sperry Version 
 TDAT.m                   0.00:  Tot Depth Attmp 
 TDDF.                      No:  Trip for DD 
 TFF .                      No:  Trip for Fail 
 TQAA.f-kp                8.00:  Torque Abs Avg 
 TQAN.f-kp                7.00:  Torque Abs Min 
 TQAX.f-kp               11.00:  Torque Abs Max 
 TRRT.°/30m               0.00:  Turn Rotating 
 MRT .                  EWR-M5:  Maximum Recorded Temperature 
 TTMX.degC               76.47:  Max Tool Temp 
 VS01.                90640857:  Virtual Str1 SN 
 VS02.                90639246:  Virtual Str2 SN 
 VS03.                90642265:  Virtual Str3 SN 
 VS04.                11654497:  Virtual Str4 SN 
 WBMN.klb                 0.00:  WOB Min 
 WITN.      Kamran Keberlinkiy:  Customer Rep 
 WITN.           Murad Guliyev:  Customer Rep 2 
 WOBA.klb                 0.00:  WOB Avg 
 WOBX.klb                 0.00:  WOB Max 
 YP  .lhf2               36.00:  Yield Point 
~Curve Information Block
#MNEM.UNIT                 API CODE     Curve Description
#---------               -----------    ---------------------------
 TIME.HHMMSS            00 000 000 000:  GT Time & Date
 GTDEPTH.m              00 000 000 000:  GT Depth
 GTPQH.psia             00 000 000 000:  GT HR Quartz Pressure
 GTTQ.degC              00 000 000 000:  GT Quartz Temperature
 GTTN.NONE              00 000 000 000:  GT Test Number
 GTET.sec               00 000 000 000:  GT Elapsed Test Time
 GTTVD.m                00 000 000 000:  GT True Vertical Depth
#Other Information
#
#WARRANTY: Halliburton will use its best efforts to furnish customers with 
#accurate information and interpretations that are part of, and incident to, the services 
#provided.  However, Halliburton cannot and does not warrant the accuracy 
#or correctness of such information and interpretations.  Under no circumstances should any 
#such information or interpretation be relied upon as the sole basis for any drilling, 
#completion, production, or financial decision or any procedure involving any risk to the 
#safety of any drilling venture, drilling rig or its crew or any other third party.  The 
#Customer has full responsibility for all drilling, completion and production operation.  
#Halliburton makes no representations or warranties, either expressed or 
#implied, including, but not limited to, the implied warranties of merchantability or fitness 
#for a particular purpose, with respect to the services rendered.  In no event will 
#Halliburton be liable for failure to obtain any particular results or for 
#any damages, including, but not limited to, indirect, special or consequential damages, 
#resulting from the use of any information or interpretation provided by Halliburton.
#
~A           TIME           GTDEPTH  GTPQH  GTTQ  GTTN   GTET   GTTVD  
# ...
   12:19:53.034.27-Mar-2021 3369.01 4846.32 61.87 12.00 158.31 3116.52
   12:19:53.235.27-Mar-2021 3369.01 4846.55 61.87 12.00 158.51 3116.52
   12:19:53.435.27-Mar-2021 3369.01 4846.58 61.87 12.00 158.71 3116.52
   12:19:53.635.27-Mar-2021 3369.01 4846.71 61.87 12.00 158.91 3116.52
   12:19:53.835.27-Mar-2021 3369.01 4846.72 61.87 12.00 159.11 3116.52
   12:19:54.035.27-Mar-2021 3369.01 4846.72 61.87 12.00 159.31 3116.52
   12:19:54.235.27-Mar-2021 3369.01 4846.44 61.87 12.00 159.51 3116.52
   12:19:54.435.27-Mar-2021 3369.01 4846.12 61.87 12.00 159.71 3116.52
   12:19:54.636.27-Mar-2021 3369.01 4846.81 61.87 12.00 159.91 3116.52
   12:19:54.836.27-Mar-2021 3369.01 4846.77 61.87 12.00 160.11 3116.52
   12:19:55.036.27-Mar-2021 3369.01 4846.77 61.87 12.00 160.31 3116.52
   12:19:55.236.27-Mar-2021 3369.01 4846.07 61.87 12.00 160.51 3116.52
   12:19:55.436.27-Mar-2021 3369.01 4846.44 61.87 12.00 160.71 3116.52
   12:19:55.636.27-Mar-2021 3369.01 4805.14 61.87 12.00 160.91 3116.52
   12:19:55.836.27-Mar-2021 3369.01 4120.54 61.87 12.00 161.11 3116.52
   12:19:56.037.27-Mar-2021 3369.01 4120.54 61.87 12.00 161.31 3116.52
   12:19:56.237.27-Mar-2021 3369.01 2871.46 61.87 12.00 161.51 3116.52
   12:19:56.437.27-Mar-2021 3369.01 2438.15 61.87 12.00 161.71 3116.52
   12:19:56.637.27-Mar-2021 3369.01 2094.09 61.87 12.00 161.91 3116.52
   12:19:56.837.27-Mar-2021 3369.01 1862.06 61.87 12.00 162.11 3116.52
   12:19:57.037.27-Mar-2021 3369.01 1862.06 61.87 12.00 162.31 3116.52
   12:19:57.237.27-Mar-2021 3369.01 1780.12 61.87 12.00 162.51 3116.52
   12:19:57.438.27-Mar-2021 3369.01 1772.41 61.87 12.00 162.72 3116.52
   12:19:57.638.27-Mar-2021 3369.01 1773.62 61.86 12.00 162.92 3116.52
   12:19:57.838.27-Mar-2021 3369.01 1770.37 61.86 12.00 163.12 3116.52
   12:19:58.038.27-Mar-2021 3369.01 1770.37 61.86 12.00 163.32 3116.52
   12:19:58.238.27-Mar-2021 3369.01 1764.49 61.86 12.00 163.52 3116.52
   12:19:58.438.27-Mar-2021 3369.01 1765.04 61.86 12.00 163.72 3116.52
   12:19:58.638.27-Mar-2021 3369.01 1764.00 61.86 12.00 163.92 3116.52
   12:19:58.839.27-Mar-2021 3369.01 1762.36 61.85 12.00 164.12 3116.52
   12:19:59.039.27-Mar-2021 3369.01 1762.36 61.85 12.00 164.32 3116.52
   12:19:59.239.27-Mar-2021 3369.01 1775.36 61.85 12.00 164.52 3116.52
   12:19:59.439.27-Mar-2021 3369.01 1771.16 61.85 12.00 164.72 3116.52
   12:19:59.639.27-Mar-2021 3369.01 1768.12 61.85 12.00 164.92 3116.52
   12:19:59.839.27-Mar-2021 3369.01 1769.10 61.84 12.00 165.12 3116.52
   12:20:00.039.27-Mar-2021 3369.01 1769.10 61.84 12.00 165.32 3116.52
   12:20:00.240.27-Mar-2021 3369.01 1756.55 61.84 12.00 165.52 3116.52
   12:20:00.440.27-Mar-2021 3369.01 1749.70 61.84 12.00 165.72 3116.52
   12:20:00.640.27-Mar-2021 3369.01 1744.50 61.83 12.00 165.92 3116.52
   12:20:00.840.27-Mar-2021 3369.01 1740.00 61.83 12.00 166.12 3116.52
   12:20:01.040.27-Mar-2021 3369.01 1740.00 61.83 12.00 166.32 3116.52
   12:20:01.240.27-Mar-2021 3369.01 1740.07 61.83 12.00 166.52 3116.52
   12:20:01.440.27-Mar-2021 3369.01 1740.22 61.83 12.00 166.72 3116.52
   12:20:01.641.27-Mar-2021 3369.01 1741.18 61.82 12.00 166.92 3116.52
   12:20:01.841.27-Mar-2021 3369.01 1740.39 61.82 12.00 167.12 3116.52
   12:20:02.041.27-Mar-2021 3369.01 1740.39 61.82 12.00 167.32 3116.52
   12:20:02.241.27-Mar-2021 3369.01 1743.53 61.82 12.00 167.52 3116.52
   12:20:02.441.27-Mar-2021 3369.01 1733.89 61.82 12.00 167.72 3116.52
   12:20:02.641.27-Mar-2021 3369.01 1726.67 61.81 12.00 167.92 3116.52
   12:20:02.841.27-Mar-2021 3369.01 1719.06 61.81 12.00 168.12 3116.52
   12:20:03.042.27-Mar-2021 3369.01 1719.06 61.81 12.00 168.32 3116.52
   12:20:03.242.27-Mar-2021 3369.01 1723.05 61.81 12.00 168.52 3116.52
   12:20:03.442.27-Mar-2021 3369.01 1728.21 61.81 12.00 168.72 3116.52
   12:20:03.642.27-Mar-2021 3369.01 1728.43 61.80 12.00 168.92 3116.52
   12:20:03.842.27-Mar-2021 3369.01 1725.75 61.80 12.00 169.12 3116.52
   12:20:04.042.27-Mar-2021 3369.01 1725.75 61.80 12.00 169.32 3116.52
   12:20:04.242.27-Mar-2021 3369.01 1719.06 61.80 12.00 169.52 3116.52
   12:20:04.443.27-Mar-2021 3369.01 1717.81 61.80 12.00 169.72 3116.52
   12:20:04.643.27-Mar-2021 3369.01 1715.19 61.80 12.00 169.92 3116.52
   12:20:04.843.27-Mar-2021 3369.01 1703.61 61.80 12.00 170.12 3116.52
   12:20:05.043.27-Mar-2021 3369.01 1703.61 61.80 12.00 170.32 3116.52
   12:20:05.243.27-Mar-2021 3369.01 1688.92 61.79 12.00 170.52 3116.52
   12:20:05.443.27-Mar-2021 3369.01 1688.80 61.79 12.00 170.72 3116.52
   12:20:05.643.27-Mar-2021 3369.01 1690.86 61.79 12.00 170.92 3116.52
   12:20:05.844.27-Mar-2021 3369.01 1749.76 61.79 12.00 171.12 3116.52
   12:20:06.044.27-Mar-2021 3369.01 1749.76 61.79 12.00 171.32 3116.52
   12:20:06.244.27-Mar-2021 3369.01 2284.31 61.79 12.00 171.52 3116.52
   12:20:06.444.27-Mar-2021 3369.01 2530.53 61.79 12.00 171.72 3116.52
   12:20:06.644.27-Mar-2021 3369.01 2746.76 61.79 12.00 171.92 3116.52
   12:20:06.844.27-Mar-2021 3369.01 2938.70 61.79 12.00 172.12 3116.52
   12:20:07.044.27-Mar-2021 3369.01 2938.70 61.79 12.00 172.32 3116.52
   12:20:07.244.27-Mar-2021 3369.01 3261.99 61.79 12.00 172.52 3116.52
   12:20:07.445.27-Mar-2021 3369.01 3398.19 61.79 12.00 172.72 3116.52
   12:20:07.645.27-Mar-2021 3369.01 3521.45 61.79 12.00 172.92 3116.52
   12:20:07.845.27-Mar-2021 3369.01 3631.84 61.79 12.00 173.12 3116.52
   12:20:08.045.27-Mar-2021 3369.01 3631.84 61.79 12.00 173.32 3116.52
   12:20:08.245.27-Mar-2021 3369.01 3821.58 61.79 12.00 173.52 3116.52
   12:20:08.445.27-Mar-2021 3369.01 3902.18 61.79 12.00 173.72 3116.52
   12:20:08.645.27-Mar-2021 3369.01 3976.48 61.79 12.00 173.92 3116.52
   12:20:08.846.27-Mar-2021 3369.01 4043.76 61.79 12.00 174.12 3116.52
   12:20:09.046.27-Mar-2021 3369.01 4043.76 61.79 12.00 174.32 3116.52
   12:20:09.246.27-Mar-2021 3369.01 4160.37 61.79 12.00 174.52 3116.52
   12:20:09.446.27-Mar-2021 3369.01 4210.87 61.79 12.00 174.72 3116.52
   12:20:09.646.27-Mar-2021 3369.01 4256.97 61.79 12.00 174.92 3116.52
   12:20:09.846.27-Mar-2021 3369.01 4299.36 61.79 12.00 175.12 3116.52
   12:20:10.046.27-Mar-2021 3369.01 4299.36 61.79 12.00 175.32 3116.52
   12:20:10.247.27-Mar-2021 3369.01 4373.38 61.79 12.00 175.52 3116.52
   12:20:10.447.27-Mar-2021 3369.01 4405.45 61.80 12.00 175.72 3116.52
   12:20:10.647.27-Mar-2021 3369.01 4435.16 61.80 12.00 175.92 3116.52
   12:20:10.847.27-Mar-2021 3369.01 4463.15 61.80 12.00 176.12 3116.52
   12:20:11.047.27-Mar-2021 3369.01 4463.15 61.80 12.00 176.32 3116.52
   12:20:11.247.27-Mar-2021 3369.01 4512.18 61.80 12.00 176.52 3116.52
   12:20:11.447.27-Mar-2021 3369.01 4533.79 61.80 12.00 176.72 3116.52
   12:20:11.648.27-Mar-2021 3369.01 4552.86 61.80 12.00 176.93 3116.52
   12:20:11.848.27-Mar-2021 3369.01 4571.57 61.81 12.00 177.13 3116.52
   12:20:12.048.27-Mar-2021 3369.01 4571.57 61.81 12.00 177.33 3116.52
   12:20:12.248.27-Mar-2021 3369.01 4603.29 61.81 12.00 177.53 3116.52
   12:20:12.448.27-Mar-2021 3369.01 4618.58 61.81 12.00 177.73 3116.52
   12:20:12.648.27-Mar-2021 3369.01 4632.03 61.81 12.00 177.93 3116.52
   12:20:12.848.27-Mar-2021 3369.01 4644.79 61.81 12.00 178.13 3116.52
   12:20:13.049.27-Mar-2021 3369.01 4644.79 61.81 12.00 178.33 3116.52
   12:20:13.249.27-Mar-2021 3369.01 4667.12 61.82 12.00 178.53 3116.52
   12:20:13.449.27-Mar-2021 3369.01 4677.66 61.82 12.00 178.73 3116.52
   12:20:13.649.27-Mar-2021 3369.01 4686.67 61.82 12.00 178.93 3116.52
   12:20:13.849.27-Mar-2021 3369.01 4695.37 61.82 12.00 179.13 3116.52
   12:20:14.049.27-Mar-2021 3369.01 4695.37 61.82 12.00 179.33 3116.52
   12:20:14.249.27-Mar-2021 3369.01 4711.42 61.82 12.00 179.53 3116.52
   12:20:14.450.27-Mar-2021 3369.01 4718.53 61.83 12.00 179.73 3116.52
   12:20:14.650.27-Mar-2021 3369.01 4725.57 61.83 12.00 179.93 3116.52
   12:20:14.850.27-Mar-2021 3369.01 4731.66 61.83 12.00 180.13 3116.52
   12:20:15.050.27-Mar-2021 3369.01 4731.66 61.83 12.00 180.33 3116.52
   12:20:15.250.27-Mar-2021 3369.01 4742.63 61.83 12.00 180.53 3116.52
   12:20:15.450.27-Mar-2021 3369.01 4747.61 61.83 12.00 180.73 3116.52
