~Version Information
 VERS.                  2.0:   CWLS log ASCII Standard -VERSION 2.0
 WRAP.                   NO:   One line per depth step
~Well Information Block
#MNEM.UNIT     VALUE/NAME     DESCRIPTION
#---------     -----------    ---------------------------
 STRT.S             03:27:53 27-Mar-21: START TIME 03:27:53 27-Mar-21
 STOP.S             03:35:02 27-Mar-21: STOP TIME  03:35:02 27-Mar-21
 STEP.S                   0.00: STEP TIME
 NULL.                 -999.25: NULL VALUE
 DFWT.                        :  DIST FWL TEXT
 DFST.                        :  DIST FSL TEXT
 DMF .             Drill Floor:  DRILL MEAS FROM
 STIM.      20.26.40 11-Mar-21:  START TIME
 DATE.      20.26.40 30-Mar-21:  END TIME
 SPUD.               11-Mar-21:  SPUD DATE
 NREF.                    Grid:  NORTH REFERENCE
 HPTY.       Minimum Curvature:  HOLE POS TYPE
 DMOD.             Drill Model:  DRILL MOD DESC
 SVYD.                  Survey:  SURVEY DESC
 ILTD.               Lithology:  INTERP LTH DESC
 FTOP.          Formation Tops:  FORM TOPS DESC
 SON .        AZ-XX-0906805385:  JOB NUMBER
 WTYP.                Deviated:  WELL TYPE
 COMP.     BP Exploration (Caspian Sea) Ltd.:  COMPANY
 UWI .            /AZE00000198:  UNIQUE WELL IDENTIFIER
 API .            /AZE00000198:  API NUMBER
 BASE.              Azerbaijan:  LOGGING EQUIPMENT BASE LOCATION
 REGN.                   EESSA:  REGION
 PROV.                    Baku:  PROVINCE
 STAT.                    Baku:  STATE NAME
 CTRY.              Azerbaijan:  COUNTRY NAME
 FLD .                     ACG:  FIELD NAME
 SRVC.     Turan Drilling & Engineering:  CONTRACTOR
 MWDS.                    Baku:  MWD SHOP
 WELL.                    D09z:  WELL NAME
 JOBN.        AZ-XX-0906805385:  JOB TICKET NUMB
 RIG .              East Azeri:  RIG NAME
 DOE .                     N/A:  DOE NUMBER
 DCON.         Sperry Drilling:  DIRECTNL CONTR
 UNIT.                     N/A:  LOGGING EQUIPMENT ID
 PDAT.          Mean Sea Level:  PERMANENT DATUM
 MDS .        Operator Entered:  MAG DATA SOURCE
 CNTY.                        :  COUNTY
 LOC .                        :  LOCATION
 LMF .             Drill Floor:  LOG MEASURED FROM
 TVDS.m                  43.60:  TVDSS CORRECTN
 LATI.deg                40.02:  LATITUDE
 LONG.deg                51.45:  LONGITUDE
 WHNS.m                 -17.04:  WELL HEAD N/S
 WHEW.m                  -6.28:  WELL HEAD E/W
 UTMX.m              538763.98:  UTM X
 UTMY.m             4431880.20:  UTM Y
 DFWL.m                   0.00:  DISTANCE FWL
 DFSL.m                   0.00:  DISTANCE FSL
 SDEP.m                2680.01:  START DEPTH
 TDD .m                4000.01:  TOTAL DEPTH (DRILLER)
 VSDR.deg               225.71:  VERT SEC DIRECT
 GVFD.g                   1.00:  GRAVITY FIELD
 MFLD.nT              50353.00:  MAGNETIC FIELD
 MDIP.deg                59.49:  MAGNETIC DIP
 MDEC.deg                 6.46:  MAGNETIC DECL
 GRDC.deg                 0.29:  GRID CORRECTION
 AZTC.deg                 6.17:  AZM TOTAL CORR
 EPD .m                   0.00:  ELEVATION
 EGL .m                   0.00:  GROUND ELEVATION
 WDMS.m                 151.80:  WD ELEV
 APD .m                  43.60:  DEPTH ABOVE PD
 AGAP.m                  43.60:  AIR GAP
 VSEW.m                  -6.28:  VERT SEC E/W
 VSNS.m                 -17.04:  VERT SEC N/S
 DEP .m                2656.31:  DEPTH
 EKB .m                  43.60:  KB ELEVATION
 EDF .m                  43.60:  DF ELEVATION
 VSC .                       0:  VS TO CLOSURE
 MAGU.                 1851247:  MAGUTM CHECKSUM
~Parameter Information Block
#MNEM.UNIT       Value        Description
#---------     -----------    ---------------------------
 AV  .mps                 3.00:  Ann Velocity 
 AVMX.mps                 8.00:  Max Ann Veloc 
 AZIF.deg                 0.00:  Azm, Final 
 BHAT.                   Other:  BHA Type 
 BREV.rev                 0.00:  Rev Bit Total 
 BROT.°/30m               0.00:  Build Rotating 
 BS  .in                 10.25:  Bit Size 
 BTPL.psig              511.00:  Bit Press Loss 
 CABU.                      No:  Customer Abuse 
 CGEO.           Asif Pashayev:  Customer Geo 
 COMM.                     ¼Fy:  Run Comments 1 
 TCS .hr                 24.03:  Time Ciculation Ended 
 CV  .mps                 3.50:  Crit Velocity 
 CVMX.mps                 4.00:  Max Crit Veloc 
 DD1 .             Aziz Aliyev:  Direct Drillr 1 
 DD2 .      Fakhraddin Guliyev:  Direct Drillr 2 
 DDSV.                   Other:  DD Service 
 DEFF.%                  99.00:  % Det Eff 
 DLRX.°/30m               0.00:  Dogleg Rot Max 
 DLSO.°/30m               0.00:  Dogleg Oriented 
 DLSX.°/30m               0.00:  Dogleg Str Max 
 DRET.      23.00.40 28-Mar-21:  Drill End Time 
 DRST.      23.30.40 25-Mar-21:  Drill Start Tim 
 DTIM.hr                  0.00:  Time Drilling 
 EDEP.m                3886.01:  End Depth 
 ENG1.         Almaz Almadatov:  Engineer 1 
 ENG2.      Artemiy Matviyanov:  Engineer 2 
 ENG3.           Samir Gafarov:  Engineer 3 
 ETIM.      23.00.40 28-Mar-21:  End Time 
 FLOI.gpm               550.00:  Flow In 
 FLON.gpm               500.00:  Flow In Min 
 FLOS.cptm                0.00:  Fluid Loss 
 FLOX.gpm               590.00:  Flow In Max 
 HFLO.                      No:  High Flow 
 HPRE.                      No:  High Pressure 
 HTEM.                      No:  High Temp 
 HYDO.m                   1.80:  Hydro Offset 
 IFIN.deg                 0.00:  Inc, Final 
 IMAX.deg                 0.00:  Inc Max 
 IMIN.deg                 0.00:  Inc Min 
 IMND.m                   0.00:  Inc Min Depth 
 IMXD.m                   0.00:  Inc Max Depth 
 JARR.                      No:  Jarring 
 LETM.      03.22.40 28-Mar-21:  Log End Time 
 LOST.hr                     0:  Lost Rig Time 
 LSTM.      23.30.40 25-Mar-21:  Log Start Time 
 MDCL.ppm             34000.00:  Mud Chlorides 
 MDES.     Inversion Oil/Synthetic:  Mud Desc 
 DFD .sg                  1.51:  Mud Density 
 MDMN.sg                  1.51:  Dens Mud Min 
 MDMX.sg                  1.51:  Dens Mud Max 
 MOIL.                      70:  Run Mud Oil % 
 MOWR.                   70:30:  Run Mud OWR 
 MSND.                     0.2:  Run Mud Sand % 
 MSOL.                   21.60:  Run Mud Solids% 
 DFV .spqt               74.00:  Mud Viscosity 
 MWOD.in                  6.75:  MWD Tool OD 
 MWSI.                      No:  Serv Intrp, MWD 
 OTIM.hr                 69.09:  Time Operating 
 PCON.           Look Like New:  Pad Condition 
 PMAX.psia             3500.00:  Press Op, Max 
 PV  .cP                 70.00:  Mud PV 
 RUN .                     400:  Run Number 
 ROPA.m/hr                0.00:  ROP Avg 
 ROPN.m/hr                0.00:  ROP Min 
 ROPX.m/hr                0.00:  ROP Max 
 RPMA.rpm                80.00:  RPM Surface Avg 
 RPMN.rpm                10.00:  RPM Surface Min 
 RPMX.rpm               100.00:  RPM Surface Max 
 RRUN.                    0400:  Rig Run Number 
 RTIM.hr                  3.00:  Time Reaming 
 SAZI.deg                 0.00:  Azm, Start 
 SDEP.m                3886.01:  Start Depth 
 SIDD.                      No:  Serv Intrp, DD 
 SINC.deg                 0.00:  Inc, Start 
 SPPA.psig             3270.00:  SPP Avg 
 SPPN.psig             3220.00:  SPP Min 
 SPPX.psig             4430.00:  SPP Max 
 STIM.      23.30.40 25-Mar-21:  Start Time 
 SVCS.                 DD, MWD:  Services 
 SVER.                    9.20:  Sperry Version 
 TDAT.m                   0.00:  Tot Depth Attmp 
 TDDF.                      No:  Trip for DD 
 TFF .                      No:  Trip for Fail 
 TQAA.f-kp                8.00:  Torque Abs Avg 
 TQAN.f-kp                7.00:  Torque Abs Min 
 TQAX.f-kp               11.00:  Torque Abs Max 
 TRRT.°/30m               0.00:  Turn Rotating 
 MRT .                  EWR-M5:  Maximum Recorded Temperature 
 TTMX.degC               76.47:  Max Tool Temp 
 VS01.                90640857:  Virtual Str1 SN 
 VS02.                90639246:  Virtual Str2 SN 
 VS03.                90642265:  Virtual Str3 SN 
 VS04.                11654497:  Virtual Str4 SN 
 WBMN.klb                 0.00:  WOB Min 
 WITN.      Kamran Keberlinkiy:  Customer Rep 
 WITN.           Murad Guliyev:  Customer Rep 2 
 WOBA.klb                 0.00:  WOB Avg 
 WOBX.klb                 0.00:  WOB Max 
 YP  .lhf2               36.00:  Yield Point 
~Curve Information Block
#MNEM.UNIT                 API CODE     Curve Description
#---------               -----------    ---------------------------
 TIME.HHMMSS            00 000 000 000:  GT Time & Date
 GTDEPTH.m              00 000 000 000:  GT Depth
 GTPQH.psia             00 000 000 000:  GT HR Quartz Pressure
 GTTQ.degC              00 000 000 000:  GT Quartz Temperature
 GTTN.NONE              00 000 000 000:  GT Test Number
 GTET.sec               00 000 000 000:  GT Elapsed Test Time
 GTTVD.m                00 000 000 000:  GT True Vertical Depth
#Other Information
#
#WARRANTY: Halliburton will use its best efforts to furnish customers with 
#accurate information and interpretations that are part of, and incident to, the services 
#provided.  However, Halliburton cannot and does not warrant the accuracy 
#or correctness of such information and interpretations.  Under no circumstances should any 
#such information or interpretation be relied upon as the sole basis for any drilling, 
#completion, production, or financial decision or any procedure involving any risk to the 
#safety of any drilling venture, drilling rig or its crew or any other third party.  The 
#Customer has full responsibility for all drilling, completion and production operation.  
#Halliburton makes no representations or warranties, either expressed or 
#implied, including, but not limited to, the implied warranties of merchantability or fitness 
#for a particular purpose, with respect to the services rendered.  In no event will 
#Halliburton be liable for failure to obtain any particular results or for 
#any damages, including, but not limited to, indirect, special or consequential damages, 
#resulting from the use of any information or interpretation provided by Halliburton.
#
~A           TIME           GTDEPTH  GTPQH  GTTQ  GTTN  GTET   GTTVD  
# ...
   03:32:52.164.27-Mar-2021 3725.51 5265.12 61.45 3.00 299.04 3451.28
   03:32:52.364.27-Mar-2021 3725.51 5265.12 61.45 3.00 299.24 3451.28
   03:32:52.565.27-Mar-2021 3725.51 5265.58 61.45 3.00 299.44 3451.28
   03:32:52.765.27-Mar-2021 3725.51 5265.16 61.45 3.00 299.64 3451.28
   03:32:52.965.27-Mar-2021 3725.51 5265.34 61.45 3.00 299.84 3451.28
   03:32:53.165.27-Mar-2021 3725.51 5265.40 61.45 3.00 300.04 3451.28
   03:32:53.365.27-Mar-2021 3725.51 5265.40 61.45 3.00 300.24 3451.28
   03:32:53.565.27-Mar-2021 3725.51 5265.17 61.45 3.00 300.44 3451.28
   03:32:53.765.27-Mar-2021 3725.51 5265.41 61.45 3.00 300.64 3451.28
   03:32:53.965.27-Mar-2021 3725.51 5265.47 61.45 3.00 300.84 3451.28
   03:32:54.165.27-Mar-2021 3725.51 5265.05 61.45 3.00 301.04 3451.28
   03:32:54.365.27-Mar-2021 3725.51 5265.05 61.45 3.00 301.24 3451.28
   03:32:54.565.27-Mar-2021 3725.51 5265.38 61.45 3.00 301.44 3451.28
   03:32:54.765.27-Mar-2021 3725.51 5265.20 61.45 3.00 301.64 3451.28
   03:32:54.965.27-Mar-2021 3725.51 5265.50 61.45 3.00 301.84 3451.28
   03:32:55.165.27-Mar-2021 3725.51 5265.19 61.45 3.00 302.04 3451.28
   03:32:55.365.27-Mar-2021 3725.51 5265.19 61.45 3.00 302.24 3451.28
   03:32:55.565.27-Mar-2021 3725.51 5265.41 61.45 3.00 302.44 3451.28
   03:32:55.765.27-Mar-2021 3725.51 5265.24 61.45 3.00 302.64 3451.28
   03:32:55.965.27-Mar-2021 3725.51 5265.21 61.45 3.00 302.84 3451.28
   03:32:56.165.27-Mar-2021 3725.51 5265.37 61.45 3.00 303.04 3451.28
   03:32:56.365.27-Mar-2021 3725.51 5265.37 61.45 3.00 303.24 3451.28
   03:32:56.565.27-Mar-2021 3725.51 5265.23 61.45 3.00 303.44 3451.28
   03:32:56.765.27-Mar-2021 3725.51 5265.29 61.45 3.00 303.64 3451.28
   03:32:56.965.27-Mar-2021 3725.51 5265.29 61.45 3.00 303.84 3451.28
   03:32:57.165.27-Mar-2021 3725.51 5265.22 61.45 3.00 304.04 3451.28
   03:32:57.365.27-Mar-2021 3725.51 5265.22 61.45 3.00 304.24 3451.28
   03:32:57.565.27-Mar-2021 3725.51 5265.29 61.45 3.00 304.44 3451.28
   03:32:57.765.27-Mar-2021 3725.51 5265.23 61.45 3.00 304.64 3451.28
   03:32:57.965.27-Mar-2021 3725.51 5265.20 61.45 3.00 304.84 3451.28
   03:32:58.165.27-Mar-2021 3725.51 5265.50 61.45 3.00 305.04 3451.28
   03:32:58.365.27-Mar-2021 3725.51 5265.50 61.45 3.00 305.24 3451.28
   03:32:58.565.27-Mar-2021 3725.51 5265.11 61.45 3.00 305.44 3451.28
   03:32:58.765.27-Mar-2021 3725.51 5265.41 61.45 3.00 305.64 3451.28
   03:32:58.965.27-Mar-2021 3725.51 5265.32 61.45 3.00 305.84 3451.28
   03:32:59.165.27-Mar-2021 3725.51 5265.17 61.45 3.00 306.04 3451.28
   03:32:59.365.27-Mar-2021 3725.51 5265.17 61.45 3.00 306.24 3451.28
   03:32:59.565.27-Mar-2021 3725.51 5265.24 61.45 3.00 306.44 3451.28
   03:32:59.765.27-Mar-2021 3725.51 5265.31 61.45 3.00 306.64 3451.28
   03:32:59.965.27-Mar-2021 3725.51 5265.26 61.45 3.00 306.84 3451.28
   03:33:00.165.27-Mar-2021 3725.51 5265.22 61.45 3.00 307.04 3451.28
   03:33:00.365.27-Mar-2021 3725.51 5265.22 61.45 3.00 307.24 3451.28
   03:33:00.566.27-Mar-2021 3725.51 5265.25 61.45 3.00 307.44 3451.28
   03:33:00.766.27-Mar-2021 3725.51 5265.24 61.45 3.00 307.64 3451.28
   03:33:00.966.27-Mar-2021 3725.51 5265.29 61.45 3.00 307.84 3451.28
   03:33:01.166.27-Mar-2021 3725.51 5265.41 61.45 3.00 308.04 3451.28
   03:33:01.366.27-Mar-2021 3725.51 5265.41 61.45 3.00 308.24 3451.28
   03:33:01.566.27-Mar-2021 3725.51 5265.11 61.45 3.00 308.44 3451.28
   03:33:01.766.27-Mar-2021 3725.51 5265.36 61.45 3.00 308.64 3451.28
   03:33:01.966.27-Mar-2021 3725.51 5265.32 61.45 3.00 308.84 3451.28
   03:33:02.166.27-Mar-2021 3725.51 5265.23 61.45 3.00 309.04 3451.28
   03:33:02.366.27-Mar-2021 3725.51 5265.23 61.45 3.00 309.24 3451.28
   03:33:02.566.27-Mar-2021 3725.51 5265.21 61.45 3.00 309.44 3451.28
   03:33:02.766.27-Mar-2021 3725.51 5265.10 61.45 3.00 309.64 3451.28
   03:33:02.966.27-Mar-2021 3725.51 5265.29 61.45 3.00 309.84 3451.28
   03:33:03.166.27-Mar-2021 3725.51 5265.59 61.45 3.00 310.04 3451.28
   03:33:03.366.27-Mar-2021 3725.51 5265.59 61.45 3.00 310.24 3451.28
   03:33:03.566.27-Mar-2021 3725.51 5264.99 61.45 3.00 310.44 3451.28
   03:33:03.766.27-Mar-2021 3725.51 5265.29 61.45 3.00 310.64 3451.28
   03:33:03.966.27-Mar-2021 3725.51 5265.40 61.45 3.00 310.84 3451.28
   03:33:04.166.27-Mar-2021 3725.51 5265.10 61.45 3.00 311.04 3451.28
   03:33:04.366.27-Mar-2021 3725.51 5265.10 61.45 3.00 311.24 3451.28
   03:33:04.566.27-Mar-2021 3725.51 5265.18 61.45 3.00 311.44 3451.28
   03:33:04.766.27-Mar-2021 3725.51 5265.31 61.45 3.00 311.64 3451.28
   03:33:04.966.27-Mar-2021 3725.51 5265.39 61.45 3.00 311.84 3451.28
   03:33:05.166.27-Mar-2021 3725.51 5265.08 61.45 3.00 312.04 3451.28
   03:33:05.366.27-Mar-2021 3725.51 5265.08 61.45 3.00 312.24 3451.28
   03:33:05.566.27-Mar-2021 3725.51 5265.35 61.45 3.00 312.44 3451.28
   03:33:05.766.27-Mar-2021 3725.51 5265.27 61.45 3.00 312.64 3451.28
   03:33:05.966.27-Mar-2021 3725.51 5265.26 61.45 3.00 312.84 3451.28
   03:33:06.166.27-Mar-2021 3725.51 5265.27 61.45 3.00 313.04 3451.28
   03:33:06.366.27-Mar-2021 3725.51 5265.27 61.45 3.00 313.24 3451.28
   03:33:06.566.27-Mar-2021 3725.51 5265.21 61.45 3.00 313.44 3451.28
   03:33:06.766.27-Mar-2021 3725.51 5265.28 61.45 3.00 313.64 3451.28
   03:33:06.966.27-Mar-2021 3725.51 5265.31 61.45 3.00 313.84 3451.28
   03:33:07.166.27-Mar-2021 3725.51 5265.27 61.45 3.00 314.04 3451.28
   03:33:07.366.27-Mar-2021 3725.51 5265.27 61.45 3.00 314.24 3451.28
   03:33:07.566.27-Mar-2021 3725.51 5265.49 61.45 3.00 314.44 3451.28
   03:33:07.766.27-Mar-2021 3725.51 5265.06 61.45 3.00 314.64 3451.28
   03:33:07.966.27-Mar-2021 3725.51 5265.34 61.45 3.00 314.84 3451.28
   03:33:08.166.27-Mar-2021 3725.51 5265.43 61.45 3.00 315.04 3451.28
   03:33:08.366.27-Mar-2021 3725.51 5265.43 61.45 3.00 315.24 3451.28
   03:33:08.567.27-Mar-2021 3725.51 5265.22 61.45 3.00 315.44 3451.28
   03:33:08.767.27-Mar-2021 3725.51 5265.27 61.45 3.00 315.64 3451.28
   03:33:08.967.27-Mar-2021 3725.51 5265.27 61.45 3.00 315.84 3451.28
   03:33:09.167.27-Mar-2021 3725.51 5265.31 61.45 3.00 316.04 3451.28
   03:33:09.367.27-Mar-2021 3725.51 5265.31 61.45 3.00 316.24 3451.28
   03:33:09.567.27-Mar-2021 3725.51 5265.25 61.45 3.00 316.44 3451.28
   03:33:09.767.27-Mar-2021 3725.51 5265.32 61.45 3.00 316.64 3451.28
   03:33:09.967.27-Mar-2021 3725.51 5265.24 61.45 3.00 316.84 3451.28
   03:33:10.167.27-Mar-2021 3725.51 5265.26 61.45 3.00 317.04 3451.28
   03:33:10.367.27-Mar-2021 3725.51 5265.26 61.45 3.00 317.24 3451.28
   03:33:10.567.27-Mar-2021 3725.51 5265.42 61.45 3.00 317.44 3451.28
   03:33:10.767.27-Mar-2021 3725.51 5265.10 61.45 3.00 317.64 3451.28
   03:33:10.967.27-Mar-2021 3725.51 5265.30 61.45 3.00 317.84 3451.28
   03:33:11.167.27-Mar-2021 3725.51 5265.38 61.45 3.00 318.04 3451.28
   03:33:11.367.27-Mar-2021 3725.51 5265.38 61.45 3.00 318.24 3451.28
   03:33:11.567.27-Mar-2021 3725.51 5265.30 61.45 3.00 318.44 3451.28
   03:33:11.767.27-Mar-2021 3725.51 5265.41 61.45 3.00 318.64 3451.28
   03:33:11.967.27-Mar-2021 3725.51 5265.02 61.45 3.00 318.84 3451.28
   03:33:12.167.27-Mar-2021 3725.51 5265.29 61.45 3.00 319.04 3451.28
   03:33:12.367.27-Mar-2021 3725.51 5265.29 61.45 3.00 319.24 3451.28
   03:33:12.567.27-Mar-2021 3725.51 5265.46 61.45 3.00 319.44 3451.28
   03:33:12.767.27-Mar-2021 3725.51 5265.04 61.45 3.00 319.64 3451.28
   03:33:12.967.27-Mar-2021 3725.51 5265.10 61.45 3.00 319.84 3451.28
   03:33:13.167.27-Mar-2021 3725.51 5265.50 61.45 3.00 320.04 3451.28
   03:33:13.367.27-Mar-2021 3725.51 5265.50 61.45 3.00 320.24 3451.28
   03:33:13.567.27-Mar-2021 3725.51 5265.20 61.45 3.00 320.44 3451.28
   03:33:13.767.27-Mar-2021 3725.51 5265.34 61.45 3.00 320.64 3451.28
   03:33:13.967.27-Mar-2021 3725.51 5265.25 61.45 3.00 320.84 3451.28
   03:33:14.167.27-Mar-2021 3725.51 5265.34 61.45 3.00 321.04 3451.28
   03:33:14.367.27-Mar-2021 3725.51 5265.34 61.45 3.00 321.24 3451.28
   03:33:14.567.27-Mar-2021 3725.51 5265.22 61.45 3.00 321.44 3451.28
   03:33:14.767.27-Mar-2021 3725.51 5265.31 61.45 3.00 321.64 3451.28
   03:33:14.967.27-Mar-2021 3725.51 5265.28 61.45 3.00 321.84 3451.28
