~Version Information
 VERS.                  2.0:   CWLS log ASCII Standard -VERSION 2.0
 WRAP.                   NO:   One line per depth step
~Well Information Block
#MNEM.UNIT     VALUE/NAME     DESCRIPTION
#---------     -----------    ---------------------------
 STRT.S             11:05:10 27-Mar-21: START TIME 11:05:10 27-Mar-21
 STOP.S             11:12:21 27-Mar-21: STOP TIME  11:12:21 27-Mar-21
 STEP.S                   0.00: STEP TIME
 NULL.                 -999.25: NULL VALUE
 DFWT.                        :  DIST FWL TEXT
 DFST.                        :  DIST FSL TEXT
 DMF .             Drill Floor:  DRILL MEAS FROM
 STIM.      20.26.40 11-Mar-21:  START TIME
 DATE.      20.26.40 30-Mar-21:  END TIME
 SPUD.               11-Mar-21:  SPUD DATE
 NREF.                    Grid:  NORTH REFERENCE
 HPTY.       Minimum Curvature:  HOLE POS TYPE
 DMOD.             Drill Model:  DRILL MOD DESC
 SVYD.                  Survey:  SURVEY DESC
 ILTD.               Lithology:  INTERP LTH DESC
 FTOP.          Formation Tops:  FORM TOPS DESC
 SON .        AZ-XX-0906805385:  JOB NUMBER
 WTYP.                Deviated:  WELL TYPE
 COMP.     BP Exploration (Caspian Sea) Ltd.:  COMPANY
 UWI .            /AZE00000198:  UNIQUE WELL IDENTIFIER
 API .            /AZE00000198:  API NUMBER
 BASE.              Azerbaijan:  LOGGING EQUIPMENT BASE LOCATION
 REGN.                   EESSA:  REGION
 PROV.                    Baku:  PROVINCE
 STAT.                    Baku:  STATE NAME
 CTRY.              Azerbaijan:  COUNTRY NAME
 FLD .                     ACG:  FIELD NAME
 SRVC.     Turan Drilling & Engineering:  CONTRACTOR
 MWDS.                    Baku:  MWD SHOP
 WELL.                    D09z:  WELL NAME
 JOBN.        AZ-XX-0906805385:  JOB TICKET NUMB
 RIG .              East Azeri:  RIG NAME
 DOE .                     N/A:  DOE NUMBER
 DCON.         Sperry Drilling:  DIRECTNL CONTR
 UNIT.                     N/A:  LOGGING EQUIPMENT ID
 PDAT.          Mean Sea Level:  PERMANENT DATUM
 MDS .        Operator Entered:  MAG DATA SOURCE
 CNTY.                        :  COUNTY
 LOC .                        :  LOCATION
 LMF .             Drill Floor:  LOG MEASURED FROM
 TVDS.m                  43.60:  TVDSS CORRECTN
 LATI.deg                40.02:  LATITUDE
 LONG.deg                51.45:  LONGITUDE
 WHNS.m                 -17.04:  WELL HEAD N/S
 WHEW.m                  -6.28:  WELL HEAD E/W
 UTMX.m              538763.98:  UTM X
 UTMY.m             4431880.20:  UTM Y
 DFWL.m                   0.00:  DISTANCE FWL
 DFSL.m                   0.00:  DISTANCE FSL
 SDEP.m                2680.01:  START DEPTH
 TDD .m                4000.01:  TOTAL DEPTH (DRILLER)
 VSDR.deg               225.71:  VERT SEC DIRECT
 GVFD.g                   1.00:  GRAVITY FIELD
 MFLD.nT              50353.00:  MAGNETIC FIELD
 MDIP.deg                59.49:  MAGNETIC DIP
 MDEC.deg                 6.46:  MAGNETIC DECL
 GRDC.deg                 0.29:  GRID CORRECTION
 AZTC.deg                 6.17:  AZM TOTAL CORR
 EPD .m                   0.00:  ELEVATION
 EGL .m                   0.00:  GROUND ELEVATION
 WDMS.m                 151.80:  WD ELEV
 APD .m                  43.60:  DEPTH ABOVE PD
 AGAP.m                  43.60:  AIR GAP
 VSEW.m                  -6.28:  VERT SEC E/W
 VSNS.m                 -17.04:  VERT SEC N/S
 DEP .m                2656.31:  DEPTH
 EKB .m                  43.60:  KB ELEVATION
 EDF .m                  43.60:  DF ELEVATION
 VSC .                       0:  VS TO CLOSURE
 MAGU.                 1851247:  MAGUTM CHECKSUM
~Parameter Information Block
#MNEM.UNIT       Value        Description
#---------     -----------    ---------------------------
 AV  .mps                 3.00:  Ann Velocity 
 AVMX.mps                 8.00:  Max Ann Veloc 
 AZIF.deg                 0.00:  Azm, Final 
 BHAT.                   Other:  BHA Type 
 BREV.rev                 0.00:  Rev Bit Total 
 BROT.°/30m               0.00:  Build Rotating 
 BS  .in                 10.25:  Bit Size 
 BTPL.psig              511.00:  Bit Press Loss 
 CABU.                      No:  Customer Abuse 
 CGEO.           Asif Pashayev:  Customer Geo 
 COMM.                     $Ml:  Run Comments 1 
 TCS .hr                 24.03:  Time Ciculation Ended 
 CV  .mps                 3.50:  Crit Velocity 
 CVMX.mps                 4.00:  Max Crit Veloc 
 DD1 .             Aziz Aliyev:  Direct Drillr 1 
 DD2 .      Fakhraddin Guliyev:  Direct Drillr 2 
 DDSV.                   Other:  DD Service 
 DEFF.%                  99.00:  % Det Eff 
 DLRX.°/30m               0.00:  Dogleg Rot Max 
 DLSO.°/30m               0.00:  Dogleg Oriented 
 DLSX.°/30m               0.00:  Dogleg Str Max 
 DRET.      23.00.40 28-Mar-21:  Drill End Time 
 DRST.      23.30.40 25-Mar-21:  Drill Start Tim 
 DTIM.hr                  0.00:  Time Drilling 
 EDEP.m                3886.01:  End Depth 
 ENG1.         Almaz Almadatov:  Engineer 1 
 ENG2.      Artemiy Matviyanov:  Engineer 2 
 ENG3.           Samir Gafarov:  Engineer 3 
 ETIM.      23.00.40 28-Mar-21:  End Time 
 FLOI.gpm               550.00:  Flow In 
 FLON.gpm               500.00:  Flow In Min 
 FLOS.cptm                0.00:  Fluid Loss 
 FLOX.gpm               590.00:  Flow In Max 
 HFLO.                      No:  High Flow 
 HPRE.                      No:  High Pressure 
 HTEM.                      No:  High Temp 
 HYDO.m                   1.80:  Hydro Offset 
 IFIN.deg                 0.00:  Inc, Final 
 IMAX.deg                 0.00:  Inc Max 
 IMIN.deg                 0.00:  Inc Min 
 IMND.m                   0.00:  Inc Min Depth 
 IMXD.m                   0.00:  Inc Max Depth 
 JARR.                      No:  Jarring 
 LETM.      03.22.40 28-Mar-21:  Log End Time 
 LOST.hr                     0:  Lost Rig Time 
 LSTM.      23.30.40 25-Mar-21:  Log Start Time 
 MDCL.ppm             34000.00:  Mud Chlorides 
 MDES.     Inversion Oil/Synthetic:  Mud Desc 
 DFD .sg                  1.51:  Mud Density 
 MDMN.sg                  1.51:  Dens Mud Min 
 MDMX.sg                  1.51:  Dens Mud Max 
 MOIL.                      70:  Run Mud Oil % 
 MOWR.                   70:30:  Run Mud OWR 
 MSND.                     0.2:  Run Mud Sand % 
 MSOL.                   21.60:  Run Mud Solids% 
 DFV .spqt               74.00:  Mud Viscosity 
 MWOD.in                  6.75:  MWD Tool OD 
 MWSI.                      No:  Serv Intrp, MWD 
 OTIM.hr                 69.09:  Time Operating 
 PCON.           Look Like New:  Pad Condition 
 PMAX.psia             3500.00:  Press Op, Max 
 PV  .cP                 70.00:  Mud PV 
 RUN .                     400:  Run Number 
 ROPA.m/hr                0.00:  ROP Avg 
 ROPN.m/hr                0.00:  ROP Min 
 ROPX.m/hr                0.00:  ROP Max 
 RPMA.rpm                80.00:  RPM Surface Avg 
 RPMN.rpm                10.00:  RPM Surface Min 
 RPMX.rpm               100.00:  RPM Surface Max 
 RRUN.                    0400:  Rig Run Number 
 RTIM.hr                  3.00:  Time Reaming 
 SAZI.deg                 0.00:  Azm, Start 
 SDEP.m                3886.01:  Start Depth 
 SIDD.                      No:  Serv Intrp, DD 
 SINC.deg                 0.00:  Inc, Start 
 SPPA.psig             3270.00:  SPP Avg 
 SPPN.psig             3220.00:  SPP Min 
 SPPX.psig             4430.00:  SPP Max 
 STIM.      23.30.40 25-Mar-21:  Start Time 
 SVCS.                 DD, MWD:  Services 
 SVER.                    9.20:  Sperry Version 
 TDAT.m                   0.00:  Tot Depth Attmp 
 TDDF.                      No:  Trip for DD 
 TFF .                      No:  Trip for Fail 
 TQAA.f-kp                8.00:  Torque Abs Avg 
 TQAN.f-kp                7.00:  Torque Abs Min 
 TQAX.f-kp               11.00:  Torque Abs Max 
 TRRT.°/30m               0.00:  Turn Rotating 
 MRT .                  EWR-M5:  Maximum Recorded Temperature 
 TTMX.degC               76.47:  Max Tool Temp 
 VS01.                90640857:  Virtual Str1 SN 
 VS02.                90639246:  Virtual Str2 SN 
 VS03.                90642265:  Virtual Str3 SN 
 VS04.                11654497:  Virtual Str4 SN 
 WBMN.klb                 0.00:  WOB Min 
 WITN.      Kamran Keberlinkiy:  Customer Rep 
 WITN.           Murad Guliyev:  Customer Rep 2 
 WOBA.klb                 0.00:  WOB Avg 
 WOBX.klb                 0.00:  WOB Max 
 YP  .lhf2               36.00:  Yield Point 
~Curve Information Block
#MNEM.UNIT                 API CODE     Curve Description
#---------               -----------    ---------------------------
 TIME.HHMMSS            00 000 000 000:  GT Time & Date
 GTDEPTH.m              00 000 000 000:  GT Depth
 GTPQH.psia             00 000 000 000:  GT HR Quartz Pressure
 GTTQ.degC              00 000 000 000:  GT Quartz Temperature
 GTTN.NONE              00 000 000 000:  GT Test Number
 GTET.sec               00 000 000 000:  GT Elapsed Test Time
 GTTVD.m                00 000 000 000:  GT True Vertical Depth
#Other Information
#
#WARRANTY: Halliburton will use its best efforts to furnish customers with 
#accurate information and interpretations that are part of, and incident to, the services 
#provided.  However, Halliburton cannot and does not warrant the accuracy 
#or correctness of such information and interpretations.  Under no circumstances should any 
#such information or interpretation be relied upon as the sole basis for any drilling, 
#completion, production, or financial decision or any procedure involving any risk to the 
#safety of any drilling venture, drilling rig or its crew or any other third party.  The 
#Customer has full responsibility for all drilling, completion and production operation.  
#Halliburton makes no representations or warranties, either expressed or 
#implied, including, but not limited to, the implied warranties of merchantability or fitness 
#for a particular purpose, with respect to the services rendered.  In no event will 
#Halliburton be liable for failure to obtain any particular results or for 
#any damages, including, but not limited to, indirect, special or consequential damages, 
#resulting from the use of any information or interpretation provided by Halliburton.
#
~A           TIME           GTDEPTH  GTPQH  GTTQ  GTTN   GTET   GTTVD  
# ...
   11:05:32.832.27-Mar-2021 3279.01 7075.50 61.33 11.00  22.61 3032.17
   11:05:33.032.27-Mar-2021 3279.01 7075.70 61.33 11.00  22.81 3032.17
   11:05:33.232.27-Mar-2021 3279.01 7075.57 61.33 11.00  23.01 3032.17
   11:05:33.432.27-Mar-2021 3279.01 7075.57 61.33 11.00  23.21 3032.17
   11:05:33.632.27-Mar-2021 3279.01 7076.51 61.33 11.00  23.41 3032.17
   11:05:33.832.27-Mar-2021 3279.01 7078.83 61.33 11.00  23.61 3032.17
   11:05:34.032.27-Mar-2021 3279.01 7075.71 61.33 11.00  23.81 3032.17
   11:05:34.232.27-Mar-2021 3279.01 7076.42 61.33 11.00  24.01 3032.17
   11:05:34.432.27-Mar-2021 3279.01 7076.42 61.33 11.00  24.21 3032.17
   11:05:34.633.27-Mar-2021 3279.01 7075.85 61.33 11.00  24.41 3032.17
   11:05:34.833.27-Mar-2021 3279.01 7075.69 61.33 11.00  24.61 3032.17
   11:05:35.033.27-Mar-2021 3279.01 7079.37 61.33 11.00  24.81 3032.17
   11:05:35.233.27-Mar-2021 3279.01 7076.50 61.33 11.00  25.01 3032.17
   11:05:35.433.27-Mar-2021 3279.01 7076.50 61.33 11.00  25.21 3032.17
   11:05:35.633.27-Mar-2021 3279.01 7076.84 61.33 11.00  25.41 3032.17
   11:05:35.833.27-Mar-2021 3279.01 7076.74 61.33 11.00  25.61 3032.17
   11:05:36.033.27-Mar-2021 3279.01 7076.73 61.33 11.00  25.81 3032.17
   11:05:36.233.27-Mar-2021 3279.01 7081.07 61.33 11.00  26.01 3032.17
   11:05:36.433.27-Mar-2021 3279.01 7081.07 61.33 11.00  26.21 3032.17
   11:05:36.633.27-Mar-2021 3279.01 7077.29 61.33 11.00  26.41 3032.17
   11:05:36.833.27-Mar-2021 3279.01 7077.60 61.33 11.00  26.61 3032.17
   11:05:37.033.27-Mar-2021 3279.01 7077.75 61.33 11.00  26.81 3032.17
   11:05:37.233.27-Mar-2021 3279.01 7077.60 61.33 11.00  27.01 3032.17
   11:05:37.433.27-Mar-2021 3279.01 7077.60 61.33 11.00  27.21 3032.17
   11:05:37.633.27-Mar-2021 3279.01 7076.79 61.33 11.00  27.41 3032.17
   11:05:37.833.27-Mar-2021 3279.01 7077.58 61.33 11.00  27.61 3032.17
   11:05:38.033.27-Mar-2021 3279.01 7077.57 61.33 11.00  27.81 3032.17
   11:05:38.233.27-Mar-2021 3279.01 7077.64 61.33 11.00  28.01 3032.17
   11:05:38.433.27-Mar-2021 3279.01 7077.64 61.33 11.00  28.21 3032.17
   11:05:38.633.27-Mar-2021 3279.01 7077.14 61.33 11.00  28.41 3032.17
   11:05:38.833.27-Mar-2021 3279.01 7078.07 61.33 11.00  28.61 3032.17
   11:05:39.034.27-Mar-2021 3279.01 7077.65 61.33 11.00  28.81 3032.17
   11:05:39.234.27-Mar-2021 3279.01 7077.79 61.33 11.00  29.01 3032.17
   11:05:39.434.27-Mar-2021 3279.01 7077.79 61.33 11.00  29.21 3032.17
   11:05:39.634.27-Mar-2021 3279.01 7078.16 61.33 11.00  29.41 3032.17
   11:05:39.834.27-Mar-2021 3279.01 7078.24 61.33 11.00  29.61 3032.17
   11:05:40.034.27-Mar-2021 3279.01 7077.91 61.33 11.00  29.81 3032.17
   11:05:40.234.27-Mar-2021 3279.01 7077.68 61.33 11.00  30.01 3032.17
   11:05:40.434.27-Mar-2021 3279.01 7077.68 61.33 11.00  30.21 3032.17
   11:05:40.634.27-Mar-2021 3279.01 7077.68 61.33 11.00  30.41 3032.17
   11:05:40.834.27-Mar-2021 3279.01 7081.34 61.33 11.00  30.61 3032.17
   11:05:41.034.27-Mar-2021 3279.01 7078.15 61.33 11.00  30.81 3032.17
   11:05:41.234.27-Mar-2021 3279.01 7078.73 61.33 11.00  31.01 3032.17
   11:05:41.434.27-Mar-2021 3279.01 7078.73 61.33 11.00  31.21 3032.17
   11:05:41.634.27-Mar-2021 3279.01 7078.25 61.33 11.00  31.41 3032.17
   11:05:41.834.27-Mar-2021 3279.01 7078.19 61.33 11.00  31.61 3032.17
   11:05:42.034.27-Mar-2021 3279.01 7077.74 61.33 11.00  31.81 3032.17
   11:05:42.234.27-Mar-2021 3279.01 7078.87 61.33 11.00  32.01 3032.17
   11:05:42.434.27-Mar-2021 3279.01 7078.87 61.33 11.00  32.21 3032.17
   11:05:42.634.27-Mar-2021 3279.01 7078.09 61.33 11.00  32.41 3032.17
   11:05:42.834.27-Mar-2021 3279.01 7078.43 61.33 11.00  32.61 3032.17
   11:05:43.034.27-Mar-2021 3279.01 7078.17 61.33 11.00  32.81 3032.17
   11:05:43.235.27-Mar-2021 3279.01 7078.29 61.33 11.00  33.01 3032.17
   11:05:43.435.27-Mar-2021 3279.01 7078.29 61.33 11.00  33.21 3032.17
   11:05:43.635.27-Mar-2021 3279.01 7077.43 61.33 11.00  33.41 3032.17
   11:05:43.835.27-Mar-2021 3279.01 7078.43 61.33 11.00  33.61 3032.17
   11:05:44.035.27-Mar-2021 3279.01 7078.68 61.33 11.00  33.81 3032.17
   11:05:44.235.27-Mar-2021 3279.01 7078.56 61.33 11.00  34.01 3032.17
   11:05:44.435.27-Mar-2021 3279.01 7078.56 61.33 11.00  34.21 3032.17
   11:05:44.635.27-Mar-2021 3279.01 7077.96 61.33 11.00  34.41 3032.17
   11:05:44.835.27-Mar-2021 3279.01 7082.41 61.33 11.00  34.61 3032.17
   11:05:45.035.27-Mar-2021 3279.01 7078.55 61.33 11.00  34.81 3032.17
   11:05:45.235.27-Mar-2021 3279.01 7078.67 61.33 11.00  35.01 3032.17
   11:05:45.435.27-Mar-2021 3279.01 7078.67 61.33 11.00  35.21 3032.17
   11:05:45.635.27-Mar-2021 3279.01 7079.82 61.33 11.00  35.41 3032.17
   11:05:45.835.27-Mar-2021 3279.01 7081.94 61.33 11.00  35.61 3032.17
   11:05:46.035.27-Mar-2021 3279.01 7107.24 61.33 11.00  35.81 3032.17
   11:05:46.235.27-Mar-2021 3279.01 7163.72 61.33 11.00  36.01 3032.17
   11:05:46.435.27-Mar-2021 3279.01 7163.72 61.33 11.00  36.21 3032.17
   11:05:46.635.27-Mar-2021 3279.01 7222.12 61.33 11.00  36.41 3032.17
   11:05:46.835.27-Mar-2021 3279.01 7271.77 61.33 11.00  36.61 3032.17
   11:05:47.035.27-Mar-2021 3279.01 7314.19 61.33 11.00  36.81 3032.17
   11:05:47.235.27-Mar-2021 3279.01 7303.90 61.33 11.00  37.01 3032.17
   11:05:47.436.27-Mar-2021 3279.01 7303.90 61.33 11.00  37.21 3032.17
   11:05:47.636.27-Mar-2021 3279.01 7282.31 61.33 11.00  37.41 3032.17
   11:05:47.836.27-Mar-2021 3279.01 7275.66 61.33 11.00  37.61 3032.17
   11:05:48.036.27-Mar-2021 3279.01 7265.00 61.33 11.00  37.81 3032.17
   11:05:48.236.27-Mar-2021 3279.01 7227.87 61.33 11.00  38.01 3032.17
   11:05:48.436.27-Mar-2021 3279.01 7227.87 61.33 11.00  38.21 3032.17
   11:05:48.636.27-Mar-2021 3279.01 7216.84 61.33 11.00  38.41 3032.17
   11:05:48.836.27-Mar-2021 3279.01 7224.46 61.33 11.00  38.61 3032.17
   11:05:49.036.27-Mar-2021 3279.01 7233.06 61.33 11.00  38.81 3032.17
   11:05:49.236.27-Mar-2021 3279.01 7238.36 61.33 11.00  39.01 3032.17
   11:05:49.436.27-Mar-2021 3279.01 7238.36 61.33 11.00  39.21 3032.17
   11:05:49.636.27-Mar-2021 3279.01 7236.76 61.33 11.00  39.41 3032.17
   11:05:49.836.27-Mar-2021 3279.01 7234.37 61.33 11.00  39.61 3032.17
   11:05:50.036.27-Mar-2021 3279.01 7231.79 61.33 11.00  39.81 3032.17
   11:05:50.236.27-Mar-2021 3279.01 7228.35 61.33 11.00  40.01 3032.17
   11:05:50.436.27-Mar-2021 3279.01 7228.35 61.33 11.00  40.21 3032.17
   11:05:50.636.27-Mar-2021 3279.01 7228.99 61.33 11.00  40.41 3032.17
   11:05:50.836.27-Mar-2021 3279.01 7219.59 61.33 11.00  40.61 3032.17
   11:05:51.036.27-Mar-2021 3279.01 7216.72 61.33 11.00  40.81 3032.17
   11:05:51.236.27-Mar-2021 3279.01 7210.29 61.33 11.00  41.01 3032.17
   11:05:51.436.27-Mar-2021 3279.01 7210.29 61.33 11.00  41.21 3032.17
   11:05:51.636.27-Mar-2021 3279.01 7201.74 61.33 11.00  41.41 3032.17
   11:05:51.837.27-Mar-2021 3279.01 7198.01 61.32 11.00  41.61 3032.17
   11:05:52.037.27-Mar-2021 3279.01 7201.39 61.33 11.00  41.81 3032.17
   11:05:52.237.27-Mar-2021 3279.01 7206.58 61.32 11.00  42.01 3032.17
   11:05:52.437.27-Mar-2021 3279.01 7206.58 61.32 11.00  42.21 3032.17
   11:05:52.637.27-Mar-2021 3279.01 7173.67 61.32 11.00  42.41 3032.17
   11:05:52.837.27-Mar-2021 3279.01 7149.12 61.32 11.00  42.61 3032.17
   11:05:53.037.27-Mar-2021 3279.01 7122.25 61.32 11.00  42.81 3032.17
   11:05:53.237.27-Mar-2021 3279.01 7097.34 61.32 11.00  43.01 3032.17
   11:05:53.437.27-Mar-2021 3279.01 7097.34 61.32 11.00  43.21 3032.17
   11:05:53.637.27-Mar-2021 3279.01 7046.51 61.32 11.00  43.41 3032.17
   11:05:53.837.27-Mar-2021 3279.01 7017.05 61.32 11.00  43.61 3032.17
   11:05:54.037.27-Mar-2021 3279.01 6988.26 61.32 11.00  43.81 3032.17
   11:05:54.237.27-Mar-2021 3279.01 6939.65 61.32 11.00  44.01 3032.17
   11:05:54.437.27-Mar-2021 3279.01 6939.65 61.32 11.00  44.21 3032.17
   11:05:54.637.27-Mar-2021 3279.01 6860.19 61.32 11.00  44.41 3032.17
   11:05:54.837.27-Mar-2021 3279.01 6817.90 61.32 11.00  44.61 3032.17
   11:05:55.037.27-Mar-2021 3279.01 6797.67 61.32 11.00  44.81 3032.17
   11:05:55.237.27-Mar-2021 3279.01 6758.54 61.32 11.00  45.01 3032.17
