~Version Information
 VERS.                  2.0:   CWLS log ASCII Standard -VERSION 2.0
 WRAP.                   NO:   One line per depth step
~Well Information Block
#MNEM.UNIT     VALUE/NAME     DESCRIPTION
#---------     -----------    ---------------------------
 STRT.S             07:02:33 27-Mar-21: START TIME 07:02:33 27-Mar-21
 STOP.S             07:09:44 27-Mar-21: STOP TIME  07:09:44 27-Mar-21
 STEP.S                   0.00: STEP TIME
 NULL.                 -999.25: NULL VALUE
 DFWT.                        :  DIST FWL TEXT
 DFST.                        :  DIST FSL TEXT
 DMF .             Drill Floor:  DRILL MEAS FROM
 STIM.      20.26.40 11-Mar-21:  START TIME
 DATE.      20.26.40 30-Mar-21:  END TIME
 SPUD.               11-Mar-21:  SPUD DATE
 NREF.                    Grid:  NORTH REFERENCE
 HPTY.       Minimum Curvature:  HOLE POS TYPE
 DMOD.             Drill Model:  DRILL MOD DESC
 SVYD.                  Survey:  SURVEY DESC
 ILTD.               Lithology:  INTERP LTH DESC
 FTOP.          Formation Tops:  FORM TOPS DESC
 SON .        AZ-XX-0906805385:  JOB NUMBER
 WTYP.                Deviated:  WELL TYPE
 COMP.     BP Exploration (Caspian Sea) Ltd.:  COMPANY
 UWI .            /AZE00000198:  UNIQUE WELL IDENTIFIER
 API .            /AZE00000198:  API NUMBER
 BASE.              Azerbaijan:  LOGGING EQUIPMENT BASE LOCATION
 REGN.                   EESSA:  REGION
 PROV.                    Baku:  PROVINCE
 STAT.                    Baku:  STATE NAME
 CTRY.              Azerbaijan:  COUNTRY NAME
 FLD .                     ACG:  FIELD NAME
 SRVC.     Turan Drilling & Engineering:  CONTRACTOR
 MWDS.                    Baku:  MWD SHOP
 WELL.                    D09z:  WELL NAME
 JOBN.        AZ-XX-0906805385:  JOB TICKET NUMB
 RIG .              East Azeri:  RIG NAME
 DOE .                     N/A:  DOE NUMBER
 DCON.         Sperry Drilling:  DIRECTNL CONTR
 UNIT.                     N/A:  LOGGING EQUIPMENT ID
 PDAT.          Mean Sea Level:  PERMANENT DATUM
 MDS .        Operator Entered:  MAG DATA SOURCE
 CNTY.                        :  COUNTY
 LOC .                        :  LOCATION
 LMF .             Drill Floor:  LOG MEASURED FROM
 TVDS.m                  43.60:  TVDSS CORRECTN
 LATI.deg                40.02:  LATITUDE
 LONG.deg                51.45:  LONGITUDE
 WHNS.m                 -17.04:  WELL HEAD N/S
 WHEW.m                  -6.28:  WELL HEAD E/W
 UTMX.m              538763.98:  UTM X
 UTMY.m             4431880.20:  UTM Y
 DFWL.m                   0.00:  DISTANCE FWL
 DFSL.m                   0.00:  DISTANCE FSL
 SDEP.m                2680.01:  START DEPTH
 TDD .m                4000.01:  TOTAL DEPTH (DRILLER)
 VSDR.deg               225.71:  VERT SEC DIRECT
 GVFD.g                   1.00:  GRAVITY FIELD
 MFLD.nT              50353.00:  MAGNETIC FIELD
 MDIP.deg                59.49:  MAGNETIC DIP
 MDEC.deg                 6.46:  MAGNETIC DECL
 GRDC.deg                 0.29:  GRID CORRECTION
 AZTC.deg                 6.17:  AZM TOTAL CORR
 EPD .m                   0.00:  ELEVATION
 EGL .m                   0.00:  GROUND ELEVATION
 WDMS.m                 151.80:  WD ELEV
 APD .m                  43.60:  DEPTH ABOVE PD
 AGAP.m                  43.60:  AIR GAP
 VSEW.m                  -6.28:  VERT SEC E/W
 VSNS.m                 -17.04:  VERT SEC N/S
 DEP .m                2656.31:  DEPTH
 EKB .m                  43.60:  KB ELEVATION
 EDF .m                  43.60:  DF ELEVATION
 VSC .                       0:  VS TO CLOSURE
 MAGU.                 1851247:  MAGUTM CHECKSUM
~Parameter Information Block
#MNEM.UNIT       Value        Description
#---------     -----------    ---------------------------
 AV  .mps                 3.00:  Ann Velocity 
 AVMX.mps                 8.00:  Max Ann Veloc 
 AZIF.deg                 0.00:  Azm, Final 
 BHAT.                   Other:  BHA Type 
 BREV.rev                 0.00:  Rev Bit Total 
 BROT.°/30m               0.00:  Build Rotating 
 BS  .in                 10.25:  Bit Size 
 BTPL.psig              511.00:  Bit Press Loss 
 CABU.                      No:  Customer Abuse 
 CGEO.           Asif Pashayev:  Customer Geo 
 COMM.                     ¬\q:  Run Comments 1 
 TCS .hr                 24.03:  Time Ciculation Ended 
 CV  .mps                 3.50:  Crit Velocity 
 CVMX.mps                 4.00:  Max Crit Veloc 
 DD1 .             Aziz Aliyev:  Direct Drillr 1 
 DD2 .      Fakhraddin Guliyev:  Direct Drillr 2 
 DDSV.                   Other:  DD Service 
 DEFF.%                  99.00:  % Det Eff 
 DLRX.°/30m               0.00:  Dogleg Rot Max 
 DLSO.°/30m               0.00:  Dogleg Oriented 
 DLSX.°/30m               0.00:  Dogleg Str Max 
 DRET.      23.00.40 28-Mar-21:  Drill End Time 
 DRST.      23.30.40 25-Mar-21:  Drill Start Tim 
 DTIM.hr                  0.00:  Time Drilling 
 EDEP.m                3886.01:  End Depth 
 ENG1.         Almaz Almadatov:  Engineer 1 
 ENG2.      Artemiy Matviyanov:  Engineer 2 
 ENG3.           Samir Gafarov:  Engineer 3 
 ETIM.      23.00.40 28-Mar-21:  End Time 
 FLOI.gpm               550.00:  Flow In 
 FLON.gpm               500.00:  Flow In Min 
 FLOS.cptm                0.00:  Fluid Loss 
 FLOX.gpm               590.00:  Flow In Max 
 HFLO.                      No:  High Flow 
 HPRE.                      No:  High Pressure 
 HTEM.                      No:  High Temp 
 HYDO.m                   1.80:  Hydro Offset 
 IFIN.deg                 0.00:  Inc, Final 
 IMAX.deg                 0.00:  Inc Max 
 IMIN.deg                 0.00:  Inc Min 
 IMND.m                   0.00:  Inc Min Depth 
 IMXD.m                   0.00:  Inc Max Depth 
 JARR.                      No:  Jarring 
 LETM.      03.22.40 28-Mar-21:  Log End Time 
 LOST.hr                     0:  Lost Rig Time 
 LSTM.      23.30.40 25-Mar-21:  Log Start Time 
 MDCL.ppm             34000.00:  Mud Chlorides 
 MDES.     Inversion Oil/Synthetic:  Mud Desc 
 DFD .sg                  1.51:  Mud Density 
 MDMN.sg                  1.51:  Dens Mud Min 
 MDMX.sg                  1.51:  Dens Mud Max 
 MOIL.                      70:  Run Mud Oil % 
 MOWR.                   70:30:  Run Mud OWR 
 MSND.                     0.2:  Run Mud Sand % 
 MSOL.                   21.60:  Run Mud Solids% 
 DFV .spqt               74.00:  Mud Viscosity 
 MWOD.in                  6.75:  MWD Tool OD 
 MWSI.                      No:  Serv Intrp, MWD 
 OTIM.hr                 69.09:  Time Operating 
 PCON.           Look Like New:  Pad Condition 
 PMAX.psia             3500.00:  Press Op, Max 
 PV  .cP                 70.00:  Mud PV 
 RUN .                     400:  Run Number 
 ROPA.m/hr                0.00:  ROP Avg 
 ROPN.m/hr                0.00:  ROP Min 
 ROPX.m/hr                0.00:  ROP Max 
 RPMA.rpm                80.00:  RPM Surface Avg 
 RPMN.rpm                10.00:  RPM Surface Min 
 RPMX.rpm               100.00:  RPM Surface Max 
 RRUN.                    0400:  Rig Run Number 
 RTIM.hr                  3.00:  Time Reaming 
 SAZI.deg                 0.00:  Azm, Start 
 SDEP.m                3886.01:  Start Depth 
 SIDD.                      No:  Serv Intrp, DD 
 SINC.deg                 0.00:  Inc, Start 
 SPPA.psig             3270.00:  SPP Avg 
 SPPN.psig             3220.00:  SPP Min 
 SPPX.psig             4430.00:  SPP Max 
 STIM.      23.30.40 25-Mar-21:  Start Time 
 SVCS.                 DD, MWD:  Services 
 SVER.                    9.20:  Sperry Version 
 TDAT.m                   0.00:  Tot Depth Attmp 
 TDDF.                      No:  Trip for DD 
 TFF .                      No:  Trip for Fail 
 TQAA.f-kp                8.00:  Torque Abs Avg 
 TQAN.f-kp                7.00:  Torque Abs Min 
 TQAX.f-kp               11.00:  Torque Abs Max 
 TRRT.°/30m               0.00:  Turn Rotating 
 MRT .                  EWR-M5:  Maximum Recorded Temperature 
 TTMX.degC               76.47:  Max Tool Temp 
 VS01.                90640857:  Virtual Str1 SN 
 VS02.                90639246:  Virtual Str2 SN 
 VS03.                90642265:  Virtual Str3 SN 
 VS04.                11654497:  Virtual Str4 SN 
 WBMN.klb                 0.00:  WOB Min 
 WITN.      Kamran Keberlinkiy:  Customer Rep 
 WITN.           Murad Guliyev:  Customer Rep 2 
 WOBA.klb                 0.00:  WOB Avg 
 WOBX.klb                 0.00:  WOB Max 
 YP  .lhf2               36.00:  Yield Point 
~Curve Information Block
#MNEM.UNIT                 API CODE     Curve Description
#---------               -----------    ---------------------------
 TIME.HHMMSS            00 000 000 000:  GT Time & Date
 GTDEPTH.m              00 000 000 000:  GT Depth
 GTPQH.psia             00 000 000 000:  GT HR Quartz Pressure
 GTTQ.degC              00 000 000 000:  GT Quartz Temperature
 GTTN.NONE              00 000 000 000:  GT Test Number
 GTET.sec               00 000 000 000:  GT Elapsed Test Time
 GTTVD.m                00 000 000 000:  GT True Vertical Depth
#Other Information
#
#WARRANTY: Halliburton will use its best efforts to furnish customers with 
#accurate information and interpretations that are part of, and incident to, the services 
#provided.  However, Halliburton cannot and does not warrant the accuracy 
#or correctness of such information and interpretations.  Under no circumstances should any 
#such information or interpretation be relied upon as the sole basis for any drilling, 
#completion, production, or financial decision or any procedure involving any risk to the 
#safety of any drilling venture, drilling rig or its crew or any other third party.  The 
#Customer has full responsibility for all drilling, completion and production operation.  
#Halliburton makes no representations or warranties, either expressed or 
#implied, including, but not limited to, the implied warranties of merchantability or fitness 
#for a particular purpose, with respect to the services rendered.  In no event will 
#Halliburton be liable for failure to obtain any particular results or for 
#any damages, including, but not limited to, indirect, special or consequential damages, 
#resulting from the use of any information or interpretation provided by Halliburton.
#
~A           TIME           GTDEPTH  GTPQH  GTTQ  GTTN  GTET   GTTVD  
# ...
   07:04:05.549.27-Mar-2021 3426.01 4772.53 60.31 6.00  92.02 3169.91
   07:04:05.749.27-Mar-2021 3426.01 4772.53 60.31 6.00  92.22 3169.91
   07:04:05.949.27-Mar-2021 3426.01 4772.57 60.31 6.00  92.42 3169.91
   07:04:06.149.27-Mar-2021 3426.01 4772.51 60.31 6.00  92.62 3169.91
   07:04:06.349.27-Mar-2021 3426.01 4772.56 60.31 6.00  92.82 3169.91
   07:04:06.549.27-Mar-2021 3426.01 4772.59 60.31 6.00  93.02 3169.91
   07:04:06.749.27-Mar-2021 3426.01 4772.59 60.31 6.00  93.22 3169.91
   07:04:06.949.27-Mar-2021 3426.01 4772.78 60.31 6.00  93.42 3169.91
   07:04:07.149.27-Mar-2021 3426.01 4772.65 60.31 6.00  93.62 3169.91
   07:04:07.349.27-Mar-2021 3426.01 4772.50 60.31 6.00  93.82 3169.91
   07:04:07.549.27-Mar-2021 3426.01 4772.56 60.31 6.00  94.02 3169.91
   07:04:07.749.27-Mar-2021 3426.01 4772.56 60.31 6.00  94.22 3169.91
   07:04:07.950.27-Mar-2021 3426.01 4772.75 60.31 6.00  94.42 3169.91
   07:04:08.150.27-Mar-2021 3426.01 4772.54 60.31 6.00  94.62 3169.91
   07:04:08.350.27-Mar-2021 3426.01 4772.53 60.31 6.00  94.82 3169.91
   07:04:08.550.27-Mar-2021 3426.01 4772.55 60.31 6.00  95.02 3169.91
   07:04:08.750.27-Mar-2021 3426.01 4772.55 60.31 6.00  95.22 3169.91
   07:04:08.950.27-Mar-2021 3426.01 4772.58 60.31 6.00  95.42 3169.91
   07:04:09.150.27-Mar-2021 3426.01 4772.56 60.31 6.00  95.62 3169.91
   07:04:09.350.27-Mar-2021 3426.01 4772.52 60.31 6.00  95.82 3169.91
   07:04:09.550.27-Mar-2021 3426.01 4772.60 60.31 6.00  96.02 3169.91
   07:04:09.750.27-Mar-2021 3426.01 4772.60 60.31 6.00  96.22 3169.91
   07:04:09.950.27-Mar-2021 3426.01 4772.58 60.31 6.00  96.42 3169.91
   07:04:10.150.27-Mar-2021 3426.01 4772.54 60.31 6.00  96.62 3169.91
   07:04:10.350.27-Mar-2021 3426.01 4772.57 60.31 6.00  96.82 3169.91
   07:04:10.550.27-Mar-2021 3426.01 4772.59 60.31 6.00  97.02 3169.91
   07:04:10.750.27-Mar-2021 3426.01 4772.59 60.31 6.00  97.22 3169.91
   07:04:10.950.27-Mar-2021 3426.01 4772.58 60.31 6.00  97.42 3169.91
   07:04:11.150.27-Mar-2021 3426.01 4772.63 60.31 6.00  97.62 3169.91
   07:04:11.350.27-Mar-2021 3426.01 4772.51 60.31 6.00  97.82 3169.91
   07:04:11.550.27-Mar-2021 3426.01 4772.56 60.31 6.00  98.02 3169.91
   07:04:11.750.27-Mar-2021 3426.01 4772.56 60.31 6.00  98.22 3169.91
   07:04:11.951.27-Mar-2021 3426.01 4772.56 60.31 6.00  98.42 3169.91
   07:04:12.151.27-Mar-2021 3426.01 4772.59 60.31 6.00  98.62 3169.91
   07:04:12.351.27-Mar-2021 3426.01 4772.61 60.31 6.00  98.82 3169.91
   07:04:12.551.27-Mar-2021 3426.01 4772.53 60.31 6.00  99.02 3169.91
   07:04:12.751.27-Mar-2021 3426.01 4772.53 60.31 6.00  99.22 3169.91
   07:04:12.951.27-Mar-2021 3426.01 4772.62 60.31 6.00  99.42 3169.91
   07:04:13.151.27-Mar-2021 3426.01 4772.59 60.31 6.00  99.62 3169.91
   07:04:13.351.27-Mar-2021 3426.01 4772.59 60.31 6.00  99.82 3169.91
   07:04:13.551.27-Mar-2021 3426.01 4772.56 60.31 6.00 100.02 3169.91
   07:04:13.751.27-Mar-2021 3426.01 4772.56 60.31 6.00 100.22 3169.91
   07:04:13.951.27-Mar-2021 3426.01 4772.52 60.31 6.00 100.43 3169.91
   07:04:14.151.27-Mar-2021 3426.01 4772.60 60.31 6.00 100.63 3169.91
   07:04:14.351.27-Mar-2021 3426.01 4772.57 60.31 6.00 100.83 3169.91
   07:04:14.551.27-Mar-2021 3426.01 4772.53 60.31 6.00 101.03 3169.91
   07:04:14.751.27-Mar-2021 3426.01 4772.53 60.31 6.00 101.23 3169.91
   07:04:14.951.27-Mar-2021 3426.01 4772.57 60.31 6.00 101.43 3169.91
   07:04:15.151.27-Mar-2021 3426.01 4772.59 60.31 6.00 101.63 3169.91
   07:04:15.351.27-Mar-2021 3426.01 4772.51 60.31 6.00 101.83 3169.91
   07:04:15.551.27-Mar-2021 3426.01 4772.61 60.31 6.00 102.03 3169.91
   07:04:15.751.27-Mar-2021 3426.01 4772.61 60.31 6.00 102.23 3169.91
   07:04:15.952.27-Mar-2021 3426.01 4772.29 60.31 6.00 102.43 3169.91
   07:04:16.152.27-Mar-2021 3426.01 4772.78 60.32 6.00 102.63 3169.91
   07:04:16.352.27-Mar-2021 3426.01 4772.65 60.31 6.00 102.83 3169.91
   07:04:16.552.27-Mar-2021 3426.01 4772.55 60.32 6.00 103.03 3169.91
   07:04:16.752.27-Mar-2021 3426.01 4772.55 60.32 6.00 103.23 3169.91
   07:04:16.952.27-Mar-2021 3426.01 4772.41 60.32 6.00 103.43 3169.91
   07:04:17.152.27-Mar-2021 3426.01 4772.82 60.32 6.00 103.63 3169.91
   07:04:17.352.27-Mar-2021 3426.01 4772.55 60.32 6.00 103.83 3169.91
   07:04:17.552.27-Mar-2021 3426.01 4772.54 60.32 6.00 104.03 3169.91
   07:04:17.752.27-Mar-2021 3426.01 4772.54 60.32 6.00 104.23 3169.91
   07:04:17.952.27-Mar-2021 3426.01 4772.55 60.32 6.00 104.43 3169.91
   07:04:18.152.27-Mar-2021 3426.01 4772.61 60.32 6.00 104.63 3169.91
   07:04:18.352.27-Mar-2021 3426.01 4772.58 60.32 6.00 104.83 3169.91
   07:04:18.552.27-Mar-2021 3426.01 4772.50 60.32 6.00 105.03 3169.91
   07:04:18.752.27-Mar-2021 3426.01 4772.50 60.32 6.00 105.23 3169.91
   07:04:18.952.27-Mar-2021 3426.01 4772.60 60.32 6.00 105.43 3169.91
   07:04:19.152.27-Mar-2021 3426.01 4772.55 60.32 6.00 105.63 3169.91
   07:04:19.352.27-Mar-2021 3426.01 4772.59 60.32 6.00 105.83 3169.91
   07:04:19.552.27-Mar-2021 3426.01 4772.62 60.32 6.00 106.03 3169.91
   07:04:19.752.27-Mar-2021 3426.01 4772.62 60.32 6.00 106.23 3169.91
   07:04:19.953.27-Mar-2021 3426.01 4772.61 60.32 6.00 106.43 3169.91
   07:04:20.153.27-Mar-2021 3426.01 4772.56 60.32 6.00 106.63 3169.91
   07:04:20.353.27-Mar-2021 3426.01 4772.62 60.32 6.00 106.83 3169.91
   07:04:20.553.27-Mar-2021 3426.01 4772.58 60.32 6.00 107.03 3169.91
   07:04:20.753.27-Mar-2021 3426.01 4772.58 60.32 6.00 107.23 3169.91
   07:04:20.953.27-Mar-2021 3426.01 4772.53 60.32 6.00 107.43 3169.91
   07:04:21.153.27-Mar-2021 3426.01 4772.55 60.32 6.00 107.63 3169.91
   07:04:21.353.27-Mar-2021 3426.01 4772.60 60.32 6.00 107.83 3169.91
   07:04:21.553.27-Mar-2021 3426.01 4772.59 60.32 6.00 108.03 3169.91
   07:04:21.753.27-Mar-2021 3426.01 4772.59 60.32 6.00 108.23 3169.91
   07:04:21.953.27-Mar-2021 3426.01 4772.55 60.32 6.00 108.43 3169.91
   07:04:22.153.27-Mar-2021 3426.01 4772.56 60.32 6.00 108.63 3169.91
   07:04:22.353.27-Mar-2021 3426.01 4772.63 60.32 6.00 108.83 3169.91
   07:04:22.553.27-Mar-2021 3426.01 4772.59 60.32 6.00 109.03 3169.91
   07:04:22.753.27-Mar-2021 3426.01 4772.59 60.32 6.00 109.23 3169.91
   07:04:22.953.27-Mar-2021 3426.01 4772.64 60.32 6.00 109.43 3169.91
   07:04:23.153.27-Mar-2021 3426.01 4772.51 60.32 6.00 109.63 3169.91
   07:04:23.353.27-Mar-2021 3426.01 4772.58 60.32 6.00 109.83 3169.91
   07:04:23.553.27-Mar-2021 3426.01 4772.63 60.32 6.00 110.03 3169.91
   07:04:23.753.27-Mar-2021 3426.01 4772.63 60.32 6.00 110.23 3169.91
   07:04:23.954.27-Mar-2021 3426.01 4772.56 60.32 6.00 110.43 3169.91
   07:04:24.154.27-Mar-2021 3426.01 4772.58 60.32 6.00 110.63 3169.91
   07:04:24.354.27-Mar-2021 3426.01 4772.67 60.32 6.00 110.83 3169.91
   07:04:24.554.27-Mar-2021 3426.01 4772.54 60.32 6.00 111.03 3169.91
   07:04:24.754.27-Mar-2021 3426.01 4772.54 60.32 6.00 111.23 3169.91
   07:04:24.954.27-Mar-2021 3426.01 4772.58 60.32 6.00 111.43 3169.91
   07:04:25.154.27-Mar-2021 3426.01 4772.32 60.32 6.00 111.63 3169.91
   07:04:25.354.27-Mar-2021 3426.01 4772.83 60.32 6.00 111.83 3169.91
   07:04:25.554.27-Mar-2021 3426.01 4772.61 60.32 6.00 112.03 3169.91
   07:04:25.754.27-Mar-2021 3426.01 4772.61 60.32 6.00 112.23 3169.91
   07:04:25.954.27-Mar-2021 3426.01 4772.63 60.32 6.00 112.43 3169.91
   07:04:26.154.27-Mar-2021 3426.01 4772.40 60.32 6.00 112.63 3169.91
   07:04:26.354.27-Mar-2021 3426.01 4772.80 60.32 6.00 112.83 3169.91
   07:04:26.554.27-Mar-2021 3426.01 4772.52 60.32 6.00 113.03 3169.91
   07:04:26.754.27-Mar-2021 3426.01 4772.52 60.32 6.00 113.23 3169.91
   07:04:26.954.27-Mar-2021 3426.01 4772.59 60.32 6.00 113.43 3169.91
   07:04:27.154.27-Mar-2021 3426.01 4772.60 60.32 6.00 113.63 3169.91
   07:04:27.354.27-Mar-2021 3426.01 4772.59 60.32 6.00 113.83 3169.91
   07:04:27.554.27-Mar-2021 3426.01 4772.57 60.32 6.00 114.03 3169.91
   07:04:27.754.27-Mar-2021 3426.01 4772.57 60.32 6.00 114.23 3169.91
   07:04:27.955.27-Mar-2021 3426.01 4772.60 60.32 6.00 114.43 3169.91
   07:04:28.155.27-Mar-2021 3426.01 4772.61 60.32 6.00 114.63 3169.91
   07:04:28.355.27-Mar-2021 3426.01 4772.59 60.32 6.00 114.83 3169.91
