~Version Information
 VERS.                  2.0:   CWLS log ASCII Standard -VERSION 2.0
 WRAP.                   NO:   One line per depth step
~Well Information Block
#MNEM.UNIT     VALUE/NAME     DESCRIPTION
#---------     -----------    ---------------------------
 STRT.S             01:51:11 27-Mar-21: START TIME 01:51:11 27-Mar-21
 STOP.S             01:58:18 27-Mar-21: STOP TIME  01:58:18 27-Mar-21
 STEP.S                   0.00: STEP TIME
 NULL.                 -999.25: NULL VALUE
 DFWT.                        :  DIST FWL TEXT
 DFST.                        :  DIST FSL TEXT
 DMF .             Drill Floor:  DRILL MEAS FROM
 STIM.      20.26.40 11-Mar-21:  START TIME
 DATE.      20.26.40 30-Mar-21:  END TIME
 SPUD.               11-Mar-21:  SPUD DATE
 NREF.                    Grid:  NORTH REFERENCE
 HPTY.       Minimum Curvature:  HOLE POS TYPE
 DMOD.             Drill Model:  DRILL MOD DESC
 SVYD.                  Survey:  SURVEY DESC
 ILTD.               Lithology:  INTERP LTH DESC
 FTOP.          Formation Tops:  FORM TOPS DESC
 SON .        AZ-XX-0906805385:  JOB NUMBER
 WTYP.                Deviated:  WELL TYPE
 COMP.     BP Exploration (Caspian Sea) Ltd.:  COMPANY
 UWI .            /AZE00000198:  UNIQUE WELL IDENTIFIER
 API .            /AZE00000198:  API NUMBER
 BASE.              Azerbaijan:  LOGGING EQUIPMENT BASE LOCATION
 REGN.                   EESSA:  REGION
 PROV.                    Baku:  PROVINCE
 STAT.                    Baku:  STATE NAME
 CTRY.              Azerbaijan:  COUNTRY NAME
 FLD .                     ACG:  FIELD NAME
 SRVC.     Turan Drilling & Engineering:  CONTRACTOR
 MWDS.                    Baku:  MWD SHOP
 WELL.                    D09z:  WELL NAME
 JOBN.        AZ-XX-0906805385:  JOB TICKET NUMB
 RIG .              East Azeri:  RIG NAME
 DOE .                     N/A:  DOE NUMBER
 DCON.         Sperry Drilling:  DIRECTNL CONTR
 UNIT.                     N/A:  LOGGING EQUIPMENT ID
 PDAT.          Mean Sea Level:  PERMANENT DATUM
 MDS .        Operator Entered:  MAG DATA SOURCE
 CNTY.                        :  COUNTY
 LOC .                        :  LOCATION
 LMF .             Drill Floor:  LOG MEASURED FROM
 TVDS.m                  43.60:  TVDSS CORRECTN
 LATI.deg                40.02:  LATITUDE
 LONG.deg                51.45:  LONGITUDE
 WHNS.m                 -17.04:  WELL HEAD N/S
 WHEW.m                  -6.28:  WELL HEAD E/W
 UTMX.m              538763.98:  UTM X
 UTMY.m             4431880.20:  UTM Y
 DFWL.m                   0.00:  DISTANCE FWL
 DFSL.m                   0.00:  DISTANCE FSL
 SDEP.m                2680.01:  START DEPTH
 TDD .m                4000.01:  TOTAL DEPTH (DRILLER)
 VSDR.deg               225.71:  VERT SEC DIRECT
 GVFD.g                   1.00:  GRAVITY FIELD
 MFLD.nT              50353.00:  MAGNETIC FIELD
 MDIP.deg                59.49:  MAGNETIC DIP
 MDEC.deg                 6.46:  MAGNETIC DECL
 GRDC.deg                 0.29:  GRID CORRECTION
 AZTC.deg                 6.17:  AZM TOTAL CORR
 EPD .m                   0.00:  ELEVATION
 EGL .m                   0.00:  GROUND ELEVATION
 WDMS.m                 151.80:  WD ELEV
 APD .m                  43.60:  DEPTH ABOVE PD
 AGAP.m                  43.60:  AIR GAP
 VSEW.m                  -6.28:  VERT SEC E/W
 VSNS.m                 -17.04:  VERT SEC N/S
 DEP .m                2656.31:  DEPTH
 EKB .m                  43.60:  KB ELEVATION
 EDF .m                  43.60:  DF ELEVATION
 VSC .                       0:  VS TO CLOSURE
 MAGU.                 1851247:  MAGUTM CHECKSUM
~Parameter Information Block
#MNEM.UNIT       Value        Description
#---------     -----------    ---------------------------
 AV  .mps                 3.00:  Ann Velocity 
 AVMX.mps                 8.00:  Max Ann Veloc 
 AZIF.deg                 0.00:  Azm, Final 
 BHAT.                   Other:  BHA Type 
 BREV.rev                 0.00:  Rev Bit Total 
 BROT.°/30m               0.00:  Build Rotating 
 BS  .in                 10.25:  Bit Size 
 BTPL.psig              511.00:  Bit Press Loss 
 CABU.                      No:  Customer Abuse 
 CGEO.           Asif Pashayev:  Customer Geo 
 COMM.                     |ºg:  Run Comments 1 
 TCS .hr                 24.03:  Time Ciculation Ended 
 CV  .mps                 3.50:  Crit Velocity 
 CVMX.mps                 4.00:  Max Crit Veloc 
 DD1 .             Aziz Aliyev:  Direct Drillr 1 
 DD2 .      Fakhraddin Guliyev:  Direct Drillr 2 
 DDSV.                   Other:  DD Service 
 DEFF.%                  99.00:  % Det Eff 
 DLRX.°/30m               0.00:  Dogleg Rot Max 
 DLSO.°/30m               0.00:  Dogleg Oriented 
 DLSX.°/30m               0.00:  Dogleg Str Max 
 DRET.      23.00.40 28-Mar-21:  Drill End Time 
 DRST.      23.30.40 25-Mar-21:  Drill Start Tim 
 DTIM.hr                  0.00:  Time Drilling 
 EDEP.m                3886.01:  End Depth 
 ENG1.         Almaz Almadatov:  Engineer 1 
 ENG2.      Artemiy Matviyanov:  Engineer 2 
 ENG3.           Samir Gafarov:  Engineer 3 
 ETIM.      23.00.40 28-Mar-21:  End Time 
 FLOI.gpm               550.00:  Flow In 
 FLON.gpm               500.00:  Flow In Min 
 FLOS.cptm                0.00:  Fluid Loss 
 FLOX.gpm               590.00:  Flow In Max 
 HFLO.                      No:  High Flow 
 HPRE.                      No:  High Pressure 
 HTEM.                      No:  High Temp 
 HYDO.m                   1.80:  Hydro Offset 
 IFIN.deg                 0.00:  Inc, Final 
 IMAX.deg                 0.00:  Inc Max 
 IMIN.deg                 0.00:  Inc Min 
 IMND.m                   0.00:  Inc Min Depth 
 IMXD.m                   0.00:  Inc Max Depth 
 JARR.                      No:  Jarring 
 LETM.      03.22.40 28-Mar-21:  Log End Time 
 LOST.hr                     0:  Lost Rig Time 
 LSTM.      23.30.40 25-Mar-21:  Log Start Time 
 MDCL.ppm             34000.00:  Mud Chlorides 
 MDES.     Inversion Oil/Synthetic:  Mud Desc 
 DFD .sg                  1.51:  Mud Density 
 MDMN.sg                  1.51:  Dens Mud Min 
 MDMX.sg                  1.51:  Dens Mud Max 
 MOIL.                      70:  Run Mud Oil % 
 MOWR.                   70:30:  Run Mud OWR 
 MSND.                     0.2:  Run Mud Sand % 
 MSOL.                   21.60:  Run Mud Solids% 
 DFV .spqt               74.00:  Mud Viscosity 
 MWOD.in                  6.75:  MWD Tool OD 
 MWSI.                      No:  Serv Intrp, MWD 
 OTIM.hr                 69.09:  Time Operating 
 PCON.           Look Like New:  Pad Condition 
 PMAX.psia             3500.00:  Press Op, Max 
 PV  .cP                 70.00:  Mud PV 
 RUN .                     400:  Run Number 
 ROPA.m/hr                0.00:  ROP Avg 
 ROPN.m/hr                0.00:  ROP Min 
 ROPX.m/hr                0.00:  ROP Max 
 RPMA.rpm                80.00:  RPM Surface Avg 
 RPMN.rpm                10.00:  RPM Surface Min 
 RPMX.rpm               100.00:  RPM Surface Max 
 RRUN.                    0400:  Rig Run Number 
 RTIM.hr                  3.00:  Time Reaming 
 SAZI.deg                 0.00:  Azm, Start 
 SDEP.m                3886.01:  Start Depth 
 SIDD.                      No:  Serv Intrp, DD 
 SINC.deg                 0.00:  Inc, Start 
 SPPA.psig             3270.00:  SPP Avg 
 SPPN.psig             3220.00:  SPP Min 
 SPPX.psig             4430.00:  SPP Max 
 STIM.      23.30.40 25-Mar-21:  Start Time 
 SVCS.                 DD, MWD:  Services 
 SVER.                    9.20:  Sperry Version 
 TDAT.m                   0.00:  Tot Depth Attmp 
 TDDF.                      No:  Trip for DD 
 TFF .                      No:  Trip for Fail 
 TQAA.f-kp                8.00:  Torque Abs Avg 
 TQAN.f-kp                7.00:  Torque Abs Min 
 TQAX.f-kp               11.00:  Torque Abs Max 
 TRRT.°/30m               0.00:  Turn Rotating 
 MRT .                  EWR-M5:  Maximum Recorded Temperature 
 TTMX.degC               76.47:  Max Tool Temp 
 VS01.                90640857:  Virtual Str1 SN 
 VS02.                90639246:  Virtual Str2 SN 
 VS03.                90642265:  Virtual Str3 SN 
 VS04.                11654497:  Virtual Str4 SN 
 WBMN.klb                 0.00:  WOB Min 
 WITN.      Kamran Keberlinkiy:  Customer Rep 
 WITN.           Murad Guliyev:  Customer Rep 2 
 WOBA.klb                 0.00:  WOB Avg 
 WOBX.klb                 0.00:  WOB Max 
 YP  .lhf2               36.00:  Yield Point 
~Curve Information Block
#MNEM.UNIT                 API CODE     Curve Description
#---------               -----------    ---------------------------
 TIME.HHMMSS            00 000 000 000:  GT Time & Date
 GTDEPTH.m              00 000 000 000:  GT Depth
 GTPQH.psia             00 000 000 000:  GT HR Quartz Pressure
 GTTQ.degC              00 000 000 000:  GT Quartz Temperature
 GTTN.NONE              00 000 000 000:  GT Test Number
 GTET.sec               00 000 000 000:  GT Elapsed Test Time
 GTTVD.m                00 000 000 000:  GT True Vertical Depth
#Other Information
#
#WARRANTY: Halliburton will use its best efforts to furnish customers with 
#accurate information and interpretations that are part of, and incident to, the services 
#provided.  However, Halliburton cannot and does not warrant the accuracy 
#or correctness of such information and interpretations.  Under no circumstances should any 
#such information or interpretation be relied upon as the sole basis for any drilling, 
#completion, production, or financial decision or any procedure involving any risk to the 
#safety of any drilling venture, drilling rig or its crew or any other third party.  The 
#Customer has full responsibility for all drilling, completion and production operation.  
#Halliburton makes no representations or warranties, either expressed or 
#implied, including, but not limited to, the implied warranties of merchantability or fitness 
#for a particular purpose, with respect to the services rendered.  In no event will 
#Halliburton be liable for failure to obtain any particular results or for 
#any damages, including, but not limited to, indirect, special or consequential damages, 
#resulting from the use of any information or interpretation provided by Halliburton.
#
~A           TIME           GTDEPTH  GTPQH  GTTQ  GTTN  GTET   GTTVD  
# ...
   01:55:24.693.27-Mar-2021 3763.51 4955.34 59.94 1.00 253.05 3487.00
   01:55:24.893.27-Mar-2021 3763.51 4955.34 59.94 1.00 253.25 3487.00
   01:55:25.093.27-Mar-2021 3763.51 4955.33 59.94 1.00 253.45 3487.00
   01:55:25.293.27-Mar-2021 3763.51 4955.34 59.94 1.00 253.65 3487.00
   01:55:25.493.27-Mar-2021 3763.51 4955.32 59.94 1.00 253.85 3487.00
   01:55:25.693.27-Mar-2021 3763.51 4955.36 59.94 1.00 254.05 3487.00
   01:55:25.893.27-Mar-2021 3763.51 4955.36 59.94 1.00 254.25 3487.00
   01:55:26.093.27-Mar-2021 3763.51 4955.32 59.94 1.00 254.45 3487.00
   01:55:26.293.27-Mar-2021 3763.51 4955.33 59.94 1.00 254.65 3487.00
   01:55:26.493.27-Mar-2021 3763.51 4955.42 59.94 1.00 254.85 3487.00
   01:55:26.693.27-Mar-2021 3763.51 4955.28 59.94 1.00 255.05 3487.00
   01:55:26.893.27-Mar-2021 3763.51 4955.28 59.94 1.00 255.25 3487.00
   01:55:27.093.27-Mar-2021 3763.51 4955.45 59.94 1.00 255.45 3487.00
   01:55:27.293.27-Mar-2021 3763.51 4955.23 59.95 1.00 255.65 3487.00
   01:55:27.493.27-Mar-2021 3763.51 4955.32 59.95 1.00 255.85 3487.00
   01:55:27.693.27-Mar-2021 3763.51 4955.40 59.95 1.00 256.05 3487.00
   01:55:27.893.27-Mar-2021 3763.51 4955.40 59.95 1.00 256.25 3487.00
   01:55:28.094.27-Mar-2021 3763.51 4955.30 59.95 1.00 256.45 3487.00
   01:55:28.294.27-Mar-2021 3763.51 4955.36 59.95 1.00 256.65 3487.00
   01:55:28.494.27-Mar-2021 3763.51 4955.34 59.95 1.00 256.85 3487.00
   01:55:28.694.27-Mar-2021 3763.51 4955.31 59.95 1.00 257.05 3487.00
   01:55:28.894.27-Mar-2021 3763.51 4955.31 59.95 1.00 257.25 3487.00
   01:55:29.094.27-Mar-2021 3763.51 4955.30 59.95 1.00 257.45 3487.00
   01:55:29.294.27-Mar-2021 3763.51 4955.26 59.95 1.00 257.65 3487.00
   01:55:29.494.27-Mar-2021 3763.51 4955.37 59.95 1.00 257.85 3487.00
   01:55:29.694.27-Mar-2021 3763.51 4955.35 59.95 1.00 258.05 3487.00
   01:55:29.894.27-Mar-2021 3763.51 4955.35 59.95 1.00 258.25 3487.00
   01:55:30.094.27-Mar-2021 3763.51 4955.40 59.95 1.00 258.45 3487.00
   01:55:30.294.27-Mar-2021 3763.51 4955.37 59.95 1.00 258.65 3487.00
   01:55:30.494.27-Mar-2021 3763.51 4955.21 59.95 1.00 258.85 3487.00
   01:55:30.694.27-Mar-2021 3763.51 4955.32 59.95 1.00 259.05 3487.00
   01:55:30.894.27-Mar-2021 3763.51 4955.32 59.95 1.00 259.25 3487.00
   01:55:31.094.27-Mar-2021 3763.51 4955.31 59.95 1.00 259.45 3487.00
   01:55:31.294.27-Mar-2021 3763.51 4955.29 59.95 1.00 259.65 3487.00
   01:55:31.494.27-Mar-2021 3763.51 4955.32 59.95 1.00 259.85 3487.00
   01:55:31.694.27-Mar-2021 3763.51 4955.33 59.95 1.00 260.05 3487.00
   01:55:31.894.27-Mar-2021 3763.51 4955.33 59.95 1.00 260.25 3487.00
   01:55:32.094.27-Mar-2021 3763.51 4955.31 59.95 1.00 260.45 3487.00
   01:55:32.294.27-Mar-2021 3763.51 4955.35 59.95 1.00 260.65 3487.00
   01:55:32.494.27-Mar-2021 3763.51 4955.34 59.95 1.00 260.85 3487.00
   01:55:32.694.27-Mar-2021 3763.51 4955.32 59.95 1.00 261.05 3487.00
   01:55:32.895.27-Mar-2021 3763.51 4955.32 59.95 1.00 261.25 3487.00
   01:55:33.095.27-Mar-2021 3763.51 4955.38 59.95 1.00 261.45 3487.00
   01:55:33.295.27-Mar-2021 3763.51 4955.38 59.95 1.00 261.65 3487.00
   01:55:33.495.27-Mar-2021 3763.51 4955.25 59.95 1.00 261.85 3487.00
   01:55:33.695.27-Mar-2021 3763.51 4955.29 59.95 1.00 262.05 3487.00
   01:55:33.895.27-Mar-2021 3763.51 4955.29 59.95 1.00 262.25 3487.00
   01:55:34.095.27-Mar-2021 3763.51 4955.32 59.95 1.00 262.45 3487.00
   01:55:34.295.27-Mar-2021 3763.51 4955.29 59.95 1.00 262.65 3487.00
   01:55:34.495.27-Mar-2021 3763.51 4955.35 59.95 1.00 262.85 3487.00
   01:55:34.695.27-Mar-2021 3763.51 4955.32 59.95 1.00 263.05 3487.00
   01:55:34.895.27-Mar-2021 3763.51 4955.32 59.95 1.00 263.25 3487.00
   01:55:35.095.27-Mar-2021 3763.51 4955.30 59.95 1.00 263.45 3487.00
   01:55:35.295.27-Mar-2021 3763.51 4941.40 59.95 1.00 263.65 3487.00
   01:55:35.495.27-Mar-2021 3763.51 4912.27 59.95 1.00 263.85 3487.00
   01:55:35.695.27-Mar-2021 3763.51 4912.31 59.95 1.00 264.05 3487.00
   01:55:35.895.27-Mar-2021 3763.51 4912.31 59.95 1.00 264.25 3487.00
   01:55:36.095.27-Mar-2021 3763.51 4912.26 59.95 1.00 264.45 3487.00
   01:55:36.295.27-Mar-2021 3763.51 4912.33 59.95 1.00 264.65 3487.00
   01:55:36.495.27-Mar-2021 3763.51 4912.87 59.95 1.00 264.85 3487.00
   01:55:36.695.27-Mar-2021 3763.51 4915.34 59.95 1.00 265.05 3487.00
   01:55:36.895.27-Mar-2021 3763.51 4915.34 59.95 1.00 265.25 3487.00
   01:55:37.095.27-Mar-2021 3763.51 4917.87 59.95 1.00 265.45 3487.00
   01:55:37.295.27-Mar-2021 3763.51 4917.63 59.95 1.00 265.66 3487.00
   01:55:37.495.27-Mar-2021 3763.51 4918.47 59.95 1.00 265.86 3487.00
   01:55:37.696.27-Mar-2021 3763.51 4918.62 59.95 1.00 266.06 3487.00
   01:55:37.896.27-Mar-2021 3763.51 4918.62 59.95 1.00 266.26 3487.00
   01:55:38.096.27-Mar-2021 3763.51 4917.79 59.95 1.00 266.46 3487.00
   01:55:38.296.27-Mar-2021 3763.51 4918.29 59.95 1.00 266.66 3487.00
   01:55:38.496.27-Mar-2021 3763.51 4918.20 59.95 1.00 266.86 3487.00
   01:55:38.696.27-Mar-2021 3763.51 4918.31 59.95 1.00 267.06 3487.00
   01:55:38.896.27-Mar-2021 3763.51 4918.31 59.95 1.00 267.26 3487.00
   01:55:39.096.27-Mar-2021 3763.51 4917.79 59.95 1.00 267.46 3487.00
   01:55:39.296.27-Mar-2021 3763.51 4917.95 59.95 1.00 267.66 3487.00
   01:55:39.496.27-Mar-2021 3763.51 4917.92 59.95 1.00 267.86 3487.00
   01:55:39.696.27-Mar-2021 3763.51 4918.49 59.95 1.00 268.06 3487.00
   01:55:39.896.27-Mar-2021 3763.51 4918.49 59.95 1.00 268.26 3487.00
   01:55:40.096.27-Mar-2021 3763.51 4917.77 59.95 1.00 268.46 3487.00
   01:55:40.296.27-Mar-2021 3763.51 4917.18 59.95 1.00 268.66 3487.00
   01:55:40.496.27-Mar-2021 3763.51 4917.68 59.95 1.00 268.86 3487.00
   01:55:40.696.27-Mar-2021 3763.51 4918.11 59.95 1.00 269.06 3487.00
   01:55:40.896.27-Mar-2021 3763.51 4918.11 59.95 1.00 269.26 3487.00
   01:55:41.096.27-Mar-2021 3763.51 4918.17 59.95 1.00 269.46 3487.00
   01:55:41.296.27-Mar-2021 3763.51 4918.04 59.95 1.00 269.66 3487.00
   01:55:41.496.27-Mar-2021 3763.51 4918.34 59.95 1.00 269.86 3487.00
   01:55:41.696.27-Mar-2021 3763.51 4917.89 59.95 1.00 270.06 3487.00
   01:55:41.896.27-Mar-2021 3763.51 4917.89 59.95 1.00 270.26 3487.00
   01:55:42.096.27-Mar-2021 3763.51 4919.78 59.95 1.00 270.46 3487.00
   01:55:42.296.27-Mar-2021 3763.51 4918.77 59.95 1.00 270.66 3487.00
   01:55:42.496.27-Mar-2021 3763.51 4918.59 59.95 1.00 270.86 3487.00
   01:55:42.697.27-Mar-2021 3763.51 4918.05 59.95 1.00 271.06 3487.00
   01:55:42.897.27-Mar-2021 3763.51 4918.05 59.95 1.00 271.26 3487.00
   01:55:43.097.27-Mar-2021 3763.51 4918.65 59.95 1.00 271.46 3487.00
   01:55:43.297.27-Mar-2021 3763.51 4918.81 59.95 1.00 271.66 3487.00
   01:55:43.497.27-Mar-2021 3763.51 4918.54 59.95 1.00 271.86 3487.00
   01:55:43.697.27-Mar-2021 3763.51 4918.86 59.95 1.00 272.06 3487.00
   01:55:43.897.27-Mar-2021 3763.51 4918.86 59.95 1.00 272.26 3487.00
   01:55:44.097.27-Mar-2021 3763.51 4919.14 59.95 1.00 272.46 3487.00
   01:55:44.297.27-Mar-2021 3763.51 4918.59 59.95 1.00 272.66 3487.00
   01:55:44.497.27-Mar-2021 3763.51 4919.29 59.95 1.00 272.86 3487.00
   01:55:44.697.27-Mar-2021 3763.51 4919.24 59.95 1.00 273.06 3487.00
   01:55:44.897.27-Mar-2021 3763.51 4919.24 59.95 1.00 273.26 3487.00
   01:55:45.097.27-Mar-2021 3763.51 4918.84 59.95 1.00 273.46 3487.00
   01:55:45.297.27-Mar-2021 3763.51 4918.91 59.95 1.00 273.66 3487.00
   01:55:45.497.27-Mar-2021 3763.51 4947.31 59.95 1.00 273.86 3487.00
   01:55:45.697.27-Mar-2021 3763.51 4954.51 59.95 1.00 274.06 3487.00
   01:55:45.897.27-Mar-2021 3763.51 4954.51 59.95 1.00 274.26 3487.00
   01:55:46.097.27-Mar-2021 3763.51 4954.87 59.95 1.00 274.46 3487.00
   01:55:46.297.27-Mar-2021 3763.51 4954.98 59.95 1.00 274.66 3487.00
   01:55:46.497.27-Mar-2021 3763.51 4954.97 59.95 1.00 274.86 3487.00
   01:55:46.697.27-Mar-2021 3763.51 4955.00 59.95 1.00 275.06 3487.00
   01:55:46.897.27-Mar-2021 3763.51 4955.00 59.95 1.00 275.26 3487.00
   01:55:47.097.27-Mar-2021 3763.51 4954.93 59.95 1.00 275.46 3487.00
   01:55:47.297.27-Mar-2021 3763.51 4955.02 59.95 1.00 275.66 3487.00
   01:55:47.498.27-Mar-2021 3763.51 4955.08 59.95 1.00 275.86 3487.00
