~Version Information
 VERS.                  2.0:   CWLS log ASCII Standard -VERSION 2.0
 WRAP.                   NO:   One line per depth step
~Well Information Block
#MNEM.UNIT     VALUE/NAME     DESCRIPTION
#---------     -----------    ---------------------------
 STRT.S             11:05:10 27-Mar-21: START TIME 11:05:10 27-Mar-21
 STOP.S             11:12:21 27-Mar-21: STOP TIME  11:12:21 27-Mar-21
 STEP.S                   0.00: STEP TIME
 NULL.                 -999.25: NULL VALUE
 DFWT.                        :  DIST FWL TEXT
 DFST.                        :  DIST FSL TEXT
 DMF .             Drill Floor:  DRILL MEAS FROM
 STIM.      20.26.40 11-Mar-21:  START TIME
 DATE.      20.26.40 30-Mar-21:  END TIME
 SPUD.               11-Mar-21:  SPUD DATE
 NREF.                    Grid:  NORTH REFERENCE
 HPTY.       Minimum Curvature:  HOLE POS TYPE
 DMOD.             Drill Model:  DRILL MOD DESC
 SVYD.                  Survey:  SURVEY DESC
 ILTD.               Lithology:  INTERP LTH DESC
 FTOP.          Formation Tops:  FORM TOPS DESC
 SON .        AZ-XX-0906805385:  JOB NUMBER
 WTYP.                Deviated:  WELL TYPE
 COMP.     BP Exploration (Caspian Sea) Ltd.:  COMPANY
 UWI .            /AZE00000198:  UNIQUE WELL IDENTIFIER
 API .            /AZE00000198:  API NUMBER
 BASE.              Azerbaijan:  LOGGING EQUIPMENT BASE LOCATION
 REGN.                   EESSA:  REGION
 PROV.                    Baku:  PROVINCE
 STAT.                    Baku:  STATE NAME
 CTRY.              Azerbaijan:  COUNTRY NAME
 FLD .                     ACG:  FIELD NAME
 SRVC.     Turan Drilling & Engineering:  CONTRACTOR
 MWDS.                    Baku:  MWD SHOP
 WELL.                    D09z:  WELL NAME
 JOBN.        AZ-XX-0906805385:  JOB TICKET NUMB
 RIG .              East Azeri:  RIG NAME
 DOE .                     N/A:  DOE NUMBER
 DCON.         Sperry Drilling:  DIRECTNL CONTR
 UNIT.                     N/A:  LOGGING EQUIPMENT ID
 PDAT.          Mean Sea Level:  PERMANENT DATUM
 MDS .        Operator Entered:  MAG DATA SOURCE
 CNTY.                        :  COUNTY
 LOC .                        :  LOCATION
 LMF .             Drill Floor:  LOG MEASURED FROM
 TVDS.m                  43.60:  TVDSS CORRECTN
 LATI.deg                40.02:  LATITUDE
 LONG.deg                51.45:  LONGITUDE
 WHNS.m                 -17.04:  WELL HEAD N/S
 WHEW.m                  -6.28:  WELL HEAD E/W
 UTMX.m              538763.98:  UTM X
 UTMY.m             4431880.20:  UTM Y
 DFWL.m                   0.00:  DISTANCE FWL
 DFSL.m                   0.00:  DISTANCE FSL
 SDEP.m                2680.01:  START DEPTH
 TDD .m                4000.01:  TOTAL DEPTH (DRILLER)
 VSDR.deg               225.71:  VERT SEC DIRECT
 GVFD.g                   1.00:  GRAVITY FIELD
 MFLD.nT              50353.00:  MAGNETIC FIELD
 MDIP.deg                59.49:  MAGNETIC DIP
 MDEC.deg                 6.46:  MAGNETIC DECL
 GRDC.deg                 0.29:  GRID CORRECTION
 AZTC.deg                 6.17:  AZM TOTAL CORR
 EPD .m                   0.00:  ELEVATION
 EGL .m                   0.00:  GROUND ELEVATION
 WDMS.m                 151.80:  WD ELEV
 APD .m                  43.60:  DEPTH ABOVE PD
 AGAP.m                  43.60:  AIR GAP
 VSEW.m                  -6.28:  VERT SEC E/W
 VSNS.m                 -17.04:  VERT SEC N/S
 DEP .m                2656.31:  DEPTH
 EKB .m                  43.60:  KB ELEVATION
 EDF .m                  43.60:  DF ELEVATION
 VSC .                       0:  VS TO CLOSURE
 MAGU.                 1851247:  MAGUTM CHECKSUM
~Parameter Information Block
#MNEM.UNIT       Value        Description
#---------     -----------    ---------------------------
 AV  .mps                 3.00:  Ann Velocity 
 AVMX.mps                 8.00:  Max Ann Veloc 
 AZIF.deg                 0.00:  Azm, Final 
 BHAT.                   Other:  BHA Type 
 BREV.rev                 0.00:  Rev Bit Total 
 BROT.°/30m               0.00:  Build Rotating 
 BS  .in                 10.25:  Bit Size 
 BTPL.psig              511.00:  Bit Press Loss 
 CABU.                      No:  Customer Abuse 
 CGEO.           Asif Pashayev:  Customer Geo 
 COMM.                     $Ml:  Run Comments 1 
 TCS .hr                 24.03:  Time Ciculation Ended 
 CV  .mps                 3.50:  Crit Velocity 
 CVMX.mps                 4.00:  Max Crit Veloc 
 DD1 .             Aziz Aliyev:  Direct Drillr 1 
 DD2 .      Fakhraddin Guliyev:  Direct Drillr 2 
 DDSV.                   Other:  DD Service 
 DEFF.%                  99.00:  % Det Eff 
 DLRX.°/30m               0.00:  Dogleg Rot Max 
 DLSO.°/30m               0.00:  Dogleg Oriented 
 DLSX.°/30m               0.00:  Dogleg Str Max 
 DRET.      23.00.40 28-Mar-21:  Drill End Time 
 DRST.      23.30.40 25-Mar-21:  Drill Start Tim 
 DTIM.hr                  0.00:  Time Drilling 
 EDEP.m                3886.01:  End Depth 
 ENG1.         Almaz Almadatov:  Engineer 1 
 ENG2.      Artemiy Matviyanov:  Engineer 2 
 ENG3.           Samir Gafarov:  Engineer 3 
 ETIM.      23.00.40 28-Mar-21:  End Time 
 FLOI.gpm               550.00:  Flow In 
 FLON.gpm               500.00:  Flow In Min 
 FLOS.cptm                0.00:  Fluid Loss 
 FLOX.gpm               590.00:  Flow In Max 
 HFLO.                      No:  High Flow 
 HPRE.                      No:  High Pressure 
 HTEM.                      No:  High Temp 
 HYDO.m                   1.80:  Hydro Offset 
 IFIN.deg                 0.00:  Inc, Final 
 IMAX.deg                 0.00:  Inc Max 
 IMIN.deg                 0.00:  Inc Min 
 IMND.m                   0.00:  Inc Min Depth 
 IMXD.m                   0.00:  Inc Max Depth 
 JARR.                      No:  Jarring 
 LETM.      03.22.40 28-Mar-21:  Log End Time 
 LOST.hr                     0:  Lost Rig Time 
 LSTM.      23.30.40 25-Mar-21:  Log Start Time 
 MDCL.ppm             34000.00:  Mud Chlorides 
 MDES.     Inversion Oil/Synthetic:  Mud Desc 
 DFD .sg                  1.51:  Mud Density 
 MDMN.sg                  1.51:  Dens Mud Min 
 MDMX.sg                  1.51:  Dens Mud Max 
 MOIL.                      70:  Run Mud Oil % 
 MOWR.                   70:30:  Run Mud OWR 
 MSND.                     0.2:  Run Mud Sand % 
 MSOL.                   21.60:  Run Mud Solids% 
 DFV .spqt               74.00:  Mud Viscosity 
 MWOD.in                  6.75:  MWD Tool OD 
 MWSI.                      No:  Serv Intrp, MWD 
 OTIM.hr                 69.09:  Time Operating 
 PCON.           Look Like New:  Pad Condition 
 PMAX.psia             3500.00:  Press Op, Max 
 PV  .cP                 70.00:  Mud PV 
 RUN .                     400:  Run Number 
 ROPA.m/hr                0.00:  ROP Avg 
 ROPN.m/hr                0.00:  ROP Min 
 ROPX.m/hr                0.00:  ROP Max 
 RPMA.rpm                80.00:  RPM Surface Avg 
 RPMN.rpm                10.00:  RPM Surface Min 
 RPMX.rpm               100.00:  RPM Surface Max 
 RRUN.                    0400:  Rig Run Number 
 RTIM.hr                  3.00:  Time Reaming 
 SAZI.deg                 0.00:  Azm, Start 
 SDEP.m                3886.01:  Start Depth 
 SIDD.                      No:  Serv Intrp, DD 
 SINC.deg                 0.00:  Inc, Start 
 SPPA.psig             3270.00:  SPP Avg 
 SPPN.psig             3220.00:  SPP Min 
 SPPX.psig             4430.00:  SPP Max 
 STIM.      23.30.40 25-Mar-21:  Start Time 
 SVCS.                 DD, MWD:  Services 
 SVER.                    9.20:  Sperry Version 
 TDAT.m                   0.00:  Tot Depth Attmp 
 TDDF.                      No:  Trip for DD 
 TFF .                      No:  Trip for Fail 
 TQAA.f-kp                8.00:  Torque Abs Avg 
 TQAN.f-kp                7.00:  Torque Abs Min 
 TQAX.f-kp               11.00:  Torque Abs Max 
 TRRT.°/30m               0.00:  Turn Rotating 
 MRT .                  EWR-M5:  Maximum Recorded Temperature 
 TTMX.degC               76.47:  Max Tool Temp 
 VS01.                90640857:  Virtual Str1 SN 
 VS02.                90639246:  Virtual Str2 SN 
 VS03.                90642265:  Virtual Str3 SN 
 VS04.                11654497:  Virtual Str4 SN 
 WBMN.klb                 0.00:  WOB Min 
 WITN.      Kamran Keberlinkiy:  Customer Rep 
 WITN.           Murad Guliyev:  Customer Rep 2 
 WOBA.klb                 0.00:  WOB Avg 
 WOBX.klb                 0.00:  WOB Max 
 YP  .lhf2               36.00:  Yield Point 
~Curve Information Block
#MNEM.UNIT                 API CODE     Curve Description
#---------               -----------    ---------------------------
 TIME.HHMMSS            00 000 000 000:  GT Time & Date
 GTDEPTH.m              00 000 000 000:  GT Depth
 GTPQH.psia             00 000 000 000:  GT HR Quartz Pressure
 GTTQ.degC              00 000 000 000:  GT Quartz Temperature
 GTTN.NONE              00 000 000 000:  GT Test Number
 GTET.sec               00 000 000 000:  GT Elapsed Test Time
 GTTVD.m                00 000 000 000:  GT True Vertical Depth
#Other Information
#
#WARRANTY: Halliburton will use its best efforts to furnish customers with 
#accurate information and interpretations that are part of, and incident to, the services 
#provided.  However, Halliburton cannot and does not warrant the accuracy 
#or correctness of such information and interpretations.  Under no circumstances should any 
#such information or interpretation be relied upon as the sole basis for any drilling, 
#completion, production, or financial decision or any procedure involving any risk to the 
#safety of any drilling venture, drilling rig or its crew or any other third party.  The 
#Customer has full responsibility for all drilling, completion and production operation.  
#Halliburton makes no representations or warranties, either expressed or 
#implied, including, but not limited to, the implied warranties of merchantability or fitness 
#for a particular purpose, with respect to the services rendered.  In no event will 
#Halliburton be liable for failure to obtain any particular results or for 
#any damages, including, but not limited to, indirect, special or consequential damages, 
#resulting from the use of any information or interpretation provided by Halliburton.
#
~A           TIME           GTDEPTH  GTPQH  GTTQ  GTTN   GTET   GTTVD  
   11:05:10.227.27-Mar-2021 3279.01 7060.83 61.35 11.00   0.00 3032.17
   11:05:10.427.27-Mar-2021 3279.01 7060.83 61.35 11.00   0.20 3032.17
   11:05:10.627.27-Mar-2021 3279.01 7061.74 61.35 11.00   0.40 3032.17
   11:05:10.827.27-Mar-2021 3279.01 7065.04 61.35 11.00   0.60 3032.17
   11:05:11.027.27-Mar-2021 3279.01 7062.50 61.35 11.00   0.80 3032.17
   11:05:11.227.27-Mar-2021 3279.01 7062.92 61.35 11.00   1.00 3032.17
   11:05:11.427.27-Mar-2021 3279.01 7062.92 61.35 11.00   1.20 3032.17
   11:05:11.627.27-Mar-2021 3279.01 7066.05 61.35 11.00   1.40 3032.17
   11:05:11.827.27-Mar-2021 3279.01 7063.21 61.35 11.00   1.60 3032.17
   11:05:12.027.27-Mar-2021 3279.01 7063.07 61.35 11.00   1.80 3032.17
   11:05:12.227.27-Mar-2021 3279.01 7064.13 61.35 11.00   2.00 3032.17
   11:05:12.427.27-Mar-2021 3279.01 7064.13 61.35 11.00   2.20 3032.17
   11:05:12.627.27-Mar-2021 3279.01 7067.21 61.35 11.00   2.40 3032.17
   11:05:12.827.27-Mar-2021 3279.01 7063.85 61.35 11.00   2.60 3032.17
   11:05:13.027.27-Mar-2021 3279.01 7064.96 61.35 11.00   2.80 3032.17
   11:05:13.227.27-Mar-2021 3279.01 7064.32 61.35 11.00   3.00 3032.17
   11:05:13.428.27-Mar-2021 3279.01 7064.32 61.35 11.00   3.20 3032.17
   11:05:13.628.27-Mar-2021 3279.01 7064.60 61.35 11.00   3.40 3032.17
   11:05:13.828.27-Mar-2021 3279.01 7068.19 61.35 11.00   3.60 3032.17
   11:05:14.028.27-Mar-2021 3279.01 7065.91 61.35 11.00   3.80 3032.17
   11:05:14.228.27-Mar-2021 3279.01 7065.62 61.35 11.00   4.00 3032.17
   11:05:14.428.27-Mar-2021 3279.01 7065.62 61.35 11.00   4.20 3032.17
   11:05:14.628.27-Mar-2021 3279.01 7066.13 61.35 11.00   4.40 3032.17
   11:05:14.828.27-Mar-2021 3279.01 7066.00 61.35 11.00   4.60 3032.17
   11:05:15.028.27-Mar-2021 3279.01 7069.41 61.35 11.00   4.80 3032.17
   11:05:15.228.27-Mar-2021 3279.01 7067.03 61.35 11.00   5.00 3032.17
   11:05:15.428.27-Mar-2021 3279.01 7067.03 61.35 11.00   5.20 3032.17
   11:05:15.628.27-Mar-2021 3279.01 7067.14 61.35 11.00   5.40 3032.17
   11:05:15.828.27-Mar-2021 3279.01 7071.30 61.35 11.00   5.60 3032.17
   11:05:16.028.27-Mar-2021 3279.01 7065.93 61.35 11.00   5.80 3032.17
   11:05:16.228.27-Mar-2021 3279.01 7067.39 61.34 11.00   6.00 3032.17
   11:05:16.428.27-Mar-2021 3279.01 7067.39 61.34 11.00   6.20 3032.17
   11:05:16.628.27-Mar-2021 3279.01 7068.04 61.34 11.00   6.40 3032.17
   11:05:16.828.27-Mar-2021 3279.01 7068.23 61.34 11.00   6.60 3032.17
   11:05:17.028.27-Mar-2021 3279.01 7071.34 61.34 11.00   6.80 3032.17
   11:05:17.228.27-Mar-2021 3279.01 7068.83 61.34 11.00   7.00 3032.17
   11:05:17.428.27-Mar-2021 3279.01 7068.83 61.34 11.00   7.20 3032.17
   11:05:17.629.27-Mar-2021 3279.01 7068.98 61.34 11.00   7.40 3032.17
   11:05:17.829.27-Mar-2021 3279.01 7068.89 61.34 11.00   7.60 3032.17
   11:05:18.029.27-Mar-2021 3279.01 7068.62 61.34 11.00   7.80 3032.17
   11:05:18.229.27-Mar-2021 3279.01 7068.50 61.34 11.00   8.00 3032.17
   11:05:18.429.27-Mar-2021 3279.01 7068.50 61.34 11.00   8.20 3032.17
   11:05:18.629.27-Mar-2021 3279.01 7069.35 61.34 11.00   8.40 3032.17
   11:05:18.829.27-Mar-2021 3279.01 7069.40 61.34 11.00   8.60 3032.17
   11:05:19.029.27-Mar-2021 3279.01 7069.35 61.34 11.00   8.80 3032.17
   11:05:19.229.27-Mar-2021 3279.01 7069.52 61.34 11.00   9.00 3032.17
   11:05:19.429.27-Mar-2021 3279.01 7069.52 61.34 11.00   9.20 3032.17
   11:05:19.629.27-Mar-2021 3279.01 7069.82 61.34 11.00   9.40 3032.17
   11:05:19.829.27-Mar-2021 3279.01 7070.16 61.34 11.00   9.60 3032.17
   11:05:20.029.27-Mar-2021 3279.01 7070.28 61.34 11.00   9.80 3032.17
   11:05:20.229.27-Mar-2021 3279.01 7070.29 61.34 11.00  10.00 3032.17
   11:05:20.429.27-Mar-2021 3279.01 7070.29 61.34 11.00  10.20 3032.17
   11:05:20.629.27-Mar-2021 3279.01 7070.25 61.34 11.00  10.40 3032.17
   11:05:20.829.27-Mar-2021 3279.01 7071.08 61.34 11.00  10.60 3032.17
   11:05:21.029.27-Mar-2021 3279.01 7070.30 61.34 11.00  10.80 3032.17
   11:05:21.229.27-Mar-2021 3279.01 7070.56 61.34 11.00  11.00 3032.17
   11:05:21.429.27-Mar-2021 3279.01 7070.56 61.34 11.00  11.20 3032.17
   11:05:21.629.27-Mar-2021 3279.01 7070.75 61.34 11.00  11.40 3032.17
   11:05:21.830.27-Mar-2021 3279.01 7071.37 61.34 11.00  11.60 3032.17
   11:05:22.030.27-Mar-2021 3279.01 7071.12 61.34 11.00  11.80 3032.17
   11:05:22.230.27-Mar-2021 3279.01 7070.91 61.34 11.00  12.00 3032.17
   11:05:22.430.27-Mar-2021 3279.01 7070.91 61.34 11.00  12.20 3032.17
   11:05:22.630.27-Mar-2021 3279.01 7071.04 61.34 11.00  12.40 3032.17
   11:05:22.830.27-Mar-2021 3279.01 7071.19 61.34 11.00  12.60 3032.17
   11:05:23.030.27-Mar-2021 3279.01 7071.52 61.34 11.00  12.80 3032.17
   11:05:23.230.27-Mar-2021 3279.01 7071.34 61.34 11.00  13.00 3032.17
   11:05:23.430.27-Mar-2021 3279.01 7071.34 61.34 11.00  13.20 3032.17
   11:05:23.630.27-Mar-2021 3279.01 7071.45 61.34 11.00  13.40 3032.17
   11:05:23.830.27-Mar-2021 3279.01 7074.75 61.34 11.00  13.60 3032.17
   11:05:24.030.27-Mar-2021 3279.01 7071.62 61.34 11.00  13.80 3032.17
   11:05:24.230.27-Mar-2021 3279.01 7072.44 61.34 11.00  14.00 3032.17
   11:05:24.430.27-Mar-2021 3279.01 7072.44 61.34 11.00  14.20 3032.17
   11:05:24.630.27-Mar-2021 3279.01 7072.60 61.34 11.00  14.40 3032.17
   11:05:24.830.27-Mar-2021 3279.01 7074.90 61.34 11.00  14.60 3032.17
   11:05:25.030.27-Mar-2021 3279.01 7072.17 61.34 11.00  14.80 3032.17
   11:05:25.230.27-Mar-2021 3279.01 7073.93 61.34 11.00  15.00 3032.17
   11:05:25.430.27-Mar-2021 3279.01 7073.93 61.34 11.00  15.20 3032.17
   11:05:25.630.27-Mar-2021 3279.01 7075.80 61.34 11.00  15.40 3032.17
   11:05:25.830.27-Mar-2021 3279.01 7073.11 61.34 11.00  15.60 3032.17
   11:05:26.030.27-Mar-2021 3279.01 7074.09 61.34 11.00  15.80 3032.17
   11:05:26.231.27-Mar-2021 3279.01 7073.84 61.34 11.00  16.00 3032.17
   11:05:26.431.27-Mar-2021 3279.01 7073.84 61.34 11.00  16.20 3032.17
   11:05:26.631.27-Mar-2021 3279.01 7073.84 61.34 11.00  16.40 3032.17
   11:05:26.831.27-Mar-2021 3279.01 7074.12 61.34 11.00  16.60 3032.17
   11:05:27.031.27-Mar-2021 3279.01 7074.41 61.34 11.00  16.80 3032.17
   11:05:27.231.27-Mar-2021 3279.01 7073.61 61.34 11.00  17.00 3032.17
   11:05:27.431.27-Mar-2021 3279.01 7073.61 61.34 11.00  17.20 3032.17
   11:05:27.631.27-Mar-2021 3279.01 7074.36 61.34 11.00  17.40 3032.17
   11:05:27.831.27-Mar-2021 3279.01 7077.54 61.34 11.00  17.60 3032.17
   11:05:28.031.27-Mar-2021 3279.01 7074.23 61.34 11.00  17.80 3032.17
   11:05:28.231.27-Mar-2021 3279.01 7074.94 61.34 11.00  18.00 3032.17
   11:05:28.431.27-Mar-2021 3279.01 7074.94 61.34 11.00  18.20 3032.17
   11:05:28.631.27-Mar-2021 3279.01 7074.88 61.34 11.00  18.40 3032.17
   11:05:28.831.27-Mar-2021 3279.01 7074.60 61.34 11.00  18.60 3032.17
   11:05:29.031.27-Mar-2021 3279.01 7074.72 61.34 11.00  18.80 3032.17
   11:05:29.231.27-Mar-2021 3279.01 7075.06 61.34 11.00  19.00 3032.17
   11:05:29.431.27-Mar-2021 3279.01 7075.06 61.34 11.00  19.20 3032.17
   11:05:29.631.27-Mar-2021 3279.01 7075.21 61.34 11.00  19.40 3032.17
   11:05:29.831.27-Mar-2021 3279.01 7075.43 61.34 11.00  19.60 3032.17
   11:05:30.031.27-Mar-2021 3279.01 7075.17 61.34 11.00  19.80 3032.17
   11:05:30.231.27-Mar-2021 3279.01 7074.85 61.34 11.00  20.00 3032.17
   11:05:30.432.27-Mar-2021 3279.01 7074.85 61.34 11.00  20.20 3032.17
   11:05:30.632.27-Mar-2021 3279.01 7075.21 61.34 11.00  20.40 3032.17
   11:05:30.832.27-Mar-2021 3279.01 7075.35 61.34 11.00  20.60 3032.17
   11:05:31.032.27-Mar-2021 3279.01 7078.52 61.34 11.00  20.80 3032.17
   11:05:31.232.27-Mar-2021 3279.01 7075.41 61.33 11.00  21.00 3032.17
   11:05:31.432.27-Mar-2021 3279.01 7075.41 61.33 11.00  21.20 3032.17
   11:05:31.632.27-Mar-2021 3279.01 7076.04 61.33 11.00  21.41 3032.17
   11:05:31.832.27-Mar-2021 3279.01 7075.31 61.33 11.00  21.61 3032.17
   11:05:32.032.27-Mar-2021 3279.01 7075.44 61.33 11.00  21.81 3032.17
   11:05:32.232.27-Mar-2021 3279.01 7075.37 61.33 11.00  22.01 3032.17
   11:05:32.432.27-Mar-2021 3279.01 7075.37 61.33 11.00  22.21 3032.17
   11:05:32.632.27-Mar-2021 3279.01 7075.59 61.33 11.00  22.41 3032.17
