~Version Information
 VERS.                  2.0:   CWLS log ASCII Standard -VERSION 2.0
 WRAP.                   NO:   One line per depth step
~Well Information Block
#MNEM.UNIT     VALUE/NAME     DESCRIPTION
#---------     -----------    ---------------------------
 STRT.S             06:42:15 27-Mar-21: START TIME 06:42:15 27-Mar-21
 STOP.S             06:49:25 27-Mar-21: STOP TIME  06:49:25 27-Mar-21
 STEP.S                   0.00: STEP TIME
 NULL.                 -999.25: NULL VALUE
 DFWT.                        :  DIST FWL TEXT
 DFST.                        :  DIST FSL TEXT
 DMF .             Drill Floor:  DRILL MEAS FROM
 STIM.      20.26.40 11-Mar-21:  START TIME
 DATE.      20.26.40 30-Mar-21:  END TIME
 SPUD.               11-Mar-21:  SPUD DATE
 NREF.                    Grid:  NORTH REFERENCE
 HPTY.       Minimum Curvature:  HOLE POS TYPE
 DMOD.             Drill Model:  DRILL MOD DESC
 SVYD.                  Survey:  SURVEY DESC
 ILTD.               Lithology:  INTERP LTH DESC
 FTOP.          Formation Tops:  FORM TOPS DESC
 SON .        AZ-XX-0906805385:  JOB NUMBER
 WTYP.                Deviated:  WELL TYPE
 COMP.     BP Exploration (Caspian Sea) Ltd.:  COMPANY
 UWI .            /AZE00000198:  UNIQUE WELL IDENTIFIER
 API .            /AZE00000198:  API NUMBER
 BASE.              Azerbaijan:  LOGGING EQUIPMENT BASE LOCATION
 REGN.                   EESSA:  REGION
 PROV.                    Baku:  PROVINCE
 STAT.                    Baku:  STATE NAME
 CTRY.              Azerbaijan:  COUNTRY NAME
 FLD .                     ACG:  FIELD NAME
 SRVC.     Turan Drilling & Engineering:  CONTRACTOR
 MWDS.                    Baku:  MWD SHOP
 WELL.                    D09z:  WELL NAME
 JOBN.        AZ-XX-0906805385:  JOB TICKET NUMB
 RIG .              East Azeri:  RIG NAME
 DOE .                     N/A:  DOE NUMBER
 DCON.         Sperry Drilling:  DIRECTNL CONTR
 UNIT.                     N/A:  LOGGING EQUIPMENT ID
 PDAT.          Mean Sea Level:  PERMANENT DATUM
 MDS .        Operator Entered:  MAG DATA SOURCE
 CNTY.                        :  COUNTY
 LOC .                        :  LOCATION
 LMF .             Drill Floor:  LOG MEASURED FROM
 TVDS.m                  43.60:  TVDSS CORRECTN
 LATI.deg                40.02:  LATITUDE
 LONG.deg                51.45:  LONGITUDE
 WHNS.m                 -17.04:  WELL HEAD N/S
 WHEW.m                  -6.28:  WELL HEAD E/W
 UTMX.m              538763.98:  UTM X
 UTMY.m             4431880.20:  UTM Y
 DFWL.m                   0.00:  DISTANCE FWL
 DFSL.m                   0.00:  DISTANCE FSL
 SDEP.m                2680.01:  START DEPTH
 TDD .m                4000.01:  TOTAL DEPTH (DRILLER)
 VSDR.deg               225.71:  VERT SEC DIRECT
 GVFD.g                   1.00:  GRAVITY FIELD
 MFLD.nT              50353.00:  MAGNETIC FIELD
 MDIP.deg                59.49:  MAGNETIC DIP
 MDEC.deg                 6.46:  MAGNETIC DECL
 GRDC.deg                 0.29:  GRID CORRECTION
 AZTC.deg                 6.17:  AZM TOTAL CORR
 EPD .m                   0.00:  ELEVATION
 EGL .m                   0.00:  GROUND ELEVATION
 WDMS.m                 151.80:  WD ELEV
 APD .m                  43.60:  DEPTH ABOVE PD
 AGAP.m                  43.60:  AIR GAP
 VSEW.m                  -6.28:  VERT SEC E/W
 VSNS.m                 -17.04:  VERT SEC N/S
 DEP .m                2656.31:  DEPTH
 EKB .m                  43.60:  KB ELEVATION
 EDF .m                  43.60:  DF ELEVATION
 VSC .                       0:  VS TO CLOSURE
 MAGU.                 1851247:  MAGUTM CHECKSUM
~Parameter Information Block
#MNEM.UNIT       Value        Description
#---------     -----------    ---------------------------
 AV  .mps                 3.00:  Ann Velocity 
 AVMX.mps                 8.00:  Max Ann Veloc 
 AZIF.deg                 0.00:  Azm, Final 
 BHAT.                   Other:  BHA Type 
 BREV.rev                 0.00:  Rev Bit Total 
 BROT.°/30m               0.00:  Build Rotating 
 BS  .in                 10.25:  Bit Size 
 BTPL.psig              511.00:  Bit Press Loss 
 CABU.                      No:  Customer Abuse 
 CGEO.           Asif Pashayev:  Customer Geo 
 COMM.                     lÇi:  Run Comments 1 
 TCS .hr                 24.03:  Time Ciculation Ended 
 CV  .mps                 3.50:  Crit Velocity 
 CVMX.mps                 4.00:  Max Crit Veloc 
 DD1 .             Aziz Aliyev:  Direct Drillr 1 
 DD2 .      Fakhraddin Guliyev:  Direct Drillr 2 
 DDSV.                   Other:  DD Service 
 DEFF.%                  99.00:  % Det Eff 
 DLRX.°/30m               0.00:  Dogleg Rot Max 
 DLSO.°/30m               0.00:  Dogleg Oriented 
 DLSX.°/30m               0.00:  Dogleg Str Max 
 DRET.      23.00.40 28-Mar-21:  Drill End Time 
 DRST.      23.30.40 25-Mar-21:  Drill Start Tim 
 DTIM.hr                  0.00:  Time Drilling 
 EDEP.m                3886.01:  End Depth 
 ENG1.         Almaz Almadatov:  Engineer 1 
 ENG2.      Artemiy Matviyanov:  Engineer 2 
 ENG3.           Samir Gafarov:  Engineer 3 
 ETIM.      23.00.40 28-Mar-21:  End Time 
 FLOI.gpm               550.00:  Flow In 
 FLON.gpm               500.00:  Flow In Min 
 FLOS.cptm                0.00:  Fluid Loss 
 FLOX.gpm               590.00:  Flow In Max 
 HFLO.                      No:  High Flow 
 HPRE.                      No:  High Pressure 
 HTEM.                      No:  High Temp 
 HYDO.m                   1.80:  Hydro Offset 
 IFIN.deg                 0.00:  Inc, Final 
 IMAX.deg                 0.00:  Inc Max 
 IMIN.deg                 0.00:  Inc Min 
 IMND.m                   0.00:  Inc Min Depth 
 IMXD.m                   0.00:  Inc Max Depth 
 JARR.                      No:  Jarring 
 LETM.      03.22.40 28-Mar-21:  Log End Time 
 LOST.hr                     0:  Lost Rig Time 
 LSTM.      23.30.40 25-Mar-21:  Log Start Time 
 MDCL.ppm             34000.00:  Mud Chlorides 
 MDES.     Inversion Oil/Synthetic:  Mud Desc 
 DFD .sg                  1.51:  Mud Density 
 MDMN.sg                  1.51:  Dens Mud Min 
 MDMX.sg                  1.51:  Dens Mud Max 
 MOIL.                      70:  Run Mud Oil % 
 MOWR.                   70:30:  Run Mud OWR 
 MSND.                     0.2:  Run Mud Sand % 
 MSOL.                   21.60:  Run Mud Solids% 
 DFV .spqt               74.00:  Mud Viscosity 
 MWOD.in                  6.75:  MWD Tool OD 
 MWSI.                      No:  Serv Intrp, MWD 
 OTIM.hr                 69.09:  Time Operating 
 PCON.           Look Like New:  Pad Condition 
 PMAX.psia             3500.00:  Press Op, Max 
 PV  .cP                 70.00:  Mud PV 
 RUN .                     400:  Run Number 
 ROPA.m/hr                0.00:  ROP Avg 
 ROPN.m/hr                0.00:  ROP Min 
 ROPX.m/hr                0.00:  ROP Max 
 RPMA.rpm                80.00:  RPM Surface Avg 
 RPMN.rpm                10.00:  RPM Surface Min 
 RPMX.rpm               100.00:  RPM Surface Max 
 RRUN.                    0400:  Rig Run Number 
 RTIM.hr                  3.00:  Time Reaming 
 SAZI.deg                 0.00:  Azm, Start 
 SDEP.m                3886.01:  Start Depth 
 SIDD.                      No:  Serv Intrp, DD 
 SINC.deg                 0.00:  Inc, Start 
 SPPA.psig             3270.00:  SPP Avg 
 SPPN.psig             3220.00:  SPP Min 
 SPPX.psig             4430.00:  SPP Max 
 STIM.      23.30.40 25-Mar-21:  Start Time 
 SVCS.                 DD, MWD:  Services 
 SVER.                    9.20:  Sperry Version 
 TDAT.m                   0.00:  Tot Depth Attmp 
 TDDF.                      No:  Trip for DD 
 TFF .                      No:  Trip for Fail 
 TQAA.f-kp                8.00:  Torque Abs Avg 
 TQAN.f-kp                7.00:  Torque Abs Min 
 TQAX.f-kp               11.00:  Torque Abs Max 
 TRRT.°/30m               0.00:  Turn Rotating 
 MRT .                  EWR-M5:  Maximum Recorded Temperature 
 TTMX.degC               76.47:  Max Tool Temp 
 VS01.                90640857:  Virtual Str1 SN 
 VS02.                90639246:  Virtual Str2 SN 
 VS03.                90642265:  Virtual Str3 SN 
 VS04.                11654497:  Virtual Str4 SN 
 WBMN.klb                 0.00:  WOB Min 
 WITN.      Kamran Keberlinkiy:  Customer Rep 
 WITN.           Murad Guliyev:  Customer Rep 2 
 WOBA.klb                 0.00:  WOB Avg 
 WOBX.klb                 0.00:  WOB Max 
 YP  .lhf2               36.00:  Yield Point 
~Curve Information Block
#MNEM.UNIT                 API CODE     Curve Description
#---------               -----------    ---------------------------
 TIME.HHMMSS            00 000 000 000:  GT Time & Date
 GTDEPTH.m              00 000 000 000:  GT Depth
 GTPQH.psia             00 000 000 000:  GT HR Quartz Pressure
 GTTQ.degC              00 000 000 000:  GT Quartz Temperature
 GTTN.NONE              00 000 000 000:  GT Test Number
 GTET.sec               00 000 000 000:  GT Elapsed Test Time
 GTTVD.m                00 000 000 000:  GT True Vertical Depth
#Other Information
#
#WARRANTY: Halliburton will use its best efforts to furnish customers with 
#accurate information and interpretations that are part of, and incident to, the services 
#provided.  However, Halliburton cannot and does not warrant the accuracy 
#or correctness of such information and interpretations.  Under no circumstances should any 
#such information or interpretation be relied upon as the sole basis for any drilling, 
#completion, production, or financial decision or any procedure involving any risk to the 
#safety of any drilling venture, drilling rig or its crew or any other third party.  The 
#Customer has full responsibility for all drilling, completion and production operation.  
#Halliburton makes no representations or warranties, either expressed or 
#implied, including, but not limited to, the implied warranties of merchantability or fitness 
#for a particular purpose, with respect to the services rendered.  In no event will 
#Halliburton be liable for failure to obtain any particular results or for 
#any damages, including, but not limited to, indirect, special or consequential damages, 
#resulting from the use of any information or interpretation provided by Halliburton.
#
~A           TIME           GTDEPTH  GTPQH  GTTQ  GTTN  GTET   GTTVD  
# ...
   06:47:14.297.27-Mar-2021 3443.51 5071.32 60.36 5.00 299.07 3186.30
   06:47:14.497.27-Mar-2021 3443.51 5071.32 60.36 5.00 299.27 3186.30
   06:47:14.697.27-Mar-2021 3443.51 5071.11 60.36 5.00 299.47 3186.30
   06:47:14.897.27-Mar-2021 3443.51 5071.01 60.36 5.00 299.67 3186.30
   06:47:15.097.27-Mar-2021 3443.51 5071.00 60.36 5.00 299.87 3186.30
   06:47:15.297.27-Mar-2021 3443.51 5071.04 60.36 5.00 300.07 3186.30
   06:47:15.497.27-Mar-2021 3443.51 5071.04 60.36 5.00 300.27 3186.30
   06:47:15.697.27-Mar-2021 3443.51 5071.01 60.36 5.00 300.47 3186.30
   06:47:15.898.27-Mar-2021 3443.51 5071.11 60.36 5.00 300.67 3186.30
   06:47:16.098.27-Mar-2021 3443.51 5071.00 60.36 5.00 300.87 3186.30
   06:47:16.298.27-Mar-2021 3443.51 5070.81 60.36 5.00 301.07 3186.30
   06:47:16.498.27-Mar-2021 3443.51 5070.81 60.36 5.00 301.28 3186.30
   06:47:16.698.27-Mar-2021 3443.51 5070.99 60.36 5.00 301.48 3186.30
   06:47:16.898.27-Mar-2021 3443.51 5071.01 60.36 5.00 301.68 3186.30
   06:47:17.098.27-Mar-2021 3443.51 5070.94 60.36 5.00 301.88 3186.30
   06:47:17.298.27-Mar-2021 3443.51 5070.90 60.36 5.00 302.08 3186.30
   06:47:17.498.27-Mar-2021 3443.51 5070.90 60.36 5.00 302.28 3186.30
   06:47:17.698.27-Mar-2021 3443.51 5071.13 60.36 5.00 302.48 3186.30
   06:47:17.898.27-Mar-2021 3443.51 5071.02 60.36 5.00 302.68 3186.30
   06:47:18.098.27-Mar-2021 3443.51 5071.03 60.36 5.00 302.88 3186.30
   06:47:18.298.27-Mar-2021 3443.51 5070.99 60.36 5.00 303.08 3186.30
   06:47:18.498.27-Mar-2021 3443.51 5070.99 60.36 5.00 303.28 3186.30
   06:47:18.698.27-Mar-2021 3443.51 5070.88 60.36 5.00 303.48 3186.30
   06:47:18.898.27-Mar-2021 3443.51 5071.26 60.36 5.00 303.68 3186.30
   06:47:19.098.27-Mar-2021 3443.51 5070.85 60.36 5.00 303.88 3186.30
   06:47:19.298.27-Mar-2021 3443.51 5071.26 60.36 5.00 304.08 3186.30
   06:47:19.498.27-Mar-2021 3443.51 5071.26 60.36 5.00 304.28 3186.30
   06:47:19.698.27-Mar-2021 3443.51 5071.14 60.36 5.00 304.48 3186.30
   06:47:19.899.27-Mar-2021 3443.51 5071.04 60.36 5.00 304.68 3186.30
   06:47:20.099.27-Mar-2021 3443.51 5071.17 60.36 5.00 304.88 3186.30
   06:47:20.299.27-Mar-2021 3443.51 5070.97 60.36 5.00 305.08 3186.30
   06:47:20.499.27-Mar-2021 3443.51 5070.97 60.36 5.00 305.28 3186.30
   06:47:20.699.27-Mar-2021 3443.51 5070.95 60.36 5.00 305.48 3186.30
   06:47:20.899.27-Mar-2021 3443.51 5070.92 60.36 5.00 305.68 3186.30
   06:47:21.099.27-Mar-2021 3443.51 5071.33 60.36 5.00 305.88 3186.30
   06:47:21.299.27-Mar-2021 3443.51 5071.10 60.36 5.00 306.08 3186.30
   06:47:21.499.27-Mar-2021 3443.51 5071.10 60.36 5.00 306.28 3186.30
   06:47:21.699.27-Mar-2021 3443.51 5071.10 60.36 5.00 306.48 3186.30
   06:47:21.899.27-Mar-2021 3443.51 5071.23 60.36 5.00 306.68 3186.30
   06:47:22.099.27-Mar-2021 3443.51 5071.03 60.36 5.00 306.88 3186.30
   06:47:22.299.27-Mar-2021 3443.51 5071.04 60.36 5.00 307.08 3186.30
   06:47:22.499.27-Mar-2021 3443.51 5071.04 60.36 5.00 307.28 3186.30
   06:47:22.699.27-Mar-2021 3443.51 5070.96 60.36 5.00 307.48 3186.30
   06:47:22.899.27-Mar-2021 3443.51 5070.80 60.36 5.00 307.68 3186.30
   06:47:23.099.27-Mar-2021 3443.51 5071.20 60.36 5.00 307.88 3186.30
   06:47:23.299.27-Mar-2021 3443.51 5071.03 60.36 5.00 308.08 3186.30
   06:47:23.499.27-Mar-2021 3443.51 5071.03 60.36 5.00 308.28 3186.30
   06:47:23.699.27-Mar-2021 3443.51 5071.18 60.36 5.00 308.48 3186.30
   06:47:23.900.27-Mar-2021 3443.51 5071.08 60.36 5.00 308.68 3186.30
   06:47:24.100.27-Mar-2021 3443.51 5071.19 60.36 5.00 308.88 3186.30
   06:47:24.300.27-Mar-2021 3443.51 5070.82 60.36 5.00 309.08 3186.30
   06:47:24.500.27-Mar-2021 3443.51 5070.82 60.36 5.00 309.28 3186.30
   06:47:24.700.27-Mar-2021 3443.51 5071.03 60.36 5.00 309.48 3186.30
   06:47:24.900.27-Mar-2021 3443.51 5070.92 60.36 5.00 309.68 3186.30
   06:47:25.100.27-Mar-2021 3443.51 5071.15 60.36 5.00 309.88 3186.30
   06:47:25.300.27-Mar-2021 3443.51 5071.08 60.36 5.00 310.08 3186.30
   06:47:25.500.27-Mar-2021 3443.51 5071.08 60.36 5.00 310.28 3186.30
   06:47:25.700.27-Mar-2021 3443.51 5071.11 60.36 5.00 310.48 3186.30
   06:47:25.900.27-Mar-2021 3443.51 5070.96 60.36 5.00 310.68 3186.30
   06:47:26.100.27-Mar-2021 3443.51 5071.08 60.36 5.00 310.88 3186.30
   06:47:26.300.27-Mar-2021 3443.51 5070.99 60.36 5.00 311.08 3186.30
   06:47:26.500.27-Mar-2021 3443.51 5070.99 60.36 5.00 311.28 3186.30
   06:47:26.700.27-Mar-2021 3443.51 5070.94 60.36 5.00 311.48 3186.30
   06:47:26.900.27-Mar-2021 3443.51 5070.99 60.36 5.00 311.68 3186.30
   06:47:27.100.27-Mar-2021 3443.51 5071.48 60.36 5.00 311.88 3186.30
   06:47:27.300.27-Mar-2021 3443.51 5070.81 60.36 5.00 312.08 3186.30
   06:47:27.500.27-Mar-2021 3443.51 5070.81 60.36 5.00 312.28 3186.30
   06:47:27.700.27-Mar-2021 3443.51 5071.15 60.36 5.00 312.48 3186.30
   06:47:27.901.27-Mar-2021 3443.51 5070.95 60.36 5.00 312.68 3186.30
   06:47:28.101.27-Mar-2021 3443.51 5071.32 60.36 5.00 312.88 3186.30
   06:47:28.301.27-Mar-2021 3443.51 5070.97 60.36 5.00 313.08 3186.30
   06:47:28.501.27-Mar-2021 3443.51 5070.97 60.36 5.00 313.28 3186.30
   06:47:28.701.27-Mar-2021 3443.51 5071.21 60.36 5.00 313.48 3186.30
   06:47:28.901.27-Mar-2021 3443.51 5071.13 60.36 5.00 313.68 3186.30
   06:47:29.101.27-Mar-2021 3443.51 5071.05 60.36 5.00 313.88 3186.30
   06:47:29.301.27-Mar-2021 3443.51 5071.20 60.36 5.00 314.08 3186.30
   06:47:29.501.27-Mar-2021 3443.51 5071.20 60.36 5.00 314.28 3186.30
   06:47:29.701.27-Mar-2021 3443.51 5071.09 60.36 5.00 314.48 3186.30
   06:47:29.901.27-Mar-2021 3443.51 5070.84 60.36 5.00 314.68 3186.30
   06:47:30.101.27-Mar-2021 3443.51 5071.21 60.36 5.00 314.88 3186.30
   06:47:30.301.27-Mar-2021 3443.51 5070.97 60.36 5.00 315.08 3186.30
   06:47:30.501.27-Mar-2021 3443.51 5070.97 60.36 5.00 315.28 3186.30
   06:47:30.701.27-Mar-2021 3443.51 5071.08 60.36 5.00 315.48 3186.30
   06:47:30.901.27-Mar-2021 3443.51 5071.00 60.36 5.00 315.68 3186.30
   06:47:31.101.27-Mar-2021 3443.51 5071.17 60.36 5.00 315.88 3186.30
   06:47:31.301.27-Mar-2021 3443.51 5070.99 60.36 5.00 316.08 3186.30
   06:47:31.501.27-Mar-2021 3443.51 5070.99 60.36 5.00 316.28 3186.30
   06:47:31.701.27-Mar-2021 3443.51 5071.10 60.36 5.00 316.48 3186.30
   06:47:31.902.27-Mar-2021 3443.51 5071.07 60.36 5.00 316.68 3186.30
   06:47:32.102.27-Mar-2021 3443.51 5071.11 60.36 5.00 316.88 3186.30
   06:47:32.302.27-Mar-2021 3443.51 5070.89 60.36 5.00 317.08 3186.30
   06:47:32.502.27-Mar-2021 3443.51 5070.89 60.36 5.00 317.28 3186.30
   06:47:32.702.27-Mar-2021 3443.51 5071.08 60.36 5.00 317.48 3186.30
   06:47:32.902.27-Mar-2021 3443.51 5070.95 60.36 5.00 317.68 3186.30
   06:47:33.102.27-Mar-2021 3443.51 5071.07 60.36 5.00 317.88 3186.30
   06:47:33.302.27-Mar-2021 3443.51 5071.09 60.36 5.00 318.08 3186.30
   06:47:33.502.27-Mar-2021 3443.51 5071.09 60.36 5.00 318.28 3186.30
   06:47:33.702.27-Mar-2021 3443.51 5070.91 60.36 5.00 318.48 3186.30
   06:47:33.902.27-Mar-2021 3443.51 5071.05 60.36 5.00 318.68 3186.30
   06:47:34.102.27-Mar-2021 3443.51 5071.04 60.36 5.00 318.88 3186.30
   06:47:34.302.27-Mar-2021 3443.51 5070.97 60.36 5.00 319.08 3186.30
   06:47:34.502.27-Mar-2021 3443.51 5070.97 60.36 5.00 319.28 3186.30
   06:47:34.702.27-Mar-2021 3443.51 5071.26 60.36 5.00 319.48 3186.30
   06:47:34.902.27-Mar-2021 3443.51 5071.07 60.36 5.00 319.68 3186.30
   06:47:35.102.27-Mar-2021 3443.51 5070.90 60.36 5.00 319.88 3186.30
   06:47:35.302.27-Mar-2021 3443.51 5071.35 60.36 5.00 320.08 3186.30
   06:47:35.502.27-Mar-2021 3443.51 5071.35 60.36 5.00 320.28 3186.30
   06:47:35.702.27-Mar-2021 3443.51 5070.99 60.36 5.00 320.48 3186.30
   06:47:35.903.27-Mar-2021 3443.51 5071.27 60.36 5.00 320.68 3186.30
   06:47:36.103.27-Mar-2021 3443.51 5070.94 60.36 5.00 320.88 3186.30
   06:47:36.303.27-Mar-2021 3443.51 5071.15 60.36 5.00 321.08 3186.30
   06:47:36.503.27-Mar-2021 3443.51 5071.15 60.36 5.00 321.28 3186.30
   06:47:36.703.27-Mar-2021 3443.51 5070.95 60.36 5.00 321.48 3186.30
   06:47:36.903.27-Mar-2021 3443.51 5071.18 60.36 5.00 321.68 3186.30
   06:47:37.103.27-Mar-2021 3443.51 5070.90 60.36 5.00 321.88 3186.30
