~Version Information
 VERS.                  2.0:   CWLS log ASCII Standard -VERSION 2.0
 WRAP.                   NO:   One line per depth step
~Well Information Block
#MNEM.UNIT     VALUE/NAME     DESCRIPTION
#---------     -----------    ---------------------------
 STRT.S             06:42:15 27-Mar-21: START TIME 06:42:15 27-Mar-21
 STOP.S             06:49:25 27-Mar-21: STOP TIME  06:49:25 27-Mar-21
 STEP.S                   0.00: STEP TIME
 NULL.                 -999.25: NULL VALUE
 DFWT.                        :  DIST FWL TEXT
 DFST.                        :  DIST FSL TEXT
 DMF .             Drill Floor:  DRILL MEAS FROM
 STIM.      20.26.40 11-Mar-21:  START TIME
 DATE.      20.26.40 30-Mar-21:  END TIME
 SPUD.               11-Mar-21:  SPUD DATE
 NREF.                    Grid:  NORTH REFERENCE
 HPTY.       Minimum Curvature:  HOLE POS TYPE
 DMOD.             Drill Model:  DRILL MOD DESC
 SVYD.                  Survey:  SURVEY DESC
 ILTD.               Lithology:  INTERP LTH DESC
 FTOP.          Formation Tops:  FORM TOPS DESC
 SON .        AZ-XX-0906805385:  JOB NUMBER
 WTYP.                Deviated:  WELL TYPE
 COMP.     BP Exploration (Caspian Sea) Ltd.:  COMPANY
 UWI .            /AZE00000198:  UNIQUE WELL IDENTIFIER
 API .            /AZE00000198:  API NUMBER
 BASE.              Azerbaijan:  LOGGING EQUIPMENT BASE LOCATION
 REGN.                   EESSA:  REGION
 PROV.                    Baku:  PROVINCE
 STAT.                    Baku:  STATE NAME
 CTRY.              Azerbaijan:  COUNTRY NAME
 FLD .                     ACG:  FIELD NAME
 SRVC.     Turan Drilling & Engineering:  CONTRACTOR
 MWDS.                    Baku:  MWD SHOP
 WELL.                    D09z:  WELL NAME
 JOBN.        AZ-XX-0906805385:  JOB TICKET NUMB
 RIG .              East Azeri:  RIG NAME
 DOE .                     N/A:  DOE NUMBER
 DCON.         Sperry Drilling:  DIRECTNL CONTR
 UNIT.                     N/A:  LOGGING EQUIPMENT ID
 PDAT.          Mean Sea Level:  PERMANENT DATUM
 MDS .        Operator Entered:  MAG DATA SOURCE
 CNTY.                        :  COUNTY
 LOC .                        :  LOCATION
 LMF .             Drill Floor:  LOG MEASURED FROM
 TVDS.m                  43.60:  TVDSS CORRECTN
 LATI.deg                40.02:  LATITUDE
 LONG.deg                51.45:  LONGITUDE
 WHNS.m                 -17.04:  WELL HEAD N/S
 WHEW.m                  -6.28:  WELL HEAD E/W
 UTMX.m              538763.98:  UTM X
 UTMY.m             4431880.20:  UTM Y
 DFWL.m                   0.00:  DISTANCE FWL
 DFSL.m                   0.00:  DISTANCE FSL
 SDEP.m                2680.01:  START DEPTH
 TDD .m                4000.01:  TOTAL DEPTH (DRILLER)
 VSDR.deg               225.71:  VERT SEC DIRECT
 GVFD.g                   1.00:  GRAVITY FIELD
 MFLD.nT              50353.00:  MAGNETIC FIELD
 MDIP.deg                59.49:  MAGNETIC DIP
 MDEC.deg                 6.46:  MAGNETIC DECL
 GRDC.deg                 0.29:  GRID CORRECTION
 AZTC.deg                 6.17:  AZM TOTAL CORR
 EPD .m                   0.00:  ELEVATION
 EGL .m                   0.00:  GROUND ELEVATION
 WDMS.m                 151.80:  WD ELEV
 APD .m                  43.60:  DEPTH ABOVE PD
 AGAP.m                  43.60:  AIR GAP
 VSEW.m                  -6.28:  VERT SEC E/W
 VSNS.m                 -17.04:  VERT SEC N/S
 DEP .m                2656.31:  DEPTH
 EKB .m                  43.60:  KB ELEVATION
 EDF .m                  43.60:  DF ELEVATION
 VSC .                       0:  VS TO CLOSURE
 MAGU.                 1851247:  MAGUTM CHECKSUM
~Parameter Information Block
#MNEM.UNIT       Value        Description
#---------     -----------    ---------------------------
 AV  .mps                 3.00:  Ann Velocity 
 AVMX.mps                 8.00:  Max Ann Veloc 
 AZIF.deg                 0.00:  Azm, Final 
 BHAT.                   Other:  BHA Type 
 BREV.rev                 0.00:  Rev Bit Total 
 BROT.°/30m               0.00:  Build Rotating 
 BS  .in                 10.25:  Bit Size 
 BTPL.psig              511.00:  Bit Press Loss 
 CABU.                      No:  Customer Abuse 
 CGEO.           Asif Pashayev:  Customer Geo 
 COMM.                     lÇi:  Run Comments 1 
 TCS .hr                 24.03:  Time Ciculation Ended 
 CV  .mps                 3.50:  Crit Velocity 
 CVMX.mps                 4.00:  Max Crit Veloc 
 DD1 .             Aziz Aliyev:  Direct Drillr 1 
 DD2 .      Fakhraddin Guliyev:  Direct Drillr 2 
 DDSV.                   Other:  DD Service 
 DEFF.%                  99.00:  % Det Eff 
 DLRX.°/30m               0.00:  Dogleg Rot Max 
 DLSO.°/30m               0.00:  Dogleg Oriented 
 DLSX.°/30m               0.00:  Dogleg Str Max 
 DRET.      23.00.40 28-Mar-21:  Drill End Time 
 DRST.      23.30.40 25-Mar-21:  Drill Start Tim 
 DTIM.hr                  0.00:  Time Drilling 
 EDEP.m                3886.01:  End Depth 
 ENG1.         Almaz Almadatov:  Engineer 1 
 ENG2.      Artemiy Matviyanov:  Engineer 2 
 ENG3.           Samir Gafarov:  Engineer 3 
 ETIM.      23.00.40 28-Mar-21:  End Time 
 FLOI.gpm               550.00:  Flow In 
 FLON.gpm               500.00:  Flow In Min 
 FLOS.cptm                0.00:  Fluid Loss 
 FLOX.gpm               590.00:  Flow In Max 
 HFLO.                      No:  High Flow 
 HPRE.                      No:  High Pressure 
 HTEM.                      No:  High Temp 
 HYDO.m                   1.80:  Hydro Offset 
 IFIN.deg                 0.00:  Inc, Final 
 IMAX.deg                 0.00:  Inc Max 
 IMIN.deg                 0.00:  Inc Min 
 IMND.m                   0.00:  Inc Min Depth 
 IMXD.m                   0.00:  Inc Max Depth 
 JARR.                      No:  Jarring 
 LETM.      03.22.40 28-Mar-21:  Log End Time 
 LOST.hr                     0:  Lost Rig Time 
 LSTM.      23.30.40 25-Mar-21:  Log Start Time 
 MDCL.ppm             34000.00:  Mud Chlorides 
 MDES.     Inversion Oil/Synthetic:  Mud Desc 
 DFD .sg                  1.51:  Mud Density 
 MDMN.sg                  1.51:  Dens Mud Min 
 MDMX.sg                  1.51:  Dens Mud Max 
 MOIL.                      70:  Run Mud Oil % 
 MOWR.                   70:30:  Run Mud OWR 
 MSND.                     0.2:  Run Mud Sand % 
 MSOL.                   21.60:  Run Mud Solids% 
 DFV .spqt               74.00:  Mud Viscosity 
 MWOD.in                  6.75:  MWD Tool OD 
 MWSI.                      No:  Serv Intrp, MWD 
 OTIM.hr                 69.09:  Time Operating 
 PCON.           Look Like New:  Pad Condition 
 PMAX.psia             3500.00:  Press Op, Max 
 PV  .cP                 70.00:  Mud PV 
 RUN .                     400:  Run Number 
 ROPA.m/hr                0.00:  ROP Avg 
 ROPN.m/hr                0.00:  ROP Min 
 ROPX.m/hr                0.00:  ROP Max 
 RPMA.rpm                80.00:  RPM Surface Avg 
 RPMN.rpm                10.00:  RPM Surface Min 
 RPMX.rpm               100.00:  RPM Surface Max 
 RRUN.                    0400:  Rig Run Number 
 RTIM.hr                  3.00:  Time Reaming 
 SAZI.deg                 0.00:  Azm, Start 
 SDEP.m                3886.01:  Start Depth 
 SIDD.                      No:  Serv Intrp, DD 
 SINC.deg                 0.00:  Inc, Start 
 SPPA.psig             3270.00:  SPP Avg 
 SPPN.psig             3220.00:  SPP Min 
 SPPX.psig             4430.00:  SPP Max 
 STIM.      23.30.40 25-Mar-21:  Start Time 
 SVCS.                 DD, MWD:  Services 
 SVER.                    9.20:  Sperry Version 
 TDAT.m                   0.00:  Tot Depth Attmp 
 TDDF.                      No:  Trip for DD 
 TFF .                      No:  Trip for Fail 
 TQAA.f-kp                8.00:  Torque Abs Avg 
 TQAN.f-kp                7.00:  Torque Abs Min 
 TQAX.f-kp               11.00:  Torque Abs Max 
 TRRT.°/30m               0.00:  Turn Rotating 
 MRT .                  EWR-M5:  Maximum Recorded Temperature 
 TTMX.degC               76.47:  Max Tool Temp 
 VS01.                90640857:  Virtual Str1 SN 
 VS02.                90639246:  Virtual Str2 SN 
 VS03.                90642265:  Virtual Str3 SN 
 VS04.                11654497:  Virtual Str4 SN 
 WBMN.klb                 0.00:  WOB Min 
 WITN.      Kamran Keberlinkiy:  Customer Rep 
 WITN.           Murad Guliyev:  Customer Rep 2 
 WOBA.klb                 0.00:  WOB Avg 
 WOBX.klb                 0.00:  WOB Max 
 YP  .lhf2               36.00:  Yield Point 
~Curve Information Block
#MNEM.UNIT                 API CODE     Curve Description
#---------               -----------    ---------------------------
 TIME.HHMMSS            00 000 000 000:  GT Time & Date
 GTDEPTH.m              00 000 000 000:  GT Depth
 GTPQH.psia             00 000 000 000:  GT HR Quartz Pressure
 GTTQ.degC              00 000 000 000:  GT Quartz Temperature
 GTTN.NONE              00 000 000 000:  GT Test Number
 GTET.sec               00 000 000 000:  GT Elapsed Test Time
 GTTVD.m                00 000 000 000:  GT True Vertical Depth
#Other Information
#
#WARRANTY: Halliburton will use its best efforts to furnish customers with 
#accurate information and interpretations that are part of, and incident to, the services 
#provided.  However, Halliburton cannot and does not warrant the accuracy 
#or correctness of such information and interpretations.  Under no circumstances should any 
#such information or interpretation be relied upon as the sole basis for any drilling, 
#completion, production, or financial decision or any procedure involving any risk to the 
#safety of any drilling venture, drilling rig or its crew or any other third party.  The 
#Customer has full responsibility for all drilling, completion and production operation.  
#Halliburton makes no representations or warranties, either expressed or 
#implied, including, but not limited to, the implied warranties of merchantability or fitness 
#for a particular purpose, with respect to the services rendered.  In no event will 
#Halliburton be liable for failure to obtain any particular results or for 
#any damages, including, but not limited to, indirect, special or consequential damages, 
#resulting from the use of any information or interpretation provided by Halliburton.
#
~A           TIME           GTDEPTH  GTPQH  GTTQ  GTTN  GTET   GTTVD  
# ...
   06:43:01.234.27-Mar-2021 3443.51 6030.50 60.43 5.00  46.01 3186.30
   06:43:01.434.27-Mar-2021 3443.51 6030.50 60.43 5.00  46.21 3186.30
   06:43:01.634.27-Mar-2021 3443.51 5614.59 60.43 5.00  46.41 3186.30
   06:43:01.834.27-Mar-2021 3443.51 5397.78 60.43 5.00  46.61 3186.30
   06:43:02.034.27-Mar-2021 3443.51 5191.69 60.43 5.00  46.81 3186.30
   06:43:02.234.27-Mar-2021 3443.51 4984.66 60.43 5.00  47.01 3186.30
   06:43:02.434.27-Mar-2021 3443.51 4984.66 60.43 5.00  47.21 3186.30
   06:43:02.634.27-Mar-2021 3443.51 4807.65 60.43 5.00  47.41 3186.30
   06:43:02.835.27-Mar-2021 3443.51 5008.37 60.43 5.00  47.61 3186.30
   06:43:03.035.27-Mar-2021 3443.51 5021.83 60.43 5.00  47.81 3186.30
   06:43:03.235.27-Mar-2021 3443.51 5032.71 60.42 5.00  48.01 3186.30
   06:43:03.435.27-Mar-2021 3443.51 5032.71 60.42 5.00  48.21 3186.30
   06:43:03.635.27-Mar-2021 3443.51 5032.91 60.42 5.00  48.41 3186.30
   06:43:03.835.27-Mar-2021 3443.51 5051.12 60.42 5.00  48.61 3186.30
   06:43:04.035.27-Mar-2021 3443.51 5060.11 60.42 5.00  48.81 3186.30
   06:43:04.235.27-Mar-2021 3443.51 5067.80 60.42 5.00  49.01 3186.30
   06:43:04.435.27-Mar-2021 3443.51 5067.80 60.42 5.00  49.21 3186.30
   06:43:04.635.27-Mar-2021 3443.51 5071.88 60.41 5.00  49.41 3186.30
   06:43:04.835.27-Mar-2021 3443.51 5072.59 60.41 5.00  49.61 3186.30
   06:43:05.035.27-Mar-2021 3443.51 5074.44 60.41 5.00  49.81 3186.30
   06:43:05.235.27-Mar-2021 3443.51 5074.13 60.41 5.00  50.01 3186.30
   06:43:05.435.27-Mar-2021 3443.51 5074.13 60.41 5.00  50.21 3186.30
   06:43:05.635.27-Mar-2021 3443.51 5073.83 60.40 5.00  50.41 3186.30
   06:43:05.835.27-Mar-2021 3443.51 5073.85 60.40 5.00  50.61 3186.30
   06:43:06.035.27-Mar-2021 3443.51 5074.52 60.40 5.00  50.81 3186.30
   06:43:06.235.27-Mar-2021 3443.51 5074.34 60.40 5.00  51.01 3186.30
   06:43:06.435.27-Mar-2021 3443.51 5074.34 60.40 5.00  51.21 3186.30
   06:43:06.635.27-Mar-2021 3443.51 5074.59 60.40 5.00  51.41 3186.30
   06:43:06.836.27-Mar-2021 3443.51 5073.10 60.39 5.00  51.61 3186.30
   06:43:07.036.27-Mar-2021 3443.51 5073.50 60.39 5.00  51.81 3186.30
   06:43:07.236.27-Mar-2021 3443.51 5073.06 60.39 5.00  52.01 3186.30
   06:43:07.436.27-Mar-2021 3443.51 5073.06 60.39 5.00  52.21 3186.30
   06:43:07.636.27-Mar-2021 3443.51 5073.14 60.39 5.00  52.41 3186.30
   06:43:07.836.27-Mar-2021 3443.51 5072.10 60.39 5.00  52.61 3186.30
   06:43:08.036.27-Mar-2021 3443.51 5085.85 60.39 5.00  52.81 3186.30
   06:43:08.236.27-Mar-2021 3443.51 5027.31 60.39 5.00  53.01 3186.30
   06:43:08.436.27-Mar-2021 3443.51 5027.31 60.39 5.00  53.21 3186.30
   06:43:08.636.27-Mar-2021 3443.51 4928.90 60.38 5.00  53.41 3186.30
   06:43:08.836.27-Mar-2021 3443.51 4935.55 60.38 5.00  53.61 3186.30
   06:43:09.036.27-Mar-2021 3443.51 4940.01 60.38 5.00  53.81 3186.30
   06:43:09.236.27-Mar-2021 3443.51 4940.55 60.38 5.00  54.01 3186.30
   06:43:09.436.27-Mar-2021 3443.51 4940.55 60.38 5.00  54.21 3186.30
   06:43:09.636.27-Mar-2021 3443.51 4941.14 60.38 5.00  54.41 3186.30
   06:43:09.836.27-Mar-2021 3443.51 4942.86 60.38 5.00  54.61 3186.30
   06:43:10.036.27-Mar-2021 3443.51 4942.36 60.38 5.00  54.81 3186.30
   06:43:10.236.27-Mar-2021 3443.51 4946.47 60.38 5.00  55.01 3186.30
   06:43:10.436.27-Mar-2021 3443.51 4946.47 60.38 5.00  55.21 3186.30
   06:43:10.636.27-Mar-2021 3443.51 4946.49 60.37 5.00  55.41 3186.30
   06:43:10.837.27-Mar-2021 3443.51 4947.46 60.37 5.00  55.61 3186.30
   06:43:11.037.27-Mar-2021 3443.51 4949.91 60.37 5.00  55.81 3186.30
   06:43:11.237.27-Mar-2021 3443.51 4951.82 60.37 5.00  56.01 3186.30
   06:43:11.437.27-Mar-2021 3443.51 4951.82 60.37 5.00  56.21 3186.30
   06:43:11.637.27-Mar-2021 3443.51 4952.02 60.37 5.00  56.41 3186.30
   06:43:11.837.27-Mar-2021 3443.51 4952.24 60.37 5.00  56.61 3186.30
   06:43:12.037.27-Mar-2021 3443.51 4954.30 60.37 5.00  56.81 3186.30
   06:43:12.237.27-Mar-2021 3443.51 4954.77 60.37 5.00  57.01 3186.30
   06:43:12.437.27-Mar-2021 3443.51 4954.77 60.37 5.00  57.21 3186.30
   06:43:12.637.27-Mar-2021 3443.51 4957.13 60.37 5.00  57.41 3186.30
   06:43:12.837.27-Mar-2021 3443.51 4956.11 60.37 5.00  57.61 3186.30
   06:43:13.037.27-Mar-2021 3443.51 4956.33 60.37 5.00  57.81 3186.30
   06:43:13.237.27-Mar-2021 3443.51 4956.24 60.37 5.00  58.01 3186.30
   06:43:13.437.27-Mar-2021 3443.51 4956.24 60.37 5.00  58.21 3186.30
   06:43:13.637.27-Mar-2021 3443.51 4956.29 60.37 5.00  58.41 3186.30
   06:43:13.837.27-Mar-2021 3443.51 4955.60 60.37 5.00  58.61 3186.30
   06:43:14.037.27-Mar-2021 3443.51 4955.91 60.37 5.00  58.81 3186.30
   06:43:14.237.27-Mar-2021 3443.51 4956.74 60.37 5.00  59.01 3186.30
   06:43:14.437.27-Mar-2021 3443.51 4956.74 60.37 5.00  59.21 3186.30
   06:43:14.637.27-Mar-2021 3443.51 4956.43 60.37 5.00  59.41 3186.30
   06:43:14.838.27-Mar-2021 3443.51 4955.51 60.37 5.00  59.61 3186.30
   06:43:15.038.27-Mar-2021 3443.51 4957.79 60.37 5.00  59.81 3186.30
   06:43:15.238.27-Mar-2021 3443.51 4956.71 60.37 5.00  60.01 3186.30
   06:43:15.438.27-Mar-2021 3443.51 4956.71 60.37 5.00  60.21 3186.30
   06:43:15.638.27-Mar-2021 3443.51 4960.23 60.36 5.00  60.42 3186.30
   06:43:15.838.27-Mar-2021 3443.51 4960.18 60.37 5.00  60.62 3186.30
   06:43:16.038.27-Mar-2021 3443.51 4959.54 60.36 5.00  60.82 3186.30
   06:43:16.238.27-Mar-2021 3443.51 4961.15 60.36 5.00  61.02 3186.30
   06:43:16.438.27-Mar-2021 3443.51 4961.15 60.36 5.00  61.22 3186.30
   06:43:16.638.27-Mar-2021 3443.51 4962.51 60.36 5.00  61.42 3186.30
   06:43:16.838.27-Mar-2021 3443.51 4963.08 60.36 5.00  61.62 3186.30
   06:43:17.038.27-Mar-2021 3443.51 4962.81 60.36 5.00  61.82 3186.30
   06:43:17.238.27-Mar-2021 3443.51 4962.82 60.36 5.00  62.02 3186.30
   06:43:17.438.27-Mar-2021 3443.51 4962.82 60.36 5.00  62.22 3186.30
   06:43:17.638.27-Mar-2021 3443.51 4962.70 60.36 5.00  62.42 3186.30
   06:43:17.838.27-Mar-2021 3443.51 4967.95 60.36 5.00  62.62 3186.30
   06:43:18.038.27-Mar-2021 3443.51 5061.12 60.36 5.00  62.82 3186.30
   06:43:18.238.27-Mar-2021 3443.51 5070.03 60.36 5.00  63.02 3186.30
   06:43:18.438.27-Mar-2021 3443.51 5070.03 60.36 5.00  63.22 3186.30
   06:43:18.638.27-Mar-2021 3443.51 5070.65 60.36 5.00  63.42 3186.30
   06:43:18.839.27-Mar-2021 3443.51 5070.83 60.36 5.00  63.62 3186.30
   06:43:19.039.27-Mar-2021 3443.51 5070.76 60.36 5.00  63.82 3186.30
   06:43:19.239.27-Mar-2021 3443.51 5070.93 60.36 5.00  64.02 3186.30
   06:43:19.439.27-Mar-2021 3443.51 5070.93 60.36 5.00  64.22 3186.30
   06:43:19.639.27-Mar-2021 3443.51 5070.97 60.36 5.00  64.42 3186.30
   06:43:19.839.27-Mar-2021 3443.51 5070.93 60.36 5.00  64.62 3186.30
   06:43:20.039.27-Mar-2021 3443.51 5071.01 60.36 5.00  64.82 3186.30
   06:43:20.239.27-Mar-2021 3443.51 5071.05 60.36 5.00  65.02 3186.30
   06:43:20.439.27-Mar-2021 3443.51 5071.05 60.36 5.00  65.22 3186.30
   06:43:20.639.27-Mar-2021 3443.51 5071.17 60.36 5.00  65.42 3186.30
   06:43:20.839.27-Mar-2021 3443.51 5071.03 60.37 5.00  65.62 3186.30
   06:43:21.039.27-Mar-2021 3443.51 5071.08 60.37 5.00  65.82 3186.30
   06:43:21.239.27-Mar-2021 3443.51 5071.18 60.37 5.00  66.02 3186.30
   06:43:21.439.27-Mar-2021 3443.51 5071.18 60.37 5.00  66.22 3186.30
   06:43:21.639.27-Mar-2021 3443.51 5071.08 60.37 5.00  66.42 3186.30
   06:43:21.839.27-Mar-2021 3443.51 5071.01 60.37 5.00  66.62 3186.30
   06:43:22.039.27-Mar-2021 3443.51 5071.23 60.37 5.00  66.82 3186.30
   06:43:22.239.27-Mar-2021 3443.51 5071.31 60.37 5.00  67.02 3186.30
   06:43:22.439.27-Mar-2021 3443.51 5071.31 60.37 5.00  67.22 3186.30
   06:43:22.639.27-Mar-2021 3443.51 5071.28 60.37 5.00  67.42 3186.30
   06:43:22.840.27-Mar-2021 3443.51 5071.18 60.37 5.00  67.62 3186.30
   06:43:23.040.27-Mar-2021 3443.51 5071.27 60.37 5.00  67.82 3186.30
   06:43:23.240.27-Mar-2021 3443.51 5071.16 60.37 5.00  68.02 3186.30
   06:43:23.440.27-Mar-2021 3443.51 5071.16 60.37 5.00  68.22 3186.30
   06:43:23.640.27-Mar-2021 3443.51 5071.31 60.37 5.00  68.42 3186.30
   06:43:23.840.27-Mar-2021 3443.51 5071.19 60.37 5.00  68.62 3186.30
   06:43:24.040.27-Mar-2021 3443.51 5071.17 60.37 5.00  68.82 3186.30
