~Version Information
 VERS.                  2.0:   CWLS log ASCII Standard -VERSION 2.0
 WRAP.                   NO:   One line per depth step
~Well Information Block
#MNEM.UNIT     VALUE/NAME     DESCRIPTION
#---------     -----------    ---------------------------
 STRT.S             09:03:10 27-Mar-21: START TIME 09:03:10 27-Mar-21
 STOP.S             09:10:16 27-Mar-21: STOP TIME  09:10:16 27-Mar-21
 STEP.S                   0.00: STEP TIME
 NULL.                 -999.25: NULL VALUE
 DFWT.                        :  DIST FWL TEXT
 DFST.                        :  DIST FSL TEXT
 DMF .             Drill Floor:  DRILL MEAS FROM
 STIM.      20.26.40 11-Mar-21:  START TIME
 DATE.      20.26.40 30-Mar-21:  END TIME
 SPUD.               11-Mar-21:  SPUD DATE
 NREF.                    Grid:  NORTH REFERENCE
 HPTY.       Minimum Curvature:  HOLE POS TYPE
 DMOD.             Drill Model:  DRILL MOD DESC
 SVYD.                  Survey:  SURVEY DESC
 ILTD.               Lithology:  INTERP LTH DESC
 FTOP.          Formation Tops:  FORM TOPS DESC
 SON .        AZ-XX-0906805385:  JOB NUMBER
 WTYP.                Deviated:  WELL TYPE
 COMP.     BP Exploration (Caspian Sea) Ltd.:  COMPANY
 UWI .            /AZE00000198:  UNIQUE WELL IDENTIFIER
 API .            /AZE00000198:  API NUMBER
 BASE.              Azerbaijan:  LOGGING EQUIPMENT BASE LOCATION
 REGN.                   EESSA:  REGION
 PROV.                    Baku:  PROVINCE
 STAT.                    Baku:  STATE NAME
 CTRY.              Azerbaijan:  COUNTRY NAME
 FLD .                     ACG:  FIELD NAME
 SRVC.     Turan Drilling & Engineering:  CONTRACTOR
 MWDS.                    Baku:  MWD SHOP
 WELL.                    D09z:  WELL NAME
 JOBN.        AZ-XX-0906805385:  JOB TICKET NUMB
 RIG .              East Azeri:  RIG NAME
 DOE .                     N/A:  DOE NUMBER
 DCON.         Sperry Drilling:  DIRECTNL CONTR
 UNIT.                     N/A:  LOGGING EQUIPMENT ID
 PDAT.          Mean Sea Level:  PERMANENT DATUM
 MDS .        Operator Entered:  MAG DATA SOURCE
 CNTY.                        :  COUNTY
 LOC .                        :  LOCATION
 LMF .             Drill Floor:  LOG MEASURED FROM
 TVDS.m                  43.60:  TVDSS CORRECTN
 LATI.deg                40.02:  LATITUDE
 LONG.deg                51.45:  LONGITUDE
 WHNS.m                 -17.04:  WELL HEAD N/S
 WHEW.m                  -6.28:  WELL HEAD E/W
 UTMX.m              538763.98:  UTM X
 UTMY.m             4431880.20:  UTM Y
 DFWL.m                   0.00:  DISTANCE FWL
 DFSL.m                   0.00:  DISTANCE FSL
 SDEP.m                2680.01:  START DEPTH
 TDD .m                4000.01:  TOTAL DEPTH (DRILLER)
 VSDR.deg               225.71:  VERT SEC DIRECT
 GVFD.g                   1.00:  GRAVITY FIELD
 MFLD.nT              50353.00:  MAGNETIC FIELD
 MDIP.deg                59.49:  MAGNETIC DIP
 MDEC.deg                 6.46:  MAGNETIC DECL
 GRDC.deg                 0.29:  GRID CORRECTION
 AZTC.deg                 6.17:  AZM TOTAL CORR
 EPD .m                   0.00:  ELEVATION
 EGL .m                   0.00:  GROUND ELEVATION
 WDMS.m                 151.80:  WD ELEV
 APD .m                  43.60:  DEPTH ABOVE PD
 AGAP.m                  43.60:  AIR GAP
 VSEW.m                  -6.28:  VERT SEC E/W
 VSNS.m                 -17.04:  VERT SEC N/S
 DEP .m                2656.31:  DEPTH
 EKB .m                  43.60:  KB ELEVATION
 EDF .m                  43.60:  DF ELEVATION
 VSC .                       0:  VS TO CLOSURE
 MAGU.                 1851247:  MAGUTM CHECKSUM
~Parameter Information Block
#MNEM.UNIT       Value        Description
#---------     -----------    ---------------------------
 AV  .mps                 3.00:  Ann Velocity 
 AVMX.mps                 8.00:  Max Ann Veloc 
 AZIF.deg                 0.00:  Azm, Final 
 BHAT.                   Other:  BHA Type 
 BREV.rev                 0.00:  Rev Bit Total 
 BROT.°/30m               0.00:  Build Rotating 
 BS  .in                 10.25:  Bit Size 
 BTPL.psig              511.00:  Bit Press Loss 
 CABU.                      No:  Customer Abuse 
 CGEO.           Asif Pashayev:  Customer Geo 
 TCS .hr                 24.03:  Time Ciculation Ended 
 CV  .mps                 3.50:  Crit Velocity 
 CVMX.mps                 4.00:  Max Crit Veloc 
 DD1 .             Aziz Aliyev:  Direct Drillr 1 
 DD2 .      Fakhraddin Guliyev:  Direct Drillr 2 
 DDSV.                   Other:  DD Service 
 DEFF.%                  99.00:  % Det Eff 
 DLRX.°/30m               0.00:  Dogleg Rot Max 
 DLSO.°/30m               0.00:  Dogleg Oriented 
 DLSX.°/30m               0.00:  Dogleg Str Max 
 DRET.      23.00.40 28-Mar-21:  Drill End Time 
 DRST.      23.30.40 25-Mar-21:  Drill Start Tim 
 DTIM.hr                  0.00:  Time Drilling 
 EDEP.m                3886.01:  End Depth 
 ENG1.         Almaz Almadatov:  Engineer 1 
 ENG2.      Artemiy Matviyanov:  Engineer 2 
 ENG3.           Samir Gafarov:  Engineer 3 
 ETIM.      23.00.40 28-Mar-21:  End Time 
 FLOI.gpm               550.00:  Flow In 
 FLON.gpm               500.00:  Flow In Min 
 FLOS.cptm                0.00:  Fluid Loss 
 FLOX.gpm               590.00:  Flow In Max 
 HFLO.                      No:  High Flow 
 HPRE.                      No:  High Pressure 
 HTEM.                      No:  High Temp 
 HYDO.m                   1.80:  Hydro Offset 
 IFIN.deg                 0.00:  Inc, Final 
 IMAX.deg                 0.00:  Inc Max 
 IMIN.deg                 0.00:  Inc Min 
 IMND.m                   0.00:  Inc Min Depth 
 IMXD.m                   0.00:  Inc Max Depth 
 JARR.                      No:  Jarring 
 LETM.      03.22.40 28-Mar-21:  Log End Time 
 LOST.hr                     0:  Lost Rig Time 
 LSTM.      23.30.40 25-Mar-21:  Log Start Time 
 MDCL.ppm             34000.00:  Mud Chlorides 
 MDES.     Inversion Oil/Synthetic:  Mud Desc 
 DFD .sg                  1.51:  Mud Density 
 MDMN.sg                  1.51:  Dens Mud Min 
 MDMX.sg                  1.51:  Dens Mud Max 
 MOIL.                      70:  Run Mud Oil % 
 MOWR.                   70:30:  Run Mud OWR 
 MSND.                     0.2:  Run Mud Sand % 
 MSOL.                   21.60:  Run Mud Solids% 
 DFV .spqt               74.00:  Mud Viscosity 
 MWOD.in                  6.75:  MWD Tool OD 
 MWSI.                      No:  Serv Intrp, MWD 
 OTIM.hr                 69.09:  Time Operating 
 PCON.           Look Like New:  Pad Condition 
 PMAX.psia             3500.00:  Press Op, Max 
 PV  .cP                 70.00:  Mud PV 
 RUN .                     400:  Run Number 
 ROPA.m/hr                0.00:  ROP Avg 
 ROPN.m/hr                0.00:  ROP Min 
 ROPX.m/hr                0.00:  ROP Max 
 RPMA.rpm                80.00:  RPM Surface Avg 
 RPMN.rpm                10.00:  RPM Surface Min 
 RPMX.rpm               100.00:  RPM Surface Max 
 RRUN.                    0400:  Rig Run Number 
 RTIM.hr                  3.00:  Time Reaming 
 SAZI.deg                 0.00:  Azm, Start 
 SDEP.m                3886.01:  Start Depth 
 SIDD.                      No:  Serv Intrp, DD 
 SINC.deg                 0.00:  Inc, Start 
 SPPA.psig             3270.00:  SPP Avg 
 SPPN.psig             3220.00:  SPP Min 
 SPPX.psig             4430.00:  SPP Max 
 STIM.      23.30.40 25-Mar-21:  Start Time 
 SVCS.                 DD, MWD:  Services 
 SVER.                    9.20:  Sperry Version 
 TDAT.m                   0.00:  Tot Depth Attmp 
 TDDF.                      No:  Trip for DD 
 TFF .                      No:  Trip for Fail 
 TQAA.f-kp                8.00:  Torque Abs Avg 
 TQAN.f-kp                7.00:  Torque Abs Min 
 TQAX.f-kp               11.00:  Torque Abs Max 
 TRRT.°/30m               0.00:  Turn Rotating 
 MRT .                  EWR-M5:  Maximum Recorded Temperature 
 TTMX.degC               76.47:  Max Tool Temp 
 VS01.                90640857:  Virtual Str1 SN 
 VS02.                90639246:  Virtual Str2 SN 
 VS03.                90642265:  Virtual Str3 SN 
 VS04.                11654497:  Virtual Str4 SN 
 WBMN.klb                 0.00:  WOB Min 
 WITN.      Kamran Keberlinkiy:  Customer Rep 
 WITN.           Murad Guliyev:  Customer Rep 2 
 WOBA.klb                 0.00:  WOB Avg 
 WOBX.klb                 0.00:  WOB Max 
 YP  .lhf2               36.00:  Yield Point 
~Curve Information Block
#MNEM.UNIT                 API CODE     Curve Description
#---------               -----------    ---------------------------
 TIME.HHMMSS            00 000 000 000:  GT Time & Date
 GTDEPTH.m              00 000 000 000:  GT Depth
 GTPQH.psia             00 000 000 000:  GT HR Quartz Pressure
 GTTQ.degC              00 000 000 000:  GT Quartz Temperature
 GTTN.NONE              00 000 000 000:  GT Test Number
 GTET.sec               00 000 000 000:  GT Elapsed Test Time
 GTTVD.m                00 000 000 000:  GT True Vertical Depth
#Other Information
#
#WARRANTY: Halliburton will use its best efforts to furnish customers with 
#accurate information and interpretations that are part of, and incident to, the services 
#provided.  However, Halliburton cannot and does not warrant the accuracy 
#or correctness of such information and interpretations.  Under no circumstances should any 
#such information or interpretation be relied upon as the sole basis for any drilling, 
#completion, production, or financial decision or any procedure involving any risk to the 
#safety of any drilling venture, drilling rig or its crew or any other third party.  The 
#Customer has full responsibility for all drilling, completion and production operation.  
#Halliburton makes no representations or warranties, either expressed or 
#implied, including, but not limited to, the implied warranties of merchantability or fitness 
#for a particular purpose, with respect to the services rendered.  In no event will 
#Halliburton be liable for failure to obtain any particular results or for 
#any damages, including, but not limited to, indirect, special or consequential damages, 
#resulting from the use of any information or interpretation provided by Halliburton.
#
~A           TIME           GTDEPTH  GTPQH  GTTQ  GTTN  GTET   GTTVD  
# ...
   09:10:04.000.27-Mar-2021 3361.51 7253.01 61.02 8.00 414.00 3109.50
   09:10:04.200.27-Mar-2021 3361.51 7253.01 61.02 8.00 414.20 3109.50
   09:10:04.400.27-Mar-2021 3361.51 7253.45 61.02 8.00 414.40 3109.50
   09:10:04.600.27-Mar-2021 3361.51 7252.79 61.02 8.00 414.60 3109.50
   09:10:04.800.27-Mar-2021 3361.51 7251.95 61.02 8.00 414.80 3109.50
   09:10:05.000.27-Mar-2021 3361.51 7256.66 61.02 8.00 415.00 3109.50
   09:10:05.200.27-Mar-2021 3361.51 7256.66 61.02 8.00 415.20 3109.50
   09:10:05.400.27-Mar-2021 3361.51 7253.07 61.02 8.00 415.40 3109.50
   09:10:05.600.27-Mar-2021 3361.51 7252.76 61.02 8.00 415.60 3109.50
   09:10:05.800.27-Mar-2021 3361.51 7252.60 61.02 8.00 415.80 3109.50
   09:10:06.000.27-Mar-2021 3361.51 7253.38 61.02 8.00 416.00 3109.50
   09:10:06.200.27-Mar-2021 3361.51 7253.38 61.02 8.00 416.20 3109.50
   09:10:06.400.27-Mar-2021 3361.51 7252.36 61.02 8.00 416.40 3109.50
   09:10:06.600.27-Mar-2021 3361.51 7253.12 61.02 8.00 416.60 3109.50
   09:10:06.800.27-Mar-2021 3361.51 7252.54 61.02 8.00 416.80 3109.50
   09:10:07.000.27-Mar-2021 3361.51 7252.97 61.02 8.00 417.00 3109.50
   09:10:07.200.27-Mar-2021 3361.51 7252.97 61.02 8.00 417.20 3109.50
   09:10:07.400.27-Mar-2021 3361.51 7253.08 61.02 8.00 417.40 3109.50
   09:10:07.600.27-Mar-2021 3361.51 7252.39 61.02 8.00 417.60 3109.50
   09:10:07.800.27-Mar-2021 3361.51 7252.62 61.02 8.00 417.80 3109.50
   09:10:08.000.27-Mar-2021 3361.51 7252.47 61.02 8.00 418.00 3109.50
   09:10:08.200.27-Mar-2021 3361.51 7252.47 61.02 8.00 418.20 3109.50
   09:10:08.400.27-Mar-2021 3361.51 7250.90 61.02 8.00 418.40 3109.50
   09:10:08.600.27-Mar-2021 3361.51 7252.25 61.02 8.00 418.60 3109.50
   09:10:08.800.27-Mar-2021 3361.51 7252.86 61.02 8.00 418.80 3109.50
   09:10:09.000.27-Mar-2021 3361.51 7252.07 61.02 8.00 419.00 3109.50
   09:10:09.200.27-Mar-2021 3361.51 7252.07 61.02 8.00 419.20 3109.50
   09:10:09.400.27-Mar-2021 3361.51 7252.06 61.02 8.00 419.40 3109.50
   09:10:09.600.27-Mar-2021 3361.51 7251.61 61.02 8.00 419.60 3109.50
   09:10:09.800.27-Mar-2021 3361.51 7252.35 61.02 8.00 419.80 3109.50
   09:10:10.000.27-Mar-2021 3361.51 7252.03 61.02 8.00 420.00 3109.50
   09:10:10.200.27-Mar-2021 3361.51 7252.03 61.02 8.00 420.20 3109.50
   09:10:10.400.27-Mar-2021 3361.51 7252.04 61.02 8.00 420.40 3109.50
   09:10:10.600.27-Mar-2021 3361.51 7252.00 61.02 8.00 420.60 3109.50
   09:10:10.800.27-Mar-2021 3361.51 7252.37 61.02 8.00 420.80 3109.50
   09:10:11.000.27-Mar-2021 3361.51 7255.85 61.02 8.00 421.00 3109.50
   09:10:11.200.27-Mar-2021 3361.51 7255.85 61.02 8.00 421.20 3109.50
   09:10:11.400.27-Mar-2021 3361.51 7252.94 61.02 8.00 421.40 3109.50
   09:10:11.600.27-Mar-2021 3361.51 7252.92 61.02 8.00 421.60 3109.50
   09:10:11.800.27-Mar-2021 3361.51 7256.04 61.02 8.00 421.80 3109.50
   09:10:12.000.27-Mar-2021 3361.51 7252.64 61.02 8.00 422.00 3109.50
   09:10:12.200.27-Mar-2021 3361.51 7252.64 61.02 8.00 422.20 3109.50
   09:10:12.400.27-Mar-2021 3361.51 7252.77 61.01 8.00 422.40 3109.50
   09:10:12.600.27-Mar-2021 3361.51 7253.01 61.01 8.00 422.60 3109.50
   09:10:12.800.27-Mar-2021 3361.51 7253.06 61.01 8.00 422.80 3109.50
   09:10:13.000.27-Mar-2021 3361.51 7252.30 61.01 8.00 423.00 3109.50
   09:10:13.200.27-Mar-2021 3361.51 7252.30 61.01 8.00 423.20 3109.50
   09:10:13.400.27-Mar-2021 3361.51 7252.38 61.01 8.00 423.40 3109.50
   09:10:13.600.27-Mar-2021 3361.51 7253.17 61.01 8.00 423.60 3109.50
   09:10:13.800.27-Mar-2021 3361.51 7253.56 61.01 8.00 423.80 3109.50
   09:10:14.000.27-Mar-2021 3361.51 7253.39 61.01 8.00 424.00 3109.50
   09:10:14.200.27-Mar-2021 3361.51 7253.39 61.01 8.00 424.20 3109.50
   09:10:14.400.27-Mar-2021 3361.51 7253.21 61.01 8.00 424.40 3109.50
   09:10:14.600.27-Mar-2021 3361.51 7253.98 61.01 8.00 424.60 3109.50
   09:10:14.800.27-Mar-2021 3361.51 7254.72 61.01 8.00 424.80 3109.50
   09:10:15.000.27-Mar-2021 3361.51 7252.42 61.01 8.00 425.00 3109.50
   09:10:15.200.27-Mar-2021 3361.51 7252.42 61.01 8.00 425.20 3109.50
   09:10:15.400.27-Mar-2021 3361.51 7252.58 61.01 8.00 425.40 3109.50
   09:10:15.600.27-Mar-2021 3361.51 7252.57 61.01 8.00 425.60 3109.50
   09:10:15.800.27-Mar-2021 3361.51 7253.00 61.01 8.00 425.80 3109.50
   09:10:16.000.27-Mar-2021 3361.51 7251.98 61.01 8.00 426.00 3109.50
   09:10:16.200.27-Mar-2021 3361.51 7251.98 61.01 8.00 426.20 3109.50
   09:10:16.400.27-Mar-2021 3361.51 7252.46 61.01 8.00 426.40 3109.50
   09:10:16.600.27-Mar-2021 3361.51 7252.56 61.01 8.00 426.60 3109.50
   09:10:16.800.27-Mar-2021 3361.51 7252.75 61.01 8.00 426.80 3109.50
