~Version Information
 VERS.                  2.0:   CWLS log ASCII Standard -VERSION 2.0
 WRAP.                   NO:   One line per depth step
~Well Information Block
#MNEM.UNIT     VALUE/NAME     DESCRIPTION
#---------     -----------    ---------------------------
 STRT.S             06:42:15 27-Mar-21: START TIME 06:42:15 27-Mar-21
 STOP.S             06:49:25 27-Mar-21: STOP TIME  06:49:25 27-Mar-21
 STEP.S                   0.00: STEP TIME
 NULL.                 -999.25: NULL VALUE
 DFWT.                        :  DIST FWL TEXT
 DFST.                        :  DIST FSL TEXT
 DMF .             Drill Floor:  DRILL MEAS FROM
 STIM.      20.26.40 11-Mar-21:  START TIME
 DATE.      20.26.40 30-Mar-21:  END TIME
 SPUD.               11-Mar-21:  SPUD DATE
 NREF.                    Grid:  NORTH REFERENCE
 HPTY.       Minimum Curvature:  HOLE POS TYPE
 DMOD.             Drill Model:  DRILL MOD DESC
 SVYD.                  Survey:  SURVEY DESC
 ILTD.               Lithology:  INTERP LTH DESC
 FTOP.          Formation Tops:  FORM TOPS DESC
 SON .        AZ-XX-0906805385:  JOB NUMBER
 WTYP.                Deviated:  WELL TYPE
 COMP.     BP Exploration (Caspian Sea) Ltd.:  COMPANY
 UWI .            /AZE00000198:  UNIQUE WELL IDENTIFIER
 API .            /AZE00000198:  API NUMBER
 BASE.              Azerbaijan:  LOGGING EQUIPMENT BASE LOCATION
 REGN.                   EESSA:  REGION
 PROV.                    Baku:  PROVINCE
 STAT.                    Baku:  STATE NAME
 CTRY.              Azerbaijan:  COUNTRY NAME
 FLD .                     ACG:  FIELD NAME
 SRVC.     Turan Drilling & Engineering:  CONTRACTOR
 MWDS.                    Baku:  MWD SHOP
 WELL.                    D09z:  WELL NAME
 JOBN.        AZ-XX-0906805385:  JOB TICKET NUMB
 RIG .              East Azeri:  RIG NAME
 DOE .                     N/A:  DOE NUMBER
 DCON.         Sperry Drilling:  DIRECTNL CONTR
 UNIT.                     N/A:  LOGGING EQUIPMENT ID
 PDAT.          Mean Sea Level:  PERMANENT DATUM
 MDS .        Operator Entered:  MAG DATA SOURCE
 CNTY.                        :  COUNTY
 LOC .                        :  LOCATION
 LMF .             Drill Floor:  LOG MEASURED FROM
 TVDS.m                  43.60:  TVDSS CORRECTN
 LATI.deg                40.02:  LATITUDE
 LONG.deg                51.45:  LONGITUDE
 WHNS.m                 -17.04:  WELL HEAD N/S
 WHEW.m                  -6.28:  WELL HEAD E/W
 UTMX.m              538763.98:  UTM X
 UTMY.m             4431880.20:  UTM Y
 DFWL.m                   0.00:  DISTANCE FWL
 DFSL.m                   0.00:  DISTANCE FSL
 SDEP.m                2680.01:  START DEPTH
 TDD .m                4000.01:  TOTAL DEPTH (DRILLER)
 VSDR.deg               225.71:  VERT SEC DIRECT
 GVFD.g                   1.00:  GRAVITY FIELD
 MFLD.nT              50353.00:  MAGNETIC FIELD
 MDIP.deg                59.49:  MAGNETIC DIP
 MDEC.deg                 6.46:  MAGNETIC DECL
 GRDC.deg                 0.29:  GRID CORRECTION
 AZTC.deg                 6.17:  AZM TOTAL CORR
 EPD .m                   0.00:  ELEVATION
 EGL .m                   0.00:  GROUND ELEVATION
 WDMS.m                 151.80:  WD ELEV
 APD .m                  43.60:  DEPTH ABOVE PD
 AGAP.m                  43.60:  AIR GAP
 VSEW.m                  -6.28:  VERT SEC E/W
 VSNS.m                 -17.04:  VERT SEC N/S
 DEP .m                2656.31:  DEPTH
 EKB .m                  43.60:  KB ELEVATION
 EDF .m                  43.60:  DF ELEVATION
 VSC .                       0:  VS TO CLOSURE
 MAGU.                 1851247:  MAGUTM CHECKSUM
~Parameter Information Block
#MNEM.UNIT       Value        Description
#---------     -----------    ---------------------------
 AV  .mps                 3.00:  Ann Velocity 
 AVMX.mps                 8.00:  Max Ann Veloc 
 AZIF.deg                 0.00:  Azm, Final 
 BHAT.                   Other:  BHA Type 
 BREV.rev                 0.00:  Rev Bit Total 
 BROT.°/30m               0.00:  Build Rotating 
 BS  .in                 10.25:  Bit Size 
 BTPL.psig              511.00:  Bit Press Loss 
 CABU.                      No:  Customer Abuse 
 CGEO.           Asif Pashayev:  Customer Geo 
 COMM.                     lÇi:  Run Comments 1 
 TCS .hr                 24.03:  Time Ciculation Ended 
 CV  .mps                 3.50:  Crit Velocity 
 CVMX.mps                 4.00:  Max Crit Veloc 
 DD1 .             Aziz Aliyev:  Direct Drillr 1 
 DD2 .      Fakhraddin Guliyev:  Direct Drillr 2 
 DDSV.                   Other:  DD Service 
 DEFF.%                  99.00:  % Det Eff 
 DLRX.°/30m               0.00:  Dogleg Rot Max 
 DLSO.°/30m               0.00:  Dogleg Oriented 
 DLSX.°/30m               0.00:  Dogleg Str Max 
 DRET.      23.00.40 28-Mar-21:  Drill End Time 
 DRST.      23.30.40 25-Mar-21:  Drill Start Tim 
 DTIM.hr                  0.00:  Time Drilling 
 EDEP.m                3886.01:  End Depth 
 ENG1.         Almaz Almadatov:  Engineer 1 
 ENG2.      Artemiy Matviyanov:  Engineer 2 
 ENG3.           Samir Gafarov:  Engineer 3 
 ETIM.      23.00.40 28-Mar-21:  End Time 
 FLOI.gpm               550.00:  Flow In 
 FLON.gpm               500.00:  Flow In Min 
 FLOS.cptm                0.00:  Fluid Loss 
 FLOX.gpm               590.00:  Flow In Max 
 HFLO.                      No:  High Flow 
 HPRE.                      No:  High Pressure 
 HTEM.                      No:  High Temp 
 HYDO.m                   1.80:  Hydro Offset 
 IFIN.deg                 0.00:  Inc, Final 
 IMAX.deg                 0.00:  Inc Max 
 IMIN.deg                 0.00:  Inc Min 
 IMND.m                   0.00:  Inc Min Depth 
 IMXD.m                   0.00:  Inc Max Depth 
 JARR.                      No:  Jarring 
 LETM.      03.22.40 28-Mar-21:  Log End Time 
 LOST.hr                     0:  Lost Rig Time 
 LSTM.      23.30.40 25-Mar-21:  Log Start Time 
 MDCL.ppm             34000.00:  Mud Chlorides 
 MDES.     Inversion Oil/Synthetic:  Mud Desc 
 DFD .sg                  1.51:  Mud Density 
 MDMN.sg                  1.51:  Dens Mud Min 
 MDMX.sg                  1.51:  Dens Mud Max 
 MOIL.                      70:  Run Mud Oil % 
 MOWR.                   70:30:  Run Mud OWR 
 MSND.                     0.2:  Run Mud Sand % 
 MSOL.                   21.60:  Run Mud Solids% 
 DFV .spqt               74.00:  Mud Viscosity 
 MWOD.in                  6.75:  MWD Tool OD 
 MWSI.                      No:  Serv Intrp, MWD 
 OTIM.hr                 69.09:  Time Operating 
 PCON.           Look Like New:  Pad Condition 
 PMAX.psia             3500.00:  Press Op, Max 
 PV  .cP                 70.00:  Mud PV 
 RUN .                     400:  Run Number 
 ROPA.m/hr                0.00:  ROP Avg 
 ROPN.m/hr                0.00:  ROP Min 
 ROPX.m/hr                0.00:  ROP Max 
 RPMA.rpm                80.00:  RPM Surface Avg 
 RPMN.rpm                10.00:  RPM Surface Min 
 RPMX.rpm               100.00:  RPM Surface Max 
 RRUN.                    0400:  Rig Run Number 
 RTIM.hr                  3.00:  Time Reaming 
 SAZI.deg                 0.00:  Azm, Start 
 SDEP.m                3886.01:  Start Depth 
 SIDD.                      No:  Serv Intrp, DD 
 SINC.deg                 0.00:  Inc, Start 
 SPPA.psig             3270.00:  SPP Avg 
 SPPN.psig             3220.00:  SPP Min 
 SPPX.psig             4430.00:  SPP Max 
 STIM.      23.30.40 25-Mar-21:  Start Time 
 SVCS.                 DD, MWD:  Services 
 SVER.                    9.20:  Sperry Version 
 TDAT.m                   0.00:  Tot Depth Attmp 
 TDDF.                      No:  Trip for DD 
 TFF .                      No:  Trip for Fail 
 TQAA.f-kp                8.00:  Torque Abs Avg 
 TQAN.f-kp                7.00:  Torque Abs Min 
 TQAX.f-kp               11.00:  Torque Abs Max 
 TRRT.°/30m               0.00:  Turn Rotating 
 MRT .                  EWR-M5:  Maximum Recorded Temperature 
 TTMX.degC               76.47:  Max Tool Temp 
 VS01.                90640857:  Virtual Str1 SN 
 VS02.                90639246:  Virtual Str2 SN 
 VS03.                90642265:  Virtual Str3 SN 
 VS04.                11654497:  Virtual Str4 SN 
 WBMN.klb                 0.00:  WOB Min 
 WITN.      Kamran Keberlinkiy:  Customer Rep 
 WITN.           Murad Guliyev:  Customer Rep 2 
 WOBA.klb                 0.00:  WOB Avg 
 WOBX.klb                 0.00:  WOB Max 
 YP  .lhf2               36.00:  Yield Point 
~Curve Information Block
#MNEM.UNIT                 API CODE     Curve Description
#---------               -----------    ---------------------------
 TIME.HHMMSS            00 000 000 000:  GT Time & Date
 GTDEPTH.m              00 000 000 000:  GT Depth
 GTPQH.psia             00 000 000 000:  GT HR Quartz Pressure
 GTTQ.degC              00 000 000 000:  GT Quartz Temperature
 GTTN.NONE              00 000 000 000:  GT Test Number
 GTET.sec               00 000 000 000:  GT Elapsed Test Time
 GTTVD.m                00 000 000 000:  GT True Vertical Depth
#Other Information
#
#WARRANTY: Halliburton will use its best efforts to furnish customers with 
#accurate information and interpretations that are part of, and incident to, the services 
#provided.  However, Halliburton cannot and does not warrant the accuracy 
#or correctness of such information and interpretations.  Under no circumstances should any 
#such information or interpretation be relied upon as the sole basis for any drilling, 
#completion, production, or financial decision or any procedure involving any risk to the 
#safety of any drilling venture, drilling rig or its crew or any other third party.  The 
#Customer has full responsibility for all drilling, completion and production operation.  
#Halliburton makes no representations or warranties, either expressed or 
#implied, including, but not limited to, the implied warranties of merchantability or fitness 
#for a particular purpose, with respect to the services rendered.  In no event will 
#Halliburton be liable for failure to obtain any particular results or for 
#any damages, including, but not limited to, indirect, special or consequential damages, 
#resulting from the use of any information or interpretation provided by Halliburton.
#
~A           TIME           GTDEPTH  GTPQH  GTTQ  GTTN  GTET   GTTVD  
# ...
   06:46:28.286.27-Mar-2021 3443.51 5071.33 60.36 5.00 253.06 3186.30
   06:46:28.486.27-Mar-2021 3443.51 5071.33 60.36 5.00 253.26 3186.30
   06:46:28.686.27-Mar-2021 3443.51 5071.17 60.36 5.00 253.46 3186.30
   06:46:28.886.27-Mar-2021 3443.51 5071.24 60.36 5.00 253.66 3186.30
   06:46:29.086.27-Mar-2021 3443.51 5071.25 60.36 5.00 253.86 3186.30
   06:46:29.286.27-Mar-2021 3443.51 5071.25 60.36 5.00 254.06 3186.30
   06:46:29.486.27-Mar-2021 3443.51 5071.25 60.36 5.00 254.26 3186.30
   06:46:29.686.27-Mar-2021 3443.51 5071.24 60.36 5.00 254.46 3186.30
   06:46:29.886.27-Mar-2021 3443.51 5071.27 60.36 5.00 254.66 3186.30
   06:46:30.086.27-Mar-2021 3443.51 5071.03 60.36 5.00 254.86 3186.30
   06:46:30.286.27-Mar-2021 3443.51 5071.33 60.36 5.00 255.06 3186.30
   06:46:30.486.27-Mar-2021 3443.51 5071.33 60.36 5.00 255.26 3186.30
   06:46:30.686.27-Mar-2021 3443.51 5071.21 60.36 5.00 255.46 3186.30
   06:46:30.886.27-Mar-2021 3443.51 5071.17 60.36 5.00 255.66 3186.30
   06:46:31.086.27-Mar-2021 3443.51 5071.09 60.36 5.00 255.86 3186.30
   06:46:31.286.27-Mar-2021 3443.51 5071.37 60.36 5.00 256.06 3186.30
   06:46:31.486.27-Mar-2021 3443.51 5071.37 60.36 5.00 256.26 3186.30
   06:46:31.687.27-Mar-2021 3443.51 5071.28 60.36 5.00 256.46 3186.30
   06:46:31.887.27-Mar-2021 3443.51 5071.03 60.36 5.00 256.66 3186.30
   06:46:32.087.27-Mar-2021 3443.51 5071.29 60.36 5.00 256.86 3186.30
   06:46:32.287.27-Mar-2021 3443.51 5071.16 60.36 5.00 257.06 3186.30
   06:46:32.487.27-Mar-2021 3443.51 5071.16 60.36 5.00 257.26 3186.30
   06:46:32.687.27-Mar-2021 3443.51 5071.37 60.36 5.00 257.46 3186.30
   06:46:32.887.27-Mar-2021 3443.51 5071.14 60.36 5.00 257.66 3186.30
   06:46:33.087.27-Mar-2021 3443.51 5071.29 60.36 5.00 257.86 3186.30
   06:46:33.287.27-Mar-2021 3443.51 5071.20 60.36 5.00 258.06 3186.30
   06:46:33.487.27-Mar-2021 3443.51 5071.20 60.36 5.00 258.26 3186.30
   06:46:33.687.27-Mar-2021 3443.51 5071.17 60.36 5.00 258.46 3186.30
   06:46:33.887.27-Mar-2021 3443.51 5071.23 60.36 5.00 258.66 3186.30
   06:46:34.087.27-Mar-2021 3443.51 5071.06 60.36 5.00 258.86 3186.30
   06:46:34.287.27-Mar-2021 3443.51 5071.33 60.36 5.00 259.06 3186.30
   06:46:34.487.27-Mar-2021 3443.51 5071.33 60.36 5.00 259.26 3186.30
   06:46:34.687.27-Mar-2021 3443.51 5071.24 60.36 5.00 259.46 3186.30
   06:46:34.887.27-Mar-2021 3443.51 5071.27 60.36 5.00 259.66 3186.30
   06:46:35.087.27-Mar-2021 3443.51 5071.17 60.36 5.00 259.86 3186.30
   06:46:35.287.27-Mar-2021 3443.51 5071.23 60.36 5.00 260.06 3186.30
   06:46:35.487.27-Mar-2021 3443.51 5071.23 60.36 5.00 260.26 3186.30
   06:46:35.688.27-Mar-2021 3443.51 5071.20 60.36 5.00 260.46 3186.30
   06:46:35.888.27-Mar-2021 3443.51 5071.31 60.36 5.00 260.66 3186.30
   06:46:36.088.27-Mar-2021 3443.51 5071.12 60.36 5.00 260.86 3186.30
   06:46:36.288.27-Mar-2021 3443.51 5071.16 60.36 5.00 261.07 3186.30
   06:46:36.488.27-Mar-2021 3443.51 5071.16 60.36 5.00 261.27 3186.30
   06:46:36.688.27-Mar-2021 3443.51 5071.18 60.36 5.00 261.47 3186.30
   06:46:36.888.27-Mar-2021 3443.51 5071.08 60.36 5.00 261.67 3186.30
   06:46:37.088.27-Mar-2021 3443.51 5071.30 60.36 5.00 261.87 3186.30
   06:46:37.288.27-Mar-2021 3443.51 5071.15 60.36 5.00 262.07 3186.30
   06:46:37.488.27-Mar-2021 3443.51 5071.15 60.36 5.00 262.27 3186.30
   06:46:37.688.27-Mar-2021 3443.51 5071.11 60.36 5.00 262.47 3186.30
   06:46:37.888.27-Mar-2021 3443.51 5071.10 60.36 5.00 262.67 3186.30
   06:46:38.088.27-Mar-2021 3443.51 5071.55 60.36 5.00 262.87 3186.30
   06:46:38.288.27-Mar-2021 3443.51 5071.06 60.36 5.00 263.07 3186.30
   06:46:38.488.27-Mar-2021 3443.51 5071.06 60.36 5.00 263.27 3186.30
   06:46:38.688.27-Mar-2021 3443.51 5071.03 60.36 5.00 263.47 3186.30
   06:46:38.888.27-Mar-2021 3443.51 5071.25 60.36 5.00 263.67 3186.30
   06:46:39.088.27-Mar-2021 3443.51 5071.23 60.36 5.00 263.87 3186.30
   06:46:39.288.27-Mar-2021 3443.51 5071.30 60.36 5.00 264.07 3186.30
   06:46:39.488.27-Mar-2021 3443.51 5071.30 60.36 5.00 264.27 3186.30
   06:46:39.689.27-Mar-2021 3443.51 5071.23 60.36 5.00 264.47 3186.30
   06:46:39.889.27-Mar-2021 3443.51 5071.22 60.36 5.00 264.67 3186.30
   06:46:40.089.27-Mar-2021 3443.51 5071.21 60.36 5.00 264.87 3186.30
   06:46:40.289.27-Mar-2021 3443.51 5071.25 60.36 5.00 265.07 3186.30
   06:46:40.489.27-Mar-2021 3443.51 5071.25 60.36 5.00 265.27 3186.30
   06:46:40.689.27-Mar-2021 3443.51 5071.38 60.36 5.00 265.47 3186.30
   06:46:40.889.27-Mar-2021 3443.51 5071.12 60.36 5.00 265.67 3186.30
   06:46:41.089.27-Mar-2021 3443.51 5071.25 60.36 5.00 265.87 3186.30
   06:46:41.289.27-Mar-2021 3443.51 5071.07 60.36 5.00 266.07 3186.30
   06:46:41.489.27-Mar-2021 3443.51 5071.07 60.36 5.00 266.27 3186.30
   06:46:41.689.27-Mar-2021 3443.51 5070.95 60.36 5.00 266.47 3186.30
   06:46:41.889.27-Mar-2021 3443.51 5026.50 60.36 5.00 266.67 3186.30
   06:46:42.089.27-Mar-2021 3443.51 4967.63 60.36 5.00 266.87 3186.30
   06:46:42.289.27-Mar-2021 3443.51 4963.03 60.36 5.00 267.07 3186.30
   06:46:42.489.27-Mar-2021 3443.51 4963.03 60.36 5.00 267.27 3186.30
   06:46:42.689.27-Mar-2021 3443.51 4963.84 60.36 5.00 267.47 3186.30
   06:46:42.889.27-Mar-2021 3443.51 4963.50 60.36 5.00 267.67 3186.30
   06:46:43.089.27-Mar-2021 3443.51 4962.61 60.36 5.00 267.87 3186.30
   06:46:43.289.27-Mar-2021 3443.51 4963.26 60.36 5.00 268.07 3186.30
   06:46:43.489.27-Mar-2021 3443.51 4963.26 60.36 5.00 268.27 3186.30
   06:46:43.690.27-Mar-2021 3443.51 4963.34 60.36 5.00 268.47 3186.30
   06:46:43.890.27-Mar-2021 3443.51 4963.31 60.36 5.00 268.67 3186.30
   06:46:44.090.27-Mar-2021 3443.51 4963.54 60.36 5.00 268.87 3186.30
   06:46:44.290.27-Mar-2021 3443.51 4964.20 60.36 5.00 269.07 3186.30
   06:46:44.490.27-Mar-2021 3443.51 4964.20 60.36 5.00 269.27 3186.30
   06:46:44.690.27-Mar-2021 3443.51 4963.74 60.36 5.00 269.47 3186.30
   06:46:44.890.27-Mar-2021 3443.51 4964.86 60.36 5.00 269.67 3186.30
   06:46:45.090.27-Mar-2021 3443.51 4964.93 60.36 5.00 269.87 3186.30
   06:46:45.290.27-Mar-2021 3443.51 4964.90 60.36 5.00 270.07 3186.30
   06:46:45.490.27-Mar-2021 3443.51 4964.90 60.36 5.00 270.27 3186.30
   06:46:45.690.27-Mar-2021 3443.51 4964.67 60.36 5.00 270.47 3186.30
   06:46:45.890.27-Mar-2021 3443.51 4963.53 60.36 5.00 270.67 3186.30
   06:46:46.090.27-Mar-2021 3443.51 4963.44 60.36 5.00 270.87 3186.30
   06:46:46.290.27-Mar-2021 3443.51 4963.11 60.36 5.00 271.07 3186.30
   06:46:46.490.27-Mar-2021 3443.51 4963.11 60.36 5.00 271.27 3186.30
   06:46:46.690.27-Mar-2021 3443.51 4964.91 60.36 5.00 271.47 3186.30
   06:46:46.890.27-Mar-2021 3443.51 4962.29 60.36 5.00 271.67 3186.30
   06:46:47.090.27-Mar-2021 3443.51 4964.23 60.36 5.00 271.87 3186.30
   06:46:47.290.27-Mar-2021 3443.51 4962.50 60.36 5.00 272.07 3186.30
   06:46:47.490.27-Mar-2021 3443.51 4962.50 60.36 5.00 272.27 3186.30
   06:46:47.691.27-Mar-2021 3443.51 4960.89 60.36 5.00 272.47 3186.30
   06:46:47.891.27-Mar-2021 3443.51 4961.42 60.36 5.00 272.67 3186.30
   06:46:48.091.27-Mar-2021 3443.51 4962.14 60.36 5.00 272.87 3186.30
   06:46:48.291.27-Mar-2021 3443.51 4959.05 60.36 5.00 273.07 3186.30
   06:46:48.491.27-Mar-2021 3443.51 4959.05 60.36 5.00 273.27 3186.30
   06:46:48.691.27-Mar-2021 3443.51 4961.23 60.36 5.00 273.47 3186.30
   06:46:48.891.27-Mar-2021 3443.51 4961.00 60.36 5.00 273.67 3186.30
   06:46:49.091.27-Mar-2021 3443.51 4959.73 60.36 5.00 273.87 3186.30
   06:46:49.291.27-Mar-2021 3443.51 4961.58 60.36 5.00 274.07 3186.30
   06:46:49.491.27-Mar-2021 3443.51 4961.58 60.36 5.00 274.27 3186.30
   06:46:49.691.27-Mar-2021 3443.51 4959.65 60.36 5.00 274.47 3186.30
   06:46:49.891.27-Mar-2021 3443.51 4959.68 60.36 5.00 274.67 3186.30
   06:46:50.091.27-Mar-2021 3443.51 4959.53 60.36 5.00 274.87 3186.30
   06:46:50.291.27-Mar-2021 3443.51 4957.51 60.36 5.00 275.07 3186.30
   06:46:50.491.27-Mar-2021 3443.51 4957.51 60.36 5.00 275.27 3186.30
   06:46:50.691.27-Mar-2021 3443.51 4959.09 60.36 5.00 275.47 3186.30
   06:46:50.891.27-Mar-2021 3443.51 4957.62 60.36 5.00 275.67 3186.30
   06:46:51.091.27-Mar-2021 3443.51 4957.36 60.36 5.00 275.87 3186.30
