~Version Information
 VERS.                  2.0:   CWLS log ASCII Standard -VERSION 2.0
 WRAP.                   NO:   One line per depth step
~Well Information Block
#MNEM.UNIT     VALUE/NAME     DESCRIPTION
#---------     -----------    ---------------------------
 STRT.S             11:05:10 27-Mar-21: START TIME 11:05:10 27-Mar-21
 STOP.S             11:12:21 27-Mar-21: STOP TIME  11:12:21 27-Mar-21
 STEP.S                   0.00: STEP TIME
 NULL.                 -999.25: NULL VALUE
 DFWT.                        :  DIST FWL TEXT
 DFST.                        :  DIST FSL TEXT
 DMF .             Drill Floor:  DRILL MEAS FROM
 STIM.      20.26.40 11-Mar-21:  START TIME
 DATE.      20.26.40 30-Mar-21:  END TIME
 SPUD.               11-Mar-21:  SPUD DATE
 NREF.                    Grid:  NORTH REFERENCE
 HPTY.       Minimum Curvature:  HOLE POS TYPE
 DMOD.             Drill Model:  DRILL MOD DESC
 SVYD.                  Survey:  SURVEY DESC
 ILTD.               Lithology:  INTERP LTH DESC
 FTOP.          Formation Tops:  FORM TOPS DESC
 SON .        AZ-XX-0906805385:  JOB NUMBER
 WTYP.                Deviated:  WELL TYPE
 COMP.     BP Exploration (Caspian Sea) Ltd.:  COMPANY
 UWI .            /AZE00000198:  UNIQUE WELL IDENTIFIER
 API .            /AZE00000198:  API NUMBER
 BASE.              Azerbaijan:  LOGGING EQUIPMENT BASE LOCATION
 REGN.                   EESSA:  REGION
 PROV.                    Baku:  PROVINCE
 STAT.                    Baku:  STATE NAME
 CTRY.              Azerbaijan:  COUNTRY NAME
 FLD .                     ACG:  FIELD NAME
 SRVC.     Turan Drilling & Engineering:  CONTRACTOR
 MWDS.                    Baku:  MWD SHOP
 WELL.                    D09z:  WELL NAME
 JOBN.        AZ-XX-0906805385:  JOB TICKET NUMB
 RIG .              East Azeri:  RIG NAME
 DOE .                     N/A:  DOE NUMBER
 DCON.         Sperry Drilling:  DIRECTNL CONTR
 UNIT.                     N/A:  LOGGING EQUIPMENT ID
 PDAT.          Mean Sea Level:  PERMANENT DATUM
 MDS .        Operator Entered:  MAG DATA SOURCE
 CNTY.                        :  COUNTY
 LOC .                        :  LOCATION
 LMF .             Drill Floor:  LOG MEASURED FROM
 TVDS.m                  43.60:  TVDSS CORRECTN
 LATI.deg                40.02:  LATITUDE
 LONG.deg                51.45:  LONGITUDE
 WHNS.m                 -17.04:  WELL HEAD N/S
 WHEW.m                  -6.28:  WELL HEAD E/W
 UTMX.m              538763.98:  UTM X
 UTMY.m             4431880.20:  UTM Y
 DFWL.m                   0.00:  DISTANCE FWL
 DFSL.m                   0.00:  DISTANCE FSL
 SDEP.m                2680.01:  START DEPTH
 TDD .m                4000.01:  TOTAL DEPTH (DRILLER)
 VSDR.deg               225.71:  VERT SEC DIRECT
 GVFD.g                   1.00:  GRAVITY FIELD
 MFLD.nT              50353.00:  MAGNETIC FIELD
 MDIP.deg                59.49:  MAGNETIC DIP
 MDEC.deg                 6.46:  MAGNETIC DECL
 GRDC.deg                 0.29:  GRID CORRECTION
 AZTC.deg                 6.17:  AZM TOTAL CORR
 EPD .m                   0.00:  ELEVATION
 EGL .m                   0.00:  GROUND ELEVATION
 WDMS.m                 151.80:  WD ELEV
 APD .m                  43.60:  DEPTH ABOVE PD
 AGAP.m                  43.60:  AIR GAP
 VSEW.m                  -6.28:  VERT SEC E/W
 VSNS.m                 -17.04:  VERT SEC N/S
 DEP .m                2656.31:  DEPTH
 EKB .m                  43.60:  KB ELEVATION
 EDF .m                  43.60:  DF ELEVATION
 VSC .                       0:  VS TO CLOSURE
 MAGU.                 1851247:  MAGUTM CHECKSUM
~Parameter Information Block
#MNEM.UNIT       Value        Description
#---------     -----------    ---------------------------
 AV  .mps                 3.00:  Ann Velocity 
 AVMX.mps                 8.00:  Max Ann Veloc 
 AZIF.deg                 0.00:  Azm, Final 
 BHAT.                   Other:  BHA Type 
 BREV.rev                 0.00:  Rev Bit Total 
 BROT.°/30m               0.00:  Build Rotating 
 BS  .in                 10.25:  Bit Size 
 BTPL.psig              511.00:  Bit Press Loss 
 CABU.                      No:  Customer Abuse 
 CGEO.           Asif Pashayev:  Customer Geo 
 COMM.                     $Ml:  Run Comments 1 
 TCS .hr                 24.03:  Time Ciculation Ended 
 CV  .mps                 3.50:  Crit Velocity 
 CVMX.mps                 4.00:  Max Crit Veloc 
 DD1 .             Aziz Aliyev:  Direct Drillr 1 
 DD2 .      Fakhraddin Guliyev:  Direct Drillr 2 
 DDSV.                   Other:  DD Service 
 DEFF.%                  99.00:  % Det Eff 
 DLRX.°/30m               0.00:  Dogleg Rot Max 
 DLSO.°/30m               0.00:  Dogleg Oriented 
 DLSX.°/30m               0.00:  Dogleg Str Max 
 DRET.      23.00.40 28-Mar-21:  Drill End Time 
 DRST.      23.30.40 25-Mar-21:  Drill Start Tim 
 DTIM.hr                  0.00:  Time Drilling 
 EDEP.m                3886.01:  End Depth 
 ENG1.         Almaz Almadatov:  Engineer 1 
 ENG2.      Artemiy Matviyanov:  Engineer 2 
 ENG3.           Samir Gafarov:  Engineer 3 
 ETIM.      23.00.40 28-Mar-21:  End Time 
 FLOI.gpm               550.00:  Flow In 
 FLON.gpm               500.00:  Flow In Min 
 FLOS.cptm                0.00:  Fluid Loss 
 FLOX.gpm               590.00:  Flow In Max 
 HFLO.                      No:  High Flow 
 HPRE.                      No:  High Pressure 
 HTEM.                      No:  High Temp 
 HYDO.m                   1.80:  Hydro Offset 
 IFIN.deg                 0.00:  Inc, Final 
 IMAX.deg                 0.00:  Inc Max 
 IMIN.deg                 0.00:  Inc Min 
 IMND.m                   0.00:  Inc Min Depth 
 IMXD.m                   0.00:  Inc Max Depth 
 JARR.                      No:  Jarring 
 LETM.      03.22.40 28-Mar-21:  Log End Time 
 LOST.hr                     0:  Lost Rig Time 
 LSTM.      23.30.40 25-Mar-21:  Log Start Time 
 MDCL.ppm             34000.00:  Mud Chlorides 
 MDES.     Inversion Oil/Synthetic:  Mud Desc 
 DFD .sg                  1.51:  Mud Density 
 MDMN.sg                  1.51:  Dens Mud Min 
 MDMX.sg                  1.51:  Dens Mud Max 
 MOIL.                      70:  Run Mud Oil % 
 MOWR.                   70:30:  Run Mud OWR 
 MSND.                     0.2:  Run Mud Sand % 
 MSOL.                   21.60:  Run Mud Solids% 
 DFV .spqt               74.00:  Mud Viscosity 
 MWOD.in                  6.75:  MWD Tool OD 
 MWSI.                      No:  Serv Intrp, MWD 
 OTIM.hr                 69.09:  Time Operating 
 PCON.           Look Like New:  Pad Condition 
 PMAX.psia             3500.00:  Press Op, Max 
 PV  .cP                 70.00:  Mud PV 
 RUN .                     400:  Run Number 
 ROPA.m/hr                0.00:  ROP Avg 
 ROPN.m/hr                0.00:  ROP Min 
 ROPX.m/hr                0.00:  ROP Max 
 RPMA.rpm                80.00:  RPM Surface Avg 
 RPMN.rpm                10.00:  RPM Surface Min 
 RPMX.rpm               100.00:  RPM Surface Max 
 RRUN.                    0400:  Rig Run Number 
 RTIM.hr                  3.00:  Time Reaming 
 SAZI.deg                 0.00:  Azm, Start 
 SDEP.m                3886.01:  Start Depth 
 SIDD.                      No:  Serv Intrp, DD 
 SINC.deg                 0.00:  Inc, Start 
 SPPA.psig             3270.00:  SPP Avg 
 SPPN.psig             3220.00:  SPP Min 
 SPPX.psig             4430.00:  SPP Max 
 STIM.      23.30.40 25-Mar-21:  Start Time 
 SVCS.                 DD, MWD:  Services 
 SVER.                    9.20:  Sperry Version 
 TDAT.m                   0.00:  Tot Depth Attmp 
 TDDF.                      No:  Trip for DD 
 TFF .                      No:  Trip for Fail 
 TQAA.f-kp                8.00:  Torque Abs Avg 
 TQAN.f-kp                7.00:  Torque Abs Min 
 TQAX.f-kp               11.00:  Torque Abs Max 
 TRRT.°/30m               0.00:  Turn Rotating 
 MRT .                  EWR-M5:  Maximum Recorded Temperature 
 TTMX.degC               76.47:  Max Tool Temp 
 VS01.                90640857:  Virtual Str1 SN 
 VS02.                90639246:  Virtual Str2 SN 
 VS03.                90642265:  Virtual Str3 SN 
 VS04.                11654497:  Virtual Str4 SN 
 WBMN.klb                 0.00:  WOB Min 
 WITN.      Kamran Keberlinkiy:  Customer Rep 
 WITN.           Murad Guliyev:  Customer Rep 2 
 WOBA.klb                 0.00:  WOB Avg 
 WOBX.klb                 0.00:  WOB Max 
 YP  .lhf2               36.00:  Yield Point 
~Curve Information Block
#MNEM.UNIT                 API CODE     Curve Description
#---------               -----------    ---------------------------
 TIME.HHMMSS            00 000 000 000:  GT Time & Date
 GTDEPTH.m              00 000 000 000:  GT Depth
 GTPQH.psia             00 000 000 000:  GT HR Quartz Pressure
 GTTQ.degC              00 000 000 000:  GT Quartz Temperature
 GTTN.NONE              00 000 000 000:  GT Test Number
 GTET.sec               00 000 000 000:  GT Elapsed Test Time
 GTTVD.m                00 000 000 000:  GT True Vertical Depth
#Other Information
#
#WARRANTY: Halliburton will use its best efforts to furnish customers with 
#accurate information and interpretations that are part of, and incident to, the services 
#provided.  However, Halliburton cannot and does not warrant the accuracy 
#or correctness of such information and interpretations.  Under no circumstances should any 
#such information or interpretation be relied upon as the sole basis for any drilling, 
#completion, production, or financial decision or any procedure involving any risk to the 
#safety of any drilling venture, drilling rig or its crew or any other third party.  The 
#Customer has full responsibility for all drilling, completion and production operation.  
#Halliburton makes no representations or warranties, either expressed or 
#implied, including, but not limited to, the implied warranties of merchantability or fitness 
#for a particular purpose, with respect to the services rendered.  In no event will 
#Halliburton be liable for failure to obtain any particular results or for 
#any damages, including, but not limited to, indirect, special or consequential damages, 
#resulting from the use of any information or interpretation provided by Halliburton.
#
~A           TIME           GTDEPTH  GTPQH  GTTQ  GTTN   GTET   GTTVD  
# ...
   11:07:03.253.27-Mar-2021 3279.01 4782.72 61.27 11.00 113.03 3032.17
   11:07:03.453.27-Mar-2021 3279.01 4782.72 61.27 11.00 113.23 3032.17
   11:07:03.653.27-Mar-2021 3279.01 4782.57 61.27 11.00 113.43 3032.17
   11:07:03.853.27-Mar-2021 3279.01 4782.93 61.27 11.00 113.63 3032.17
   11:07:04.053.27-Mar-2021 3279.01 4782.79 61.27 11.00 113.83 3032.17
   11:07:04.253.27-Mar-2021 3279.01 4782.75 61.27 11.00 114.03 3032.17
   11:07:04.454.27-Mar-2021 3279.01 4782.75 61.27 11.00 114.23 3032.17
   11:07:04.654.27-Mar-2021 3279.01 4782.63 61.27 11.00 114.43 3032.17
   11:07:04.854.27-Mar-2021 3279.01 4782.20 61.27 11.00 114.63 3032.17
   11:07:05.054.27-Mar-2021 3279.01 4782.98 61.27 11.00 114.83 3032.17
   11:07:05.254.27-Mar-2021 3279.01 4782.84 61.27 11.00 115.03 3032.17
   11:07:05.454.27-Mar-2021 3279.01 4782.84 61.27 11.00 115.23 3032.17
   11:07:05.654.27-Mar-2021 3279.01 4782.76 61.27 11.00 115.43 3032.17
   11:07:05.854.27-Mar-2021 3279.01 4782.90 61.27 11.00 115.63 3032.17
   11:07:06.054.27-Mar-2021 3279.01 4782.90 61.27 11.00 115.83 3032.17
   11:07:06.254.27-Mar-2021 3279.01 4782.86 61.27 11.00 116.03 3032.17
   11:07:06.454.27-Mar-2021 3279.01 4782.86 61.27 11.00 116.23 3032.17
   11:07:06.654.27-Mar-2021 3279.01 4782.92 61.27 11.00 116.43 3032.17
   11:07:06.854.27-Mar-2021 3279.01 4782.74 61.27 11.00 116.63 3032.17
   11:07:07.054.27-Mar-2021 3279.01 4782.97 61.27 11.00 116.83 3032.17
   11:07:07.254.27-Mar-2021 3279.01 4782.81 61.27 11.00 117.03 3032.17
   11:07:07.454.27-Mar-2021 3279.01 4782.81 61.27 11.00 117.23 3032.17
   11:07:07.654.27-Mar-2021 3279.01 4782.78 61.27 11.00 117.43 3032.17
   11:07:07.854.27-Mar-2021 3279.01 4782.85 61.27 11.00 117.63 3032.17
   11:07:08.054.27-Mar-2021 3279.01 4781.48 61.27 11.00 117.83 3032.17
   11:07:08.254.27-Mar-2021 3279.01 4782.18 61.27 11.00 118.03 3032.17
   11:07:08.454.27-Mar-2021 3279.01 4782.18 61.27 11.00 118.23 3032.17
   11:07:08.655.27-Mar-2021 3279.01 4782.44 61.27 11.00 118.43 3032.17
   11:07:08.855.27-Mar-2021 3279.01 4782.59 61.27 11.00 118.63 3032.17
   11:07:09.055.27-Mar-2021 3279.01 4782.75 61.27 11.00 118.83 3032.17
   11:07:09.255.27-Mar-2021 3279.01 4782.61 61.27 11.00 119.03 3032.17
   11:07:09.455.27-Mar-2021 3279.01 4782.61 61.27 11.00 119.23 3032.17
   11:07:09.655.27-Mar-2021 3279.01 4782.71 61.27 11.00 119.43 3032.17
   11:07:09.855.27-Mar-2021 3279.01 4782.81 61.27 11.00 119.63 3032.17
   11:07:10.055.27-Mar-2021 3279.01 4782.84 61.27 11.00 119.83 3032.17
   11:07:10.255.27-Mar-2021 3279.01 4782.73 61.27 11.00 120.03 3032.17
   11:07:10.455.27-Mar-2021 3279.01 4782.73 61.27 11.00 120.23 3032.17
   11:07:10.655.27-Mar-2021 3279.01 4781.41 61.27 11.00 120.43 3032.17
   11:07:10.855.27-Mar-2021 3279.01 4782.88 61.27 11.00 120.63 3032.17
   11:07:11.055.27-Mar-2021 3279.01 4782.74 61.27 11.00 120.83 3032.17
   11:07:11.255.27-Mar-2021 3279.01 4782.60 61.27 11.00 121.03 3032.17
   11:07:11.455.27-Mar-2021 3279.01 4782.60 61.27 11.00 121.23 3032.17
   11:07:11.655.27-Mar-2021 3279.01 4782.75 61.27 11.00 121.43 3032.17
   11:07:11.855.27-Mar-2021 3279.01 4782.62 61.27 11.00 121.63 3032.17
   11:07:12.055.27-Mar-2021 3279.01 4782.64 61.27 11.00 121.83 3032.17
   11:07:12.255.27-Mar-2021 3279.01 4782.07 61.27 11.00 122.03 3032.17
   11:07:12.455.27-Mar-2021 3279.01 4782.07 61.27 11.00 122.23 3032.17
   11:07:12.655.27-Mar-2021 3279.01 4782.50 61.27 11.00 122.43 3032.17
   11:07:12.855.27-Mar-2021 3279.01 4782.53 61.27 11.00 122.63 3032.17
   11:07:13.056.27-Mar-2021 3279.01 4781.99 61.27 11.00 122.83 3032.17
   11:07:13.256.27-Mar-2021 3279.01 4782.69 61.27 11.00 123.03 3032.17
   11:07:13.456.27-Mar-2021 3279.01 4782.69 61.27 11.00 123.23 3032.17
   11:07:13.656.27-Mar-2021 3279.01 4782.75 61.27 11.00 123.43 3032.17
   11:07:13.856.27-Mar-2021 3279.01 4782.69 61.27 11.00 123.63 3032.17
   11:07:14.056.27-Mar-2021 3279.01 4782.69 61.27 11.00 123.83 3032.17
   11:07:14.256.27-Mar-2021 3279.01 4782.45 61.27 11.00 124.03 3032.17
   11:07:14.456.27-Mar-2021 3279.01 4782.45 61.27 11.00 124.23 3032.17
   11:07:14.656.27-Mar-2021 3279.01 4782.50 61.27 11.00 124.43 3032.17
   11:07:14.856.27-Mar-2021 3279.01 4782.77 61.27 11.00 124.63 3032.17
   11:07:15.056.27-Mar-2021 3279.01 4782.54 61.27 11.00 124.83 3032.17
   11:07:15.256.27-Mar-2021 3279.01 4782.73 61.27 11.00 125.03 3032.17
   11:07:15.456.27-Mar-2021 3279.01 4782.73 61.27 11.00 125.23 3032.17
   11:07:15.656.27-Mar-2021 3279.01 4782.73 61.27 11.00 125.43 3032.17
   11:07:15.856.27-Mar-2021 3279.01 4782.89 61.27 11.00 125.63 3032.17
   11:07:16.056.27-Mar-2021 3279.01 4782.95 61.27 11.00 125.83 3032.17
   11:07:16.256.27-Mar-2021 3279.01 4782.70 61.27 11.00 126.03 3032.17
   11:07:16.456.27-Mar-2021 3279.01 4782.70 61.27 11.00 126.23 3032.17
   11:07:16.656.27-Mar-2021 3279.01 4782.88 61.27 11.00 126.43 3032.17
   11:07:16.856.27-Mar-2021 3279.01 4782.87 61.27 11.00 126.63 3032.17
   11:07:17.056.27-Mar-2021 3279.01 4782.94 61.27 11.00 126.83 3032.17
   11:07:17.257.27-Mar-2021 3279.01 4782.85 61.27 11.00 127.03 3032.17
   11:07:17.457.27-Mar-2021 3279.01 4782.85 61.27 11.00 127.23 3032.17
   11:07:17.657.27-Mar-2021 3279.01 4782.08 61.27 11.00 127.43 3032.17
   11:07:17.857.27-Mar-2021 3279.01 4782.66 61.27 11.00 127.63 3032.17
   11:07:18.057.27-Mar-2021 3279.01 4782.49 61.27 11.00 127.83 3032.17
   11:07:18.257.27-Mar-2021 3279.01 4782.72 61.27 11.00 128.03 3032.17
   11:07:18.457.27-Mar-2021 3279.01 4782.72 61.27 11.00 128.23 3032.17
   11:07:18.657.27-Mar-2021 3279.01 4782.82 61.27 11.00 128.43 3032.17
   11:07:18.857.27-Mar-2021 3279.01 4782.75 61.27 11.00 128.63 3032.17
   11:07:19.057.27-Mar-2021 3279.01 4782.91 61.27 11.00 128.83 3032.17
   11:07:19.257.27-Mar-2021 3279.01 4782.90 61.27 11.00 129.03 3032.17
   11:07:19.457.27-Mar-2021 3279.01 4782.90 61.27 11.00 129.23 3032.17
   11:07:19.657.27-Mar-2021 3279.01 4783.03 61.27 11.00 129.43 3032.17
   11:07:19.857.27-Mar-2021 3279.01 4782.81 61.27 11.00 129.63 3032.17
   11:07:20.057.27-Mar-2021 3279.01 4782.80 61.27 11.00 129.83 3032.17
   11:07:20.257.27-Mar-2021 3279.01 4781.71 61.27 11.00 130.03 3032.17
   11:07:20.457.27-Mar-2021 3279.01 4781.71 61.27 11.00 130.23 3032.17
   11:07:20.657.27-Mar-2021 3279.01 4782.64 61.27 11.00 130.43 3032.17
   11:07:20.857.27-Mar-2021 3279.01 4782.80 61.27 11.00 130.63 3032.17
   11:07:21.057.27-Mar-2021 3279.01 4782.89 61.27 11.00 130.83 3032.17
   11:07:21.257.27-Mar-2021 3279.01 4782.90 61.27 11.00 131.03 3032.17
   11:07:21.458.27-Mar-2021 3279.01 4782.90 61.27 11.00 131.23 3032.17
   11:07:21.658.27-Mar-2021 3279.01 4782.38 61.27 11.00 131.43 3032.17
   11:07:21.858.27-Mar-2021 3279.01 4782.26 61.27 11.00 131.63 3032.17
   11:07:22.058.27-Mar-2021 3279.01 4782.64 61.27 11.00 131.83 3032.17
   11:07:22.258.27-Mar-2021 3279.01 4782.67 61.27 11.00 132.03 3032.17
   11:07:22.458.27-Mar-2021 3279.01 4782.67 61.27 11.00 132.23 3032.17
   11:07:22.658.27-Mar-2021 3279.01 4781.33 61.27 11.00 132.43 3032.17
   11:07:22.858.27-Mar-2021 3279.01 4783.27 61.27 11.00 132.63 3032.17
   11:07:23.058.27-Mar-2021 3279.01 4782.88 61.27 11.00 132.83 3032.17
   11:07:23.258.27-Mar-2021 3279.01 4782.54 61.27 11.00 133.03 3032.17
   11:07:23.458.27-Mar-2021 3279.01 4782.54 61.27 11.00 133.23 3032.17
   11:07:23.658.27-Mar-2021 3279.01 4782.66 61.27 11.00 133.43 3032.17
   11:07:23.858.27-Mar-2021 3279.01 4782.03 61.27 11.00 133.63 3032.17
   11:07:24.058.27-Mar-2021 3279.01 4782.24 61.27 11.00 133.83 3032.17
   11:07:24.258.27-Mar-2021 3279.01 4782.46 61.27 11.00 134.03 3032.17
   11:07:24.458.27-Mar-2021 3279.01 4782.46 61.27 11.00 134.23 3032.17
   11:07:24.658.27-Mar-2021 3279.01 4782.55 61.27 11.00 134.43 3032.17
   11:07:24.858.27-Mar-2021 3279.01 4782.86 61.27 11.00 134.63 3032.17
   11:07:25.058.27-Mar-2021 3279.01 4782.80 61.27 11.00 134.83 3032.17
   11:07:25.258.27-Mar-2021 3279.01 4782.92 61.27 11.00 135.03 3032.17
   11:07:25.458.27-Mar-2021 3279.01 4782.92 61.27 11.00 135.23 3032.17
   11:07:25.658.27-Mar-2021 3279.01 4782.86 61.27 11.00 135.43 3032.17
