~Version Information
 VERS.                  2.0:   CWLS log ASCII Standard -VERSION 2.0
 WRAP.                   NO:   One line per depth step
~Well Information Block
#MNEM.UNIT     VALUE/NAME     DESCRIPTION
#---------     -----------    ---------------------------
 STRT.S             01:51:11 27-Mar-21: START TIME 01:51:11 27-Mar-21
 STOP.S             01:58:18 27-Mar-21: STOP TIME  01:58:18 27-Mar-21
 STEP.S                   0.00: STEP TIME
 NULL.                 -999.25: NULL VALUE
 DFWT.                        :  DIST FWL TEXT
 DFST.                        :  DIST FSL TEXT
 DMF .             Drill Floor:  DRILL MEAS FROM
 STIM.      20.26.40 11-Mar-21:  START TIME
 DATE.      20.26.40 30-Mar-21:  END TIME
 SPUD.               11-Mar-21:  SPUD DATE
 NREF.                    Grid:  NORTH REFERENCE
 HPTY.       Minimum Curvature:  HOLE POS TYPE
 DMOD.             Drill Model:  DRILL MOD DESC
 SVYD.                  Survey:  SURVEY DESC
 ILTD.               Lithology:  INTERP LTH DESC
 FTOP.          Formation Tops:  FORM TOPS DESC
 SON .        AZ-XX-0906805385:  JOB NUMBER
 WTYP.                Deviated:  WELL TYPE
 COMP.     BP Exploration (Caspian Sea) Ltd.:  COMPANY
 UWI .            /AZE00000198:  UNIQUE WELL IDENTIFIER
 API .            /AZE00000198:  API NUMBER
 BASE.              Azerbaijan:  LOGGING EQUIPMENT BASE LOCATION
 REGN.                   EESSA:  REGION
 PROV.                    Baku:  PROVINCE
 STAT.                    Baku:  STATE NAME
 CTRY.              Azerbaijan:  COUNTRY NAME
 FLD .                     ACG:  FIELD NAME
 SRVC.     Turan Drilling & Engineering:  CONTRACTOR
 MWDS.                    Baku:  MWD SHOP
 WELL.                    D09z:  WELL NAME
 JOBN.        AZ-XX-0906805385:  JOB TICKET NUMB
 RIG .              East Azeri:  RIG NAME
 DOE .                     N/A:  DOE NUMBER
 DCON.         Sperry Drilling:  DIRECTNL CONTR
 UNIT.                     N/A:  LOGGING EQUIPMENT ID
 PDAT.          Mean Sea Level:  PERMANENT DATUM
 MDS .        Operator Entered:  MAG DATA SOURCE
 CNTY.                        :  COUNTY
 LOC .                        :  LOCATION
 LMF .             Drill Floor:  LOG MEASURED FROM
 TVDS.m                  43.60:  TVDSS CORRECTN
 LATI.deg                40.02:  LATITUDE
 LONG.deg                51.45:  LONGITUDE
 WHNS.m                 -17.04:  WELL HEAD N/S
 WHEW.m                  -6.28:  WELL HEAD E/W
 UTMX.m              538763.98:  UTM X
 UTMY.m             4431880.20:  UTM Y
 DFWL.m                   0.00:  DISTANCE FWL
 DFSL.m                   0.00:  DISTANCE FSL
 SDEP.m                2680.01:  START DEPTH
 TDD .m                4000.01:  TOTAL DEPTH (DRILLER)
 VSDR.deg               225.71:  VERT SEC DIRECT
 GVFD.g                   1.00:  GRAVITY FIELD
 MFLD.nT              50353.00:  MAGNETIC FIELD
 MDIP.deg                59.49:  MAGNETIC DIP
 MDEC.deg                 6.46:  MAGNETIC DECL
 GRDC.deg                 0.29:  GRID CORRECTION
 AZTC.deg                 6.17:  AZM TOTAL CORR
 EPD .m                   0.00:  ELEVATION
 EGL .m                   0.00:  GROUND ELEVATION
 WDMS.m                 151.80:  WD ELEV
 APD .m                  43.60:  DEPTH ABOVE PD
 AGAP.m                  43.60:  AIR GAP
 VSEW.m                  -6.28:  VERT SEC E/W
 VSNS.m                 -17.04:  VERT SEC N/S
 DEP .m                2656.31:  DEPTH
 EKB .m                  43.60:  KB ELEVATION
 EDF .m                  43.60:  DF ELEVATION
 VSC .                       0:  VS TO CLOSURE
 MAGU.                 1851247:  MAGUTM CHECKSUM
~Parameter Information Block
#MNEM.UNIT       Value        Description
#---------     -----------    ---------------------------
 AV  .mps                 3.00:  Ann Velocity 
 AVMX.mps                 8.00:  Max Ann Veloc 
 AZIF.deg                 0.00:  Azm, Final 
 BHAT.                   Other:  BHA Type 
 BREV.rev                 0.00:  Rev Bit Total 
 BROT.°/30m               0.00:  Build Rotating 
 BS  .in                 10.25:  Bit Size 
 BTPL.psig              511.00:  Bit Press Loss 
 CABU.                      No:  Customer Abuse 
 CGEO.           Asif Pashayev:  Customer Geo 
 COMM.                     |ºg:  Run Comments 1 
 TCS .hr                 24.03:  Time Ciculation Ended 
 CV  .mps                 3.50:  Crit Velocity 
 CVMX.mps                 4.00:  Max Crit Veloc 
 DD1 .             Aziz Aliyev:  Direct Drillr 1 
 DD2 .      Fakhraddin Guliyev:  Direct Drillr 2 
 DDSV.                   Other:  DD Service 
 DEFF.%                  99.00:  % Det Eff 
 DLRX.°/30m               0.00:  Dogleg Rot Max 
 DLSO.°/30m               0.00:  Dogleg Oriented 
 DLSX.°/30m               0.00:  Dogleg Str Max 
 DRET.      23.00.40 28-Mar-21:  Drill End Time 
 DRST.      23.30.40 25-Mar-21:  Drill Start Tim 
 DTIM.hr                  0.00:  Time Drilling 
 EDEP.m                3886.01:  End Depth 
 ENG1.         Almaz Almadatov:  Engineer 1 
 ENG2.      Artemiy Matviyanov:  Engineer 2 
 ENG3.           Samir Gafarov:  Engineer 3 
 ETIM.      23.00.40 28-Mar-21:  End Time 
 FLOI.gpm               550.00:  Flow In 
 FLON.gpm               500.00:  Flow In Min 
 FLOS.cptm                0.00:  Fluid Loss 
 FLOX.gpm               590.00:  Flow In Max 
 HFLO.                      No:  High Flow 
 HPRE.                      No:  High Pressure 
 HTEM.                      No:  High Temp 
 HYDO.m                   1.80:  Hydro Offset 
 IFIN.deg                 0.00:  Inc, Final 
 IMAX.deg                 0.00:  Inc Max 
 IMIN.deg                 0.00:  Inc Min 
 IMND.m                   0.00:  Inc Min Depth 
 IMXD.m                   0.00:  Inc Max Depth 
 JARR.                      No:  Jarring 
 LETM.      03.22.40 28-Mar-21:  Log End Time 
 LOST.hr                     0:  Lost Rig Time 
 LSTM.      23.30.40 25-Mar-21:  Log Start Time 
 MDCL.ppm             34000.00:  Mud Chlorides 
 MDES.     Inversion Oil/Synthetic:  Mud Desc 
 DFD .sg                  1.51:  Mud Density 
 MDMN.sg                  1.51:  Dens Mud Min 
 MDMX.sg                  1.51:  Dens Mud Max 
 MOIL.                      70:  Run Mud Oil % 
 MOWR.                   70:30:  Run Mud OWR 
 MSND.                     0.2:  Run Mud Sand % 
 MSOL.                   21.60:  Run Mud Solids% 
 DFV .spqt               74.00:  Mud Viscosity 
 MWOD.in                  6.75:  MWD Tool OD 
 MWSI.                      No:  Serv Intrp, MWD 
 OTIM.hr                 69.09:  Time Operating 
 PCON.           Look Like New:  Pad Condition 
 PMAX.psia             3500.00:  Press Op, Max 
 PV  .cP                 70.00:  Mud PV 
 RUN .                     400:  Run Number 
 ROPA.m/hr                0.00:  ROP Avg 
 ROPN.m/hr                0.00:  ROP Min 
 ROPX.m/hr                0.00:  ROP Max 
 RPMA.rpm                80.00:  RPM Surface Avg 
 RPMN.rpm                10.00:  RPM Surface Min 
 RPMX.rpm               100.00:  RPM Surface Max 
 RRUN.                    0400:  Rig Run Number 
 RTIM.hr                  3.00:  Time Reaming 
 SAZI.deg                 0.00:  Azm, Start 
 SDEP.m                3886.01:  Start Depth 
 SIDD.                      No:  Serv Intrp, DD 
 SINC.deg                 0.00:  Inc, Start 
 SPPA.psig             3270.00:  SPP Avg 
 SPPN.psig             3220.00:  SPP Min 
 SPPX.psig             4430.00:  SPP Max 
 STIM.      23.30.40 25-Mar-21:  Start Time 
 SVCS.                 DD, MWD:  Services 
 SVER.                    9.20:  Sperry Version 
 TDAT.m                   0.00:  Tot Depth Attmp 
 TDDF.                      No:  Trip for DD 
 TFF .                      No:  Trip for Fail 
 TQAA.f-kp                8.00:  Torque Abs Avg 
 TQAN.f-kp                7.00:  Torque Abs Min 
 TQAX.f-kp               11.00:  Torque Abs Max 
 TRRT.°/30m               0.00:  Turn Rotating 
 MRT .                  EWR-M5:  Maximum Recorded Temperature 
 TTMX.degC               76.47:  Max Tool Temp 
 VS01.                90640857:  Virtual Str1 SN 
 VS02.                90639246:  Virtual Str2 SN 
 VS03.                90642265:  Virtual Str3 SN 
 VS04.                11654497:  Virtual Str4 SN 
 WBMN.klb                 0.00:  WOB Min 
 WITN.      Kamran Keberlinkiy:  Customer Rep 
 WITN.           Murad Guliyev:  Customer Rep 2 
 WOBA.klb                 0.00:  WOB Avg 
 WOBX.klb                 0.00:  WOB Max 
 YP  .lhf2               36.00:  Yield Point 
~Curve Information Block
#MNEM.UNIT                 API CODE     Curve Description
#---------               -----------    ---------------------------
 TIME.HHMMSS            00 000 000 000:  GT Time & Date
 GTDEPTH.m              00 000 000 000:  GT Depth
 GTPQH.psia             00 000 000 000:  GT HR Quartz Pressure
 GTTQ.degC              00 000 000 000:  GT Quartz Temperature
 GTTN.NONE              00 000 000 000:  GT Test Number
 GTET.sec               00 000 000 000:  GT Elapsed Test Time
 GTTVD.m                00 000 000 000:  GT True Vertical Depth
#Other Information
#
#WARRANTY: Halliburton will use its best efforts to furnish customers with 
#accurate information and interpretations that are part of, and incident to, the services 
#provided.  However, Halliburton cannot and does not warrant the accuracy 
#or correctness of such information and interpretations.  Under no circumstances should any 
#such information or interpretation be relied upon as the sole basis for any drilling, 
#completion, production, or financial decision or any procedure involving any risk to the 
#safety of any drilling venture, drilling rig or its crew or any other third party.  The 
#Customer has full responsibility for all drilling, completion and production operation.  
#Halliburton makes no representations or warranties, either expressed or 
#implied, including, but not limited to, the implied warranties of merchantability or fitness 
#for a particular purpose, with respect to the services rendered.  In no event will 
#Halliburton be liable for failure to obtain any particular results or for 
#any damages, including, but not limited to, indirect, special or consequential damages, 
#resulting from the use of any information or interpretation provided by Halliburton.
#
~A           TIME           GTDEPTH  GTPQH  GTTQ  GTTN  GTET   GTTVD  
   01:51:11.640.27-Mar-2021 3763.51 -999.25 59.89 1.00   0.00 3487.00
   01:51:11.840.27-Mar-2021 3763.51 8077.10 59.89 1.00   0.20 3487.00
   01:51:12.041.27-Mar-2021 3763.51 8080.16 59.89 1.00   0.40 3487.00
   01:51:12.241.27-Mar-2021 3763.51 8079.26 59.89 1.00   0.60 3487.00
   01:51:12.441.27-Mar-2021 3763.51 8077.99 59.89 1.00   0.80 3487.00
   01:51:12.641.27-Mar-2021 3763.51 8078.05 59.89 1.00   1.00 3487.00
   01:51:12.841.27-Mar-2021 3763.51 8078.05 59.89 1.00   1.20 3487.00
   01:51:13.041.27-Mar-2021 3763.51 8080.48 59.89 1.00   1.40 3487.00
   01:51:13.241.27-Mar-2021 3763.51 8080.15 59.89 1.00   1.60 3487.00
   01:51:13.441.27-Mar-2021 3763.51 8079.45 59.89 1.00   1.80 3487.00
   01:51:13.641.27-Mar-2021 3763.51 8080.02 59.89 1.00   2.00 3487.00
   01:51:13.841.27-Mar-2021 3763.51 8080.02 59.89 1.00   2.20 3487.00
   01:51:14.041.27-Mar-2021 3763.51 8083.70 59.89 1.00   2.40 3487.00
   01:51:14.241.27-Mar-2021 3763.51 8079.18 59.89 1.00   2.60 3487.00
   01:51:14.441.27-Mar-2021 3763.51 8081.52 59.89 1.00   2.80 3487.00
   01:51:14.641.27-Mar-2021 3763.51 8081.34 59.89 1.00   3.00 3487.00
   01:51:14.841.27-Mar-2021 3763.51 8081.34 59.89 1.00   3.20 3487.00
   01:51:15.041.27-Mar-2021 3763.51 8085.68 59.89 1.00   3.40 3487.00
   01:51:15.241.27-Mar-2021 3763.51 8080.66 59.89 1.00   3.60 3487.00
   01:51:15.441.27-Mar-2021 3763.51 8082.49 59.89 1.00   3.80 3487.00
   01:51:15.641.27-Mar-2021 3763.51 8082.45 59.89 1.00   4.00 3487.00
   01:51:15.841.27-Mar-2021 3763.51 8082.45 59.89 1.00   4.20 3487.00
   01:51:16.041.27-Mar-2021 3763.51 8081.86 59.89 1.00   4.40 3487.00
   01:51:16.241.27-Mar-2021 3763.51 8081.92 59.89 1.00   4.60 3487.00
   01:51:16.441.27-Mar-2021 3763.51 8087.36 59.89 1.00   4.80 3487.00
   01:51:16.641.27-Mar-2021 3763.51 8082.46 59.89 1.00   5.00 3487.00
   01:51:16.841.27-Mar-2021 3763.51 8082.46 59.89 1.00   5.20 3487.00
   01:51:17.042.27-Mar-2021 3763.51 8083.58 59.89 1.00   5.40 3487.00
   01:51:17.242.27-Mar-2021 3763.51 8083.89 59.89 1.00   5.60 3487.00
   01:51:17.442.27-Mar-2021 3763.51 8087.34 59.89 1.00   5.80 3487.00
   01:51:17.642.27-Mar-2021 3763.51 8086.47 59.89 1.00   6.00 3487.00
   01:51:17.842.27-Mar-2021 3763.51 8086.47 59.89 1.00   6.20 3487.00
   01:51:18.042.27-Mar-2021 3763.51 8085.23 59.89 1.00   6.40 3487.00
   01:51:18.242.27-Mar-2021 3763.51 8084.38 59.89 1.00   6.60 3487.00
   01:51:18.442.27-Mar-2021 3763.51 8084.26 59.89 1.00   6.80 3487.00
   01:51:18.642.27-Mar-2021 3763.51 8084.40 59.89 1.00   7.00 3487.00
   01:51:18.842.27-Mar-2021 3763.51 8084.40 59.89 1.00   7.20 3487.00
   01:51:19.042.27-Mar-2021 3763.51 8085.02 59.89 1.00   7.40 3487.00
   01:51:19.242.27-Mar-2021 3763.51 8085.12 59.89 1.00   7.60 3487.00
   01:51:19.442.27-Mar-2021 3763.51 8085.20 59.89 1.00   7.80 3487.00
   01:51:19.642.27-Mar-2021 3763.51 8085.40 59.89 1.00   8.00 3487.00
   01:51:19.842.27-Mar-2021 3763.51 8085.40 59.89 1.00   8.20 3487.00
   01:51:20.042.27-Mar-2021 3763.51 8086.24 59.89 1.00   8.40 3487.00
   01:51:20.242.27-Mar-2021 3763.51 8086.38 59.89 1.00   8.60 3487.00
   01:51:20.442.27-Mar-2021 3763.51 8086.81 59.89 1.00   8.80 3487.00
   01:51:20.642.27-Mar-2021 3763.51 8089.80 59.89 1.00   9.00 3487.00
   01:51:20.842.27-Mar-2021 3763.51 8089.80 59.89 1.00   9.20 3487.00
   01:51:21.042.27-Mar-2021 3763.51 8088.08 59.89 1.00   9.40 3487.00
   01:51:21.242.27-Mar-2021 3763.51 8086.97 59.89 1.00   9.60 3487.00
   01:51:21.442.27-Mar-2021 3763.51 8087.08 59.89 1.00   9.80 3487.00
   01:51:21.642.27-Mar-2021 3763.51 8087.03 59.89 1.00  10.00 3487.00
   01:51:21.843.27-Mar-2021 3763.51 8087.03 59.89 1.00  10.20 3487.00
   01:51:22.043.27-Mar-2021 3763.51 8086.79 59.89 1.00  10.40 3487.00
   01:51:22.243.27-Mar-2021 3763.51 8086.89 59.89 1.00  10.60 3487.00
   01:51:22.443.27-Mar-2021 3763.51 8087.00 59.89 1.00  10.80 3487.00
   01:51:22.643.27-Mar-2021 3763.51 8086.79 59.89 1.00  11.00 3487.00
   01:51:22.843.27-Mar-2021 3763.51 8086.79 59.89 1.00  11.20 3487.00
   01:51:23.043.27-Mar-2021 3763.51 8087.49 59.89 1.00  11.40 3487.00
   01:51:23.243.27-Mar-2021 3763.51 8088.22 59.89 1.00  11.60 3487.00
   01:51:23.443.27-Mar-2021 3763.51 8088.51 59.89 1.00  11.80 3487.00
   01:51:23.643.27-Mar-2021 3763.51 8088.26 59.89 1.00  12.00 3487.00
   01:51:23.843.27-Mar-2021 3763.51 8088.26 59.89 1.00  12.20 3487.00
   01:51:24.043.27-Mar-2021 3763.51 8088.73 59.89 1.00  12.40 3487.00
   01:51:24.243.27-Mar-2021 3763.51 8092.14 59.89 1.00  12.60 3487.00
   01:51:24.443.27-Mar-2021 3763.51 8090.48 59.89 1.00  12.80 3487.00
   01:51:24.643.27-Mar-2021 3763.51 8088.73 59.89 1.00  13.00 3487.00
   01:51:24.843.27-Mar-2021 3763.51 8088.73 59.89 1.00  13.20 3487.00
   01:51:25.043.27-Mar-2021 3763.51 8091.36 59.89 1.00  13.40 3487.00
   01:51:25.243.27-Mar-2021 3763.51 8089.19 59.89 1.00  13.60 3487.00
   01:51:25.443.27-Mar-2021 3763.51 8090.41 59.89 1.00  13.80 3487.00
   01:51:25.643.27-Mar-2021 3763.51 8089.42 59.89 1.00  14.00 3487.00
   01:51:25.843.27-Mar-2021 3763.51 8089.42 59.89 1.00  14.20 3487.00
   01:51:26.043.27-Mar-2021 3763.51 8089.74 59.89 1.00  14.40 3487.00
   01:51:26.243.27-Mar-2021 3763.51 8090.97 59.89 1.00  14.60 3487.00
   01:51:26.443.27-Mar-2021 3763.51 8090.35 59.89 1.00  14.80 3487.00
   01:51:26.644.27-Mar-2021 3763.51 8090.90 59.89 1.00  15.00 3487.00
   01:51:26.844.27-Mar-2021 3763.51 8090.90 59.89 1.00  15.20 3487.00
   01:51:27.044.27-Mar-2021 3763.51 8092.48 59.89 1.00  15.40 3487.00
   01:51:27.244.27-Mar-2021 3763.51 8090.97 59.89 1.00  15.60 3487.00
   01:51:27.444.27-Mar-2021 3763.51 8091.52 59.89 1.00  15.80 3487.00
   01:51:27.644.27-Mar-2021 3763.51 8090.96 59.89 1.00  16.00 3487.00
   01:51:27.844.27-Mar-2021 3763.51 8090.96 59.89 1.00  16.20 3487.00
   01:51:28.044.27-Mar-2021 3763.51 8090.96 59.89 1.00  16.40 3487.00
   01:51:28.244.27-Mar-2021 3763.51 8091.96 59.89 1.00  16.60 3487.00
   01:51:28.444.27-Mar-2021 3763.51 8093.39 59.89 1.00  16.80 3487.00
   01:51:28.644.27-Mar-2021 3763.51 8092.47 59.89 1.00  17.00 3487.00
   01:51:28.844.27-Mar-2021 3763.51 8092.47 59.89 1.00  17.20 3487.00
   01:51:29.044.27-Mar-2021 3763.51 8091.74 59.89 1.00  17.40 3487.00
   01:51:29.244.27-Mar-2021 3763.51 8092.39 59.89 1.00  17.60 3487.00
   01:51:29.444.27-Mar-2021 3763.51 8093.13 59.89 1.00  17.80 3487.00
   01:51:29.644.27-Mar-2021 3763.51 8093.09 59.89 1.00  18.00 3487.00
   01:51:29.844.27-Mar-2021 3763.51 8093.09 59.89 1.00  18.20 3487.00
   01:51:30.044.27-Mar-2021 3763.51 8092.71 59.89 1.00  18.40 3487.00
   01:51:30.244.27-Mar-2021 3763.51 8092.74 59.89 1.00  18.60 3487.00
   01:51:30.444.27-Mar-2021 3763.51 8092.97 59.89 1.00  18.80 3487.00
   01:51:30.644.27-Mar-2021 3763.51 8093.84 59.89 1.00  19.00 3487.00
   01:51:30.844.27-Mar-2021 3763.51 8093.84 59.89 1.00  19.20 3487.00
   01:51:31.044.27-Mar-2021 3763.51 8094.05 59.89 1.00  19.40 3487.00
   01:51:31.244.27-Mar-2021 3763.51 8093.38 59.89 1.00  19.60 3487.00
   01:51:31.445.27-Mar-2021 3763.51 8098.58 59.89 1.00  19.80 3487.00
   01:51:31.645.27-Mar-2021 3763.51 8093.11 59.89 1.00  20.00 3487.00
   01:51:31.845.27-Mar-2021 3763.51 8093.11 59.89 1.00  20.20 3487.00
   01:51:32.045.27-Mar-2021 3763.51 8093.50 59.89 1.00  20.40 3487.00
   01:51:32.245.27-Mar-2021 3763.51 8093.54 59.89 1.00  20.60 3487.00
   01:51:32.445.27-Mar-2021 3763.51 8093.49 59.89 1.00  20.80 3487.00
   01:51:32.645.27-Mar-2021 3763.51 8093.44 59.89 1.00  21.00 3487.00
   01:51:32.845.27-Mar-2021 3763.51 8093.44 59.89 1.00  21.20 3487.00
   01:51:33.045.27-Mar-2021 3763.51 8092.99 59.89 1.00  21.40 3487.00
   01:51:33.245.27-Mar-2021 3763.51 8093.39 59.89 1.00  21.60 3487.00
   01:51:33.445.27-Mar-2021 3763.51 8093.68 59.89 1.00  21.80 3487.00
   01:51:33.645.27-Mar-2021 3763.51 8093.42 59.89 1.00  22.00 3487.00
   01:51:33.845.27-Mar-2021 3763.51 8093.42 59.89 1.00  22.20 3487.00
   01:51:34.045.27-Mar-2021 3763.51 8094.31 59.89 1.00  22.40 3487.00
   01:51:34.245.27-Mar-2021 3763.51 8098.10 59.89 1.00  22.60 3487.00
   01:51:34.445.27-Mar-2021 3763.51 8096.72 59.89 1.00  22.80 3487.00
