~Version Information
 VERS.                  2.0:   CWLS log ASCII Standard -VERSION 2.0
 WRAP.                   NO:   One line per depth step
~Well Information Block
#MNEM.UNIT     VALUE/NAME     DESCRIPTION
#---------     -----------    ---------------------------
 STRT.S             10:17:32 27-Mar-21: START TIME 10:17:32 27-Mar-21
 STOP.S             10:24:40 27-Mar-21: STOP TIME  10:24:40 27-Mar-21
 STEP.S                   0.00: STEP TIME
 NULL.                 -999.25: NULL VALUE
 DFWT.                        :  DIST FWL TEXT
 DFST.                        :  DIST FSL TEXT
 DMF .             Drill Floor:  DRILL MEAS FROM
 STIM.      20.26.40 11-Mar-21:  START TIME
 DATE.      20.26.40 30-Mar-21:  END TIME
 SPUD.               11-Mar-21:  SPUD DATE
 NREF.                    Grid:  NORTH REFERENCE
 HPTY.       Minimum Curvature:  HOLE POS TYPE
 DMOD.             Drill Model:  DRILL MOD DESC
 SVYD.                  Survey:  SURVEY DESC
 ILTD.               Lithology:  INTERP LTH DESC
 FTOP.          Formation Tops:  FORM TOPS DESC
 SON .        AZ-XX-0906805385:  JOB NUMBER
 WTYP.                Deviated:  WELL TYPE
 COMP.     BP Exploration (Caspian Sea) Ltd.:  COMPANY
 UWI .            /AZE00000198:  UNIQUE WELL IDENTIFIER
 API .            /AZE00000198:  API NUMBER
 BASE.              Azerbaijan:  LOGGING EQUIPMENT BASE LOCATION
 REGN.                   EESSA:  REGION
 PROV.                    Baku:  PROVINCE
 STAT.                    Baku:  STATE NAME
 CTRY.              Azerbaijan:  COUNTRY NAME
 FLD .                     ACG:  FIELD NAME
 SRVC.     Turan Drilling & Engineering:  CONTRACTOR
 MWDS.                    Baku:  MWD SHOP
 WELL.                    D09z:  WELL NAME
 JOBN.        AZ-XX-0906805385:  JOB TICKET NUMB
 RIG .              East Azeri:  RIG NAME
 DOE .                     N/A:  DOE NUMBER
 DCON.         Sperry Drilling:  DIRECTNL CONTR
 UNIT.                     N/A:  LOGGING EQUIPMENT ID
 PDAT.          Mean Sea Level:  PERMANENT DATUM
 MDS .        Operator Entered:  MAG DATA SOURCE
 CNTY.                        :  COUNTY
 LOC .                        :  LOCATION
 LMF .             Drill Floor:  LOG MEASURED FROM
 TVDS.m                  43.60:  TVDSS CORRECTN
 LATI.deg                40.02:  LATITUDE
 LONG.deg                51.45:  LONGITUDE
 WHNS.m                 -17.04:  WELL HEAD N/S
 WHEW.m                  -6.28:  WELL HEAD E/W
 UTMX.m              538763.98:  UTM X
 UTMY.m             4431880.20:  UTM Y
 DFWL.m                   0.00:  DISTANCE FWL
 DFSL.m                   0.00:  DISTANCE FSL
 SDEP.m                2680.01:  START DEPTH
 TDD .m                4000.01:  TOTAL DEPTH (DRILLER)
 VSDR.deg               225.71:  VERT SEC DIRECT
 GVFD.g                   1.00:  GRAVITY FIELD
 MFLD.nT              50353.00:  MAGNETIC FIELD
 MDIP.deg                59.49:  MAGNETIC DIP
 MDEC.deg                 6.46:  MAGNETIC DECL
 GRDC.deg                 0.29:  GRID CORRECTION
 AZTC.deg                 6.17:  AZM TOTAL CORR
 EPD .m                   0.00:  ELEVATION
 EGL .m                   0.00:  GROUND ELEVATION
 WDMS.m                 151.80:  WD ELEV
 APD .m                  43.60:  DEPTH ABOVE PD
 AGAP.m                  43.60:  AIR GAP
 VSEW.m                  -6.28:  VERT SEC E/W
 VSNS.m                 -17.04:  VERT SEC N/S
 DEP .m                2656.31:  DEPTH
 EKB .m                  43.60:  KB ELEVATION
 EDF .m                  43.60:  DF ELEVATION
 VSC .                       0:  VS TO CLOSURE
 MAGU.                 1851247:  MAGUTM CHECKSUM
~Parameter Information Block
#MNEM.UNIT       Value        Description
#---------     -----------    ---------------------------
 AV  .mps                 3.00:  Ann Velocity 
 AVMX.mps                 8.00:  Max Ann Veloc 
 AZIF.deg                 0.00:  Azm, Final 
 BHAT.                   Other:  BHA Type 
 BREV.rev                 0.00:  Rev Bit Total 
 BROT.°/30m               0.00:  Build Rotating 
 BS  .in                 10.25:  Bit Size 
 BTPL.psig              511.00:  Bit Press Loss 
 CABU.                      No:  Customer Abuse 
 CGEO.           Asif Pashayev:  Customer Geo 
 COMM.                     LLx:  Run Comments 1 
 TCS .hr                 24.03:  Time Ciculation Ended 
 CV  .mps                 3.50:  Crit Velocity 
 CVMX.mps                 4.00:  Max Crit Veloc 
 DD1 .             Aziz Aliyev:  Direct Drillr 1 
 DD2 .      Fakhraddin Guliyev:  Direct Drillr 2 
 DDSV.                   Other:  DD Service 
 DEFF.%                  99.00:  % Det Eff 
 DLRX.°/30m               0.00:  Dogleg Rot Max 
 DLSO.°/30m               0.00:  Dogleg Oriented 
 DLSX.°/30m               0.00:  Dogleg Str Max 
 DRET.      23.00.40 28-Mar-21:  Drill End Time 
 DRST.      23.30.40 25-Mar-21:  Drill Start Tim 
 DTIM.hr                  0.00:  Time Drilling 
 EDEP.m                3886.01:  End Depth 
 ENG1.         Almaz Almadatov:  Engineer 1 
 ENG2.      Artemiy Matviyanov:  Engineer 2 
 ENG3.           Samir Gafarov:  Engineer 3 
 ETIM.      23.00.40 28-Mar-21:  End Time 
 FLOI.gpm               550.00:  Flow In 
 FLON.gpm               500.00:  Flow In Min 
 FLOS.cptm                0.00:  Fluid Loss 
 FLOX.gpm               590.00:  Flow In Max 
 HFLO.                      No:  High Flow 
 HPRE.                      No:  High Pressure 
 HTEM.                      No:  High Temp 
 HYDO.m                   1.80:  Hydro Offset 
 IFIN.deg                 0.00:  Inc, Final 
 IMAX.deg                 0.00:  Inc Max 
 IMIN.deg                 0.00:  Inc Min 
 IMND.m                   0.00:  Inc Min Depth 
 IMXD.m                   0.00:  Inc Max Depth 
 JARR.                      No:  Jarring 
 LETM.      03.22.40 28-Mar-21:  Log End Time 
 LOST.hr                     0:  Lost Rig Time 
 LSTM.      23.30.40 25-Mar-21:  Log Start Time 
 MDCL.ppm             34000.00:  Mud Chlorides 
 MDES.     Inversion Oil/Synthetic:  Mud Desc 
 DFD .sg                  1.51:  Mud Density 
 MDMN.sg                  1.51:  Dens Mud Min 
 MDMX.sg                  1.51:  Dens Mud Max 
 MOIL.                      70:  Run Mud Oil % 
 MOWR.                   70:30:  Run Mud OWR 
 MSND.                     0.2:  Run Mud Sand % 
 MSOL.                   21.60:  Run Mud Solids% 
 DFV .spqt               74.00:  Mud Viscosity 
 MWOD.in                  6.75:  MWD Tool OD 
 MWSI.                      No:  Serv Intrp, MWD 
 OTIM.hr                 69.09:  Time Operating 
 PCON.           Look Like New:  Pad Condition 
 PMAX.psia             3500.00:  Press Op, Max 
 PV  .cP                 70.00:  Mud PV 
 RUN .                     400:  Run Number 
 ROPA.m/hr                0.00:  ROP Avg 
 ROPN.m/hr                0.00:  ROP Min 
 ROPX.m/hr                0.00:  ROP Max 
 RPMA.rpm                80.00:  RPM Surface Avg 
 RPMN.rpm                10.00:  RPM Surface Min 
 RPMX.rpm               100.00:  RPM Surface Max 
 RRUN.                    0400:  Rig Run Number 
 RTIM.hr                  3.00:  Time Reaming 
 SAZI.deg                 0.00:  Azm, Start 
 SDEP.m                3886.01:  Start Depth 
 SIDD.                      No:  Serv Intrp, DD 
 SINC.deg                 0.00:  Inc, Start 
 SPPA.psig             3270.00:  SPP Avg 
 SPPN.psig             3220.00:  SPP Min 
 SPPX.psig             4430.00:  SPP Max 
 STIM.      23.30.40 25-Mar-21:  Start Time 
 SVCS.                 DD, MWD:  Services 
 SVER.                    9.20:  Sperry Version 
 TDAT.m                   0.00:  Tot Depth Attmp 
 TDDF.                      No:  Trip for DD 
 TFF .                      No:  Trip for Fail 
 TQAA.f-kp                8.00:  Torque Abs Avg 
 TQAN.f-kp                7.00:  Torque Abs Min 
 TQAX.f-kp               11.00:  Torque Abs Max 
 TRRT.°/30m               0.00:  Turn Rotating 
 MRT .                  EWR-M5:  Maximum Recorded Temperature 
 TTMX.degC               76.47:  Max Tool Temp 
 VS01.                90640857:  Virtual Str1 SN 
 VS02.                90639246:  Virtual Str2 SN 
 VS03.                90642265:  Virtual Str3 SN 
 VS04.                11654497:  Virtual Str4 SN 
 WBMN.klb                 0.00:  WOB Min 
 WITN.      Kamran Keberlinkiy:  Customer Rep 
 WITN.           Murad Guliyev:  Customer Rep 2 
 WOBA.klb                 0.00:  WOB Avg 
 WOBX.klb                 0.00:  WOB Max 
 YP  .lhf2               36.00:  Yield Point 
~Curve Information Block
#MNEM.UNIT                 API CODE     Curve Description
#---------               -----------    ---------------------------
 TIME.HHMMSS            00 000 000 000:  GT Time & Date
 GTDEPTH.m              00 000 000 000:  GT Depth
 GTPQH.psia             00 000 000 000:  GT HR Quartz Pressure
 GTTQ.degC              00 000 000 000:  GT Quartz Temperature
 GTTN.NONE              00 000 000 000:  GT Test Number
 GTET.sec               00 000 000 000:  GT Elapsed Test Time
 GTTVD.m                00 000 000 000:  GT True Vertical Depth
#Other Information
#
#WARRANTY: Halliburton will use its best efforts to furnish customers with 
#accurate information and interpretations that are part of, and incident to, the services 
#provided.  However, Halliburton cannot and does not warrant the accuracy 
#or correctness of such information and interpretations.  Under no circumstances should any 
#such information or interpretation be relied upon as the sole basis for any drilling, 
#completion, production, or financial decision or any procedure involving any risk to the 
#safety of any drilling venture, drilling rig or its crew or any other third party.  The 
#Customer has full responsibility for all drilling, completion and production operation.  
#Halliburton makes no representations or warranties, either expressed or 
#implied, including, but not limited to, the implied warranties of merchantability or fitness 
#for a particular purpose, with respect to the services rendered.  In no event will 
#Halliburton be liable for failure to obtain any particular results or for 
#any damages, including, but not limited to, indirect, special or consequential damages, 
#resulting from the use of any information or interpretation provided by Halliburton.
#
~A           TIME           GTDEPTH  GTPQH  GTTQ  GTTN   GTET   GTTVD  
# ...
   10:24:18.800.27-Mar-2021 3325.51 7171.60 61.16 10.00 406.80 3075.77
   10:24:19.000.27-Mar-2021 3325.51 7174.50 61.16 10.00 407.00 3075.77
   10:24:19.200.27-Mar-2021 3325.51 7174.50 61.16 10.00 407.20 3075.77
   10:24:19.400.27-Mar-2021 3325.51 7173.01 61.16 10.00 407.40 3075.77
   10:24:19.600.27-Mar-2021 3325.51 7171.68 61.16 10.00 407.60 3075.77
   10:24:19.800.27-Mar-2021 3325.51 7171.45 61.16 10.00 407.80 3075.77
   10:24:20.000.27-Mar-2021 3325.51 7171.79 61.16 10.00 408.00 3075.77
   10:24:20.200.27-Mar-2021 3325.51 7171.79 61.16 10.00 408.20 3075.77
   10:24:20.400.27-Mar-2021 3325.51 7171.78 61.16 10.00 408.40 3075.77
   10:24:20.600.27-Mar-2021 3325.51 7171.07 61.16 10.00 408.60 3075.77
   10:24:20.800.27-Mar-2021 3325.51 7171.08 61.16 10.00 408.80 3075.77
   10:24:21.000.27-Mar-2021 3325.51 7171.24 61.16 10.00 409.00 3075.77
   10:24:21.200.27-Mar-2021 3325.51 7171.24 61.16 10.00 409.20 3075.77
   10:24:21.400.27-Mar-2021 3325.51 7171.08 61.16 10.00 409.40 3075.77
   10:24:21.600.27-Mar-2021 3325.51 7171.16 61.16 10.00 409.60 3075.77
   10:24:21.800.27-Mar-2021 3325.51 7171.07 61.16 10.00 409.80 3075.77
   10:24:22.000.27-Mar-2021 3325.51 7171.14 61.16 10.00 410.00 3075.77
   10:24:22.200.27-Mar-2021 3325.51 7171.14 61.16 10.00 410.20 3075.77
   10:24:22.400.27-Mar-2021 3325.51 7169.51 61.16 10.00 410.40 3075.77
   10:24:22.600.27-Mar-2021 3325.51 7171.10 61.16 10.00 410.60 3075.77
   10:24:22.800.27-Mar-2021 3325.51 7171.51 61.16 10.00 410.80 3075.77
   10:24:23.000.27-Mar-2021 3325.51 7171.01 61.16 10.00 411.00 3075.77
   10:24:23.200.27-Mar-2021 3325.51 7171.01 61.16 10.00 411.20 3075.77
   10:24:23.400.27-Mar-2021 3325.51 7170.34 61.16 10.00 411.40 3075.77
   10:24:23.600.27-Mar-2021 3325.51 7170.31 61.16 10.00 411.60 3075.77
   10:24:23.800.27-Mar-2021 3325.51 7171.08 61.16 10.00 411.80 3075.77
   10:24:24.000.27-Mar-2021 3325.51 7170.58 61.16 10.00 412.00 3075.77
   10:24:24.200.27-Mar-2021 3325.51 7170.58 61.16 10.00 412.20 3075.77
   10:24:24.400.27-Mar-2021 3325.51 7170.60 61.16 10.00 412.40 3075.77
   10:24:24.600.27-Mar-2021 3325.51 7170.68 61.16 10.00 412.60 3075.77
   10:24:24.800.27-Mar-2021 3325.51 7170.70 61.16 10.00 412.80 3075.77
   10:24:25.000.27-Mar-2021 3325.51 7173.94 61.16 10.00 413.00 3075.77
   10:24:25.200.27-Mar-2021 3325.51 7173.94 61.16 10.00 413.20 3075.77
   10:24:25.400.27-Mar-2021 3325.51 7170.96 61.16 10.00 413.40 3075.77
   10:24:25.600.27-Mar-2021 3325.51 7170.39 61.16 10.00 413.60 3075.77
   10:24:25.800.27-Mar-2021 3325.51 7173.94 61.16 10.00 413.80 3075.77
   10:24:26.000.27-Mar-2021 3325.51 7170.70 61.16 10.00 414.00 3075.77
   10:24:26.200.27-Mar-2021 3325.51 7170.70 61.16 10.00 414.20 3075.77
   10:24:26.400.27-Mar-2021 3325.51 7170.94 61.16 10.00 414.40 3075.77
   10:24:26.600.27-Mar-2021 3325.51 7174.06 61.16 10.00 414.60 3075.77
   10:24:26.800.27-Mar-2021 3325.51 7170.70 61.16 10.00 414.80 3075.77
   10:24:27.000.27-Mar-2021 3325.51 7171.14 61.16 10.00 415.00 3075.77
   10:24:27.200.27-Mar-2021 3325.51 7171.14 61.16 10.00 415.20 3075.77
   10:24:27.400.27-Mar-2021 3325.51 7171.26 61.16 10.00 415.40 3075.77
   10:24:27.600.27-Mar-2021 3325.51 7175.00 61.16 10.00 415.60 3075.77
   10:24:27.800.27-Mar-2021 3325.51 7170.76 61.16 10.00 415.80 3075.77
   10:24:28.000.27-Mar-2021 3325.51 7172.34 61.16 10.00 416.00 3075.77
   10:24:28.200.27-Mar-2021 3325.51 7172.34 61.16 10.00 416.20 3075.77
   10:24:28.400.27-Mar-2021 3325.51 7171.56 61.16 10.00 416.40 3075.77
   10:24:28.600.27-Mar-2021 3325.51 7171.51 61.16 10.00 416.60 3075.77
   10:24:28.800.27-Mar-2021 3325.51 7171.07 61.16 10.00 416.80 3075.77
   10:24:29.000.27-Mar-2021 3325.51 7171.45 61.16 10.00 417.00 3075.77
   10:24:29.200.27-Mar-2021 3325.51 7171.45 61.16 10.00 417.20 3075.77
   10:24:29.400.27-Mar-2021 3325.51 7170.73 61.16 10.00 417.40 3075.77
   10:24:29.600.27-Mar-2021 3325.51 7170.84 61.16 10.00 417.60 3075.77
   10:24:29.800.27-Mar-2021 3325.51 7170.71 61.16 10.00 417.80 3075.77
   10:24:30.000.27-Mar-2021 3325.51 7170.71 61.16 10.00 418.00 3075.77
   10:24:30.200.27-Mar-2021 3325.51 7170.71 61.16 10.00 418.20 3075.77
   10:24:30.400.27-Mar-2021 3325.51 7170.73 61.16 10.00 418.40 3075.77
   10:24:30.600.27-Mar-2021 3325.51 7170.86 61.16 10.00 418.60 3075.77
   10:24:30.800.27-Mar-2021 3325.51 7174.13 61.16 10.00 418.80 3075.77
   10:24:31.000.27-Mar-2021 3325.51 7171.01 61.16 10.00 419.00 3075.77
   10:24:31.200.27-Mar-2021 3325.51 7171.01 61.16 10.00 419.20 3075.77
   10:24:31.400.27-Mar-2021 3325.51 7171.27 61.16 10.00 419.40 3075.77
   10:24:31.600.27-Mar-2021 3325.51 7170.97 61.16 10.00 419.60 3075.77
   10:24:31.800.27-Mar-2021 3325.51 7170.75 61.16 10.00 419.80 3075.77
   10:24:32.000.27-Mar-2021 3325.51 7170.61 61.15 10.00 420.00 3075.77
   10:24:32.200.27-Mar-2021 3325.51 7170.61 61.15 10.00 420.20 3075.77
   10:24:32.400.27-Mar-2021 3325.51 7171.40 61.15 10.00 420.40 3075.77
   10:24:32.600.27-Mar-2021 3325.51 7170.47 61.15 10.00 420.60 3075.77
   10:24:32.800.27-Mar-2021 3325.51 7170.24 61.15 10.00 420.80 3075.77
   10:24:33.000.27-Mar-2021 3325.51 7170.17 61.15 10.00 421.00 3075.77
   10:24:33.200.27-Mar-2021 3325.51 7170.17 61.15 10.00 421.20 3075.77
   10:24:33.400.27-Mar-2021 3325.51 7170.53 61.15 10.00 421.40 3075.77
   10:24:33.600.27-Mar-2021 3325.51 7173.75 61.15 10.00 421.60 3075.77
   10:24:33.800.27-Mar-2021 3325.51 7170.48 61.15 10.00 421.80 3075.77
   10:24:34.000.27-Mar-2021 3325.51 7170.98 61.15 10.00 422.00 3075.77
   10:24:34.200.27-Mar-2021 3325.51 7170.98 61.15 10.00 422.20 3075.77
   10:24:34.400.27-Mar-2021 3325.51 7175.06 61.15 10.00 422.40 3075.77
   10:24:34.600.27-Mar-2021 3325.51 7169.18 61.15 10.00 422.60 3075.77
   10:24:34.800.27-Mar-2021 3325.51 7170.49 61.15 10.00 422.80 3075.77
   10:24:35.000.27-Mar-2021 3325.51 7171.29 61.15 10.00 423.00 3075.77
   10:24:35.200.27-Mar-2021 3325.51 7171.29 61.15 10.00 423.20 3075.77
   10:24:35.400.27-Mar-2021 3325.51 7170.93 61.15 10.00 423.40 3075.77
   10:24:35.600.27-Mar-2021 3325.51 7171.03 61.15 10.00 423.60 3075.77
   10:24:35.800.27-Mar-2021 3325.51 7171.52 61.15 10.00 423.80 3075.77
   10:24:36.000.27-Mar-2021 3325.51 7171.86 61.15 10.00 424.00 3075.77
   10:24:36.200.27-Mar-2021 3325.51 7171.86 61.15 10.00 424.20 3075.77
   10:24:36.400.27-Mar-2021 3325.51 7174.90 61.15 10.00 424.40 3075.77
   10:24:36.600.27-Mar-2021 3325.51 7170.85 61.15 10.00 424.60 3075.77
   10:24:36.800.27-Mar-2021 3325.51 7172.92 61.15 10.00 424.80 3075.77
   10:24:37.000.27-Mar-2021 3325.51 7171.82 61.15 10.00 425.00 3075.77
   10:24:37.200.27-Mar-2021 3325.51 7171.82 61.15 10.00 425.20 3075.77
   10:24:37.400.27-Mar-2021 3325.51 7171.76 61.15 10.00 425.40 3075.77
   10:24:37.600.27-Mar-2021 3325.51 7171.18 61.15 10.00 425.60 3075.77
   10:24:37.800.27-Mar-2021 3325.51 7171.41 61.15 10.00 425.80 3075.77
   10:24:38.000.27-Mar-2021 3325.51 7170.83 61.15 10.00 426.00 3075.77
   10:24:38.200.27-Mar-2021 3325.51 7170.83 61.15 10.00 426.20 3075.77
   10:24:38.400.27-Mar-2021 3325.51 7171.13 61.15 10.00 426.40 3075.77
   10:24:38.600.27-Mar-2021 3325.51 7170.92 61.15 10.00 426.60 3075.77
   10:24:38.800.27-Mar-2021 3325.51 7170.61 61.15 10.00 426.80 3075.77
   10:24:39.000.27-Mar-2021 3325.51 7170.66 61.15 10.00 427.00 3075.77
   10:24:39.200.27-Mar-2021 3325.51 7170.66 61.15 10.00 427.20 3075.77
   10:24:39.400.27-Mar-2021 3325.51 7170.88 61.15 10.00 427.40 3075.77
   10:24:39.600.27-Mar-2021 3325.51 7174.11 61.15 10.00 427.60 3075.77
   10:24:39.800.27-Mar-2021 3325.51 7170.73 61.15 10.00 427.80 3075.77
   10:24:40.000.27-Mar-2021 3325.51 7170.77 61.15 10.00 428.00 3075.77
   10:24:40.200.27-Mar-2021 3325.51 7170.77 61.15 10.00 428.20 3075.77
   10:24:40.400.27-Mar-2021 3325.51 7171.21 61.15 10.00 428.40 3075.77
   10:24:40.600.27-Mar-2021 3325.51 7170.99 61.15 10.00 428.60 3075.77
   10:24:40.800.27-Mar-2021 3325.51 7170.77 61.15 10.00 428.80 3075.77
