~Version Information
 VERS.                  2.0:   CWLS log ASCII Standard -VERSION 2.0
 WRAP.                   NO:   One line per depth step
~Well Information Block
#MNEM.UNIT     VALUE/NAME     DESCRIPTION
#---------     -----------    ---------------------------
 STRT.S             12:17:14 27-Mar-21: START TIME 12:17:14 27-Mar-21
 STOP.S             12:24:16 27-Mar-21: STOP TIME  12:24:16 27-Mar-21
 STEP.S                   0.00: STEP TIME
 NULL.                 -999.25: NULL VALUE
 DFWT.                        :  DIST FWL TEXT
 DFST.                        :  DIST FSL TEXT
 DMF .             Drill Floor:  DRILL MEAS FROM
 STIM.      20.26.40 11-Mar-21:  START TIME
 DATE.      20.26.40 30-Mar-21:  END TIME
 SPUD.               11-Mar-21:  SPUD DATE
 NREF.                    Grid:  NORTH REFERENCE
 HPTY.       Minimum Curvature:  HOLE POS TYPE
 DMOD.             Drill Model:  DRILL MOD DESC
 SVYD.                  Survey:  SURVEY DESC
 ILTD.               Lithology:  INTERP LTH DESC
 FTOP.          Formation Tops:  FORM TOPS DESC
 SON .        AZ-XX-0906805385:  JOB NUMBER
 WTYP.                Deviated:  WELL TYPE
 COMP.     BP Exploration (Caspian Sea) Ltd.:  COMPANY
 UWI .            /AZE00000198:  UNIQUE WELL IDENTIFIER
 API .            /AZE00000198:  API NUMBER
 BASE.              Azerbaijan:  LOGGING EQUIPMENT BASE LOCATION
 REGN.                   EESSA:  REGION
 PROV.                    Baku:  PROVINCE
 STAT.                    Baku:  STATE NAME
 CTRY.              Azerbaijan:  COUNTRY NAME
 FLD .                     ACG:  FIELD NAME
 SRVC.     Turan Drilling & Engineering:  CONTRACTOR
 MWDS.                    Baku:  MWD SHOP
 WELL.                    D09z:  WELL NAME
 JOBN.        AZ-XX-0906805385:  JOB TICKET NUMB
 RIG .              East Azeri:  RIG NAME
 DOE .                     N/A:  DOE NUMBER
 DCON.         Sperry Drilling:  DIRECTNL CONTR
 UNIT.                     N/A:  LOGGING EQUIPMENT ID
 PDAT.          Mean Sea Level:  PERMANENT DATUM
 MDS .        Operator Entered:  MAG DATA SOURCE
 CNTY.                        :  COUNTY
 LOC .                        :  LOCATION
 LMF .             Drill Floor:  LOG MEASURED FROM
 TVDS.m                  43.60:  TVDSS CORRECTN
 LATI.deg                40.02:  LATITUDE
 LONG.deg                51.45:  LONGITUDE
 WHNS.m                 -17.04:  WELL HEAD N/S
 WHEW.m                  -6.28:  WELL HEAD E/W
 UTMX.m              538763.98:  UTM X
 UTMY.m             4431880.20:  UTM Y
 DFWL.m                   0.00:  DISTANCE FWL
 DFSL.m                   0.00:  DISTANCE FSL
 SDEP.m                2680.01:  START DEPTH
 TDD .m                4000.01:  TOTAL DEPTH (DRILLER)
 VSDR.deg               225.71:  VERT SEC DIRECT
 GVFD.g                   1.00:  GRAVITY FIELD
 MFLD.nT              50353.00:  MAGNETIC FIELD
 MDIP.deg                59.49:  MAGNETIC DIP
 MDEC.deg                 6.46:  MAGNETIC DECL
 GRDC.deg                 0.29:  GRID CORRECTION
 AZTC.deg                 6.17:  AZM TOTAL CORR
 EPD .m                   0.00:  ELEVATION
 EGL .m                   0.00:  GROUND ELEVATION
 WDMS.m                 151.80:  WD ELEV
 APD .m                  43.60:  DEPTH ABOVE PD
 AGAP.m                  43.60:  AIR GAP
 VSEW.m                  -6.28:  VERT SEC E/W
 VSNS.m                 -17.04:  VERT SEC N/S
 DEP .m                2656.31:  DEPTH
 EKB .m                  43.60:  KB ELEVATION
 EDF .m                  43.60:  DF ELEVATION
 VSC .                       0:  VS TO CLOSURE
 MAGU.                 1851247:  MAGUTM CHECKSUM
~Parameter Information Block
#MNEM.UNIT       Value        Description
#---------     -----------    ---------------------------
 AV  .mps                 3.00:  Ann Velocity 
 AVMX.mps                 8.00:  Max Ann Veloc 
 AZIF.deg                 0.00:  Azm, Final 
 BHAT.                   Other:  BHA Type 
 BREV.rev                 0.00:  Rev Bit Total 
 BROT.°/30m               0.00:  Build Rotating 
 BS  .in                 10.25:  Bit Size 
 BTPL.psig              511.00:  Bit Press Loss 
 CABU.                      No:  Customer Abuse 
 CGEO.           Asif Pashayev:  Customer Geo 
 COMM.                     4'd:  Run Comments 1 
 TCS .hr                 24.03:  Time Ciculation Ended 
 CV  .mps                 3.50:  Crit Velocity 
 CVMX.mps                 4.00:  Max Crit Veloc 
 DD1 .             Aziz Aliyev:  Direct Drillr 1 
 DD2 .      Fakhraddin Guliyev:  Direct Drillr 2 
 DDSV.                   Other:  DD Service 
 DEFF.%                  99.00:  % Det Eff 
 DLRX.°/30m               0.00:  Dogleg Rot Max 
 DLSO.°/30m               0.00:  Dogleg Oriented 
 DLSX.°/30m               0.00:  Dogleg Str Max 
 DRET.      23.00.40 28-Mar-21:  Drill End Time 
 DRST.      23.30.40 25-Mar-21:  Drill Start Tim 
 DTIM.hr                  0.00:  Time Drilling 
 EDEP.m                3886.01:  End Depth 
 ENG1.         Almaz Almadatov:  Engineer 1 
 ENG2.      Artemiy Matviyanov:  Engineer 2 
 ENG3.           Samir Gafarov:  Engineer 3 
 ETIM.      23.00.40 28-Mar-21:  End Time 
 FLOI.gpm               550.00:  Flow In 
 FLON.gpm               500.00:  Flow In Min 
 FLOS.cptm                0.00:  Fluid Loss 
 FLOX.gpm               590.00:  Flow In Max 
 HFLO.                      No:  High Flow 
 HPRE.                      No:  High Pressure 
 HTEM.                      No:  High Temp 
 HYDO.m                   1.80:  Hydro Offset 
 IFIN.deg                 0.00:  Inc, Final 
 IMAX.deg                 0.00:  Inc Max 
 IMIN.deg                 0.00:  Inc Min 
 IMND.m                   0.00:  Inc Min Depth 
 IMXD.m                   0.00:  Inc Max Depth 
 JARR.                      No:  Jarring 
 LETM.      03.22.40 28-Mar-21:  Log End Time 
 LOST.hr                     0:  Lost Rig Time 
 LSTM.      23.30.40 25-Mar-21:  Log Start Time 
 MDCL.ppm             34000.00:  Mud Chlorides 
 MDES.     Inversion Oil/Synthetic:  Mud Desc 
 DFD .sg                  1.51:  Mud Density 
 MDMN.sg                  1.51:  Dens Mud Min 
 MDMX.sg                  1.51:  Dens Mud Max 
 MOIL.                      70:  Run Mud Oil % 
 MOWR.                   70:30:  Run Mud OWR 
 MSND.                     0.2:  Run Mud Sand % 
 MSOL.                   21.60:  Run Mud Solids% 
 DFV .spqt               74.00:  Mud Viscosity 
 MWOD.in                  6.75:  MWD Tool OD 
 MWSI.                      No:  Serv Intrp, MWD 
 OTIM.hr                 69.09:  Time Operating 
 PCON.           Look Like New:  Pad Condition 
 PMAX.psia             3500.00:  Press Op, Max 
 PV  .cP                 70.00:  Mud PV 
 RUN .                     400:  Run Number 
 ROPA.m/hr                0.00:  ROP Avg 
 ROPN.m/hr                0.00:  ROP Min 
 ROPX.m/hr                0.00:  ROP Max 
 RPMA.rpm                80.00:  RPM Surface Avg 
 RPMN.rpm                10.00:  RPM Surface Min 
 RPMX.rpm               100.00:  RPM Surface Max 
 RRUN.                    0400:  Rig Run Number 
 RTIM.hr                  3.00:  Time Reaming 
 SAZI.deg                 0.00:  Azm, Start 
 SDEP.m                3886.01:  Start Depth 
 SIDD.                      No:  Serv Intrp, DD 
 SINC.deg                 0.00:  Inc, Start 
 SPPA.psig             3270.00:  SPP Avg 
 SPPN.psig             3220.00:  SPP Min 
 SPPX.psig             4430.00:  SPP Max 
 STIM.      23.30.40 25-Mar-21:  Start Time 
 SVCS.                 DD, MWD:  Services 
 SVER.                    9.20:  Sperry Version 
 TDAT.m                   0.00:  Tot Depth Attmp 
 TDDF.                      No:  Trip for DD 
 TFF .                      No:  Trip for Fail 
 TQAA.f-kp                8.00:  Torque Abs Avg 
 TQAN.f-kp                7.00:  Torque Abs Min 
 TQAX.f-kp               11.00:  Torque Abs Max 
 TRRT.°/30m               0.00:  Turn Rotating 
 MRT .                  EWR-M5:  Maximum Recorded Temperature 
 TTMX.degC               76.47:  Max Tool Temp 
 VS01.                90640857:  Virtual Str1 SN 
 VS02.                90639246:  Virtual Str2 SN 
 VS03.                90642265:  Virtual Str3 SN 
 VS04.                11654497:  Virtual Str4 SN 
 WBMN.klb                 0.00:  WOB Min 
 WITN.      Kamran Keberlinkiy:  Customer Rep 
 WITN.           Murad Guliyev:  Customer Rep 2 
 WOBA.klb                 0.00:  WOB Avg 
 WOBX.klb                 0.00:  WOB Max 
 YP  .lhf2               36.00:  Yield Point 
~Curve Information Block
#MNEM.UNIT                 API CODE     Curve Description
#---------               -----------    ---------------------------
 TIME.HHMMSS            00 000 000 000:  GT Time & Date
 GTDEPTH.m              00 000 000 000:  GT Depth
 GTPQH.psia             00 000 000 000:  GT HR Quartz Pressure
 GTTQ.degC              00 000 000 000:  GT Quartz Temperature
 GTTN.NONE              00 000 000 000:  GT Test Number
 GTET.sec               00 000 000 000:  GT Elapsed Test Time
 GTTVD.m                00 000 000 000:  GT True Vertical Depth
#Other Information
#
#WARRANTY: Halliburton will use its best efforts to furnish customers with 
#accurate information and interpretations that are part of, and incident to, the services 
#provided.  However, Halliburton cannot and does not warrant the accuracy 
#or correctness of such information and interpretations.  Under no circumstances should any 
#such information or interpretation be relied upon as the sole basis for any drilling, 
#completion, production, or financial decision or any procedure involving any risk to the 
#safety of any drilling venture, drilling rig or its crew or any other third party.  The 
#Customer has full responsibility for all drilling, completion and production operation.  
#Halliburton makes no representations or warranties, either expressed or 
#implied, including, but not limited to, the implied warranties of merchantability or fitness 
#for a particular purpose, with respect to the services rendered.  In no event will 
#Halliburton be liable for failure to obtain any particular results or for 
#any damages, including, but not limited to, indirect, special or consequential damages, 
#resulting from the use of any information or interpretation provided by Halliburton.
#
~A           TIME           GTDEPTH  GTPQH  GTTQ  GTTN   GTET   GTTVD  
# ...
   12:23:16.578.27-Mar-2021 3369.01 4845.09 61.74 12.00 361.86 3116.52
   12:23:16.778.27-Mar-2021 3369.01 4844.99 61.74 12.00 362.06 3116.52
   12:23:16.979.27-Mar-2021 3369.01 4845.35 61.74 12.00 362.26 3116.52
   12:23:17.179.27-Mar-2021 3369.01 4845.35 61.74 12.00 362.46 3116.52
   12:23:17.379.27-Mar-2021 3369.01 4845.69 61.74 12.00 362.66 3116.52
   12:23:17.579.27-Mar-2021 3369.01 4845.88 61.74 12.00 362.86 3116.52
   12:23:17.779.27-Mar-2021 3369.01 4845.66 61.74 12.00 363.06 3116.52
   12:23:17.979.27-Mar-2021 3369.01 4845.31 61.74 12.00 363.26 3116.52
   12:23:18.179.27-Mar-2021 3369.01 4845.31 61.74 12.00 363.46 3116.52
   12:23:18.380.27-Mar-2021 3369.01 4845.31 61.74 12.00 363.66 3116.52
   12:23:18.580.27-Mar-2021 3369.01 4845.44 61.74 12.00 363.86 3116.52
   12:23:18.780.27-Mar-2021 3369.01 4845.56 61.74 12.00 364.06 3116.52
   12:23:18.980.27-Mar-2021 3369.01 4845.76 61.74 12.00 364.26 3116.52
   12:23:19.180.27-Mar-2021 3369.01 4845.76 61.74 12.00 364.46 3116.52
   12:23:19.380.27-Mar-2021 3369.01 4845.62 61.74 12.00 364.66 3116.52
   12:23:19.580.27-Mar-2021 3369.01 4845.65 61.74 12.00 364.86 3116.52
   12:23:19.781.27-Mar-2021 3369.01 4845.31 61.74 12.00 365.06 3116.52
   12:23:19.981.27-Mar-2021 3369.01 4845.39 61.74 12.00 365.26 3116.52
   12:23:20.181.27-Mar-2021 3369.01 4845.39 61.74 12.00 365.46 3116.52
   12:23:20.381.27-Mar-2021 3369.01 4845.68 61.74 12.00 365.66 3116.52
   12:23:20.581.27-Mar-2021 3369.01 4845.41 61.74 12.00 365.86 3116.52
   12:23:20.781.27-Mar-2021 3369.01 4845.45 61.74 12.00 366.06 3116.52
   12:23:20.981.27-Mar-2021 3369.01 4845.65 61.74 12.00 366.26 3116.52
   12:23:21.182.27-Mar-2021 3369.01 4845.65 61.74 12.00 366.46 3116.52
   12:23:21.382.27-Mar-2021 3369.01 4844.35 61.74 12.00 366.66 3116.52
   12:23:21.582.27-Mar-2021 3369.01 4846.25 61.74 12.00 366.86 3116.52
   12:23:21.782.27-Mar-2021 3369.01 4845.28 61.74 12.00 367.06 3116.52
   12:23:21.982.27-Mar-2021 3369.01 4845.47 61.74 12.00 367.26 3116.52
   12:23:22.182.27-Mar-2021 3369.01 4845.47 61.74 12.00 367.46 3116.52
   12:23:22.382.27-Mar-2021 3369.01 4845.10 61.74 12.00 367.66 3116.52
   12:23:22.583.27-Mar-2021 3369.01 4845.23 61.74 12.00 367.86 3116.52
   12:23:22.783.27-Mar-2021 3369.01 4844.83 61.74 12.00 368.06 3116.52
   12:23:22.983.27-Mar-2021 3369.01 4846.38 61.74 12.00 368.26 3116.52
   12:23:23.183.27-Mar-2021 3369.01 4846.38 61.74 12.00 368.46 3116.52
   12:23:23.383.27-Mar-2021 3369.01 4845.54 61.74 12.00 368.66 3116.52
   12:23:23.583.27-Mar-2021 3369.01 4845.78 61.74 12.00 368.86 3116.52
   12:23:23.783.27-Mar-2021 3369.01 4845.90 61.74 12.00 369.06 3116.52
   12:23:23.984.27-Mar-2021 3369.01 4846.06 61.74 12.00 369.26 3116.52
   12:23:24.184.27-Mar-2021 3369.01 4846.06 61.74 12.00 369.46 3116.52
   12:23:24.384.27-Mar-2021 3369.01 4846.65 61.74 12.00 369.66 3116.52
   12:23:24.584.27-Mar-2021 3369.01 4845.44 61.74 12.00 369.86 3116.52
   12:23:24.784.27-Mar-2021 3369.01 4846.20 61.74 12.00 370.06 3116.52
   12:23:24.984.27-Mar-2021 3369.01 4845.96 61.74 12.00 370.26 3116.52
   12:23:25.184.27-Mar-2021 3369.01 4845.96 61.74 12.00 370.46 3116.52
   12:23:25.385.27-Mar-2021 3369.01 4845.81 61.74 12.00 370.66 3116.52
   12:23:25.585.27-Mar-2021 3369.01 4845.55 61.74 12.00 370.86 3116.52
   12:23:25.785.27-Mar-2021 3369.01 4845.67 61.74 12.00 371.06 3116.52
   12:23:25.985.27-Mar-2021 3369.01 4846.04 61.74 12.00 371.26 3116.52
   12:23:26.185.27-Mar-2021 3369.01 4846.04 61.74 12.00 371.46 3116.52
   12:23:26.385.27-Mar-2021 3369.01 4845.83 61.74 12.00 371.66 3116.52
   12:23:26.585.27-Mar-2021 3369.01 4845.85 61.74 12.00 371.86 3116.52
   12:23:26.786.27-Mar-2021 3369.01 4846.05 61.74 12.00 372.06 3116.52
   12:23:26.986.27-Mar-2021 3369.01 4846.05 61.74 12.00 372.26 3116.52
   12:23:27.186.27-Mar-2021 3369.01 4846.05 61.74 12.00 372.46 3116.52
   12:23:27.386.27-Mar-2021 3369.01 4845.43 61.74 12.00 372.66 3116.52
   12:23:27.586.27-Mar-2021 3369.01 4845.73 61.74 12.00 372.86 3116.52
   12:23:27.786.27-Mar-2021 3369.01 4845.45 61.74 12.00 373.06 3116.52
   12:23:27.986.27-Mar-2021 3369.01 4845.89 61.74 12.00 373.26 3116.52
   12:23:28.187.27-Mar-2021 3369.01 4845.89 61.74 12.00 373.46 3116.52
   12:23:28.387.27-Mar-2021 3369.01 4845.41 61.74 12.00 373.66 3116.52
   12:23:28.587.27-Mar-2021 3369.01 4845.58 61.74 12.00 373.86 3116.52
   12:23:28.787.27-Mar-2021 3369.01 4845.49 61.74 12.00 374.06 3116.52
   12:23:28.987.27-Mar-2021 3369.01 4845.62 61.74 12.00 374.26 3116.52
   12:23:29.187.27-Mar-2021 3369.01 4845.62 61.74 12.00 374.46 3116.52
   12:23:29.387.27-Mar-2021 3369.01 4845.77 61.74 12.00 374.66 3116.52
   12:23:29.588.27-Mar-2021 3369.01 4845.48 61.74 12.00 374.87 3116.52
   12:23:29.788.27-Mar-2021 3369.01 4846.07 61.73 12.00 375.07 3116.52
   12:23:29.988.27-Mar-2021 3369.01 4923.29 61.73 12.00 375.27 3116.52
   12:23:30.188.27-Mar-2021 3369.01 4923.29 61.73 12.00 375.47 3116.52
   12:23:30.388.27-Mar-2021 3369.01 6789.01 61.73 12.00 375.67 3116.52
   12:23:30.588.27-Mar-2021 3369.01 7270.54 61.73 12.00 375.87 3116.52
   12:23:30.788.27-Mar-2021 3369.01 7269.41 61.73 12.00 376.07 3116.52
   12:23:30.989.27-Mar-2021 3369.01 7269.65 61.74 12.00 376.27 3116.52
   12:23:31.189.27-Mar-2021 3369.01 7269.65 61.74 12.00 376.47 3116.52
   12:23:31.389.27-Mar-2021 3369.01 7269.77 61.74 12.00 376.67 3116.52
   12:23:31.589.27-Mar-2021 3369.01 7274.67 61.74 12.00 376.87 3116.52
   12:23:31.789.27-Mar-2021 3369.01 7271.57 61.74 12.00 377.07 3116.52
   12:23:31.989.27-Mar-2021 3369.01 7272.86 61.74 12.00 377.27 3116.52
   12:23:32.189.27-Mar-2021 3369.01 7272.86 61.74 12.00 377.47 3116.52
   12:23:32.390.27-Mar-2021 3369.01 7273.27 61.74 12.00 377.67 3116.52
   12:23:32.590.27-Mar-2021 3369.01 7274.06 61.74 12.00 377.87 3116.52
   12:23:32.790.27-Mar-2021 3369.01 7273.54 61.74 12.00 378.07 3116.52
   12:23:32.990.27-Mar-2021 3369.01 7277.01 61.74 12.00 378.27 3116.52
   12:23:33.190.27-Mar-2021 3369.01 7277.01 61.74 12.00 378.47 3116.52
   12:23:33.390.27-Mar-2021 3369.01 7275.36 61.75 12.00 378.67 3116.52
   12:23:33.590.27-Mar-2021 3369.01 7274.95 61.75 12.00 378.87 3116.52
   12:23:33.791.27-Mar-2021 3369.01 7275.10 61.75 12.00 379.07 3116.52
   12:23:33.991.27-Mar-2021 3369.01 7275.20 61.75 12.00 379.27 3116.52
   12:23:34.191.27-Mar-2021 3369.01 7275.20 61.75 12.00 379.47 3116.52
   12:23:34.391.27-Mar-2021 3369.01 7279.10 61.75 12.00 379.67 3116.52
   12:23:34.591.27-Mar-2021 3369.01 7274.62 61.76 12.00 379.87 3116.52
   12:23:34.791.27-Mar-2021 3369.01 7275.74 61.76 12.00 380.07 3116.52
   12:23:34.991.27-Mar-2021 3369.01 7276.02 61.76 12.00 380.27 3116.52
   12:23:35.192.27-Mar-2021 3369.01 7276.02 61.76 12.00 380.47 3116.52
   12:23:35.392.27-Mar-2021 3369.01 7275.75 61.76 12.00 380.67 3116.52
   12:23:35.592.27-Mar-2021 3369.01 7275.67 61.77 12.00 380.87 3116.52
   12:23:35.792.27-Mar-2021 3369.01 7275.16 61.77 12.00 381.07 3116.52
   12:23:35.992.27-Mar-2021 3369.01 7276.27 61.77 12.00 381.27 3116.52
   12:23:36.192.27-Mar-2021 3369.01 7276.27 61.77 12.00 381.47 3116.52
   12:23:36.392.27-Mar-2021 3369.01 7275.78 61.77 12.00 381.67 3116.52
   12:23:36.592.27-Mar-2021 3369.01 7275.60 61.77 12.00 381.87 3116.52
   12:23:36.793.27-Mar-2021 3369.01 7275.79 61.77 12.00 382.07 3116.52
   12:23:36.993.27-Mar-2021 3369.01 7275.54 61.77 12.00 382.27 3116.52
   12:23:37.193.27-Mar-2021 3369.01 7275.54 61.77 12.00 382.47 3116.52
   12:23:37.393.27-Mar-2021 3369.01 7275.23 61.78 12.00 382.67 3116.52
   12:23:37.593.27-Mar-2021 3369.01 7277.78 61.78 12.00 382.87 3116.52
   12:23:37.793.27-Mar-2021 3369.01 7277.27 61.78 12.00 383.07 3116.52
   12:23:37.993.27-Mar-2021 3369.01 7275.92 61.78 12.00 383.27 3116.52
   12:23:38.194.27-Mar-2021 3369.01 7275.92 61.78 12.00 383.47 3116.52
   12:23:38.394.27-Mar-2021 3369.01 7276.11 61.78 12.00 383.67 3116.52
   12:23:38.594.27-Mar-2021 3369.01 7275.94 61.78 12.00 383.87 3116.52
   12:23:38.794.27-Mar-2021 3369.01 7276.00 61.78 12.00 384.07 3116.52
   12:23:38.994.27-Mar-2021 3369.01 7275.56 61.78 12.00 384.27 3116.52
