~Version Information
 VERS.                  2.0:   CWLS log ASCII Standard -VERSION 2.0
 WRAP.                   NO:   One line per depth step
~Well Information Block
#MNEM.UNIT     VALUE/NAME     DESCRIPTION
#---------     -----------    ---------------------------
 STRT.S             01:51:11 27-Mar-21: START TIME 01:51:11 27-Mar-21
 STOP.S             01:58:18 27-Mar-21: STOP TIME  01:58:18 27-Mar-21
 STEP.S                   0.00: STEP TIME
 NULL.                 -999.25: NULL VALUE
 DFWT.                        :  DIST FWL TEXT
 DFST.                        :  DIST FSL TEXT
 DMF .             Drill Floor:  DRILL MEAS FROM
 STIM.      20.26.40 11-Mar-21:  START TIME
 DATE.      20.26.40 30-Mar-21:  END TIME
 SPUD.               11-Mar-21:  SPUD DATE
 NREF.                    Grid:  NORTH REFERENCE
 HPTY.       Minimum Curvature:  HOLE POS TYPE
 DMOD.             Drill Model:  DRILL MOD DESC
 SVYD.                  Survey:  SURVEY DESC
 ILTD.               Lithology:  INTERP LTH DESC
 FTOP.          Formation Tops:  FORM TOPS DESC
 SON .        AZ-XX-0906805385:  JOB NUMBER
 WTYP.                Deviated:  WELL TYPE
 COMP.     BP Exploration (Caspian Sea) Ltd.:  COMPANY
 UWI .            /AZE00000198:  UNIQUE WELL IDENTIFIER
 API .            /AZE00000198:  API NUMBER
 BASE.              Azerbaijan:  LOGGING EQUIPMENT BASE LOCATION
 REGN.                   EESSA:  REGION
 PROV.                    Baku:  PROVINCE
 STAT.                    Baku:  STATE NAME
 CTRY.              Azerbaijan:  COUNTRY NAME
 FLD .                     ACG:  FIELD NAME
 SRVC.     Turan Drilling & Engineering:  CONTRACTOR
 MWDS.                    Baku:  MWD SHOP
 WELL.                    D09z:  WELL NAME
 JOBN.        AZ-XX-0906805385:  JOB TICKET NUMB
 RIG .              East Azeri:  RIG NAME
 DOE .                     N/A:  DOE NUMBER
 DCON.         Sperry Drilling:  DIRECTNL CONTR
 UNIT.                     N/A:  LOGGING EQUIPMENT ID
 PDAT.          Mean Sea Level:  PERMANENT DATUM
 MDS .        Operator Entered:  MAG DATA SOURCE
 CNTY.                        :  COUNTY
 LOC .                        :  LOCATION
 LMF .             Drill Floor:  LOG MEASURED FROM
 TVDS.m                  43.60:  TVDSS CORRECTN
 LATI.deg                40.02:  LATITUDE
 LONG.deg                51.45:  LONGITUDE
 WHNS.m                 -17.04:  WELL HEAD N/S
 WHEW.m                  -6.28:  WELL HEAD E/W
 UTMX.m              538763.98:  UTM X
 UTMY.m             4431880.20:  UTM Y
 DFWL.m                   0.00:  DISTANCE FWL
 DFSL.m                   0.00:  DISTANCE FSL
 SDEP.m                2680.01:  START DEPTH
 TDD .m                4000.01:  TOTAL DEPTH (DRILLER)
 VSDR.deg               225.71:  VERT SEC DIRECT
 GVFD.g                   1.00:  GRAVITY FIELD
 MFLD.nT              50353.00:  MAGNETIC FIELD
 MDIP.deg                59.49:  MAGNETIC DIP
 MDEC.deg                 6.46:  MAGNETIC DECL
 GRDC.deg                 0.29:  GRID CORRECTION
 AZTC.deg                 6.17:  AZM TOTAL CORR
 EPD .m                   0.00:  ELEVATION
 EGL .m                   0.00:  GROUND ELEVATION
 WDMS.m                 151.80:  WD ELEV
 APD .m                  43.60:  DEPTH ABOVE PD
 AGAP.m                  43.60:  AIR GAP
 VSEW.m                  -6.28:  VERT SEC E/W
 VSNS.m                 -17.04:  VERT SEC N/S
 DEP .m                2656.31:  DEPTH
 EKB .m                  43.60:  KB ELEVATION
 EDF .m                  43.60:  DF ELEVATION
 VSC .                       0:  VS TO CLOSURE
 MAGU.                 1851247:  MAGUTM CHECKSUM
~Parameter Information Block
#MNEM.UNIT       Value        Description
#---------     -----------    ---------------------------
 AV  .mps                 3.00:  Ann Velocity 
 AVMX.mps                 8.00:  Max Ann Veloc 
 AZIF.deg                 0.00:  Azm, Final 
 BHAT.                   Other:  BHA Type 
 BREV.rev                 0.00:  Rev Bit Total 
 BROT.°/30m               0.00:  Build Rotating 
 BS  .in                 10.25:  Bit Size 
 BTPL.psig              511.00:  Bit Press Loss 
 CABU.                      No:  Customer Abuse 
 CGEO.           Asif Pashayev:  Customer Geo 
 COMM.                     |ºg:  Run Comments 1 
 TCS .hr                 24.03:  Time Ciculation Ended 
 CV  .mps                 3.50:  Crit Velocity 
 CVMX.mps                 4.00:  Max Crit Veloc 
 DD1 .             Aziz Aliyev:  Direct Drillr 1 
 DD2 .      Fakhraddin Guliyev:  Direct Drillr 2 
 DDSV.                   Other:  DD Service 
 DEFF.%                  99.00:  % Det Eff 
 DLRX.°/30m               0.00:  Dogleg Rot Max 
 DLSO.°/30m               0.00:  Dogleg Oriented 
 DLSX.°/30m               0.00:  Dogleg Str Max 
 DRET.      23.00.40 28-Mar-21:  Drill End Time 
 DRST.      23.30.40 25-Mar-21:  Drill Start Tim 
 DTIM.hr                  0.00:  Time Drilling 
 EDEP.m                3886.01:  End Depth 
 ENG1.         Almaz Almadatov:  Engineer 1 
 ENG2.      Artemiy Matviyanov:  Engineer 2 
 ENG3.           Samir Gafarov:  Engineer 3 
 ETIM.      23.00.40 28-Mar-21:  End Time 
 FLOI.gpm               550.00:  Flow In 
 FLON.gpm               500.00:  Flow In Min 
 FLOS.cptm                0.00:  Fluid Loss 
 FLOX.gpm               590.00:  Flow In Max 
 HFLO.                      No:  High Flow 
 HPRE.                      No:  High Pressure 
 HTEM.                      No:  High Temp 
 HYDO.m                   1.80:  Hydro Offset 
 IFIN.deg                 0.00:  Inc, Final 
 IMAX.deg                 0.00:  Inc Max 
 IMIN.deg                 0.00:  Inc Min 
 IMND.m                   0.00:  Inc Min Depth 
 IMXD.m                   0.00:  Inc Max Depth 
 JARR.                      No:  Jarring 
 LETM.      03.22.40 28-Mar-21:  Log End Time 
 LOST.hr                     0:  Lost Rig Time 
 LSTM.      23.30.40 25-Mar-21:  Log Start Time 
 MDCL.ppm             34000.00:  Mud Chlorides 
 MDES.     Inversion Oil/Synthetic:  Mud Desc 
 DFD .sg                  1.51:  Mud Density 
 MDMN.sg                  1.51:  Dens Mud Min 
 MDMX.sg                  1.51:  Dens Mud Max 
 MOIL.                      70:  Run Mud Oil % 
 MOWR.                   70:30:  Run Mud OWR 
 MSND.                     0.2:  Run Mud Sand % 
 MSOL.                   21.60:  Run Mud Solids% 
 DFV .spqt               74.00:  Mud Viscosity 
 MWOD.in                  6.75:  MWD Tool OD 
 MWSI.                      No:  Serv Intrp, MWD 
 OTIM.hr                 69.09:  Time Operating 
 PCON.           Look Like New:  Pad Condition 
 PMAX.psia             3500.00:  Press Op, Max 
 PV  .cP                 70.00:  Mud PV 
 RUN .                     400:  Run Number 
 ROPA.m/hr                0.00:  ROP Avg 
 ROPN.m/hr                0.00:  ROP Min 
 ROPX.m/hr                0.00:  ROP Max 
 RPMA.rpm                80.00:  RPM Surface Avg 
 RPMN.rpm                10.00:  RPM Surface Min 
 RPMX.rpm               100.00:  RPM Surface Max 
 RRUN.                    0400:  Rig Run Number 
 RTIM.hr                  3.00:  Time Reaming 
 SAZI.deg                 0.00:  Azm, Start 
 SDEP.m                3886.01:  Start Depth 
 SIDD.                      No:  Serv Intrp, DD 
 SINC.deg                 0.00:  Inc, Start 
 SPPA.psig             3270.00:  SPP Avg 
 SPPN.psig             3220.00:  SPP Min 
 SPPX.psig             4430.00:  SPP Max 
 STIM.      23.30.40 25-Mar-21:  Start Time 
 SVCS.                 DD, MWD:  Services 
 SVER.                    9.20:  Sperry Version 
 TDAT.m                   0.00:  Tot Depth Attmp 
 TDDF.                      No:  Trip for DD 
 TFF .                      No:  Trip for Fail 
 TQAA.f-kp                8.00:  Torque Abs Avg 
 TQAN.f-kp                7.00:  Torque Abs Min 
 TQAX.f-kp               11.00:  Torque Abs Max 
 TRRT.°/30m               0.00:  Turn Rotating 
 MRT .                  EWR-M5:  Maximum Recorded Temperature 
 TTMX.degC               76.47:  Max Tool Temp 
 VS01.                90640857:  Virtual Str1 SN 
 VS02.                90639246:  Virtual Str2 SN 
 VS03.                90642265:  Virtual Str3 SN 
 VS04.                11654497:  Virtual Str4 SN 
 WBMN.klb                 0.00:  WOB Min 
 WITN.      Kamran Keberlinkiy:  Customer Rep 
 WITN.           Murad Guliyev:  Customer Rep 2 
 WOBA.klb                 0.00:  WOB Avg 
 WOBX.klb                 0.00:  WOB Max 
 YP  .lhf2               36.00:  Yield Point 
~Curve Information Block
#MNEM.UNIT                 API CODE     Curve Description
#---------               -----------    ---------------------------
 TIME.HHMMSS            00 000 000 000:  GT Time & Date
 GTDEPTH.m              00 000 000 000:  GT Depth
 GTPQH.psia             00 000 000 000:  GT HR Quartz Pressure
 GTTQ.degC              00 000 000 000:  GT Quartz Temperature
 GTTN.NONE              00 000 000 000:  GT Test Number
 GTET.sec               00 000 000 000:  GT Elapsed Test Time
 GTTVD.m                00 000 000 000:  GT True Vertical Depth
#Other Information
#
#WARRANTY: Halliburton will use its best efforts to furnish customers with 
#accurate information and interpretations that are part of, and incident to, the services 
#provided.  However, Halliburton cannot and does not warrant the accuracy 
#or correctness of such information and interpretations.  Under no circumstances should any 
#such information or interpretation be relied upon as the sole basis for any drilling, 
#completion, production, or financial decision or any procedure involving any risk to the 
#safety of any drilling venture, drilling rig or its crew or any other third party.  The 
#Customer has full responsibility for all drilling, completion and production operation.  
#Halliburton makes no representations or warranties, either expressed or 
#implied, including, but not limited to, the implied warranties of merchantability or fitness 
#for a particular purpose, with respect to the services rendered.  In no event will 
#Halliburton be liable for failure to obtain any particular results or for 
#any damages, including, but not limited to, indirect, special or consequential damages, 
#resulting from the use of any information or interpretation provided by Halliburton.
#
~A           TIME           GTDEPTH  GTPQH  GTTQ  GTTN  GTET   GTTVD  
# ...
   01:56:10.702.27-Mar-2021 3763.51 4955.20 59.97 1.00 299.06 3487.00
   01:56:10.902.27-Mar-2021 3763.51 4955.20 59.97 1.00 299.26 3487.00
   01:56:11.102.27-Mar-2021 3763.51 4955.20 59.97 1.00 299.46 3487.00
   01:56:11.302.27-Mar-2021 3763.51 4955.22 59.97 1.00 299.66 3487.00
   01:56:11.503.27-Mar-2021 3763.51 4955.28 59.97 1.00 299.86 3487.00
   01:56:11.703.27-Mar-2021 3763.51 4955.10 59.97 1.00 300.06 3487.00
   01:56:11.903.27-Mar-2021 3763.51 4955.10 59.97 1.00 300.26 3487.00
   01:56:12.103.27-Mar-2021 3763.51 4955.26 59.97 1.00 300.46 3487.00
   01:56:12.303.27-Mar-2021 3763.51 4955.17 59.97 1.00 300.66 3487.00
   01:56:12.503.27-Mar-2021 3763.51 4955.19 59.97 1.00 300.86 3487.00
   01:56:12.703.27-Mar-2021 3763.51 4955.21 59.97 1.00 301.06 3487.00
   01:56:12.903.27-Mar-2021 3763.51 4955.21 59.97 1.00 301.26 3487.00
   01:56:13.103.27-Mar-2021 3763.51 4955.19 59.97 1.00 301.46 3487.00
   01:56:13.303.27-Mar-2021 3763.51 4955.20 59.97 1.00 301.66 3487.00
   01:56:13.503.27-Mar-2021 3763.51 4955.20 59.97 1.00 301.86 3487.00
   01:56:13.703.27-Mar-2021 3763.51 4955.20 59.97 1.00 302.06 3487.00
   01:56:13.903.27-Mar-2021 3763.51 4955.20 59.97 1.00 302.26 3487.00
   01:56:14.103.27-Mar-2021 3763.51 4955.30 59.97 1.00 302.46 3487.00
   01:56:14.303.27-Mar-2021 3763.51 4955.10 59.97 1.00 302.66 3487.00
   01:56:14.503.27-Mar-2021 3763.51 4955.20 59.97 1.00 302.86 3487.00
   01:56:14.703.27-Mar-2021 3763.51 4955.23 59.97 1.00 303.06 3487.00
   01:56:14.903.27-Mar-2021 3763.51 4955.23 59.97 1.00 303.26 3487.00
   01:56:15.103.27-Mar-2021 3763.51 4955.25 59.97 1.00 303.46 3487.00
   01:56:15.303.27-Mar-2021 3763.51 4955.12 59.97 1.00 303.66 3487.00
   01:56:15.503.27-Mar-2021 3763.51 4955.15 59.97 1.00 303.86 3487.00
   01:56:15.703.27-Mar-2021 3763.51 4955.25 59.97 1.00 304.06 3487.00
   01:56:15.903.27-Mar-2021 3763.51 4955.25 59.97 1.00 304.26 3487.00
   01:56:16.103.27-Mar-2021 3763.51 4955.16 59.97 1.00 304.46 3487.00
   01:56:16.303.27-Mar-2021 3763.51 4955.20 59.97 1.00 304.66 3487.00
   01:56:16.504.27-Mar-2021 3763.51 4955.27 59.97 1.00 304.86 3487.00
   01:56:16.704.27-Mar-2021 3763.51 4955.12 59.97 1.00 305.06 3487.00
   01:56:16.904.27-Mar-2021 3763.51 4955.12 59.97 1.00 305.26 3487.00
   01:56:17.104.27-Mar-2021 3763.51 4955.24 59.97 1.00 305.46 3487.00
   01:56:17.304.27-Mar-2021 3763.51 4955.16 59.97 1.00 305.66 3487.00
   01:56:17.504.27-Mar-2021 3763.51 4955.18 59.97 1.00 305.86 3487.00
   01:56:17.704.27-Mar-2021 3763.51 4955.22 59.97 1.00 306.06 3487.00
   01:56:17.904.27-Mar-2021 3763.51 4955.22 59.97 1.00 306.26 3487.00
   01:56:18.104.27-Mar-2021 3763.51 4955.18 59.97 1.00 306.46 3487.00
   01:56:18.304.27-Mar-2021 3763.51 4955.27 59.97 1.00 306.66 3487.00
   01:56:18.504.27-Mar-2021 3763.51 4955.17 59.97 1.00 306.86 3487.00
   01:56:18.704.27-Mar-2021 3763.51 4955.14 59.97 1.00 307.06 3487.00
   01:56:18.904.27-Mar-2021 3763.51 4955.14 59.97 1.00 307.26 3487.00
   01:56:19.104.27-Mar-2021 3763.51 4955.20 59.97 1.00 307.46 3487.00
   01:56:19.304.27-Mar-2021 3763.51 4955.17 59.97 1.00 307.66 3487.00
   01:56:19.504.27-Mar-2021 3763.51 4955.21 59.97 1.00 307.86 3487.00
   01:56:19.704.27-Mar-2021 3763.51 4955.23 59.97 1.00 308.06 3487.00
   01:56:19.904.27-Mar-2021 3763.51 4955.23 59.97 1.00 308.26 3487.00
   01:56:20.104.27-Mar-2021 3763.51 4955.17 59.97 1.00 308.46 3487.00
   01:56:20.304.27-Mar-2021 3763.51 4955.20 59.97 1.00 308.66 3487.00
   01:56:20.504.27-Mar-2021 3763.51 4955.23 59.97 1.00 308.86 3487.00
   01:56:20.704.27-Mar-2021 3763.51 4955.20 59.97 1.00 309.06 3487.00
   01:56:20.904.27-Mar-2021 3763.51 4955.20 59.97 1.00 309.26 3487.00
   01:56:21.104.27-Mar-2021 3763.51 4955.19 59.97 1.00 309.46 3487.00
   01:56:21.305.27-Mar-2021 3763.51 4955.26 59.97 1.00 309.66 3487.00
   01:56:21.505.27-Mar-2021 3763.51 4955.23 59.97 1.00 309.86 3487.00
   01:56:21.705.27-Mar-2021 3763.51 4955.12 59.97 1.00 310.06 3487.00
   01:56:21.905.27-Mar-2021 3763.51 4955.12 59.97 1.00 310.26 3487.00
   01:56:22.105.27-Mar-2021 3763.51 4955.21 59.97 1.00 310.46 3487.00
   01:56:22.305.27-Mar-2021 3763.51 4955.17 59.97 1.00 310.66 3487.00
   01:56:22.505.27-Mar-2021 3763.51 4955.21 59.97 1.00 310.86 3487.00
   01:56:22.705.27-Mar-2021 3763.51 4955.20 59.97 1.00 311.06 3487.00
   01:56:22.905.27-Mar-2021 3763.51 4955.20 59.97 1.00 311.26 3487.00
   01:56:23.105.27-Mar-2021 3763.51 4955.21 59.97 1.00 311.46 3487.00
   01:56:23.305.27-Mar-2021 3763.51 4955.21 59.97 1.00 311.66 3487.00
   01:56:23.505.27-Mar-2021 3763.51 4955.21 59.97 1.00 311.86 3487.00
   01:56:23.705.27-Mar-2021 3763.51 4955.23 59.97 1.00 312.06 3487.00
   01:56:23.905.27-Mar-2021 3763.51 4955.23 59.97 1.00 312.26 3487.00
   01:56:24.105.27-Mar-2021 3763.51 4955.12 59.97 1.00 312.46 3487.00
   01:56:24.305.27-Mar-2021 3763.51 4955.15 59.97 1.00 312.66 3487.00
   01:56:24.505.27-Mar-2021 3763.51 4955.25 59.97 1.00 312.86 3487.00
   01:56:24.705.27-Mar-2021 3763.51 4955.19 59.97 1.00 313.06 3487.00
   01:56:24.905.27-Mar-2021 3763.51 4955.19 59.97 1.00 313.26 3487.00
   01:56:25.105.27-Mar-2021 3763.51 4955.25 59.97 1.00 313.46 3487.00
   01:56:25.305.27-Mar-2021 3763.51 4955.09 59.97 1.00 313.66 3487.00
   01:56:25.505.27-Mar-2021 3763.51 4955.17 59.97 1.00 313.86 3487.00
   01:56:25.705.27-Mar-2021 3763.51 4955.23 59.97 1.00 314.07 3487.00
   01:56:25.905.27-Mar-2021 3763.51 4955.23 59.97 1.00 314.27 3487.00
   01:56:26.106.27-Mar-2021 3763.51 4955.23 59.97 1.00 314.47 3487.00
   01:56:26.306.27-Mar-2021 3763.51 4955.29 59.97 1.00 314.67 3487.00
   01:56:26.506.27-Mar-2021 3763.51 4955.12 59.97 1.00 314.87 3487.00
   01:56:26.706.27-Mar-2021 3763.51 4955.16 59.97 1.00 315.07 3487.00
   01:56:26.906.27-Mar-2021 3763.51 4955.16 59.97 1.00 315.27 3487.00
   01:56:27.106.27-Mar-2021 3763.51 4955.19 59.97 1.00 315.47 3487.00
   01:56:27.306.27-Mar-2021 3763.51 4955.17 59.97 1.00 315.67 3487.00
   01:56:27.506.27-Mar-2021 3763.51 4955.22 59.97 1.00 315.87 3487.00
   01:56:27.706.27-Mar-2021 3763.51 4955.29 59.97 1.00 316.07 3487.00
   01:56:27.906.27-Mar-2021 3763.51 4955.29 59.97 1.00 316.27 3487.00
   01:56:28.106.27-Mar-2021 3763.51 4955.21 59.97 1.00 316.47 3487.00
   01:56:28.306.27-Mar-2021 3763.51 4955.22 59.98 1.00 316.67 3487.00
   01:56:28.506.27-Mar-2021 3763.51 4955.14 59.97 1.00 316.87 3487.00
   01:56:28.706.27-Mar-2021 3763.51 4955.21 59.98 1.00 317.07 3487.00
   01:56:28.906.27-Mar-2021 3763.51 4955.21 59.98 1.00 317.27 3487.00
   01:56:29.106.27-Mar-2021 3763.51 4955.20 59.98 1.00 317.47 3487.00
   01:56:29.306.27-Mar-2021 3763.51 4955.16 59.98 1.00 317.67 3487.00
   01:56:29.506.27-Mar-2021 3763.51 4955.19 59.98 1.00 317.87 3487.00
   01:56:29.706.27-Mar-2021 3763.51 4955.20 59.98 1.00 318.07 3487.00
   01:56:29.906.27-Mar-2021 3763.51 4955.20 59.98 1.00 318.27 3487.00
   01:56:30.106.27-Mar-2021 3763.51 4955.18 59.98 1.00 318.47 3487.00
   01:56:30.306.27-Mar-2021 3763.51 4955.21 59.98 1.00 318.67 3487.00
   01:56:30.506.27-Mar-2021 3763.51 4955.21 59.98 1.00 318.87 3487.00
   01:56:30.706.27-Mar-2021 3763.51 4955.19 59.98 1.00 319.07 3487.00
   01:56:30.907.27-Mar-2021 3763.51 4955.19 59.98 1.00 319.27 3487.00
   01:56:31.107.27-Mar-2021 3763.51 4955.22 59.98 1.00 319.47 3487.00
   01:56:31.307.27-Mar-2021 3763.51 4955.25 59.98 1.00 319.67 3487.00
   01:56:31.507.27-Mar-2021 3763.51 4955.17 59.98 1.00 319.87 3487.00
   01:56:31.707.27-Mar-2021 3763.51 4955.14 59.98 1.00 320.07 3487.00
   01:56:31.907.27-Mar-2021 3763.51 4955.14 59.98 1.00 320.27 3487.00
   01:56:32.107.27-Mar-2021 3763.51 4955.18 59.98 1.00 320.47 3487.00
   01:56:32.307.27-Mar-2021 3763.51 4955.19 59.98 1.00 320.67 3487.00
   01:56:32.507.27-Mar-2021 3763.51 4955.23 59.98 1.00 320.87 3487.00
   01:56:32.707.27-Mar-2021 3763.51 4955.21 59.98 1.00 321.07 3487.00
   01:56:32.907.27-Mar-2021 3763.51 4955.21 59.98 1.00 321.27 3487.00
   01:56:33.107.27-Mar-2021 3763.51 4955.18 59.98 1.00 321.47 3487.00
   01:56:33.307.27-Mar-2021 3763.51 4955.21 59.98 1.00 321.67 3487.00
   01:56:33.507.27-Mar-2021 3763.51 4955.21 59.98 1.00 321.87 3487.00
