~Version Information
 VERS.                  2.0:   CWLS log ASCII Standard -VERSION 2.0
 WRAP.                   NO:   One line per depth step
~Well Information Block
#MNEM.UNIT     VALUE/NAME     DESCRIPTION
#---------     -----------    ---------------------------
 STRT.S             12:17:14 27-Mar-21: START TIME 12:17:14 27-Mar-21
 STOP.S             12:24:16 27-Mar-21: STOP TIME  12:24:16 27-Mar-21
 STEP.S                   0.00: STEP TIME
 NULL.                 -999.25: NULL VALUE
 DFWT.                        :  DIST FWL TEXT
 DFST.                        :  DIST FSL TEXT
 DMF .             Drill Floor:  DRILL MEAS FROM
 STIM.      20.26.40 11-Mar-21:  START TIME
 DATE.      20.26.40 30-Mar-21:  END TIME
 SPUD.               11-Mar-21:  SPUD DATE
 NREF.                    Grid:  NORTH REFERENCE
 HPTY.       Minimum Curvature:  HOLE POS TYPE
 DMOD.             Drill Model:  DRILL MOD DESC
 SVYD.                  Survey:  SURVEY DESC
 ILTD.               Lithology:  INTERP LTH DESC
 FTOP.          Formation Tops:  FORM TOPS DESC
 SON .        AZ-XX-0906805385:  JOB NUMBER
 WTYP.                Deviated:  WELL TYPE
 COMP.     BP Exploration (Caspian Sea) Ltd.:  COMPANY
 UWI .            /AZE00000198:  UNIQUE WELL IDENTIFIER
 API .            /AZE00000198:  API NUMBER
 BASE.              Azerbaijan:  LOGGING EQUIPMENT BASE LOCATION
 REGN.                   EESSA:  REGION
 PROV.                    Baku:  PROVINCE
 STAT.                    Baku:  STATE NAME
 CTRY.              Azerbaijan:  COUNTRY NAME
 FLD .                     ACG:  FIELD NAME
 SRVC.     Turan Drilling & Engineering:  CONTRACTOR
 MWDS.                    Baku:  MWD SHOP
 WELL.                    D09z:  WELL NAME
 JOBN.        AZ-XX-0906805385:  JOB TICKET NUMB
 RIG .              East Azeri:  RIG NAME
 DOE .                     N/A:  DOE NUMBER
 DCON.         Sperry Drilling:  DIRECTNL CONTR
 UNIT.                     N/A:  LOGGING EQUIPMENT ID
 PDAT.          Mean Sea Level:  PERMANENT DATUM
 MDS .        Operator Entered:  MAG DATA SOURCE
 CNTY.                        :  COUNTY
 LOC .                        :  LOCATION
 LMF .             Drill Floor:  LOG MEASURED FROM
 TVDS.m                  43.60:  TVDSS CORRECTN
 LATI.deg                40.02:  LATITUDE
 LONG.deg                51.45:  LONGITUDE
 WHNS.m                 -17.04:  WELL HEAD N/S
 WHEW.m                  -6.28:  WELL HEAD E/W
 UTMX.m              538763.98:  UTM X
 UTMY.m             4431880.20:  UTM Y
 DFWL.m                   0.00:  DISTANCE FWL
 DFSL.m                   0.00:  DISTANCE FSL
 SDEP.m                2680.01:  START DEPTH
 TDD .m                4000.01:  TOTAL DEPTH (DRILLER)
 VSDR.deg               225.71:  VERT SEC DIRECT
 GVFD.g                   1.00:  GRAVITY FIELD
 MFLD.nT              50353.00:  MAGNETIC FIELD
 MDIP.deg                59.49:  MAGNETIC DIP
 MDEC.deg                 6.46:  MAGNETIC DECL
 GRDC.deg                 0.29:  GRID CORRECTION
 AZTC.deg                 6.17:  AZM TOTAL CORR
 EPD .m                   0.00:  ELEVATION
 EGL .m                   0.00:  GROUND ELEVATION
 WDMS.m                 151.80:  WD ELEV
 APD .m                  43.60:  DEPTH ABOVE PD
 AGAP.m                  43.60:  AIR GAP
 VSEW.m                  -6.28:  VERT SEC E/W
 VSNS.m                 -17.04:  VERT SEC N/S
 DEP .m                2656.31:  DEPTH
 EKB .m                  43.60:  KB ELEVATION
 EDF .m                  43.60:  DF ELEVATION
 VSC .                       0:  VS TO CLOSURE
 MAGU.                 1851247:  MAGUTM CHECKSUM
~Parameter Information Block
#MNEM.UNIT       Value        Description
#---------     -----------    ---------------------------
 AV  .mps                 3.00:  Ann Velocity 
 AVMX.mps                 8.00:  Max Ann Veloc 
 AZIF.deg                 0.00:  Azm, Final 
 BHAT.                   Other:  BHA Type 
 BREV.rev                 0.00:  Rev Bit Total 
 BROT.°/30m               0.00:  Build Rotating 
 BS  .in                 10.25:  Bit Size 
 BTPL.psig              511.00:  Bit Press Loss 
 CABU.                      No:  Customer Abuse 
 CGEO.           Asif Pashayev:  Customer Geo 
 COMM.                     4'd:  Run Comments 1 
 TCS .hr                 24.03:  Time Ciculation Ended 
 CV  .mps                 3.50:  Crit Velocity 
 CVMX.mps                 4.00:  Max Crit Veloc 
 DD1 .             Aziz Aliyev:  Direct Drillr 1 
 DD2 .      Fakhraddin Guliyev:  Direct Drillr 2 
 DDSV.                   Other:  DD Service 
 DEFF.%                  99.00:  % Det Eff 
 DLRX.°/30m               0.00:  Dogleg Rot Max 
 DLSO.°/30m               0.00:  Dogleg Oriented 
 DLSX.°/30m               0.00:  Dogleg Str Max 
 DRET.      23.00.40 28-Mar-21:  Drill End Time 
 DRST.      23.30.40 25-Mar-21:  Drill Start Tim 
 DTIM.hr                  0.00:  Time Drilling 
 EDEP.m                3886.01:  End Depth 
 ENG1.         Almaz Almadatov:  Engineer 1 
 ENG2.      Artemiy Matviyanov:  Engineer 2 
 ENG3.           Samir Gafarov:  Engineer 3 
 ETIM.      23.00.40 28-Mar-21:  End Time 
 FLOI.gpm               550.00:  Flow In 
 FLON.gpm               500.00:  Flow In Min 
 FLOS.cptm                0.00:  Fluid Loss 
 FLOX.gpm               590.00:  Flow In Max 
 HFLO.                      No:  High Flow 
 HPRE.                      No:  High Pressure 
 HTEM.                      No:  High Temp 
 HYDO.m                   1.80:  Hydro Offset 
 IFIN.deg                 0.00:  Inc, Final 
 IMAX.deg                 0.00:  Inc Max 
 IMIN.deg                 0.00:  Inc Min 
 IMND.m                   0.00:  Inc Min Depth 
 IMXD.m                   0.00:  Inc Max Depth 
 JARR.                      No:  Jarring 
 LETM.      03.22.40 28-Mar-21:  Log End Time 
 LOST.hr                     0:  Lost Rig Time 
 LSTM.      23.30.40 25-Mar-21:  Log Start Time 
 MDCL.ppm             34000.00:  Mud Chlorides 
 MDES.     Inversion Oil/Synthetic:  Mud Desc 
 DFD .sg                  1.51:  Mud Density 
 MDMN.sg                  1.51:  Dens Mud Min 
 MDMX.sg                  1.51:  Dens Mud Max 
 MOIL.                      70:  Run Mud Oil % 
 MOWR.                   70:30:  Run Mud OWR 
 MSND.                     0.2:  Run Mud Sand % 
 MSOL.                   21.60:  Run Mud Solids% 
 DFV .spqt               74.00:  Mud Viscosity 
 MWOD.in                  6.75:  MWD Tool OD 
 MWSI.                      No:  Serv Intrp, MWD 
 OTIM.hr                 69.09:  Time Operating 
 PCON.           Look Like New:  Pad Condition 
 PMAX.psia             3500.00:  Press Op, Max 
 PV  .cP                 70.00:  Mud PV 
 RUN .                     400:  Run Number 
 ROPA.m/hr                0.00:  ROP Avg 
 ROPN.m/hr                0.00:  ROP Min 
 ROPX.m/hr                0.00:  ROP Max 
 RPMA.rpm                80.00:  RPM Surface Avg 
 RPMN.rpm                10.00:  RPM Surface Min 
 RPMX.rpm               100.00:  RPM Surface Max 
 RRUN.                    0400:  Rig Run Number 
 RTIM.hr                  3.00:  Time Reaming 
 SAZI.deg                 0.00:  Azm, Start 
 SDEP.m                3886.01:  Start Depth 
 SIDD.                      No:  Serv Intrp, DD 
 SINC.deg                 0.00:  Inc, Start 
 SPPA.psig             3270.00:  SPP Avg 
 SPPN.psig             3220.00:  SPP Min 
 SPPX.psig             4430.00:  SPP Max 
 STIM.      23.30.40 25-Mar-21:  Start Time 
 SVCS.                 DD, MWD:  Services 
 SVER.                    9.20:  Sperry Version 
 TDAT.m                   0.00:  Tot Depth Attmp 
 TDDF.                      No:  Trip for DD 
 TFF .                      No:  Trip for Fail 
 TQAA.f-kp                8.00:  Torque Abs Avg 
 TQAN.f-kp                7.00:  Torque Abs Min 
 TQAX.f-kp               11.00:  Torque Abs Max 
 TRRT.°/30m               0.00:  Turn Rotating 
 MRT .                  EWR-M5:  Maximum Recorded Temperature 
 TTMX.degC               76.47:  Max Tool Temp 
 VS01.                90640857:  Virtual Str1 SN 
 VS02.                90639246:  Virtual Str2 SN 
 VS03.                90642265:  Virtual Str3 SN 
 VS04.                11654497:  Virtual Str4 SN 
 WBMN.klb                 0.00:  WOB Min 
 WITN.      Kamran Keberlinkiy:  Customer Rep 
 WITN.           Murad Guliyev:  Customer Rep 2 
 WOBA.klb                 0.00:  WOB Avg 
 WOBX.klb                 0.00:  WOB Max 
 YP  .lhf2               36.00:  Yield Point 
~Curve Information Block
#MNEM.UNIT                 API CODE     Curve Description
#---------               -----------    ---------------------------
 TIME.HHMMSS            00 000 000 000:  GT Time & Date
 GTDEPTH.m              00 000 000 000:  GT Depth
 GTPQH.psia             00 000 000 000:  GT HR Quartz Pressure
 GTTQ.degC              00 000 000 000:  GT Quartz Temperature
 GTTN.NONE              00 000 000 000:  GT Test Number
 GTET.sec               00 000 000 000:  GT Elapsed Test Time
 GTTVD.m                00 000 000 000:  GT True Vertical Depth
#Other Information
#
#WARRANTY: Halliburton will use its best efforts to furnish customers with 
#accurate information and interpretations that are part of, and incident to, the services 
#provided.  However, Halliburton cannot and does not warrant the accuracy 
#or correctness of such information and interpretations.  Under no circumstances should any 
#such information or interpretation be relied upon as the sole basis for any drilling, 
#completion, production, or financial decision or any procedure involving any risk to the 
#safety of any drilling venture, drilling rig or its crew or any other third party.  The 
#Customer has full responsibility for all drilling, completion and production operation.  
#Halliburton makes no representations or warranties, either expressed or 
#implied, including, but not limited to, the implied warranties of merchantability or fitness 
#for a particular purpose, with respect to the services rendered.  In no event will 
#Halliburton be liable for failure to obtain any particular results or for 
#any damages, including, but not limited to, indirect, special or consequential damages, 
#resulting from the use of any information or interpretation provided by Halliburton.
#
~A           TIME           GTDEPTH  GTPQH  GTTQ  GTTN   GTET   GTTVD  
# ...
   12:21:46.114.27-Mar-2021 3369.01 1703.03 61.78 12.00 271.39 3116.52
   12:21:46.315.27-Mar-2021 3369.01 1700.07 61.78 12.00 271.59 3116.52
   12:21:46.515.27-Mar-2021 3369.01 1693.11 61.77 12.00 271.79 3116.52
   12:21:46.715.27-Mar-2021 3369.01 1687.92 61.77 12.00 271.99 3116.52
   12:21:46.915.27-Mar-2021 3369.01 1687.94 61.77 12.00 272.19 3116.52
   12:21:47.115.27-Mar-2021 3369.01 1687.94 61.77 12.00 272.39 3116.52
   12:21:47.315.27-Mar-2021 3369.01 1690.96 61.76 12.00 272.59 3116.52
   12:21:47.515.27-Mar-2021 3369.01 1688.12 61.76 12.00 272.79 3116.52
   12:21:47.716.27-Mar-2021 3369.01 1687.35 61.76 12.00 272.99 3116.52
   12:21:47.916.27-Mar-2021 3369.01 1683.38 61.76 12.00 273.19 3116.52
   12:21:48.116.27-Mar-2021 3369.01 1683.38 61.76 12.00 273.39 3116.52
   12:21:48.316.27-Mar-2021 3369.01 1681.77 61.75 12.00 273.59 3116.52
   12:21:48.516.27-Mar-2021 3369.01 1682.79 61.75 12.00 273.79 3116.52
   12:21:48.716.27-Mar-2021 3369.01 1680.92 61.75 12.00 273.99 3116.52
   12:21:48.916.27-Mar-2021 3369.01 1682.24 61.75 12.00 274.19 3116.52
   12:21:49.117.27-Mar-2021 3369.01 1682.24 61.75 12.00 274.39 3116.52
   12:21:49.317.27-Mar-2021 3369.01 1679.18 61.74 12.00 274.59 3116.52
   12:21:49.517.27-Mar-2021 3369.01 1678.90 61.74 12.00 274.79 3116.52
   12:21:49.717.27-Mar-2021 3369.01 1683.77 61.74 12.00 274.99 3116.52
   12:21:49.917.27-Mar-2021 3369.01 1683.40 61.74 12.00 275.19 3116.52
   12:21:50.117.27-Mar-2021 3369.01 1683.40 61.74 12.00 275.39 3116.52
   12:21:50.317.27-Mar-2021 3369.01 1672.62 61.73 12.00 275.59 3116.52
   12:21:50.518.27-Mar-2021 3369.01 1672.61 61.73 12.00 275.79 3116.52
   12:21:50.718.27-Mar-2021 3369.01 1670.53 61.73 12.00 276.00 3116.52
   12:21:50.918.27-Mar-2021 3369.01 1672.18 61.73 12.00 276.20 3116.52
   12:21:51.118.27-Mar-2021 3369.01 1672.18 61.73 12.00 276.40 3116.52
   12:21:51.318.27-Mar-2021 3369.01 1677.69 61.72 12.00 276.60 3116.52
   12:21:51.518.27-Mar-2021 3369.01 1675.92 61.72 12.00 276.80 3116.52
   12:21:51.718.27-Mar-2021 3369.01 1669.01 61.72 12.00 277.00 3116.52
   12:21:51.918.27-Mar-2021 3369.01 1666.85 61.72 12.00 277.20 3116.52
   12:21:52.119.27-Mar-2021 3369.01 1666.85 61.72 12.00 277.40 3116.52
   12:21:52.319.27-Mar-2021 3369.01 1666.19 61.72 12.00 277.60 3116.52
   12:21:52.519.27-Mar-2021 3369.01 1669.02 61.72 12.00 277.80 3116.52
   12:21:52.719.27-Mar-2021 3369.01 1671.33 61.72 12.00 278.00 3116.52
   12:21:52.919.27-Mar-2021 3369.01 1685.33 61.71 12.00 278.20 3116.52
   12:21:53.119.27-Mar-2021 3369.01 1685.33 61.71 12.00 278.40 3116.52
   12:21:53.319.27-Mar-2021 3369.01 2100.59 61.71 12.00 278.60 3116.52
   12:21:53.520.27-Mar-2021 3369.01 2319.11 61.71 12.00 278.80 3116.52
   12:21:53.720.27-Mar-2021 3369.01 2515.94 61.71 12.00 279.00 3116.52
   12:21:53.920.27-Mar-2021 3369.01 2694.25 61.71 12.00 279.20 3116.52
   12:21:54.120.27-Mar-2021 3369.01 2694.25 61.71 12.00 279.40 3116.52
   12:21:54.320.27-Mar-2021 3369.01 3003.04 61.71 12.00 279.60 3116.52
   12:21:54.520.27-Mar-2021 3369.01 3135.51 61.71 12.00 279.80 3116.52
   12:21:54.720.27-Mar-2021 3369.01 3258.69 61.71 12.00 280.00 3116.52
   12:21:54.921.27-Mar-2021 3369.01 3370.50 61.71 12.00 280.20 3116.52
   12:21:55.121.27-Mar-2021 3369.01 3370.50 61.71 12.00 280.40 3116.52
   12:21:55.321.27-Mar-2021 3369.01 3567.41 61.71 12.00 280.60 3116.52
   12:21:55.521.27-Mar-2021 3369.01 3653.69 61.71 12.00 280.80 3116.52
   12:21:55.721.27-Mar-2021 3369.01 3732.90 61.71 12.00 281.00 3116.52
   12:21:55.921.27-Mar-2021 3369.01 3806.53 61.71 12.00 281.20 3116.52
   12:21:56.121.27-Mar-2021 3369.01 3806.53 61.71 12.00 281.40 3116.52
   12:21:56.322.27-Mar-2021 3369.01 3936.29 61.71 12.00 281.60 3116.52
   12:21:56.522.27-Mar-2021 3369.01 3993.57 61.71 12.00 281.80 3116.52
   12:21:56.722.27-Mar-2021 3369.01 4046.86 61.71 12.00 282.00 3116.52
   12:21:56.922.27-Mar-2021 3369.01 4096.49 61.71 12.00 282.20 3116.52
   12:21:57.122.27-Mar-2021 3369.01 4096.49 61.71 12.00 282.40 3116.52
   12:21:57.322.27-Mar-2021 3369.01 4183.09 61.72 12.00 282.60 3116.52
   12:21:57.522.27-Mar-2021 3369.01 4223.26 61.72 12.00 282.80 3116.52
   12:21:57.723.27-Mar-2021 3369.01 4259.32 61.72 12.00 283.00 3116.52
   12:21:57.923.27-Mar-2021 3369.01 4293.38 61.72 12.00 283.20 3116.52
   12:21:58.123.27-Mar-2021 3369.01 4293.38 61.72 12.00 283.40 3116.52
   12:21:58.323.27-Mar-2021 3369.01 4355.02 61.72 12.00 283.60 3116.52
   12:21:58.523.27-Mar-2021 3369.01 4382.78 61.72 12.00 283.80 3116.52
   12:21:58.723.27-Mar-2021 3369.01 4408.46 61.73 12.00 284.00 3116.52
   12:21:58.923.27-Mar-2021 3369.01 4432.42 61.73 12.00 284.20 3116.52
   12:21:59.124.27-Mar-2021 3369.01 4432.42 61.73 12.00 284.40 3116.52
   12:21:59.324.27-Mar-2021 3369.01 4476.13 61.73 12.00 284.60 3116.52
   12:21:59.524.27-Mar-2021 3369.01 4495.86 61.73 12.00 284.80 3116.52
   12:21:59.724.27-Mar-2021 3369.01 4513.89 61.73 12.00 285.00 3116.52
   12:21:59.924.27-Mar-2021 3369.01 4530.92 61.74 12.00 285.20 3116.52
   12:22:00.124.27-Mar-2021 3369.01 4530.92 61.74 12.00 285.40 3116.52
   12:22:00.324.27-Mar-2021 3369.01 4562.30 61.74 12.00 285.60 3116.52
   12:22:00.525.27-Mar-2021 3369.01 4575.84 61.74 12.00 285.80 3116.52
   12:22:00.725.27-Mar-2021 3369.01 4589.89 61.74 12.00 286.00 3116.52
   12:22:00.925.27-Mar-2021 3369.01 4601.86 61.74 12.00 286.20 3116.52
   12:22:01.125.27-Mar-2021 3369.01 4601.86 61.74 12.00 286.40 3116.52
   12:22:01.325.27-Mar-2021 3369.01 4624.96 61.75 12.00 286.60 3116.52
   12:22:01.525.27-Mar-2021 3369.01 4635.70 61.75 12.00 286.80 3116.52
   12:22:01.725.27-Mar-2021 3369.01 4645.38 61.75 12.00 287.00 3116.52
   12:22:01.926.27-Mar-2021 3369.01 4654.56 61.75 12.00 287.20 3116.52
   12:22:02.126.27-Mar-2021 3369.01 4654.56 61.75 12.00 287.40 3116.52
   12:22:02.326.27-Mar-2021 3369.01 4671.66 61.75 12.00 287.60 3116.52
   12:22:02.526.27-Mar-2021 3369.01 4679.43 61.76 12.00 287.80 3116.52
   12:22:02.726.27-Mar-2021 3369.01 4686.70 61.76 12.00 288.00 3116.52
   12:22:02.926.27-Mar-2021 3369.01 4694.09 61.76 12.00 288.20 3116.52
   12:22:03.126.27-Mar-2021 3369.01 4694.09 61.76 12.00 288.40 3116.52
   12:22:03.327.27-Mar-2021 3369.01 4707.11 61.76 12.00 288.60 3116.52
   12:22:03.527.27-Mar-2021 3369.01 4712.49 61.76 12.00 288.80 3116.52
   12:22:03.727.27-Mar-2021 3369.01 4718.01 61.76 12.00 289.00 3116.52
   12:22:03.927.27-Mar-2021 3369.01 4723.74 61.76 12.00 289.20 3116.52
   12:22:04.127.27-Mar-2021 3369.01 4723.74 61.76 12.00 289.40 3116.52
   12:22:04.327.27-Mar-2021 3369.01 4733.08 61.77 12.00 289.60 3116.52
   12:22:04.527.27-Mar-2021 3369.01 4738.83 61.77 12.00 289.80 3116.52
   12:22:04.728.27-Mar-2021 3369.01 4742.57 61.77 12.00 290.01 3116.52
   12:22:04.928.27-Mar-2021 3369.01 4745.96 61.77 12.00 290.21 3116.52
   12:22:05.128.27-Mar-2021 3369.01 4745.96 61.77 12.00 290.41 3116.52
   12:22:05.328.27-Mar-2021 3369.01 4753.62 61.77 12.00 290.61 3116.52
   12:22:05.528.27-Mar-2021 3369.01 4756.27 61.77 12.00 290.81 3116.52
   12:22:05.728.27-Mar-2021 3369.01 4759.80 61.77 12.00 291.01 3116.52
   12:22:05.928.27-Mar-2021 3369.01 4763.01 61.77 12.00 291.21 3116.52
   12:22:06.129.27-Mar-2021 3369.01 4763.01 61.77 12.00 291.41 3116.52
   12:22:06.329.27-Mar-2021 3369.01 4768.60 61.77 12.00 291.61 3116.52
   12:22:06.529.27-Mar-2021 3369.01 4772.33 61.78 12.00 291.81 3116.52
   12:22:06.729.27-Mar-2021 3369.01 4774.50 61.78 12.00 292.01 3116.52
   12:22:06.929.27-Mar-2021 3369.01 4777.04 61.78 12.00 292.21 3116.52
   12:22:07.129.27-Mar-2021 3369.01 4777.04 61.78 12.00 292.41 3116.52
   12:22:07.329.27-Mar-2021 3369.01 4782.38 61.78 12.00 292.61 3116.52
   12:22:07.530.27-Mar-2021 3369.01 4784.24 61.78 12.00 292.81 3116.52
   12:22:07.730.27-Mar-2021 3369.01 4786.64 61.78 12.00 293.01 3116.52
   12:22:07.930.27-Mar-2021 3369.01 4788.65 61.78 12.00 293.21 3116.52
   12:22:08.130.27-Mar-2021 3369.01 4788.65 61.78 12.00 293.41 3116.52
   12:22:08.330.27-Mar-2021 3369.01 4792.38 61.78 12.00 293.61 3116.52
   12:22:08.530.27-Mar-2021 3369.01 4793.89 61.78 12.00 293.81 3116.52
