~Version Information
 VERS.                  2.0:   CWLS log ASCII Standard -VERSION 2.0
 WRAP.                   NO:   One line per depth step
~Well Information Block
#MNEM.UNIT     VALUE/NAME     DESCRIPTION
#---------     -----------    ---------------------------
 STRT.S             11:05:10 27-Mar-21: START TIME 11:05:10 27-Mar-21
 STOP.S             11:12:21 27-Mar-21: STOP TIME  11:12:21 27-Mar-21
 STEP.S                   0.00: STEP TIME
 NULL.                 -999.25: NULL VALUE
 DFWT.                        :  DIST FWL TEXT
 DFST.                        :  DIST FSL TEXT
 DMF .             Drill Floor:  DRILL MEAS FROM
 STIM.      20.26.40 11-Mar-21:  START TIME
 DATE.      20.26.40 30-Mar-21:  END TIME
 SPUD.               11-Mar-21:  SPUD DATE
 NREF.                    Grid:  NORTH REFERENCE
 HPTY.       Minimum Curvature:  HOLE POS TYPE
 DMOD.             Drill Model:  DRILL MOD DESC
 SVYD.                  Survey:  SURVEY DESC
 ILTD.               Lithology:  INTERP LTH DESC
 FTOP.          Formation Tops:  FORM TOPS DESC
 SON .        AZ-XX-0906805385:  JOB NUMBER
 WTYP.                Deviated:  WELL TYPE
 COMP.     BP Exploration (Caspian Sea) Ltd.:  COMPANY
 UWI .            /AZE00000198:  UNIQUE WELL IDENTIFIER
 API .            /AZE00000198:  API NUMBER
 BASE.              Azerbaijan:  LOGGING EQUIPMENT BASE LOCATION
 REGN.                   EESSA:  REGION
 PROV.                    Baku:  PROVINCE
 STAT.                    Baku:  STATE NAME
 CTRY.              Azerbaijan:  COUNTRY NAME
 FLD .                     ACG:  FIELD NAME
 SRVC.     Turan Drilling & Engineering:  CONTRACTOR
 MWDS.                    Baku:  MWD SHOP
 WELL.                    D09z:  WELL NAME
 JOBN.        AZ-XX-0906805385:  JOB TICKET NUMB
 RIG .              East Azeri:  RIG NAME
 DOE .                     N/A:  DOE NUMBER
 DCON.         Sperry Drilling:  DIRECTNL CONTR
 UNIT.                     N/A:  LOGGING EQUIPMENT ID
 PDAT.          Mean Sea Level:  PERMANENT DATUM
 MDS .        Operator Entered:  MAG DATA SOURCE
 CNTY.                        :  COUNTY
 LOC .                        :  LOCATION
 LMF .             Drill Floor:  LOG MEASURED FROM
 TVDS.m                  43.60:  TVDSS CORRECTN
 LATI.deg                40.02:  LATITUDE
 LONG.deg                51.45:  LONGITUDE
 WHNS.m                 -17.04:  WELL HEAD N/S
 WHEW.m                  -6.28:  WELL HEAD E/W
 UTMX.m              538763.98:  UTM X
 UTMY.m             4431880.20:  UTM Y
 DFWL.m                   0.00:  DISTANCE FWL
 DFSL.m                   0.00:  DISTANCE FSL
 SDEP.m                2680.01:  START DEPTH
 TDD .m                4000.01:  TOTAL DEPTH (DRILLER)
 VSDR.deg               225.71:  VERT SEC DIRECT
 GVFD.g                   1.00:  GRAVITY FIELD
 MFLD.nT              50353.00:  MAGNETIC FIELD
 MDIP.deg                59.49:  MAGNETIC DIP
 MDEC.deg                 6.46:  MAGNETIC DECL
 GRDC.deg                 0.29:  GRID CORRECTION
 AZTC.deg                 6.17:  AZM TOTAL CORR
 EPD .m                   0.00:  ELEVATION
 EGL .m                   0.00:  GROUND ELEVATION
 WDMS.m                 151.80:  WD ELEV
 APD .m                  43.60:  DEPTH ABOVE PD
 AGAP.m                  43.60:  AIR GAP
 VSEW.m                  -6.28:  VERT SEC E/W
 VSNS.m                 -17.04:  VERT SEC N/S
 DEP .m                2656.31:  DEPTH
 EKB .m                  43.60:  KB ELEVATION
 EDF .m                  43.60:  DF ELEVATION
 VSC .                       0:  VS TO CLOSURE
 MAGU.                 1851247:  MAGUTM CHECKSUM
~Parameter Information Block
#MNEM.UNIT       Value        Description
#---------     -----------    ---------------------------
 AV  .mps                 3.00:  Ann Velocity 
 AVMX.mps                 8.00:  Max Ann Veloc 
 AZIF.deg                 0.00:  Azm, Final 
 BHAT.                   Other:  BHA Type 
 BREV.rev                 0.00:  Rev Bit Total 
 BROT.°/30m               0.00:  Build Rotating 
 BS  .in                 10.25:  Bit Size 
 BTPL.psig              511.00:  Bit Press Loss 
 CABU.                      No:  Customer Abuse 
 CGEO.           Asif Pashayev:  Customer Geo 
 COMM.                     $Ml:  Run Comments 1 
 TCS .hr                 24.03:  Time Ciculation Ended 
 CV  .mps                 3.50:  Crit Velocity 
 CVMX.mps                 4.00:  Max Crit Veloc 
 DD1 .             Aziz Aliyev:  Direct Drillr 1 
 DD2 .      Fakhraddin Guliyev:  Direct Drillr 2 
 DDSV.                   Other:  DD Service 
 DEFF.%                  99.00:  % Det Eff 
 DLRX.°/30m               0.00:  Dogleg Rot Max 
 DLSO.°/30m               0.00:  Dogleg Oriented 
 DLSX.°/30m               0.00:  Dogleg Str Max 
 DRET.      23.00.40 28-Mar-21:  Drill End Time 
 DRST.      23.30.40 25-Mar-21:  Drill Start Tim 
 DTIM.hr                  0.00:  Time Drilling 
 EDEP.m                3886.01:  End Depth 
 ENG1.         Almaz Almadatov:  Engineer 1 
 ENG2.      Artemiy Matviyanov:  Engineer 2 
 ENG3.           Samir Gafarov:  Engineer 3 
 ETIM.      23.00.40 28-Mar-21:  End Time 
 FLOI.gpm               550.00:  Flow In 
 FLON.gpm               500.00:  Flow In Min 
 FLOS.cptm                0.00:  Fluid Loss 
 FLOX.gpm               590.00:  Flow In Max 
 HFLO.                      No:  High Flow 
 HPRE.                      No:  High Pressure 
 HTEM.                      No:  High Temp 
 HYDO.m                   1.80:  Hydro Offset 
 IFIN.deg                 0.00:  Inc, Final 
 IMAX.deg                 0.00:  Inc Max 
 IMIN.deg                 0.00:  Inc Min 
 IMND.m                   0.00:  Inc Min Depth 
 IMXD.m                   0.00:  Inc Max Depth 
 JARR.                      No:  Jarring 
 LETM.      03.22.40 28-Mar-21:  Log End Time 
 LOST.hr                     0:  Lost Rig Time 
 LSTM.      23.30.40 25-Mar-21:  Log Start Time 
 MDCL.ppm             34000.00:  Mud Chlorides 
 MDES.     Inversion Oil/Synthetic:  Mud Desc 
 DFD .sg                  1.51:  Mud Density 
 MDMN.sg                  1.51:  Dens Mud Min 
 MDMX.sg                  1.51:  Dens Mud Max 
 MOIL.                      70:  Run Mud Oil % 
 MOWR.                   70:30:  Run Mud OWR 
 MSND.                     0.2:  Run Mud Sand % 
 MSOL.                   21.60:  Run Mud Solids% 
 DFV .spqt               74.00:  Mud Viscosity 
 MWOD.in                  6.75:  MWD Tool OD 
 MWSI.                      No:  Serv Intrp, MWD 
 OTIM.hr                 69.09:  Time Operating 
 PCON.           Look Like New:  Pad Condition 
 PMAX.psia             3500.00:  Press Op, Max 
 PV  .cP                 70.00:  Mud PV 
 RUN .                     400:  Run Number 
 ROPA.m/hr                0.00:  ROP Avg 
 ROPN.m/hr                0.00:  ROP Min 
 ROPX.m/hr                0.00:  ROP Max 
 RPMA.rpm                80.00:  RPM Surface Avg 
 RPMN.rpm                10.00:  RPM Surface Min 
 RPMX.rpm               100.00:  RPM Surface Max 
 RRUN.                    0400:  Rig Run Number 
 RTIM.hr                  3.00:  Time Reaming 
 SAZI.deg                 0.00:  Azm, Start 
 SDEP.m                3886.01:  Start Depth 
 SIDD.                      No:  Serv Intrp, DD 
 SINC.deg                 0.00:  Inc, Start 
 SPPA.psig             3270.00:  SPP Avg 
 SPPN.psig             3220.00:  SPP Min 
 SPPX.psig             4430.00:  SPP Max 
 STIM.      23.30.40 25-Mar-21:  Start Time 
 SVCS.                 DD, MWD:  Services 
 SVER.                    9.20:  Sperry Version 
 TDAT.m                   0.00:  Tot Depth Attmp 
 TDDF.                      No:  Trip for DD 
 TFF .                      No:  Trip for Fail 
 TQAA.f-kp                8.00:  Torque Abs Avg 
 TQAN.f-kp                7.00:  Torque Abs Min 
 TQAX.f-kp               11.00:  Torque Abs Max 
 TRRT.°/30m               0.00:  Turn Rotating 
 MRT .                  EWR-M5:  Maximum Recorded Temperature 
 TTMX.degC               76.47:  Max Tool Temp 
 VS01.                90640857:  Virtual Str1 SN 
 VS02.                90639246:  Virtual Str2 SN 
 VS03.                90642265:  Virtual Str3 SN 
 VS04.                11654497:  Virtual Str4 SN 
 WBMN.klb                 0.00:  WOB Min 
 WITN.      Kamran Keberlinkiy:  Customer Rep 
 WITN.           Murad Guliyev:  Customer Rep 2 
 WOBA.klb                 0.00:  WOB Avg 
 WOBX.klb                 0.00:  WOB Max 
 YP  .lhf2               36.00:  Yield Point 
~Curve Information Block
#MNEM.UNIT                 API CODE     Curve Description
#---------               -----------    ---------------------------
 TIME.HHMMSS            00 000 000 000:  GT Time & Date
 GTDEPTH.m              00 000 000 000:  GT Depth
 GTPQH.psia             00 000 000 000:  GT HR Quartz Pressure
 GTTQ.degC              00 000 000 000:  GT Quartz Temperature
 GTTN.NONE              00 000 000 000:  GT Test Number
 GTET.sec               00 000 000 000:  GT Elapsed Test Time
 GTTVD.m                00 000 000 000:  GT True Vertical Depth
#Other Information
#
#WARRANTY: Halliburton will use its best efforts to furnish customers with 
#accurate information and interpretations that are part of, and incident to, the services 
#provided.  However, Halliburton cannot and does not warrant the accuracy 
#or correctness of such information and interpretations.  Under no circumstances should any 
#such information or interpretation be relied upon as the sole basis for any drilling, 
#completion, production, or financial decision or any procedure involving any risk to the 
#safety of any drilling venture, drilling rig or its crew or any other third party.  The 
#Customer has full responsibility for all drilling, completion and production operation.  
#Halliburton makes no representations or warranties, either expressed or 
#implied, including, but not limited to, the implied warranties of merchantability or fitness 
#for a particular purpose, with respect to the services rendered.  In no event will 
#Halliburton be liable for failure to obtain any particular results or for 
#any damages, including, but not limited to, indirect, special or consequential damages, 
#resulting from the use of any information or interpretation provided by Halliburton.
#
~A           TIME           GTDEPTH  GTPQH  GTTQ  GTTN   GTET   GTTVD  
# ...
   11:08:56.280.27-Mar-2021 3279.01 4783.73 61.26 11.00 226.05 3032.17
   11:08:56.480.27-Mar-2021 3279.01 4783.73 61.26 11.00 226.25 3032.17
   11:08:56.680.27-Mar-2021 3279.01 4782.26 61.26 11.00 226.45 3032.17
   11:08:56.880.27-Mar-2021 3279.01 4782.59 61.26 11.00 226.65 3032.17
   11:08:57.080.27-Mar-2021 3279.01 4782.80 61.26 11.00 226.85 3032.17
   11:08:57.280.27-Mar-2021 3279.01 4782.46 61.26 11.00 227.05 3032.17
   11:08:57.480.27-Mar-2021 3279.01 4782.46 61.26 11.00 227.25 3032.17
   11:08:57.680.27-Mar-2021 3279.01 4781.69 61.26 11.00 227.45 3032.17
   11:08:57.880.27-Mar-2021 3279.01 4782.27 61.26 11.00 227.65 3032.17
   11:08:58.080.27-Mar-2021 3279.01 4782.87 61.26 11.00 227.85 3032.17
   11:08:58.280.27-Mar-2021 3279.01 4781.50 61.26 11.00 228.05 3032.17
   11:08:58.480.27-Mar-2021 3279.01 4781.50 61.26 11.00 228.25 3032.17
   11:08:58.680.27-Mar-2021 3279.01 4784.06 61.26 11.00 228.45 3032.17
   11:08:58.880.27-Mar-2021 3279.01 4781.84 61.26 11.00 228.65 3032.17
   11:08:59.080.27-Mar-2021 3279.01 4781.96 61.26 11.00 228.85 3032.17
   11:08:59.280.27-Mar-2021 3279.01 4782.75 61.26 11.00 229.05 3032.17
   11:08:59.480.27-Mar-2021 3279.01 4782.75 61.26 11.00 229.25 3032.17
   11:08:59.680.27-Mar-2021 3279.01 4782.99 61.26 11.00 229.45 3032.17
   11:08:59.881.27-Mar-2021 3279.01 4783.39 61.26 11.00 229.65 3032.17
   11:09:00.081.27-Mar-2021 3279.01 4781.53 61.26 11.00 229.85 3032.17
   11:09:00.281.27-Mar-2021 3279.01 4782.39 61.26 11.00 230.05 3032.17
   11:09:00.481.27-Mar-2021 3279.01 4782.39 61.26 11.00 230.25 3032.17
   11:09:00.681.27-Mar-2021 3279.01 4782.45 61.26 11.00 230.45 3032.17
   11:09:00.881.27-Mar-2021 3279.01 4782.40 61.26 11.00 230.65 3032.17
   11:09:01.081.27-Mar-2021 3279.01 4782.99 61.26 11.00 230.85 3032.17
   11:09:01.281.27-Mar-2021 3279.01 4782.76 61.26 11.00 231.05 3032.17
   11:09:01.481.27-Mar-2021 3279.01 4782.76 61.26 11.00 231.25 3032.17
   11:09:01.681.27-Mar-2021 3279.01 4782.34 61.26 11.00 231.45 3032.17
   11:09:01.881.27-Mar-2021 3279.01 4782.59 61.26 11.00 231.65 3032.17
   11:09:02.081.27-Mar-2021 3279.01 4782.77 61.26 11.00 231.85 3032.17
   11:09:02.281.27-Mar-2021 3279.01 4782.49 61.26 11.00 232.05 3032.17
   11:09:02.481.27-Mar-2021 3279.01 4782.49 61.26 11.00 232.25 3032.17
   11:09:02.681.27-Mar-2021 3279.01 4782.66 61.26 11.00 232.45 3032.17
   11:09:02.881.27-Mar-2021 3279.01 4782.12 61.26 11.00 232.65 3032.17
   11:09:03.081.27-Mar-2021 3279.01 4782.32 61.26 11.00 232.85 3032.17
   11:09:03.281.27-Mar-2021 3279.01 4782.43 61.26 11.00 233.05 3032.17
   11:09:03.481.27-Mar-2021 3279.01 4782.43 61.26 11.00 233.25 3032.17
   11:09:03.681.27-Mar-2021 3279.01 4782.71 61.26 11.00 233.45 3032.17
   11:09:03.881.27-Mar-2021 3279.01 4782.47 61.26 11.00 233.65 3032.17
   11:09:04.082.27-Mar-2021 3279.01 4782.12 61.26 11.00 233.85 3032.17
   11:09:04.282.27-Mar-2021 3279.01 4782.77 61.26 11.00 234.05 3032.17
   11:09:04.482.27-Mar-2021 3279.01 4782.77 61.26 11.00 234.25 3032.17
   11:09:04.682.27-Mar-2021 3279.01 4782.21 61.26 11.00 234.45 3032.17
   11:09:04.882.27-Mar-2021 3279.01 4782.45 61.26 11.00 234.65 3032.17
   11:09:05.082.27-Mar-2021 3279.01 4782.53 61.26 11.00 234.85 3032.17
   11:09:05.282.27-Mar-2021 3279.01 4782.77 61.26 11.00 235.06 3032.17
   11:09:05.482.27-Mar-2021 3279.01 4782.77 61.26 11.00 235.26 3032.17
   11:09:05.682.27-Mar-2021 3279.01 4782.05 61.26 11.00 235.46 3032.17
   11:09:05.882.27-Mar-2021 3279.01 4781.93 61.26 11.00 235.66 3032.17
   11:09:06.082.27-Mar-2021 3279.01 4782.85 61.26 11.00 235.86 3032.17
   11:09:06.282.27-Mar-2021 3279.01 4782.17 61.26 11.00 236.06 3032.17
   11:09:06.482.27-Mar-2021 3279.01 4782.17 61.26 11.00 236.26 3032.17
   11:09:06.682.27-Mar-2021 3279.01 4782.60 61.26 11.00 236.46 3032.17
   11:09:06.882.27-Mar-2021 3279.01 4782.37 61.26 11.00 236.66 3032.17
   11:09:07.082.27-Mar-2021 3279.01 4781.82 61.26 11.00 236.86 3032.17
   11:09:07.282.27-Mar-2021 3279.01 4782.37 61.26 11.00 237.06 3032.17
   11:09:07.482.27-Mar-2021 3279.01 4782.37 61.26 11.00 237.26 3032.17
   11:09:07.682.27-Mar-2021 3279.01 4782.61 61.26 11.00 237.46 3032.17
   11:09:07.882.27-Mar-2021 3279.01 4782.28 61.26 11.00 237.66 3032.17
   11:09:08.082.27-Mar-2021 3279.01 4781.95 61.26 11.00 237.86 3032.17
   11:09:08.283.27-Mar-2021 3279.01 4783.28 61.26 11.00 238.06 3032.17
   11:09:08.483.27-Mar-2021 3279.01 4783.28 61.26 11.00 238.26 3032.17
   11:09:08.683.27-Mar-2021 3279.01 4781.87 61.26 11.00 238.46 3032.17
   11:09:08.883.27-Mar-2021 3279.01 4782.35 61.26 11.00 238.66 3032.17
   11:09:09.083.27-Mar-2021 3279.01 4782.23 61.26 11.00 238.86 3032.17
   11:09:09.283.27-Mar-2021 3279.01 4783.01 61.26 11.00 239.06 3032.17
   11:09:09.483.27-Mar-2021 3279.01 4783.01 61.26 11.00 239.26 3032.17
   11:09:09.683.27-Mar-2021 3279.01 4781.73 61.26 11.00 239.46 3032.17
   11:09:09.883.27-Mar-2021 3279.01 4781.96 61.26 11.00 239.66 3032.17
   11:09:10.083.27-Mar-2021 3279.01 4782.77 61.26 11.00 239.86 3032.17
   11:09:10.283.27-Mar-2021 3279.01 4782.54 61.26 11.00 240.06 3032.17
   11:09:10.483.27-Mar-2021 3279.01 4782.54 61.26 11.00 240.26 3032.17
   11:09:10.683.27-Mar-2021 3279.01 4782.57 61.26 11.00 240.46 3032.17
   11:09:10.883.27-Mar-2021 3279.01 4783.01 61.26 11.00 240.66 3032.17
   11:09:11.083.27-Mar-2021 3279.01 4782.36 61.26 11.00 240.86 3032.17
   11:09:11.283.27-Mar-2021 3279.01 4782.48 61.26 11.00 241.06 3032.17
   11:09:11.483.27-Mar-2021 3279.01 4782.48 61.26 11.00 241.26 3032.17
   11:09:11.683.27-Mar-2021 3279.01 4782.63 61.26 11.00 241.46 3032.17
   11:09:11.883.27-Mar-2021 3279.01 4782.45 61.26 11.00 241.66 3032.17
   11:09:12.083.27-Mar-2021 3279.01 4782.65 61.26 11.00 241.86 3032.17
   11:09:12.283.27-Mar-2021 3279.01 4782.06 61.26 11.00 242.06 3032.17
   11:09:12.483.27-Mar-2021 3279.01 4782.06 61.26 11.00 242.26 3032.17
   11:09:12.684.27-Mar-2021 3279.01 4782.36 61.26 11.00 242.46 3032.17
   11:09:12.884.27-Mar-2021 3279.01 4781.68 61.26 11.00 242.66 3032.17
   11:09:13.084.27-Mar-2021 3279.01 4782.66 61.26 11.00 242.86 3032.17
   11:09:13.284.27-Mar-2021 3279.01 4782.95 61.26 11.00 243.06 3032.17
   11:09:13.484.27-Mar-2021 3279.01 4782.95 61.26 11.00 243.26 3032.17
   11:09:13.684.27-Mar-2021 3279.01 4782.45 61.26 11.00 243.46 3032.17
   11:09:13.884.27-Mar-2021 3279.01 4782.57 61.26 11.00 243.66 3032.17
   11:09:14.084.27-Mar-2021 3279.01 4783.03 61.26 11.00 243.86 3032.17
   11:09:14.284.27-Mar-2021 3279.01 4782.47 61.26 11.00 244.06 3032.17
   11:09:14.484.27-Mar-2021 3279.01 4782.47 61.26 11.00 244.26 3032.17
   11:09:14.684.27-Mar-2021 3279.01 4782.61 61.26 11.00 244.46 3032.17
   11:09:14.884.27-Mar-2021 3279.01 4782.12 61.26 11.00 244.66 3032.17
   11:09:15.084.27-Mar-2021 3279.01 4782.52 61.26 11.00 244.86 3032.17
   11:09:15.284.27-Mar-2021 3279.01 4782.78 61.26 11.00 245.06 3032.17
   11:09:15.484.27-Mar-2021 3279.01 4782.78 61.26 11.00 245.26 3032.17
   11:09:15.684.27-Mar-2021 3279.01 4782.65 61.26 11.00 245.46 3032.17
   11:09:15.884.27-Mar-2021 3279.01 4782.81 61.26 11.00 245.66 3032.17
   11:09:16.084.27-Mar-2021 3279.01 4782.57 61.26 11.00 245.86 3032.17
   11:09:16.284.27-Mar-2021 3279.01 4782.41 61.26 11.00 246.06 3032.17
   11:09:16.484.27-Mar-2021 3279.01 4782.41 61.26 11.00 246.26 3032.17
   11:09:16.684.27-Mar-2021 3279.01 4781.77 61.26 11.00 246.46 3032.17
   11:09:16.885.27-Mar-2021 3279.01 4783.44 61.26 11.00 246.66 3032.17
   11:09:17.085.27-Mar-2021 3279.01 4781.92 61.26 11.00 246.86 3032.17
   11:09:17.285.27-Mar-2021 3279.01 4782.22 61.26 11.00 247.06 3032.17
   11:09:17.485.27-Mar-2021 3279.01 4782.22 61.26 11.00 247.26 3032.17
   11:09:17.685.27-Mar-2021 3279.01 4782.05 61.26 11.00 247.46 3032.17
   11:09:17.885.27-Mar-2021 3279.01 4782.27 61.26 11.00 247.66 3032.17
   11:09:18.085.27-Mar-2021 3279.01 4783.36 61.26 11.00 247.86 3032.17
   11:09:18.285.27-Mar-2021 3279.01 4782.63 61.26 11.00 248.06 3032.17
   11:09:18.485.27-Mar-2021 3279.01 4782.63 61.26 11.00 248.26 3032.17
   11:09:18.685.27-Mar-2021 3279.01 4782.33 61.26 11.00 248.46 3032.17
