~Version Information
 VERS.                  2.0:   CWLS log ASCII Standard -VERSION 2.0
 WRAP.                   NO:   One line per depth step
~Well Information Block
#MNEM.UNIT     VALUE/NAME     DESCRIPTION
#---------     -----------    ---------------------------
 STRT.S             06:42:15 27-Mar-21: START TIME 06:42:15 27-Mar-21
 STOP.S             06:49:25 27-Mar-21: STOP TIME  06:49:25 27-Mar-21
 STEP.S                   0.00: STEP TIME
 NULL.                 -999.25: NULL VALUE
 DFWT.                        :  DIST FWL TEXT
 DFST.                        :  DIST FSL TEXT
 DMF .             Drill Floor:  DRILL MEAS FROM
 STIM.      20.26.40 11-Mar-21:  START TIME
 DATE.      20.26.40 30-Mar-21:  END TIME
 SPUD.               11-Mar-21:  SPUD DATE
 NREF.                    Grid:  NORTH REFERENCE
 HPTY.       Minimum Curvature:  HOLE POS TYPE
 DMOD.             Drill Model:  DRILL MOD DESC
 SVYD.                  Survey:  SURVEY DESC
 ILTD.               Lithology:  INTERP LTH DESC
 FTOP.          Formation Tops:  FORM TOPS DESC
 SON .        AZ-XX-0906805385:  JOB NUMBER
 WTYP.                Deviated:  WELL TYPE
 COMP.     BP Exploration (Caspian Sea) Ltd.:  COMPANY
 UWI .            /AZE00000198:  UNIQUE WELL IDENTIFIER
 API .            /AZE00000198:  API NUMBER
 BASE.              Azerbaijan:  LOGGING EQUIPMENT BASE LOCATION
 REGN.                   EESSA:  REGION
 PROV.                    Baku:  PROVINCE
 STAT.                    Baku:  STATE NAME
 CTRY.              Azerbaijan:  COUNTRY NAME
 FLD .                     ACG:  FIELD NAME
 SRVC.     Turan Drilling & Engineering:  CONTRACTOR
 MWDS.                    Baku:  MWD SHOP
 WELL.                    D09z:  WELL NAME
 JOBN.        AZ-XX-0906805385:  JOB TICKET NUMB
 RIG .              East Azeri:  RIG NAME
 DOE .                     N/A:  DOE NUMBER
 DCON.         Sperry Drilling:  DIRECTNL CONTR
 UNIT.                     N/A:  LOGGING EQUIPMENT ID
 PDAT.          Mean Sea Level:  PERMANENT DATUM
 MDS .        Operator Entered:  MAG DATA SOURCE
 CNTY.                        :  COUNTY
 LOC .                        :  LOCATION
 LMF .             Drill Floor:  LOG MEASURED FROM
 TVDS.m                  43.60:  TVDSS CORRECTN
 LATI.deg                40.02:  LATITUDE
 LONG.deg                51.45:  LONGITUDE
 WHNS.m                 -17.04:  WELL HEAD N/S
 WHEW.m                  -6.28:  WELL HEAD E/W
 UTMX.m              538763.98:  UTM X
 UTMY.m             4431880.20:  UTM Y
 DFWL.m                   0.00:  DISTANCE FWL
 DFSL.m                   0.00:  DISTANCE FSL
 SDEP.m                2680.01:  START DEPTH
 TDD .m                4000.01:  TOTAL DEPTH (DRILLER)
 VSDR.deg               225.71:  VERT SEC DIRECT
 GVFD.g                   1.00:  GRAVITY FIELD
 MFLD.nT              50353.00:  MAGNETIC FIELD
 MDIP.deg                59.49:  MAGNETIC DIP
 MDEC.deg                 6.46:  MAGNETIC DECL
 GRDC.deg                 0.29:  GRID CORRECTION
 AZTC.deg                 6.17:  AZM TOTAL CORR
 EPD .m                   0.00:  ELEVATION
 EGL .m                   0.00:  GROUND ELEVATION
 WDMS.m                 151.80:  WD ELEV
 APD .m                  43.60:  DEPTH ABOVE PD
 AGAP.m                  43.60:  AIR GAP
 VSEW.m                  -6.28:  VERT SEC E/W
 VSNS.m                 -17.04:  VERT SEC N/S
 DEP .m                2656.31:  DEPTH
 EKB .m                  43.60:  KB ELEVATION
 EDF .m                  43.60:  DF ELEVATION
 VSC .                       0:  VS TO CLOSURE
 MAGU.                 1851247:  MAGUTM CHECKSUM
~Parameter Information Block
#MNEM.UNIT       Value        Description
#---------     -----------    ---------------------------
 AV  .mps                 3.00:  Ann Velocity 
 AVMX.mps                 8.00:  Max Ann Veloc 
 AZIF.deg                 0.00:  Azm, Final 
 BHAT.                   Other:  BHA Type 
 BREV.rev                 0.00:  Rev Bit Total 
 BROT.°/30m               0.00:  Build Rotating 
 BS  .in                 10.25:  Bit Size 
 BTPL.psig              511.00:  Bit Press Loss 
 CABU.                      No:  Customer Abuse 
 CGEO.           Asif Pashayev:  Customer Geo 
 COMM.                     lÇi:  Run Comments 1 
 TCS .hr                 24.03:  Time Ciculation Ended 
 CV  .mps                 3.50:  Crit Velocity 
 CVMX.mps                 4.00:  Max Crit Veloc 
 DD1 .             Aziz Aliyev:  Direct Drillr 1 
 DD2 .      Fakhraddin Guliyev:  Direct Drillr 2 
 DDSV.                   Other:  DD Service 
 DEFF.%                  99.00:  % Det Eff 
 DLRX.°/30m               0.00:  Dogleg Rot Max 
 DLSO.°/30m               0.00:  Dogleg Oriented 
 DLSX.°/30m               0.00:  Dogleg Str Max 
 DRET.      23.00.40 28-Mar-21:  Drill End Time 
 DRST.      23.30.40 25-Mar-21:  Drill Start Tim 
 DTIM.hr                  0.00:  Time Drilling 
 EDEP.m                3886.01:  End Depth 
 ENG1.         Almaz Almadatov:  Engineer 1 
 ENG2.      Artemiy Matviyanov:  Engineer 2 
 ENG3.           Samir Gafarov:  Engineer 3 
 ETIM.      23.00.40 28-Mar-21:  End Time 
 FLOI.gpm               550.00:  Flow In 
 FLON.gpm               500.00:  Flow In Min 
 FLOS.cptm                0.00:  Fluid Loss 
 FLOX.gpm               590.00:  Flow In Max 
 HFLO.                      No:  High Flow 
 HPRE.                      No:  High Pressure 
 HTEM.                      No:  High Temp 
 HYDO.m                   1.80:  Hydro Offset 
 IFIN.deg                 0.00:  Inc, Final 
 IMAX.deg                 0.00:  Inc Max 
 IMIN.deg                 0.00:  Inc Min 
 IMND.m                   0.00:  Inc Min Depth 
 IMXD.m                   0.00:  Inc Max Depth 
 JARR.                      No:  Jarring 
 LETM.      03.22.40 28-Mar-21:  Log End Time 
 LOST.hr                     0:  Lost Rig Time 
 LSTM.      23.30.40 25-Mar-21:  Log Start Time 
 MDCL.ppm             34000.00:  Mud Chlorides 
 MDES.     Inversion Oil/Synthetic:  Mud Desc 
 DFD .sg                  1.51:  Mud Density 
 MDMN.sg                  1.51:  Dens Mud Min 
 MDMX.sg                  1.51:  Dens Mud Max 
 MOIL.                      70:  Run Mud Oil % 
 MOWR.                   70:30:  Run Mud OWR 
 MSND.                     0.2:  Run Mud Sand % 
 MSOL.                   21.60:  Run Mud Solids% 
 DFV .spqt               74.00:  Mud Viscosity 
 MWOD.in                  6.75:  MWD Tool OD 
 MWSI.                      No:  Serv Intrp, MWD 
 OTIM.hr                 69.09:  Time Operating 
 PCON.           Look Like New:  Pad Condition 
 PMAX.psia             3500.00:  Press Op, Max 
 PV  .cP                 70.00:  Mud PV 
 RUN .                     400:  Run Number 
 ROPA.m/hr                0.00:  ROP Avg 
 ROPN.m/hr                0.00:  ROP Min 
 ROPX.m/hr                0.00:  ROP Max 
 RPMA.rpm                80.00:  RPM Surface Avg 
 RPMN.rpm                10.00:  RPM Surface Min 
 RPMX.rpm               100.00:  RPM Surface Max 
 RRUN.                    0400:  Rig Run Number 
 RTIM.hr                  3.00:  Time Reaming 
 SAZI.deg                 0.00:  Azm, Start 
 SDEP.m                3886.01:  Start Depth 
 SIDD.                      No:  Serv Intrp, DD 
 SINC.deg                 0.00:  Inc, Start 
 SPPA.psig             3270.00:  SPP Avg 
 SPPN.psig             3220.00:  SPP Min 
 SPPX.psig             4430.00:  SPP Max 
 STIM.      23.30.40 25-Mar-21:  Start Time 
 SVCS.                 DD, MWD:  Services 
 SVER.                    9.20:  Sperry Version 
 TDAT.m                   0.00:  Tot Depth Attmp 
 TDDF.                      No:  Trip for DD 
 TFF .                      No:  Trip for Fail 
 TQAA.f-kp                8.00:  Torque Abs Avg 
 TQAN.f-kp                7.00:  Torque Abs Min 
 TQAX.f-kp               11.00:  Torque Abs Max 
 TRRT.°/30m               0.00:  Turn Rotating 
 MRT .                  EWR-M5:  Maximum Recorded Temperature 
 TTMX.degC               76.47:  Max Tool Temp 
 VS01.                90640857:  Virtual Str1 SN 
 VS02.                90639246:  Virtual Str2 SN 
 VS03.                90642265:  Virtual Str3 SN 
 VS04.                11654497:  Virtual Str4 SN 
 WBMN.klb                 0.00:  WOB Min 
 WITN.      Kamran Keberlinkiy:  Customer Rep 
 WITN.           Murad Guliyev:  Customer Rep 2 
 WOBA.klb                 0.00:  WOB Avg 
 WOBX.klb                 0.00:  WOB Max 
 YP  .lhf2               36.00:  Yield Point 
~Curve Information Block
#MNEM.UNIT                 API CODE     Curve Description
#---------               -----------    ---------------------------
 TIME.HHMMSS            00 000 000 000:  GT Time & Date
 GTDEPTH.m              00 000 000 000:  GT Depth
 GTPQH.psia             00 000 000 000:  GT HR Quartz Pressure
 GTTQ.degC              00 000 000 000:  GT Quartz Temperature
 GTTN.NONE              00 000 000 000:  GT Test Number
 GTET.sec               00 000 000 000:  GT Elapsed Test Time
 GTTVD.m                00 000 000 000:  GT True Vertical Depth
#Other Information
#
#WARRANTY: Halliburton will use its best efforts to furnish customers with 
#accurate information and interpretations that are part of, and incident to, the services 
#provided.  However, Halliburton cannot and does not warrant the accuracy 
#or correctness of such information and interpretations.  Under no circumstances should any 
#such information or interpretation be relied upon as the sole basis for any drilling, 
#completion, production, or financial decision or any procedure involving any risk to the 
#safety of any drilling venture, drilling rig or its crew or any other third party.  The 
#Customer has full responsibility for all drilling, completion and production operation.  
#Halliburton makes no representations or warranties, either expressed or 
#implied, including, but not limited to, the implied warranties of merchantability or fitness 
#for a particular purpose, with respect to the services rendered.  In no event will 
#Halliburton be liable for failure to obtain any particular results or for 
#any damages, including, but not limited to, indirect, special or consequential damages, 
#resulting from the use of any information or interpretation provided by Halliburton.
#
~A           TIME           GTDEPTH  GTPQH  GTTQ  GTTN  GTET   GTTVD  
# ...
   06:46:05.280.27-Mar-2021 3443.51 5071.30 60.37 5.00 230.06 3186.30
   06:46:05.480.27-Mar-2021 3443.51 5071.30 60.37 5.00 230.26 3186.30
   06:46:05.680.27-Mar-2021 3443.51 5071.31 60.36 5.00 230.46 3186.30
   06:46:05.880.27-Mar-2021 3443.51 5071.23 60.37 5.00 230.66 3186.30
   06:46:06.080.27-Mar-2021 3443.51 5070.98 60.36 5.00 230.86 3186.30
   06:46:06.280.27-Mar-2021 3443.51 5071.16 60.36 5.00 231.06 3186.30
   06:46:06.480.27-Mar-2021 3443.51 5071.16 60.36 5.00 231.26 3186.30
   06:46:06.680.27-Mar-2021 3443.51 5071.27 60.36 5.00 231.46 3186.30
   06:46:06.880.27-Mar-2021 3443.51 5071.16 60.36 5.00 231.66 3186.30
   06:46:07.080.27-Mar-2021 3443.51 5071.29 60.36 5.00 231.86 3186.30
   06:46:07.280.27-Mar-2021 3443.51 5071.08 60.36 5.00 232.06 3186.30
   06:46:07.480.27-Mar-2021 3443.51 5071.08 60.36 5.00 232.26 3186.30
   06:46:07.681.27-Mar-2021 3443.51 5071.10 60.36 5.00 232.46 3186.30
   06:46:07.881.27-Mar-2021 3443.51 5071.32 60.36 5.00 232.66 3186.30
   06:46:08.081.27-Mar-2021 3443.51 5071.18 60.36 5.00 232.86 3186.30
   06:46:08.281.27-Mar-2021 3443.51 5071.13 60.36 5.00 233.06 3186.30
   06:46:08.481.27-Mar-2021 3443.51 5071.13 60.36 5.00 233.26 3186.30
   06:46:08.681.27-Mar-2021 3443.51 5071.30 60.36 5.00 233.46 3186.30
   06:46:08.881.27-Mar-2021 3443.51 5070.94 60.36 5.00 233.66 3186.30
   06:46:09.081.27-Mar-2021 3443.51 5071.15 60.36 5.00 233.86 3186.30
   06:46:09.281.27-Mar-2021 3443.51 5071.21 60.36 5.00 234.06 3186.30
   06:46:09.481.27-Mar-2021 3443.51 5071.21 60.36 5.00 234.26 3186.30
   06:46:09.681.27-Mar-2021 3443.51 5071.23 60.36 5.00 234.46 3186.30
   06:46:09.881.27-Mar-2021 3443.51 5071.37 60.36 5.00 234.66 3186.30
   06:46:10.081.27-Mar-2021 3443.51 5071.05 60.36 5.00 234.86 3186.30
   06:46:10.281.27-Mar-2021 3443.51 5071.13 60.36 5.00 235.06 3186.30
   06:46:10.481.27-Mar-2021 3443.51 5071.13 60.36 5.00 235.26 3186.30
   06:46:10.681.27-Mar-2021 3443.51 5071.40 60.36 5.00 235.46 3186.30
   06:46:10.881.27-Mar-2021 3443.51 5071.19 60.36 5.00 235.66 3186.30
   06:46:11.081.27-Mar-2021 3443.51 5071.29 60.36 5.00 235.86 3186.30
   06:46:11.281.27-Mar-2021 3443.51 5071.25 60.36 5.00 236.06 3186.30
   06:46:11.481.27-Mar-2021 3443.51 5071.25 60.36 5.00 236.26 3186.30
   06:46:11.682.27-Mar-2021 3443.51 5071.11 60.36 5.00 236.46 3186.30
   06:46:11.882.27-Mar-2021 3443.51 5071.37 60.36 5.00 236.66 3186.30
   06:46:12.082.27-Mar-2021 3443.51 5071.20 60.36 5.00 236.86 3186.30
   06:46:12.282.27-Mar-2021 3443.51 5071.10 60.36 5.00 237.06 3186.30
   06:46:12.482.27-Mar-2021 3443.51 5071.10 60.36 5.00 237.26 3186.30
   06:46:12.682.27-Mar-2021 3443.51 5071.35 60.36 5.00 237.46 3186.30
   06:46:12.882.27-Mar-2021 3443.51 5071.20 60.36 5.00 237.66 3186.30
   06:46:13.082.27-Mar-2021 3443.51 5071.36 60.36 5.00 237.86 3186.30
   06:46:13.282.27-Mar-2021 3443.51 5071.15 60.36 5.00 238.06 3186.30
   06:46:13.482.27-Mar-2021 3443.51 5071.15 60.36 5.00 238.26 3186.30
   06:46:13.682.27-Mar-2021 3443.51 5071.20 60.36 5.00 238.46 3186.30
   06:46:13.882.27-Mar-2021 3443.51 5071.10 60.36 5.00 238.66 3186.30
   06:46:14.082.27-Mar-2021 3443.51 5071.30 60.36 5.00 238.86 3186.30
   06:46:14.282.27-Mar-2021 3443.51 5071.11 60.36 5.00 239.06 3186.30
   06:46:14.482.27-Mar-2021 3443.51 5071.11 60.36 5.00 239.26 3186.30
   06:46:14.682.27-Mar-2021 3443.51 5071.25 60.36 5.00 239.46 3186.30
   06:46:14.882.27-Mar-2021 3443.51 5071.30 60.36 5.00 239.66 3186.30
   06:46:15.082.27-Mar-2021 3443.51 5071.00 60.36 5.00 239.86 3186.30
   06:46:15.282.27-Mar-2021 3443.51 5071.30 60.36 5.00 240.06 3186.30
   06:46:15.482.27-Mar-2021 3443.51 5071.30 60.36 5.00 240.26 3186.30
   06:46:15.683.27-Mar-2021 3443.51 5071.22 60.36 5.00 240.46 3186.30
   06:46:15.883.27-Mar-2021 3443.51 5071.32 60.36 5.00 240.66 3186.30
   06:46:16.083.27-Mar-2021 3443.51 5071.11 60.36 5.00 240.86 3186.30
   06:46:16.283.27-Mar-2021 3443.51 5071.10 60.36 5.00 241.06 3186.30
   06:46:16.483.27-Mar-2021 3443.51 5071.10 60.36 5.00 241.26 3186.30
   06:46:16.683.27-Mar-2021 3443.51 5071.25 60.36 5.00 241.46 3186.30
   06:46:16.883.27-Mar-2021 3443.51 5071.33 60.36 5.00 241.66 3186.30
   06:46:17.083.27-Mar-2021 3443.51 5071.20 60.36 5.00 241.86 3186.30
   06:46:17.283.27-Mar-2021 3443.51 5071.20 60.36 5.00 242.06 3186.30
   06:46:17.483.27-Mar-2021 3443.51 5071.20 60.36 5.00 242.26 3186.30
   06:46:17.683.27-Mar-2021 3443.51 5071.23 60.36 5.00 242.46 3186.30
   06:46:17.883.27-Mar-2021 3443.51 5071.26 60.36 5.00 242.66 3186.30
   06:46:18.083.27-Mar-2021 3443.51 5071.10 60.36 5.00 242.86 3186.30
   06:46:18.283.27-Mar-2021 3443.51 5071.35 60.36 5.00 243.06 3186.30
   06:46:18.483.27-Mar-2021 3443.51 5071.35 60.36 5.00 243.26 3186.30
   06:46:18.683.27-Mar-2021 3443.51 5071.42 60.36 5.00 243.46 3186.30
   06:46:18.883.27-Mar-2021 3443.51 5071.19 60.36 5.00 243.66 3186.30
   06:46:19.083.27-Mar-2021 3443.51 5071.15 60.36 5.00 243.86 3186.30
   06:46:19.283.27-Mar-2021 3443.51 5071.29 60.36 5.00 244.06 3186.30
   06:46:19.483.27-Mar-2021 3443.51 5071.29 60.36 5.00 244.26 3186.30
   06:46:19.684.27-Mar-2021 3443.51 5071.15 60.36 5.00 244.46 3186.30
   06:46:19.884.27-Mar-2021 3443.51 5071.12 60.36 5.00 244.66 3186.30
   06:46:20.084.27-Mar-2021 3443.51 5071.26 60.36 5.00 244.86 3186.30
   06:46:20.284.27-Mar-2021 3443.51 5071.38 60.36 5.00 245.06 3186.30
   06:46:20.484.27-Mar-2021 3443.51 5071.38 60.36 5.00 245.26 3186.30
   06:46:20.684.27-Mar-2021 3443.51 5071.48 60.36 5.00 245.46 3186.30
   06:46:20.884.27-Mar-2021 3443.51 5071.12 60.36 5.00 245.66 3186.30
   06:46:21.084.27-Mar-2021 3443.51 5071.17 60.36 5.00 245.86 3186.30
   06:46:21.284.27-Mar-2021 3443.51 5071.15 60.36 5.00 246.06 3186.30
   06:46:21.484.27-Mar-2021 3443.51 5071.15 60.36 5.00 246.26 3186.30
   06:46:21.684.27-Mar-2021 3443.51 5071.49 60.36 5.00 246.46 3186.30
   06:46:21.884.27-Mar-2021 3443.51 5071.22 60.36 5.00 246.66 3186.30
   06:46:22.084.27-Mar-2021 3443.51 5071.23 60.36 5.00 246.86 3186.30
   06:46:22.284.27-Mar-2021 3443.51 5071.14 60.36 5.00 247.06 3186.30
   06:46:22.484.27-Mar-2021 3443.51 5071.14 60.36 5.00 247.26 3186.30
   06:46:22.684.27-Mar-2021 3443.51 5071.11 60.36 5.00 247.46 3186.30
   06:46:22.884.27-Mar-2021 3443.51 5071.30 60.36 5.00 247.66 3186.30
   06:46:23.084.27-Mar-2021 3443.51 5071.16 60.36 5.00 247.86 3186.30
   06:46:23.284.27-Mar-2021 3443.51 5071.28 60.36 5.00 248.06 3186.30
   06:46:23.484.27-Mar-2021 3443.51 5071.28 60.36 5.00 248.26 3186.30
   06:46:23.685.27-Mar-2021 3443.51 5071.24 60.36 5.00 248.46 3186.30
   06:46:23.885.27-Mar-2021 3443.51 5071.29 60.36 5.00 248.66 3186.30
   06:46:24.085.27-Mar-2021 3443.51 5071.20 60.36 5.00 248.86 3186.30
   06:46:24.285.27-Mar-2021 3443.51 5071.22 60.36 5.00 249.06 3186.30
   06:46:24.485.27-Mar-2021 3443.51 5071.22 60.36 5.00 249.26 3186.30
   06:46:24.685.27-Mar-2021 3443.51 5071.18 60.36 5.00 249.46 3186.30
   06:46:24.885.27-Mar-2021 3443.51 5071.31 60.36 5.00 249.66 3186.30
   06:46:25.085.27-Mar-2021 3443.51 5071.23 60.36 5.00 249.86 3186.30
   06:46:25.285.27-Mar-2021 3443.51 5071.08 60.36 5.00 250.06 3186.30
   06:46:25.485.27-Mar-2021 3443.51 5071.08 60.36 5.00 250.26 3186.30
   06:46:25.685.27-Mar-2021 3443.51 5071.17 60.36 5.00 250.46 3186.30
   06:46:25.885.27-Mar-2021 3443.51 5071.35 60.36 5.00 250.66 3186.30
   06:46:26.085.27-Mar-2021 3443.51 5071.09 60.36 5.00 250.86 3186.30
   06:46:26.285.27-Mar-2021 3443.51 5071.31 60.36 5.00 251.06 3186.30
   06:46:26.485.27-Mar-2021 3443.51 5071.31 60.36 5.00 251.26 3186.30
   06:46:26.685.27-Mar-2021 3443.51 5071.12 60.36 5.00 251.46 3186.30
   06:46:26.885.27-Mar-2021 3443.51 5071.35 60.36 5.00 251.66 3186.30
   06:46:27.085.27-Mar-2021 3443.51 5071.14 60.36 5.00 251.86 3186.30
   06:46:27.285.27-Mar-2021 3443.51 5071.33 60.36 5.00 252.06 3186.30
   06:46:27.485.27-Mar-2021 3443.51 5071.33 60.36 5.00 252.26 3186.30
   06:46:27.686.27-Mar-2021 3443.51 5071.15 60.36 5.00 252.46 3186.30
   06:46:27.886.27-Mar-2021 3443.51 5071.38 60.36 5.00 252.66 3186.30
   06:46:28.086.27-Mar-2021 3443.51 5071.10 60.36 5.00 252.86 3186.30
