~Version Information
 VERS.                  2.0:   CWLS log ASCII Standard -VERSION 2.0
 WRAP.                   NO:   One line per depth step
~Well Information Block
#MNEM.UNIT     VALUE/NAME     DESCRIPTION
#---------     -----------    ---------------------------
 STRT.S             07:02:33 27-Mar-21: START TIME 07:02:33 27-Mar-21
 STOP.S             07:09:44 27-Mar-21: STOP TIME  07:09:44 27-Mar-21
 STEP.S                   0.00: STEP TIME
 NULL.                 -999.25: NULL VALUE
 DFWT.                        :  DIST FWL TEXT
 DFST.                        :  DIST FSL TEXT
 DMF .             Drill Floor:  DRILL MEAS FROM
 STIM.      20.26.40 11-Mar-21:  START TIME
 DATE.      20.26.40 30-Mar-21:  END TIME
 SPUD.               11-Mar-21:  SPUD DATE
 NREF.                    Grid:  NORTH REFERENCE
 HPTY.       Minimum Curvature:  HOLE POS TYPE
 DMOD.             Drill Model:  DRILL MOD DESC
 SVYD.                  Survey:  SURVEY DESC
 ILTD.               Lithology:  INTERP LTH DESC
 FTOP.          Formation Tops:  FORM TOPS DESC
 SON .        AZ-XX-0906805385:  JOB NUMBER
 WTYP.                Deviated:  WELL TYPE
 COMP.     BP Exploration (Caspian Sea) Ltd.:  COMPANY
 UWI .            /AZE00000198:  UNIQUE WELL IDENTIFIER
 API .            /AZE00000198:  API NUMBER
 BASE.              Azerbaijan:  LOGGING EQUIPMENT BASE LOCATION
 REGN.                   EESSA:  REGION
 PROV.                    Baku:  PROVINCE
 STAT.                    Baku:  STATE NAME
 CTRY.              Azerbaijan:  COUNTRY NAME
 FLD .                     ACG:  FIELD NAME
 SRVC.     Turan Drilling & Engineering:  CONTRACTOR
 MWDS.                    Baku:  MWD SHOP
 WELL.                    D09z:  WELL NAME
 JOBN.        AZ-XX-0906805385:  JOB TICKET NUMB
 RIG .              East Azeri:  RIG NAME
 DOE .                     N/A:  DOE NUMBER
 DCON.         Sperry Drilling:  DIRECTNL CONTR
 UNIT.                     N/A:  LOGGING EQUIPMENT ID
 PDAT.          Mean Sea Level:  PERMANENT DATUM
 MDS .        Operator Entered:  MAG DATA SOURCE
 CNTY.                        :  COUNTY
 LOC .                        :  LOCATION
 LMF .             Drill Floor:  LOG MEASURED FROM
 TVDS.m                  43.60:  TVDSS CORRECTN
 LATI.deg                40.02:  LATITUDE
 LONG.deg                51.45:  LONGITUDE
 WHNS.m                 -17.04:  WELL HEAD N/S
 WHEW.m                  -6.28:  WELL HEAD E/W
 UTMX.m              538763.98:  UTM X
 UTMY.m             4431880.20:  UTM Y
 DFWL.m                   0.00:  DISTANCE FWL
 DFSL.m                   0.00:  DISTANCE FSL
 SDEP.m                2680.01:  START DEPTH
 TDD .m                4000.01:  TOTAL DEPTH (DRILLER)
 VSDR.deg               225.71:  VERT SEC DIRECT
 GVFD.g                   1.00:  GRAVITY FIELD
 MFLD.nT              50353.00:  MAGNETIC FIELD
 MDIP.deg                59.49:  MAGNETIC DIP
 MDEC.deg                 6.46:  MAGNETIC DECL
 GRDC.deg                 0.29:  GRID CORRECTION
 AZTC.deg                 6.17:  AZM TOTAL CORR
 EPD .m                   0.00:  ELEVATION
 EGL .m                   0.00:  GROUND ELEVATION
 WDMS.m                 151.80:  WD ELEV
 APD .m                  43.60:  DEPTH ABOVE PD
 AGAP.m                  43.60:  AIR GAP
 VSEW.m                  -6.28:  VERT SEC E/W
 VSNS.m                 -17.04:  VERT SEC N/S
 DEP .m                2656.31:  DEPTH
 EKB .m                  43.60:  KB ELEVATION
 EDF .m                  43.60:  DF ELEVATION
 VSC .                       0:  VS TO CLOSURE
 MAGU.                 1851247:  MAGUTM CHECKSUM
~Parameter Information Block
#MNEM.UNIT       Value        Description
#---------     -----------    ---------------------------
 AV  .mps                 3.00:  Ann Velocity 
 AVMX.mps                 8.00:  Max Ann Veloc 
 AZIF.deg                 0.00:  Azm, Final 
 BHAT.                   Other:  BHA Type 
 BREV.rev                 0.00:  Rev Bit Total 
 BROT.°/30m               0.00:  Build Rotating 
 BS  .in                 10.25:  Bit Size 
 BTPL.psig              511.00:  Bit Press Loss 
 CABU.                      No:  Customer Abuse 
 CGEO.           Asif Pashayev:  Customer Geo 
 COMM.                     ¬\q:  Run Comments 1 
 TCS .hr                 24.03:  Time Ciculation Ended 
 CV  .mps                 3.50:  Crit Velocity 
 CVMX.mps                 4.00:  Max Crit Veloc 
 DD1 .             Aziz Aliyev:  Direct Drillr 1 
 DD2 .      Fakhraddin Guliyev:  Direct Drillr 2 
 DDSV.                   Other:  DD Service 
 DEFF.%                  99.00:  % Det Eff 
 DLRX.°/30m               0.00:  Dogleg Rot Max 
 DLSO.°/30m               0.00:  Dogleg Oriented 
 DLSX.°/30m               0.00:  Dogleg Str Max 
 DRET.      23.00.40 28-Mar-21:  Drill End Time 
 DRST.      23.30.40 25-Mar-21:  Drill Start Tim 
 DTIM.hr                  0.00:  Time Drilling 
 EDEP.m                3886.01:  End Depth 
 ENG1.         Almaz Almadatov:  Engineer 1 
 ENG2.      Artemiy Matviyanov:  Engineer 2 
 ENG3.           Samir Gafarov:  Engineer 3 
 ETIM.      23.00.40 28-Mar-21:  End Time 
 FLOI.gpm               550.00:  Flow In 
 FLON.gpm               500.00:  Flow In Min 
 FLOS.cptm                0.00:  Fluid Loss 
 FLOX.gpm               590.00:  Flow In Max 
 HFLO.                      No:  High Flow 
 HPRE.                      No:  High Pressure 
 HTEM.                      No:  High Temp 
 HYDO.m                   1.80:  Hydro Offset 
 IFIN.deg                 0.00:  Inc, Final 
 IMAX.deg                 0.00:  Inc Max 
 IMIN.deg                 0.00:  Inc Min 
 IMND.m                   0.00:  Inc Min Depth 
 IMXD.m                   0.00:  Inc Max Depth 
 JARR.                      No:  Jarring 
 LETM.      03.22.40 28-Mar-21:  Log End Time 
 LOST.hr                     0:  Lost Rig Time 
 LSTM.      23.30.40 25-Mar-21:  Log Start Time 
 MDCL.ppm             34000.00:  Mud Chlorides 
 MDES.     Inversion Oil/Synthetic:  Mud Desc 
 DFD .sg                  1.51:  Mud Density 
 MDMN.sg                  1.51:  Dens Mud Min 
 MDMX.sg                  1.51:  Dens Mud Max 
 MOIL.                      70:  Run Mud Oil % 
 MOWR.                   70:30:  Run Mud OWR 
 MSND.                     0.2:  Run Mud Sand % 
 MSOL.                   21.60:  Run Mud Solids% 
 DFV .spqt               74.00:  Mud Viscosity 
 MWOD.in                  6.75:  MWD Tool OD 
 MWSI.                      No:  Serv Intrp, MWD 
 OTIM.hr                 69.09:  Time Operating 
 PCON.           Look Like New:  Pad Condition 
 PMAX.psia             3500.00:  Press Op, Max 
 PV  .cP                 70.00:  Mud PV 
 RUN .                     400:  Run Number 
 ROPA.m/hr                0.00:  ROP Avg 
 ROPN.m/hr                0.00:  ROP Min 
 ROPX.m/hr                0.00:  ROP Max 
 RPMA.rpm                80.00:  RPM Surface Avg 
 RPMN.rpm                10.00:  RPM Surface Min 
 RPMX.rpm               100.00:  RPM Surface Max 
 RRUN.                    0400:  Rig Run Number 
 RTIM.hr                  3.00:  Time Reaming 
 SAZI.deg                 0.00:  Azm, Start 
 SDEP.m                3886.01:  Start Depth 
 SIDD.                      No:  Serv Intrp, DD 
 SINC.deg                 0.00:  Inc, Start 
 SPPA.psig             3270.00:  SPP Avg 
 SPPN.psig             3220.00:  SPP Min 
 SPPX.psig             4430.00:  SPP Max 
 STIM.      23.30.40 25-Mar-21:  Start Time 
 SVCS.                 DD, MWD:  Services 
 SVER.                    9.20:  Sperry Version 
 TDAT.m                   0.00:  Tot Depth Attmp 
 TDDF.                      No:  Trip for DD 
 TFF .                      No:  Trip for Fail 
 TQAA.f-kp                8.00:  Torque Abs Avg 
 TQAN.f-kp                7.00:  Torque Abs Min 
 TQAX.f-kp               11.00:  Torque Abs Max 
 TRRT.°/30m               0.00:  Turn Rotating 
 MRT .                  EWR-M5:  Maximum Recorded Temperature 
 TTMX.degC               76.47:  Max Tool Temp 
 VS01.                90640857:  Virtual Str1 SN 
 VS02.                90639246:  Virtual Str2 SN 
 VS03.                90642265:  Virtual Str3 SN 
 VS04.                11654497:  Virtual Str4 SN 
 WBMN.klb                 0.00:  WOB Min 
 WITN.      Kamran Keberlinkiy:  Customer Rep 
 WITN.           Murad Guliyev:  Customer Rep 2 
 WOBA.klb                 0.00:  WOB Avg 
 WOBX.klb                 0.00:  WOB Max 
 YP  .lhf2               36.00:  Yield Point 
~Curve Information Block
#MNEM.UNIT                 API CODE     Curve Description
#---------               -----------    ---------------------------
 TIME.HHMMSS            00 000 000 000:  GT Time & Date
 GTDEPTH.m              00 000 000 000:  GT Depth
 GTPQH.psia             00 000 000 000:  GT HR Quartz Pressure
 GTTQ.degC              00 000 000 000:  GT Quartz Temperature
 GTTN.NONE              00 000 000 000:  GT Test Number
 GTET.sec               00 000 000 000:  GT Elapsed Test Time
 GTTVD.m                00 000 000 000:  GT True Vertical Depth
#Other Information
#
#WARRANTY: Halliburton will use its best efforts to furnish customers with 
#accurate information and interpretations that are part of, and incident to, the services 
#provided.  However, Halliburton cannot and does not warrant the accuracy 
#or correctness of such information and interpretations.  Under no circumstances should any 
#such information or interpretation be relied upon as the sole basis for any drilling, 
#completion, production, or financial decision or any procedure involving any risk to the 
#safety of any drilling venture, drilling rig or its crew or any other third party.  The 
#Customer has full responsibility for all drilling, completion and production operation.  
#Halliburton makes no representations or warranties, either expressed or 
#implied, including, but not limited to, the implied warranties of merchantability or fitness 
#for a particular purpose, with respect to the services rendered.  In no event will 
#Halliburton be liable for failure to obtain any particular results or for 
#any damages, including, but not limited to, indirect, special or consequential damages, 
#resulting from the use of any information or interpretation provided by Halliburton.
#
~A           TIME           GTDEPTH  GTPQH  GTTQ  GTTN  GTET   GTTVD  
# ...
   07:04:28.555.27-Mar-2021 3426.01 4772.56 60.32 6.00 115.03 3169.91
   07:04:28.755.27-Mar-2021 3426.01 4772.56 60.32 6.00 115.23 3169.91
   07:04:28.955.27-Mar-2021 3426.01 4772.59 60.32 6.00 115.43 3169.91
   07:04:29.155.27-Mar-2021 3426.01 4772.61 60.32 6.00 115.63 3169.91
   07:04:29.355.27-Mar-2021 3426.01 4772.57 60.32 6.00 115.83 3169.91
   07:04:29.555.27-Mar-2021 3426.01 4772.69 60.32 6.00 116.03 3169.91
   07:04:29.755.27-Mar-2021 3426.01 4772.69 60.32 6.00 116.23 3169.91
   07:04:29.955.27-Mar-2021 3426.01 4772.56 60.32 6.00 116.43 3169.91
   07:04:30.155.27-Mar-2021 3426.01 4772.60 60.32 6.00 116.63 3169.91
   07:04:30.355.27-Mar-2021 3426.01 4772.56 60.32 6.00 116.83 3169.91
   07:04:30.555.27-Mar-2021 3426.01 4772.64 60.32 6.00 117.03 3169.91
   07:04:30.755.27-Mar-2021 3426.01 4772.64 60.32 6.00 117.23 3169.91
   07:04:30.955.27-Mar-2021 3426.01 4772.58 60.32 6.00 117.43 3169.91
   07:04:31.155.27-Mar-2021 3426.01 4772.61 60.32 6.00 117.63 3169.91
   07:04:31.355.27-Mar-2021 3426.01 4772.60 60.32 6.00 117.83 3169.91
   07:04:31.555.27-Mar-2021 3426.01 4772.54 60.32 6.00 118.03 3169.91
   07:04:31.755.27-Mar-2021 3426.01 4772.54 60.32 6.00 118.23 3169.91
   07:04:31.956.27-Mar-2021 3426.01 4772.57 60.32 6.00 118.43 3169.91
   07:04:32.156.27-Mar-2021 3426.01 4772.69 60.32 6.00 118.63 3169.91
   07:04:32.356.27-Mar-2021 3426.01 4772.50 60.32 6.00 118.83 3169.91
   07:04:32.556.27-Mar-2021 3426.01 4772.55 60.32 6.00 119.03 3169.91
   07:04:32.756.27-Mar-2021 3426.01 4772.55 60.32 6.00 119.23 3169.91
   07:04:32.956.27-Mar-2021 3426.01 4772.62 60.32 6.00 119.43 3169.91
   07:04:33.156.27-Mar-2021 3426.01 4772.58 60.32 6.00 119.63 3169.91
   07:04:33.356.27-Mar-2021 3426.01 4772.56 60.32 6.00 119.83 3169.91
   07:04:33.556.27-Mar-2021 3426.01 4772.66 60.32 6.00 120.03 3169.91
   07:04:33.756.27-Mar-2021 3426.01 4772.66 60.32 6.00 120.23 3169.91
   07:04:33.956.27-Mar-2021 3426.01 4772.60 60.32 6.00 120.43 3169.91
   07:04:34.156.27-Mar-2021 3426.01 4772.59 60.32 6.00 120.63 3169.91
   07:04:34.356.27-Mar-2021 3426.01 4772.28 60.32 6.00 120.83 3169.91
   07:04:34.556.27-Mar-2021 3426.01 4772.89 60.32 6.00 121.03 3169.91
   07:04:34.756.27-Mar-2021 3426.01 4772.89 60.32 6.00 121.23 3169.91
   07:04:34.956.27-Mar-2021 3426.01 4772.54 60.32 6.00 121.43 3169.91
   07:04:35.156.27-Mar-2021 3426.01 4772.61 60.32 6.00 121.63 3169.91
   07:04:35.356.27-Mar-2021 3426.01 4772.42 60.32 6.00 121.83 3169.91
   07:04:35.556.27-Mar-2021 3426.01 4772.86 60.32 6.00 122.03 3169.91
   07:04:35.756.27-Mar-2021 3426.01 4772.86 60.32 6.00 122.23 3169.91
   07:04:35.957.27-Mar-2021 3426.01 4772.55 60.32 6.00 122.43 3169.91
   07:04:36.157.27-Mar-2021 3426.01 4772.55 60.32 6.00 122.63 3169.91
   07:04:36.357.27-Mar-2021 3426.01 4772.58 60.32 6.00 122.83 3169.91
   07:04:36.557.27-Mar-2021 3426.01 4772.57 60.32 6.00 123.03 3169.91
   07:04:36.757.27-Mar-2021 3426.01 4772.57 60.32 6.00 123.23 3169.91
   07:04:36.957.27-Mar-2021 3426.01 4772.58 60.32 6.00 123.43 3169.91
   07:04:37.157.27-Mar-2021 3426.01 4772.62 60.32 6.00 123.63 3169.91
   07:04:37.357.27-Mar-2021 3426.01 4772.54 60.32 6.00 123.83 3169.91
   07:04:37.557.27-Mar-2021 3426.01 4772.59 60.32 6.00 124.03 3169.91
   07:04:37.757.27-Mar-2021 3426.01 4772.59 60.32 6.00 124.23 3169.91
   07:04:37.957.27-Mar-2021 3426.01 4772.57 60.33 6.00 124.43 3169.91
   07:04:38.157.27-Mar-2021 3426.01 4772.60 60.32 6.00 124.63 3169.91
   07:04:38.357.27-Mar-2021 3426.01 4772.61 60.33 6.00 124.83 3169.91
   07:04:38.557.27-Mar-2021 3426.01 4772.54 60.33 6.00 125.03 3169.91
   07:04:38.757.27-Mar-2021 3426.01 4772.54 60.33 6.00 125.23 3169.91
   07:04:38.957.27-Mar-2021 3426.01 4772.54 60.33 6.00 125.43 3169.91
   07:04:39.157.27-Mar-2021 3426.01 4772.54 60.33 6.00 125.63 3169.91
   07:04:39.357.27-Mar-2021 3426.01 4772.56 60.33 6.00 125.83 3169.91
   07:04:39.557.27-Mar-2021 3426.01 4772.58 60.33 6.00 126.03 3169.91
   07:04:39.757.27-Mar-2021 3426.01 4772.58 60.33 6.00 126.23 3169.91
   07:04:39.958.27-Mar-2021 3426.01 4772.58 60.33 6.00 126.43 3169.91
   07:04:40.158.27-Mar-2021 3426.01 4772.54 60.33 6.00 126.63 3169.91
   07:04:40.358.27-Mar-2021 3426.01 4772.55 60.33 6.00 126.83 3169.91
   07:04:40.558.27-Mar-2021 3426.01 4772.63 60.33 6.00 127.03 3169.91
   07:04:40.758.27-Mar-2021 3426.01 4772.63 60.33 6.00 127.23 3169.91
   07:04:40.958.27-Mar-2021 3426.01 4772.56 60.33 6.00 127.43 3169.91
   07:04:41.158.27-Mar-2021 3426.01 4772.54 60.33 6.00 127.63 3169.91
   07:04:41.358.27-Mar-2021 3426.01 4772.68 60.33 6.00 127.83 3169.91
   07:04:41.558.27-Mar-2021 3426.01 4772.53 60.33 6.00 128.03 3169.91
   07:04:41.758.27-Mar-2021 3426.01 4772.53 60.33 6.00 128.23 3169.91
   07:04:41.958.27-Mar-2021 3426.01 4772.53 60.33 6.00 128.43 3169.91
   07:04:42.158.27-Mar-2021 3426.01 4772.62 60.33 6.00 128.63 3169.91
   07:04:42.358.27-Mar-2021 3426.01 4772.69 60.33 6.00 128.83 3169.91
   07:04:42.558.27-Mar-2021 3426.01 4772.58 60.33 6.00 129.03 3169.91
   07:04:42.758.27-Mar-2021 3426.01 4772.58 60.33 6.00 129.23 3169.91
   07:04:42.958.27-Mar-2021 3426.01 4772.52 60.33 6.00 129.43 3169.91
   07:04:43.158.27-Mar-2021 3426.01 4772.58 60.33 6.00 129.63 3169.91
   07:04:43.358.27-Mar-2021 3426.01 4772.59 60.33 6.00 129.83 3169.91
   07:04:43.558.27-Mar-2021 3426.01 4772.32 60.33 6.00 130.03 3169.91
   07:04:43.758.27-Mar-2021 3426.01 4772.32 60.33 6.00 130.23 3169.91
   07:04:43.959.27-Mar-2021 3426.01 4772.66 60.33 6.00 130.43 3169.91
   07:04:44.159.27-Mar-2021 3426.01 4772.56 60.33 6.00 130.63 3169.91
   07:04:44.359.27-Mar-2021 3426.01 4772.60 60.33 6.00 130.83 3169.91
   07:04:44.559.27-Mar-2021 3426.01 4772.46 60.33 6.00 131.03 3169.91
   07:04:44.759.27-Mar-2021 3426.01 4772.46 60.33 6.00 131.23 3169.91
   07:04:44.959.27-Mar-2021 3426.01 4772.53 60.33 6.00 131.43 3169.91
   07:04:45.159.27-Mar-2021 3426.01 4772.59 60.33 6.00 131.63 3169.91
   07:04:45.359.27-Mar-2021 3426.01 4772.60 60.33 6.00 131.83 3169.91
   07:04:45.559.27-Mar-2021 3426.01 4772.53 60.33 6.00 132.03 3169.91
   07:04:45.759.27-Mar-2021 3426.01 4772.53 60.33 6.00 132.23 3169.91
   07:04:45.959.27-Mar-2021 3426.01 4772.56 60.33 6.00 132.43 3169.91
   07:04:46.159.27-Mar-2021 3426.01 4772.53 60.33 6.00 132.63 3169.91
   07:04:46.359.27-Mar-2021 3426.01 4772.57 60.33 6.00 132.83 3169.91
   07:04:46.559.27-Mar-2021 3426.01 4772.58 60.33 6.00 133.03 3169.91
   07:04:46.759.27-Mar-2021 3426.01 4772.58 60.33 6.00 133.23 3169.91
   07:04:46.959.27-Mar-2021 3426.01 4772.58 60.33 6.00 133.43 3169.91
   07:04:47.159.27-Mar-2021 3426.01 4772.53 60.33 6.00 133.63 3169.91
   07:04:47.359.27-Mar-2021 3426.01 4772.56 60.33 6.00 133.83 3169.91
   07:04:47.559.27-Mar-2021 3426.01 4772.62 60.33 6.00 134.03 3169.91
   07:04:47.759.27-Mar-2021 3426.01 4772.62 60.33 6.00 134.23 3169.91
   07:04:47.960.27-Mar-2021 3426.01 4772.60 60.33 6.00 134.43 3169.91
   07:04:48.160.27-Mar-2021 3426.01 4772.36 60.33 6.00 134.63 3169.91
   07:04:48.360.27-Mar-2021 3426.01 4772.46 60.33 6.00 134.83 3169.91
   07:04:48.560.27-Mar-2021 3426.01 4772.49 60.33 6.00 135.03 3169.91
   07:04:48.760.27-Mar-2021 3426.01 4772.49 60.33 6.00 135.23 3169.91
   07:04:48.960.27-Mar-2021 3426.01 4772.47 60.33 6.00 135.43 3169.91
   07:04:49.160.27-Mar-2021 3426.01 4772.54 60.33 6.00 135.63 3169.91
   07:04:49.360.27-Mar-2021 3426.01 4772.52 60.33 6.00 135.83 3169.91
   07:04:49.560.27-Mar-2021 3426.01 4772.52 60.33 6.00 136.03 3169.91
   07:04:49.760.27-Mar-2021 3426.01 4772.52 60.33 6.00 136.23 3169.91
   07:04:49.960.27-Mar-2021 3426.01 4772.53 60.33 6.00 136.43 3169.91
   07:04:50.160.27-Mar-2021 3426.01 4772.51 60.33 6.00 136.63 3169.91
   07:04:50.360.27-Mar-2021 3426.01 4772.49 60.33 6.00 136.83 3169.91
   07:04:50.560.27-Mar-2021 3426.01 4772.46 60.33 6.00 137.03 3169.91
   07:04:50.760.27-Mar-2021 3426.01 4772.46 60.33 6.00 137.23 3169.91
   07:04:50.960.27-Mar-2021 3426.01 4772.52 60.33 6.00 137.43 3169.91
   07:04:51.160.27-Mar-2021 3426.01 4772.56 60.33 6.00 137.63 3169.91
   07:04:51.360.27-Mar-2021 3426.01 4772.55 60.33 6.00 137.83 3169.91
