~Version Information
 VERS.                  2.0:   CWLS log ASCII Standard -VERSION 2.0
 WRAP.                   NO:   One line per depth step
~Well Information Block
#MNEM.UNIT     VALUE/NAME     DESCRIPTION
#---------     -----------    ---------------------------
 STRT.S             11:05:10 27-Mar-21: START TIME 11:05:10 27-Mar-21
 STOP.S             11:12:21 27-Mar-21: STOP TIME  11:12:21 27-Mar-21
 STEP.S                   0.00: STEP TIME
 NULL.                 -999.25: NULL VALUE
 DFWT.                        :  DIST FWL TEXT
 DFST.                        :  DIST FSL TEXT
 DMF .             Drill Floor:  DRILL MEAS FROM
 STIM.      20.26.40 11-Mar-21:  START TIME
 DATE.      20.26.40 30-Mar-21:  END TIME
 SPUD.               11-Mar-21:  SPUD DATE
 NREF.                    Grid:  NORTH REFERENCE
 HPTY.       Minimum Curvature:  HOLE POS TYPE
 DMOD.             Drill Model:  DRILL MOD DESC
 SVYD.                  Survey:  SURVEY DESC
 ILTD.               Lithology:  INTERP LTH DESC
 FTOP.          Formation Tops:  FORM TOPS DESC
 SON .        AZ-XX-0906805385:  JOB NUMBER
 WTYP.                Deviated:  WELL TYPE
 COMP.     BP Exploration (Caspian Sea) Ltd.:  COMPANY
 UWI .            /AZE00000198:  UNIQUE WELL IDENTIFIER
 API .            /AZE00000198:  API NUMBER
 BASE.              Azerbaijan:  LOGGING EQUIPMENT BASE LOCATION
 REGN.                   EESSA:  REGION
 PROV.                    Baku:  PROVINCE
 STAT.                    Baku:  STATE NAME
 CTRY.              Azerbaijan:  COUNTRY NAME
 FLD .                     ACG:  FIELD NAME
 SRVC.     Turan Drilling & Engineering:  CONTRACTOR
 MWDS.                    Baku:  MWD SHOP
 WELL.                    D09z:  WELL NAME
 JOBN.        AZ-XX-0906805385:  JOB TICKET NUMB
 RIG .              East Azeri:  RIG NAME
 DOE .                     N/A:  DOE NUMBER
 DCON.         Sperry Drilling:  DIRECTNL CONTR
 UNIT.                     N/A:  LOGGING EQUIPMENT ID
 PDAT.          Mean Sea Level:  PERMANENT DATUM
 MDS .        Operator Entered:  MAG DATA SOURCE
 CNTY.                        :  COUNTY
 LOC .                        :  LOCATION
 LMF .             Drill Floor:  LOG MEASURED FROM
 TVDS.m                  43.60:  TVDSS CORRECTN
 LATI.deg                40.02:  LATITUDE
 LONG.deg                51.45:  LONGITUDE
 WHNS.m                 -17.04:  WELL HEAD N/S
 WHEW.m                  -6.28:  WELL HEAD E/W
 UTMX.m              538763.98:  UTM X
 UTMY.m             4431880.20:  UTM Y
 DFWL.m                   0.00:  DISTANCE FWL
 DFSL.m                   0.00:  DISTANCE FSL
 SDEP.m                2680.01:  START DEPTH
 TDD .m                4000.01:  TOTAL DEPTH (DRILLER)
 VSDR.deg               225.71:  VERT SEC DIRECT
 GVFD.g                   1.00:  GRAVITY FIELD
 MFLD.nT              50353.00:  MAGNETIC FIELD
 MDIP.deg                59.49:  MAGNETIC DIP
 MDEC.deg                 6.46:  MAGNETIC DECL
 GRDC.deg                 0.29:  GRID CORRECTION
 AZTC.deg                 6.17:  AZM TOTAL CORR
 EPD .m                   0.00:  ELEVATION
 EGL .m                   0.00:  GROUND ELEVATION
 WDMS.m                 151.80:  WD ELEV
 APD .m                  43.60:  DEPTH ABOVE PD
 AGAP.m                  43.60:  AIR GAP
 VSEW.m                  -6.28:  VERT SEC E/W
 VSNS.m                 -17.04:  VERT SEC N/S
 DEP .m                2656.31:  DEPTH
 EKB .m                  43.60:  KB ELEVATION
 EDF .m                  43.60:  DF ELEVATION
 VSC .                       0:  VS TO CLOSURE
 MAGU.                 1851247:  MAGUTM CHECKSUM
~Parameter Information Block
#MNEM.UNIT       Value        Description
#---------     -----------    ---------------------------
 AV  .mps                 3.00:  Ann Velocity 
 AVMX.mps                 8.00:  Max Ann Veloc 
 AZIF.deg                 0.00:  Azm, Final 
 BHAT.                   Other:  BHA Type 
 BREV.rev                 0.00:  Rev Bit Total 
 BROT.°/30m               0.00:  Build Rotating 
 BS  .in                 10.25:  Bit Size 
 BTPL.psig              511.00:  Bit Press Loss 
 CABU.                      No:  Customer Abuse 
 CGEO.           Asif Pashayev:  Customer Geo 
 COMM.                     $Ml:  Run Comments 1 
 TCS .hr                 24.03:  Time Ciculation Ended 
 CV  .mps                 3.50:  Crit Velocity 
 CVMX.mps                 4.00:  Max Crit Veloc 
 DD1 .             Aziz Aliyev:  Direct Drillr 1 
 DD2 .      Fakhraddin Guliyev:  Direct Drillr 2 
 DDSV.                   Other:  DD Service 
 DEFF.%                  99.00:  % Det Eff 
 DLRX.°/30m               0.00:  Dogleg Rot Max 
 DLSO.°/30m               0.00:  Dogleg Oriented 
 DLSX.°/30m               0.00:  Dogleg Str Max 
 DRET.      23.00.40 28-Mar-21:  Drill End Time 
 DRST.      23.30.40 25-Mar-21:  Drill Start Tim 
 DTIM.hr                  0.00:  Time Drilling 
 EDEP.m                3886.01:  End Depth 
 ENG1.         Almaz Almadatov:  Engineer 1 
 ENG2.      Artemiy Matviyanov:  Engineer 2 
 ENG3.           Samir Gafarov:  Engineer 3 
 ETIM.      23.00.40 28-Mar-21:  End Time 
 FLOI.gpm               550.00:  Flow In 
 FLON.gpm               500.00:  Flow In Min 
 FLOS.cptm                0.00:  Fluid Loss 
 FLOX.gpm               590.00:  Flow In Max 
 HFLO.                      No:  High Flow 
 HPRE.                      No:  High Pressure 
 HTEM.                      No:  High Temp 
 HYDO.m                   1.80:  Hydro Offset 
 IFIN.deg                 0.00:  Inc, Final 
 IMAX.deg                 0.00:  Inc Max 
 IMIN.deg                 0.00:  Inc Min 
 IMND.m                   0.00:  Inc Min Depth 
 IMXD.m                   0.00:  Inc Max Depth 
 JARR.                      No:  Jarring 
 LETM.      03.22.40 28-Mar-21:  Log End Time 
 LOST.hr                     0:  Lost Rig Time 
 LSTM.      23.30.40 25-Mar-21:  Log Start Time 
 MDCL.ppm             34000.00:  Mud Chlorides 
 MDES.     Inversion Oil/Synthetic:  Mud Desc 
 DFD .sg                  1.51:  Mud Density 
 MDMN.sg                  1.51:  Dens Mud Min 
 MDMX.sg                  1.51:  Dens Mud Max 
 MOIL.                      70:  Run Mud Oil % 
 MOWR.                   70:30:  Run Mud OWR 
 MSND.                     0.2:  Run Mud Sand % 
 MSOL.                   21.60:  Run Mud Solids% 
 DFV .spqt               74.00:  Mud Viscosity 
 MWOD.in                  6.75:  MWD Tool OD 
 MWSI.                      No:  Serv Intrp, MWD 
 OTIM.hr                 69.09:  Time Operating 
 PCON.           Look Like New:  Pad Condition 
 PMAX.psia             3500.00:  Press Op, Max 
 PV  .cP                 70.00:  Mud PV 
 RUN .                     400:  Run Number 
 ROPA.m/hr                0.00:  ROP Avg 
 ROPN.m/hr                0.00:  ROP Min 
 ROPX.m/hr                0.00:  ROP Max 
 RPMA.rpm                80.00:  RPM Surface Avg 
 RPMN.rpm                10.00:  RPM Surface Min 
 RPMX.rpm               100.00:  RPM Surface Max 
 RRUN.                    0400:  Rig Run Number 
 RTIM.hr                  3.00:  Time Reaming 
 SAZI.deg                 0.00:  Azm, Start 
 SDEP.m                3886.01:  Start Depth 
 SIDD.                      No:  Serv Intrp, DD 
 SINC.deg                 0.00:  Inc, Start 
 SPPA.psig             3270.00:  SPP Avg 
 SPPN.psig             3220.00:  SPP Min 
 SPPX.psig             4430.00:  SPP Max 
 STIM.      23.30.40 25-Mar-21:  Start Time 
 SVCS.                 DD, MWD:  Services 
 SVER.                    9.20:  Sperry Version 
 TDAT.m                   0.00:  Tot Depth Attmp 
 TDDF.                      No:  Trip for DD 
 TFF .                      No:  Trip for Fail 
 TQAA.f-kp                8.00:  Torque Abs Avg 
 TQAN.f-kp                7.00:  Torque Abs Min 
 TQAX.f-kp               11.00:  Torque Abs Max 
 TRRT.°/30m               0.00:  Turn Rotating 
 MRT .                  EWR-M5:  Maximum Recorded Temperature 
 TTMX.degC               76.47:  Max Tool Temp 
 VS01.                90640857:  Virtual Str1 SN 
 VS02.                90639246:  Virtual Str2 SN 
 VS03.                90642265:  Virtual Str3 SN 
 VS04.                11654497:  Virtual Str4 SN 
 WBMN.klb                 0.00:  WOB Min 
 WITN.      Kamran Keberlinkiy:  Customer Rep 
 WITN.           Murad Guliyev:  Customer Rep 2 
 WOBA.klb                 0.00:  WOB Avg 
 WOBX.klb                 0.00:  WOB Max 
 YP  .lhf2               36.00:  Yield Point 
~Curve Information Block
#MNEM.UNIT                 API CODE     Curve Description
#---------               -----------    ---------------------------
 TIME.HHMMSS            00 000 000 000:  GT Time & Date
 GTDEPTH.m              00 000 000 000:  GT Depth
 GTPQH.psia             00 000 000 000:  GT HR Quartz Pressure
 GTTQ.degC              00 000 000 000:  GT Quartz Temperature
 GTTN.NONE              00 000 000 000:  GT Test Number
 GTET.sec               00 000 000 000:  GT Elapsed Test Time
 GTTVD.m                00 000 000 000:  GT True Vertical Depth
#Other Information
#
#WARRANTY: Halliburton will use its best efforts to furnish customers with 
#accurate information and interpretations that are part of, and incident to, the services 
#provided.  However, Halliburton cannot and does not warrant the accuracy 
#or correctness of such information and interpretations.  Under no circumstances should any 
#such information or interpretation be relied upon as the sole basis for any drilling, 
#completion, production, or financial decision or any procedure involving any risk to the 
#safety of any drilling venture, drilling rig or its crew or any other third party.  The 
#Customer has full responsibility for all drilling, completion and production operation.  
#Halliburton makes no representations or warranties, either expressed or 
#implied, including, but not limited to, the implied warranties of merchantability or fitness 
#for a particular purpose, with respect to the services rendered.  In no event will 
#Halliburton be liable for failure to obtain any particular results or for 
#any damages, including, but not limited to, indirect, special or consequential damages, 
#resulting from the use of any information or interpretation provided by Halliburton.
#
~A           TIME           GTDEPTH  GTPQH  GTTQ  GTTN   GTET   GTTVD  
# ...
   11:09:41.490.27-Mar-2021 3279.01 3538.72 61.25 11.00 271.26 3032.17
   11:09:41.690.27-Mar-2021 3279.01 3539.25 61.25 11.00 271.46 3032.17
   11:09:41.890.27-Mar-2021 3279.01 3537.80 61.25 11.00 271.66 3032.17
   11:09:42.090.27-Mar-2021 3279.01 3536.37 61.25 11.00 271.86 3032.17
   11:09:42.290.27-Mar-2021 3279.01 3535.71 61.25 11.00 272.06 3032.17
   11:09:42.491.27-Mar-2021 3279.01 3535.71 61.25 11.00 272.26 3032.17
   11:09:42.691.27-Mar-2021 3279.01 3530.08 61.25 11.00 272.46 3032.17
   11:09:42.891.27-Mar-2021 3279.01 3535.03 61.25 11.00 272.66 3032.17
   11:09:43.091.27-Mar-2021 3279.01 3537.95 61.25 11.00 272.86 3032.17
   11:09:43.291.27-Mar-2021 3279.01 3535.29 61.25 11.00 273.06 3032.17
   11:09:43.491.27-Mar-2021 3279.01 3535.29 61.25 11.00 273.26 3032.17
   11:09:43.691.27-Mar-2021 3279.01 3536.56 61.24 11.00 273.46 3032.17
   11:09:43.891.27-Mar-2021 3279.01 3540.48 61.24 11.00 273.66 3032.17
   11:09:44.091.27-Mar-2021 3279.01 3540.75 61.24 11.00 273.86 3032.17
   11:09:44.291.27-Mar-2021 3279.01 3541.33 61.24 11.00 274.06 3032.17
   11:09:44.491.27-Mar-2021 3279.01 3541.33 61.24 11.00 274.26 3032.17
   11:09:44.691.27-Mar-2021 3279.01 3534.63 61.24 11.00 274.46 3032.17
   11:09:44.891.27-Mar-2021 3279.01 3533.74 61.24 11.00 274.66 3032.17
   11:09:45.091.27-Mar-2021 3279.01 3529.34 61.24 11.00 274.86 3032.17
   11:09:45.291.27-Mar-2021 3279.01 3528.14 61.24 11.00 275.06 3032.17
   11:09:45.491.27-Mar-2021 3279.01 3528.14 61.24 11.00 275.26 3032.17
   11:09:45.691.27-Mar-2021 3279.01 3532.34 61.24 11.00 275.46 3032.17
   11:09:45.891.27-Mar-2021 3279.01 3532.42 61.24 11.00 275.66 3032.17
   11:09:46.091.27-Mar-2021 3279.01 3534.40 61.24 11.00 275.86 3032.17
   11:09:46.291.27-Mar-2021 3279.01 3534.00 61.24 11.00 276.06 3032.17
   11:09:46.491.27-Mar-2021 3279.01 3534.00 61.24 11.00 276.26 3032.17
   11:09:46.691.27-Mar-2021 3279.01 3536.39 61.23 11.00 276.46 3032.17
   11:09:46.892.27-Mar-2021 3279.01 3535.72 61.23 11.00 276.66 3032.17
   11:09:47.092.27-Mar-2021 3279.01 3535.41 61.23 11.00 276.86 3032.17
   11:09:47.292.27-Mar-2021 3279.01 3535.18 61.23 11.00 277.06 3032.17
   11:09:47.492.27-Mar-2021 3279.01 3535.18 61.23 11.00 277.26 3032.17
   11:09:47.692.27-Mar-2021 3279.01 3545.53 61.23 11.00 277.46 3032.17
   11:09:47.892.27-Mar-2021 3279.01 3655.62 61.23 11.00 277.66 3032.17
   11:09:48.092.27-Mar-2021 3279.01 4004.90 61.23 11.00 277.87 3032.17
   11:09:48.292.27-Mar-2021 3279.01 4255.09 61.23 11.00 278.07 3032.17
   11:09:48.492.27-Mar-2021 3279.01 4255.09 61.23 11.00 278.27 3032.17
   11:09:48.692.27-Mar-2021 3279.01 4559.10 61.23 11.00 278.47 3032.17
   11:09:48.892.27-Mar-2021 3279.01 4635.82 61.23 11.00 278.67 3032.17
   11:09:49.092.27-Mar-2021 3279.01 4684.55 61.23 11.00 278.87 3032.17
   11:09:49.292.27-Mar-2021 3279.01 4715.54 61.23 11.00 279.07 3032.17
   11:09:49.492.27-Mar-2021 3279.01 4715.54 61.23 11.00 279.27 3032.17
   11:09:49.692.27-Mar-2021 3279.01 4749.23 61.23 11.00 279.47 3032.17
   11:09:49.892.27-Mar-2021 3279.01 4758.08 61.23 11.00 279.67 3032.17
   11:09:50.092.27-Mar-2021 3279.01 4764.60 61.23 11.00 279.87 3032.17
   11:09:50.292.27-Mar-2021 3279.01 4768.56 61.23 11.00 280.07 3032.17
   11:09:50.492.27-Mar-2021 3279.01 4768.56 61.23 11.00 280.27 3032.17
   11:09:50.692.27-Mar-2021 3279.01 4771.81 61.23 11.00 280.47 3032.17
   11:09:50.892.27-Mar-2021 3279.01 4773.74 61.23 11.00 280.67 3032.17
   11:09:51.093.27-Mar-2021 3279.01 4775.30 61.24 11.00 280.87 3032.17
   11:09:51.293.27-Mar-2021 3279.01 4776.93 61.24 11.00 281.07 3032.17
   11:09:51.493.27-Mar-2021 3279.01 4776.93 61.24 11.00 281.27 3032.17
   11:09:51.693.27-Mar-2021 3279.01 4777.84 61.24 11.00 281.47 3032.17
   11:09:51.893.27-Mar-2021 3279.01 4778.14 61.24 11.00 281.67 3032.17
   11:09:52.093.27-Mar-2021 3279.01 4778.54 61.24 11.00 281.87 3032.17
   11:09:52.293.27-Mar-2021 3279.01 4778.83 61.24 11.00 282.07 3032.17
   11:09:52.493.27-Mar-2021 3279.01 4778.83 61.24 11.00 282.27 3032.17
   11:09:52.693.27-Mar-2021 3279.01 4779.26 61.24 11.00 282.47 3032.17
   11:09:52.893.27-Mar-2021 3279.01 4779.36 61.24 11.00 282.67 3032.17
   11:09:53.093.27-Mar-2021 3279.01 4779.26 61.24 11.00 282.87 3032.17
   11:09:53.293.27-Mar-2021 3279.01 4778.87 61.24 11.00 283.07 3032.17
   11:09:53.493.27-Mar-2021 3279.01 4778.87 61.24 11.00 283.27 3032.17
   11:09:53.693.27-Mar-2021 3279.01 4779.47 61.25 11.00 283.47 3032.17
   11:09:53.893.27-Mar-2021 3279.01 4780.11 61.25 11.00 283.67 3032.17
   11:09:54.093.27-Mar-2021 3279.01 4780.89 61.25 11.00 283.87 3032.17
   11:09:54.293.27-Mar-2021 3279.01 4780.38 61.25 11.00 284.07 3032.17
   11:09:54.493.27-Mar-2021 3279.01 4780.38 61.25 11.00 284.27 3032.17
   11:09:54.693.27-Mar-2021 3279.01 4779.89 61.25 11.00 284.47 3032.17
   11:09:54.893.27-Mar-2021 3279.01 4781.32 61.25 11.00 284.67 3032.17
   11:09:55.093.27-Mar-2021 3279.01 4780.16 61.25 11.00 284.87 3032.17
   11:09:55.294.27-Mar-2021 3279.01 4780.14 61.25 11.00 285.07 3032.17
   11:09:55.494.27-Mar-2021 3279.01 4780.14 61.25 11.00 285.27 3032.17
   11:09:55.694.27-Mar-2021 3279.01 4780.58 61.25 11.00 285.47 3032.17
   11:09:55.894.27-Mar-2021 3279.01 4780.10 61.25 11.00 285.67 3032.17
   11:09:56.094.27-Mar-2021 3279.01 4781.78 61.25 11.00 285.87 3032.17
   11:09:56.294.27-Mar-2021 3279.01 4780.63 61.25 11.00 286.07 3032.17
   11:09:56.494.27-Mar-2021 3279.01 4780.63 61.25 11.00 286.27 3032.17
   11:09:56.694.27-Mar-2021 3279.01 4780.63 61.26 11.00 286.47 3032.17
   11:09:56.894.27-Mar-2021 3279.01 4780.85 61.26 11.00 286.67 3032.17
   11:09:57.094.27-Mar-2021 3279.01 4780.95 61.26 11.00 286.87 3032.17
   11:09:57.294.27-Mar-2021 3279.01 4780.50 61.26 11.00 287.07 3032.17
   11:09:57.494.27-Mar-2021 3279.01 4780.50 61.26 11.00 287.27 3032.17
   11:09:57.694.27-Mar-2021 3279.01 4781.29 61.26 11.00 287.47 3032.17
   11:09:57.894.27-Mar-2021 3279.01 4781.08 61.26 11.00 287.67 3032.17
   11:09:58.094.27-Mar-2021 3279.01 4780.88 61.26 11.00 287.87 3032.17
   11:09:58.294.27-Mar-2021 3279.01 4781.57 61.26 11.00 288.07 3032.17
   11:09:58.494.27-Mar-2021 3279.01 4781.57 61.26 11.00 288.27 3032.17
   11:09:58.694.27-Mar-2021 3279.01 4781.17 61.26 11.00 288.47 3032.17
   11:09:58.894.27-Mar-2021 3279.01 4781.22 61.26 11.00 288.67 3032.17
   11:09:59.094.27-Mar-2021 3279.01 4781.19 61.26 11.00 288.87 3032.17
   11:09:59.294.27-Mar-2021 3279.01 4781.32 61.26 11.00 289.07 3032.17
   11:09:59.494.27-Mar-2021 3279.01 4781.32 61.26 11.00 289.27 3032.17
   11:09:59.695.27-Mar-2021 3279.01 4781.44 61.26 11.00 289.47 3032.17
   11:09:59.895.27-Mar-2021 3279.01 4781.19 61.26 11.00 289.67 3032.17
   11:10:00.095.27-Mar-2021 3279.01 4780.84 61.26 11.00 289.87 3032.17
   11:10:00.295.27-Mar-2021 3279.01 4781.16 61.26 11.00 290.07 3032.17
   11:10:00.495.27-Mar-2021 3279.01 4781.16 61.26 11.00 290.27 3032.17
   11:10:00.695.27-Mar-2021 3279.01 4782.28 61.26 11.00 290.47 3032.17
   11:10:00.895.27-Mar-2021 3279.01 4781.73 61.26 11.00 290.67 3032.17
   11:10:01.095.27-Mar-2021 3279.01 4781.28 61.26 11.00 290.87 3032.17
   11:10:01.295.27-Mar-2021 3279.01 4781.28 61.26 11.00 291.07 3032.17
   11:10:01.495.27-Mar-2021 3279.01 4781.28 61.26 11.00 291.27 3032.17
   11:10:01.695.27-Mar-2021 3279.01 4781.57 61.26 11.00 291.47 3032.17
   11:10:01.895.27-Mar-2021 3279.01 4781.64 61.26 11.00 291.67 3032.17
   11:10:02.095.27-Mar-2021 3279.01 4781.56 61.26 11.00 291.87 3032.17
   11:10:02.295.27-Mar-2021 3279.01 4781.57 61.26 11.00 292.07 3032.17
   11:10:02.495.27-Mar-2021 3279.01 4781.57 61.26 11.00 292.27 3032.17
   11:10:02.695.27-Mar-2021 3279.01 4780.95 61.26 11.00 292.47 3032.17
   11:10:02.895.27-Mar-2021 3279.01 4781.31 61.26 11.00 292.67 3032.17
   11:10:03.095.27-Mar-2021 3279.01 4781.47 61.26 11.00 292.87 3032.17
   11:10:03.295.27-Mar-2021 3279.01 4782.00 61.26 11.00 293.07 3032.17
   11:10:03.495.27-Mar-2021 3279.01 4782.00 61.26 11.00 293.27 3032.17
   11:10:03.695.27-Mar-2021 3279.01 4781.46 61.26 11.00 293.47 3032.17
   11:10:03.896.27-Mar-2021 3279.01 4781.77 61.26 11.00 293.67 3032.17
