~Version Information
 VERS.                  2.0:   CWLS log ASCII Standard -VERSION 2.0
 WRAP.                   NO:   One line per depth step
~Well Information Block
#MNEM.UNIT     VALUE/NAME     DESCRIPTION
#---------     -----------    ---------------------------
 STRT.S             07:02:33 27-Mar-21: START TIME 07:02:33 27-Mar-21
 STOP.S             07:09:44 27-Mar-21: STOP TIME  07:09:44 27-Mar-21
 STEP.S                   0.00: STEP TIME
 NULL.                 -999.25: NULL VALUE
 DFWT.                        :  DIST FWL TEXT
 DFST.                        :  DIST FSL TEXT
 DMF .             Drill Floor:  DRILL MEAS FROM
 STIM.      20.26.40 11-Mar-21:  START TIME
 DATE.      20.26.40 30-Mar-21:  END TIME
 SPUD.               11-Mar-21:  SPUD DATE
 NREF.                    Grid:  NORTH REFERENCE
 HPTY.       Minimum Curvature:  HOLE POS TYPE
 DMOD.             Drill Model:  DRILL MOD DESC
 SVYD.                  Survey:  SURVEY DESC
 ILTD.               Lithology:  INTERP LTH DESC
 FTOP.          Formation Tops:  FORM TOPS DESC
 SON .        AZ-XX-0906805385:  JOB NUMBER
 WTYP.                Deviated:  WELL TYPE
 COMP.     BP Exploration (Caspian Sea) Ltd.:  COMPANY
 UWI .            /AZE00000198:  UNIQUE WELL IDENTIFIER
 API .            /AZE00000198:  API NUMBER
 BASE.              Azerbaijan:  LOGGING EQUIPMENT BASE LOCATION
 REGN.                   EESSA:  REGION
 PROV.                    Baku:  PROVINCE
 STAT.                    Baku:  STATE NAME
 CTRY.              Azerbaijan:  COUNTRY NAME
 FLD .                     ACG:  FIELD NAME
 SRVC.     Turan Drilling & Engineering:  CONTRACTOR
 MWDS.                    Baku:  MWD SHOP
 WELL.                    D09z:  WELL NAME
 JOBN.        AZ-XX-0906805385:  JOB TICKET NUMB
 RIG .              East Azeri:  RIG NAME
 DOE .                     N/A:  DOE NUMBER
 DCON.         Sperry Drilling:  DIRECTNL CONTR
 UNIT.                     N/A:  LOGGING EQUIPMENT ID
 PDAT.          Mean Sea Level:  PERMANENT DATUM
 MDS .        Operator Entered:  MAG DATA SOURCE
 CNTY.                        :  COUNTY
 LOC .                        :  LOCATION
 LMF .             Drill Floor:  LOG MEASURED FROM
 TVDS.m                  43.60:  TVDSS CORRECTN
 LATI.deg                40.02:  LATITUDE
 LONG.deg                51.45:  LONGITUDE
 WHNS.m                 -17.04:  WELL HEAD N/S
 WHEW.m                  -6.28:  WELL HEAD E/W
 UTMX.m              538763.98:  UTM X
 UTMY.m             4431880.20:  UTM Y
 DFWL.m                   0.00:  DISTANCE FWL
 DFSL.m                   0.00:  DISTANCE FSL
 SDEP.m                2680.01:  START DEPTH
 TDD .m                4000.01:  TOTAL DEPTH (DRILLER)
 VSDR.deg               225.71:  VERT SEC DIRECT
 GVFD.g                   1.00:  GRAVITY FIELD
 MFLD.nT              50353.00:  MAGNETIC FIELD
 MDIP.deg                59.49:  MAGNETIC DIP
 MDEC.deg                 6.46:  MAGNETIC DECL
 GRDC.deg                 0.29:  GRID CORRECTION
 AZTC.deg                 6.17:  AZM TOTAL CORR
 EPD .m                   0.00:  ELEVATION
 EGL .m                   0.00:  GROUND ELEVATION
 WDMS.m                 151.80:  WD ELEV
 APD .m                  43.60:  DEPTH ABOVE PD
 AGAP.m                  43.60:  AIR GAP
 VSEW.m                  -6.28:  VERT SEC E/W
 VSNS.m                 -17.04:  VERT SEC N/S
 DEP .m                2656.31:  DEPTH
 EKB .m                  43.60:  KB ELEVATION
 EDF .m                  43.60:  DF ELEVATION
 VSC .                       0:  VS TO CLOSURE
 MAGU.                 1851247:  MAGUTM CHECKSUM
~Parameter Information Block
#MNEM.UNIT       Value        Description
#---------     -----------    ---------------------------
 AV  .mps                 3.00:  Ann Velocity 
 AVMX.mps                 8.00:  Max Ann Veloc 
 AZIF.deg                 0.00:  Azm, Final 
 BHAT.                   Other:  BHA Type 
 BREV.rev                 0.00:  Rev Bit Total 
 BROT.°/30m               0.00:  Build Rotating 
 BS  .in                 10.25:  Bit Size 
 BTPL.psig              511.00:  Bit Press Loss 
 CABU.                      No:  Customer Abuse 
 CGEO.           Asif Pashayev:  Customer Geo 
 COMM.                     ¬\q:  Run Comments 1 
 TCS .hr                 24.03:  Time Ciculation Ended 
 CV  .mps                 3.50:  Crit Velocity 
 CVMX.mps                 4.00:  Max Crit Veloc 
 DD1 .             Aziz Aliyev:  Direct Drillr 1 
 DD2 .      Fakhraddin Guliyev:  Direct Drillr 2 
 DDSV.                   Other:  DD Service 
 DEFF.%                  99.00:  % Det Eff 
 DLRX.°/30m               0.00:  Dogleg Rot Max 
 DLSO.°/30m               0.00:  Dogleg Oriented 
 DLSX.°/30m               0.00:  Dogleg Str Max 
 DRET.      23.00.40 28-Mar-21:  Drill End Time 
 DRST.      23.30.40 25-Mar-21:  Drill Start Tim 
 DTIM.hr                  0.00:  Time Drilling 
 EDEP.m                3886.01:  End Depth 
 ENG1.         Almaz Almadatov:  Engineer 1 
 ENG2.      Artemiy Matviyanov:  Engineer 2 
 ENG3.           Samir Gafarov:  Engineer 3 
 ETIM.      23.00.40 28-Mar-21:  End Time 
 FLOI.gpm               550.00:  Flow In 
 FLON.gpm               500.00:  Flow In Min 
 FLOS.cptm                0.00:  Fluid Loss 
 FLOX.gpm               590.00:  Flow In Max 
 HFLO.                      No:  High Flow 
 HPRE.                      No:  High Pressure 
 HTEM.                      No:  High Temp 
 HYDO.m                   1.80:  Hydro Offset 
 IFIN.deg                 0.00:  Inc, Final 
 IMAX.deg                 0.00:  Inc Max 
 IMIN.deg                 0.00:  Inc Min 
 IMND.m                   0.00:  Inc Min Depth 
 IMXD.m                   0.00:  Inc Max Depth 
 JARR.                      No:  Jarring 
 LETM.      03.22.40 28-Mar-21:  Log End Time 
 LOST.hr                     0:  Lost Rig Time 
 LSTM.      23.30.40 25-Mar-21:  Log Start Time 
 MDCL.ppm             34000.00:  Mud Chlorides 
 MDES.     Inversion Oil/Synthetic:  Mud Desc 
 DFD .sg                  1.51:  Mud Density 
 MDMN.sg                  1.51:  Dens Mud Min 
 MDMX.sg                  1.51:  Dens Mud Max 
 MOIL.                      70:  Run Mud Oil % 
 MOWR.                   70:30:  Run Mud OWR 
 MSND.                     0.2:  Run Mud Sand % 
 MSOL.                   21.60:  Run Mud Solids% 
 DFV .spqt               74.00:  Mud Viscosity 
 MWOD.in                  6.75:  MWD Tool OD 
 MWSI.                      No:  Serv Intrp, MWD 
 OTIM.hr                 69.09:  Time Operating 
 PCON.           Look Like New:  Pad Condition 
 PMAX.psia             3500.00:  Press Op, Max 
 PV  .cP                 70.00:  Mud PV 
 RUN .                     400:  Run Number 
 ROPA.m/hr                0.00:  ROP Avg 
 ROPN.m/hr                0.00:  ROP Min 
 ROPX.m/hr                0.00:  ROP Max 
 RPMA.rpm                80.00:  RPM Surface Avg 
 RPMN.rpm                10.00:  RPM Surface Min 
 RPMX.rpm               100.00:  RPM Surface Max 
 RRUN.                    0400:  Rig Run Number 
 RTIM.hr                  3.00:  Time Reaming 
 SAZI.deg                 0.00:  Azm, Start 
 SDEP.m                3886.01:  Start Depth 
 SIDD.                      No:  Serv Intrp, DD 
 SINC.deg                 0.00:  Inc, Start 
 SPPA.psig             3270.00:  SPP Avg 
 SPPN.psig             3220.00:  SPP Min 
 SPPX.psig             4430.00:  SPP Max 
 STIM.      23.30.40 25-Mar-21:  Start Time 
 SVCS.                 DD, MWD:  Services 
 SVER.                    9.20:  Sperry Version 
 TDAT.m                   0.00:  Tot Depth Attmp 
 TDDF.                      No:  Trip for DD 
 TFF .                      No:  Trip for Fail 
 TQAA.f-kp                8.00:  Torque Abs Avg 
 TQAN.f-kp                7.00:  Torque Abs Min 
 TQAX.f-kp               11.00:  Torque Abs Max 
 TRRT.°/30m               0.00:  Turn Rotating 
 MRT .                  EWR-M5:  Maximum Recorded Temperature 
 TTMX.degC               76.47:  Max Tool Temp 
 VS01.                90640857:  Virtual Str1 SN 
 VS02.                90639246:  Virtual Str2 SN 
 VS03.                90642265:  Virtual Str3 SN 
 VS04.                11654497:  Virtual Str4 SN 
 WBMN.klb                 0.00:  WOB Min 
 WITN.      Kamran Keberlinkiy:  Customer Rep 
 WITN.           Murad Guliyev:  Customer Rep 2 
 WOBA.klb                 0.00:  WOB Avg 
 WOBX.klb                 0.00:  WOB Max 
 YP  .lhf2               36.00:  Yield Point 
~Curve Information Block
#MNEM.UNIT                 API CODE     Curve Description
#---------               -----------    ---------------------------
 TIME.HHMMSS            00 000 000 000:  GT Time & Date
 GTDEPTH.m              00 000 000 000:  GT Depth
 GTPQH.psia             00 000 000 000:  GT HR Quartz Pressure
 GTTQ.degC              00 000 000 000:  GT Quartz Temperature
 GTTN.NONE              00 000 000 000:  GT Test Number
 GTET.sec               00 000 000 000:  GT Elapsed Test Time
 GTTVD.m                00 000 000 000:  GT True Vertical Depth
#Other Information
#
#WARRANTY: Halliburton will use its best efforts to furnish customers with 
#accurate information and interpretations that are part of, and incident to, the services 
#provided.  However, Halliburton cannot and does not warrant the accuracy 
#or correctness of such information and interpretations.  Under no circumstances should any 
#such information or interpretation be relied upon as the sole basis for any drilling, 
#completion, production, or financial decision or any procedure involving any risk to the 
#safety of any drilling venture, drilling rig or its crew or any other third party.  The 
#Customer has full responsibility for all drilling, completion and production operation.  
#Halliburton makes no representations or warranties, either expressed or 
#implied, including, but not limited to, the implied warranties of merchantability or fitness 
#for a particular purpose, with respect to the services rendered.  In no event will 
#Halliburton be liable for failure to obtain any particular results or for 
#any damages, including, but not limited to, indirect, special or consequential damages, 
#resulting from the use of any information or interpretation provided by Halliburton.
#
~A           TIME           GTDEPTH  GTPQH  GTTQ  GTTN  GTET   GTTVD  
   07:02:33.526.27-Mar-2021 3426.01 7362.24 60.36 6.00   0.00 3169.91
   07:02:33.726.27-Mar-2021 3426.01 7362.24 60.36 6.00   0.20 3169.91
   07:02:33.926.27-Mar-2021 3426.01 7364.12 60.36 6.00   0.40 3169.91
   07:02:34.126.27-Mar-2021 3426.01 7363.97 60.36 6.00   0.60 3169.91
   07:02:34.326.27-Mar-2021 3426.01 7367.98 60.36 6.00   0.80 3169.91
   07:02:34.526.27-Mar-2021 3426.01 7364.34 60.36 6.00   1.00 3169.91
   07:02:34.726.27-Mar-2021 3426.01 7364.34 60.36 6.00   1.20 3169.91
   07:02:34.926.27-Mar-2021 3426.01 7364.61 60.36 6.00   1.40 3169.91
   07:02:35.126.27-Mar-2021 3426.01 7366.22 60.36 6.00   1.60 3169.91
   07:02:35.326.27-Mar-2021 3426.01 7368.44 60.36 6.00   1.80 3169.91
   07:02:35.527.27-Mar-2021 3426.01 7366.42 60.36 6.00   2.00 3169.91
   07:02:35.727.27-Mar-2021 3426.01 7366.42 60.36 6.00   2.20 3169.91
   07:02:35.927.27-Mar-2021 3426.01 7367.59 60.36 6.00   2.40 3169.91
   07:02:36.127.27-Mar-2021 3426.01 7366.98 60.36 6.00   2.60 3169.91
   07:02:36.327.27-Mar-2021 3426.01 7370.85 60.36 6.00   2.80 3169.91
   07:02:36.527.27-Mar-2021 3426.01 7367.28 60.36 6.00   3.00 3169.91
   07:02:36.727.27-Mar-2021 3426.01 7367.28 60.36 6.00   3.20 3169.91
   07:02:36.927.27-Mar-2021 3426.01 7367.53 60.36 6.00   3.40 3169.91
   07:02:37.127.27-Mar-2021 3426.01 7372.08 60.36 6.00   3.60 3169.91
   07:02:37.327.27-Mar-2021 3426.01 7368.20 60.36 6.00   3.80 3169.91
   07:02:37.527.27-Mar-2021 3426.01 7368.85 60.36 6.00   4.00 3169.91
   07:02:37.727.27-Mar-2021 3426.01 7368.85 60.36 6.00   4.20 3169.91
   07:02:37.927.27-Mar-2021 3426.01 7369.43 60.36 6.00   4.40 3169.91
   07:02:38.127.27-Mar-2021 3426.01 7369.31 60.36 6.00   4.60 3169.91
   07:02:38.327.27-Mar-2021 3426.01 7369.13 60.36 6.00   4.80 3169.91
   07:02:38.527.27-Mar-2021 3426.01 7372.70 60.36 6.00   5.00 3169.91
   07:02:38.727.27-Mar-2021 3426.01 7372.70 60.36 6.00   5.20 3169.91
   07:02:38.927.27-Mar-2021 3426.01 7370.92 60.36 6.00   5.40 3169.91
   07:02:39.127.27-Mar-2021 3426.01 7370.36 60.36 6.00   5.60 3169.91
   07:02:39.327.27-Mar-2021 3426.01 7370.82 60.36 6.00   5.80 3169.91
   07:02:39.528.27-Mar-2021 3426.01 7370.85 60.36 6.00   6.00 3169.91
   07:02:39.728.27-Mar-2021 3426.01 7370.85 60.36 6.00   6.20 3169.91
   07:02:39.928.27-Mar-2021 3426.01 7375.08 60.36 6.00   6.40 3169.91
   07:02:40.128.27-Mar-2021 3426.01 7369.96 60.36 6.00   6.60 3169.91
   07:02:40.328.27-Mar-2021 3426.01 7371.95 60.36 6.00   6.80 3169.91
   07:02:40.528.27-Mar-2021 3426.01 7372.21 60.36 6.00   7.00 3169.91
   07:02:40.728.27-Mar-2021 3426.01 7372.21 60.36 6.00   7.20 3169.91
   07:02:40.928.27-Mar-2021 3426.01 7371.75 60.36 6.00   7.40 3169.91
   07:02:41.128.27-Mar-2021 3426.01 7371.85 60.36 6.00   7.60 3169.91
   07:02:41.328.27-Mar-2021 3426.01 7371.84 60.36 6.00   7.80 3169.91
   07:02:41.528.27-Mar-2021 3426.01 7371.95 60.36 6.00   8.00 3169.91
   07:02:41.728.27-Mar-2021 3426.01 7371.95 60.36 6.00   8.20 3169.91
   07:02:41.928.27-Mar-2021 3426.01 7372.57 60.36 6.00   8.40 3169.91
   07:02:42.128.27-Mar-2021 3426.01 7372.73 60.36 6.00   8.60 3169.91
   07:02:42.328.27-Mar-2021 3426.01 7373.19 60.36 6.00   8.80 3169.91
   07:02:42.528.27-Mar-2021 3426.01 7373.24 60.36 6.00   9.00 3169.91
   07:02:42.728.27-Mar-2021 3426.01 7373.24 60.36 6.00   9.20 3169.91
   07:02:42.928.27-Mar-2021 3426.01 7373.00 60.36 6.00   9.40 3169.91
   07:02:43.128.27-Mar-2021 3426.01 7373.29 60.36 6.00   9.60 3169.91
   07:02:43.328.27-Mar-2021 3426.01 7376.93 60.36 6.00   9.80 3169.91
   07:02:43.529.27-Mar-2021 3426.01 7373.56 60.36 6.00  10.00 3169.91
   07:02:43.729.27-Mar-2021 3426.01 7373.56 60.36 6.00  10.20 3169.91
   07:02:43.929.27-Mar-2021 3426.01 7373.75 60.36 6.00  10.40 3169.91
   07:02:44.129.27-Mar-2021 3426.01 7373.60 60.36 6.00  10.60 3169.91
   07:02:44.329.27-Mar-2021 3426.01 7373.48 60.36 6.00  10.80 3169.91
   07:02:44.529.27-Mar-2021 3426.01 7373.84 60.36 6.00  11.00 3169.91
   07:02:44.729.27-Mar-2021 3426.01 7373.84 60.36 6.00  11.20 3169.91
   07:02:44.929.27-Mar-2021 3426.01 7374.30 60.36 6.00  11.40 3169.91
   07:02:45.129.27-Mar-2021 3426.01 7374.56 60.36 6.00  11.60 3169.91
   07:02:45.329.27-Mar-2021 3426.01 7374.58 60.36 6.00  11.80 3169.91
   07:02:45.529.27-Mar-2021 3426.01 7374.66 60.36 6.00  12.00 3169.91
   07:02:45.729.27-Mar-2021 3426.01 7374.66 60.36 6.00  12.20 3169.91
   07:02:45.929.27-Mar-2021 3426.01 7374.83 60.36 6.00  12.40 3169.91
   07:02:46.129.27-Mar-2021 3426.01 7375.00 60.36 6.00  12.60 3169.91
   07:02:46.329.27-Mar-2021 3426.01 7375.34 60.36 6.00  12.80 3169.91
   07:02:46.529.27-Mar-2021 3426.01 7374.76 60.36 6.00  13.00 3169.91
   07:02:46.729.27-Mar-2021 3426.01 7374.76 60.36 6.00  13.20 3169.91
   07:02:46.929.27-Mar-2021 3426.01 7374.00 60.36 6.00  13.40 3169.91
   07:02:47.129.27-Mar-2021 3426.01 7375.48 60.36 6.00  13.60 3169.91
   07:02:47.329.27-Mar-2021 3426.01 7375.77 60.36 6.00  13.80 3169.91
   07:02:47.530.27-Mar-2021 3426.01 7375.53 60.36 6.00  14.00 3169.91
   07:02:47.730.27-Mar-2021 3426.01 7375.53 60.36 6.00  14.20 3169.91
   07:02:47.930.27-Mar-2021 3426.01 7375.55 60.36 6.00  14.40 3169.91
   07:02:48.130.27-Mar-2021 3426.01 7376.47 60.36 6.00  14.60 3169.91
   07:02:48.330.27-Mar-2021 3426.01 7376.09 60.36 6.00  14.80 3169.91
   07:02:48.530.27-Mar-2021 3426.01 7380.35 60.36 6.00  15.00 3169.91
   07:02:48.730.27-Mar-2021 3426.01 7380.35 60.36 6.00  15.20 3169.91
   07:02:48.930.27-Mar-2021 3426.01 7377.18 60.36 6.00  15.40 3169.91
   07:02:49.130.27-Mar-2021 3426.01 7377.12 60.36 6.00  15.60 3169.91
   07:02:49.330.27-Mar-2021 3426.01 7382.46 60.36 6.00  15.80 3169.91
   07:02:49.530.27-Mar-2021 3426.01 7376.65 60.36 6.00  16.00 3169.91
   07:02:49.730.27-Mar-2021 3426.01 7376.65 60.36 6.00  16.20 3169.91
   07:02:49.930.27-Mar-2021 3426.01 7376.65 60.36 6.00  16.40 3169.91
   07:02:50.130.27-Mar-2021 3426.01 7378.04 60.36 6.00  16.60 3169.91
   07:02:50.330.27-Mar-2021 3426.01 7378.15 60.36 6.00  16.80 3169.91
   07:02:50.530.27-Mar-2021 3426.01 7377.62 60.36 6.00  17.00 3169.91
   07:02:50.730.27-Mar-2021 3426.01 7377.62 60.36 6.00  17.20 3169.91
   07:02:50.930.27-Mar-2021 3426.01 7377.95 60.36 6.00  17.40 3169.91
   07:02:51.130.27-Mar-2021 3426.01 7377.95 60.36 6.00  17.60 3169.91
   07:02:51.330.27-Mar-2021 3426.01 7378.61 60.36 6.00  17.80 3169.91
   07:02:51.531.27-Mar-2021 3426.01 7378.81 60.36 6.00  18.00 3169.91
   07:02:51.731.27-Mar-2021 3426.01 7378.81 60.36 6.00  18.20 3169.91
   07:02:51.931.27-Mar-2021 3426.01 7378.54 60.36 6.00  18.40 3169.91
   07:02:52.131.27-Mar-2021 3426.01 7378.38 60.36 6.00  18.60 3169.91
   07:02:52.331.27-Mar-2021 3426.01 7378.71 60.36 6.00  18.80 3169.91
   07:02:52.531.27-Mar-2021 3426.01 7379.06 60.36 6.00  19.00 3169.91
   07:02:52.731.27-Mar-2021 3426.01 7379.06 60.36 6.00  19.20 3169.91
   07:02:52.931.27-Mar-2021 3426.01 7379.30 60.36 6.00  19.40 3169.91
   07:02:53.131.27-Mar-2021 3426.01 7379.32 60.36 6.00  19.60 3169.91
   07:02:53.331.27-Mar-2021 3426.01 7379.22 60.36 6.00  19.80 3169.91
   07:02:53.531.27-Mar-2021 3426.01 7379.23 60.36 6.00  20.00 3169.91
   07:02:53.731.27-Mar-2021 3426.01 7379.23 60.36 6.00  20.21 3169.91
   07:02:53.931.27-Mar-2021 3426.01 7382.07 60.36 6.00  20.41 3169.91
   07:02:54.131.27-Mar-2021 3426.01 7380.11 60.36 6.00  20.61 3169.91
   07:02:54.331.27-Mar-2021 3426.01 7379.22 60.36 6.00  20.81 3169.91
   07:02:54.531.27-Mar-2021 3426.01 7380.33 60.36 6.00  21.01 3169.91
   07:02:54.731.27-Mar-2021 3426.01 7380.33 60.36 6.00  21.21 3169.91
   07:02:54.931.27-Mar-2021 3426.01 7379.71 60.36 6.00  21.41 3169.91
   07:02:55.131.27-Mar-2021 3426.01 7379.28 60.36 6.00  21.61 3169.91
   07:02:55.331.27-Mar-2021 3426.01 7379.67 60.36 6.00  21.81 3169.91
   07:02:55.532.27-Mar-2021 3426.01 7379.47 60.36 6.00  22.01 3169.91
   07:02:55.732.27-Mar-2021 3426.01 7379.47 60.36 6.00  22.21 3169.91
   07:02:55.932.27-Mar-2021 3426.01 7379.83 60.36 6.00  22.41 3169.91
   07:02:56.132.27-Mar-2021 3426.01 7380.11 60.36 6.00  22.61 3169.91
   07:02:56.332.27-Mar-2021 3426.01 7380.27 60.36 6.00  22.81 3169.91
