~Version Information
 VERS.                  2.0:   CWLS log ASCII Standard -VERSION 2.0
 WRAP.                   NO:   One line per depth step
~Well Information Block
#MNEM.UNIT     VALUE/NAME     DESCRIPTION
#---------     -----------    ---------------------------
 STRT.S             01:51:11 27-Mar-21: START TIME 01:51:11 27-Mar-21
 STOP.S             01:58:18 27-Mar-21: STOP TIME  01:58:18 27-Mar-21
 STEP.S                   0.00: STEP TIME
 NULL.                 -999.25: NULL VALUE
 DFWT.                        :  DIST FWL TEXT
 DFST.                        :  DIST FSL TEXT
 DMF .             Drill Floor:  DRILL MEAS FROM
 STIM.      20.26.40 11-Mar-21:  START TIME
 DATE.      20.26.40 30-Mar-21:  END TIME
 SPUD.               11-Mar-21:  SPUD DATE
 NREF.                    Grid:  NORTH REFERENCE
 HPTY.       Minimum Curvature:  HOLE POS TYPE
 DMOD.             Drill Model:  DRILL MOD DESC
 SVYD.                  Survey:  SURVEY DESC
 ILTD.               Lithology:  INTERP LTH DESC
 FTOP.          Formation Tops:  FORM TOPS DESC
 SON .        AZ-XX-0906805385:  JOB NUMBER
 WTYP.                Deviated:  WELL TYPE
 COMP.     BP Exploration (Caspian Sea) Ltd.:  COMPANY
 UWI .            /AZE00000198:  UNIQUE WELL IDENTIFIER
 API .            /AZE00000198:  API NUMBER
 BASE.              Azerbaijan:  LOGGING EQUIPMENT BASE LOCATION
 REGN.                   EESSA:  REGION
 PROV.                    Baku:  PROVINCE
 STAT.                    Baku:  STATE NAME
 CTRY.              Azerbaijan:  COUNTRY NAME
 FLD .                     ACG:  FIELD NAME
 SRVC.     Turan Drilling & Engineering:  CONTRACTOR
 MWDS.                    Baku:  MWD SHOP
 WELL.                    D09z:  WELL NAME
 JOBN.        AZ-XX-0906805385:  JOB TICKET NUMB
 RIG .              East Azeri:  RIG NAME
 DOE .                     N/A:  DOE NUMBER
 DCON.         Sperry Drilling:  DIRECTNL CONTR
 UNIT.                     N/A:  LOGGING EQUIPMENT ID
 PDAT.          Mean Sea Level:  PERMANENT DATUM
 MDS .        Operator Entered:  MAG DATA SOURCE
 CNTY.                        :  COUNTY
 LOC .                        :  LOCATION
 LMF .             Drill Floor:  LOG MEASURED FROM
 TVDS.m                  43.60:  TVDSS CORRECTN
 LATI.deg                40.02:  LATITUDE
 LONG.deg                51.45:  LONGITUDE
 WHNS.m                 -17.04:  WELL HEAD N/S
 WHEW.m                  -6.28:  WELL HEAD E/W
 UTMX.m              538763.98:  UTM X
 UTMY.m             4431880.20:  UTM Y
 DFWL.m                   0.00:  DISTANCE FWL
 DFSL.m                   0.00:  DISTANCE FSL
 SDEP.m                2680.01:  START DEPTH
 TDD .m                4000.01:  TOTAL DEPTH (DRILLER)
 VSDR.deg               225.71:  VERT SEC DIRECT
 GVFD.g                   1.00:  GRAVITY FIELD
 MFLD.nT              50353.00:  MAGNETIC FIELD
 MDIP.deg                59.49:  MAGNETIC DIP
 MDEC.deg                 6.46:  MAGNETIC DECL
 GRDC.deg                 0.29:  GRID CORRECTION
 AZTC.deg                 6.17:  AZM TOTAL CORR
 EPD .m                   0.00:  ELEVATION
 EGL .m                   0.00:  GROUND ELEVATION
 WDMS.m                 151.80:  WD ELEV
 APD .m                  43.60:  DEPTH ABOVE PD
 AGAP.m                  43.60:  AIR GAP
 VSEW.m                  -6.28:  VERT SEC E/W
 VSNS.m                 -17.04:  VERT SEC N/S
 DEP .m                2656.31:  DEPTH
 EKB .m                  43.60:  KB ELEVATION
 EDF .m                  43.60:  DF ELEVATION
 VSC .                       0:  VS TO CLOSURE
 MAGU.                 1851247:  MAGUTM CHECKSUM
~Parameter Information Block
#MNEM.UNIT       Value        Description
#---------     -----------    ---------------------------
 AV  .mps                 3.00:  Ann Velocity 
 AVMX.mps                 8.00:  Max Ann Veloc 
 AZIF.deg                 0.00:  Azm, Final 
 BHAT.                   Other:  BHA Type 
 BREV.rev                 0.00:  Rev Bit Total 
 BROT.°/30m               0.00:  Build Rotating 
 BS  .in                 10.25:  Bit Size 
 BTPL.psig              511.00:  Bit Press Loss 
 CABU.                      No:  Customer Abuse 
 CGEO.           Asif Pashayev:  Customer Geo 
 COMM.                     |ºg:  Run Comments 1 
 TCS .hr                 24.03:  Time Ciculation Ended 
 CV  .mps                 3.50:  Crit Velocity 
 CVMX.mps                 4.00:  Max Crit Veloc 
 DD1 .             Aziz Aliyev:  Direct Drillr 1 
 DD2 .      Fakhraddin Guliyev:  Direct Drillr 2 
 DDSV.                   Other:  DD Service 
 DEFF.%                  99.00:  % Det Eff 
 DLRX.°/30m               0.00:  Dogleg Rot Max 
 DLSO.°/30m               0.00:  Dogleg Oriented 
 DLSX.°/30m               0.00:  Dogleg Str Max 
 DRET.      23.00.40 28-Mar-21:  Drill End Time 
 DRST.      23.30.40 25-Mar-21:  Drill Start Tim 
 DTIM.hr                  0.00:  Time Drilling 
 EDEP.m                3886.01:  End Depth 
 ENG1.         Almaz Almadatov:  Engineer 1 
 ENG2.      Artemiy Matviyanov:  Engineer 2 
 ENG3.           Samir Gafarov:  Engineer 3 
 ETIM.      23.00.40 28-Mar-21:  End Time 
 FLOI.gpm               550.00:  Flow In 
 FLON.gpm               500.00:  Flow In Min 
 FLOS.cptm                0.00:  Fluid Loss 
 FLOX.gpm               590.00:  Flow In Max 
 HFLO.                      No:  High Flow 
 HPRE.                      No:  High Pressure 
 HTEM.                      No:  High Temp 
 HYDO.m                   1.80:  Hydro Offset 
 IFIN.deg                 0.00:  Inc, Final 
 IMAX.deg                 0.00:  Inc Max 
 IMIN.deg                 0.00:  Inc Min 
 IMND.m                   0.00:  Inc Min Depth 
 IMXD.m                   0.00:  Inc Max Depth 
 JARR.                      No:  Jarring 
 LETM.      03.22.40 28-Mar-21:  Log End Time 
 LOST.hr                     0:  Lost Rig Time 
 LSTM.      23.30.40 25-Mar-21:  Log Start Time 
 MDCL.ppm             34000.00:  Mud Chlorides 
 MDES.     Inversion Oil/Synthetic:  Mud Desc 
 DFD .sg                  1.51:  Mud Density 
 MDMN.sg                  1.51:  Dens Mud Min 
 MDMX.sg                  1.51:  Dens Mud Max 
 MOIL.                      70:  Run Mud Oil % 
 MOWR.                   70:30:  Run Mud OWR 
 MSND.                     0.2:  Run Mud Sand % 
 MSOL.                   21.60:  Run Mud Solids% 
 DFV .spqt               74.00:  Mud Viscosity 
 MWOD.in                  6.75:  MWD Tool OD 
 MWSI.                      No:  Serv Intrp, MWD 
 OTIM.hr                 69.09:  Time Operating 
 PCON.           Look Like New:  Pad Condition 
 PMAX.psia             3500.00:  Press Op, Max 
 PV  .cP                 70.00:  Mud PV 
 RUN .                     400:  Run Number 
 ROPA.m/hr                0.00:  ROP Avg 
 ROPN.m/hr                0.00:  ROP Min 
 ROPX.m/hr                0.00:  ROP Max 
 RPMA.rpm                80.00:  RPM Surface Avg 
 RPMN.rpm                10.00:  RPM Surface Min 
 RPMX.rpm               100.00:  RPM Surface Max 
 RRUN.                    0400:  Rig Run Number 
 RTIM.hr                  3.00:  Time Reaming 
 SAZI.deg                 0.00:  Azm, Start 
 SDEP.m                3886.01:  Start Depth 
 SIDD.                      No:  Serv Intrp, DD 
 SINC.deg                 0.00:  Inc, Start 
 SPPA.psig             3270.00:  SPP Avg 
 SPPN.psig             3220.00:  SPP Min 
 SPPX.psig             4430.00:  SPP Max 
 STIM.      23.30.40 25-Mar-21:  Start Time 
 SVCS.                 DD, MWD:  Services 
 SVER.                    9.20:  Sperry Version 
 TDAT.m                   0.00:  Tot Depth Attmp 
 TDDF.                      No:  Trip for DD 
 TFF .                      No:  Trip for Fail 
 TQAA.f-kp                8.00:  Torque Abs Avg 
 TQAN.f-kp                7.00:  Torque Abs Min 
 TQAX.f-kp               11.00:  Torque Abs Max 
 TRRT.°/30m               0.00:  Turn Rotating 
 MRT .                  EWR-M5:  Maximum Recorded Temperature 
 TTMX.degC               76.47:  Max Tool Temp 
 VS01.                90640857:  Virtual Str1 SN 
 VS02.                90639246:  Virtual Str2 SN 
 VS03.                90642265:  Virtual Str3 SN 
 VS04.                11654497:  Virtual Str4 SN 
 WBMN.klb                 0.00:  WOB Min 
 WITN.      Kamran Keberlinkiy:  Customer Rep 
 WITN.           Murad Guliyev:  Customer Rep 2 
 WOBA.klb                 0.00:  WOB Avg 
 WOBX.klb                 0.00:  WOB Max 
 YP  .lhf2               36.00:  Yield Point 
~Curve Information Block
#MNEM.UNIT                 API CODE     Curve Description
#---------               -----------    ---------------------------
 TIME.HHMMSS            00 000 000 000:  GT Time & Date
 GTDEPTH.m              00 000 000 000:  GT Depth
 GTPQH.psia             00 000 000 000:  GT HR Quartz Pressure
 GTTQ.degC              00 000 000 000:  GT Quartz Temperature
 GTTN.NONE              00 000 000 000:  GT Test Number
 GTET.sec               00 000 000 000:  GT Elapsed Test Time
 GTTVD.m                00 000 000 000:  GT True Vertical Depth
#Other Information
#
#WARRANTY: Halliburton will use its best efforts to furnish customers with 
#accurate information and interpretations that are part of, and incident to, the services 
#provided.  However, Halliburton cannot and does not warrant the accuracy 
#or correctness of such information and interpretations.  Under no circumstances should any 
#such information or interpretation be relied upon as the sole basis for any drilling, 
#completion, production, or financial decision or any procedure involving any risk to the 
#safety of any drilling venture, drilling rig or its crew or any other third party.  The 
#Customer has full responsibility for all drilling, completion and production operation.  
#Halliburton makes no representations or warranties, either expressed or 
#implied, including, but not limited to, the implied warranties of merchantability or fitness 
#for a particular purpose, with respect to the services rendered.  In no event will 
#Halliburton be liable for failure to obtain any particular results or for 
#any damages, including, but not limited to, indirect, special or consequential damages, 
#resulting from the use of any information or interpretation provided by Halliburton.
#
~A           TIME           GTDEPTH  GTPQH  GTTQ  GTTN  GTET   GTTVD  
# ...
   01:57:42.721.27-Mar-2021 3763.51 8097.19 60.09 1.00 391.08 3487.00
   01:57:42.921.27-Mar-2021 3763.51 8097.19 60.09 1.00 391.28 3487.00
   01:57:43.121.27-Mar-2021 3763.51 8096.32 60.09 1.00 391.48 3487.00
   01:57:43.322.27-Mar-2021 3763.51 8101.40 60.09 1.00 391.68 3487.00
   01:57:43.522.27-Mar-2021 3763.51 8095.65 60.09 1.00 391.88 3487.00
   01:57:43.722.27-Mar-2021 3763.51 8096.57 60.09 1.00 392.08 3487.00
   01:57:43.922.27-Mar-2021 3763.51 8096.57 60.09 1.00 392.28 3487.00
   01:57:44.122.27-Mar-2021 3763.51 8095.80 60.09 1.00 392.48 3487.00
   01:57:44.322.27-Mar-2021 3763.51 8095.80 60.09 1.00 392.68 3487.00
   01:57:44.522.27-Mar-2021 3763.51 8100.23 60.09 1.00 392.88 3487.00
   01:57:44.722.27-Mar-2021 3763.51 8099.28 60.09 1.00 393.08 3487.00
   01:57:44.922.27-Mar-2021 3763.51 8099.28 60.09 1.00 393.28 3487.00
   01:57:45.122.27-Mar-2021 3763.51 8096.94 60.08 1.00 393.48 3487.00
   01:57:45.322.27-Mar-2021 3763.51 8096.66 60.08 1.00 393.68 3487.00
   01:57:45.522.27-Mar-2021 3763.51 8096.26 60.08 1.00 393.88 3487.00
   01:57:45.722.27-Mar-2021 3763.51 8102.17 60.08 1.00 394.08 3487.00
   01:57:45.922.27-Mar-2021 3763.51 8102.17 60.08 1.00 394.28 3487.00
   01:57:46.122.27-Mar-2021 3763.51 8098.51 60.08 1.00 394.48 3487.00
   01:57:46.322.27-Mar-2021 3763.51 8097.20 60.08 1.00 394.68 3487.00
   01:57:46.522.27-Mar-2021 3763.51 8097.18 60.08 1.00 394.88 3487.00
   01:57:46.722.27-Mar-2021 3763.51 8096.27 60.08 1.00 395.08 3487.00
   01:57:46.922.27-Mar-2021 3763.51 8096.27 60.08 1.00 395.28 3487.00
   01:57:47.122.27-Mar-2021 3763.51 8096.83 60.08 1.00 395.48 3487.00
   01:57:47.322.27-Mar-2021 3763.51 8096.52 60.08 1.00 395.68 3487.00
   01:57:47.522.27-Mar-2021 3763.51 8096.16 60.08 1.00 395.88 3487.00
   01:57:47.722.27-Mar-2021 3763.51 8096.24 60.08 1.00 396.08 3487.00
   01:57:47.922.27-Mar-2021 3763.51 8096.24 60.08 1.00 396.28 3487.00
   01:57:48.123.27-Mar-2021 3763.51 8096.58 60.08 1.00 396.48 3487.00
   01:57:48.323.27-Mar-2021 3763.51 8096.92 60.08 1.00 396.68 3487.00
   01:57:48.523.27-Mar-2021 3763.51 8097.35 60.08 1.00 396.88 3487.00
   01:57:48.723.27-Mar-2021 3763.51 8096.86 60.08 1.00 397.08 3487.00
   01:57:48.923.27-Mar-2021 3763.51 8096.86 60.08 1.00 397.28 3487.00
   01:57:49.123.27-Mar-2021 3763.51 8096.86 60.08 1.00 397.48 3487.00
   01:57:49.323.27-Mar-2021 3763.51 8098.79 60.08 1.00 397.68 3487.00
   01:57:49.523.27-Mar-2021 3763.51 8096.58 60.08 1.00 397.88 3487.00
   01:57:49.723.27-Mar-2021 3763.51 8096.45 60.08 1.00 398.08 3487.00
   01:57:49.923.27-Mar-2021 3763.51 8096.45 60.08 1.00 398.28 3487.00
   01:57:50.123.27-Mar-2021 3763.51 8095.83 60.08 1.00 398.48 3487.00
   01:57:50.323.27-Mar-2021 3763.51 8095.56 60.08 1.00 398.68 3487.00
   01:57:50.523.27-Mar-2021 3763.51 8095.93 60.08 1.00 398.88 3487.00
   01:57:50.723.27-Mar-2021 3763.51 8096.01 60.08 1.00 399.08 3487.00
   01:57:50.923.27-Mar-2021 3763.51 8096.01 60.08 1.00 399.28 3487.00
   01:57:51.123.27-Mar-2021 3763.51 8095.98 60.08 1.00 399.48 3487.00
   01:57:51.323.27-Mar-2021 3763.51 8095.86 60.08 1.00 399.68 3487.00
   01:57:51.523.27-Mar-2021 3763.51 8096.08 60.08 1.00 399.88 3487.00
   01:57:51.723.27-Mar-2021 3763.51 8096.75 60.08 1.00 400.08 3487.00
   01:57:51.923.27-Mar-2021 3763.51 8096.75 60.08 1.00 400.28 3487.00
   01:57:52.123.27-Mar-2021 3763.51 8098.50 60.08 1.00 400.48 3487.00
   01:57:52.323.27-Mar-2021 3763.51 8096.87 60.08 1.00 400.68 3487.00
   01:57:52.523.27-Mar-2021 3763.51 8096.83 60.08 1.00 400.88 3487.00
   01:57:52.723.27-Mar-2021 3763.51 8095.75 60.08 1.00 401.08 3487.00
   01:57:52.924.27-Mar-2021 3763.51 8095.75 60.08 1.00 401.28 3487.00
   01:57:53.124.27-Mar-2021 3763.51 8099.10 60.08 1.00 401.48 3487.00
   01:57:53.324.27-Mar-2021 3763.51 8096.38 60.08 1.00 401.68 3487.00
   01:57:53.524.27-Mar-2021 3763.51 8097.13 60.08 1.00 401.88 3487.00
   01:57:53.724.27-Mar-2021 3763.51 8095.97 60.08 1.00 402.08 3487.00
   01:57:53.924.27-Mar-2021 3763.51 8095.97 60.08 1.00 402.28 3487.00
   01:57:54.124.27-Mar-2021 3763.51 8095.76 60.08 1.00 402.48 3487.00
   01:57:54.324.27-Mar-2021 3763.51 8101.78 60.08 1.00 402.68 3487.00
   01:57:54.524.27-Mar-2021 3763.51 8096.58 60.08 1.00 402.88 3487.00
   01:57:54.724.27-Mar-2021 3763.51 8098.27 60.08 1.00 403.08 3487.00
   01:57:54.924.27-Mar-2021 3763.51 8098.27 60.08 1.00 403.28 3487.00
   01:57:55.124.27-Mar-2021 3763.51 8096.93 60.08 1.00 403.48 3487.00
   01:57:55.324.27-Mar-2021 3763.51 8096.26 60.08 1.00 403.68 3487.00
   01:57:55.524.27-Mar-2021 3763.51 8099.63 60.08 1.00 403.88 3487.00
   01:57:55.724.27-Mar-2021 3763.51 8097.74 60.08 1.00 404.08 3487.00
   01:57:55.924.27-Mar-2021 3763.51 8097.74 60.08 1.00 404.28 3487.00
   01:57:56.124.27-Mar-2021 3763.51 8097.43 60.08 1.00 404.48 3487.00
   01:57:56.324.27-Mar-2021 3763.51 8097.15 60.08 1.00 404.68 3487.00
   01:57:56.524.27-Mar-2021 3763.51 8096.18 60.08 1.00 404.88 3487.00
   01:57:56.724.27-Mar-2021 3763.51 8096.28 60.08 1.00 405.08 3487.00
   01:57:56.924.27-Mar-2021 3763.51 8096.28 60.08 1.00 405.28 3487.00
   01:57:57.124.27-Mar-2021 3763.51 8096.75 60.08 1.00 405.48 3487.00
   01:57:57.324.27-Mar-2021 3763.51 8096.15 60.08 1.00 405.68 3487.00
   01:57:57.524.27-Mar-2021 3763.51 8096.11 60.08 1.00 405.88 3487.00
   01:57:57.724.27-Mar-2021 3763.51 8095.99 60.08 1.00 406.08 3487.00
   01:57:57.925.27-Mar-2021 3763.51 8095.99 60.08 1.00 406.28 3487.00
   01:57:58.125.27-Mar-2021 3763.51 8096.94 60.08 1.00 406.48 3487.00
   01:57:58.325.27-Mar-2021 3763.51 8097.29 60.08 1.00 406.68 3487.00
   01:57:58.525.27-Mar-2021 3763.51 8097.08 60.08 1.00 406.88 3487.00
   01:57:58.725.27-Mar-2021 3763.51 8096.85 60.08 1.00 407.08 3487.00
   01:57:58.925.27-Mar-2021 3763.51 8096.85 60.08 1.00 407.28 3487.00
   01:57:59.125.27-Mar-2021 3763.51 8096.04 60.08 1.00 407.48 3487.00
   01:57:59.325.27-Mar-2021 3763.51 8097.09 60.08 1.00 407.68 3487.00
   01:57:59.525.27-Mar-2021 3763.51 8096.40 60.08 1.00 407.88 3487.00
   01:57:59.725.27-Mar-2021 3763.51 8096.53 60.08 1.00 408.08 3487.00
   01:57:59.925.27-Mar-2021 3763.51 8096.53 60.08 1.00 408.28 3487.00
   01:58:00.125.27-Mar-2021 3763.51 8095.68 60.08 1.00 408.48 3487.00
   01:58:00.325.27-Mar-2021 3763.51 8095.42 60.08 1.00 408.68 3487.00
   01:58:00.525.27-Mar-2021 3763.51 8095.46 60.08 1.00 408.88 3487.00
   01:58:00.725.27-Mar-2021 3763.51 8095.44 60.08 1.00 409.08 3487.00
   01:58:00.925.27-Mar-2021 3763.51 8095.44 60.08 1.00 409.28 3487.00
   01:58:01.125.27-Mar-2021 3763.51 8095.61 60.08 1.00 409.48 3487.00
   01:58:01.325.27-Mar-2021 3763.51 8095.60 60.08 1.00 409.68 3487.00
   01:58:01.525.27-Mar-2021 3763.51 8096.22 60.08 1.00 409.88 3487.00
   01:58:01.725.27-Mar-2021 3763.51 8100.16 60.08 1.00 410.08 3487.00
   01:58:01.925.27-Mar-2021 3763.51 8100.16 60.08 1.00 410.28 3487.00
   01:58:02.125.27-Mar-2021 3763.51 8096.65 60.08 1.00 410.48 3487.00
   01:58:02.325.27-Mar-2021 3763.51 8096.54 60.07 1.00 410.69 3487.00
   01:58:02.525.27-Mar-2021 3763.51 8095.77 60.08 1.00 410.89 3487.00
   01:58:02.726.27-Mar-2021 3763.51 8095.35 60.07 1.00 411.09 3487.00
   01:58:02.926.27-Mar-2021 3763.51 8095.35 60.07 1.00 411.29 3487.00
   01:58:03.126.27-Mar-2021 3763.51 8099.21 60.07 1.00 411.49 3487.00
   01:58:03.326.27-Mar-2021 3763.51 8097.74 60.07 1.00 411.69 3487.00
   01:58:03.526.27-Mar-2021 3763.51 8095.64 60.07 1.00 411.89 3487.00
   01:58:03.726.27-Mar-2021 3763.51 8095.62 60.07 1.00 412.09 3487.00
   01:58:03.926.27-Mar-2021 3763.51 8095.62 60.07 1.00 412.29 3487.00
   01:58:04.126.27-Mar-2021 3763.51 8098.10 60.07 1.00 412.49 3487.00
   01:58:04.326.27-Mar-2021 3763.51 8097.15 60.07 1.00 412.69 3487.00
   01:58:04.526.27-Mar-2021 3763.51 8097.46 60.07 1.00 412.89 3487.00
   01:58:04.726.27-Mar-2021 3763.51 8096.40 60.07 1.00 413.09 3487.00
   01:58:04.926.27-Mar-2021 3763.51 8096.40 60.07 1.00 413.29 3487.00
   01:58:05.126.27-Mar-2021 3763.51 8099.23 60.07 1.00 413.49 3487.00
   01:58:05.326.27-Mar-2021 3763.51 8096.75 60.07 1.00 413.69 3487.00
   01:58:05.526.27-Mar-2021 3763.51 8098.39 60.07 1.00 413.89 3487.00
