~Version Information
 VERS.                  2.0:   CWLS log ASCII Standard -VERSION 2.0
 WRAP.                   NO:   One line per depth step
~Well Information Block
#MNEM.UNIT     VALUE/NAME     DESCRIPTION
#---------     -----------    ---------------------------
 STRT.S             11:05:10 27-Mar-21: START TIME 11:05:10 27-Mar-21
 STOP.S             11:12:21 27-Mar-21: STOP TIME  11:12:21 27-Mar-21
 STEP.S                   0.00: STEP TIME
 NULL.                 -999.25: NULL VALUE
 DFWT.                        :  DIST FWL TEXT
 DFST.                        :  DIST FSL TEXT
 DMF .             Drill Floor:  DRILL MEAS FROM
 STIM.      20.26.40 11-Mar-21:  START TIME
 DATE.      20.26.40 30-Mar-21:  END TIME
 SPUD.               11-Mar-21:  SPUD DATE
 NREF.                    Grid:  NORTH REFERENCE
 HPTY.       Minimum Curvature:  HOLE POS TYPE
 DMOD.             Drill Model:  DRILL MOD DESC
 SVYD.                  Survey:  SURVEY DESC
 ILTD.               Lithology:  INTERP LTH DESC
 FTOP.          Formation Tops:  FORM TOPS DESC
 SON .        AZ-XX-0906805385:  JOB NUMBER
 WTYP.                Deviated:  WELL TYPE
 COMP.     BP Exploration (Caspian Sea) Ltd.:  COMPANY
 UWI .            /AZE00000198:  UNIQUE WELL IDENTIFIER
 API .            /AZE00000198:  API NUMBER
 BASE.              Azerbaijan:  LOGGING EQUIPMENT BASE LOCATION
 REGN.                   EESSA:  REGION
 PROV.                    Baku:  PROVINCE
 STAT.                    Baku:  STATE NAME
 CTRY.              Azerbaijan:  COUNTRY NAME
 FLD .                     ACG:  FIELD NAME
 SRVC.     Turan Drilling & Engineering:  CONTRACTOR
 MWDS.                    Baku:  MWD SHOP
 WELL.                    D09z:  WELL NAME
 JOBN.        AZ-XX-0906805385:  JOB TICKET NUMB
 RIG .              East Azeri:  RIG NAME
 DOE .                     N/A:  DOE NUMBER
 DCON.         Sperry Drilling:  DIRECTNL CONTR
 UNIT.                     N/A:  LOGGING EQUIPMENT ID
 PDAT.          Mean Sea Level:  PERMANENT DATUM
 MDS .        Operator Entered:  MAG DATA SOURCE
 CNTY.                        :  COUNTY
 LOC .                        :  LOCATION
 LMF .             Drill Floor:  LOG MEASURED FROM
 TVDS.m                  43.60:  TVDSS CORRECTN
 LATI.deg                40.02:  LATITUDE
 LONG.deg                51.45:  LONGITUDE
 WHNS.m                 -17.04:  WELL HEAD N/S
 WHEW.m                  -6.28:  WELL HEAD E/W
 UTMX.m              538763.98:  UTM X
 UTMY.m             4431880.20:  UTM Y
 DFWL.m                   0.00:  DISTANCE FWL
 DFSL.m                   0.00:  DISTANCE FSL
 SDEP.m                2680.01:  START DEPTH
 TDD .m                4000.01:  TOTAL DEPTH (DRILLER)
 VSDR.deg               225.71:  VERT SEC DIRECT
 GVFD.g                   1.00:  GRAVITY FIELD
 MFLD.nT              50353.00:  MAGNETIC FIELD
 MDIP.deg                59.49:  MAGNETIC DIP
 MDEC.deg                 6.46:  MAGNETIC DECL
 GRDC.deg                 0.29:  GRID CORRECTION
 AZTC.deg                 6.17:  AZM TOTAL CORR
 EPD .m                   0.00:  ELEVATION
 EGL .m                   0.00:  GROUND ELEVATION
 WDMS.m                 151.80:  WD ELEV
 APD .m                  43.60:  DEPTH ABOVE PD
 AGAP.m                  43.60:  AIR GAP
 VSEW.m                  -6.28:  VERT SEC E/W
 VSNS.m                 -17.04:  VERT SEC N/S
 DEP .m                2656.31:  DEPTH
 EKB .m                  43.60:  KB ELEVATION
 EDF .m                  43.60:  DF ELEVATION
 VSC .                       0:  VS TO CLOSURE
 MAGU.                 1851247:  MAGUTM CHECKSUM
~Parameter Information Block
#MNEM.UNIT       Value        Description
#---------     -----------    ---------------------------
 AV  .mps                 3.00:  Ann Velocity 
 AVMX.mps                 8.00:  Max Ann Veloc 
 AZIF.deg                 0.00:  Azm, Final 
 BHAT.                   Other:  BHA Type 
 BREV.rev                 0.00:  Rev Bit Total 
 BROT.°/30m               0.00:  Build Rotating 
 BS  .in                 10.25:  Bit Size 
 BTPL.psig              511.00:  Bit Press Loss 
 CABU.                      No:  Customer Abuse 
 CGEO.           Asif Pashayev:  Customer Geo 
 COMM.                     $Ml:  Run Comments 1 
 TCS .hr                 24.03:  Time Ciculation Ended 
 CV  .mps                 3.50:  Crit Velocity 
 CVMX.mps                 4.00:  Max Crit Veloc 
 DD1 .             Aziz Aliyev:  Direct Drillr 1 
 DD2 .      Fakhraddin Guliyev:  Direct Drillr 2 
 DDSV.                   Other:  DD Service 
 DEFF.%                  99.00:  % Det Eff 
 DLRX.°/30m               0.00:  Dogleg Rot Max 
 DLSO.°/30m               0.00:  Dogleg Oriented 
 DLSX.°/30m               0.00:  Dogleg Str Max 
 DRET.      23.00.40 28-Mar-21:  Drill End Time 
 DRST.      23.30.40 25-Mar-21:  Drill Start Tim 
 DTIM.hr                  0.00:  Time Drilling 
 EDEP.m                3886.01:  End Depth 
 ENG1.         Almaz Almadatov:  Engineer 1 
 ENG2.      Artemiy Matviyanov:  Engineer 2 
 ENG3.           Samir Gafarov:  Engineer 3 
 ETIM.      23.00.40 28-Mar-21:  End Time 
 FLOI.gpm               550.00:  Flow In 
 FLON.gpm               500.00:  Flow In Min 
 FLOS.cptm                0.00:  Fluid Loss 
 FLOX.gpm               590.00:  Flow In Max 
 HFLO.                      No:  High Flow 
 HPRE.                      No:  High Pressure 
 HTEM.                      No:  High Temp 
 HYDO.m                   1.80:  Hydro Offset 
 IFIN.deg                 0.00:  Inc, Final 
 IMAX.deg                 0.00:  Inc Max 
 IMIN.deg                 0.00:  Inc Min 
 IMND.m                   0.00:  Inc Min Depth 
 IMXD.m                   0.00:  Inc Max Depth 
 JARR.                      No:  Jarring 
 LETM.      03.22.40 28-Mar-21:  Log End Time 
 LOST.hr                     0:  Lost Rig Time 
 LSTM.      23.30.40 25-Mar-21:  Log Start Time 
 MDCL.ppm             34000.00:  Mud Chlorides 
 MDES.     Inversion Oil/Synthetic:  Mud Desc 
 DFD .sg                  1.51:  Mud Density 
 MDMN.sg                  1.51:  Dens Mud Min 
 MDMX.sg                  1.51:  Dens Mud Max 
 MOIL.                      70:  Run Mud Oil % 
 MOWR.                   70:30:  Run Mud OWR 
 MSND.                     0.2:  Run Mud Sand % 
 MSOL.                   21.60:  Run Mud Solids% 
 DFV .spqt               74.00:  Mud Viscosity 
 MWOD.in                  6.75:  MWD Tool OD 
 MWSI.                      No:  Serv Intrp, MWD 
 OTIM.hr                 69.09:  Time Operating 
 PCON.           Look Like New:  Pad Condition 
 PMAX.psia             3500.00:  Press Op, Max 
 PV  .cP                 70.00:  Mud PV 
 RUN .                     400:  Run Number 
 ROPA.m/hr                0.00:  ROP Avg 
 ROPN.m/hr                0.00:  ROP Min 
 ROPX.m/hr                0.00:  ROP Max 
 RPMA.rpm                80.00:  RPM Surface Avg 
 RPMN.rpm                10.00:  RPM Surface Min 
 RPMX.rpm               100.00:  RPM Surface Max 
 RRUN.                    0400:  Rig Run Number 
 RTIM.hr                  3.00:  Time Reaming 
 SAZI.deg                 0.00:  Azm, Start 
 SDEP.m                3886.01:  Start Depth 
 SIDD.                      No:  Serv Intrp, DD 
 SINC.deg                 0.00:  Inc, Start 
 SPPA.psig             3270.00:  SPP Avg 
 SPPN.psig             3220.00:  SPP Min 
 SPPX.psig             4430.00:  SPP Max 
 STIM.      23.30.40 25-Mar-21:  Start Time 
 SVCS.                 DD, MWD:  Services 
 SVER.                    9.20:  Sperry Version 
 TDAT.m                   0.00:  Tot Depth Attmp 
 TDDF.                      No:  Trip for DD 
 TFF .                      No:  Trip for Fail 
 TQAA.f-kp                8.00:  Torque Abs Avg 
 TQAN.f-kp                7.00:  Torque Abs Min 
 TQAX.f-kp               11.00:  Torque Abs Max 
 TRRT.°/30m               0.00:  Turn Rotating 
 MRT .                  EWR-M5:  Maximum Recorded Temperature 
 TTMX.degC               76.47:  Max Tool Temp 
 VS01.                90640857:  Virtual Str1 SN 
 VS02.                90639246:  Virtual Str2 SN 
 VS03.                90642265:  Virtual Str3 SN 
 VS04.                11654497:  Virtual Str4 SN 
 WBMN.klb                 0.00:  WOB Min 
 WITN.      Kamran Keberlinkiy:  Customer Rep 
 WITN.           Murad Guliyev:  Customer Rep 2 
 WOBA.klb                 0.00:  WOB Avg 
 WOBX.klb                 0.00:  WOB Max 
 YP  .lhf2               36.00:  Yield Point 
~Curve Information Block
#MNEM.UNIT                 API CODE     Curve Description
#---------               -----------    ---------------------------
 TIME.HHMMSS            00 000 000 000:  GT Time & Date
 GTDEPTH.m              00 000 000 000:  GT Depth
 GTPQH.psia             00 000 000 000:  GT HR Quartz Pressure
 GTTQ.degC              00 000 000 000:  GT Quartz Temperature
 GTTN.NONE              00 000 000 000:  GT Test Number
 GTET.sec               00 000 000 000:  GT Elapsed Test Time
 GTTVD.m                00 000 000 000:  GT True Vertical Depth
#Other Information
#
#WARRANTY: Halliburton will use its best efforts to furnish customers with 
#accurate information and interpretations that are part of, and incident to, the services 
#provided.  However, Halliburton cannot and does not warrant the accuracy 
#or correctness of such information and interpretations.  Under no circumstances should any 
#such information or interpretation be relied upon as the sole basis for any drilling, 
#completion, production, or financial decision or any procedure involving any risk to the 
#safety of any drilling venture, drilling rig or its crew or any other third party.  The 
#Customer has full responsibility for all drilling, completion and production operation.  
#Halliburton makes no representations or warranties, either expressed or 
#implied, including, but not limited to, the implied warranties of merchantability or fitness 
#for a particular purpose, with respect to the services rendered.  In no event will 
#Halliburton be liable for failure to obtain any particular results or for 
#any damages, including, but not limited to, indirect, special or consequential damages, 
#resulting from the use of any information or interpretation provided by Halliburton.
#
~A           TIME           GTDEPTH  GTPQH  GTTQ  GTTN   GTET   GTTVD  
# ...
   11:05:55.437.27-Mar-2021 3279.01 6758.54 61.32 11.00  45.21 3032.17
   11:05:55.637.27-Mar-2021 3279.01 6619.70 61.32 11.00  45.41 3032.17
   11:05:55.837.27-Mar-2021 3279.01 6537.73 61.32 11.00  45.61 3032.17
   11:05:56.038.27-Mar-2021 3279.01 6417.98 61.32 11.00  45.81 3032.17
   11:05:56.238.27-Mar-2021 3279.01 6312.31 61.32 11.00  46.01 3032.17
   11:05:56.438.27-Mar-2021 3279.01 6312.31 61.32 11.00  46.21 3032.17
   11:05:56.638.27-Mar-2021 3279.01 6077.97 61.32 11.00  46.41 3032.17
   11:05:56.838.27-Mar-2021 3279.01 5929.28 61.32 11.00  46.61 3032.17
   11:05:57.038.27-Mar-2021 3279.01 5793.02 61.32 11.00  46.81 3032.17
   11:05:57.238.27-Mar-2021 3279.01 5652.67 61.32 11.00  47.01 3032.17
   11:05:57.438.27-Mar-2021 3279.01 5652.67 61.32 11.00  47.21 3032.17
   11:05:57.638.27-Mar-2021 3279.01 5383.87 61.32 11.00  47.41 3032.17
   11:05:57.838.27-Mar-2021 3279.01 5180.55 61.32 11.00  47.61 3032.17
   11:05:58.038.27-Mar-2021 3279.01 4999.13 61.32 11.00  47.81 3032.17
   11:05:58.238.27-Mar-2021 3279.01 4790.11 61.31 11.00  48.01 3032.17
   11:05:58.438.27-Mar-2021 3279.01 4790.11 61.31 11.00  48.21 3032.17
   11:05:58.638.27-Mar-2021 3279.01 4444.16 61.31 11.00  48.41 3032.17
   11:05:58.838.27-Mar-2021 3279.01 4453.27 61.31 11.00  48.61 3032.17
   11:05:59.038.27-Mar-2021 3279.01 4441.57 61.31 11.00  48.81 3032.17
   11:05:59.238.27-Mar-2021 3279.01 4415.49 61.31 11.00  49.01 3032.17
   11:05:59.438.27-Mar-2021 3279.01 4415.49 61.31 11.00  49.21 3032.17
   11:05:59.638.27-Mar-2021 3279.01 4477.96 61.31 11.00  49.41 3032.17
   11:05:59.838.27-Mar-2021 3279.01 4541.20 61.30 11.00  49.61 3032.17
   11:06:00.038.27-Mar-2021 3279.01 4610.99 61.30 11.00  49.81 3032.17
   11:06:00.238.27-Mar-2021 3279.01 4673.86 61.30 11.00  50.01 3032.17
   11:06:00.439.27-Mar-2021 3279.01 4673.86 61.30 11.00  50.21 3032.17
   11:06:00.639.27-Mar-2021 3279.01 4746.09 61.30 11.00  50.41 3032.17
   11:06:00.839.27-Mar-2021 3279.01 4760.33 61.30 11.00  50.61 3032.17
   11:06:01.039.27-Mar-2021 3279.01 4768.97 61.29 11.00  50.81 3032.17
   11:06:01.239.27-Mar-2021 3279.01 4773.65 61.29 11.00  51.01 3032.17
   11:06:01.439.27-Mar-2021 3279.01 4773.65 61.29 11.00  51.21 3032.17
   11:06:01.639.27-Mar-2021 3279.01 4775.03 61.29 11.00  51.41 3032.17
   11:06:01.839.27-Mar-2021 3279.01 4777.33 61.29 11.00  51.61 3032.17
   11:06:02.039.27-Mar-2021 3279.01 4779.14 61.29 11.00  51.81 3032.17
   11:06:02.239.27-Mar-2021 3279.01 4780.73 61.28 11.00  52.01 3032.17
   11:06:02.439.27-Mar-2021 3279.01 4780.73 61.28 11.00  52.21 3032.17
   11:06:02.639.27-Mar-2021 3279.01 4782.53 61.28 11.00  52.41 3032.17
   11:06:02.839.27-Mar-2021 3279.01 4783.21 61.28 11.00  52.61 3032.17
   11:06:03.039.27-Mar-2021 3279.01 4783.38 61.28 11.00  52.81 3032.17
   11:06:03.239.27-Mar-2021 3279.01 4783.12 61.28 11.00  53.01 3032.17
   11:06:03.439.27-Mar-2021 3279.01 4783.12 61.28 11.00  53.21 3032.17
   11:06:03.639.27-Mar-2021 3279.01 4782.55 61.28 11.00  53.41 3032.17
   11:06:03.839.27-Mar-2021 3279.01 4779.11 61.27 11.00  53.61 3032.17
   11:06:04.039.27-Mar-2021 3279.01 4750.16 61.27 11.00  53.81 3032.17
   11:06:04.239.27-Mar-2021 3279.01 4297.22 61.27 11.00  54.01 3032.17
   11:06:04.439.27-Mar-2021 3279.01 4297.22 61.27 11.00  54.21 3032.17
   11:06:04.640.27-Mar-2021 3279.01 3553.75 61.27 11.00  54.41 3032.17
   11:06:04.840.27-Mar-2021 3279.01 3462.47 61.27 11.00  54.61 3032.17
   11:06:05.040.27-Mar-2021 3279.01 3422.86 61.27 11.00  54.81 3032.17
   11:06:05.240.27-Mar-2021 3279.01 3414.90 61.27 11.00  55.01 3032.17
   11:06:05.440.27-Mar-2021 3279.01 3414.90 61.27 11.00  55.21 3032.17
   11:06:05.640.27-Mar-2021 3279.01 3432.84 61.26 11.00  55.41 3032.17
   11:06:05.840.27-Mar-2021 3279.01 3429.85 61.26 11.00  55.61 3032.17
   11:06:06.040.27-Mar-2021 3279.01 3432.01 61.26 11.00  55.81 3032.17
   11:06:06.240.27-Mar-2021 3279.01 3439.54 61.26 11.00  56.01 3032.17
   11:06:06.440.27-Mar-2021 3279.01 3439.54 61.26 11.00  56.21 3032.17
   11:06:06.640.27-Mar-2021 3279.01 3438.32 61.26 11.00  56.41 3032.17
   11:06:06.840.27-Mar-2021 3279.01 3439.72 61.26 11.00  56.61 3032.17
   11:06:07.040.27-Mar-2021 3279.01 3443.28 61.25 11.00  56.81 3032.17
   11:06:07.240.27-Mar-2021 3279.01 3442.41 61.25 11.00  57.01 3032.17
   11:06:07.440.27-Mar-2021 3279.01 3442.41 61.25 11.00  57.21 3032.17
   11:06:07.640.27-Mar-2021 3279.01 3451.99 61.25 11.00  57.41 3032.17
   11:06:07.840.27-Mar-2021 3279.01 3461.35 61.25 11.00  57.61 3032.17
   11:06:08.040.27-Mar-2021 3279.01 3466.35 61.25 11.00  57.81 3032.17
   11:06:08.240.27-Mar-2021 3279.01 3474.77 61.25 11.00  58.01 3032.17
   11:06:08.440.27-Mar-2021 3279.01 3474.77 61.25 11.00  58.21 3032.17
   11:06:08.640.27-Mar-2021 3279.01 3480.58 61.24 11.00  58.41 3032.17
   11:06:08.841.27-Mar-2021 3279.01 3487.47 61.24 11.00  58.61 3032.17
   11:06:09.041.27-Mar-2021 3279.01 3495.68 61.24 11.00  58.81 3032.17
   11:06:09.241.27-Mar-2021 3279.01 3501.64 61.24 11.00  59.01 3032.17
   11:06:09.441.27-Mar-2021 3279.01 3501.64 61.24 11.00  59.21 3032.17
   11:06:09.641.27-Mar-2021 3279.01 3506.73 61.24 11.00  59.41 3032.17
   11:06:09.841.27-Mar-2021 3279.01 3504.79 61.24 11.00  59.61 3032.17
   11:06:10.041.27-Mar-2021 3279.01 3505.48 61.24 11.00  59.81 3032.17
   11:06:10.241.27-Mar-2021 3279.01 3501.61 61.24 11.00  60.01 3032.17
   11:06:10.441.27-Mar-2021 3279.01 3501.61 61.24 11.00  60.21 3032.17
   11:06:10.641.27-Mar-2021 3279.01 3501.96 61.23 11.00  60.41 3032.17
   11:06:10.841.27-Mar-2021 3279.01 3504.26 61.23 11.00  60.61 3032.17
   11:06:11.041.27-Mar-2021 3279.01 3504.79 61.23 11.00  60.81 3032.17
   11:06:11.241.27-Mar-2021 3279.01 3500.45 61.23 11.00  61.01 3032.17
   11:06:11.441.27-Mar-2021 3279.01 3500.45 61.23 11.00  61.21 3032.17
   11:06:11.641.27-Mar-2021 3279.01 3502.84 61.23 11.00  61.41 3032.17
   11:06:11.841.27-Mar-2021 3279.01 3502.95 61.23 11.00  61.61 3032.17
   11:06:12.041.27-Mar-2021 3279.01 3506.17 61.23 11.00  61.81 3032.17
   11:06:12.241.27-Mar-2021 3279.01 3509.15 61.23 11.00  62.01 3032.17
   11:06:12.441.27-Mar-2021 3279.01 3509.15 61.23 11.00  62.21 3032.17
   11:06:12.641.27-Mar-2021 3279.01 3507.33 61.23 11.00  62.41 3032.17
   11:06:12.841.27-Mar-2021 3279.01 3506.94 61.23 11.00  62.61 3032.17
   11:06:13.041.27-Mar-2021 3279.01 3507.41 61.23 11.00  62.81 3032.17
   11:06:13.242.27-Mar-2021 3279.01 3504.95 61.23 11.00  63.01 3032.17
   11:06:13.442.27-Mar-2021 3279.01 3504.95 61.23 11.00  63.21 3032.17
   11:06:13.642.27-Mar-2021 3279.01 3513.14 61.23 11.00  63.41 3032.17
   11:06:13.842.27-Mar-2021 3279.01 3517.40 61.22 11.00  63.61 3032.17
   11:06:14.042.27-Mar-2021 3279.01 3873.66 61.22 11.00  63.81 3032.17
   11:06:14.242.27-Mar-2021 3279.01 4264.53 61.22 11.00  64.01 3032.17
   11:06:14.442.27-Mar-2021 3279.01 4264.53 61.22 11.00  64.22 3032.17
   11:06:14.642.27-Mar-2021 3279.01 4622.01 61.22 11.00  64.42 3032.17
   11:06:14.842.27-Mar-2021 3279.01 4687.10 61.22 11.00  64.62 3032.17
   11:06:15.042.27-Mar-2021 3279.01 4723.61 61.22 11.00  64.82 3032.17
   11:06:15.242.27-Mar-2021 3279.01 4745.80 61.22 11.00  65.02 3032.17
   11:06:15.442.27-Mar-2021 3279.01 4745.80 61.22 11.00  65.22 3032.17
   11:06:15.642.27-Mar-2021 3279.01 4764.98 61.22 11.00  65.42 3032.17
   11:06:15.842.27-Mar-2021 3279.01 4768.64 61.23 11.00  65.62 3032.17
   11:06:16.042.27-Mar-2021 3279.01 4771.99 61.23 11.00  65.82 3032.17
   11:06:16.242.27-Mar-2021 3279.01 4774.41 61.23 11.00  66.02 3032.17
   11:06:16.442.27-Mar-2021 3279.01 4774.41 61.23 11.00  66.22 3032.17
   11:06:16.642.27-Mar-2021 3279.01 4776.76 61.23 11.00  66.42 3032.17
   11:06:16.842.27-Mar-2021 3279.01 4777.32 61.23 11.00  66.62 3032.17
   11:06:17.042.27-Mar-2021 3279.01 4777.06 61.23 11.00  66.82 3032.17
   11:06:17.242.27-Mar-2021 3279.01 4778.28 61.23 11.00  67.02 3032.17
   11:06:17.443.27-Mar-2021 3279.01 4778.28 61.23 11.00  67.22 3032.17
   11:06:17.643.27-Mar-2021 3279.01 4779.02 61.23 11.00  67.42 3032.17
   11:06:17.843.27-Mar-2021 3279.01 4779.33 61.23 11.00  67.62 3032.17
