~Version Information
 VERS.                  2.0:   CWLS log ASCII Standard -VERSION 2.0
 WRAP.                   NO:   One line per depth step
~Well Information Block
#MNEM.UNIT     VALUE/NAME     DESCRIPTION
#---------     -----------    ---------------------------
 STRT.S             12:17:14 27-Mar-21: START TIME 12:17:14 27-Mar-21
 STOP.S             12:24:16 27-Mar-21: STOP TIME  12:24:16 27-Mar-21
 STEP.S                   0.00: STEP TIME
 NULL.                 -999.25: NULL VALUE
 DFWT.                        :  DIST FWL TEXT
 DFST.                        :  DIST FSL TEXT
 DMF .             Drill Floor:  DRILL MEAS FROM
 STIM.      20.26.40 11-Mar-21:  START TIME
 DATE.      20.26.40 30-Mar-21:  END TIME
 SPUD.               11-Mar-21:  SPUD DATE
 NREF.                    Grid:  NORTH REFERENCE
 HPTY.       Minimum Curvature:  HOLE POS TYPE
 DMOD.             Drill Model:  DRILL MOD DESC
 SVYD.                  Survey:  SURVEY DESC
 ILTD.               Lithology:  INTERP LTH DESC
 FTOP.          Formation Tops:  FORM TOPS DESC
 SON .        AZ-XX-0906805385:  JOB NUMBER
 WTYP.                Deviated:  WELL TYPE
 COMP.     BP Exploration (Caspian Sea) Ltd.:  COMPANY
 UWI .            /AZE00000198:  UNIQUE WELL IDENTIFIER
 API .            /AZE00000198:  API NUMBER
 BASE.              Azerbaijan:  LOGGING EQUIPMENT BASE LOCATION
 REGN.                   EESSA:  REGION
 PROV.                    Baku:  PROVINCE
 STAT.                    Baku:  STATE NAME
 CTRY.              Azerbaijan:  COUNTRY NAME
 FLD .                     ACG:  FIELD NAME
 SRVC.     Turan Drilling & Engineering:  CONTRACTOR
 MWDS.                    Baku:  MWD SHOP
 WELL.                    D09z:  WELL NAME
 JOBN.        AZ-XX-0906805385:  JOB TICKET NUMB
 RIG .              East Azeri:  RIG NAME
 DOE .                     N/A:  DOE NUMBER
 DCON.         Sperry Drilling:  DIRECTNL CONTR
 UNIT.                     N/A:  LOGGING EQUIPMENT ID
 PDAT.          Mean Sea Level:  PERMANENT DATUM
 MDS .        Operator Entered:  MAG DATA SOURCE
 CNTY.                        :  COUNTY
 LOC .                        :  LOCATION
 LMF .             Drill Floor:  LOG MEASURED FROM
 TVDS.m                  43.60:  TVDSS CORRECTN
 LATI.deg                40.02:  LATITUDE
 LONG.deg                51.45:  LONGITUDE
 WHNS.m                 -17.04:  WELL HEAD N/S
 WHEW.m                  -6.28:  WELL HEAD E/W
 UTMX.m              538763.98:  UTM X
 UTMY.m             4431880.20:  UTM Y
 DFWL.m                   0.00:  DISTANCE FWL
 DFSL.m                   0.00:  DISTANCE FSL
 SDEP.m                2680.01:  START DEPTH
 TDD .m                4000.01:  TOTAL DEPTH (DRILLER)
 VSDR.deg               225.71:  VERT SEC DIRECT
 GVFD.g                   1.00:  GRAVITY FIELD
 MFLD.nT              50353.00:  MAGNETIC FIELD
 MDIP.deg                59.49:  MAGNETIC DIP
 MDEC.deg                 6.46:  MAGNETIC DECL
 GRDC.deg                 0.29:  GRID CORRECTION
 AZTC.deg                 6.17:  AZM TOTAL CORR
 EPD .m                   0.00:  ELEVATION
 EGL .m                   0.00:  GROUND ELEVATION
 WDMS.m                 151.80:  WD ELEV
 APD .m                  43.60:  DEPTH ABOVE PD
 AGAP.m                  43.60:  AIR GAP
 VSEW.m                  -6.28:  VERT SEC E/W
 VSNS.m                 -17.04:  VERT SEC N/S
 DEP .m                2656.31:  DEPTH
 EKB .m                  43.60:  KB ELEVATION
 EDF .m                  43.60:  DF ELEVATION
 VSC .                       0:  VS TO CLOSURE
 MAGU.                 1851247:  MAGUTM CHECKSUM
~Parameter Information Block
#MNEM.UNIT       Value        Description
#---------     -----------    ---------------------------
 AV  .mps                 3.00:  Ann Velocity 
 AVMX.mps                 8.00:  Max Ann Veloc 
 AZIF.deg                 0.00:  Azm, Final 
 BHAT.                   Other:  BHA Type 
 BREV.rev                 0.00:  Rev Bit Total 
 BROT.°/30m               0.00:  Build Rotating 
 BS  .in                 10.25:  Bit Size 
 BTPL.psig              511.00:  Bit Press Loss 
 CABU.                      No:  Customer Abuse 
 CGEO.           Asif Pashayev:  Customer Geo 
 COMM.                     4'd:  Run Comments 1 
 TCS .hr                 24.03:  Time Ciculation Ended 
 CV  .mps                 3.50:  Crit Velocity 
 CVMX.mps                 4.00:  Max Crit Veloc 
 DD1 .             Aziz Aliyev:  Direct Drillr 1 
 DD2 .      Fakhraddin Guliyev:  Direct Drillr 2 
 DDSV.                   Other:  DD Service 
 DEFF.%                  99.00:  % Det Eff 
 DLRX.°/30m               0.00:  Dogleg Rot Max 
 DLSO.°/30m               0.00:  Dogleg Oriented 
 DLSX.°/30m               0.00:  Dogleg Str Max 
 DRET.      23.00.40 28-Mar-21:  Drill End Time 
 DRST.      23.30.40 25-Mar-21:  Drill Start Tim 
 DTIM.hr                  0.00:  Time Drilling 
 EDEP.m                3886.01:  End Depth 
 ENG1.         Almaz Almadatov:  Engineer 1 
 ENG2.      Artemiy Matviyanov:  Engineer 2 
 ENG3.           Samir Gafarov:  Engineer 3 
 ETIM.      23.00.40 28-Mar-21:  End Time 
 FLOI.gpm               550.00:  Flow In 
 FLON.gpm               500.00:  Flow In Min 
 FLOS.cptm                0.00:  Fluid Loss 
 FLOX.gpm               590.00:  Flow In Max 
 HFLO.                      No:  High Flow 
 HPRE.                      No:  High Pressure 
 HTEM.                      No:  High Temp 
 HYDO.m                   1.80:  Hydro Offset 
 IFIN.deg                 0.00:  Inc, Final 
 IMAX.deg                 0.00:  Inc Max 
 IMIN.deg                 0.00:  Inc Min 
 IMND.m                   0.00:  Inc Min Depth 
 IMXD.m                   0.00:  Inc Max Depth 
 JARR.                      No:  Jarring 
 LETM.      03.22.40 28-Mar-21:  Log End Time 
 LOST.hr                     0:  Lost Rig Time 
 LSTM.      23.30.40 25-Mar-21:  Log Start Time 
 MDCL.ppm             34000.00:  Mud Chlorides 
 MDES.     Inversion Oil/Synthetic:  Mud Desc 
 DFD .sg                  1.51:  Mud Density 
 MDMN.sg                  1.51:  Dens Mud Min 
 MDMX.sg                  1.51:  Dens Mud Max 
 MOIL.                      70:  Run Mud Oil % 
 MOWR.                   70:30:  Run Mud OWR 
 MSND.                     0.2:  Run Mud Sand % 
 MSOL.                   21.60:  Run Mud Solids% 
 DFV .spqt               74.00:  Mud Viscosity 
 MWOD.in                  6.75:  MWD Tool OD 
 MWSI.                      No:  Serv Intrp, MWD 
 OTIM.hr                 69.09:  Time Operating 
 PCON.           Look Like New:  Pad Condition 
 PMAX.psia             3500.00:  Press Op, Max 
 PV  .cP                 70.00:  Mud PV 
 RUN .                     400:  Run Number 
 ROPA.m/hr                0.00:  ROP Avg 
 ROPN.m/hr                0.00:  ROP Min 
 ROPX.m/hr                0.00:  ROP Max 
 RPMA.rpm                80.00:  RPM Surface Avg 
 RPMN.rpm                10.00:  RPM Surface Min 
 RPMX.rpm               100.00:  RPM Surface Max 
 RRUN.                    0400:  Rig Run Number 
 RTIM.hr                  3.00:  Time Reaming 
 SAZI.deg                 0.00:  Azm, Start 
 SDEP.m                3886.01:  Start Depth 
 SIDD.                      No:  Serv Intrp, DD 
 SINC.deg                 0.00:  Inc, Start 
 SPPA.psig             3270.00:  SPP Avg 
 SPPN.psig             3220.00:  SPP Min 
 SPPX.psig             4430.00:  SPP Max 
 STIM.      23.30.40 25-Mar-21:  Start Time 
 SVCS.                 DD, MWD:  Services 
 SVER.                    9.20:  Sperry Version 
 TDAT.m                   0.00:  Tot Depth Attmp 
 TDDF.                      No:  Trip for DD 
 TFF .                      No:  Trip for Fail 
 TQAA.f-kp                8.00:  Torque Abs Avg 
 TQAN.f-kp                7.00:  Torque Abs Min 
 TQAX.f-kp               11.00:  Torque Abs Max 
 TRRT.°/30m               0.00:  Turn Rotating 
 MRT .                  EWR-M5:  Maximum Recorded Temperature 
 TTMX.degC               76.47:  Max Tool Temp 
 VS01.                90640857:  Virtual Str1 SN 
 VS02.                90639246:  Virtual Str2 SN 
 VS03.                90642265:  Virtual Str3 SN 
 VS04.                11654497:  Virtual Str4 SN 
 WBMN.klb                 0.00:  WOB Min 
 WITN.      Kamran Keberlinkiy:  Customer Rep 
 WITN.           Murad Guliyev:  Customer Rep 2 
 WOBA.klb                 0.00:  WOB Avg 
 WOBX.klb                 0.00:  WOB Max 
 YP  .lhf2               36.00:  Yield Point 
~Curve Information Block
#MNEM.UNIT                 API CODE     Curve Description
#---------               -----------    ---------------------------
 TIME.HHMMSS            00 000 000 000:  GT Time & Date
 GTDEPTH.m              00 000 000 000:  GT Depth
 GTPQH.psia             00 000 000 000:  GT HR Quartz Pressure
 GTTQ.degC              00 000 000 000:  GT Quartz Temperature
 GTTN.NONE              00 000 000 000:  GT Test Number
 GTET.sec               00 000 000 000:  GT Elapsed Test Time
 GTTVD.m                00 000 000 000:  GT True Vertical Depth
#Other Information
#
#WARRANTY: Halliburton will use its best efforts to furnish customers with 
#accurate information and interpretations that are part of, and incident to, the services 
#provided.  However, Halliburton cannot and does not warrant the accuracy 
#or correctness of such information and interpretations.  Under no circumstances should any 
#such information or interpretation be relied upon as the sole basis for any drilling, 
#completion, production, or financial decision or any procedure involving any risk to the 
#safety of any drilling venture, drilling rig or its crew or any other third party.  The 
#Customer has full responsibility for all drilling, completion and production operation.  
#Halliburton makes no representations or warranties, either expressed or 
#implied, including, but not limited to, the implied warranties of merchantability or fitness 
#for a particular purpose, with respect to the services rendered.  In no event will 
#Halliburton be liable for failure to obtain any particular results or for 
#any damages, including, but not limited to, indirect, special or consequential damages, 
#resulting from the use of any information or interpretation provided by Halliburton.
#
~A           TIME           GTDEPTH  GTPQH  GTTQ  GTTN   GTET   GTTVD  
# ...
   12:19:30.418.27-Mar-2021 3369.01 4846.04 61.89 12.00 135.70 3116.52
   12:19:30.619.27-Mar-2021 3369.01 4845.76 61.89 12.00 135.90 3116.52
   12:19:30.819.27-Mar-2021 3369.01 4845.93 61.89 12.00 136.10 3116.52
   12:19:31.019.27-Mar-2021 3369.01 4845.93 61.89 12.00 136.30 3116.52
   12:19:31.219.27-Mar-2021 3369.01 4846.19 61.89 12.00 136.50 3116.52
   12:19:31.419.27-Mar-2021 3369.01 4846.08 61.89 12.00 136.70 3116.52
   12:19:31.619.27-Mar-2021 3369.01 4846.18 61.89 12.00 136.90 3116.52
   12:19:31.819.27-Mar-2021 3369.01 4846.48 61.89 12.00 137.10 3116.52
   12:19:32.020.27-Mar-2021 3369.01 4846.48 61.89 12.00 137.30 3116.52
   12:19:32.220.27-Mar-2021 3369.01 4846.82 61.89 12.00 137.50 3116.52
   12:19:32.420.27-Mar-2021 3369.01 4846.44 61.89 12.00 137.70 3116.52
   12:19:32.620.27-Mar-2021 3369.01 4846.36 61.89 12.00 137.90 3116.52
   12:19:32.820.27-Mar-2021 3369.01 4846.45 61.89 12.00 138.10 3116.52
   12:19:33.020.27-Mar-2021 3369.01 4846.45 61.89 12.00 138.30 3116.52
   12:19:33.220.27-Mar-2021 3369.01 4846.52 61.89 12.00 138.50 3116.52
   12:19:33.421.27-Mar-2021 3369.01 4846.52 61.89 12.00 138.70 3116.52
   12:19:33.621.27-Mar-2021 3369.01 4846.42 61.89 12.00 138.90 3116.52
   12:19:33.821.27-Mar-2021 3369.01 4846.56 61.89 12.00 139.10 3116.52
   12:19:34.021.27-Mar-2021 3369.01 4846.56 61.89 12.00 139.30 3116.52
   12:19:34.221.27-Mar-2021 3369.01 4846.44 61.89 12.00 139.50 3116.52
   12:19:34.421.27-Mar-2021 3369.01 4846.65 61.89 12.00 139.70 3116.52
   12:19:34.621.27-Mar-2021 3369.01 4846.29 61.89 12.00 139.90 3116.52
   12:19:34.822.27-Mar-2021 3369.01 4847.21 61.89 12.00 140.10 3116.52
   12:19:35.022.27-Mar-2021 3369.01 4847.21 61.89 12.00 140.30 3116.52
   12:19:35.222.27-Mar-2021 3369.01 4846.58 61.89 12.00 140.50 3116.52
   12:19:35.422.27-Mar-2021 3369.01 4846.61 61.89 12.00 140.70 3116.52
   12:19:35.622.27-Mar-2021 3369.01 4846.43 61.89 12.00 140.90 3116.52
   12:19:35.822.27-Mar-2021 3369.01 4846.13 61.89 12.00 141.10 3116.52
   12:19:36.022.27-Mar-2021 3369.01 4846.13 61.89 12.00 141.30 3116.52
   12:19:36.223.27-Mar-2021 3369.01 4845.19 61.89 12.00 141.50 3116.52
   12:19:36.423.27-Mar-2021 3369.01 4846.27 61.89 12.00 141.70 3116.52
   12:19:36.623.27-Mar-2021 3369.01 4846.47 61.89 12.00 141.90 3116.52
   12:19:36.823.27-Mar-2021 3369.01 4846.51 61.89 12.00 142.10 3116.52
   12:19:37.023.27-Mar-2021 3369.01 4846.51 61.89 12.00 142.30 3116.52
   12:19:37.223.27-Mar-2021 3369.01 4846.46 61.89 12.00 142.50 3116.52
   12:19:37.423.27-Mar-2021 3369.01 4846.16 61.89 12.00 142.70 3116.52
   12:19:37.624.27-Mar-2021 3369.01 4846.49 61.89 12.00 142.90 3116.52
   12:19:37.824.27-Mar-2021 3369.01 4846.24 61.89 12.00 143.10 3116.52
   12:19:38.024.27-Mar-2021 3369.01 4846.24 61.89 12.00 143.30 3116.52
   12:19:38.224.27-Mar-2021 3369.01 4846.36 61.89 12.00 143.50 3116.52
   12:19:38.424.27-Mar-2021 3369.01 4846.30 61.89 12.00 143.70 3116.52
   12:19:38.624.27-Mar-2021 3369.01 4846.04 61.89 12.00 143.90 3116.52
   12:19:38.824.27-Mar-2021 3369.01 4846.48 61.89 12.00 144.10 3116.52
   12:19:39.025.27-Mar-2021 3369.01 4846.48 61.89 12.00 144.30 3116.52
   12:19:39.225.27-Mar-2021 3369.01 4846.73 61.89 12.00 144.50 3116.52
   12:19:39.425.27-Mar-2021 3369.01 4846.50 61.88 12.00 144.70 3116.52
   12:19:39.625.27-Mar-2021 3369.01 4846.51 61.88 12.00 144.90 3116.52
   12:19:39.825.27-Mar-2021 3369.01 4846.18 61.88 12.00 145.10 3116.52
   12:19:40.025.27-Mar-2021 3369.01 4846.18 61.88 12.00 145.30 3116.52
   12:19:40.225.27-Mar-2021 3369.01 4846.72 61.88 12.00 145.50 3116.52
   12:19:40.426.27-Mar-2021 3369.01 4846.81 61.88 12.00 145.70 3116.52
   12:19:40.626.27-Mar-2021 3369.01 4846.53 61.88 12.00 145.90 3116.52
   12:19:40.826.27-Mar-2021 3369.01 4846.78 61.88 12.00 146.10 3116.52
   12:19:41.026.27-Mar-2021 3369.01 4846.78 61.88 12.00 146.30 3116.52
   12:19:41.226.27-Mar-2021 3369.01 4846.57 61.88 12.00 146.50 3116.52
   12:19:41.426.27-Mar-2021 3369.01 4846.17 61.88 12.00 146.70 3116.52
   12:19:41.626.27-Mar-2021 3369.01 4846.08 61.88 12.00 146.90 3116.52
   12:19:41.827.27-Mar-2021 3369.01 4846.20 61.88 12.00 147.10 3116.52
   12:19:42.027.27-Mar-2021 3369.01 4846.20 61.88 12.00 147.30 3116.52
   12:19:42.227.27-Mar-2021 3369.01 4846.03 61.88 12.00 147.50 3116.52
   12:19:42.427.27-Mar-2021 3369.01 4846.49 61.88 12.00 147.70 3116.52
   12:19:42.627.27-Mar-2021 3369.01 4846.36 61.88 12.00 147.90 3116.52
   12:19:42.827.27-Mar-2021 3369.01 4846.24 61.88 12.00 148.10 3116.52
   12:19:43.027.27-Mar-2021 3369.01 4846.24 61.88 12.00 148.30 3116.52
   12:19:43.228.27-Mar-2021 3369.01 4846.49 61.88 12.00 148.50 3116.52
   12:19:43.428.27-Mar-2021 3369.01 4846.79 61.88 12.00 148.71 3116.52
   12:19:43.628.27-Mar-2021 3369.01 4846.60 61.88 12.00 148.91 3116.52
   12:19:43.828.27-Mar-2021 3369.01 4846.43 61.88 12.00 149.11 3116.52
   12:19:44.028.27-Mar-2021 3369.01 4846.43 61.88 12.00 149.31 3116.52
   12:19:44.228.27-Mar-2021 3369.01 4846.35 61.88 12.00 149.51 3116.52
   12:19:44.428.27-Mar-2021 3369.01 4846.08 61.88 12.00 149.71 3116.52
   12:19:44.629.27-Mar-2021 3369.01 4846.03 61.88 12.00 149.91 3116.52
   12:19:44.829.27-Mar-2021 3369.01 4846.62 61.88 12.00 150.11 3116.52
   12:19:45.029.27-Mar-2021 3369.01 4846.62 61.88 12.00 150.31 3116.52
   12:19:45.229.27-Mar-2021 3369.01 4846.34 61.88 12.00 150.51 3116.52
   12:19:45.429.27-Mar-2021 3369.01 4846.76 61.88 12.00 150.71 3116.52
   12:19:45.629.27-Mar-2021 3369.01 4846.77 61.88 12.00 150.91 3116.52
   12:19:45.829.27-Mar-2021 3369.01 4846.42 61.88 12.00 151.11 3116.52
   12:19:46.029.27-Mar-2021 3369.01 4846.42 61.88 12.00 151.31 3116.52
   12:19:46.230.27-Mar-2021 3369.01 4846.56 61.88 12.00 151.51 3116.52
   12:19:46.430.27-Mar-2021 3369.01 4846.78 61.88 12.00 151.71 3116.52
   12:19:46.630.27-Mar-2021 3369.01 4847.02 61.88 12.00 151.91 3116.52
   12:19:46.830.27-Mar-2021 3369.01 4846.60 61.88 12.00 152.11 3116.52
   12:19:47.030.27-Mar-2021 3369.01 4846.60 61.88 12.00 152.31 3116.52
   12:19:47.230.27-Mar-2021 3369.01 4846.52 61.88 12.00 152.51 3116.52
   12:19:47.430.27-Mar-2021 3369.01 4845.94 61.88 12.00 152.71 3116.52
   12:19:47.631.27-Mar-2021 3369.01 4846.60 61.88 12.00 152.91 3116.52
   12:19:47.831.27-Mar-2021 3369.01 4846.62 61.88 12.00 153.11 3116.52
   12:19:48.031.27-Mar-2021 3369.01 4846.62 61.88 12.00 153.31 3116.52
   12:19:48.231.27-Mar-2021 3369.01 4846.32 61.88 12.00 153.51 3116.52
   12:19:48.431.27-Mar-2021 3369.01 4846.48 61.88 12.00 153.71 3116.52
   12:19:48.631.27-Mar-2021 3369.01 4845.93 61.88 12.00 153.91 3116.52
   12:19:48.831.27-Mar-2021 3369.01 4846.86 61.88 12.00 154.11 3116.52
   12:19:49.032.27-Mar-2021 3369.01 4846.86 61.88 12.00 154.31 3116.52
   12:19:49.232.27-Mar-2021 3369.01 4846.94 61.88 12.00 154.51 3116.52
   12:19:49.432.27-Mar-2021 3369.01 4846.77 61.88 12.00 154.71 3116.52
   12:19:49.632.27-Mar-2021 3369.01 4846.73 61.88 12.00 154.91 3116.52
   12:19:49.832.27-Mar-2021 3369.01 4846.85 61.88 12.00 155.11 3116.52
   12:19:50.032.27-Mar-2021 3369.01 4846.85 61.88 12.00 155.31 3116.52
   12:19:50.232.27-Mar-2021 3369.01 4846.67 61.88 12.00 155.51 3116.52
   12:19:50.433.27-Mar-2021 3369.01 4846.51 61.88 12.00 155.71 3116.52
   12:19:50.633.27-Mar-2021 3369.01 4846.39 61.88 12.00 155.91 3116.52
   12:19:50.833.27-Mar-2021 3369.01 4846.66 61.88 12.00 156.11 3116.52
   12:19:51.033.27-Mar-2021 3369.01 4846.66 61.88 12.00 156.31 3116.52
   12:19:51.233.27-Mar-2021 3369.01 4846.56 61.88 12.00 156.51 3116.52
   12:19:51.433.27-Mar-2021 3369.01 4846.84 61.87 12.00 156.71 3116.52
   12:19:51.633.27-Mar-2021 3369.01 4847.01 61.87 12.00 156.91 3116.52
   12:19:51.834.27-Mar-2021 3369.01 4846.22 61.87 12.00 157.11 3116.52
   12:19:52.034.27-Mar-2021 3369.01 4846.22 61.87 12.00 157.31 3116.52
   12:19:52.234.27-Mar-2021 3369.01 4847.04 61.87 12.00 157.51 3116.52
   12:19:52.434.27-Mar-2021 3369.01 4846.81 61.87 12.00 157.71 3116.52
   12:19:52.634.27-Mar-2021 3369.01 4846.61 61.87 12.00 157.91 3116.52
   12:19:52.834.27-Mar-2021 3369.01 4846.32 61.87 12.00 158.11 3116.52
