~Version Information
 VERS.                  2.0:   CWLS log ASCII Standard -VERSION 2.0
 WRAP.                   NO:   One line per depth step
~Well Information Block
#MNEM.UNIT     VALUE/NAME     DESCRIPTION
#---------     -----------    ---------------------------
 STRT.S             09:03:10 27-Mar-21: START TIME 09:03:10 27-Mar-21
 STOP.S             09:10:16 27-Mar-21: STOP TIME  09:10:16 27-Mar-21
 STEP.S                   0.00: STEP TIME
 NULL.                 -999.25: NULL VALUE
 DFWT.                        :  DIST FWL TEXT
 DFST.                        :  DIST FSL TEXT
 DMF .             Drill Floor:  DRILL MEAS FROM
 STIM.      20.26.40 11-Mar-21:  START TIME
 DATE.      20.26.40 30-Mar-21:  END TIME
 SPUD.               11-Mar-21:  SPUD DATE
 NREF.                    Grid:  NORTH REFERENCE
 HPTY.       Minimum Curvature:  HOLE POS TYPE
 DMOD.             Drill Model:  DRILL MOD DESC
 SVYD.                  Survey:  SURVEY DESC
 ILTD.               Lithology:  INTERP LTH DESC
 FTOP.          Formation Tops:  FORM TOPS DESC
 SON .        AZ-XX-0906805385:  JOB NUMBER
 WTYP.                Deviated:  WELL TYPE
 COMP.     BP Exploration (Caspian Sea) Ltd.:  COMPANY
 UWI .            /AZE00000198:  UNIQUE WELL IDENTIFIER
 API .            /AZE00000198:  API NUMBER
 BASE.              Azerbaijan:  LOGGING EQUIPMENT BASE LOCATION
 REGN.                   EESSA:  REGION
 PROV.                    Baku:  PROVINCE
 STAT.                    Baku:  STATE NAME
 CTRY.              Azerbaijan:  COUNTRY NAME
 FLD .                     ACG:  FIELD NAME
 SRVC.     Turan Drilling & Engineering:  CONTRACTOR
 MWDS.                    Baku:  MWD SHOP
 WELL.                    D09z:  WELL NAME
 JOBN.        AZ-XX-0906805385:  JOB TICKET NUMB
 RIG .              East Azeri:  RIG NAME
 DOE .                     N/A:  DOE NUMBER
 DCON.         Sperry Drilling:  DIRECTNL CONTR
 UNIT.                     N/A:  LOGGING EQUIPMENT ID
 PDAT.          Mean Sea Level:  PERMANENT DATUM
 MDS .        Operator Entered:  MAG DATA SOURCE
 CNTY.                        :  COUNTY
 LOC .                        :  LOCATION
 LMF .             Drill Floor:  LOG MEASURED FROM
 TVDS.m                  43.60:  TVDSS CORRECTN
 LATI.deg                40.02:  LATITUDE
 LONG.deg                51.45:  LONGITUDE
 WHNS.m                 -17.04:  WELL HEAD N/S
 WHEW.m                  -6.28:  WELL HEAD E/W
 UTMX.m              538763.98:  UTM X
 UTMY.m             4431880.20:  UTM Y
 DFWL.m                   0.00:  DISTANCE FWL
 DFSL.m                   0.00:  DISTANCE FSL
 SDEP.m                2680.01:  START DEPTH
 TDD .m                4000.01:  TOTAL DEPTH (DRILLER)
 VSDR.deg               225.71:  VERT SEC DIRECT
 GVFD.g                   1.00:  GRAVITY FIELD
 MFLD.nT              50353.00:  MAGNETIC FIELD
 MDIP.deg                59.49:  MAGNETIC DIP
 MDEC.deg                 6.46:  MAGNETIC DECL
 GRDC.deg                 0.29:  GRID CORRECTION
 AZTC.deg                 6.17:  AZM TOTAL CORR
 EPD .m                   0.00:  ELEVATION
 EGL .m                   0.00:  GROUND ELEVATION
 WDMS.m                 151.80:  WD ELEV
 APD .m                  43.60:  DEPTH ABOVE PD
 AGAP.m                  43.60:  AIR GAP
 VSEW.m                  -6.28:  VERT SEC E/W
 VSNS.m                 -17.04:  VERT SEC N/S
 DEP .m                2656.31:  DEPTH
 EKB .m                  43.60:  KB ELEVATION
 EDF .m                  43.60:  DF ELEVATION
 VSC .                       0:  VS TO CLOSURE
 MAGU.                 1851247:  MAGUTM CHECKSUM
~Parameter Information Block
#MNEM.UNIT       Value        Description
#---------     -----------    ---------------------------
 AV  .mps                 3.00:  Ann Velocity 
 AVMX.mps                 8.00:  Max Ann Veloc 
 AZIF.deg                 0.00:  Azm, Final 
 BHAT.                   Other:  BHA Type 
 BREV.rev                 0.00:  Rev Bit Total 
 BROT.°/30m               0.00:  Build Rotating 
 BS  .in                 10.25:  Bit Size 
 BTPL.psig              511.00:  Bit Press Loss 
 CABU.                      No:  Customer Abuse 
 CGEO.           Asif Pashayev:  Customer Geo 
 TCS .hr                 24.03:  Time Ciculation Ended 
 CV  .mps                 3.50:  Crit Velocity 
 CVMX.mps                 4.00:  Max Crit Veloc 
 DD1 .             Aziz Aliyev:  Direct Drillr 1 
 DD2 .      Fakhraddin Guliyev:  Direct Drillr 2 
 DDSV.                   Other:  DD Service 
 DEFF.%                  99.00:  % Det Eff 
 DLRX.°/30m               0.00:  Dogleg Rot Max 
 DLSO.°/30m               0.00:  Dogleg Oriented 
 DLSX.°/30m               0.00:  Dogleg Str Max 
 DRET.      23.00.40 28-Mar-21:  Drill End Time 
 DRST.      23.30.40 25-Mar-21:  Drill Start Tim 
 DTIM.hr                  0.00:  Time Drilling 
 EDEP.m                3886.01:  End Depth 
 ENG1.         Almaz Almadatov:  Engineer 1 
 ENG2.      Artemiy Matviyanov:  Engineer 2 
 ENG3.           Samir Gafarov:  Engineer 3 
 ETIM.      23.00.40 28-Mar-21:  End Time 
 FLOI.gpm               550.00:  Flow In 
 FLON.gpm               500.00:  Flow In Min 
 FLOS.cptm                0.00:  Fluid Loss 
 FLOX.gpm               590.00:  Flow In Max 
 HFLO.                      No:  High Flow 
 HPRE.                      No:  High Pressure 
 HTEM.                      No:  High Temp 
 HYDO.m                   1.80:  Hydro Offset 
 IFIN.deg                 0.00:  Inc, Final 
 IMAX.deg                 0.00:  Inc Max 
 IMIN.deg                 0.00:  Inc Min 
 IMND.m                   0.00:  Inc Min Depth 
 IMXD.m                   0.00:  Inc Max Depth 
 JARR.                      No:  Jarring 
 LETM.      03.22.40 28-Mar-21:  Log End Time 
 LOST.hr                     0:  Lost Rig Time 
 LSTM.      23.30.40 25-Mar-21:  Log Start Time 
 MDCL.ppm             34000.00:  Mud Chlorides 
 MDES.     Inversion Oil/Synthetic:  Mud Desc 
 DFD .sg                  1.51:  Mud Density 
 MDMN.sg                  1.51:  Dens Mud Min 
 MDMX.sg                  1.51:  Dens Mud Max 
 MOIL.                      70:  Run Mud Oil % 
 MOWR.                   70:30:  Run Mud OWR 
 MSND.                     0.2:  Run Mud Sand % 
 MSOL.                   21.60:  Run Mud Solids% 
 DFV .spqt               74.00:  Mud Viscosity 
 MWOD.in                  6.75:  MWD Tool OD 
 MWSI.                      No:  Serv Intrp, MWD 
 OTIM.hr                 69.09:  Time Operating 
 PCON.           Look Like New:  Pad Condition 
 PMAX.psia             3500.00:  Press Op, Max 
 PV  .cP                 70.00:  Mud PV 
 RUN .                     400:  Run Number 
 ROPA.m/hr                0.00:  ROP Avg 
 ROPN.m/hr                0.00:  ROP Min 
 ROPX.m/hr                0.00:  ROP Max 
 RPMA.rpm                80.00:  RPM Surface Avg 
 RPMN.rpm                10.00:  RPM Surface Min 
 RPMX.rpm               100.00:  RPM Surface Max 
 RRUN.                    0400:  Rig Run Number 
 RTIM.hr                  3.00:  Time Reaming 
 SAZI.deg                 0.00:  Azm, Start 
 SDEP.m                3886.01:  Start Depth 
 SIDD.                      No:  Serv Intrp, DD 
 SINC.deg                 0.00:  Inc, Start 
 SPPA.psig             3270.00:  SPP Avg 
 SPPN.psig             3220.00:  SPP Min 
 SPPX.psig             4430.00:  SPP Max 
 STIM.      23.30.40 25-Mar-21:  Start Time 
 SVCS.                 DD, MWD:  Services 
 SVER.                    9.20:  Sperry Version 
 TDAT.m                   0.00:  Tot Depth Attmp 
 TDDF.                      No:  Trip for DD 
 TFF .                      No:  Trip for Fail 
 TQAA.f-kp                8.00:  Torque Abs Avg 
 TQAN.f-kp                7.00:  Torque Abs Min 
 TQAX.f-kp               11.00:  Torque Abs Max 
 TRRT.°/30m               0.00:  Turn Rotating 
 MRT .                  EWR-M5:  Maximum Recorded Temperature 
 TTMX.degC               76.47:  Max Tool Temp 
 VS01.                90640857:  Virtual Str1 SN 
 VS02.                90639246:  Virtual Str2 SN 
 VS03.                90642265:  Virtual Str3 SN 
 VS04.                11654497:  Virtual Str4 SN 
 WBMN.klb                 0.00:  WOB Min 
 WITN.      Kamran Keberlinkiy:  Customer Rep 
 WITN.           Murad Guliyev:  Customer Rep 2 
 WOBA.klb                 0.00:  WOB Avg 
 WOBX.klb                 0.00:  WOB Max 
 YP  .lhf2               36.00:  Yield Point 
~Curve Information Block
#MNEM.UNIT                 API CODE     Curve Description
#---------               -----------    ---------------------------
 TIME.HHMMSS            00 000 000 000:  GT Time & Date
 GTDEPTH.m              00 000 000 000:  GT Depth
 GTPQH.psia             00 000 000 000:  GT HR Quartz Pressure
 GTTQ.degC              00 000 000 000:  GT Quartz Temperature
 GTTN.NONE              00 000 000 000:  GT Test Number
 GTET.sec               00 000 000 000:  GT Elapsed Test Time
 GTTVD.m                00 000 000 000:  GT True Vertical Depth
#Other Information
#
#WARRANTY: Halliburton will use its best efforts to furnish customers with 
#accurate information and interpretations that are part of, and incident to, the services 
#provided.  However, Halliburton cannot and does not warrant the accuracy 
#or correctness of such information and interpretations.  Under no circumstances should any 
#such information or interpretation be relied upon as the sole basis for any drilling, 
#completion, production, or financial decision or any procedure involving any risk to the 
#safety of any drilling venture, drilling rig or its crew or any other third party.  The 
#Customer has full responsibility for all drilling, completion and production operation.  
#Halliburton makes no representations or warranties, either expressed or 
#implied, including, but not limited to, the implied warranties of merchantability or fitness 
#for a particular purpose, with respect to the services rendered.  In no event will 
#Halliburton be liable for failure to obtain any particular results or for 
#any damages, including, but not limited to, indirect, special or consequential damages, 
#resulting from the use of any information or interpretation provided by Halliburton.
#
~A           TIME           GTDEPTH  GTPQH  GTTQ  GTTN  GTET   GTTVD  
# ...
   09:09:18.000.27-Mar-2021 3361.51 4829.42 60.99 8.00 368.00 3109.50
   09:09:18.200.27-Mar-2021 3361.51 4829.42 60.99 8.00 368.20 3109.50
   09:09:18.400.27-Mar-2021 3361.51 4829.19 60.99 8.00 368.40 3109.50
   09:09:18.600.27-Mar-2021 3361.51 4829.35 60.99 8.00 368.60 3109.50
   09:09:18.800.27-Mar-2021 3361.51 4829.37 60.99 8.00 368.80 3109.50
   09:09:19.000.27-Mar-2021 3361.51 4829.23 60.99 8.00 369.00 3109.50
   09:09:19.200.27-Mar-2021 3361.51 4829.23 60.99 8.00 369.20 3109.50
   09:09:19.400.27-Mar-2021 3361.51 4829.24 60.99 8.00 369.40 3109.50
   09:09:19.600.27-Mar-2021 3361.51 4829.85 60.99 8.00 369.60 3109.50
   09:09:19.800.27-Mar-2021 3361.51 4828.81 60.99 8.00 369.80 3109.50
   09:09:20.000.27-Mar-2021 3361.51 4829.06 60.99 8.00 370.00 3109.50
   09:09:20.200.27-Mar-2021 3361.51 4829.06 60.99 8.00 370.20 3109.50
   09:09:20.400.27-Mar-2021 3361.51 4845.77 60.99 8.00 370.40 3109.50
   09:09:20.600.27-Mar-2021 3361.51 4894.53 60.99 8.00 370.60 3109.50
   09:09:20.800.27-Mar-2021 3361.51 7089.97 60.99 8.00 370.80 3109.50
   09:09:21.000.27-Mar-2021 3361.51 7247.18 60.99 8.00 371.00 3109.50
   09:09:21.200.27-Mar-2021 3361.51 7247.18 60.99 8.00 371.20 3109.50
   09:09:21.400.27-Mar-2021 3361.51 7246.14 60.99 8.00 371.40 3109.50
   09:09:21.600.27-Mar-2021 3361.51 7246.55 60.99 8.00 371.60 3109.50
   09:09:21.800.27-Mar-2021 3361.51 7247.27 60.99 8.00 371.80 3109.50
   09:09:22.000.27-Mar-2021 3361.51 7249.54 60.99 8.00 372.00 3109.50
   09:09:22.200.27-Mar-2021 3361.51 7249.54 60.99 8.00 372.20 3109.50
   09:09:22.400.27-Mar-2021 3361.51 7248.99 61.00 8.00 372.40 3109.50
   09:09:22.600.27-Mar-2021 3361.51 7249.86 61.00 8.00 372.60 3109.50
   09:09:22.800.27-Mar-2021 3361.51 7249.37 61.00 8.00 372.80 3109.50
   09:09:23.000.27-Mar-2021 3361.51 7249.76 61.00 8.00 373.00 3109.50
   09:09:23.200.27-Mar-2021 3361.51 7249.76 61.00 8.00 373.20 3109.50
   09:09:23.400.27-Mar-2021 3361.51 7253.35 61.00 8.00 373.40 3109.50
   09:09:23.600.27-Mar-2021 3361.51 7250.29 61.00 8.00 373.60 3109.50
   09:09:23.800.27-Mar-2021 3361.51 7251.33 61.01 8.00 373.80 3109.50
   09:09:24.000.27-Mar-2021 3361.51 7251.00 61.01 8.00 374.00 3109.50
   09:09:24.200.27-Mar-2021 3361.51 7251.00 61.01 8.00 374.20 3109.50
   09:09:24.400.27-Mar-2021 3361.51 7251.74 61.01 8.00 374.40 3109.50
   09:09:24.600.27-Mar-2021 3361.51 7251.07 61.01 8.00 374.60 3109.50
   09:09:24.800.27-Mar-2021 3361.51 7250.69 61.01 8.00 374.80 3109.50
   09:09:25.000.27-Mar-2021 3361.51 7255.55 61.02 8.00 375.00 3109.50
   09:09:25.200.27-Mar-2021 3361.51 7255.55 61.02 8.00 375.20 3109.50
   09:09:25.400.27-Mar-2021 3361.51 7252.53 61.02 8.00 375.40 3109.50
   09:09:25.600.27-Mar-2021 3361.51 7252.31 61.02 8.00 375.60 3109.50
   09:09:25.800.27-Mar-2021 3361.51 7252.14 61.02 8.00 375.80 3109.50
   09:09:26.000.27-Mar-2021 3361.51 7254.86 61.02 8.00 376.00 3109.50
   09:09:26.200.27-Mar-2021 3361.51 7254.86 61.02 8.00 376.20 3109.50
   09:09:26.400.27-Mar-2021 3361.51 7252.06 61.03 8.00 376.40 3109.50
   09:09:26.600.27-Mar-2021 3361.51 7253.33 61.03 8.00 376.60 3109.50
   09:09:26.800.27-Mar-2021 3361.51 7252.31 61.03 8.00 376.80 3109.50
   09:09:27.000.27-Mar-2021 3361.51 7252.73 61.03 8.00 377.00 3109.50
   09:09:27.200.27-Mar-2021 3361.51 7252.73 61.03 8.00 377.20 3109.50
   09:09:27.400.27-Mar-2021 3361.51 7252.96 61.03 8.00 377.40 3109.50
   09:09:27.600.27-Mar-2021 3361.51 7253.15 61.03 8.00 377.60 3109.50
   09:09:27.800.27-Mar-2021 3361.51 7252.84 61.03 8.00 377.80 3109.50
   09:09:28.000.27-Mar-2021 3361.51 7252.89 61.04 8.00 378.00 3109.50
   09:09:28.200.27-Mar-2021 3361.51 7252.89 61.04 8.00 378.20 3109.50
   09:09:28.400.27-Mar-2021 3361.51 7252.75 61.04 8.00 378.40 3109.50
   09:09:28.600.27-Mar-2021 3361.51 7252.49 61.04 8.00 378.60 3109.50
   09:09:28.800.27-Mar-2021 3361.51 7252.36 61.04 8.00 378.80 3109.50
   09:09:29.000.27-Mar-2021 3361.51 7252.14 61.04 8.00 379.00 3109.50
   09:09:29.200.27-Mar-2021 3361.51 7252.14 61.04 8.00 379.20 3109.50
   09:09:29.400.27-Mar-2021 3361.51 7255.87 61.04 8.00 379.40 3109.50
   09:09:29.600.27-Mar-2021 3361.51 7251.95 61.04 8.00 379.60 3109.50
   09:09:29.800.27-Mar-2021 3361.51 7252.76 61.04 8.00 379.80 3109.50
   09:09:30.000.27-Mar-2021 3361.51 7252.59 61.04 8.00 380.00 3109.50
   09:09:30.200.27-Mar-2021 3361.51 7252.59 61.04 8.00 380.20 3109.50
   09:09:30.400.27-Mar-2021 3361.51 7252.59 61.04 8.00 380.40 3109.50
   09:09:30.600.27-Mar-2021 3361.51 7251.98 61.04 8.00 380.60 3109.50
   09:09:30.800.27-Mar-2021 3361.51 7252.05 61.05 8.00 380.80 3109.50
   09:09:31.000.27-Mar-2021 3361.51 7252.95 61.05 8.00 381.00 3109.50
   09:09:31.200.27-Mar-2021 3361.51 7252.95 61.05 8.00 381.20 3109.50
   09:09:31.400.27-Mar-2021 3361.51 7252.22 61.05 8.00 381.40 3109.50
   09:09:31.600.27-Mar-2021 3361.51 7252.51 61.05 8.00 381.60 3109.50
   09:09:31.800.27-Mar-2021 3361.51 7252.40 61.05 8.00 381.80 3109.50
   09:09:32.000.27-Mar-2021 3361.51 7254.19 61.05 8.00 382.00 3109.50
   09:09:32.200.27-Mar-2021 3361.51 7254.19 61.05 8.00 382.20 3109.50
   09:09:32.400.27-Mar-2021 3361.51 7252.38 61.05 8.00 382.40 3109.50
   09:09:32.600.27-Mar-2021 3361.51 7252.93 61.05 8.00 382.60 3109.50
   09:09:32.800.27-Mar-2021 3361.51 7252.46 61.05 8.00 382.80 3109.50
   09:09:33.000.27-Mar-2021 3361.51 7256.32 61.05 8.00 383.00 3109.50
   09:09:33.200.27-Mar-2021 3361.51 7256.32 61.05 8.00 383.20 3109.50
   09:09:33.400.27-Mar-2021 3361.51 7251.87 61.05 8.00 383.40 3109.50
   09:09:33.600.27-Mar-2021 3361.51 7253.45 61.05 8.00 383.60 3109.50
   09:09:33.800.27-Mar-2021 3361.51 7252.47 61.05 8.00 383.80 3109.50
   09:09:34.000.27-Mar-2021 3361.51 7252.46 61.05 8.00 384.00 3109.50
   09:09:34.200.27-Mar-2021 3361.51 7252.46 61.05 8.00 384.20 3109.50
   09:09:34.400.27-Mar-2021 3361.51 7255.69 61.05 8.00 384.40 3109.50
   09:09:34.600.27-Mar-2021 3361.51 7253.18 61.05 8.00 384.60 3109.50
   09:09:34.800.27-Mar-2021 3361.51 7253.34 61.05 8.00 384.80 3109.50
   09:09:35.000.27-Mar-2021 3361.51 7253.05 61.05 8.00 385.00 3109.50
   09:09:35.200.27-Mar-2021 3361.51 7253.05 61.05 8.00 385.20 3109.50
   09:09:35.400.27-Mar-2021 3361.51 7253.80 61.05 8.00 385.40 3109.50
   09:09:35.600.27-Mar-2021 3361.51 7256.41 61.05 8.00 385.60 3109.50
   09:09:35.800.27-Mar-2021 3361.51 7251.91 61.05 8.00 385.80 3109.50
   09:09:36.000.27-Mar-2021 3361.51 7253.86 61.05 8.00 386.00 3109.50
   09:09:36.200.27-Mar-2021 3361.51 7253.86 61.05 8.00 386.20 3109.50
   09:09:36.400.27-Mar-2021 3361.51 7252.96 61.05 8.00 386.40 3109.50
   09:09:36.600.27-Mar-2021 3361.51 7253.26 61.05 8.00 386.60 3109.50
   09:09:36.800.27-Mar-2021 3361.51 7252.57 61.05 8.00 386.80 3109.50
   09:09:37.000.27-Mar-2021 3361.51 7252.60 61.05 8.00 387.00 3109.50
   09:09:37.200.27-Mar-2021 3361.51 7252.60 61.05 8.00 387.20 3109.50
   09:09:37.400.27-Mar-2021 3361.51 7252.59 61.05 8.00 387.40 3109.50
   09:09:37.600.27-Mar-2021 3361.51 7252.69 61.05 8.00 387.60 3109.50
   09:09:37.800.27-Mar-2021 3361.51 7252.93 61.05 8.00 387.80 3109.50
   09:09:38.000.27-Mar-2021 3361.51 7252.88 61.05 8.00 388.00 3109.50
   09:09:38.200.27-Mar-2021 3361.51 7252.88 61.05 8.00 388.20 3109.50
   09:09:38.400.27-Mar-2021 3361.51 7252.70 61.05 8.00 388.40 3109.50
   09:09:38.600.27-Mar-2021 3361.51 7252.23 61.05 8.00 388.60 3109.50
   09:09:38.800.27-Mar-2021 3361.51 7254.32 61.05 8.00 388.80 3109.50
   09:09:39.000.27-Mar-2021 3361.51 7253.99 61.05 8.00 389.00 3109.50
   09:09:39.200.27-Mar-2021 3361.51 7253.99 61.05 8.00 389.20 3109.50
   09:09:39.400.27-Mar-2021 3361.51 7252.92 61.05 8.00 389.40 3109.50
   09:09:39.600.27-Mar-2021 3361.51 7252.75 61.05 8.00 389.60 3109.50
   09:09:39.800.27-Mar-2021 3361.51 7252.52 61.05 8.00 389.80 3109.50
   09:09:40.000.27-Mar-2021 3361.51 7252.52 61.05 8.00 390.00 3109.50
   09:09:40.200.27-Mar-2021 3361.51 7252.52 61.05 8.00 390.20 3109.50
   09:09:40.400.27-Mar-2021 3361.51 7252.88 61.05 8.00 390.40 3109.50
   09:09:40.600.27-Mar-2021 3361.51 7252.49 61.04 8.00 390.60 3109.50
   09:09:40.800.27-Mar-2021 3361.51 7252.36 61.04 8.00 390.80 3109.50
