~Version Information
 VERS.                  2.0:   CWLS log ASCII Standard -VERSION 2.0
 WRAP.                   NO:   One line per depth step
~Well Information Block
#MNEM.UNIT     VALUE/NAME     DESCRIPTION
#---------     -----------    ---------------------------
 STRT.S             07:02:33 27-Mar-21: START TIME 07:02:33 27-Mar-21
 STOP.S             07:09:44 27-Mar-21: STOP TIME  07:09:44 27-Mar-21
 STEP.S                   0.00: STEP TIME
 NULL.                 -999.25: NULL VALUE
 DFWT.                        :  DIST FWL TEXT
 DFST.                        :  DIST FSL TEXT
 DMF .             Drill Floor:  DRILL MEAS FROM
 STIM.      20.26.40 11-Mar-21:  START TIME
 DATE.      20.26.40 30-Mar-21:  END TIME
 SPUD.               11-Mar-21:  SPUD DATE
 NREF.                    Grid:  NORTH REFERENCE
 HPTY.       Minimum Curvature:  HOLE POS TYPE
 DMOD.             Drill Model:  DRILL MOD DESC
 SVYD.                  Survey:  SURVEY DESC
 ILTD.               Lithology:  INTERP LTH DESC
 FTOP.          Formation Tops:  FORM TOPS DESC
 SON .        AZ-XX-0906805385:  JOB NUMBER
 WTYP.                Deviated:  WELL TYPE
 COMP.     BP Exploration (Caspian Sea) Ltd.:  COMPANY
 UWI .            /AZE00000198:  UNIQUE WELL IDENTIFIER
 API .            /AZE00000198:  API NUMBER
 BASE.              Azerbaijan:  LOGGING EQUIPMENT BASE LOCATION
 REGN.                   EESSA:  REGION
 PROV.                    Baku:  PROVINCE
 STAT.                    Baku:  STATE NAME
 CTRY.              Azerbaijan:  COUNTRY NAME
 FLD .                     ACG:  FIELD NAME
 SRVC.     Turan Drilling & Engineering:  CONTRACTOR
 MWDS.                    Baku:  MWD SHOP
 WELL.                    D09z:  WELL NAME
 JOBN.        AZ-XX-0906805385:  JOB TICKET NUMB
 RIG .              East Azeri:  RIG NAME
 DOE .                     N/A:  DOE NUMBER
 DCON.         Sperry Drilling:  DIRECTNL CONTR
 UNIT.                     N/A:  LOGGING EQUIPMENT ID
 PDAT.          Mean Sea Level:  PERMANENT DATUM
 MDS .        Operator Entered:  MAG DATA SOURCE
 CNTY.                        :  COUNTY
 LOC .                        :  LOCATION
 LMF .             Drill Floor:  LOG MEASURED FROM
 TVDS.m                  43.60:  TVDSS CORRECTN
 LATI.deg                40.02:  LATITUDE
 LONG.deg                51.45:  LONGITUDE
 WHNS.m                 -17.04:  WELL HEAD N/S
 WHEW.m                  -6.28:  WELL HEAD E/W
 UTMX.m              538763.98:  UTM X
 UTMY.m             4431880.20:  UTM Y
 DFWL.m                   0.00:  DISTANCE FWL
 DFSL.m                   0.00:  DISTANCE FSL
 SDEP.m                2680.01:  START DEPTH
 TDD .m                4000.01:  TOTAL DEPTH (DRILLER)
 VSDR.deg               225.71:  VERT SEC DIRECT
 GVFD.g                   1.00:  GRAVITY FIELD
 MFLD.nT              50353.00:  MAGNETIC FIELD
 MDIP.deg                59.49:  MAGNETIC DIP
 MDEC.deg                 6.46:  MAGNETIC DECL
 GRDC.deg                 0.29:  GRID CORRECTION
 AZTC.deg                 6.17:  AZM TOTAL CORR
 EPD .m                   0.00:  ELEVATION
 EGL .m                   0.00:  GROUND ELEVATION
 WDMS.m                 151.80:  WD ELEV
 APD .m                  43.60:  DEPTH ABOVE PD
 AGAP.m                  43.60:  AIR GAP
 VSEW.m                  -6.28:  VERT SEC E/W
 VSNS.m                 -17.04:  VERT SEC N/S
 DEP .m                2656.31:  DEPTH
 EKB .m                  43.60:  KB ELEVATION
 EDF .m                  43.60:  DF ELEVATION
 VSC .                       0:  VS TO CLOSURE
 MAGU.                 1851247:  MAGUTM CHECKSUM
~Parameter Information Block
#MNEM.UNIT       Value        Description
#---------     -----------    ---------------------------
 AV  .mps                 3.00:  Ann Velocity 
 AVMX.mps                 8.00:  Max Ann Veloc 
 AZIF.deg                 0.00:  Azm, Final 
 BHAT.                   Other:  BHA Type 
 BREV.rev                 0.00:  Rev Bit Total 
 BROT.°/30m               0.00:  Build Rotating 
 BS  .in                 10.25:  Bit Size 
 BTPL.psig              511.00:  Bit Press Loss 
 CABU.                      No:  Customer Abuse 
 CGEO.           Asif Pashayev:  Customer Geo 
 COMM.                     ¬\q:  Run Comments 1 
 TCS .hr                 24.03:  Time Ciculation Ended 
 CV  .mps                 3.50:  Crit Velocity 
 CVMX.mps                 4.00:  Max Crit Veloc 
 DD1 .             Aziz Aliyev:  Direct Drillr 1 
 DD2 .      Fakhraddin Guliyev:  Direct Drillr 2 
 DDSV.                   Other:  DD Service 
 DEFF.%                  99.00:  % Det Eff 
 DLRX.°/30m               0.00:  Dogleg Rot Max 
 DLSO.°/30m               0.00:  Dogleg Oriented 
 DLSX.°/30m               0.00:  Dogleg Str Max 
 DRET.      23.00.40 28-Mar-21:  Drill End Time 
 DRST.      23.30.40 25-Mar-21:  Drill Start Tim 
 DTIM.hr                  0.00:  Time Drilling 
 EDEP.m                3886.01:  End Depth 
 ENG1.         Almaz Almadatov:  Engineer 1 
 ENG2.      Artemiy Matviyanov:  Engineer 2 
 ENG3.           Samir Gafarov:  Engineer 3 
 ETIM.      23.00.40 28-Mar-21:  End Time 
 FLOI.gpm               550.00:  Flow In 
 FLON.gpm               500.00:  Flow In Min 
 FLOS.cptm                0.00:  Fluid Loss 
 FLOX.gpm               590.00:  Flow In Max 
 HFLO.                      No:  High Flow 
 HPRE.                      No:  High Pressure 
 HTEM.                      No:  High Temp 
 HYDO.m                   1.80:  Hydro Offset 
 IFIN.deg                 0.00:  Inc, Final 
 IMAX.deg                 0.00:  Inc Max 
 IMIN.deg                 0.00:  Inc Min 
 IMND.m                   0.00:  Inc Min Depth 
 IMXD.m                   0.00:  Inc Max Depth 
 JARR.                      No:  Jarring 
 LETM.      03.22.40 28-Mar-21:  Log End Time 
 LOST.hr                     0:  Lost Rig Time 
 LSTM.      23.30.40 25-Mar-21:  Log Start Time 
 MDCL.ppm             34000.00:  Mud Chlorides 
 MDES.     Inversion Oil/Synthetic:  Mud Desc 
 DFD .sg                  1.51:  Mud Density 
 MDMN.sg                  1.51:  Dens Mud Min 
 MDMX.sg                  1.51:  Dens Mud Max 
 MOIL.                      70:  Run Mud Oil % 
 MOWR.                   70:30:  Run Mud OWR 
 MSND.                     0.2:  Run Mud Sand % 
 MSOL.                   21.60:  Run Mud Solids% 
 DFV .spqt               74.00:  Mud Viscosity 
 MWOD.in                  6.75:  MWD Tool OD 
 MWSI.                      No:  Serv Intrp, MWD 
 OTIM.hr                 69.09:  Time Operating 
 PCON.           Look Like New:  Pad Condition 
 PMAX.psia             3500.00:  Press Op, Max 
 PV  .cP                 70.00:  Mud PV 
 RUN .                     400:  Run Number 
 ROPA.m/hr                0.00:  ROP Avg 
 ROPN.m/hr                0.00:  ROP Min 
 ROPX.m/hr                0.00:  ROP Max 
 RPMA.rpm                80.00:  RPM Surface Avg 
 RPMN.rpm                10.00:  RPM Surface Min 
 RPMX.rpm               100.00:  RPM Surface Max 
 RRUN.                    0400:  Rig Run Number 
 RTIM.hr                  3.00:  Time Reaming 
 SAZI.deg                 0.00:  Azm, Start 
 SDEP.m                3886.01:  Start Depth 
 SIDD.                      No:  Serv Intrp, DD 
 SINC.deg                 0.00:  Inc, Start 
 SPPA.psig             3270.00:  SPP Avg 
 SPPN.psig             3220.00:  SPP Min 
 SPPX.psig             4430.00:  SPP Max 
 STIM.      23.30.40 25-Mar-21:  Start Time 
 SVCS.                 DD, MWD:  Services 
 SVER.                    9.20:  Sperry Version 
 TDAT.m                   0.00:  Tot Depth Attmp 
 TDDF.                      No:  Trip for DD 
 TFF .                      No:  Trip for Fail 
 TQAA.f-kp                8.00:  Torque Abs Avg 
 TQAN.f-kp                7.00:  Torque Abs Min 
 TQAX.f-kp               11.00:  Torque Abs Max 
 TRRT.°/30m               0.00:  Turn Rotating 
 MRT .                  EWR-M5:  Maximum Recorded Temperature 
 TTMX.degC               76.47:  Max Tool Temp 
 VS01.                90640857:  Virtual Str1 SN 
 VS02.                90639246:  Virtual Str2 SN 
 VS03.                90642265:  Virtual Str3 SN 
 VS04.                11654497:  Virtual Str4 SN 
 WBMN.klb                 0.00:  WOB Min 
 WITN.      Kamran Keberlinkiy:  Customer Rep 
 WITN.           Murad Guliyev:  Customer Rep 2 
 WOBA.klb                 0.00:  WOB Avg 
 WOBX.klb                 0.00:  WOB Max 
 YP  .lhf2               36.00:  Yield Point 
~Curve Information Block
#MNEM.UNIT                 API CODE     Curve Description
#---------               -----------    ---------------------------
 TIME.HHMMSS            00 000 000 000:  GT Time & Date
 GTDEPTH.m              00 000 000 000:  GT Depth
 GTPQH.psia             00 000 000 000:  GT HR Quartz Pressure
 GTTQ.degC              00 000 000 000:  GT Quartz Temperature
 GTTN.NONE              00 000 000 000:  GT Test Number
 GTET.sec               00 000 000 000:  GT Elapsed Test Time
 GTTVD.m                00 000 000 000:  GT True Vertical Depth
#Other Information
#
#WARRANTY: Halliburton will use its best efforts to furnish customers with 
#accurate information and interpretations that are part of, and incident to, the services 
#provided.  However, Halliburton cannot and does not warrant the accuracy 
#or correctness of such information and interpretations.  Under no circumstances should any 
#such information or interpretation be relied upon as the sole basis for any drilling, 
#completion, production, or financial decision or any procedure involving any risk to the 
#safety of any drilling venture, drilling rig or its crew or any other third party.  The 
#Customer has full responsibility for all drilling, completion and production operation.  
#Halliburton makes no representations or warranties, either expressed or 
#implied, including, but not limited to, the implied warranties of merchantability or fitness 
#for a particular purpose, with respect to the services rendered.  In no event will 
#Halliburton be liable for failure to obtain any particular results or for 
#any damages, including, but not limited to, indirect, special or consequential damages, 
#resulting from the use of any information or interpretation provided by Halliburton.
#
~A           TIME           GTDEPTH  GTPQH  GTTQ  GTTN  GTET   GTTVD  
# ...
   07:03:19.537.27-Mar-2021 3426.01 5102.75 60.34 6.00  46.01 3169.91
   07:03:19.738.27-Mar-2021 3426.01 5102.75 60.34 6.00  46.21 3169.91
   07:03:19.938.27-Mar-2021 3426.01 4790.25 60.34 6.00  46.41 3169.91
   07:03:20.138.27-Mar-2021 3426.01 4665.28 60.34 6.00  46.61 3169.91
   07:03:20.338.27-Mar-2021 3426.01 4596.25 60.34 6.00  46.81 3169.91
   07:03:20.538.27-Mar-2021 3426.01 4660.45 60.34 6.00  47.01 3169.91
   07:03:20.738.27-Mar-2021 3426.01 4660.45 60.34 6.00  47.21 3169.91
   07:03:20.938.27-Mar-2021 3426.01 4726.30 60.34 6.00  47.41 3169.91
   07:03:21.138.27-Mar-2021 3426.01 4747.46 60.33 6.00  47.61 3169.91
   07:03:21.338.27-Mar-2021 3426.01 4780.66 60.33 6.00  47.81 3169.91
   07:03:21.538.27-Mar-2021 3426.01 4795.32 60.33 6.00  48.01 3169.91
   07:03:21.738.27-Mar-2021 3426.01 4795.32 60.33 6.00  48.21 3169.91
   07:03:21.938.27-Mar-2021 3426.01 4776.78 60.33 6.00  48.41 3169.91
   07:03:22.138.27-Mar-2021 3426.01 4774.22 60.33 6.00  48.61 3169.91
   07:03:22.338.27-Mar-2021 3426.01 4756.60 60.32 6.00  48.81 3169.91
   07:03:22.538.27-Mar-2021 3426.01 4759.03 60.32 6.00  49.01 3169.91
   07:03:22.738.27-Mar-2021 3426.01 4759.03 60.32 6.00  49.21 3169.91
   07:03:22.938.27-Mar-2021 3426.01 4764.19 60.32 6.00  49.41 3169.91
   07:03:23.138.27-Mar-2021 3426.01 4772.16 60.32 6.00  49.61 3169.91
   07:03:23.338.27-Mar-2021 3426.01 4773.85 60.32 6.00  49.81 3169.91
   07:03:23.538.27-Mar-2021 3426.01 4774.06 60.31 6.00  50.01 3169.91
   07:03:23.739.27-Mar-2021 3426.01 4774.06 60.31 6.00  50.21 3169.91
   07:03:23.939.27-Mar-2021 3426.01 4773.65 60.31 6.00  50.41 3169.91
   07:03:24.139.27-Mar-2021 3426.01 4774.08 60.31 6.00  50.61 3169.91
   07:03:24.339.27-Mar-2021 3426.01 4774.11 60.31 6.00  50.81 3169.91
   07:03:24.539.27-Mar-2021 3426.01 4773.83 60.31 6.00  51.01 3169.91
   07:03:24.739.27-Mar-2021 3426.01 4773.83 60.31 6.00  51.21 3169.91
   07:03:24.939.27-Mar-2021 3426.01 4773.77 60.31 6.00  51.41 3169.91
   07:03:25.139.27-Mar-2021 3426.01 4773.29 60.30 6.00  51.61 3169.91
   07:03:25.339.27-Mar-2021 3426.01 4772.84 60.30 6.00  51.81 3169.91
   07:03:25.539.27-Mar-2021 3426.01 4773.27 60.30 6.00  52.01 3169.91
   07:03:25.739.27-Mar-2021 3426.01 4773.27 60.30 6.00  52.21 3169.91
   07:03:25.939.27-Mar-2021 3426.01 4773.68 60.30 6.00  52.41 3169.91
   07:03:26.139.27-Mar-2021 3426.01 4773.62 60.30 6.00  52.61 3169.91
   07:03:26.339.27-Mar-2021 3426.01 4773.58 60.30 6.00  52.81 3169.91
   07:03:26.539.27-Mar-2021 3426.01 4773.56 60.30 6.00  53.01 3169.91
   07:03:26.739.27-Mar-2021 3426.01 4773.56 60.30 6.00  53.21 3169.91
   07:03:26.939.27-Mar-2021 3426.01 4773.31 60.29 6.00  53.41 3169.91
   07:03:27.139.27-Mar-2021 3426.01 4782.67 60.29 6.00  53.61 3169.91
   07:03:27.339.27-Mar-2021 3426.01 4733.84 60.29 6.00  53.81 3169.91
   07:03:27.539.27-Mar-2021 3426.01 4580.97 60.29 6.00  54.01 3169.91
   07:03:27.740.27-Mar-2021 3426.01 4580.97 60.29 6.00  54.21 3169.91
   07:03:27.940.27-Mar-2021 3426.01 4590.05 60.29 6.00  54.41 3169.91
   07:03:28.140.27-Mar-2021 3426.01 4596.99 60.29 6.00  54.61 3169.91
   07:03:28.340.27-Mar-2021 3426.01 4601.60 60.29 6.00  54.81 3169.91
   07:03:28.540.27-Mar-2021 3426.01 4604.73 60.29 6.00  55.01 3169.91
   07:03:28.740.27-Mar-2021 3426.01 4604.73 60.29 6.00  55.21 3169.91
   07:03:28.940.27-Mar-2021 3426.01 4607.43 60.29 6.00  55.41 3169.91
   07:03:29.140.27-Mar-2021 3426.01 4607.14 60.29 6.00  55.61 3169.91
   07:03:29.340.27-Mar-2021 3426.01 4614.95 60.29 6.00  55.81 3169.91
   07:03:29.540.27-Mar-2021 3426.01 4615.65 60.29 6.00  56.01 3169.91
   07:03:29.740.27-Mar-2021 3426.01 4615.65 60.29 6.00  56.21 3169.91
   07:03:29.940.27-Mar-2021 3426.01 4612.14 60.29 6.00  56.41 3169.91
   07:03:30.140.27-Mar-2021 3426.01 4612.80 60.29 6.00  56.61 3169.91
   07:03:30.340.27-Mar-2021 3426.01 4621.01 60.29 6.00  56.81 3169.91
   07:03:30.540.27-Mar-2021 3426.01 4618.66 60.29 6.00  57.01 3169.91
   07:03:30.740.27-Mar-2021 3426.01 4618.66 60.29 6.00  57.21 3169.91
   07:03:30.940.27-Mar-2021 3426.01 4618.20 60.28 6.00  57.41 3169.91
   07:03:31.140.27-Mar-2021 3426.01 4615.87 60.28 6.00  57.61 3169.91
   07:03:31.340.27-Mar-2021 3426.01 4615.49 60.28 6.00  57.81 3169.91
   07:03:31.540.27-Mar-2021 3426.01 4617.04 60.28 6.00  58.01 3169.91
   07:03:31.741.27-Mar-2021 3426.01 4617.04 60.28 6.00  58.21 3169.91
   07:03:31.941.27-Mar-2021 3426.01 4615.47 60.28 6.00  58.41 3169.91
   07:03:32.141.27-Mar-2021 3426.01 4615.05 60.28 6.00  58.61 3169.91
   07:03:32.341.27-Mar-2021 3426.01 4614.78 60.28 6.00  58.81 3169.91
   07:03:32.541.27-Mar-2021 3426.01 4615.97 60.28 6.00  59.01 3169.91
   07:03:32.741.27-Mar-2021 3426.01 4615.97 60.28 6.00  59.21 3169.91
   07:03:32.941.27-Mar-2021 3426.01 4616.08 60.28 6.00  59.41 3169.91
   07:03:33.141.27-Mar-2021 3426.01 4618.91 60.28 6.00  59.61 3169.91
   07:03:33.341.27-Mar-2021 3426.01 4618.41 60.28 6.00  59.81 3169.91
   07:03:33.541.27-Mar-2021 3426.01 4617.13 60.28 6.00  60.01 3169.91
   07:03:33.741.27-Mar-2021 3426.01 4617.13 60.28 6.00  60.21 3169.91
   07:03:33.941.27-Mar-2021 3426.01 4615.29 60.28 6.00  60.42 3169.91
   07:03:34.141.27-Mar-2021 3426.01 4618.69 60.28 6.00  60.62 3169.91
   07:03:34.341.27-Mar-2021 3426.01 4618.00 60.28 6.00  60.82 3169.91
   07:03:34.541.27-Mar-2021 3426.01 4617.03 60.28 6.00  61.02 3169.91
   07:03:34.741.27-Mar-2021 3426.01 4617.03 60.28 6.00  61.22 3169.91
   07:03:34.941.27-Mar-2021 3426.01 4615.95 60.28 6.00  61.42 3169.91
   07:03:35.141.27-Mar-2021 3426.01 4615.74 60.28 6.00  61.62 3169.91
   07:03:35.341.27-Mar-2021 3426.01 4618.79 60.28 6.00  61.82 3169.91
   07:03:35.541.27-Mar-2021 3426.01 4619.91 60.28 6.00  62.02 3169.91
   07:03:35.742.27-Mar-2021 3426.01 4619.91 60.28 6.00  62.22 3169.91
   07:03:35.942.27-Mar-2021 3426.01 4617.16 60.28 6.00  62.42 3169.91
   07:03:36.142.27-Mar-2021 3426.01 4617.70 60.28 6.00  62.62 3169.91
   07:03:36.342.27-Mar-2021 3426.01 4616.27 60.28 6.00  62.82 3169.91
   07:03:36.542.27-Mar-2021 3426.01 4616.16 60.28 6.00  63.02 3169.91
   07:03:36.742.27-Mar-2021 3426.01 4616.16 60.28 6.00  63.22 3169.91
   07:03:36.942.27-Mar-2021 3426.01 4616.11 60.28 6.00  63.42 3169.91
   07:03:37.142.27-Mar-2021 3426.01 4641.41 60.28 6.00  63.62 3169.91
   07:03:37.342.27-Mar-2021 3426.01 4761.26 60.28 6.00  63.82 3169.91
   07:03:37.542.27-Mar-2021 3426.01 4772.03 60.28 6.00  64.02 3169.91
   07:03:37.742.27-Mar-2021 3426.01 4772.03 60.28 6.00  64.22 3169.91
   07:03:37.942.27-Mar-2021 3426.01 4771.45 60.28 6.00  64.42 3169.91
   07:03:38.142.27-Mar-2021 3426.01 4771.60 60.28 6.00  64.62 3169.91
   07:03:38.342.27-Mar-2021 3426.01 4771.73 60.28 6.00  64.82 3169.91
   07:03:38.542.27-Mar-2021 3426.01 4771.90 60.28 6.00  65.02 3169.91
   07:03:38.742.27-Mar-2021 3426.01 4771.90 60.28 6.00  65.22 3169.91
   07:03:38.942.27-Mar-2021 3426.01 4771.76 60.28 6.00  65.42 3169.91
   07:03:39.142.27-Mar-2021 3426.01 4771.62 60.29 6.00  65.62 3169.91
   07:03:39.342.27-Mar-2021 3426.01 4771.89 60.29 6.00  65.82 3169.91
   07:03:39.542.27-Mar-2021 3426.01 4771.97 60.29 6.00  66.02 3169.91
   07:03:39.743.27-Mar-2021 3426.01 4771.97 60.29 6.00  66.22 3169.91
   07:03:39.943.27-Mar-2021 3426.01 4770.96 60.29 6.00  66.42 3169.91
   07:03:40.143.27-Mar-2021 3426.01 4771.92 60.29 6.00  66.62 3169.91
   07:03:40.343.27-Mar-2021 3426.01 4772.07 60.29 6.00  66.82 3169.91
   07:03:40.543.27-Mar-2021 3426.01 4771.86 60.29 6.00  67.02 3169.91
   07:03:40.743.27-Mar-2021 3426.01 4771.86 60.29 6.00  67.22 3169.91
   07:03:40.943.27-Mar-2021 3426.01 4772.03 60.29 6.00  67.42 3169.91
   07:03:41.143.27-Mar-2021 3426.01 4772.15 60.29 6.00  67.62 3169.91
   07:03:41.343.27-Mar-2021 3426.01 4772.14 60.29 6.00  67.82 3169.91
   07:03:41.543.27-Mar-2021 3426.01 4772.17 60.29 6.00  68.02 3169.91
   07:03:41.743.27-Mar-2021 3426.01 4772.17 60.29 6.00  68.22 3169.91
   07:03:41.943.27-Mar-2021 3426.01 4772.19 60.29 6.00  68.42 3169.91
   07:03:42.143.27-Mar-2021 3426.01 4772.19 60.29 6.00  68.62 3169.91
   07:03:42.343.27-Mar-2021 3426.01 4772.28 60.29 6.00  68.82 3169.91
