~Version Information
 VERS.                  2.0:   CWLS log ASCII Standard -VERSION 2.0
 WRAP.                   NO:   One line per depth step
~Well Information Block
#MNEM.UNIT     VALUE/NAME     DESCRIPTION
#---------     -----------    ---------------------------
 STRT.S             01:51:11 27-Mar-21: START TIME 01:51:11 27-Mar-21
 STOP.S             01:58:18 27-Mar-21: STOP TIME  01:58:18 27-Mar-21
 STEP.S                   0.00: STEP TIME
 NULL.                 -999.25: NULL VALUE
 DFWT.                        :  DIST FWL TEXT
 DFST.                        :  DIST FSL TEXT
 DMF .             Drill Floor:  DRILL MEAS FROM
 STIM.      20.26.40 11-Mar-21:  START TIME
 DATE.      20.26.40 30-Mar-21:  END TIME
 SPUD.               11-Mar-21:  SPUD DATE
 NREF.                    Grid:  NORTH REFERENCE
 HPTY.       Minimum Curvature:  HOLE POS TYPE
 DMOD.             Drill Model:  DRILL MOD DESC
 SVYD.                  Survey:  SURVEY DESC
 ILTD.               Lithology:  INTERP LTH DESC
 FTOP.          Formation Tops:  FORM TOPS DESC
 SON .        AZ-XX-0906805385:  JOB NUMBER
 WTYP.                Deviated:  WELL TYPE
 COMP.     BP Exploration (Caspian Sea) Ltd.:  COMPANY
 UWI .            /AZE00000198:  UNIQUE WELL IDENTIFIER
 API .            /AZE00000198:  API NUMBER
 BASE.              Azerbaijan:  LOGGING EQUIPMENT BASE LOCATION
 REGN.                   EESSA:  REGION
 PROV.                    Baku:  PROVINCE
 STAT.                    Baku:  STATE NAME
 CTRY.              Azerbaijan:  COUNTRY NAME
 FLD .                     ACG:  FIELD NAME
 SRVC.     Turan Drilling & Engineering:  CONTRACTOR
 MWDS.                    Baku:  MWD SHOP
 WELL.                    D09z:  WELL NAME
 JOBN.        AZ-XX-0906805385:  JOB TICKET NUMB
 RIG .              East Azeri:  RIG NAME
 DOE .                     N/A:  DOE NUMBER
 DCON.         Sperry Drilling:  DIRECTNL CONTR
 UNIT.                     N/A:  LOGGING EQUIPMENT ID
 PDAT.          Mean Sea Level:  PERMANENT DATUM
 MDS .        Operator Entered:  MAG DATA SOURCE
 CNTY.                        :  COUNTY
 LOC .                        :  LOCATION
 LMF .             Drill Floor:  LOG MEASURED FROM
 TVDS.m                  43.60:  TVDSS CORRECTN
 LATI.deg                40.02:  LATITUDE
 LONG.deg                51.45:  LONGITUDE
 WHNS.m                 -17.04:  WELL HEAD N/S
 WHEW.m                  -6.28:  WELL HEAD E/W
 UTMX.m              538763.98:  UTM X
 UTMY.m             4431880.20:  UTM Y
 DFWL.m                   0.00:  DISTANCE FWL
 DFSL.m                   0.00:  DISTANCE FSL
 SDEP.m                2680.01:  START DEPTH
 TDD .m                4000.01:  TOTAL DEPTH (DRILLER)
 VSDR.deg               225.71:  VERT SEC DIRECT
 GVFD.g                   1.00:  GRAVITY FIELD
 MFLD.nT              50353.00:  MAGNETIC FIELD
 MDIP.deg                59.49:  MAGNETIC DIP
 MDEC.deg                 6.46:  MAGNETIC DECL
 GRDC.deg                 0.29:  GRID CORRECTION
 AZTC.deg                 6.17:  AZM TOTAL CORR
 EPD .m                   0.00:  ELEVATION
 EGL .m                   0.00:  GROUND ELEVATION
 WDMS.m                 151.80:  WD ELEV
 APD .m                  43.60:  DEPTH ABOVE PD
 AGAP.m                  43.60:  AIR GAP
 VSEW.m                  -6.28:  VERT SEC E/W
 VSNS.m                 -17.04:  VERT SEC N/S
 DEP .m                2656.31:  DEPTH
 EKB .m                  43.60:  KB ELEVATION
 EDF .m                  43.60:  DF ELEVATION
 VSC .                       0:  VS TO CLOSURE
 MAGU.                 1851247:  MAGUTM CHECKSUM
~Parameter Information Block
#MNEM.UNIT       Value        Description
#---------     -----------    ---------------------------
 AV  .mps                 3.00:  Ann Velocity 
 AVMX.mps                 8.00:  Max Ann Veloc 
 AZIF.deg                 0.00:  Azm, Final 
 BHAT.                   Other:  BHA Type 
 BREV.rev                 0.00:  Rev Bit Total 
 BROT.°/30m               0.00:  Build Rotating 
 BS  .in                 10.25:  Bit Size 
 BTPL.psig              511.00:  Bit Press Loss 
 CABU.                      No:  Customer Abuse 
 CGEO.           Asif Pashayev:  Customer Geo 
 COMM.                     |ºg:  Run Comments 1 
 TCS .hr                 24.03:  Time Ciculation Ended 
 CV  .mps                 3.50:  Crit Velocity 
 CVMX.mps                 4.00:  Max Crit Veloc 
 DD1 .             Aziz Aliyev:  Direct Drillr 1 
 DD2 .      Fakhraddin Guliyev:  Direct Drillr 2 
 DDSV.                   Other:  DD Service 
 DEFF.%                  99.00:  % Det Eff 
 DLRX.°/30m               0.00:  Dogleg Rot Max 
 DLSO.°/30m               0.00:  Dogleg Oriented 
 DLSX.°/30m               0.00:  Dogleg Str Max 
 DRET.      23.00.40 28-Mar-21:  Drill End Time 
 DRST.      23.30.40 25-Mar-21:  Drill Start Tim 
 DTIM.hr                  0.00:  Time Drilling 
 EDEP.m                3886.01:  End Depth 
 ENG1.         Almaz Almadatov:  Engineer 1 
 ENG2.      Artemiy Matviyanov:  Engineer 2 
 ENG3.           Samir Gafarov:  Engineer 3 
 ETIM.      23.00.40 28-Mar-21:  End Time 
 FLOI.gpm               550.00:  Flow In 
 FLON.gpm               500.00:  Flow In Min 
 FLOS.cptm                0.00:  Fluid Loss 
 FLOX.gpm               590.00:  Flow In Max 
 HFLO.                      No:  High Flow 
 HPRE.                      No:  High Pressure 
 HTEM.                      No:  High Temp 
 HYDO.m                   1.80:  Hydro Offset 
 IFIN.deg                 0.00:  Inc, Final 
 IMAX.deg                 0.00:  Inc Max 
 IMIN.deg                 0.00:  Inc Min 
 IMND.m                   0.00:  Inc Min Depth 
 IMXD.m                   0.00:  Inc Max Depth 
 JARR.                      No:  Jarring 
 LETM.      03.22.40 28-Mar-21:  Log End Time 
 LOST.hr                     0:  Lost Rig Time 
 LSTM.      23.30.40 25-Mar-21:  Log Start Time 
 MDCL.ppm             34000.00:  Mud Chlorides 
 MDES.     Inversion Oil/Synthetic:  Mud Desc 
 DFD .sg                  1.51:  Mud Density 
 MDMN.sg                  1.51:  Dens Mud Min 
 MDMX.sg                  1.51:  Dens Mud Max 
 MOIL.                      70:  Run Mud Oil % 
 MOWR.                   70:30:  Run Mud OWR 
 MSND.                     0.2:  Run Mud Sand % 
 MSOL.                   21.60:  Run Mud Solids% 
 DFV .spqt               74.00:  Mud Viscosity 
 MWOD.in                  6.75:  MWD Tool OD 
 MWSI.                      No:  Serv Intrp, MWD 
 OTIM.hr                 69.09:  Time Operating 
 PCON.           Look Like New:  Pad Condition 
 PMAX.psia             3500.00:  Press Op, Max 
 PV  .cP                 70.00:  Mud PV 
 RUN .                     400:  Run Number 
 ROPA.m/hr                0.00:  ROP Avg 
 ROPN.m/hr                0.00:  ROP Min 
 ROPX.m/hr                0.00:  ROP Max 
 RPMA.rpm                80.00:  RPM Surface Avg 
 RPMN.rpm                10.00:  RPM Surface Min 
 RPMX.rpm               100.00:  RPM Surface Max 
 RRUN.                    0400:  Rig Run Number 
 RTIM.hr                  3.00:  Time Reaming 
 SAZI.deg                 0.00:  Azm, Start 
 SDEP.m                3886.01:  Start Depth 
 SIDD.                      No:  Serv Intrp, DD 
 SINC.deg                 0.00:  Inc, Start 
 SPPA.psig             3270.00:  SPP Avg 
 SPPN.psig             3220.00:  SPP Min 
 SPPX.psig             4430.00:  SPP Max 
 STIM.      23.30.40 25-Mar-21:  Start Time 
 SVCS.                 DD, MWD:  Services 
 SVER.                    9.20:  Sperry Version 
 TDAT.m                   0.00:  Tot Depth Attmp 
 TDDF.                      No:  Trip for DD 
 TFF .                      No:  Trip for Fail 
 TQAA.f-kp                8.00:  Torque Abs Avg 
 TQAN.f-kp                7.00:  Torque Abs Min 
 TQAX.f-kp               11.00:  Torque Abs Max 
 TRRT.°/30m               0.00:  Turn Rotating 
 MRT .                  EWR-M5:  Maximum Recorded Temperature 
 TTMX.degC               76.47:  Max Tool Temp 
 VS01.                90640857:  Virtual Str1 SN 
 VS02.                90639246:  Virtual Str2 SN 
 VS03.                90642265:  Virtual Str3 SN 
 VS04.                11654497:  Virtual Str4 SN 
 WBMN.klb                 0.00:  WOB Min 
 WITN.      Kamran Keberlinkiy:  Customer Rep 
 WITN.           Murad Guliyev:  Customer Rep 2 
 WOBA.klb                 0.00:  WOB Avg 
 WOBX.klb                 0.00:  WOB Max 
 YP  .lhf2               36.00:  Yield Point 
~Curve Information Block
#MNEM.UNIT                 API CODE     Curve Description
#---------               -----------    ---------------------------
 TIME.HHMMSS            00 000 000 000:  GT Time & Date
 GTDEPTH.m              00 000 000 000:  GT Depth
 GTPQH.psia             00 000 000 000:  GT HR Quartz Pressure
 GTTQ.degC              00 000 000 000:  GT Quartz Temperature
 GTTN.NONE              00 000 000 000:  GT Test Number
 GTET.sec               00 000 000 000:  GT Elapsed Test Time
 GTTVD.m                00 000 000 000:  GT True Vertical Depth
#Other Information
#
#WARRANTY: Halliburton will use its best efforts to furnish customers with 
#accurate information and interpretations that are part of, and incident to, the services 
#provided.  However, Halliburton cannot and does not warrant the accuracy 
#or correctness of such information and interpretations.  Under no circumstances should any 
#such information or interpretation be relied upon as the sole basis for any drilling, 
#completion, production, or financial decision or any procedure involving any risk to the 
#safety of any drilling venture, drilling rig or its crew or any other third party.  The 
#Customer has full responsibility for all drilling, completion and production operation.  
#Halliburton makes no representations or warranties, either expressed or 
#implied, including, but not limited to, the implied warranties of merchantability or fitness 
#for a particular purpose, with respect to the services rendered.  In no event will 
#Halliburton be liable for failure to obtain any particular results or for 
#any damages, including, but not limited to, indirect, special or consequential damages, 
#resulting from the use of any information or interpretation provided by Halliburton.
#
~A           TIME           GTDEPTH  GTPQH  GTTQ  GTTN  GTET   GTTVD  
# ...
   01:57:19.717.27-Mar-2021 3763.51 4955.26 60.00 1.00 368.08 3487.00
   01:57:19.917.27-Mar-2021 3763.51 4955.26 60.00 1.00 368.28 3487.00
   01:57:20.117.27-Mar-2021 3763.51 4955.19 60.00 1.00 368.48 3487.00
   01:57:20.317.27-Mar-2021 3763.51 4955.19 60.00 1.00 368.68 3487.00
   01:57:20.517.27-Mar-2021 3763.51 4955.17 60.00 1.00 368.88 3487.00
   01:57:20.717.27-Mar-2021 3763.51 4955.16 60.00 1.00 369.08 3487.00
   01:57:20.917.27-Mar-2021 3763.51 4955.16 60.00 1.00 369.28 3487.00
   01:57:21.117.27-Mar-2021 3763.51 4955.16 60.00 1.00 369.48 3487.00
   01:57:21.317.27-Mar-2021 3763.51 4955.23 60.00 1.00 369.68 3487.00
   01:57:21.517.27-Mar-2021 3763.51 4955.16 60.00 1.00 369.88 3487.00
   01:57:21.717.27-Mar-2021 3763.51 4955.17 60.00 1.00 370.08 3487.00
   01:57:21.917.27-Mar-2021 3763.51 4955.17 60.00 1.00 370.28 3487.00
   01:57:22.117.27-Mar-2021 3763.51 4955.18 60.00 1.00 370.48 3487.00
   01:57:22.317.27-Mar-2021 3763.51 4957.10 60.00 1.00 370.68 3487.00
   01:57:22.517.27-Mar-2021 3763.51 4961.39 60.00 1.00 370.88 3487.00
   01:57:22.717.27-Mar-2021 3763.51 4975.31 60.00 1.00 371.08 3487.00
   01:57:22.917.27-Mar-2021 3763.51 4975.31 60.00 1.00 371.28 3487.00
   01:57:23.117.27-Mar-2021 3763.51 8089.45 60.00 1.00 371.48 3487.00
   01:57:23.317.27-Mar-2021 3763.51 8092.13 60.00 1.00 371.68 3487.00
   01:57:23.517.27-Mar-2021 3763.51 8090.32 60.00 1.00 371.88 3487.00
   01:57:23.717.27-Mar-2021 3763.51 8089.49 60.00 1.00 372.08 3487.00
   01:57:23.917.27-Mar-2021 3763.51 8089.49 60.00 1.00 372.28 3487.00
   01:57:24.118.27-Mar-2021 3763.51 8089.12 60.01 1.00 372.48 3487.00
   01:57:24.318.27-Mar-2021 3763.51 8089.61 60.01 1.00 372.68 3487.00
   01:57:24.518.27-Mar-2021 3763.51 8090.32 60.01 1.00 372.88 3487.00
   01:57:24.718.27-Mar-2021 3763.51 8095.34 60.01 1.00 373.08 3487.00
   01:57:24.918.27-Mar-2021 3763.51 8095.34 60.01 1.00 373.28 3487.00
   01:57:25.118.27-Mar-2021 3763.51 8093.89 60.01 1.00 373.48 3487.00
   01:57:25.318.27-Mar-2021 3763.51 8094.18 60.02 1.00 373.68 3487.00
   01:57:25.518.27-Mar-2021 3763.51 8094.38 60.02 1.00 373.88 3487.00
   01:57:25.718.27-Mar-2021 3763.51 8094.70 60.02 1.00 374.08 3487.00
   01:57:25.918.27-Mar-2021 3763.51 8094.70 60.02 1.00 374.28 3487.00
   01:57:26.118.27-Mar-2021 3763.51 8100.83 60.02 1.00 374.48 3487.00
   01:57:26.318.27-Mar-2021 3763.51 8095.16 60.03 1.00 374.68 3487.00
   01:57:26.518.27-Mar-2021 3763.51 8096.47 60.03 1.00 374.88 3487.00
   01:57:26.718.27-Mar-2021 3763.51 8095.32 60.03 1.00 375.08 3487.00
   01:57:26.918.27-Mar-2021 3763.51 8095.32 60.03 1.00 375.28 3487.00
   01:57:27.118.27-Mar-2021 3763.51 8095.46 60.04 1.00 375.48 3487.00
   01:57:27.318.27-Mar-2021 3763.51 8095.89 60.04 1.00 375.68 3487.00
   01:57:27.518.27-Mar-2021 3763.51 8095.39 60.04 1.00 375.88 3487.00
   01:57:27.718.27-Mar-2021 3763.51 8095.39 60.04 1.00 376.08 3487.00
   01:57:27.918.27-Mar-2021 3763.51 8095.39 60.04 1.00 376.28 3487.00
   01:57:28.118.27-Mar-2021 3763.51 8095.07 60.05 1.00 376.48 3487.00
   01:57:28.318.27-Mar-2021 3763.51 8095.10 60.05 1.00 376.68 3487.00
   01:57:28.518.27-Mar-2021 3763.51 8095.92 60.05 1.00 376.88 3487.00
   01:57:28.718.27-Mar-2021 3763.51 8096.70 60.05 1.00 377.08 3487.00
   01:57:28.919.27-Mar-2021 3763.51 8096.70 60.05 1.00 377.28 3487.00
   01:57:29.119.27-Mar-2021 3763.51 8096.95 60.05 1.00 377.48 3487.00
   01:57:29.319.27-Mar-2021 3763.51 8099.66 60.06 1.00 377.68 3487.00
   01:57:29.519.27-Mar-2021 3763.51 8097.22 60.06 1.00 377.88 3487.00
   01:57:29.719.27-Mar-2021 3763.51 8098.37 60.06 1.00 378.08 3487.00
   01:57:29.919.27-Mar-2021 3763.51 8098.37 60.06 1.00 378.28 3487.00
   01:57:30.119.27-Mar-2021 3763.51 8096.70 60.06 1.00 378.48 3487.00
   01:57:30.319.27-Mar-2021 3763.51 8096.16 60.07 1.00 378.68 3487.00
   01:57:30.519.27-Mar-2021 3763.51 8095.59 60.07 1.00 378.88 3487.00
   01:57:30.719.27-Mar-2021 3763.51 8095.90 60.07 1.00 379.08 3487.00
   01:57:30.919.27-Mar-2021 3763.51 8095.90 60.07 1.00 379.28 3487.00
   01:57:31.119.27-Mar-2021 3763.51 8095.72 60.07 1.00 379.48 3487.00
   01:57:31.319.27-Mar-2021 3763.51 8095.87 60.07 1.00 379.68 3487.00
   01:57:31.519.27-Mar-2021 3763.51 8096.07 60.07 1.00 379.88 3487.00
   01:57:31.719.27-Mar-2021 3763.51 8095.75 60.07 1.00 380.08 3487.00
   01:57:31.919.27-Mar-2021 3763.51 8095.75 60.07 1.00 380.28 3487.00
   01:57:32.119.27-Mar-2021 3763.51 8100.74 60.08 1.00 380.48 3487.00
   01:57:32.319.27-Mar-2021 3763.51 8098.95 60.08 1.00 380.68 3487.00
   01:57:32.519.27-Mar-2021 3763.51 8097.08 60.08 1.00 380.88 3487.00
   01:57:32.719.27-Mar-2021 3763.51 8097.02 60.08 1.00 381.08 3487.00
   01:57:32.919.27-Mar-2021 3763.51 8097.02 60.08 1.00 381.28 3487.00
   01:57:33.119.27-Mar-2021 3763.51 8096.25 60.08 1.00 381.48 3487.00
   01:57:33.319.27-Mar-2021 3763.51 8097.56 60.08 1.00 381.68 3487.00
   01:57:33.519.27-Mar-2021 3763.51 8096.61 60.08 1.00 381.88 3487.00
   01:57:33.720.27-Mar-2021 3763.51 8096.26 60.08 1.00 382.08 3487.00
   01:57:33.920.27-Mar-2021 3763.51 8096.26 60.08 1.00 382.28 3487.00
   01:57:34.120.27-Mar-2021 3763.51 8095.17 60.08 1.00 382.48 3487.00
   01:57:34.320.27-Mar-2021 3763.51 8095.50 60.08 1.00 382.68 3487.00
   01:57:34.520.27-Mar-2021 3763.51 8099.77 60.08 1.00 382.88 3487.00
   01:57:34.720.27-Mar-2021 3763.51 8099.04 60.08 1.00 383.08 3487.00
   01:57:34.920.27-Mar-2021 3763.51 8099.04 60.08 1.00 383.28 3487.00
   01:57:35.120.27-Mar-2021 3763.51 8097.01 60.09 1.00 383.48 3487.00
   01:57:35.320.27-Mar-2021 3763.51 8096.82 60.09 1.00 383.68 3487.00
   01:57:35.520.27-Mar-2021 3763.51 8097.38 60.09 1.00 383.88 3487.00
   01:57:35.720.27-Mar-2021 3763.51 8097.40 60.09 1.00 384.08 3487.00
   01:57:35.920.27-Mar-2021 3763.51 8097.40 60.09 1.00 384.28 3487.00
   01:57:36.120.27-Mar-2021 3763.51 8099.68 60.09 1.00 384.48 3487.00
   01:57:36.320.27-Mar-2021 3763.51 8097.51 60.09 1.00 384.68 3487.00
   01:57:36.520.27-Mar-2021 3763.51 8096.93 60.09 1.00 384.88 3487.00
   01:57:36.720.27-Mar-2021 3763.51 8096.68 60.09 1.00 385.08 3487.00
   01:57:36.920.27-Mar-2021 3763.51 8096.68 60.09 1.00 385.28 3487.00
   01:57:37.120.27-Mar-2021 3763.51 8097.32 60.09 1.00 385.48 3487.00
   01:57:37.320.27-Mar-2021 3763.51 8097.07 60.09 1.00 385.68 3487.00
   01:57:37.520.27-Mar-2021 3763.51 8096.35 60.09 1.00 385.88 3487.00
   01:57:37.720.27-Mar-2021 3763.51 8096.39 60.09 1.00 386.08 3487.00
   01:57:37.920.27-Mar-2021 3763.51 8096.39 60.09 1.00 386.28 3487.00
   01:57:38.120.27-Mar-2021 3763.51 8096.32 60.09 1.00 386.48 3487.00
   01:57:38.320.27-Mar-2021 3763.51 8097.03 60.09 1.00 386.68 3487.00
   01:57:38.521.27-Mar-2021 3763.51 8097.74 60.09 1.00 386.88 3487.00
   01:57:38.721.27-Mar-2021 3763.51 8097.70 60.09 1.00 387.08 3487.00
   01:57:38.921.27-Mar-2021 3763.51 8097.70 60.09 1.00 387.28 3487.00
   01:57:39.121.27-Mar-2021 3763.51 8096.87 60.09 1.00 387.48 3487.00
   01:57:39.321.27-Mar-2021 3763.51 8100.48 60.09 1.00 387.68 3487.00
   01:57:39.521.27-Mar-2021 3763.51 8099.00 60.09 1.00 387.88 3487.00
   01:57:39.721.27-Mar-2021 3763.51 8097.12 60.09 1.00 388.08 3487.00
   01:57:39.921.27-Mar-2021 3763.51 8097.12 60.09 1.00 388.28 3487.00
   01:57:40.121.27-Mar-2021 3763.51 8096.25 60.09 1.00 388.48 3487.00
   01:57:40.321.27-Mar-2021 3763.51 8095.90 60.09 1.00 388.68 3487.00
   01:57:40.521.27-Mar-2021 3763.51 8095.77 60.09 1.00 388.88 3487.00
   01:57:40.721.27-Mar-2021 3763.51 8095.88 60.09 1.00 389.08 3487.00
   01:57:40.921.27-Mar-2021 3763.51 8095.88 60.09 1.00 389.28 3487.00
   01:57:41.121.27-Mar-2021 3763.51 8095.88 60.09 1.00 389.48 3487.00
   01:57:41.321.27-Mar-2021 3763.51 8096.14 60.09 1.00 389.68 3487.00
   01:57:41.521.27-Mar-2021 3763.51 8096.20 60.09 1.00 389.88 3487.00
   01:57:41.721.27-Mar-2021 3763.51 8097.02 60.09 1.00 390.08 3487.00
   01:57:41.921.27-Mar-2021 3763.51 8097.02 60.09 1.00 390.28 3487.00
   01:57:42.121.27-Mar-2021 3763.51 8097.64 60.09 1.00 390.48 3487.00
   01:57:42.321.27-Mar-2021 3763.51 8098.50 60.09 1.00 390.68 3487.00
   01:57:42.521.27-Mar-2021 3763.51 8097.33 60.09 1.00 390.88 3487.00
