~Version Information
 VERS.                  2.0:   CWLS log ASCII Standard -VERSION 2.0
 WRAP.                   NO:   One line per depth step
~Well Information Block
#MNEM.UNIT     VALUE/NAME     DESCRIPTION
#---------     -----------    ---------------------------
 STRT.S             11:05:10 27-Mar-21: START TIME 11:05:10 27-Mar-21
 STOP.S             11:12:21 27-Mar-21: STOP TIME  11:12:21 27-Mar-21
 STEP.S                   0.00: STEP TIME
 NULL.                 -999.25: NULL VALUE
 DFWT.                        :  DIST FWL TEXT
 DFST.                        :  DIST FSL TEXT
 DMF .             Drill Floor:  DRILL MEAS FROM
 STIM.      20.26.40 11-Mar-21:  START TIME
 DATE.      20.26.40 30-Mar-21:  END TIME
 SPUD.               11-Mar-21:  SPUD DATE
 NREF.                    Grid:  NORTH REFERENCE
 HPTY.       Minimum Curvature:  HOLE POS TYPE
 DMOD.             Drill Model:  DRILL MOD DESC
 SVYD.                  Survey:  SURVEY DESC
 ILTD.               Lithology:  INTERP LTH DESC
 FTOP.          Formation Tops:  FORM TOPS DESC
 SON .        AZ-XX-0906805385:  JOB NUMBER
 WTYP.                Deviated:  WELL TYPE
 COMP.     BP Exploration (Caspian Sea) Ltd.:  COMPANY
 UWI .            /AZE00000198:  UNIQUE WELL IDENTIFIER
 API .            /AZE00000198:  API NUMBER
 BASE.              Azerbaijan:  LOGGING EQUIPMENT BASE LOCATION
 REGN.                   EESSA:  REGION
 PROV.                    Baku:  PROVINCE
 STAT.                    Baku:  STATE NAME
 CTRY.              Azerbaijan:  COUNTRY NAME
 FLD .                     ACG:  FIELD NAME
 SRVC.     Turan Drilling & Engineering:  CONTRACTOR
 MWDS.                    Baku:  MWD SHOP
 WELL.                    D09z:  WELL NAME
 JOBN.        AZ-XX-0906805385:  JOB TICKET NUMB
 RIG .              East Azeri:  RIG NAME
 DOE .                     N/A:  DOE NUMBER
 DCON.         Sperry Drilling:  DIRECTNL CONTR
 UNIT.                     N/A:  LOGGING EQUIPMENT ID
 PDAT.          Mean Sea Level:  PERMANENT DATUM
 MDS .        Operator Entered:  MAG DATA SOURCE
 CNTY.                        :  COUNTY
 LOC .                        :  LOCATION
 LMF .             Drill Floor:  LOG MEASURED FROM
 TVDS.m                  43.60:  TVDSS CORRECTN
 LATI.deg                40.02:  LATITUDE
 LONG.deg                51.45:  LONGITUDE
 WHNS.m                 -17.04:  WELL HEAD N/S
 WHEW.m                  -6.28:  WELL HEAD E/W
 UTMX.m              538763.98:  UTM X
 UTMY.m             4431880.20:  UTM Y
 DFWL.m                   0.00:  DISTANCE FWL
 DFSL.m                   0.00:  DISTANCE FSL
 SDEP.m                2680.01:  START DEPTH
 TDD .m                4000.01:  TOTAL DEPTH (DRILLER)
 VSDR.deg               225.71:  VERT SEC DIRECT
 GVFD.g                   1.00:  GRAVITY FIELD
 MFLD.nT              50353.00:  MAGNETIC FIELD
 MDIP.deg                59.49:  MAGNETIC DIP
 MDEC.deg                 6.46:  MAGNETIC DECL
 GRDC.deg                 0.29:  GRID CORRECTION
 AZTC.deg                 6.17:  AZM TOTAL CORR
 EPD .m                   0.00:  ELEVATION
 EGL .m                   0.00:  GROUND ELEVATION
 WDMS.m                 151.80:  WD ELEV
 APD .m                  43.60:  DEPTH ABOVE PD
 AGAP.m                  43.60:  AIR GAP
 VSEW.m                  -6.28:  VERT SEC E/W
 VSNS.m                 -17.04:  VERT SEC N/S
 DEP .m                2656.31:  DEPTH
 EKB .m                  43.60:  KB ELEVATION
 EDF .m                  43.60:  DF ELEVATION
 VSC .                       0:  VS TO CLOSURE
 MAGU.                 1851247:  MAGUTM CHECKSUM
~Parameter Information Block
#MNEM.UNIT       Value        Description
#---------     -----------    ---------------------------
 AV  .mps                 3.00:  Ann Velocity 
 AVMX.mps                 8.00:  Max Ann Veloc 
 AZIF.deg                 0.00:  Azm, Final 
 BHAT.                   Other:  BHA Type 
 BREV.rev                 0.00:  Rev Bit Total 
 BROT.°/30m               0.00:  Build Rotating 
 BS  .in                 10.25:  Bit Size 
 BTPL.psig              511.00:  Bit Press Loss 
 CABU.                      No:  Customer Abuse 
 CGEO.           Asif Pashayev:  Customer Geo 
 COMM.                     $Ml:  Run Comments 1 
 TCS .hr                 24.03:  Time Ciculation Ended 
 CV  .mps                 3.50:  Crit Velocity 
 CVMX.mps                 4.00:  Max Crit Veloc 
 DD1 .             Aziz Aliyev:  Direct Drillr 1 
 DD2 .      Fakhraddin Guliyev:  Direct Drillr 2 
 DDSV.                   Other:  DD Service 
 DEFF.%                  99.00:  % Det Eff 
 DLRX.°/30m               0.00:  Dogleg Rot Max 
 DLSO.°/30m               0.00:  Dogleg Oriented 
 DLSX.°/30m               0.00:  Dogleg Str Max 
 DRET.      23.00.40 28-Mar-21:  Drill End Time 
 DRST.      23.30.40 25-Mar-21:  Drill Start Tim 
 DTIM.hr                  0.00:  Time Drilling 
 EDEP.m                3886.01:  End Depth 
 ENG1.         Almaz Almadatov:  Engineer 1 
 ENG2.      Artemiy Matviyanov:  Engineer 2 
 ENG3.           Samir Gafarov:  Engineer 3 
 ETIM.      23.00.40 28-Mar-21:  End Time 
 FLOI.gpm               550.00:  Flow In 
 FLON.gpm               500.00:  Flow In Min 
 FLOS.cptm                0.00:  Fluid Loss 
 FLOX.gpm               590.00:  Flow In Max 
 HFLO.                      No:  High Flow 
 HPRE.                      No:  High Pressure 
 HTEM.                      No:  High Temp 
 HYDO.m                   1.80:  Hydro Offset 
 IFIN.deg                 0.00:  Inc, Final 
 IMAX.deg                 0.00:  Inc Max 
 IMIN.deg                 0.00:  Inc Min 
 IMND.m                   0.00:  Inc Min Depth 
 IMXD.m                   0.00:  Inc Max Depth 
 JARR.                      No:  Jarring 
 LETM.      03.22.40 28-Mar-21:  Log End Time 
 LOST.hr                     0:  Lost Rig Time 
 LSTM.      23.30.40 25-Mar-21:  Log Start Time 
 MDCL.ppm             34000.00:  Mud Chlorides 
 MDES.     Inversion Oil/Synthetic:  Mud Desc 
 DFD .sg                  1.51:  Mud Density 
 MDMN.sg                  1.51:  Dens Mud Min 
 MDMX.sg                  1.51:  Dens Mud Max 
 MOIL.                      70:  Run Mud Oil % 
 MOWR.                   70:30:  Run Mud OWR 
 MSND.                     0.2:  Run Mud Sand % 
 MSOL.                   21.60:  Run Mud Solids% 
 DFV .spqt               74.00:  Mud Viscosity 
 MWOD.in                  6.75:  MWD Tool OD 
 MWSI.                      No:  Serv Intrp, MWD 
 OTIM.hr                 69.09:  Time Operating 
 PCON.           Look Like New:  Pad Condition 
 PMAX.psia             3500.00:  Press Op, Max 
 PV  .cP                 70.00:  Mud PV 
 RUN .                     400:  Run Number 
 ROPA.m/hr                0.00:  ROP Avg 
 ROPN.m/hr                0.00:  ROP Min 
 ROPX.m/hr                0.00:  ROP Max 
 RPMA.rpm                80.00:  RPM Surface Avg 
 RPMN.rpm                10.00:  RPM Surface Min 
 RPMX.rpm               100.00:  RPM Surface Max 
 RRUN.                    0400:  Rig Run Number 
 RTIM.hr                  3.00:  Time Reaming 
 SAZI.deg                 0.00:  Azm, Start 
 SDEP.m                3886.01:  Start Depth 
 SIDD.                      No:  Serv Intrp, DD 
 SINC.deg                 0.00:  Inc, Start 
 SPPA.psig             3270.00:  SPP Avg 
 SPPN.psig             3220.00:  SPP Min 
 SPPX.psig             4430.00:  SPP Max 
 STIM.      23.30.40 25-Mar-21:  Start Time 
 SVCS.                 DD, MWD:  Services 
 SVER.                    9.20:  Sperry Version 
 TDAT.m                   0.00:  Tot Depth Attmp 
 TDDF.                      No:  Trip for DD 
 TFF .                      No:  Trip for Fail 
 TQAA.f-kp                8.00:  Torque Abs Avg 
 TQAN.f-kp                7.00:  Torque Abs Min 
 TQAX.f-kp               11.00:  Torque Abs Max 
 TRRT.°/30m               0.00:  Turn Rotating 
 MRT .                  EWR-M5:  Maximum Recorded Temperature 
 TTMX.degC               76.47:  Max Tool Temp 
 VS01.                90640857:  Virtual Str1 SN 
 VS02.                90639246:  Virtual Str2 SN 
 VS03.                90642265:  Virtual Str3 SN 
 VS04.                11654497:  Virtual Str4 SN 
 WBMN.klb                 0.00:  WOB Min 
 WITN.      Kamran Keberlinkiy:  Customer Rep 
 WITN.           Murad Guliyev:  Customer Rep 2 
 WOBA.klb                 0.00:  WOB Avg 
 WOBX.klb                 0.00:  WOB Max 
 YP  .lhf2               36.00:  Yield Point 
~Curve Information Block
#MNEM.UNIT                 API CODE     Curve Description
#---------               -----------    ---------------------------
 TIME.HHMMSS            00 000 000 000:  GT Time & Date
 GTDEPTH.m              00 000 000 000:  GT Depth
 GTPQH.psia             00 000 000 000:  GT HR Quartz Pressure
 GTTQ.degC              00 000 000 000:  GT Quartz Temperature
 GTTN.NONE              00 000 000 000:  GT Test Number
 GTET.sec               00 000 000 000:  GT Elapsed Test Time
 GTTVD.m                00 000 000 000:  GT True Vertical Depth
#Other Information
#
#WARRANTY: Halliburton will use its best efforts to furnish customers with 
#accurate information and interpretations that are part of, and incident to, the services 
#provided.  However, Halliburton cannot and does not warrant the accuracy 
#or correctness of such information and interpretations.  Under no circumstances should any 
#such information or interpretation be relied upon as the sole basis for any drilling, 
#completion, production, or financial decision or any procedure involving any risk to the 
#safety of any drilling venture, drilling rig or its crew or any other third party.  The 
#Customer has full responsibility for all drilling, completion and production operation.  
#Halliburton makes no representations or warranties, either expressed or 
#implied, including, but not limited to, the implied warranties of merchantability or fitness 
#for a particular purpose, with respect to the services rendered.  In no event will 
#Halliburton be liable for failure to obtain any particular results or for 
#any damages, including, but not limited to, indirect, special or consequential damages, 
#resulting from the use of any information or interpretation provided by Halliburton.
#
~A           TIME           GTDEPTH  GTPQH  GTTQ  GTTN   GTET   GTTVD  
# ...
   11:11:11.911.27-Mar-2021 3279.01 4782.51 61.26 11.00 361.68 3032.17
   11:11:12.111.27-Mar-2021 3279.01 4782.45 61.26 11.00 361.88 3032.17
   11:11:12.312.27-Mar-2021 3279.01 4781.76 61.26 11.00 362.08 3032.17
   11:11:12.512.27-Mar-2021 3279.01 4781.76 61.26 11.00 362.28 3032.17
   11:11:12.712.27-Mar-2021 3279.01 4781.93 61.26 11.00 362.48 3032.17
   11:11:12.912.27-Mar-2021 3279.01 4782.77 61.26 11.00 362.68 3032.17
   11:11:13.112.27-Mar-2021 3279.01 4782.01 61.26 11.00 362.88 3032.17
   11:11:13.312.27-Mar-2021 3279.01 4781.53 61.26 11.00 363.08 3032.17
   11:11:13.512.27-Mar-2021 3279.01 4781.53 61.26 11.00 363.29 3032.17
   11:11:13.712.27-Mar-2021 3279.01 4782.91 61.26 11.00 363.49 3032.17
   11:11:13.912.27-Mar-2021 3279.01 4781.88 61.26 11.00 363.69 3032.17
   11:11:14.112.27-Mar-2021 3279.01 4782.38 61.26 11.00 363.89 3032.17
   11:11:14.312.27-Mar-2021 3279.01 4782.58 61.26 11.00 364.09 3032.17
   11:11:14.512.27-Mar-2021 3279.01 4782.58 61.26 11.00 364.29 3032.17
   11:11:14.712.27-Mar-2021 3279.01 4783.05 61.26 11.00 364.49 3032.17
   11:11:14.912.27-Mar-2021 3279.01 4782.42 61.26 11.00 364.69 3032.17
   11:11:15.112.27-Mar-2021 3279.01 4782.35 61.26 11.00 364.89 3032.17
   11:11:15.312.27-Mar-2021 3279.01 4782.63 61.26 11.00 365.09 3032.17
   11:11:15.512.27-Mar-2021 3279.01 4782.63 61.26 11.00 365.29 3032.17
   11:11:15.712.27-Mar-2021 3279.01 4782.27 61.26 11.00 365.49 3032.17
   11:11:15.912.27-Mar-2021 3279.01 4782.74 61.26 11.00 365.69 3032.17
   11:11:16.112.27-Mar-2021 3279.01 4782.78 61.26 11.00 365.89 3032.17
   11:11:16.312.27-Mar-2021 3279.01 4782.42 61.26 11.00 366.09 3032.17
   11:11:16.513.27-Mar-2021 3279.01 4782.42 61.26 11.00 366.29 3032.17
   11:11:16.713.27-Mar-2021 3279.01 4782.57 61.26 11.00 366.49 3032.17
   11:11:16.913.27-Mar-2021 3279.01 4782.52 61.26 11.00 366.69 3032.17
   11:11:17.113.27-Mar-2021 3279.01 4782.32 61.26 11.00 366.89 3032.17
   11:11:17.313.27-Mar-2021 3279.01 4782.45 61.26 11.00 367.09 3032.17
   11:11:17.513.27-Mar-2021 3279.01 4782.45 61.26 11.00 367.29 3032.17
   11:11:17.713.27-Mar-2021 3279.01 4782.13 61.26 11.00 367.49 3032.17
   11:11:17.913.27-Mar-2021 3279.01 4782.85 61.26 11.00 367.69 3032.17
   11:11:18.113.27-Mar-2021 3279.01 4782.03 61.26 11.00 367.89 3032.17
   11:11:18.313.27-Mar-2021 3279.01 4782.81 61.26 11.00 368.09 3032.17
   11:11:18.513.27-Mar-2021 3279.01 4782.81 61.26 11.00 368.29 3032.17
   11:11:18.713.27-Mar-2021 3279.01 4781.97 61.26 11.00 368.49 3032.17
   11:11:18.913.27-Mar-2021 3279.01 4782.25 61.26 11.00 368.69 3032.17
   11:11:19.113.27-Mar-2021 3279.01 4783.03 61.26 11.00 368.89 3032.17
   11:11:19.313.27-Mar-2021 3279.01 4782.50 61.26 11.00 369.09 3032.17
   11:11:19.513.27-Mar-2021 3279.01 4782.50 61.26 11.00 369.29 3032.17
   11:11:19.713.27-Mar-2021 3279.01 4782.53 61.26 11.00 369.49 3032.17
   11:11:19.913.27-Mar-2021 3279.01 4782.67 61.26 11.00 369.69 3032.17
   11:11:20.113.27-Mar-2021 3279.01 4782.61 61.26 11.00 369.89 3032.17
   11:11:20.313.27-Mar-2021 3279.01 4781.95 61.26 11.00 370.09 3032.17
   11:11:20.513.27-Mar-2021 3279.01 4781.95 61.26 11.00 370.29 3032.17
   11:11:20.713.27-Mar-2021 3279.01 4781.96 61.26 11.00 370.49 3032.17
   11:11:20.914.27-Mar-2021 3279.01 4782.90 61.26 11.00 370.69 3032.17
   11:11:21.114.27-Mar-2021 3279.01 4782.82 61.26 11.00 370.89 3032.17
   11:11:21.314.27-Mar-2021 3279.01 4782.13 61.26 11.00 371.09 3032.17
   11:11:21.514.27-Mar-2021 3279.01 4782.13 61.26 11.00 371.29 3032.17
   11:11:21.714.27-Mar-2021 3279.01 4782.31 61.26 11.00 371.49 3032.17
   11:11:21.914.27-Mar-2021 3279.01 4782.00 61.26 11.00 371.69 3032.17
   11:11:22.114.27-Mar-2021 3279.01 4782.68 61.26 11.00 371.89 3032.17
   11:11:22.314.27-Mar-2021 3279.01 4781.76 61.26 11.00 372.09 3032.17
   11:11:22.514.27-Mar-2021 3279.01 4781.76 61.26 11.00 372.29 3032.17
   11:11:22.714.27-Mar-2021 3279.01 4782.79 61.26 11.00 372.49 3032.17
   11:11:22.914.27-Mar-2021 3279.01 4781.86 61.26 11.00 372.69 3032.17
   11:11:23.114.27-Mar-2021 3279.01 4782.75 61.26 11.00 372.89 3032.17
   11:11:23.314.27-Mar-2021 3279.01 4782.96 61.26 11.00 373.09 3032.17
   11:11:23.514.27-Mar-2021 3279.01 4782.96 61.26 11.00 373.29 3032.17
   11:11:23.714.27-Mar-2021 3279.01 4782.26 61.26 11.00 373.49 3032.17
   11:11:23.914.27-Mar-2021 3279.01 4782.38 61.26 11.00 373.69 3032.17
   11:11:24.114.27-Mar-2021 3279.01 4781.95 61.26 11.00 373.89 3032.17
   11:11:24.314.27-Mar-2021 3279.01 4783.90 61.26 11.00 374.09 3032.17
   11:11:24.514.27-Mar-2021 3279.01 4783.90 61.26 11.00 374.29 3032.17
   11:11:24.714.27-Mar-2021 3279.01 4782.27 61.26 11.00 374.49 3032.17
   11:11:24.914.27-Mar-2021 3279.01 4796.78 61.26 11.00 374.69 3032.17
   11:11:25.115.27-Mar-2021 3279.01 4868.36 61.26 11.00 374.89 3032.17
   11:11:25.315.27-Mar-2021 3279.01 6392.63 61.26 11.00 375.09 3032.17
   11:11:25.515.27-Mar-2021 3279.01 6392.63 61.26 11.00 375.29 3032.17
   11:11:25.715.27-Mar-2021 3279.01 7073.30 61.26 11.00 375.49 3032.17
   11:11:25.915.27-Mar-2021 3279.01 7073.49 61.26 11.00 375.69 3032.17
   11:11:26.115.27-Mar-2021 3279.01 7074.34 61.26 11.00 375.89 3032.17
   11:11:26.315.27-Mar-2021 3279.01 7074.66 61.26 11.00 376.09 3032.17
   11:11:26.515.27-Mar-2021 3279.01 7074.66 61.26 11.00 376.29 3032.17
   11:11:26.715.27-Mar-2021 3279.01 7075.31 61.27 11.00 376.49 3032.17
   11:11:26.915.27-Mar-2021 3279.01 7077.08 61.27 11.00 376.69 3032.17
   11:11:27.115.27-Mar-2021 3279.01 7080.00 61.27 11.00 376.89 3032.17
   11:11:27.315.27-Mar-2021 3279.01 7075.41 61.27 11.00 377.09 3032.17
   11:11:27.515.27-Mar-2021 3279.01 7075.41 61.27 11.00 377.29 3032.17
   11:11:27.715.27-Mar-2021 3279.01 7077.73 61.27 11.00 377.49 3032.17
   11:11:27.915.27-Mar-2021 3279.01 7077.62 61.27 11.00 377.69 3032.17
   11:11:28.115.27-Mar-2021 3279.01 7077.35 61.28 11.00 377.89 3032.17
   11:11:28.315.27-Mar-2021 3279.01 7077.29 61.28 11.00 378.09 3032.17
   11:11:28.515.27-Mar-2021 3279.01 7077.29 61.28 11.00 378.29 3032.17
   11:11:28.715.27-Mar-2021 3279.01 7077.85 61.28 11.00 378.49 3032.17
   11:11:28.915.27-Mar-2021 3279.01 7077.71 61.28 11.00 378.69 3032.17
   11:11:29.115.27-Mar-2021 3279.01 7077.93 61.28 11.00 378.89 3032.17
   11:11:29.316.27-Mar-2021 3279.01 7077.92 61.28 11.00 379.09 3032.17
   11:11:29.516.27-Mar-2021 3279.01 7077.92 61.28 11.00 379.29 3032.17
   11:11:29.716.27-Mar-2021 3279.01 7082.63 61.29 11.00 379.49 3032.17
   11:11:29.916.27-Mar-2021 3279.01 7077.70 61.29 11.00 379.69 3032.17
   11:11:30.116.27-Mar-2021 3279.01 7078.55 61.29 11.00 379.89 3032.17
   11:11:30.316.27-Mar-2021 3279.01 7078.35 61.29 11.00 380.09 3032.17
   11:11:30.516.27-Mar-2021 3279.01 7078.35 61.29 11.00 380.29 3032.17
   11:11:30.716.27-Mar-2021 3279.01 7078.24 61.30 11.00 380.49 3032.17
   11:11:30.916.27-Mar-2021 3279.01 7077.83 61.30 11.00 380.69 3032.17
   11:11:31.116.27-Mar-2021 3279.01 7078.51 61.30 11.00 380.89 3032.17
   11:11:31.316.27-Mar-2021 3279.01 7081.73 61.30 11.00 381.09 3032.17
   11:11:31.516.27-Mar-2021 3279.01 7081.73 61.30 11.00 381.29 3032.17
   11:11:31.716.27-Mar-2021 3279.01 7079.56 61.30 11.00 381.49 3032.17
   11:11:31.916.27-Mar-2021 3279.01 7079.24 61.30 11.00 381.69 3032.17
   11:11:32.116.27-Mar-2021 3279.01 7082.81 61.30 11.00 381.89 3032.17
   11:11:32.316.27-Mar-2021 3279.01 7079.05 61.31 11.00 382.09 3032.17
   11:11:32.516.27-Mar-2021 3279.01 7079.05 61.31 11.00 382.29 3032.17
   11:11:32.716.27-Mar-2021 3279.01 7080.14 61.31 11.00 382.49 3032.17
   11:11:32.916.27-Mar-2021 3279.01 7079.74 61.31 11.00 382.69 3032.17
   11:11:33.116.27-Mar-2021 3279.01 7079.81 61.31 11.00 382.89 3032.17
   11:11:33.316.27-Mar-2021 3279.01 7080.66 61.31 11.00 383.09 3032.17
   11:11:33.516.27-Mar-2021 3279.01 7080.66 61.31 11.00 383.29 3032.17
   11:11:33.717.27-Mar-2021 3279.01 7079.59 61.31 11.00 383.49 3032.17
   11:11:33.917.27-Mar-2021 3279.01 7080.31 61.31 11.00 383.69 3032.17
   11:11:34.117.27-Mar-2021 3279.01 7079.37 61.31 11.00 383.89 3032.17
   11:11:34.317.27-Mar-2021 3279.01 7079.78 61.31 11.00 384.09 3032.17
