~Version Information
 VERS.                  2.0:   CWLS log ASCII Standard -VERSION 2.0
 WRAP.                   NO:   One line per depth step
~Well Information Block
#MNEM.UNIT     VALUE/NAME     DESCRIPTION
#---------     -----------    ---------------------------
 STRT.S             12:58:23 27-Mar-21: START TIME 12:58:23 27-Mar-21
 STOP.S             13:05:33 27-Mar-21: STOP TIME  13:05:33 27-Mar-21
 STEP.S                   0.00: STEP TIME
 NULL.                 -999.25: NULL VALUE
 DFWT.                        :  DIST FWL TEXT
 DFST.                        :  DIST FSL TEXT
 DMF .             Drill Floor:  DRILL MEAS FROM
 STIM.      20.26.40 11-Mar-21:  START TIME
 DATE.      20.26.40 30-Mar-21:  END TIME
 SPUD.               11-Mar-21:  SPUD DATE
 NREF.                    Grid:  NORTH REFERENCE
 HPTY.       Minimum Curvature:  HOLE POS TYPE
 DMOD.             Drill Model:  DRILL MOD DESC
 SVYD.                  Survey:  SURVEY DESC
 ILTD.               Lithology:  INTERP LTH DESC
 FTOP.          Formation Tops:  FORM TOPS DESC
 SON .        AZ-XX-0906805385:  JOB NUMBER
 WTYP.                Deviated:  WELL TYPE
 COMP.     BP Exploration (Caspian Sea) Ltd.:  COMPANY
 UWI .            /AZE00000198:  UNIQUE WELL IDENTIFIER
 API .            /AZE00000198:  API NUMBER
 BASE.              Azerbaijan:  LOGGING EQUIPMENT BASE LOCATION
 REGN.                   EESSA:  REGION
 PROV.                    Baku:  PROVINCE
 STAT.                    Baku:  STATE NAME
 CTRY.              Azerbaijan:  COUNTRY NAME
 FLD .                     ACG:  FIELD NAME
 SRVC.     Turan Drilling & Engineering:  CONTRACTOR
 MWDS.                    Baku:  MWD SHOP
 WELL.                    D09z:  WELL NAME
 JOBN.        AZ-XX-0906805385:  JOB TICKET NUMB
 RIG .              East Azeri:  RIG NAME
 DOE .                     N/A:  DOE NUMBER
 DCON.         Sperry Drilling:  DIRECTNL CONTR
 UNIT.                     N/A:  LOGGING EQUIPMENT ID
 PDAT.          Mean Sea Level:  PERMANENT DATUM
 MDS .        Operator Entered:  MAG DATA SOURCE
 CNTY.                        :  COUNTY
 LOC .                        :  LOCATION
 LMF .             Drill Floor:  LOG MEASURED FROM
 TVDS.m                  43.60:  TVDSS CORRECTN
 LATI.deg                40.02:  LATITUDE
 LONG.deg                51.45:  LONGITUDE
 WHNS.m                 -17.04:  WELL HEAD N/S
 WHEW.m                  -6.28:  WELL HEAD E/W
 UTMX.m              538763.98:  UTM X
 UTMY.m             4431880.20:  UTM Y
 DFWL.m                   0.00:  DISTANCE FWL
 DFSL.m                   0.00:  DISTANCE FSL
 SDEP.m                2680.01:  START DEPTH
 TDD .m                4000.01:  TOTAL DEPTH (DRILLER)
 VSDR.deg               225.71:  VERT SEC DIRECT
 GVFD.g                   1.00:  GRAVITY FIELD
 MFLD.nT              50353.00:  MAGNETIC FIELD
 MDIP.deg                59.49:  MAGNETIC DIP
 MDEC.deg                 6.46:  MAGNETIC DECL
 GRDC.deg                 0.29:  GRID CORRECTION
 AZTC.deg                 6.17:  AZM TOTAL CORR
 EPD .m                   0.00:  ELEVATION
 EGL .m                   0.00:  GROUND ELEVATION
 WDMS.m                 151.80:  WD ELEV
 APD .m                  43.60:  DEPTH ABOVE PD
 AGAP.m                  43.60:  AIR GAP
 VSEW.m                  -6.28:  VERT SEC E/W
 VSNS.m                 -17.04:  VERT SEC N/S
 DEP .m                2656.31:  DEPTH
 EKB .m                  43.60:  KB ELEVATION
 EDF .m                  43.60:  DF ELEVATION
 VSC .                       0:  VS TO CLOSURE
 MAGU.                 1851247:  MAGUTM CHECKSUM
~Parameter Information Block
#MNEM.UNIT       Value        Description
#---------     -----------    ---------------------------
 AV  .mps                 3.00:  Ann Velocity 
 AVMX.mps                 8.00:  Max Ann Veloc 
 AZIF.deg                 0.00:  Azm, Final 
 BHAT.                   Other:  BHA Type 
 BREV.rev                 0.00:  Rev Bit Total 
 BROT.°/30m               0.00:  Build Rotating 
 BS  .in                 10.25:  Bit Size 
 BTPL.psig              511.00:  Bit Press Loss 
 CABU.                      No:  Customer Abuse 
 CGEO.           Asif Pashayev:  Customer Geo 
 COMM.                     „¼n:  Run Comments 1 
 TCS .hr                 24.03:  Time Ciculation Ended 
 CV  .mps                 3.50:  Crit Velocity 
 CVMX.mps                 4.00:  Max Crit Veloc 
 DD1 .             Aziz Aliyev:  Direct Drillr 1 
 DD2 .      Fakhraddin Guliyev:  Direct Drillr 2 
 DDSV.                   Other:  DD Service 
 DEFF.%                  99.00:  % Det Eff 
 DLRX.°/30m               0.00:  Dogleg Rot Max 
 DLSO.°/30m               0.00:  Dogleg Oriented 
 DLSX.°/30m               0.00:  Dogleg Str Max 
 DRET.      23.00.40 28-Mar-21:  Drill End Time 
 DRST.      23.30.40 25-Mar-21:  Drill Start Tim 
 DTIM.hr                  0.00:  Time Drilling 
 EDEP.m                3886.01:  End Depth 
 ENG1.         Almaz Almadatov:  Engineer 1 
 ENG2.      Artemiy Matviyanov:  Engineer 2 
 ENG3.           Samir Gafarov:  Engineer 3 
 ETIM.      23.00.40 28-Mar-21:  End Time 
 FLOI.gpm               550.00:  Flow In 
 FLON.gpm               500.00:  Flow In Min 
 FLOS.cptm                0.00:  Fluid Loss 
 FLOX.gpm               590.00:  Flow In Max 
 HFLO.                      No:  High Flow 
 HPRE.                      No:  High Pressure 
 HTEM.                      No:  High Temp 
 HYDO.m                   1.80:  Hydro Offset 
 IFIN.deg                 0.00:  Inc, Final 
 IMAX.deg                 0.00:  Inc Max 
 IMIN.deg                 0.00:  Inc Min 
 IMND.m                   0.00:  Inc Min Depth 
 IMXD.m                   0.00:  Inc Max Depth 
 JARR.                      No:  Jarring 
 LETM.      03.22.40 28-Mar-21:  Log End Time 
 LOST.hr                     0:  Lost Rig Time 
 LSTM.      23.30.40 25-Mar-21:  Log Start Time 
 MDCL.ppm             34000.00:  Mud Chlorides 
 MDES.     Inversion Oil/Synthetic:  Mud Desc 
 DFD .sg                  1.51:  Mud Density 
 MDMN.sg                  1.51:  Dens Mud Min 
 MDMX.sg                  1.51:  Dens Mud Max 
 MOIL.                      70:  Run Mud Oil % 
 MOWR.                   70:30:  Run Mud OWR 
 MSND.                     0.2:  Run Mud Sand % 
 MSOL.                   21.60:  Run Mud Solids% 
 DFV .spqt               74.00:  Mud Viscosity 
 MWOD.in                  6.75:  MWD Tool OD 
 MWSI.                      No:  Serv Intrp, MWD 
 OTIM.hr                 69.09:  Time Operating 
 PCON.           Look Like New:  Pad Condition 
 PMAX.psia             3500.00:  Press Op, Max 
 PV  .cP                 70.00:  Mud PV 
 RUN .                     400:  Run Number 
 ROPA.m/hr                0.00:  ROP Avg 
 ROPN.m/hr                0.00:  ROP Min 
 ROPX.m/hr                0.00:  ROP Max 
 RPMA.rpm                80.00:  RPM Surface Avg 
 RPMN.rpm                10.00:  RPM Surface Min 
 RPMX.rpm               100.00:  RPM Surface Max 
 RRUN.                    0400:  Rig Run Number 
 RTIM.hr                  3.00:  Time Reaming 
 SAZI.deg                 0.00:  Azm, Start 
 SDEP.m                3886.01:  Start Depth 
 SIDD.                      No:  Serv Intrp, DD 
 SINC.deg                 0.00:  Inc, Start 
 SPPA.psig             3270.00:  SPP Avg 
 SPPN.psig             3220.00:  SPP Min 
 SPPX.psig             4430.00:  SPP Max 
 STIM.      23.30.40 25-Mar-21:  Start Time 
 SVCS.                 DD, MWD:  Services 
 SVER.                    9.20:  Sperry Version 
 TDAT.m                   0.00:  Tot Depth Attmp 
 TDDF.                      No:  Trip for DD 
 TFF .                      No:  Trip for Fail 
 TQAA.f-kp                8.00:  Torque Abs Avg 
 TQAN.f-kp                7.00:  Torque Abs Min 
 TQAX.f-kp               11.00:  Torque Abs Max 
 TRRT.°/30m               0.00:  Turn Rotating 
 MRT .                  EWR-M5:  Maximum Recorded Temperature 
 TTMX.degC               76.47:  Max Tool Temp 
 VS01.                90640857:  Virtual Str1 SN 
 VS02.                90639246:  Virtual Str2 SN 
 VS03.                90642265:  Virtual Str3 SN 
 VS04.                11654497:  Virtual Str4 SN 
 WBMN.klb                 0.00:  WOB Min 
 WITN.      Kamran Keberlinkiy:  Customer Rep 
 WITN.           Murad Guliyev:  Customer Rep 2 
 WOBA.klb                 0.00:  WOB Avg 
 WOBX.klb                 0.00:  WOB Max 
 YP  .lhf2               36.00:  Yield Point 
~Curve Information Block
#MNEM.UNIT                 API CODE     Curve Description
#---------               -----------    ---------------------------
 TIME.HHMMSS            00 000 000 000:  GT Time & Date
 GTDEPTH.m              00 000 000 000:  GT Depth
 GTPQH.psia             00 000 000 000:  GT HR Quartz Pressure
 GTTQ.degC              00 000 000 000:  GT Quartz Temperature
 GTTN.NONE              00 000 000 000:  GT Test Number
 GTET.sec               00 000 000 000:  GT Elapsed Test Time
 GTTVD.m                00 000 000 000:  GT True Vertical Depth
#Other Information
#
#WARRANTY: Halliburton will use its best efforts to furnish customers with 
#accurate information and interpretations that are part of, and incident to, the services 
#provided.  However, Halliburton cannot and does not warrant the accuracy 
#or correctness of such information and interpretations.  Under no circumstances should any 
#such information or interpretation be relied upon as the sole basis for any drilling, 
#completion, production, or financial decision or any procedure involving any risk to the 
#safety of any drilling venture, drilling rig or its crew or any other third party.  The 
#Customer has full responsibility for all drilling, completion and production operation.  
#Halliburton makes no representations or warranties, either expressed or 
#implied, including, but not limited to, the implied warranties of merchantability or fitness 
#for a particular purpose, with respect to the services rendered.  In no event will 
#Halliburton be liable for failure to obtain any particular results or for 
#any damages, including, but not limited to, indirect, special or consequential damages, 
#resulting from the use of any information or interpretation provided by Halliburton.
#
~A           TIME           GTDEPTH  GTPQH  GTTQ  GTTN   GTET   GTTVD  
# ...
   13:02:54.200.27-Mar-2021 3393.01 4340.18 61.74 13.00 271.20 3139.00
   13:02:54.400.27-Mar-2021 3393.01 4337.90 61.74 13.00 271.40 3139.00
   13:02:54.600.27-Mar-2021 3393.01 4339.85 61.74 13.00 271.60 3139.00
   13:02:54.800.27-Mar-2021 3393.01 4338.73 61.74 13.00 271.80 3139.00
   13:02:55.000.27-Mar-2021 3393.01 4338.50 61.74 13.00 272.00 3139.00
   13:02:55.200.27-Mar-2021 3393.01 4338.50 61.74 13.00 272.20 3139.00
   13:02:55.400.27-Mar-2021 3393.01 4336.66 61.74 13.00 272.40 3139.00
   13:02:55.600.27-Mar-2021 3393.01 4339.39 61.74 13.00 272.60 3139.00
   13:02:55.800.27-Mar-2021 3393.01 4338.27 61.74 13.00 272.80 3139.00
   13:02:56.000.27-Mar-2021 3393.01 4341.23 61.74 13.00 273.00 3139.00
   13:02:56.200.27-Mar-2021 3393.01 4341.23 61.74 13.00 273.20 3139.00
   13:02:56.400.27-Mar-2021 3393.01 4338.68 61.74 13.00 273.40 3139.00
   13:02:56.600.27-Mar-2021 3393.01 4340.81 61.74 13.00 273.60 3139.00
   13:02:56.800.27-Mar-2021 3393.01 4339.36 61.74 13.00 273.80 3139.00
   13:02:57.000.27-Mar-2021 3393.01 4340.89 61.74 13.00 274.00 3139.00
   13:02:57.200.27-Mar-2021 3393.01 4340.89 61.74 13.00 274.20 3139.00
   13:02:57.400.27-Mar-2021 3393.01 4341.98 61.74 13.00 274.40 3139.00
   13:02:57.600.27-Mar-2021 3393.01 4340.77 61.74 13.00 274.60 3139.00
   13:02:57.800.27-Mar-2021 3393.01 4340.09 61.74 13.00 274.80 3139.00
   13:02:58.000.27-Mar-2021 3393.01 4342.87 61.74 13.00 275.00 3139.00
   13:02:58.200.27-Mar-2021 3393.01 4342.87 61.74 13.00 275.20 3139.00
   13:02:58.400.27-Mar-2021 3393.01 4342.19 61.74 13.00 275.40 3139.00
   13:02:58.600.27-Mar-2021 3393.01 4339.84 61.74 13.00 275.60 3139.00
   13:02:58.800.27-Mar-2021 3393.01 4340.86 61.74 13.00 275.80 3139.00
   13:02:59.000.27-Mar-2021 3393.01 4341.30 61.74 13.00 276.00 3139.00
   13:02:59.200.27-Mar-2021 3393.01 4341.30 61.74 13.00 276.20 3139.00
   13:02:59.400.27-Mar-2021 3393.01 4341.44 61.73 13.00 276.40 3139.00
   13:02:59.600.27-Mar-2021 3393.01 4341.30 61.73 13.00 276.60 3139.00
   13:02:59.800.27-Mar-2021 3393.01 4339.39 61.73 13.00 276.80 3139.00
   13:03:00.000.27-Mar-2021 3393.01 4338.59 61.73 13.00 277.00 3139.00
   13:03:00.200.27-Mar-2021 3393.01 4338.59 61.73 13.00 277.20 3139.00
   13:03:00.400.27-Mar-2021 3393.01 4614.36 61.73 13.00 277.40 3139.00
   13:03:00.600.27-Mar-2021 3393.01 4647.40 61.73 13.00 277.60 3139.00
   13:03:00.800.27-Mar-2021 3393.01 4656.27 61.73 13.00 277.80 3139.00
   13:03:01.000.27-Mar-2021 3393.01 4659.41 61.73 13.00 278.00 3139.00
   13:03:01.200.27-Mar-2021 3393.01 4659.41 61.73 13.00 278.20 3139.00
   13:03:01.400.27-Mar-2021 3393.01 4662.45 61.73 13.00 278.40 3139.00
   13:03:01.600.27-Mar-2021 3393.01 4663.40 61.73 13.00 278.60 3139.00
   13:03:01.800.27-Mar-2021 3393.01 4664.12 61.73 13.00 278.80 3139.00
   13:03:02.000.27-Mar-2021 3393.01 4664.71 61.73 13.00 279.00 3139.00
   13:03:02.200.27-Mar-2021 3393.01 4664.71 61.73 13.00 279.20 3139.00
   13:03:02.400.27-Mar-2021 3393.01 4665.55 61.73 13.00 279.40 3139.00
   13:03:02.600.27-Mar-2021 3393.01 4666.55 61.73 13.00 279.60 3139.00
   13:03:02.800.27-Mar-2021 3393.01 4666.67 61.73 13.00 279.80 3139.00
   13:03:03.000.27-Mar-2021 3393.01 4666.72 61.73 13.00 280.00 3139.00
   13:03:03.200.27-Mar-2021 3393.01 4666.72 61.73 13.00 280.20 3139.00
   13:03:03.400.27-Mar-2021 3393.01 4667.17 61.74 13.00 280.40 3139.00
   13:03:03.600.27-Mar-2021 3393.01 4667.42 61.74 13.00 280.60 3139.00
   13:03:03.800.27-Mar-2021 3393.01 4667.28 61.74 13.00 280.80 3139.00
   13:03:04.000.27-Mar-2021 3393.01 4667.96 61.74 13.00 281.00 3139.00
   13:03:04.200.27-Mar-2021 3393.01 4667.96 61.74 13.00 281.20 3139.00
   13:03:04.400.27-Mar-2021 3393.01 4668.07 61.74 13.00 281.40 3139.00
   13:03:04.600.27-Mar-2021 3393.01 4668.00 61.74 13.00 281.60 3139.00
   13:03:04.800.27-Mar-2021 3393.01 4668.15 61.74 13.00 281.80 3139.00
   13:03:05.000.27-Mar-2021 3393.01 4668.29 61.74 13.00 282.00 3139.00
   13:03:05.200.27-Mar-2021 3393.01 4668.29 61.74 13.00 282.20 3139.00
   13:03:05.400.27-Mar-2021 3393.01 4668.15 61.74 13.00 282.40 3139.00
   13:03:05.600.27-Mar-2021 3393.01 4668.67 61.74 13.00 282.60 3139.00
   13:03:05.800.27-Mar-2021 3393.01 4668.56 61.74 13.00 282.80 3139.00
   13:03:06.000.27-Mar-2021 3393.01 4668.73 61.74 13.00 283.00 3139.00
   13:03:06.200.27-Mar-2021 3393.01 4668.73 61.74 13.00 283.20 3139.00
   13:03:06.400.27-Mar-2021 3393.01 4668.79 61.74 13.00 283.40 3139.00
   13:03:06.600.27-Mar-2021 3393.01 4668.72 61.74 13.00 283.60 3139.00
   13:03:06.800.27-Mar-2021 3393.01 4668.73 61.74 13.00 283.80 3139.00
   13:03:07.000.27-Mar-2021 3393.01 4668.95 61.74 13.00 284.00 3139.00
   13:03:07.200.27-Mar-2021 3393.01 4668.95 61.74 13.00 284.20 3139.00
   13:03:07.400.27-Mar-2021 3393.01 4668.98 61.74 13.00 284.40 3139.00
   13:03:07.600.27-Mar-2021 3393.01 4669.03 61.74 13.00 284.60 3139.00
   13:03:07.800.27-Mar-2021 3393.01 4669.10 61.74 13.00 284.80 3139.00
   13:03:08.000.27-Mar-2021 3393.01 4669.05 61.74 13.00 285.00 3139.00
   13:03:08.200.27-Mar-2021 3393.01 4669.05 61.74 13.00 285.20 3139.00
   13:03:08.400.27-Mar-2021 3393.01 4669.05 61.74 13.00 285.40 3139.00
   13:03:08.600.27-Mar-2021 3393.01 4669.08 61.74 13.00 285.60 3139.00
   13:03:08.800.27-Mar-2021 3393.01 4669.20 61.74 13.00 285.80 3139.00
   13:03:09.000.27-Mar-2021 3393.01 4669.15 61.74 13.00 286.00 3139.00
   13:03:09.200.27-Mar-2021 3393.01 4669.15 61.74 13.00 286.20 3139.00
   13:03:09.400.27-Mar-2021 3393.01 4669.18 61.74 13.00 286.40 3139.00
   13:03:09.600.27-Mar-2021 3393.01 4669.19 61.74 13.00 286.60 3139.00
   13:03:09.800.27-Mar-2021 3393.01 4669.23 61.74 13.00 286.80 3139.00
   13:03:10.000.27-Mar-2021 3393.01 4669.09 61.74 13.00 287.00 3139.00
   13:03:10.200.27-Mar-2021 3393.01 4669.09 61.74 13.00 287.20 3139.00
   13:03:10.400.27-Mar-2021 3393.01 4669.46 61.74 13.00 287.40 3139.00
   13:03:10.600.27-Mar-2021 3393.01 4669.28 61.74 13.00 287.60 3139.00
   13:03:10.800.27-Mar-2021 3393.01 4669.39 61.74 13.00 287.80 3139.00
   13:03:11.000.27-Mar-2021 3393.01 4669.47 61.74 13.00 288.00 3139.00
   13:03:11.200.27-Mar-2021 3393.01 4669.47 61.74 13.00 288.20 3139.00
   13:03:11.400.27-Mar-2021 3393.01 4669.46 61.74 13.00 288.40 3139.00
   13:03:11.600.27-Mar-2021 3393.01 4669.35 61.74 13.00 288.60 3139.00
   13:03:11.800.27-Mar-2021 3393.01 4669.45 61.74 13.00 288.80 3139.00
   13:03:12.000.27-Mar-2021 3393.01 4669.48 61.74 13.00 289.00 3139.00
   13:03:12.200.27-Mar-2021 3393.01 4669.48 61.74 13.00 289.20 3139.00
   13:03:12.400.27-Mar-2021 3393.01 4669.42 61.74 13.00 289.40 3139.00
   13:03:12.600.27-Mar-2021 3393.01 4669.37 61.74 13.00 289.60 3139.00
   13:03:12.800.27-Mar-2021 3393.01 4669.67 61.74 13.00 289.80 3139.00
   13:03:13.000.27-Mar-2021 3393.01 4669.71 61.74 13.00 290.00 3139.00
   13:03:13.200.27-Mar-2021 3393.01 4669.71 61.74 13.00 290.20 3139.00
   13:03:13.400.27-Mar-2021 3393.01 4669.48 61.74 13.00 290.40 3139.00
   13:03:13.600.27-Mar-2021 3393.01 4669.38 61.74 13.00 290.60 3139.00
   13:03:13.800.27-Mar-2021 3393.01 4669.73 61.74 13.00 290.80 3139.00
   13:03:14.000.27-Mar-2021 3393.01 4669.60 61.74 13.00 291.00 3139.00
   13:03:14.200.27-Mar-2021 3393.01 4669.60 61.74 13.00 291.20 3139.00
   13:03:14.400.27-Mar-2021 3393.01 4669.63 61.74 13.00 291.40 3139.00
   13:03:14.600.27-Mar-2021 3393.01 4669.64 61.74 13.00 291.60 3139.00
   13:03:14.800.27-Mar-2021 3393.01 4669.47 61.74 13.00 291.80 3139.00
   13:03:15.000.27-Mar-2021 3393.01 4669.94 61.74 13.00 292.00 3139.00
   13:03:15.200.27-Mar-2021 3393.01 4669.94 61.74 13.00 292.20 3139.00
   13:03:15.400.27-Mar-2021 3393.01 4669.72 61.74 13.00 292.40 3139.00
   13:03:15.600.27-Mar-2021 3393.01 4669.73 61.74 13.00 292.60 3139.00
   13:03:15.800.27-Mar-2021 3393.01 4669.72 61.74 13.00 292.80 3139.00
   13:03:16.000.27-Mar-2021 3393.01 4669.53 61.74 13.00 293.00 3139.00
   13:03:16.200.27-Mar-2021 3393.01 4669.53 61.74 13.00 293.20 3139.00
   13:03:16.400.27-Mar-2021 3393.01 4669.74 61.74 13.00 293.40 3139.00
   13:03:16.600.27-Mar-2021 3393.01 4669.85 61.74 13.00 293.60 3139.00
