~Version Information
 VERS.                  2.0:   CWLS log ASCII Standard -VERSION 2.0
 WRAP.                   NO:   One line per depth step
~Well Information Block
#MNEM.UNIT     VALUE/NAME     DESCRIPTION
#---------     -----------    ---------------------------
 STRT.S             07:02:33 27-Mar-21: START TIME 07:02:33 27-Mar-21
 STOP.S             07:09:44 27-Mar-21: STOP TIME  07:09:44 27-Mar-21
 STEP.S                   0.00: STEP TIME
 NULL.                 -999.25: NULL VALUE
 DFWT.                        :  DIST FWL TEXT
 DFST.                        :  DIST FSL TEXT
 DMF .             Drill Floor:  DRILL MEAS FROM
 STIM.      20.26.40 11-Mar-21:  START TIME
 DATE.      20.26.40 30-Mar-21:  END TIME
 SPUD.               11-Mar-21:  SPUD DATE
 NREF.                    Grid:  NORTH REFERENCE
 HPTY.       Minimum Curvature:  HOLE POS TYPE
 DMOD.             Drill Model:  DRILL MOD DESC
 SVYD.                  Survey:  SURVEY DESC
 ILTD.               Lithology:  INTERP LTH DESC
 FTOP.          Formation Tops:  FORM TOPS DESC
 SON .        AZ-XX-0906805385:  JOB NUMBER
 WTYP.                Deviated:  WELL TYPE
 COMP.     BP Exploration (Caspian Sea) Ltd.:  COMPANY
 UWI .            /AZE00000198:  UNIQUE WELL IDENTIFIER
 API .            /AZE00000198:  API NUMBER
 BASE.              Azerbaijan:  LOGGING EQUIPMENT BASE LOCATION
 REGN.                   EESSA:  REGION
 PROV.                    Baku:  PROVINCE
 STAT.                    Baku:  STATE NAME
 CTRY.              Azerbaijan:  COUNTRY NAME
 FLD .                     ACG:  FIELD NAME
 SRVC.     Turan Drilling & Engineering:  CONTRACTOR
 MWDS.                    Baku:  MWD SHOP
 WELL.                    D09z:  WELL NAME
 JOBN.        AZ-XX-0906805385:  JOB TICKET NUMB
 RIG .              East Azeri:  RIG NAME
 DOE .                     N/A:  DOE NUMBER
 DCON.         Sperry Drilling:  DIRECTNL CONTR
 UNIT.                     N/A:  LOGGING EQUIPMENT ID
 PDAT.          Mean Sea Level:  PERMANENT DATUM
 MDS .        Operator Entered:  MAG DATA SOURCE
 CNTY.                        :  COUNTY
 LOC .                        :  LOCATION
 LMF .             Drill Floor:  LOG MEASURED FROM
 TVDS.m                  43.60:  TVDSS CORRECTN
 LATI.deg                40.02:  LATITUDE
 LONG.deg                51.45:  LONGITUDE
 WHNS.m                 -17.04:  WELL HEAD N/S
 WHEW.m                  -6.28:  WELL HEAD E/W
 UTMX.m              538763.98:  UTM X
 UTMY.m             4431880.20:  UTM Y
 DFWL.m                   0.00:  DISTANCE FWL
 DFSL.m                   0.00:  DISTANCE FSL
 SDEP.m                2680.01:  START DEPTH
 TDD .m                4000.01:  TOTAL DEPTH (DRILLER)
 VSDR.deg               225.71:  VERT SEC DIRECT
 GVFD.g                   1.00:  GRAVITY FIELD
 MFLD.nT              50353.00:  MAGNETIC FIELD
 MDIP.deg                59.49:  MAGNETIC DIP
 MDEC.deg                 6.46:  MAGNETIC DECL
 GRDC.deg                 0.29:  GRID CORRECTION
 AZTC.deg                 6.17:  AZM TOTAL CORR
 EPD .m                   0.00:  ELEVATION
 EGL .m                   0.00:  GROUND ELEVATION
 WDMS.m                 151.80:  WD ELEV
 APD .m                  43.60:  DEPTH ABOVE PD
 AGAP.m                  43.60:  AIR GAP
 VSEW.m                  -6.28:  VERT SEC E/W
 VSNS.m                 -17.04:  VERT SEC N/S
 DEP .m                2656.31:  DEPTH
 EKB .m                  43.60:  KB ELEVATION
 EDF .m                  43.60:  DF ELEVATION
 VSC .                       0:  VS TO CLOSURE
 MAGU.                 1851247:  MAGUTM CHECKSUM
~Parameter Information Block
#MNEM.UNIT       Value        Description
#---------     -----------    ---------------------------
 AV  .mps                 3.00:  Ann Velocity 
 AVMX.mps                 8.00:  Max Ann Veloc 
 AZIF.deg                 0.00:  Azm, Final 
 BHAT.                   Other:  BHA Type 
 BREV.rev                 0.00:  Rev Bit Total 
 BROT.°/30m               0.00:  Build Rotating 
 BS  .in                 10.25:  Bit Size 
 BTPL.psig              511.00:  Bit Press Loss 
 CABU.                      No:  Customer Abuse 
 CGEO.           Asif Pashayev:  Customer Geo 
 COMM.                     ¬\q:  Run Comments 1 
 TCS .hr                 24.03:  Time Ciculation Ended 
 CV  .mps                 3.50:  Crit Velocity 
 CVMX.mps                 4.00:  Max Crit Veloc 
 DD1 .             Aziz Aliyev:  Direct Drillr 1 
 DD2 .      Fakhraddin Guliyev:  Direct Drillr 2 
 DDSV.                   Other:  DD Service 
 DEFF.%                  99.00:  % Det Eff 
 DLRX.°/30m               0.00:  Dogleg Rot Max 
 DLSO.°/30m               0.00:  Dogleg Oriented 
 DLSX.°/30m               0.00:  Dogleg Str Max 
 DRET.      23.00.40 28-Mar-21:  Drill End Time 
 DRST.      23.30.40 25-Mar-21:  Drill Start Tim 
 DTIM.hr                  0.00:  Time Drilling 
 EDEP.m                3886.01:  End Depth 
 ENG1.         Almaz Almadatov:  Engineer 1 
 ENG2.      Artemiy Matviyanov:  Engineer 2 
 ENG3.           Samir Gafarov:  Engineer 3 
 ETIM.      23.00.40 28-Mar-21:  End Time 
 FLOI.gpm               550.00:  Flow In 
 FLON.gpm               500.00:  Flow In Min 
 FLOS.cptm                0.00:  Fluid Loss 
 FLOX.gpm               590.00:  Flow In Max 
 HFLO.                      No:  High Flow 
 HPRE.                      No:  High Pressure 
 HTEM.                      No:  High Temp 
 HYDO.m                   1.80:  Hydro Offset 
 IFIN.deg                 0.00:  Inc, Final 
 IMAX.deg                 0.00:  Inc Max 
 IMIN.deg                 0.00:  Inc Min 
 IMND.m                   0.00:  Inc Min Depth 
 IMXD.m                   0.00:  Inc Max Depth 
 JARR.                      No:  Jarring 
 LETM.      03.22.40 28-Mar-21:  Log End Time 
 LOST.hr                     0:  Lost Rig Time 
 LSTM.      23.30.40 25-Mar-21:  Log Start Time 
 MDCL.ppm             34000.00:  Mud Chlorides 
 MDES.     Inversion Oil/Synthetic:  Mud Desc 
 DFD .sg                  1.51:  Mud Density 
 MDMN.sg                  1.51:  Dens Mud Min 
 MDMX.sg                  1.51:  Dens Mud Max 
 MOIL.                      70:  Run Mud Oil % 
 MOWR.                   70:30:  Run Mud OWR 
 MSND.                     0.2:  Run Mud Sand % 
 MSOL.                   21.60:  Run Mud Solids% 
 DFV .spqt               74.00:  Mud Viscosity 
 MWOD.in                  6.75:  MWD Tool OD 
 MWSI.                      No:  Serv Intrp, MWD 
 OTIM.hr                 69.09:  Time Operating 
 PCON.           Look Like New:  Pad Condition 
 PMAX.psia             3500.00:  Press Op, Max 
 PV  .cP                 70.00:  Mud PV 
 RUN .                     400:  Run Number 
 ROPA.m/hr                0.00:  ROP Avg 
 ROPN.m/hr                0.00:  ROP Min 
 ROPX.m/hr                0.00:  ROP Max 
 RPMA.rpm                80.00:  RPM Surface Avg 
 RPMN.rpm                10.00:  RPM Surface Min 
 RPMX.rpm               100.00:  RPM Surface Max 
 RRUN.                    0400:  Rig Run Number 
 RTIM.hr                  3.00:  Time Reaming 
 SAZI.deg                 0.00:  Azm, Start 
 SDEP.m                3886.01:  Start Depth 
 SIDD.                      No:  Serv Intrp, DD 
 SINC.deg                 0.00:  Inc, Start 
 SPPA.psig             3270.00:  SPP Avg 
 SPPN.psig             3220.00:  SPP Min 
 SPPX.psig             4430.00:  SPP Max 
 STIM.      23.30.40 25-Mar-21:  Start Time 
 SVCS.                 DD, MWD:  Services 
 SVER.                    9.20:  Sperry Version 
 TDAT.m                   0.00:  Tot Depth Attmp 
 TDDF.                      No:  Trip for DD 
 TFF .                      No:  Trip for Fail 
 TQAA.f-kp                8.00:  Torque Abs Avg 
 TQAN.f-kp                7.00:  Torque Abs Min 
 TQAX.f-kp               11.00:  Torque Abs Max 
 TRRT.°/30m               0.00:  Turn Rotating 
 MRT .                  EWR-M5:  Maximum Recorded Temperature 
 TTMX.degC               76.47:  Max Tool Temp 
 VS01.                90640857:  Virtual Str1 SN 
 VS02.                90639246:  Virtual Str2 SN 
 VS03.                90642265:  Virtual Str3 SN 
 VS04.                11654497:  Virtual Str4 SN 
 WBMN.klb                 0.00:  WOB Min 
 WITN.      Kamran Keberlinkiy:  Customer Rep 
 WITN.           Murad Guliyev:  Customer Rep 2 
 WOBA.klb                 0.00:  WOB Avg 
 WOBX.klb                 0.00:  WOB Max 
 YP  .lhf2               36.00:  Yield Point 
~Curve Information Block
#MNEM.UNIT                 API CODE     Curve Description
#---------               -----------    ---------------------------
 TIME.HHMMSS            00 000 000 000:  GT Time & Date
 GTDEPTH.m              00 000 000 000:  GT Depth
 GTPQH.psia             00 000 000 000:  GT HR Quartz Pressure
 GTTQ.degC              00 000 000 000:  GT Quartz Temperature
 GTTN.NONE              00 000 000 000:  GT Test Number
 GTET.sec               00 000 000 000:  GT Elapsed Test Time
 GTTVD.m                00 000 000 000:  GT True Vertical Depth
#Other Information
#
#WARRANTY: Halliburton will use its best efforts to furnish customers with 
#accurate information and interpretations that are part of, and incident to, the services 
#provided.  However, Halliburton cannot and does not warrant the accuracy 
#or correctness of such information and interpretations.  Under no circumstances should any 
#such information or interpretation be relied upon as the sole basis for any drilling, 
#completion, production, or financial decision or any procedure involving any risk to the 
#safety of any drilling venture, drilling rig or its crew or any other third party.  The 
#Customer has full responsibility for all drilling, completion and production operation.  
#Halliburton makes no representations or warranties, either expressed or 
#implied, including, but not limited to, the implied warranties of merchantability or fitness 
#for a particular purpose, with respect to the services rendered.  In no event will 
#Halliburton be liable for failure to obtain any particular results or for 
#any damages, including, but not limited to, indirect, special or consequential damages, 
#resulting from the use of any information or interpretation provided by Halliburton.
#
~A           TIME           GTDEPTH  GTPQH  GTTQ  GTTN  GTET   GTTVD  
# ...
   07:09:04.623.27-Mar-2021 3426.01 7384.94 60.48 6.00 391.10 3169.91
   07:09:04.823.27-Mar-2021 3426.01 7384.94 60.48 6.00 391.30 3169.91
   07:09:05.024.27-Mar-2021 3426.01 7385.14 60.48 6.00 391.50 3169.91
   07:09:05.224.27-Mar-2021 3426.01 7385.05 60.48 6.00 391.70 3169.91
   07:09:05.424.27-Mar-2021 3426.01 7384.78 60.49 6.00 391.90 3169.91
   07:09:05.624.27-Mar-2021 3426.01 7388.29 60.48 6.00 392.10 3169.91
   07:09:05.824.27-Mar-2021 3426.01 7388.29 60.48 6.00 392.30 3169.91
   07:09:06.024.27-Mar-2021 3426.01 7385.30 60.48 6.00 392.50 3169.91
   07:09:06.224.27-Mar-2021 3426.01 7384.72 60.48 6.00 392.70 3169.91
   07:09:06.424.27-Mar-2021 3426.01 7385.24 60.48 6.00 392.90 3169.91
   07:09:06.624.27-Mar-2021 3426.01 7384.47 60.48 6.00 393.10 3169.91
   07:09:06.824.27-Mar-2021 3426.01 7384.47 60.48 6.00 393.30 3169.91
   07:09:07.024.27-Mar-2021 3426.01 7384.13 60.48 6.00 393.50 3169.91
   07:09:07.224.27-Mar-2021 3426.01 7384.97 60.48 6.00 393.70 3169.91
   07:09:07.424.27-Mar-2021 3426.01 7384.82 60.48 6.00 393.90 3169.91
   07:09:07.624.27-Mar-2021 3426.01 7384.68 60.48 6.00 394.10 3169.91
   07:09:07.824.27-Mar-2021 3426.01 7384.68 60.48 6.00 394.30 3169.91
   07:09:08.024.27-Mar-2021 3426.01 7384.63 60.48 6.00 394.50 3169.91
   07:09:08.224.27-Mar-2021 3426.01 7389.66 60.48 6.00 394.70 3169.91
   07:09:08.424.27-Mar-2021 3426.01 7383.07 60.48 6.00 394.90 3169.91
   07:09:08.624.27-Mar-2021 3426.01 7385.01 60.48 6.00 395.10 3169.91
   07:09:08.824.27-Mar-2021 3426.01 7385.01 60.48 6.00 395.30 3169.91
   07:09:09.025.27-Mar-2021 3426.01 7384.71 60.48 6.00 395.50 3169.91
   07:09:09.225.27-Mar-2021 3426.01 7384.68 60.48 6.00 395.70 3169.91
   07:09:09.425.27-Mar-2021 3426.01 7383.56 60.48 6.00 395.90 3169.91
   07:09:09.625.27-Mar-2021 3426.01 7387.32 60.48 6.00 396.10 3169.91
   07:09:09.825.27-Mar-2021 3426.01 7387.32 60.48 6.00 396.30 3169.91
   07:09:10.025.27-Mar-2021 3426.01 7385.58 60.48 6.00 396.50 3169.91
   07:09:10.225.27-Mar-2021 3426.01 7384.55 60.48 6.00 396.70 3169.91
   07:09:10.425.27-Mar-2021 3426.01 7385.09 60.48 6.00 396.90 3169.91
   07:09:10.625.27-Mar-2021 3426.01 7384.32 60.48 6.00 397.10 3169.91
   07:09:10.825.27-Mar-2021 3426.01 7384.32 60.48 6.00 397.30 3169.91
   07:09:11.025.27-Mar-2021 3426.01 7387.85 60.48 6.00 397.50 3169.91
   07:09:11.225.27-Mar-2021 3426.01 7384.91 60.48 6.00 397.70 3169.91
   07:09:11.425.27-Mar-2021 3426.01 7385.75 60.48 6.00 397.90 3169.91
   07:09:11.625.27-Mar-2021 3426.01 7385.12 60.48 6.00 398.10 3169.91
   07:09:11.825.27-Mar-2021 3426.01 7385.12 60.48 6.00 398.30 3169.91
   07:09:12.025.27-Mar-2021 3426.01 7385.27 60.48 6.00 398.50 3169.91
   07:09:12.225.27-Mar-2021 3426.01 7384.78 60.48 6.00 398.70 3169.91
   07:09:12.425.27-Mar-2021 3426.01 7385.35 60.48 6.00 398.90 3169.91
   07:09:12.625.27-Mar-2021 3426.01 7385.57 60.48 6.00 399.10 3169.91
   07:09:12.825.27-Mar-2021 3426.01 7385.57 60.48 6.00 399.30 3169.91
   07:09:13.026.27-Mar-2021 3426.01 7384.18 60.48 6.00 399.50 3169.91
   07:09:13.226.27-Mar-2021 3426.01 7384.67 60.48 6.00 399.70 3169.91
   07:09:13.426.27-Mar-2021 3426.01 7384.31 60.48 6.00 399.90 3169.91
   07:09:13.626.27-Mar-2021 3426.01 7385.27 60.48 6.00 400.10 3169.91
   07:09:13.826.27-Mar-2021 3426.01 7385.27 60.48 6.00 400.30 3169.91
   07:09:14.026.27-Mar-2021 3426.01 7384.89 60.48 6.00 400.50 3169.91
   07:09:14.226.27-Mar-2021 3426.01 7385.16 60.48 6.00 400.70 3169.91
   07:09:14.426.27-Mar-2021 3426.01 7385.19 60.48 6.00 400.90 3169.91
   07:09:14.626.27-Mar-2021 3426.01 7385.11 60.48 6.00 401.10 3169.91
   07:09:14.826.27-Mar-2021 3426.01 7385.11 60.48 6.00 401.30 3169.91
   07:09:15.026.27-Mar-2021 3426.01 7384.70 60.48 6.00 401.50 3169.91
   07:09:15.226.27-Mar-2021 3426.01 7387.83 60.48 6.00 401.70 3169.91
   07:09:15.426.27-Mar-2021 3426.01 7384.46 60.48 6.00 401.90 3169.91
   07:09:15.626.27-Mar-2021 3426.01 7385.12 60.48 6.00 402.10 3169.91
   07:09:15.826.27-Mar-2021 3426.01 7385.12 60.48 6.00 402.30 3169.91
   07:09:16.026.27-Mar-2021 3426.01 7384.58 60.48 6.00 402.50 3169.91
   07:09:16.226.27-Mar-2021 3426.01 7384.28 60.48 6.00 402.70 3169.91
   07:09:16.426.27-Mar-2021 3426.01 7384.10 60.48 6.00 402.90 3169.91
   07:09:16.626.27-Mar-2021 3426.01 7384.03 60.48 6.00 403.10 3169.91
   07:09:16.826.27-Mar-2021 3426.01 7384.03 60.48 6.00 403.30 3169.91
   07:09:17.026.27-Mar-2021 3426.01 7384.71 60.48 6.00 403.50 3169.91
   07:09:17.227.27-Mar-2021 3426.01 7384.84 60.48 6.00 403.70 3169.91
   07:09:17.427.27-Mar-2021 3426.01 7384.71 60.48 6.00 403.90 3169.91
   07:09:17.627.27-Mar-2021 3426.01 7384.55 60.48 6.00 404.10 3169.91
   07:09:17.827.27-Mar-2021 3426.01 7384.55 60.48 6.00 404.30 3169.91
   07:09:18.027.27-Mar-2021 3426.01 7385.21 60.48 6.00 404.50 3169.91
   07:09:18.227.27-Mar-2021 3426.01 7384.59 60.48 6.00 404.70 3169.91
   07:09:18.427.27-Mar-2021 3426.01 7385.09 60.48 6.00 404.90 3169.91
   07:09:18.627.27-Mar-2021 3426.01 7384.89 60.48 6.00 405.10 3169.91
   07:09:18.827.27-Mar-2021 3426.01 7384.89 60.48 6.00 405.30 3169.91
   07:09:19.027.27-Mar-2021 3426.01 7383.69 60.48 6.00 405.50 3169.91
   07:09:19.227.27-Mar-2021 3426.01 7387.52 60.48 6.00 405.70 3169.91
   07:09:19.427.27-Mar-2021 3426.01 7383.80 60.48 6.00 405.90 3169.91
   07:09:19.627.27-Mar-2021 3426.01 7385.68 60.48 6.00 406.10 3169.91
   07:09:19.827.27-Mar-2021 3426.01 7385.68 60.48 6.00 406.30 3169.91
   07:09:20.027.27-Mar-2021 3426.01 7384.95 60.48 6.00 406.50 3169.91
   07:09:20.227.27-Mar-2021 3426.01 7384.93 60.48 6.00 406.70 3169.91
   07:09:20.427.27-Mar-2021 3426.01 7384.53 60.48 6.00 406.90 3169.91
   07:09:20.627.27-Mar-2021 3426.01 7387.92 60.48 6.00 407.10 3169.91
   07:09:20.827.27-Mar-2021 3426.01 7387.92 60.48 6.00 407.30 3169.91
   07:09:21.027.27-Mar-2021 3426.01 7385.71 60.48 6.00 407.50 3169.91
   07:09:21.228.27-Mar-2021 3426.01 7385.19 60.48 6.00 407.70 3169.91
   07:09:21.428.27-Mar-2021 3426.01 7385.42 60.48 6.00 407.90 3169.91
   07:09:21.628.27-Mar-2021 3426.01 7388.67 60.48 6.00 408.10 3169.91
   07:09:21.828.27-Mar-2021 3426.01 7388.67 60.48 6.00 408.30 3169.91
   07:09:22.028.27-Mar-2021 3426.01 7385.89 60.48 6.00 408.50 3169.91
   07:09:22.228.27-Mar-2021 3426.01 7385.27 60.48 6.00 408.70 3169.91
   07:09:22.428.27-Mar-2021 3426.01 7385.42 60.48 6.00 408.90 3169.91
   07:09:22.628.27-Mar-2021 3426.01 7384.64 60.48 6.00 409.10 3169.91
   07:09:22.828.27-Mar-2021 3426.01 7384.64 60.48 6.00 409.30 3169.91
   07:09:23.028.27-Mar-2021 3426.01 7384.54 60.48 6.00 409.50 3169.91
   07:09:23.228.27-Mar-2021 3426.01 7385.37 60.48 6.00 409.70 3169.91
   07:09:23.428.27-Mar-2021 3426.01 7384.93 60.48 6.00 409.90 3169.91
   07:09:23.628.27-Mar-2021 3426.01 7384.93 60.48 6.00 410.10 3169.91
   07:09:23.828.27-Mar-2021 3426.01 7384.93 60.48 6.00 410.30 3169.91
   07:09:24.028.27-Mar-2021 3426.01 7385.21 60.48 6.00 410.50 3169.91
   07:09:24.228.27-Mar-2021 3426.01 7385.19 60.48 6.00 410.70 3169.91
   07:09:24.428.27-Mar-2021 3426.01 7384.67 60.48 6.00 410.90 3169.91
   07:09:24.628.27-Mar-2021 3426.01 7384.67 60.48 6.00 411.10 3169.91
   07:09:24.828.27-Mar-2021 3426.01 7384.67 60.48 6.00 411.30 3169.91
   07:09:25.028.27-Mar-2021 3426.01 7382.93 60.47 6.00 411.50 3169.91
   07:09:25.229.27-Mar-2021 3426.01 7384.87 60.47 6.00 411.70 3169.91
   07:09:25.429.27-Mar-2021 3426.01 7385.28 60.47 6.00 411.90 3169.91
   07:09:25.629.27-Mar-2021 3426.01 7384.99 60.47 6.00 412.10 3169.91
   07:09:25.829.27-Mar-2021 3426.01 7384.99 60.47 6.00 412.30 3169.91
   07:09:26.029.27-Mar-2021 3426.01 7383.93 60.47 6.00 412.50 3169.91
   07:09:26.229.27-Mar-2021 3426.01 7384.09 60.47 6.00 412.70 3169.91
   07:09:26.429.27-Mar-2021 3426.01 7383.83 60.47 6.00 412.90 3169.91
   07:09:26.629.27-Mar-2021 3426.01 7384.72 60.47 6.00 413.10 3169.91
   07:09:26.829.27-Mar-2021 3426.01 7384.72 60.47 6.00 413.30 3169.91
   07:09:27.029.27-Mar-2021 3426.01 7384.42 60.47 6.00 413.50 3169.91
   07:09:27.229.27-Mar-2021 3426.01 7384.36 60.47 6.00 413.70 3169.91
   07:09:27.429.27-Mar-2021 3426.01 7384.68 60.47 6.00 413.90 3169.91
