~Version Information
 VERS.                  2.0:   CWLS log ASCII Standard -VERSION 2.0
 WRAP.                   NO:   One line per depth step
~Well Information Block
#MNEM.UNIT     VALUE/NAME     DESCRIPTION
#---------     -----------    ---------------------------
 STRT.S             07:58:58 27-Mar-21: START TIME 07:58:58 27-Mar-21
 STOP.S             08:06:05 27-Mar-21: STOP TIME  08:06:05 27-Mar-21
 STEP.S                   0.00: STEP TIME
 NULL.                 -999.25: NULL VALUE
 DFWT.                        :  DIST FWL TEXT
 DFST.                        :  DIST FSL TEXT
 DMF .             Drill Floor:  DRILL MEAS FROM
 STIM.      20.26.40 11-Mar-21:  START TIME
 DATE.      20.26.40 30-Mar-21:  END TIME
 SPUD.               11-Mar-21:  SPUD DATE
 NREF.                    Grid:  NORTH REFERENCE
 HPTY.       Minimum Curvature:  HOLE POS TYPE
 DMOD.             Drill Model:  DRILL MOD DESC
 SVYD.                  Survey:  SURVEY DESC
 ILTD.               Lithology:  INTERP LTH DESC
 FTOP.          Formation Tops:  FORM TOPS DESC
 SON .        AZ-XX-0906805385:  JOB NUMBER
 WTYP.                Deviated:  WELL TYPE
 COMP.     BP Exploration (Caspian Sea) Ltd.:  COMPANY
 UWI .            /AZE00000198:  UNIQUE WELL IDENTIFIER
 API .            /AZE00000198:  API NUMBER
 BASE.              Azerbaijan:  LOGGING EQUIPMENT BASE LOCATION
 REGN.                   EESSA:  REGION
 PROV.                    Baku:  PROVINCE
 STAT.                    Baku:  STATE NAME
 CTRY.              Azerbaijan:  COUNTRY NAME
 FLD .                     ACG:  FIELD NAME
 SRVC.     Turan Drilling & Engineering:  CONTRACTOR
 MWDS.                    Baku:  MWD SHOP
 WELL.                    D09z:  WELL NAME
 JOBN.        AZ-XX-0906805385:  JOB TICKET NUMB
 RIG .              East Azeri:  RIG NAME
 DOE .                     N/A:  DOE NUMBER
 DCON.         Sperry Drilling:  DIRECTNL CONTR
 UNIT.                     N/A:  LOGGING EQUIPMENT ID
 PDAT.          Mean Sea Level:  PERMANENT DATUM
 MDS .        Operator Entered:  MAG DATA SOURCE
 CNTY.                        :  COUNTY
 LOC .                        :  LOCATION
 LMF .             Drill Floor:  LOG MEASURED FROM
 TVDS.m                  43.60:  TVDSS CORRECTN
 LATI.deg                40.02:  LATITUDE
 LONG.deg                51.45:  LONGITUDE
 WHNS.m                 -17.04:  WELL HEAD N/S
 WHEW.m                  -6.28:  WELL HEAD E/W
 UTMX.m              538763.98:  UTM X
 UTMY.m             4431880.20:  UTM Y
 DFWL.m                   0.00:  DISTANCE FWL
 DFSL.m                   0.00:  DISTANCE FSL
 SDEP.m                2680.01:  START DEPTH
 TDD .m                4000.01:  TOTAL DEPTH (DRILLER)
 VSDR.deg               225.71:  VERT SEC DIRECT
 GVFD.g                   1.00:  GRAVITY FIELD
 MFLD.nT              50353.00:  MAGNETIC FIELD
 MDIP.deg                59.49:  MAGNETIC DIP
 MDEC.deg                 6.46:  MAGNETIC DECL
 GRDC.deg                 0.29:  GRID CORRECTION
 AZTC.deg                 6.17:  AZM TOTAL CORR
 EPD .m                   0.00:  ELEVATION
 EGL .m                   0.00:  GROUND ELEVATION
 WDMS.m                 151.80:  WD ELEV
 APD .m                  43.60:  DEPTH ABOVE PD
 AGAP.m                  43.60:  AIR GAP
 VSEW.m                  -6.28:  VERT SEC E/W
 VSNS.m                 -17.04:  VERT SEC N/S
 DEP .m                2656.31:  DEPTH
 EKB .m                  43.60:  KB ELEVATION
 EDF .m                  43.60:  DF ELEVATION
 VSC .                       0:  VS TO CLOSURE
 MAGU.                 1851247:  MAGUTM CHECKSUM
~Parameter Information Block
#MNEM.UNIT       Value        Description
#---------     -----------    ---------------------------
 AV  .mps                 3.00:  Ann Velocity 
 AVMX.mps                 8.00:  Max Ann Veloc 
 AZIF.deg                 0.00:  Azm, Final 
 BHAT.                   Other:  BHA Type 
 BREV.rev                 0.00:  Rev Bit Total 
 BROT.°/30m               0.00:  Build Rotating 
 BS  .in                 10.25:  Bit Size 
 BTPL.psig              511.00:  Bit Press Loss 
 CABU.                      No:  Customer Abuse 
 CGEO.           Asif Pashayev:  Customer Geo 
 COMM.                     ôNh:  Run Comments 1 
 TCS .hr                 24.03:  Time Ciculation Ended 
 CV  .mps                 3.50:  Crit Velocity 
 CVMX.mps                 4.00:  Max Crit Veloc 
 DD1 .             Aziz Aliyev:  Direct Drillr 1 
 DD2 .      Fakhraddin Guliyev:  Direct Drillr 2 
 DDSV.                   Other:  DD Service 
 DEFF.%                  99.00:  % Det Eff 
 DLRX.°/30m               0.00:  Dogleg Rot Max 
 DLSO.°/30m               0.00:  Dogleg Oriented 
 DLSX.°/30m               0.00:  Dogleg Str Max 
 DRET.      23.00.40 28-Mar-21:  Drill End Time 
 DRST.      23.30.40 25-Mar-21:  Drill Start Tim 
 DTIM.hr                  0.00:  Time Drilling 
 EDEP.m                3886.01:  End Depth 
 ENG1.         Almaz Almadatov:  Engineer 1 
 ENG2.      Artemiy Matviyanov:  Engineer 2 
 ENG3.           Samir Gafarov:  Engineer 3 
 ETIM.      23.00.40 28-Mar-21:  End Time 
 FLOI.gpm               550.00:  Flow In 
 FLON.gpm               500.00:  Flow In Min 
 FLOS.cptm                0.00:  Fluid Loss 
 FLOX.gpm               590.00:  Flow In Max 
 HFLO.                      No:  High Flow 
 HPRE.                      No:  High Pressure 
 HTEM.                      No:  High Temp 
 HYDO.m                   1.80:  Hydro Offset 
 IFIN.deg                 0.00:  Inc, Final 
 IMAX.deg                 0.00:  Inc Max 
 IMIN.deg                 0.00:  Inc Min 
 IMND.m                   0.00:  Inc Min Depth 
 IMXD.m                   0.00:  Inc Max Depth 
 JARR.                      No:  Jarring 
 LETM.      03.22.40 28-Mar-21:  Log End Time 
 LOST.hr                     0:  Lost Rig Time 
 LSTM.      23.30.40 25-Mar-21:  Log Start Time 
 MDCL.ppm             34000.00:  Mud Chlorides 
 MDES.     Inversion Oil/Synthetic:  Mud Desc 
 DFD .sg                  1.51:  Mud Density 
 MDMN.sg                  1.51:  Dens Mud Min 
 MDMX.sg                  1.51:  Dens Mud Max 
 MOIL.                      70:  Run Mud Oil % 
 MOWR.                   70:30:  Run Mud OWR 
 MSND.                     0.2:  Run Mud Sand % 
 MSOL.                   21.60:  Run Mud Solids% 
 DFV .spqt               74.00:  Mud Viscosity 
 MWOD.in                  6.75:  MWD Tool OD 
 MWSI.                      No:  Serv Intrp, MWD 
 OTIM.hr                 69.09:  Time Operating 
 PCON.           Look Like New:  Pad Condition 
 PMAX.psia             3500.00:  Press Op, Max 
 PV  .cP                 70.00:  Mud PV 
 RUN .                     400:  Run Number 
 ROPA.m/hr                0.00:  ROP Avg 
 ROPN.m/hr                0.00:  ROP Min 
 ROPX.m/hr                0.00:  ROP Max 
 RPMA.rpm                80.00:  RPM Surface Avg 
 RPMN.rpm                10.00:  RPM Surface Min 
 RPMX.rpm               100.00:  RPM Surface Max 
 RRUN.                    0400:  Rig Run Number 
 RTIM.hr                  3.00:  Time Reaming 
 SAZI.deg                 0.00:  Azm, Start 
 SDEP.m                3886.01:  Start Depth 
 SIDD.                      No:  Serv Intrp, DD 
 SINC.deg                 0.00:  Inc, Start 
 SPPA.psig             3270.00:  SPP Avg 
 SPPN.psig             3220.00:  SPP Min 
 SPPX.psig             4430.00:  SPP Max 
 STIM.      23.30.40 25-Mar-21:  Start Time 
 SVCS.                 DD, MWD:  Services 
 SVER.                    9.20:  Sperry Version 
 TDAT.m                   0.00:  Tot Depth Attmp 
 TDDF.                      No:  Trip for DD 
 TFF .                      No:  Trip for Fail 
 TQAA.f-kp                8.00:  Torque Abs Avg 
 TQAN.f-kp                7.00:  Torque Abs Min 
 TQAX.f-kp               11.00:  Torque Abs Max 
 TRRT.°/30m               0.00:  Turn Rotating 
 MRT .                  EWR-M5:  Maximum Recorded Temperature 
 TTMX.degC               76.47:  Max Tool Temp 
 VS01.                90640857:  Virtual Str1 SN 
 VS02.                90639246:  Virtual Str2 SN 
 VS03.                90642265:  Virtual Str3 SN 
 VS04.                11654497:  Virtual Str4 SN 
 WBMN.klb                 0.00:  WOB Min 
 WITN.      Kamran Keberlinkiy:  Customer Rep 
 WITN.           Murad Guliyev:  Customer Rep 2 
 WOBA.klb                 0.00:  WOB Avg 
 WOBX.klb                 0.00:  WOB Max 
 YP  .lhf2               36.00:  Yield Point 
~Curve Information Block
#MNEM.UNIT                 API CODE     Curve Description
#---------               -----------    ---------------------------
 TIME.HHMMSS            00 000 000 000:  GT Time & Date
 GTDEPTH.m              00 000 000 000:  GT Depth
 GTPQH.psia             00 000 000 000:  GT HR Quartz Pressure
 GTTQ.degC              00 000 000 000:  GT Quartz Temperature
 GTTN.NONE              00 000 000 000:  GT Test Number
 GTET.sec               00 000 000 000:  GT Elapsed Test Time
 GTTVD.m                00 000 000 000:  GT True Vertical Depth
#Other Information
#
#WARRANTY: Halliburton will use its best efforts to furnish customers with 
#accurate information and interpretations that are part of, and incident to, the services 
#provided.  However, Halliburton cannot and does not warrant the accuracy 
#or correctness of such information and interpretations.  Under no circumstances should any 
#such information or interpretation be relied upon as the sole basis for any drilling, 
#completion, production, or financial decision or any procedure involving any risk to the 
#safety of any drilling venture, drilling rig or its crew or any other third party.  The 
#Customer has full responsibility for all drilling, completion and production operation.  
#Halliburton makes no representations or warranties, either expressed or 
#implied, including, but not limited to, the implied warranties of merchantability or fitness 
#for a particular purpose, with respect to the services rendered.  In no event will 
#Halliburton be liable for failure to obtain any particular results or for 
#any damages, including, but not limited to, indirect, special or consequential damages, 
#resulting from the use of any information or interpretation provided by Halliburton.
#
~A           TIME           GTDEPTH  GTPQH  GTTQ  GTTN  GTET   GTTVD  
# ...
   08:05:29.000.27-Mar-2021 3413.01 7354.98 60.96 7.00 391.00 3157.73
   08:05:29.200.27-Mar-2021 3413.01 7354.98 60.96 7.00 391.20 3157.73
   08:05:29.400.27-Mar-2021 3413.01 7355.13 60.96 7.00 391.40 3157.73
   08:05:29.600.27-Mar-2021 3413.01 7355.36 60.95 7.00 391.60 3157.73
   08:05:29.800.27-Mar-2021 3413.01 7354.51 60.96 7.00 391.80 3157.73
   08:05:30.000.27-Mar-2021 3413.01 7354.43 60.95 7.00 392.00 3157.73
   08:05:30.200.27-Mar-2021 3413.01 7354.43 60.95 7.00 392.20 3157.73
   08:05:30.400.27-Mar-2021 3413.01 7354.45 60.95 7.00 392.40 3157.73
   08:05:30.600.27-Mar-2021 3413.01 7355.00 60.95 7.00 392.60 3157.73
   08:05:30.800.27-Mar-2021 3413.01 7355.73 60.95 7.00 392.80 3157.73
   08:05:31.000.27-Mar-2021 3413.01 7355.38 60.95 7.00 393.00 3157.73
   08:05:31.200.27-Mar-2021 3413.01 7355.38 60.95 7.00 393.20 3157.73
   08:05:31.400.27-Mar-2021 3413.01 7357.01 60.95 7.00 393.40 3157.73
   08:05:31.600.27-Mar-2021 3413.01 7354.89 60.95 7.00 393.60 3157.73
   08:05:31.800.27-Mar-2021 3413.01 7356.04 60.95 7.00 393.80 3157.73
   08:05:32.000.27-Mar-2021 3413.01 7356.27 60.95 7.00 394.00 3157.73
   08:05:32.200.27-Mar-2021 3413.01 7356.27 60.95 7.00 394.20 3157.73
   08:05:32.400.27-Mar-2021 3413.01 7358.71 60.95 7.00 394.40 3157.73
   08:05:32.600.27-Mar-2021 3413.01 7355.10 60.95 7.00 394.60 3157.73
   08:05:32.800.27-Mar-2021 3413.01 7356.13 60.95 7.00 394.80 3157.73
   08:05:33.000.27-Mar-2021 3413.01 7356.15 60.95 7.00 395.00 3157.73
   08:05:33.200.27-Mar-2021 3413.01 7356.15 60.95 7.00 395.20 3157.73
   08:05:33.400.27-Mar-2021 3413.01 7355.36 60.95 7.00 395.40 3157.73
   08:05:33.600.27-Mar-2021 3413.01 7355.14 60.95 7.00 395.60 3157.73
   08:05:33.800.27-Mar-2021 3413.01 7355.02 60.95 7.00 395.80 3157.73
   08:05:34.000.27-Mar-2021 3413.01 7355.61 60.95 7.00 396.00 3157.73
   08:05:34.200.27-Mar-2021 3413.01 7355.61 60.95 7.00 396.20 3157.73
   08:05:34.400.27-Mar-2021 3413.01 7355.36 60.95 7.00 396.40 3157.73
   08:05:34.600.27-Mar-2021 3413.01 7355.61 60.95 7.00 396.60 3157.73
   08:05:34.800.27-Mar-2021 3413.01 7355.45 60.95 7.00 396.80 3157.73
   08:05:35.000.27-Mar-2021 3413.01 7355.36 60.95 7.00 397.00 3157.73
   08:05:35.200.27-Mar-2021 3413.01 7355.36 60.95 7.00 397.20 3157.73
   08:05:35.400.27-Mar-2021 3413.01 7355.29 60.95 7.00 397.40 3157.73
   08:05:35.600.27-Mar-2021 3413.01 7358.88 60.95 7.00 397.60 3157.73
   08:05:35.800.27-Mar-2021 3413.01 7354.03 60.95 7.00 397.80 3157.73
   08:05:36.000.27-Mar-2021 3413.01 7355.03 60.95 7.00 398.00 3157.73
   08:05:36.200.27-Mar-2021 3413.01 7355.03 60.95 7.00 398.20 3157.73
   08:05:36.400.27-Mar-2021 3413.01 7355.41 60.95 7.00 398.40 3157.73
   08:05:36.600.27-Mar-2021 3413.01 7355.52 60.95 7.00 398.60 3157.73
   08:05:36.800.27-Mar-2021 3413.01 7354.29 60.95 7.00 398.80 3157.73
   08:05:37.000.27-Mar-2021 3413.01 7355.01 60.95 7.00 399.00 3157.73
   08:05:37.200.27-Mar-2021 3413.01 7355.01 60.95 7.00 399.20 3157.73
   08:05:37.400.27-Mar-2021 3413.01 7355.11 60.95 7.00 399.40 3157.73
   08:05:37.600.27-Mar-2021 3413.01 7355.01 60.95 7.00 399.60 3157.73
   08:05:37.800.27-Mar-2021 3413.01 7354.88 60.95 7.00 399.80 3157.73
   08:05:38.000.27-Mar-2021 3413.01 7354.95 60.95 7.00 400.00 3157.73
   08:05:38.200.27-Mar-2021 3413.01 7354.95 60.95 7.00 400.20 3157.73
   08:05:38.400.27-Mar-2021 3413.01 7358.48 60.95 7.00 400.40 3157.73
   08:05:38.600.27-Mar-2021 3413.01 7354.58 60.95 7.00 400.60 3157.73
   08:05:38.800.27-Mar-2021 3413.01 7355.57 60.95 7.00 400.80 3157.73
   08:05:39.000.27-Mar-2021 3413.01 7355.02 60.95 7.00 401.00 3157.73
   08:05:39.200.27-Mar-2021 3413.01 7355.02 60.95 7.00 401.20 3157.73
   08:05:39.400.27-Mar-2021 3413.01 7354.44 60.95 7.00 401.40 3157.73
   08:05:39.600.27-Mar-2021 3413.01 7354.17 60.95 7.00 401.60 3157.73
   08:05:39.800.27-Mar-2021 3413.01 7355.80 60.95 7.00 401.80 3157.73
   08:05:40.000.27-Mar-2021 3413.01 7357.01 60.95 7.00 402.00 3157.73
   08:05:40.200.27-Mar-2021 3413.01 7357.01 60.95 7.00 402.20 3157.73
   08:05:40.400.27-Mar-2021 3413.01 7355.90 60.95 7.00 402.40 3157.73
   08:05:40.600.27-Mar-2021 3413.01 7355.58 60.95 7.00 402.60 3157.73
   08:05:40.800.27-Mar-2021 3413.01 7357.35 60.95 7.00 402.80 3157.73
   08:05:41.000.27-Mar-2021 3413.01 7357.08 60.95 7.00 403.00 3157.73
   08:05:41.200.27-Mar-2021 3413.01 7357.08 60.95 7.00 403.20 3157.73
   08:05:41.400.27-Mar-2021 3413.01 7355.71 60.95 7.00 403.40 3157.73
   08:05:41.600.27-Mar-2021 3413.01 7356.11 60.95 7.00 403.60 3157.73
   08:05:41.800.27-Mar-2021 3413.01 7355.92 60.95 7.00 403.80 3157.73
   08:05:42.000.27-Mar-2021 3413.01 7358.96 60.95 7.00 404.00 3157.73
   08:05:42.200.27-Mar-2021 3413.01 7358.96 60.95 7.00 404.20 3157.73
   08:05:42.400.27-Mar-2021 3413.01 7355.49 60.95 7.00 404.40 3157.73
   08:05:42.600.27-Mar-2021 3413.01 7356.57 60.95 7.00 404.60 3157.73
   08:05:42.800.27-Mar-2021 3413.01 7355.33 60.95 7.00 404.80 3157.73
   08:05:43.000.27-Mar-2021 3413.01 7355.97 60.95 7.00 405.00 3157.73
   08:05:43.200.27-Mar-2021 3413.01 7355.97 60.95 7.00 405.20 3157.73
   08:05:43.400.27-Mar-2021 3413.01 7355.21 60.95 7.00 405.40 3157.73
   08:05:43.600.27-Mar-2021 3413.01 7355.05 60.95 7.00 405.60 3157.73
   08:05:43.800.27-Mar-2021 3413.01 7355.60 60.95 7.00 405.80 3157.73
   08:05:44.000.27-Mar-2021 3413.01 7355.35 60.95 7.00 406.00 3157.73
   08:05:44.200.27-Mar-2021 3413.01 7355.35 60.95 7.00 406.20 3157.73
   08:05:44.400.27-Mar-2021 3413.01 7355.57 60.95 7.00 406.40 3157.73
   08:05:44.600.27-Mar-2021 3413.01 7355.80 60.95 7.00 406.60 3157.73
   08:05:44.800.27-Mar-2021 3413.01 7355.23 60.95 7.00 406.80 3157.73
   08:05:45.000.27-Mar-2021 3413.01 7355.08 60.95 7.00 407.00 3157.73
   08:05:45.200.27-Mar-2021 3413.01 7355.08 60.95 7.00 407.20 3157.73
   08:05:45.400.27-Mar-2021 3413.01 7358.28 60.95 7.00 407.40 3157.73
   08:05:45.600.27-Mar-2021 3413.01 7354.44 60.94 7.00 407.60 3157.73
   08:05:45.800.27-Mar-2021 3413.01 7355.52 60.94 7.00 407.80 3157.73
   08:05:46.000.27-Mar-2021 3413.01 7355.28 60.94 7.00 408.00 3157.73
   08:05:46.200.27-Mar-2021 3413.01 7355.28 60.94 7.00 408.20 3157.73
   08:05:46.400.27-Mar-2021 3413.01 7354.67 60.94 7.00 408.40 3157.73
   08:05:46.600.27-Mar-2021 3413.01 7354.77 60.94 7.00 408.60 3157.73
   08:05:46.800.27-Mar-2021 3413.01 7354.76 60.94 7.00 408.80 3157.73
   08:05:47.000.27-Mar-2021 3413.01 7355.25 60.94 7.00 409.00 3157.73
   08:05:47.200.27-Mar-2021 3413.01 7355.25 60.94 7.00 409.20 3157.73
   08:05:47.400.27-Mar-2021 3413.01 7354.90 60.94 7.00 409.40 3157.73
   08:05:47.600.27-Mar-2021 3413.01 7355.06 60.94 7.00 409.60 3157.73
   08:05:47.800.27-Mar-2021 3413.01 7354.97 60.94 7.00 409.80 3157.73
   08:05:48.000.27-Mar-2021 3413.01 7358.88 60.94 7.00 410.00 3157.73
   08:05:48.200.27-Mar-2021 3413.01 7358.88 60.94 7.00 410.20 3157.73
   08:05:48.400.27-Mar-2021 3413.01 7355.29 60.94 7.00 410.40 3157.73
   08:05:48.600.27-Mar-2021 3413.01 7355.35 60.94 7.00 410.60 3157.73
   08:05:48.800.27-Mar-2021 3413.01 7355.18 60.94 7.00 410.80 3157.73
   08:05:49.000.27-Mar-2021 3413.01 7355.30 60.94 7.00 411.00 3157.73
   08:05:49.200.27-Mar-2021 3413.01 7355.30 60.94 7.00 411.20 3157.73
   08:05:49.400.27-Mar-2021 3413.01 7354.46 60.94 7.00 411.40 3157.73
   08:05:49.600.27-Mar-2021 3413.01 7358.59 60.94 7.00 411.60 3157.73
   08:05:49.800.27-Mar-2021 3413.01 7354.38 60.94 7.00 411.80 3157.73
   08:05:50.000.27-Mar-2021 3413.01 7355.33 60.94 7.00 412.00 3157.73
   08:05:50.200.27-Mar-2021 3413.01 7355.33 60.94 7.00 412.20 3157.73
   08:05:50.400.27-Mar-2021 3413.01 7355.55 60.94 7.00 412.40 3157.73
   08:05:50.600.27-Mar-2021 3413.01 7359.76 60.94 7.00 412.60 3157.73
   08:05:50.800.27-Mar-2021 3413.01 7354.49 60.94 7.00 412.80 3157.73
   08:05:51.000.27-Mar-2021 3413.01 7355.13 60.94 7.00 413.00 3157.73
   08:05:51.200.27-Mar-2021 3413.01 7355.13 60.94 7.00 413.20 3157.73
   08:05:51.400.27-Mar-2021 3413.01 7355.98 60.94 7.00 413.40 3157.73
   08:05:51.600.27-Mar-2021 3413.01 7357.56 60.94 7.00 413.60 3157.73
   08:05:51.800.27-Mar-2021 3413.01 7357.25 60.94 7.00 413.80 3157.73
