~Version Information
 VERS.                  2.0:   CWLS log ASCII Standard -VERSION 2.0
 WRAP.                   NO:   One line per depth step
~Well Information Block
#MNEM.UNIT     VALUE/NAME     DESCRIPTION
#---------     -----------    ---------------------------
 STRT.S             03:27:53 27-Mar-21: START TIME 03:27:53 27-Mar-21
 STOP.S             03:35:02 27-Mar-21: STOP TIME  03:35:02 27-Mar-21
 STEP.S                   0.00: STEP TIME
 NULL.                 -999.25: NULL VALUE
 DFWT.                        :  DIST FWL TEXT
 DFST.                        :  DIST FSL TEXT
 DMF .             Drill Floor:  DRILL MEAS FROM
 STIM.      20.26.40 11-Mar-21:  START TIME
 DATE.      20.26.40 30-Mar-21:  END TIME
 SPUD.               11-Mar-21:  SPUD DATE
 NREF.                    Grid:  NORTH REFERENCE
 HPTY.       Minimum Curvature:  HOLE POS TYPE
 DMOD.             Drill Model:  DRILL MOD DESC
 SVYD.                  Survey:  SURVEY DESC
 ILTD.               Lithology:  INTERP LTH DESC
 FTOP.          Formation Tops:  FORM TOPS DESC
 SON .        AZ-XX-0906805385:  JOB NUMBER
 WTYP.                Deviated:  WELL TYPE
 COMP.     BP Exploration (Caspian Sea) Ltd.:  COMPANY
 UWI .            /AZE00000198:  UNIQUE WELL IDENTIFIER
 API .            /AZE00000198:  API NUMBER
 BASE.              Azerbaijan:  LOGGING EQUIPMENT BASE LOCATION
 REGN.                   EESSA:  REGION
 PROV.                    Baku:  PROVINCE
 STAT.                    Baku:  STATE NAME
 CTRY.              Azerbaijan:  COUNTRY NAME
 FLD .                     ACG:  FIELD NAME
 SRVC.     Turan Drilling & Engineering:  CONTRACTOR
 MWDS.                    Baku:  MWD SHOP
 WELL.                    D09z:  WELL NAME
 JOBN.        AZ-XX-0906805385:  JOB TICKET NUMB
 RIG .              East Azeri:  RIG NAME
 DOE .                     N/A:  DOE NUMBER
 DCON.         Sperry Drilling:  DIRECTNL CONTR
 UNIT.                     N/A:  LOGGING EQUIPMENT ID
 PDAT.          Mean Sea Level:  PERMANENT DATUM
 MDS .        Operator Entered:  MAG DATA SOURCE
 CNTY.                        :  COUNTY
 LOC .                        :  LOCATION
 LMF .             Drill Floor:  LOG MEASURED FROM
 TVDS.m                  43.60:  TVDSS CORRECTN
 LATI.deg                40.02:  LATITUDE
 LONG.deg                51.45:  LONGITUDE
 WHNS.m                 -17.04:  WELL HEAD N/S
 WHEW.m                  -6.28:  WELL HEAD E/W
 UTMX.m              538763.98:  UTM X
 UTMY.m             4431880.20:  UTM Y
 DFWL.m                   0.00:  DISTANCE FWL
 DFSL.m                   0.00:  DISTANCE FSL
 SDEP.m                2680.01:  START DEPTH
 TDD .m                4000.01:  TOTAL DEPTH (DRILLER)
 VSDR.deg               225.71:  VERT SEC DIRECT
 GVFD.g                   1.00:  GRAVITY FIELD
 MFLD.nT              50353.00:  MAGNETIC FIELD
 MDIP.deg                59.49:  MAGNETIC DIP
 MDEC.deg                 6.46:  MAGNETIC DECL
 GRDC.deg                 0.29:  GRID CORRECTION
 AZTC.deg                 6.17:  AZM TOTAL CORR
 EPD .m                   0.00:  ELEVATION
 EGL .m                   0.00:  GROUND ELEVATION
 WDMS.m                 151.80:  WD ELEV
 APD .m                  43.60:  DEPTH ABOVE PD
 AGAP.m                  43.60:  AIR GAP
 VSEW.m                  -6.28:  VERT SEC E/W
 VSNS.m                 -17.04:  VERT SEC N/S
 DEP .m                2656.31:  DEPTH
 EKB .m                  43.60:  KB ELEVATION
 EDF .m                  43.60:  DF ELEVATION
 VSC .                       0:  VS TO CLOSURE
 MAGU.                 1851247:  MAGUTM CHECKSUM
~Parameter Information Block
#MNEM.UNIT       Value        Description
#---------     -----------    ---------------------------
 AV  .mps                 3.00:  Ann Velocity 
 AVMX.mps                 8.00:  Max Ann Veloc 
 AZIF.deg                 0.00:  Azm, Final 
 BHAT.                   Other:  BHA Type 
 BREV.rev                 0.00:  Rev Bit Total 
 BROT.°/30m               0.00:  Build Rotating 
 BS  .in                 10.25:  Bit Size 
 BTPL.psig              511.00:  Bit Press Loss 
 CABU.                      No:  Customer Abuse 
 CGEO.           Asif Pashayev:  Customer Geo 
 COMM.                     ¼Fy:  Run Comments 1 
 TCS .hr                 24.03:  Time Ciculation Ended 
 CV  .mps                 3.50:  Crit Velocity 
 CVMX.mps                 4.00:  Max Crit Veloc 
 DD1 .             Aziz Aliyev:  Direct Drillr 1 
 DD2 .      Fakhraddin Guliyev:  Direct Drillr 2 
 DDSV.                   Other:  DD Service 
 DEFF.%                  99.00:  % Det Eff 
 DLRX.°/30m               0.00:  Dogleg Rot Max 
 DLSO.°/30m               0.00:  Dogleg Oriented 
 DLSX.°/30m               0.00:  Dogleg Str Max 
 DRET.      23.00.40 28-Mar-21:  Drill End Time 
 DRST.      23.30.40 25-Mar-21:  Drill Start Tim 
 DTIM.hr                  0.00:  Time Drilling 
 EDEP.m                3886.01:  End Depth 
 ENG1.         Almaz Almadatov:  Engineer 1 
 ENG2.      Artemiy Matviyanov:  Engineer 2 
 ENG3.           Samir Gafarov:  Engineer 3 
 ETIM.      23.00.40 28-Mar-21:  End Time 
 FLOI.gpm               550.00:  Flow In 
 FLON.gpm               500.00:  Flow In Min 
 FLOS.cptm                0.00:  Fluid Loss 
 FLOX.gpm               590.00:  Flow In Max 
 HFLO.                      No:  High Flow 
 HPRE.                      No:  High Pressure 
 HTEM.                      No:  High Temp 
 HYDO.m                   1.80:  Hydro Offset 
 IFIN.deg                 0.00:  Inc, Final 
 IMAX.deg                 0.00:  Inc Max 
 IMIN.deg                 0.00:  Inc Min 
 IMND.m                   0.00:  Inc Min Depth 
 IMXD.m                   0.00:  Inc Max Depth 
 JARR.                      No:  Jarring 
 LETM.      03.22.40 28-Mar-21:  Log End Time 
 LOST.hr                     0:  Lost Rig Time 
 LSTM.      23.30.40 25-Mar-21:  Log Start Time 
 MDCL.ppm             34000.00:  Mud Chlorides 
 MDES.     Inversion Oil/Synthetic:  Mud Desc 
 DFD .sg                  1.51:  Mud Density 
 MDMN.sg                  1.51:  Dens Mud Min 
 MDMX.sg                  1.51:  Dens Mud Max 
 MOIL.                      70:  Run Mud Oil % 
 MOWR.                   70:30:  Run Mud OWR 
 MSND.                     0.2:  Run Mud Sand % 
 MSOL.                   21.60:  Run Mud Solids% 
 DFV .spqt               74.00:  Mud Viscosity 
 MWOD.in                  6.75:  MWD Tool OD 
 MWSI.                      No:  Serv Intrp, MWD 
 OTIM.hr                 69.09:  Time Operating 
 PCON.           Look Like New:  Pad Condition 
 PMAX.psia             3500.00:  Press Op, Max 
 PV  .cP                 70.00:  Mud PV 
 RUN .                     400:  Run Number 
 ROPA.m/hr                0.00:  ROP Avg 
 ROPN.m/hr                0.00:  ROP Min 
 ROPX.m/hr                0.00:  ROP Max 
 RPMA.rpm                80.00:  RPM Surface Avg 
 RPMN.rpm                10.00:  RPM Surface Min 
 RPMX.rpm               100.00:  RPM Surface Max 
 RRUN.                    0400:  Rig Run Number 
 RTIM.hr                  3.00:  Time Reaming 
 SAZI.deg                 0.00:  Azm, Start 
 SDEP.m                3886.01:  Start Depth 
 SIDD.                      No:  Serv Intrp, DD 
 SINC.deg                 0.00:  Inc, Start 
 SPPA.psig             3270.00:  SPP Avg 
 SPPN.psig             3220.00:  SPP Min 
 SPPX.psig             4430.00:  SPP Max 
 STIM.      23.30.40 25-Mar-21:  Start Time 
 SVCS.                 DD, MWD:  Services 
 SVER.                    9.20:  Sperry Version 
 TDAT.m                   0.00:  Tot Depth Attmp 
 TDDF.                      No:  Trip for DD 
 TFF .                      No:  Trip for Fail 
 TQAA.f-kp                8.00:  Torque Abs Avg 
 TQAN.f-kp                7.00:  Torque Abs Min 
 TQAX.f-kp               11.00:  Torque Abs Max 
 TRRT.°/30m               0.00:  Turn Rotating 
 MRT .                  EWR-M5:  Maximum Recorded Temperature 
 TTMX.degC               76.47:  Max Tool Temp 
 VS01.                90640857:  Virtual Str1 SN 
 VS02.                90639246:  Virtual Str2 SN 
 VS03.                90642265:  Virtual Str3 SN 
 VS04.                11654497:  Virtual Str4 SN 
 WBMN.klb                 0.00:  WOB Min 
 WITN.      Kamran Keberlinkiy:  Customer Rep 
 WITN.           Murad Guliyev:  Customer Rep 2 
 WOBA.klb                 0.00:  WOB Avg 
 WOBX.klb                 0.00:  WOB Max 
 YP  .lhf2               36.00:  Yield Point 
~Curve Information Block
#MNEM.UNIT                 API CODE     Curve Description
#---------               -----------    ---------------------------
 TIME.HHMMSS            00 000 000 000:  GT Time & Date
 GTDEPTH.m              00 000 000 000:  GT Depth
 GTPQH.psia             00 000 000 000:  GT HR Quartz Pressure
 GTTQ.degC              00 000 000 000:  GT Quartz Temperature
 GTTN.NONE              00 000 000 000:  GT Test Number
 GTET.sec               00 000 000 000:  GT Elapsed Test Time
 GTTVD.m                00 000 000 000:  GT True Vertical Depth
#Other Information
#
#WARRANTY: Halliburton will use its best efforts to furnish customers with 
#accurate information and interpretations that are part of, and incident to, the services 
#provided.  However, Halliburton cannot and does not warrant the accuracy 
#or correctness of such information and interpretations.  Under no circumstances should any 
#such information or interpretation be relied upon as the sole basis for any drilling, 
#completion, production, or financial decision or any procedure involving any risk to the 
#safety of any drilling venture, drilling rig or its crew or any other third party.  The 
#Customer has full responsibility for all drilling, completion and production operation.  
#Halliburton makes no representations or warranties, either expressed or 
#implied, including, but not limited to, the implied warranties of merchantability or fitness 
#for a particular purpose, with respect to the services rendered.  In no event will 
#Halliburton be liable for failure to obtain any particular results or for 
#any damages, including, but not limited to, indirect, special or consequential damages, 
#resulting from the use of any information or interpretation provided by Halliburton.
#
~A           TIME           GTDEPTH  GTPQH  GTTQ  GTTN  GTET   GTTVD  
   03:27:53.127.27-Mar-2021 3725.51 7996.40 61.52 3.00   0.00 3451.28
   03:27:53.327.27-Mar-2021 3725.51 7996.40 61.52 3.00   0.20 3451.28
   03:27:53.527.27-Mar-2021 3725.51 7996.64 61.52 3.00   0.40 3451.28
   03:27:53.727.27-Mar-2021 3725.51 7996.57 61.52 3.00   0.60 3451.28
   03:27:53.927.27-Mar-2021 3725.51 7999.85 61.52 3.00   0.80 3451.28
   03:27:54.127.27-Mar-2021 3725.51 7997.63 61.52 3.00   1.00 3451.28
   03:27:54.327.27-Mar-2021 3725.51 7997.63 61.52 3.00   1.20 3451.28
   03:27:54.527.27-Mar-2021 3725.51 7997.30 61.52 3.00   1.40 3451.28
   03:27:54.727.27-Mar-2021 3725.51 8000.89 61.52 3.00   1.60 3451.28
   03:27:54.927.27-Mar-2021 3725.51 7998.97 61.52 3.00   1.80 3451.28
   03:27:55.127.27-Mar-2021 3725.51 7999.30 61.52 3.00   2.00 3451.28
   03:27:55.327.27-Mar-2021 3725.51 7999.30 61.52 3.00   2.20 3451.28
   03:27:55.527.27-Mar-2021 3725.51 7999.10 61.52 3.00   2.40 3451.28
   03:27:55.727.27-Mar-2021 3725.51 8000.80 61.52 3.00   2.60 3451.28
   03:27:55.927.27-Mar-2021 3725.51 8000.22 61.52 3.00   2.80 3451.28
   03:27:56.127.27-Mar-2021 3725.51 8001.38 61.52 3.00   3.00 3451.28
   03:27:56.327.27-Mar-2021 3725.51 8001.38 61.52 3.00   3.20 3451.28
   03:27:56.527.27-Mar-2021 3725.51 8003.11 61.52 3.00   3.40 3451.28
   03:27:56.727.27-Mar-2021 3725.51 8001.86 61.52 3.00   3.60 3451.28
   03:27:56.927.27-Mar-2021 3725.51 8002.12 61.52 3.00   3.80 3451.28
   03:27:57.127.27-Mar-2021 3725.51 8001.68 61.52 3.00   4.00 3451.28
   03:27:57.327.27-Mar-2021 3725.51 8001.68 61.52 3.00   4.20 3451.28
   03:27:57.527.27-Mar-2021 3725.51 8005.06 61.52 3.00   4.40 3451.28
   03:27:57.727.27-Mar-2021 3725.51 8000.35 61.52 3.00   4.60 3451.28
   03:27:57.928.27-Mar-2021 3725.51 8002.99 61.52 3.00   4.80 3451.28
   03:27:58.128.27-Mar-2021 3725.51 8002.33 61.52 3.00   5.00 3451.28
   03:27:58.328.27-Mar-2021 3725.51 8002.33 61.52 3.00   5.20 3451.28
   03:27:58.528.27-Mar-2021 3725.51 8002.10 61.52 3.00   5.40 3451.28
   03:27:58.728.27-Mar-2021 3725.51 8001.74 61.52 3.00   5.60 3451.28
   03:27:58.928.27-Mar-2021 3725.51 8006.28 61.52 3.00   5.80 3451.28
   03:27:59.128.27-Mar-2021 3725.51 8003.08 61.52 3.00   6.00 3451.28
   03:27:59.328.27-Mar-2021 3725.51 8003.08 61.52 3.00   6.20 3451.28
   03:27:59.528.27-Mar-2021 3725.51 8003.49 61.52 3.00   6.40 3451.28
   03:27:59.728.27-Mar-2021 3725.51 8004.02 61.52 3.00   6.60 3451.28
   03:27:59.928.27-Mar-2021 3725.51 8004.07 61.52 3.00   6.80 3451.28
   03:28:00.128.27-Mar-2021 3725.51 8007.42 61.52 3.00   7.00 3451.28
   03:28:00.328.27-Mar-2021 3725.51 8007.42 61.52 3.00   7.20 3451.28
   03:28:00.528.27-Mar-2021 3725.51 8005.82 61.52 3.00   7.40 3451.28
   03:28:00.728.27-Mar-2021 3725.51 8004.75 61.52 3.00   7.60 3451.28
   03:28:00.928.27-Mar-2021 3725.51 8004.96 61.52 3.00   7.80 3451.28
   03:28:01.128.27-Mar-2021 3725.51 8004.43 61.52 3.00   8.00 3451.28
   03:28:01.328.27-Mar-2021 3725.51 8004.43 61.52 3.00   8.20 3451.28
   03:28:01.528.27-Mar-2021 3725.51 8005.52 61.52 3.00   8.40 3451.28
   03:28:01.728.27-Mar-2021 3725.51 8005.03 61.52 3.00   8.60 3451.28
   03:28:01.928.27-Mar-2021 3725.51 8005.09 61.52 3.00   8.80 3451.28
   03:28:02.128.27-Mar-2021 3725.51 8005.00 61.52 3.00   9.00 3451.28
   03:28:02.328.27-Mar-2021 3725.51 8005.00 61.52 3.00   9.20 3451.28
   03:28:02.528.27-Mar-2021 3725.51 8006.02 61.52 3.00   9.40 3451.28
   03:28:02.728.27-Mar-2021 3725.51 8006.11 61.52 3.00   9.60 3451.28
   03:28:02.928.27-Mar-2021 3725.51 8006.06 61.52 3.00   9.80 3451.28
   03:28:03.128.27-Mar-2021 3725.51 8006.65 61.52 3.00  10.00 3451.28
   03:28:03.328.27-Mar-2021 3725.51 8006.65 61.52 3.00  10.20 3451.28
   03:28:03.528.27-Mar-2021 3725.51 8007.58 61.52 3.00  10.40 3451.28
   03:28:03.728.27-Mar-2021 3725.51 8008.38 61.52 3.00  10.60 3451.28
   03:28:03.928.27-Mar-2021 3725.51 8007.50 61.52 3.00  10.80 3451.28
   03:28:04.128.27-Mar-2021 3725.51 8007.00 61.52 3.00  11.00 3451.28
   03:28:04.328.27-Mar-2021 3725.51 8007.00 61.52 3.00  11.20 3451.28
   03:28:04.528.27-Mar-2021 3725.51 8006.62 61.52 3.00  11.40 3451.28
   03:28:04.728.27-Mar-2021 3725.51 8006.50 61.52 3.00  11.60 3451.28
   03:28:04.928.27-Mar-2021 3725.51 8006.91 61.52 3.00  11.80 3451.28
   03:28:05.128.27-Mar-2021 3725.51 8006.66 61.52 3.00  12.00 3451.28
   03:28:05.328.27-Mar-2021 3725.51 8006.66 61.52 3.00  12.20 3451.28
   03:28:05.528.27-Mar-2021 3725.51 8007.06 61.52 3.00  12.40 3451.28
   03:28:05.728.27-Mar-2021 3725.51 8007.67 61.52 3.00  12.60 3451.28
   03:28:05.929.27-Mar-2021 3725.51 8007.62 61.52 3.00  12.80 3451.28
   03:28:06.129.27-Mar-2021 3725.51 8008.58 61.52 3.00  13.00 3451.28
   03:28:06.329.27-Mar-2021 3725.51 8008.58 61.52 3.00  13.20 3451.28
   03:28:06.529.27-Mar-2021 3725.51 8008.56 61.52 3.00  13.40 3451.28
   03:28:06.729.27-Mar-2021 3725.51 8008.53 61.52 3.00  13.60 3451.28
   03:28:06.929.27-Mar-2021 3725.51 8011.62 61.52 3.00  13.80 3451.28
   03:28:07.129.27-Mar-2021 3725.51 8009.26 61.52 3.00  14.00 3451.28
   03:28:07.329.27-Mar-2021 3725.51 8009.26 61.52 3.00  14.20 3451.28
   03:28:07.529.27-Mar-2021 3725.51 8008.30 61.52 3.00  14.40 3451.28
   03:28:07.729.27-Mar-2021 3725.51 8010.56 61.52 3.00  14.60 3451.28
   03:28:07.929.27-Mar-2021 3725.51 8010.11 61.52 3.00  14.80 3451.28
   03:28:08.129.27-Mar-2021 3725.51 8010.28 61.52 3.00  15.00 3451.28
   03:28:08.329.27-Mar-2021 3725.51 8010.28 61.52 3.00  15.20 3451.28
   03:28:08.529.27-Mar-2021 3725.51 8011.55 61.52 3.00  15.40 3451.28
   03:28:08.729.27-Mar-2021 3725.51 8010.16 61.52 3.00  15.60 3451.28
   03:28:08.929.27-Mar-2021 3725.51 8010.93 61.52 3.00  15.80 3451.28
   03:28:09.129.27-Mar-2021 3725.51 8010.54 61.52 3.00  16.00 3451.28
   03:28:09.329.27-Mar-2021 3725.51 8010.54 61.52 3.00  16.20 3451.28
   03:28:09.529.27-Mar-2021 3725.51 8010.54 61.52 3.00  16.40 3451.28
   03:28:09.729.27-Mar-2021 3725.51 8012.11 61.52 3.00  16.60 3451.28
   03:28:09.929.27-Mar-2021 3725.51 8011.93 61.52 3.00  16.80 3451.28
   03:28:10.129.27-Mar-2021 3725.51 8011.23 61.52 3.00  17.00 3451.28
   03:28:10.329.27-Mar-2021 3725.51 8011.23 61.52 3.00  17.20 3451.28
   03:28:10.529.27-Mar-2021 3725.51 8011.38 61.52 3.00  17.40 3451.28
   03:28:10.729.27-Mar-2021 3725.51 8012.98 61.52 3.00  17.60 3451.28
   03:28:10.929.27-Mar-2021 3725.51 8013.02 61.52 3.00  17.80 3451.28
   03:28:11.129.27-Mar-2021 3725.51 8012.64 61.51 3.00  18.00 3451.28
   03:28:11.329.27-Mar-2021 3725.51 8012.64 61.51 3.00  18.20 3451.28
   03:28:11.529.27-Mar-2021 3725.51 8011.87 61.51 3.00  18.40 3451.28
   03:28:11.729.27-Mar-2021 3725.51 8011.16 61.51 3.00  18.60 3451.28
   03:28:11.929.27-Mar-2021 3725.51 8011.85 61.51 3.00  18.80 3451.28
   03:28:12.129.27-Mar-2021 3725.51 8012.34 61.51 3.00  19.00 3451.28
   03:28:12.329.27-Mar-2021 3725.51 8012.34 61.51 3.00  19.20 3451.28
   03:28:12.529.27-Mar-2021 3725.51 8012.17 61.51 3.00  19.40 3451.28
   03:28:12.729.27-Mar-2021 3725.51 8012.36 61.51 3.00  19.60 3451.28
   03:28:12.929.27-Mar-2021 3725.51 8011.65 61.51 3.00  19.80 3451.28
   03:28:13.129.27-Mar-2021 3725.51 8012.45 61.51 3.00  20.00 3451.28
   03:28:13.329.27-Mar-2021 3725.51 8012.45 61.51 3.00  20.20 3451.28
   03:28:13.529.27-Mar-2021 3725.51 8013.10 61.51 3.00  20.40 3451.28
   03:28:13.730.27-Mar-2021 3725.51 8013.17 61.51 3.00  20.60 3451.28
   03:28:13.930.27-Mar-2021 3725.51 8013.08 61.51 3.00  20.80 3451.28
   03:28:14.130.27-Mar-2021 3725.51 8016.79 61.51 3.00  21.00 3451.28
   03:28:14.330.27-Mar-2021 3725.51 8016.79 61.51 3.00  21.20 3451.28
   03:28:14.530.27-Mar-2021 3725.51 8014.45 61.51 3.00  21.40 3451.28
   03:28:14.730.27-Mar-2021 3725.51 8012.95 61.51 3.00  21.60 3451.28
   03:28:14.930.27-Mar-2021 3725.51 8013.50 61.51 3.00  21.80 3451.28
   03:28:15.130.27-Mar-2021 3725.51 8012.67 61.51 3.00  22.00 3451.28
   03:28:15.330.27-Mar-2021 3725.51 8012.67 61.51 3.00  22.20 3451.28
   03:28:15.530.27-Mar-2021 3725.51 8012.72 61.51 3.00  22.40 3451.28
   03:28:15.730.27-Mar-2021 3725.51 8012.96 61.51 3.00  22.60 3451.28
   03:28:15.930.27-Mar-2021 3725.51 8012.67 61.51 3.00  22.80 3451.28
