~Version Information
 VERS.                  2.0:   CWLS log ASCII Standard -VERSION 2.0
 WRAP.                   NO:   One line per depth step
~Well Information Block
#MNEM.UNIT     VALUE/NAME     DESCRIPTION
#---------     -----------    ---------------------------
 STRT.S             06:42:15 27-Mar-21: START TIME 06:42:15 27-Mar-21
 STOP.S             06:49:25 27-Mar-21: STOP TIME  06:49:25 27-Mar-21
 STEP.S                   0.00: STEP TIME
 NULL.                 -999.25: NULL VALUE
 DFWT.                        :  DIST FWL TEXT
 DFST.                        :  DIST FSL TEXT
 DMF .             Drill Floor:  DRILL MEAS FROM
 STIM.      20.26.40 11-Mar-21:  START TIME
 DATE.      20.26.40 30-Mar-21:  END TIME
 SPUD.               11-Mar-21:  SPUD DATE
 NREF.                    Grid:  NORTH REFERENCE
 HPTY.       Minimum Curvature:  HOLE POS TYPE
 DMOD.             Drill Model:  DRILL MOD DESC
 SVYD.                  Survey:  SURVEY DESC
 ILTD.               Lithology:  INTERP LTH DESC
 FTOP.          Formation Tops:  FORM TOPS DESC
 SON .        AZ-XX-0906805385:  JOB NUMBER
 WTYP.                Deviated:  WELL TYPE
 COMP.     BP Exploration (Caspian Sea) Ltd.:  COMPANY
 UWI .            /AZE00000198:  UNIQUE WELL IDENTIFIER
 API .            /AZE00000198:  API NUMBER
 BASE.              Azerbaijan:  LOGGING EQUIPMENT BASE LOCATION
 REGN.                   EESSA:  REGION
 PROV.                    Baku:  PROVINCE
 STAT.                    Baku:  STATE NAME
 CTRY.              Azerbaijan:  COUNTRY NAME
 FLD .                     ACG:  FIELD NAME
 SRVC.     Turan Drilling & Engineering:  CONTRACTOR
 MWDS.                    Baku:  MWD SHOP
 WELL.                    D09z:  WELL NAME
 JOBN.        AZ-XX-0906805385:  JOB TICKET NUMB
 RIG .              East Azeri:  RIG NAME
 DOE .                     N/A:  DOE NUMBER
 DCON.         Sperry Drilling:  DIRECTNL CONTR
 UNIT.                     N/A:  LOGGING EQUIPMENT ID
 PDAT.          Mean Sea Level:  PERMANENT DATUM
 MDS .        Operator Entered:  MAG DATA SOURCE
 CNTY.                        :  COUNTY
 LOC .                        :  LOCATION
 LMF .             Drill Floor:  LOG MEASURED FROM
 TVDS.m                  43.60:  TVDSS CORRECTN
 LATI.deg                40.02:  LATITUDE
 LONG.deg                51.45:  LONGITUDE
 WHNS.m                 -17.04:  WELL HEAD N/S
 WHEW.m                  -6.28:  WELL HEAD E/W
 UTMX.m              538763.98:  UTM X
 UTMY.m             4431880.20:  UTM Y
 DFWL.m                   0.00:  DISTANCE FWL
 DFSL.m                   0.00:  DISTANCE FSL
 SDEP.m                2680.01:  START DEPTH
 TDD .m                4000.01:  TOTAL DEPTH (DRILLER)
 VSDR.deg               225.71:  VERT SEC DIRECT
 GVFD.g                   1.00:  GRAVITY FIELD
 MFLD.nT              50353.00:  MAGNETIC FIELD
 MDIP.deg                59.49:  MAGNETIC DIP
 MDEC.deg                 6.46:  MAGNETIC DECL
 GRDC.deg                 0.29:  GRID CORRECTION
 AZTC.deg                 6.17:  AZM TOTAL CORR
 EPD .m                   0.00:  ELEVATION
 EGL .m                   0.00:  GROUND ELEVATION
 WDMS.m                 151.80:  WD ELEV
 APD .m                  43.60:  DEPTH ABOVE PD
 AGAP.m                  43.60:  AIR GAP
 VSEW.m                  -6.28:  VERT SEC E/W
 VSNS.m                 -17.04:  VERT SEC N/S
 DEP .m                2656.31:  DEPTH
 EKB .m                  43.60:  KB ELEVATION
 EDF .m                  43.60:  DF ELEVATION
 VSC .                       0:  VS TO CLOSURE
 MAGU.                 1851247:  MAGUTM CHECKSUM
~Parameter Information Block
#MNEM.UNIT       Value        Description
#---------     -----------    ---------------------------
 AV  .mps                 3.00:  Ann Velocity 
 AVMX.mps                 8.00:  Max Ann Veloc 
 AZIF.deg                 0.00:  Azm, Final 
 BHAT.                   Other:  BHA Type 
 BREV.rev                 0.00:  Rev Bit Total 
 BROT.°/30m               0.00:  Build Rotating 
 BS  .in                 10.25:  Bit Size 
 BTPL.psig              511.00:  Bit Press Loss 
 CABU.                      No:  Customer Abuse 
 CGEO.           Asif Pashayev:  Customer Geo 
 COMM.                     lÇi:  Run Comments 1 
 TCS .hr                 24.03:  Time Ciculation Ended 
 CV  .mps                 3.50:  Crit Velocity 
 CVMX.mps                 4.00:  Max Crit Veloc 
 DD1 .             Aziz Aliyev:  Direct Drillr 1 
 DD2 .      Fakhraddin Guliyev:  Direct Drillr 2 
 DDSV.                   Other:  DD Service 
 DEFF.%                  99.00:  % Det Eff 
 DLRX.°/30m               0.00:  Dogleg Rot Max 
 DLSO.°/30m               0.00:  Dogleg Oriented 
 DLSX.°/30m               0.00:  Dogleg Str Max 
 DRET.      23.00.40 28-Mar-21:  Drill End Time 
 DRST.      23.30.40 25-Mar-21:  Drill Start Tim 
 DTIM.hr                  0.00:  Time Drilling 
 EDEP.m                3886.01:  End Depth 
 ENG1.         Almaz Almadatov:  Engineer 1 
 ENG2.      Artemiy Matviyanov:  Engineer 2 
 ENG3.           Samir Gafarov:  Engineer 3 
 ETIM.      23.00.40 28-Mar-21:  End Time 
 FLOI.gpm               550.00:  Flow In 
 FLON.gpm               500.00:  Flow In Min 
 FLOS.cptm                0.00:  Fluid Loss 
 FLOX.gpm               590.00:  Flow In Max 
 HFLO.                      No:  High Flow 
 HPRE.                      No:  High Pressure 
 HTEM.                      No:  High Temp 
 HYDO.m                   1.80:  Hydro Offset 
 IFIN.deg                 0.00:  Inc, Final 
 IMAX.deg                 0.00:  Inc Max 
 IMIN.deg                 0.00:  Inc Min 
 IMND.m                   0.00:  Inc Min Depth 
 IMXD.m                   0.00:  Inc Max Depth 
 JARR.                      No:  Jarring 
 LETM.      03.22.40 28-Mar-21:  Log End Time 
 LOST.hr                     0:  Lost Rig Time 
 LSTM.      23.30.40 25-Mar-21:  Log Start Time 
 MDCL.ppm             34000.00:  Mud Chlorides 
 MDES.     Inversion Oil/Synthetic:  Mud Desc 
 DFD .sg                  1.51:  Mud Density 
 MDMN.sg                  1.51:  Dens Mud Min 
 MDMX.sg                  1.51:  Dens Mud Max 
 MOIL.                      70:  Run Mud Oil % 
 MOWR.                   70:30:  Run Mud OWR 
 MSND.                     0.2:  Run Mud Sand % 
 MSOL.                   21.60:  Run Mud Solids% 
 DFV .spqt               74.00:  Mud Viscosity 
 MWOD.in                  6.75:  MWD Tool OD 
 MWSI.                      No:  Serv Intrp, MWD 
 OTIM.hr                 69.09:  Time Operating 
 PCON.           Look Like New:  Pad Condition 
 PMAX.psia             3500.00:  Press Op, Max 
 PV  .cP                 70.00:  Mud PV 
 RUN .                     400:  Run Number 
 ROPA.m/hr                0.00:  ROP Avg 
 ROPN.m/hr                0.00:  ROP Min 
 ROPX.m/hr                0.00:  ROP Max 
 RPMA.rpm                80.00:  RPM Surface Avg 
 RPMN.rpm                10.00:  RPM Surface Min 
 RPMX.rpm               100.00:  RPM Surface Max 
 RRUN.                    0400:  Rig Run Number 
 RTIM.hr                  3.00:  Time Reaming 
 SAZI.deg                 0.00:  Azm, Start 
 SDEP.m                3886.01:  Start Depth 
 SIDD.                      No:  Serv Intrp, DD 
 SINC.deg                 0.00:  Inc, Start 
 SPPA.psig             3270.00:  SPP Avg 
 SPPN.psig             3220.00:  SPP Min 
 SPPX.psig             4430.00:  SPP Max 
 STIM.      23.30.40 25-Mar-21:  Start Time 
 SVCS.                 DD, MWD:  Services 
 SVER.                    9.20:  Sperry Version 
 TDAT.m                   0.00:  Tot Depth Attmp 
 TDDF.                      No:  Trip for DD 
 TFF .                      No:  Trip for Fail 
 TQAA.f-kp                8.00:  Torque Abs Avg 
 TQAN.f-kp                7.00:  Torque Abs Min 
 TQAX.f-kp               11.00:  Torque Abs Max 
 TRRT.°/30m               0.00:  Turn Rotating 
 MRT .                  EWR-M5:  Maximum Recorded Temperature 
 TTMX.degC               76.47:  Max Tool Temp 
 VS01.                90640857:  Virtual Str1 SN 
 VS02.                90639246:  Virtual Str2 SN 
 VS03.                90642265:  Virtual Str3 SN 
 VS04.                11654497:  Virtual Str4 SN 
 WBMN.klb                 0.00:  WOB Min 
 WITN.      Kamran Keberlinkiy:  Customer Rep 
 WITN.           Murad Guliyev:  Customer Rep 2 
 WOBA.klb                 0.00:  WOB Avg 
 WOBX.klb                 0.00:  WOB Max 
 YP  .lhf2               36.00:  Yield Point 
~Curve Information Block
#MNEM.UNIT                 API CODE     Curve Description
#---------               -----------    ---------------------------
 TIME.HHMMSS            00 000 000 000:  GT Time & Date
 GTDEPTH.m              00 000 000 000:  GT Depth
 GTPQH.psia             00 000 000 000:  GT HR Quartz Pressure
 GTTQ.degC              00 000 000 000:  GT Quartz Temperature
 GTTN.NONE              00 000 000 000:  GT Test Number
 GTET.sec               00 000 000 000:  GT Elapsed Test Time
 GTTVD.m                00 000 000 000:  GT True Vertical Depth
#Other Information
#
#WARRANTY: Halliburton will use its best efforts to furnish customers with 
#accurate information and interpretations that are part of, and incident to, the services 
#provided.  However, Halliburton cannot and does not warrant the accuracy 
#or correctness of such information and interpretations.  Under no circumstances should any 
#such information or interpretation be relied upon as the sole basis for any drilling, 
#completion, production, or financial decision or any procedure involving any risk to the 
#safety of any drilling venture, drilling rig or its crew or any other third party.  The 
#Customer has full responsibility for all drilling, completion and production operation.  
#Halliburton makes no representations or warranties, either expressed or 
#implied, including, but not limited to, the implied warranties of merchantability or fitness 
#for a particular purpose, with respect to the services rendered.  In no event will 
#Halliburton be liable for failure to obtain any particular results or for 
#any damages, including, but not limited to, indirect, special or consequential damages, 
#resulting from the use of any information or interpretation provided by Halliburton.
#
~A           TIME           GTDEPTH  GTPQH  GTTQ  GTTN  GTET   GTTVD  
# ...
   06:45:19.268.27-Mar-2021 3443.51 5071.20 60.37 5.00 184.05 3186.30
   06:45:19.469.27-Mar-2021 3443.51 5071.20 60.37 5.00 184.25 3186.30
   06:45:19.669.27-Mar-2021 3443.51 5071.11 60.37 5.00 184.45 3186.30
   06:45:19.869.27-Mar-2021 3443.51 5071.33 60.37 5.00 184.65 3186.30
   06:45:20.069.27-Mar-2021 3443.51 5071.09 60.37 5.00 184.85 3186.30
   06:45:20.269.27-Mar-2021 3443.51 5070.99 60.37 5.00 185.05 3186.30
   06:45:20.469.27-Mar-2021 3443.51 5070.99 60.37 5.00 185.25 3186.30
   06:45:20.669.27-Mar-2021 3443.51 5071.02 60.37 5.00 185.45 3186.30
   06:45:20.869.27-Mar-2021 3443.51 5071.27 60.37 5.00 185.65 3186.30
   06:45:21.069.27-Mar-2021 3443.51 5071.07 60.37 5.00 185.85 3186.30
   06:45:21.269.27-Mar-2021 3443.51 5071.20 60.37 5.00 186.05 3186.30
   06:45:21.469.27-Mar-2021 3443.51 5071.20 60.37 5.00 186.25 3186.30
   06:45:21.669.27-Mar-2021 3443.51 5071.18 60.37 5.00 186.45 3186.30
   06:45:21.869.27-Mar-2021 3443.51 5071.06 60.37 5.00 186.65 3186.30
   06:45:22.069.27-Mar-2021 3443.51 5071.22 60.37 5.00 186.85 3186.30
   06:45:22.269.27-Mar-2021 3443.51 5071.19 60.37 5.00 187.05 3186.30
   06:45:22.469.27-Mar-2021 3443.51 5071.19 60.37 5.00 187.25 3186.30
   06:45:22.669.27-Mar-2021 3443.51 5071.08 60.37 5.00 187.45 3186.30
   06:45:22.869.27-Mar-2021 3443.51 5071.16 60.37 5.00 187.65 3186.30
   06:45:23.069.27-Mar-2021 3443.51 5071.32 60.37 5.00 187.85 3186.30
   06:45:23.269.27-Mar-2021 3443.51 5071.08 60.37 5.00 188.05 3186.30
   06:45:23.470.27-Mar-2021 3443.51 5071.08 60.37 5.00 188.25 3186.30
   06:45:23.670.27-Mar-2021 3443.51 5071.13 60.37 5.00 188.45 3186.30
   06:45:23.870.27-Mar-2021 3443.51 5071.06 60.37 5.00 188.65 3186.30
   06:45:24.070.27-Mar-2021 3443.51 5071.15 60.37 5.00 188.85 3186.30
   06:45:24.270.27-Mar-2021 3443.51 5070.98 60.37 5.00 189.05 3186.30
   06:45:24.470.27-Mar-2021 3443.51 5070.98 60.37 5.00 189.25 3186.30
   06:45:24.670.27-Mar-2021 3443.51 5071.10 60.37 5.00 189.45 3186.30
   06:45:24.870.27-Mar-2021 3443.51 5071.26 60.37 5.00 189.65 3186.30
   06:45:25.070.27-Mar-2021 3443.51 5071.10 60.37 5.00 189.85 3186.30
   06:45:25.270.27-Mar-2021 3443.51 5071.30 60.37 5.00 190.05 3186.30
   06:45:25.470.27-Mar-2021 3443.51 5071.30 60.37 5.00 190.25 3186.30
   06:45:25.670.27-Mar-2021 3443.51 5071.18 60.37 5.00 190.45 3186.30
   06:45:25.870.27-Mar-2021 3443.51 5071.28 60.37 5.00 190.65 3186.30
   06:45:26.070.27-Mar-2021 3443.51 5071.18 60.37 5.00 190.85 3186.30
   06:45:26.270.27-Mar-2021 3443.51 5071.05 60.37 5.00 191.05 3186.30
   06:45:26.470.27-Mar-2021 3443.51 5071.05 60.37 5.00 191.25 3186.30
   06:45:26.670.27-Mar-2021 3443.51 5071.16 60.37 5.00 191.45 3186.30
   06:45:26.870.27-Mar-2021 3443.51 5071.16 60.37 5.00 191.65 3186.30
   06:45:27.070.27-Mar-2021 3443.51 5071.13 60.37 5.00 191.85 3186.30
   06:45:27.270.27-Mar-2021 3443.51 5071.15 60.37 5.00 192.05 3186.30
   06:45:27.471.27-Mar-2021 3443.51 5071.15 60.37 5.00 192.25 3186.30
   06:45:27.671.27-Mar-2021 3443.51 5071.13 60.37 5.00 192.45 3186.30
   06:45:27.871.27-Mar-2021 3443.51 5071.05 60.37 5.00 192.65 3186.30
   06:45:28.071.27-Mar-2021 3443.51 5071.04 60.37 5.00 192.85 3186.30
   06:45:28.271.27-Mar-2021 3443.51 5071.36 60.37 5.00 193.05 3186.30
   06:45:28.471.27-Mar-2021 3443.51 5071.36 60.37 5.00 193.25 3186.30
   06:45:28.671.27-Mar-2021 3443.51 5070.96 60.37 5.00 193.45 3186.30
   06:45:28.871.27-Mar-2021 3443.51 5071.50 60.37 5.00 193.65 3186.30
   06:45:29.071.27-Mar-2021 3443.51 5071.08 60.37 5.00 193.85 3186.30
   06:45:29.271.27-Mar-2021 3443.51 5071.02 60.37 5.00 194.05 3186.30
   06:45:29.471.27-Mar-2021 3443.51 5071.02 60.37 5.00 194.25 3186.30
   06:45:29.671.27-Mar-2021 3443.51 5071.20 60.37 5.00 194.45 3186.30
   06:45:29.871.27-Mar-2021 3443.51 5071.28 60.37 5.00 194.65 3186.30
   06:45:30.071.27-Mar-2021 3443.51 5071.33 60.37 5.00 194.85 3186.30
   06:45:30.271.27-Mar-2021 3443.51 5071.18 60.37 5.00 195.05 3186.30
   06:45:30.471.27-Mar-2021 3443.51 5071.18 60.37 5.00 195.25 3186.30
   06:45:30.671.27-Mar-2021 3443.51 5071.09 60.37 5.00 195.45 3186.30
   06:45:30.871.27-Mar-2021 3443.51 5071.34 60.37 5.00 195.65 3186.30
   06:45:31.071.27-Mar-2021 3443.51 5071.26 60.37 5.00 195.85 3186.30
   06:45:31.271.27-Mar-2021 3443.51 5070.98 60.37 5.00 196.05 3186.30
   06:45:31.472.27-Mar-2021 3443.51 5070.98 60.37 5.00 196.25 3186.30
   06:45:31.672.27-Mar-2021 3443.51 5071.21 60.37 5.00 196.45 3186.30
   06:45:31.872.27-Mar-2021 3443.51 5071.24 60.37 5.00 196.65 3186.30
   06:45:32.072.27-Mar-2021 3443.51 5071.07 60.37 5.00 196.85 3186.30
   06:45:32.272.27-Mar-2021 3443.51 5071.42 60.37 5.00 197.05 3186.30
   06:45:32.472.27-Mar-2021 3443.51 5071.42 60.37 5.00 197.25 3186.30
   06:45:32.672.27-Mar-2021 3443.51 5071.23 60.37 5.00 197.45 3186.30
   06:45:32.872.27-Mar-2021 3443.51 5071.20 60.37 5.00 197.65 3186.30
   06:45:33.072.27-Mar-2021 3443.51 5071.05 60.37 5.00 197.85 3186.30
   06:45:33.272.27-Mar-2021 3443.51 5071.30 60.37 5.00 198.05 3186.30
   06:45:33.472.27-Mar-2021 3443.51 5071.30 60.37 5.00 198.25 3186.30
   06:45:33.672.27-Mar-2021 3443.51 5071.09 60.37 5.00 198.45 3186.30
   06:45:33.872.27-Mar-2021 3443.51 5071.39 60.37 5.00 198.65 3186.30
   06:45:34.072.27-Mar-2021 3443.51 5071.12 60.37 5.00 198.85 3186.30
   06:45:34.272.27-Mar-2021 3443.51 5071.30 60.37 5.00 199.05 3186.30
   06:45:34.472.27-Mar-2021 3443.51 5071.30 60.37 5.00 199.25 3186.30
   06:45:34.672.27-Mar-2021 3443.51 5070.95 60.37 5.00 199.45 3186.30
   06:45:34.872.27-Mar-2021 3443.51 5071.47 60.37 5.00 199.65 3186.30
   06:45:35.072.27-Mar-2021 3443.51 5071.13 60.37 5.00 199.85 3186.30
   06:45:35.272.27-Mar-2021 3443.51 5071.17 60.37 5.00 200.05 3186.30
   06:45:35.473.27-Mar-2021 3443.51 5071.17 60.37 5.00 200.25 3186.30
   06:45:35.673.27-Mar-2021 3443.51 5071.18 60.37 5.00 200.45 3186.30
   06:45:35.873.27-Mar-2021 3443.51 5070.99 60.37 5.00 200.65 3186.30
   06:45:36.073.27-Mar-2021 3443.51 5071.23 60.37 5.00 200.85 3186.30
   06:45:36.273.27-Mar-2021 3443.51 5071.21 60.37 5.00 201.05 3186.30
   06:45:36.473.27-Mar-2021 3443.51 5071.21 60.37 5.00 201.25 3186.30
   06:45:36.673.27-Mar-2021 3443.51 5071.23 60.37 5.00 201.45 3186.30
   06:45:36.873.27-Mar-2021 3443.51 5071.31 60.37 5.00 201.65 3186.30
   06:45:37.073.27-Mar-2021 3443.51 5071.13 60.37 5.00 201.85 3186.30
   06:45:37.273.27-Mar-2021 3443.51 5071.24 60.37 5.00 202.05 3186.30
   06:45:37.473.27-Mar-2021 3443.51 5071.24 60.37 5.00 202.25 3186.30
   06:45:37.673.27-Mar-2021 3443.51 5071.22 60.37 5.00 202.45 3186.30
   06:45:37.873.27-Mar-2021 3443.51 5071.37 60.37 5.00 202.65 3186.30
   06:45:38.073.27-Mar-2021 3443.51 5071.16 60.37 5.00 202.85 3186.30
   06:45:38.273.27-Mar-2021 3443.51 5071.13 60.37 5.00 203.05 3186.30
   06:45:38.473.27-Mar-2021 3443.51 5071.13 60.37 5.00 203.25 3186.30
   06:45:38.673.27-Mar-2021 3443.51 5071.05 60.37 5.00 203.45 3186.30
   06:45:38.873.27-Mar-2021 3443.51 5071.35 60.37 5.00 203.65 3186.30
   06:45:39.073.27-Mar-2021 3443.51 5071.07 60.37 5.00 203.85 3186.30
   06:45:39.273.27-Mar-2021 3443.51 5071.32 60.37 5.00 204.05 3186.30
   06:45:39.474.27-Mar-2021 3443.51 5071.32 60.37 5.00 204.25 3186.30
   06:45:39.674.27-Mar-2021 3443.51 5071.10 60.37 5.00 204.45 3186.30
   06:45:39.874.27-Mar-2021 3443.51 5071.28 60.37 5.00 204.65 3186.30
   06:45:40.074.27-Mar-2021 3443.51 5071.24 60.37 5.00 204.85 3186.30
   06:45:40.274.27-Mar-2021 3443.51 5071.13 60.37 5.00 205.05 3186.30
   06:45:40.474.27-Mar-2021 3443.51 5071.13 60.37 5.00 205.25 3186.30
   06:45:40.674.27-Mar-2021 3443.51 5071.29 60.37 5.00 205.45 3186.30
   06:45:40.874.27-Mar-2021 3443.51 5071.28 60.37 5.00 205.65 3186.30
   06:45:41.074.27-Mar-2021 3443.51 5071.13 60.37 5.00 205.85 3186.30
   06:45:41.274.27-Mar-2021 3443.51 5071.15 60.37 5.00 206.05 3186.30
   06:45:41.474.27-Mar-2021 3443.51 5071.15 60.37 5.00 206.25 3186.30
   06:45:41.674.27-Mar-2021 3443.51 5071.25 60.37 5.00 206.45 3186.30
   06:45:41.874.27-Mar-2021 3443.51 5071.07 60.37 5.00 206.65 3186.30
   06:45:42.074.27-Mar-2021 3443.51 5071.28 60.37 5.00 206.85 3186.30
