~Version Information
 VERS.                  2.0:   CWLS log ASCII Standard -VERSION 2.0
 WRAP.                   NO:   One line per depth step
~Well Information Block
#MNEM.UNIT     VALUE/NAME     DESCRIPTION
#---------     -----------    ---------------------------
 STRT.S             03:27:53 27-Mar-21: START TIME 03:27:53 27-Mar-21
 STOP.S             03:35:02 27-Mar-21: STOP TIME  03:35:02 27-Mar-21
 STEP.S                   0.00: STEP TIME
 NULL.                 -999.25: NULL VALUE
 DFWT.                        :  DIST FWL TEXT
 DFST.                        :  DIST FSL TEXT
 DMF .             Drill Floor:  DRILL MEAS FROM
 STIM.      20.26.40 11-Mar-21:  START TIME
 DATE.      20.26.40 30-Mar-21:  END TIME
 SPUD.               11-Mar-21:  SPUD DATE
 NREF.                    Grid:  NORTH REFERENCE
 HPTY.       Minimum Curvature:  HOLE POS TYPE
 DMOD.             Drill Model:  DRILL MOD DESC
 SVYD.                  Survey:  SURVEY DESC
 ILTD.               Lithology:  INTERP LTH DESC
 FTOP.          Formation Tops:  FORM TOPS DESC
 SON .        AZ-XX-0906805385:  JOB NUMBER
 WTYP.                Deviated:  WELL TYPE
 COMP.     BP Exploration (Caspian Sea) Ltd.:  COMPANY
 UWI .            /AZE00000198:  UNIQUE WELL IDENTIFIER
 API .            /AZE00000198:  API NUMBER
 BASE.              Azerbaijan:  LOGGING EQUIPMENT BASE LOCATION
 REGN.                   EESSA:  REGION
 PROV.                    Baku:  PROVINCE
 STAT.                    Baku:  STATE NAME
 CTRY.              Azerbaijan:  COUNTRY NAME
 FLD .                     ACG:  FIELD NAME
 SRVC.     Turan Drilling & Engineering:  CONTRACTOR
 MWDS.                    Baku:  MWD SHOP
 WELL.                    D09z:  WELL NAME
 JOBN.        AZ-XX-0906805385:  JOB TICKET NUMB
 RIG .              East Azeri:  RIG NAME
 DOE .                     N/A:  DOE NUMBER
 DCON.         Sperry Drilling:  DIRECTNL CONTR
 UNIT.                     N/A:  LOGGING EQUIPMENT ID
 PDAT.          Mean Sea Level:  PERMANENT DATUM
 MDS .        Operator Entered:  MAG DATA SOURCE
 CNTY.                        :  COUNTY
 LOC .                        :  LOCATION
 LMF .             Drill Floor:  LOG MEASURED FROM
 TVDS.m                  43.60:  TVDSS CORRECTN
 LATI.deg                40.02:  LATITUDE
 LONG.deg                51.45:  LONGITUDE
 WHNS.m                 -17.04:  WELL HEAD N/S
 WHEW.m                  -6.28:  WELL HEAD E/W
 UTMX.m              538763.98:  UTM X
 UTMY.m             4431880.20:  UTM Y
 DFWL.m                   0.00:  DISTANCE FWL
 DFSL.m                   0.00:  DISTANCE FSL
 SDEP.m                2680.01:  START DEPTH
 TDD .m                4000.01:  TOTAL DEPTH (DRILLER)
 VSDR.deg               225.71:  VERT SEC DIRECT
 GVFD.g                   1.00:  GRAVITY FIELD
 MFLD.nT              50353.00:  MAGNETIC FIELD
 MDIP.deg                59.49:  MAGNETIC DIP
 MDEC.deg                 6.46:  MAGNETIC DECL
 GRDC.deg                 0.29:  GRID CORRECTION
 AZTC.deg                 6.17:  AZM TOTAL CORR
 EPD .m                   0.00:  ELEVATION
 EGL .m                   0.00:  GROUND ELEVATION
 WDMS.m                 151.80:  WD ELEV
 APD .m                  43.60:  DEPTH ABOVE PD
 AGAP.m                  43.60:  AIR GAP
 VSEW.m                  -6.28:  VERT SEC E/W
 VSNS.m                 -17.04:  VERT SEC N/S
 DEP .m                2656.31:  DEPTH
 EKB .m                  43.60:  KB ELEVATION
 EDF .m                  43.60:  DF ELEVATION
 VSC .                       0:  VS TO CLOSURE
 MAGU.                 1851247:  MAGUTM CHECKSUM
~Parameter Information Block
#MNEM.UNIT       Value        Description
#---------     -----------    ---------------------------
 AV  .mps                 3.00:  Ann Velocity 
 AVMX.mps                 8.00:  Max Ann Veloc 
 AZIF.deg                 0.00:  Azm, Final 
 BHAT.                   Other:  BHA Type 
 BREV.rev                 0.00:  Rev Bit Total 
 BROT.°/30m               0.00:  Build Rotating 
 BS  .in                 10.25:  Bit Size 
 BTPL.psig              511.00:  Bit Press Loss 
 CABU.                      No:  Customer Abuse 
 CGEO.           Asif Pashayev:  Customer Geo 
 COMM.                     ¼Fy:  Run Comments 1 
 TCS .hr                 24.03:  Time Ciculation Ended 
 CV  .mps                 3.50:  Crit Velocity 
 CVMX.mps                 4.00:  Max Crit Veloc 
 DD1 .             Aziz Aliyev:  Direct Drillr 1 
 DD2 .      Fakhraddin Guliyev:  Direct Drillr 2 
 DDSV.                   Other:  DD Service 
 DEFF.%                  99.00:  % Det Eff 
 DLRX.°/30m               0.00:  Dogleg Rot Max 
 DLSO.°/30m               0.00:  Dogleg Oriented 
 DLSX.°/30m               0.00:  Dogleg Str Max 
 DRET.      23.00.40 28-Mar-21:  Drill End Time 
 DRST.      23.30.40 25-Mar-21:  Drill Start Tim 
 DTIM.hr                  0.00:  Time Drilling 
 EDEP.m                3886.01:  End Depth 
 ENG1.         Almaz Almadatov:  Engineer 1 
 ENG2.      Artemiy Matviyanov:  Engineer 2 
 ENG3.           Samir Gafarov:  Engineer 3 
 ETIM.      23.00.40 28-Mar-21:  End Time 
 FLOI.gpm               550.00:  Flow In 
 FLON.gpm               500.00:  Flow In Min 
 FLOS.cptm                0.00:  Fluid Loss 
 FLOX.gpm               590.00:  Flow In Max 
 HFLO.                      No:  High Flow 
 HPRE.                      No:  High Pressure 
 HTEM.                      No:  High Temp 
 HYDO.m                   1.80:  Hydro Offset 
 IFIN.deg                 0.00:  Inc, Final 
 IMAX.deg                 0.00:  Inc Max 
 IMIN.deg                 0.00:  Inc Min 
 IMND.m                   0.00:  Inc Min Depth 
 IMXD.m                   0.00:  Inc Max Depth 
 JARR.                      No:  Jarring 
 LETM.      03.22.40 28-Mar-21:  Log End Time 
 LOST.hr                     0:  Lost Rig Time 
 LSTM.      23.30.40 25-Mar-21:  Log Start Time 
 MDCL.ppm             34000.00:  Mud Chlorides 
 MDES.     Inversion Oil/Synthetic:  Mud Desc 
 DFD .sg                  1.51:  Mud Density 
 MDMN.sg                  1.51:  Dens Mud Min 
 MDMX.sg                  1.51:  Dens Mud Max 
 MOIL.                      70:  Run Mud Oil % 
 MOWR.                   70:30:  Run Mud OWR 
 MSND.                     0.2:  Run Mud Sand % 
 MSOL.                   21.60:  Run Mud Solids% 
 DFV .spqt               74.00:  Mud Viscosity 
 MWOD.in                  6.75:  MWD Tool OD 
 MWSI.                      No:  Serv Intrp, MWD 
 OTIM.hr                 69.09:  Time Operating 
 PCON.           Look Like New:  Pad Condition 
 PMAX.psia             3500.00:  Press Op, Max 
 PV  .cP                 70.00:  Mud PV 
 RUN .                     400:  Run Number 
 ROPA.m/hr                0.00:  ROP Avg 
 ROPN.m/hr                0.00:  ROP Min 
 ROPX.m/hr                0.00:  ROP Max 
 RPMA.rpm                80.00:  RPM Surface Avg 
 RPMN.rpm                10.00:  RPM Surface Min 
 RPMX.rpm               100.00:  RPM Surface Max 
 RRUN.                    0400:  Rig Run Number 
 RTIM.hr                  3.00:  Time Reaming 
 SAZI.deg                 0.00:  Azm, Start 
 SDEP.m                3886.01:  Start Depth 
 SIDD.                      No:  Serv Intrp, DD 
 SINC.deg                 0.00:  Inc, Start 
 SPPA.psig             3270.00:  SPP Avg 
 SPPN.psig             3220.00:  SPP Min 
 SPPX.psig             4430.00:  SPP Max 
 STIM.      23.30.40 25-Mar-21:  Start Time 
 SVCS.                 DD, MWD:  Services 
 SVER.                    9.20:  Sperry Version 
 TDAT.m                   0.00:  Tot Depth Attmp 
 TDDF.                      No:  Trip for DD 
 TFF .                      No:  Trip for Fail 
 TQAA.f-kp                8.00:  Torque Abs Avg 
 TQAN.f-kp                7.00:  Torque Abs Min 
 TQAX.f-kp               11.00:  Torque Abs Max 
 TRRT.°/30m               0.00:  Turn Rotating 
 MRT .                  EWR-M5:  Maximum Recorded Temperature 
 TTMX.degC               76.47:  Max Tool Temp 
 VS01.                90640857:  Virtual Str1 SN 
 VS02.                90639246:  Virtual Str2 SN 
 VS03.                90642265:  Virtual Str3 SN 
 VS04.                11654497:  Virtual Str4 SN 
 WBMN.klb                 0.00:  WOB Min 
 WITN.      Kamran Keberlinkiy:  Customer Rep 
 WITN.           Murad Guliyev:  Customer Rep 2 
 WOBA.klb                 0.00:  WOB Avg 
 WOBX.klb                 0.00:  WOB Max 
 YP  .lhf2               36.00:  Yield Point 
~Curve Information Block
#MNEM.UNIT                 API CODE     Curve Description
#---------               -----------    ---------------------------
 TIME.HHMMSS            00 000 000 000:  GT Time & Date
 GTDEPTH.m              00 000 000 000:  GT Depth
 GTPQH.psia             00 000 000 000:  GT HR Quartz Pressure
 GTTQ.degC              00 000 000 000:  GT Quartz Temperature
 GTTN.NONE              00 000 000 000:  GT Test Number
 GTET.sec               00 000 000 000:  GT Elapsed Test Time
 GTTVD.m                00 000 000 000:  GT True Vertical Depth
#Other Information
#
#WARRANTY: Halliburton will use its best efforts to furnish customers with 
#accurate information and interpretations that are part of, and incident to, the services 
#provided.  However, Halliburton cannot and does not warrant the accuracy 
#or correctness of such information and interpretations.  Under no circumstances should any 
#such information or interpretation be relied upon as the sole basis for any drilling, 
#completion, production, or financial decision or any procedure involving any risk to the 
#safety of any drilling venture, drilling rig or its crew or any other third party.  The 
#Customer has full responsibility for all drilling, completion and production operation.  
#Halliburton makes no representations or warranties, either expressed or 
#implied, including, but not limited to, the implied warranties of merchantability or fitness 
#for a particular purpose, with respect to the services rendered.  In no event will 
#Halliburton be liable for failure to obtain any particular results or for 
#any damages, including, but not limited to, indirect, special or consequential damages, 
#resulting from the use of any information or interpretation provided by Halliburton.
#
~A           TIME           GTDEPTH  GTPQH  GTTQ  GTTN  GTET   GTTVD  
# ...
   03:28:16.130.27-Mar-2021 3725.51 8013.04 61.51 3.00  23.00 3451.28
   03:28:16.330.27-Mar-2021 3725.51 8013.04 61.51 3.00  23.20 3451.28
   03:28:16.530.27-Mar-2021 3725.51 8013.35 61.51 3.00  23.40 3451.28
   03:28:16.730.27-Mar-2021 3725.51 8013.84 61.51 3.00  23.60 3451.28
   03:28:16.930.27-Mar-2021 3725.51 8017.99 61.51 3.00  23.80 3451.28
   03:28:17.130.27-Mar-2021 3725.51 8014.14 61.51 3.00  24.00 3451.28
   03:28:17.330.27-Mar-2021 3725.51 8014.14 61.51 3.00  24.20 3451.28
   03:28:17.530.27-Mar-2021 3725.51 8014.24 61.51 3.00  24.40 3451.28
   03:28:17.730.27-Mar-2021 3725.51 8016.17 61.51 3.00  24.60 3451.28
   03:28:17.930.27-Mar-2021 3725.51 8015.58 61.51 3.00  24.80 3451.28
   03:28:18.130.27-Mar-2021 3725.51 8015.86 61.51 3.00  25.00 3451.28
   03:28:18.330.27-Mar-2021 3725.51 8015.86 61.51 3.00  25.20 3451.28
   03:28:18.530.27-Mar-2021 3725.51 8014.49 61.51 3.00  25.40 3451.28
   03:28:18.730.27-Mar-2021 3725.51 8013.54 61.51 3.00  25.60 3451.28
   03:28:18.930.27-Mar-2021 3725.51 8015.50 61.51 3.00  25.80 3451.28
   03:28:19.130.27-Mar-2021 3725.51 8015.57 61.51 3.00  26.00 3451.28
   03:28:19.330.27-Mar-2021 3725.51 8015.57 61.51 3.00  26.20 3451.28
   03:28:19.530.27-Mar-2021 3725.51 8015.44 61.51 3.00  26.40 3451.28
   03:28:19.730.27-Mar-2021 3725.51 8017.84 61.51 3.00  26.60 3451.28
   03:28:19.930.27-Mar-2021 3725.51 8016.00 61.51 3.00  26.80 3451.28
   03:28:20.130.27-Mar-2021 3725.51 8017.18 61.51 3.00  27.00 3451.28
   03:28:20.330.27-Mar-2021 3725.51 8017.18 61.51 3.00  27.20 3451.28
   03:28:20.530.27-Mar-2021 3725.51 8016.51 61.51 3.00  27.40 3451.28
   03:28:20.730.27-Mar-2021 3725.51 8015.54 61.51 3.00  27.60 3451.28
   03:28:20.930.27-Mar-2021 3725.51 8015.97 61.51 3.00  27.80 3451.28
   03:28:21.130.27-Mar-2021 3725.51 8015.06 61.51 3.00  28.00 3451.28
   03:28:21.330.27-Mar-2021 3725.51 8015.06 61.51 3.00  28.20 3451.28
   03:28:21.530.27-Mar-2021 3725.51 8015.92 61.51 3.00  28.40 3451.28
   03:28:21.731.27-Mar-2021 3725.51 8015.84 61.51 3.00  28.60 3451.28
   03:28:21.931.27-Mar-2021 3725.51 8015.53 61.51 3.00  28.80 3451.28
   03:28:22.131.27-Mar-2021 3725.51 8015.94 61.51 3.00  29.00 3451.28
   03:28:22.331.27-Mar-2021 3725.51 8015.94 61.51 3.00  29.20 3451.28
   03:28:22.531.27-Mar-2021 3725.51 8016.50 61.51 3.00  29.40 3451.28
   03:28:22.731.27-Mar-2021 3725.51 8016.48 61.51 3.00  29.60 3451.28
   03:28:22.931.27-Mar-2021 3725.51 8016.20 61.51 3.00  29.80 3451.28
   03:28:23.131.27-Mar-2021 3725.51 8020.71 61.51 3.00  30.00 3451.28
   03:28:23.331.27-Mar-2021 3725.51 8020.71 61.51 3.00  30.20 3451.28
   03:28:23.531.27-Mar-2021 3725.51 8017.82 61.51 3.00  30.40 3451.28
   03:28:23.731.27-Mar-2021 3725.51 8017.21 61.51 3.00  30.60 3451.28
   03:28:23.931.27-Mar-2021 3725.51 8017.00 61.51 3.00  30.80 3451.28
   03:28:24.131.27-Mar-2021 3725.51 8015.98 61.51 3.00  31.00 3451.28
   03:28:24.331.27-Mar-2021 3725.51 8015.98 61.51 3.00  31.20 3451.28
   03:28:24.531.27-Mar-2021 3725.51 8016.63 61.51 3.00  31.40 3451.28
   03:28:24.731.27-Mar-2021 3725.51 8015.64 61.51 3.00  31.60 3451.28
   03:28:24.931.27-Mar-2021 3725.51 8016.06 61.51 3.00  31.80 3451.28
   03:28:25.131.27-Mar-2021 3725.51 8015.71 61.51 3.00  32.00 3451.28
   03:28:25.331.27-Mar-2021 3725.51 8015.71 61.51 3.00  32.20 3451.28
   03:28:25.531.27-Mar-2021 3725.51 8016.64 61.51 3.00  32.40 3451.28
   03:28:25.731.27-Mar-2021 3725.51 8016.75 61.51 3.00  32.60 3451.28
   03:28:25.931.27-Mar-2021 3725.51 8020.33 61.51 3.00  32.80 3451.28
   03:28:26.131.27-Mar-2021 3725.51 8017.27 61.51 3.00  33.00 3451.28
   03:28:26.331.27-Mar-2021 3725.51 8017.27 61.51 3.00  33.20 3451.28
   03:28:26.531.27-Mar-2021 3725.51 8017.07 61.51 3.00  33.40 3451.28
   03:28:26.731.27-Mar-2021 3725.51 8019.38 61.51 3.00  33.60 3451.28
   03:28:26.931.27-Mar-2021 3725.51 8018.26 61.51 3.00  33.80 3451.28
   03:28:27.131.27-Mar-2021 3725.51 8024.87 61.51 3.00  34.00 3451.28
   03:28:27.331.27-Mar-2021 3725.51 8024.87 61.51 3.00  34.20 3451.28
   03:28:27.531.27-Mar-2021 3725.51 8026.63 61.51 3.00  34.40 3451.28
   03:28:27.731.27-Mar-2021 3725.51 8019.89 61.51 3.00  34.60 3451.28
   03:28:27.931.27-Mar-2021 3725.51 8034.70 61.51 3.00  34.80 3451.28
   03:28:28.131.27-Mar-2021 3725.51 8049.32 61.51 3.00  35.00 3451.28
   03:28:28.331.27-Mar-2021 3725.51 8049.32 61.51 3.00  35.20 3451.28
   03:28:28.531.27-Mar-2021 3725.51 8083.98 61.51 3.00  35.40 3451.28
   03:28:28.731.27-Mar-2021 3725.51 8098.94 61.51 3.00  35.60 3451.28
   03:28:28.931.27-Mar-2021 3725.51 8096.55 61.51 3.00  35.80 3451.28
   03:28:29.131.27-Mar-2021 3725.51 8092.84 61.51 3.00  36.00 3451.28
   03:28:29.331.27-Mar-2021 3725.51 8092.84 61.51 3.00  36.20 3451.28
   03:28:29.531.27-Mar-2021 3725.51 8070.88 61.51 3.00  36.40 3451.28
   03:28:29.732.27-Mar-2021 3725.51 8061.25 61.51 3.00  36.60 3451.28
   03:28:29.932.27-Mar-2021 3725.51 8052.03 61.51 3.00  36.80 3451.28
   03:28:30.132.27-Mar-2021 3725.51 8046.24 61.51 3.00  37.00 3451.28
   03:28:30.332.27-Mar-2021 3725.51 8046.24 61.51 3.00  37.20 3451.28
   03:28:30.532.27-Mar-2021 3725.51 8030.56 61.51 3.00  37.40 3451.28
   03:28:30.732.27-Mar-2021 3725.51 8022.28 61.50 3.00  37.60 3451.28
   03:28:30.932.27-Mar-2021 3725.51 8015.46 61.50 3.00  37.80 3451.28
   03:28:31.132.27-Mar-2021 3725.51 8008.06 61.50 3.00  38.00 3451.28
   03:28:31.332.27-Mar-2021 3725.51 8008.06 61.50 3.00  38.20 3451.28
   03:28:31.532.27-Mar-2021 3725.51 7996.48 61.50 3.00  38.40 3451.28
   03:28:31.732.27-Mar-2021 3725.51 7989.19 61.50 3.00  38.60 3451.28
   03:28:31.932.27-Mar-2021 3725.51 7984.93 61.50 3.00  38.80 3451.28
   03:28:32.132.27-Mar-2021 3725.51 7978.91 61.50 3.00  39.00 3451.28
   03:28:32.332.27-Mar-2021 3725.51 7978.91 61.50 3.00  39.20 3451.28
   03:28:32.532.27-Mar-2021 3725.51 7979.80 61.50 3.00  39.40 3451.28
   03:28:32.732.27-Mar-2021 3725.51 7975.67 61.50 3.00  39.60 3451.28
   03:28:32.932.27-Mar-2021 3725.51 7962.18 61.50 3.00  39.80 3451.28
   03:28:33.132.27-Mar-2021 3725.51 7981.19 61.50 3.00  40.01 3451.28
   03:28:33.332.27-Mar-2021 3725.51 7981.19 61.50 3.00  40.21 3451.28
   03:28:33.532.27-Mar-2021 3725.51 7997.26 61.50 3.00  40.41 3451.28
   03:28:33.732.27-Mar-2021 3725.51 7994.87 61.50 3.00  40.61 3451.28
   03:28:33.932.27-Mar-2021 3725.51 7993.31 61.50 3.00  40.81 3451.28
   03:28:34.132.27-Mar-2021 3725.51 7987.17 61.50 3.00  41.01 3451.28
   03:28:34.332.27-Mar-2021 3725.51 7987.17 61.50 3.00  41.21 3451.28
   03:28:34.532.27-Mar-2021 3725.51 7981.49 61.50 3.00  41.41 3451.28
   03:28:34.732.27-Mar-2021 3725.51 7985.52 61.50 3.00  41.61 3451.28
   03:28:34.932.27-Mar-2021 3725.51 7978.59 61.50 3.00  41.81 3451.28
   03:28:35.132.27-Mar-2021 3725.51 7965.77 61.50 3.00  42.01 3451.28
   03:28:35.332.27-Mar-2021 3725.51 7965.77 61.50 3.00  42.21 3451.28
   03:28:35.532.27-Mar-2021 3725.51 7943.93 61.50 3.00  42.41 3451.28
   03:28:35.732.27-Mar-2021 3725.51 7928.80 61.50 3.00  42.61 3451.28
   03:28:35.932.27-Mar-2021 3725.51 7919.38 61.50 3.00  42.81 3451.28
   03:28:36.132.27-Mar-2021 3725.51 7882.21 61.50 3.00  43.01 3451.28
   03:28:36.332.27-Mar-2021 3725.51 7882.21 61.50 3.00  43.21 3451.28
   03:28:36.532.27-Mar-2021 3725.51 7824.73 61.50 3.00  43.41 3451.28
   03:28:36.732.27-Mar-2021 3725.51 7795.86 61.50 3.00  43.61 3451.28
   03:28:36.932.27-Mar-2021 3725.51 7772.39 61.50 3.00  43.81 3451.28
   03:28:37.132.27-Mar-2021 3725.51 7725.10 61.50 3.00  44.01 3451.28
   03:28:37.332.27-Mar-2021 3725.51 7725.10 61.50 3.00  44.21 3451.28
   03:28:37.532.27-Mar-2021 3725.51 7679.87 61.50 3.00  44.41 3451.28
   03:28:37.733.27-Mar-2021 3725.51 7658.44 61.50 3.00  44.61 3451.28
   03:28:37.933.27-Mar-2021 3725.51 7643.41 61.50 3.00  44.81 3451.28
   03:28:38.133.27-Mar-2021 3725.51 7682.47 61.50 3.00  45.01 3451.28
   03:28:38.333.27-Mar-2021 3725.51 7682.47 61.50 3.00  45.21 3451.28
   03:28:38.533.27-Mar-2021 3725.51 7864.27 61.50 3.00  45.41 3451.28
   03:28:38.733.27-Mar-2021 3725.51 7852.34 61.50 3.00  45.61 3451.28
   03:28:38.933.27-Mar-2021 3725.51 7824.28 61.50 3.00  45.81 3451.28
