~Version Information
 VERS.                  2.0:   CWLS log ASCII Standard -VERSION 2.0
 WRAP.                   NO:   One line per depth step
~Well Information Block
#MNEM.UNIT     VALUE/NAME     DESCRIPTION
#---------     -----------    ---------------------------
 STRT.S             12:17:14 27-Mar-21: START TIME 12:17:14 27-Mar-21
 STOP.S             12:24:16 27-Mar-21: STOP TIME  12:24:16 27-Mar-21
 STEP.S                   0.00: STEP TIME
 NULL.                 -999.25: NULL VALUE
 DFWT.                        :  DIST FWL TEXT
 DFST.                        :  DIST FSL TEXT
 DMF .             Drill Floor:  DRILL MEAS FROM
 STIM.      20.26.40 11-Mar-21:  START TIME
 DATE.      20.26.40 30-Mar-21:  END TIME
 SPUD.               11-Mar-21:  SPUD DATE
 NREF.                    Grid:  NORTH REFERENCE
 HPTY.       Minimum Curvature:  HOLE POS TYPE
 DMOD.             Drill Model:  DRILL MOD DESC
 SVYD.                  Survey:  SURVEY DESC
 ILTD.               Lithology:  INTERP LTH DESC
 FTOP.          Formation Tops:  FORM TOPS DESC
 SON .        AZ-XX-0906805385:  JOB NUMBER
 WTYP.                Deviated:  WELL TYPE
 COMP.     BP Exploration (Caspian Sea) Ltd.:  COMPANY
 UWI .            /AZE00000198:  UNIQUE WELL IDENTIFIER
 API .            /AZE00000198:  API NUMBER
 BASE.              Azerbaijan:  LOGGING EQUIPMENT BASE LOCATION
 REGN.                   EESSA:  REGION
 PROV.                    Baku:  PROVINCE
 STAT.                    Baku:  STATE NAME
 CTRY.              Azerbaijan:  COUNTRY NAME
 FLD .                     ACG:  FIELD NAME
 SRVC.     Turan Drilling & Engineering:  CONTRACTOR
 MWDS.                    Baku:  MWD SHOP
 WELL.                    D09z:  WELL NAME
 JOBN.        AZ-XX-0906805385:  JOB TICKET NUMB
 RIG .              East Azeri:  RIG NAME
 DOE .                     N/A:  DOE NUMBER
 DCON.         Sperry Drilling:  DIRECTNL CONTR
 UNIT.                     N/A:  LOGGING EQUIPMENT ID
 PDAT.          Mean Sea Level:  PERMANENT DATUM
 MDS .        Operator Entered:  MAG DATA SOURCE
 CNTY.                        :  COUNTY
 LOC .                        :  LOCATION
 LMF .             Drill Floor:  LOG MEASURED FROM
 TVDS.m                  43.60:  TVDSS CORRECTN
 LATI.deg                40.02:  LATITUDE
 LONG.deg                51.45:  LONGITUDE
 WHNS.m                 -17.04:  WELL HEAD N/S
 WHEW.m                  -6.28:  WELL HEAD E/W
 UTMX.m              538763.98:  UTM X
 UTMY.m             4431880.20:  UTM Y
 DFWL.m                   0.00:  DISTANCE FWL
 DFSL.m                   0.00:  DISTANCE FSL
 SDEP.m                2680.01:  START DEPTH
 TDD .m                4000.01:  TOTAL DEPTH (DRILLER)
 VSDR.deg               225.71:  VERT SEC DIRECT
 GVFD.g                   1.00:  GRAVITY FIELD
 MFLD.nT              50353.00:  MAGNETIC FIELD
 MDIP.deg                59.49:  MAGNETIC DIP
 MDEC.deg                 6.46:  MAGNETIC DECL
 GRDC.deg                 0.29:  GRID CORRECTION
 AZTC.deg                 6.17:  AZM TOTAL CORR
 EPD .m                   0.00:  ELEVATION
 EGL .m                   0.00:  GROUND ELEVATION
 WDMS.m                 151.80:  WD ELEV
 APD .m                  43.60:  DEPTH ABOVE PD
 AGAP.m                  43.60:  AIR GAP
 VSEW.m                  -6.28:  VERT SEC E/W
 VSNS.m                 -17.04:  VERT SEC N/S
 DEP .m                2656.31:  DEPTH
 EKB .m                  43.60:  KB ELEVATION
 EDF .m                  43.60:  DF ELEVATION
 VSC .                       0:  VS TO CLOSURE
 MAGU.                 1851247:  MAGUTM CHECKSUM
~Parameter Information Block
#MNEM.UNIT       Value        Description
#---------     -----------    ---------------------------
 AV  .mps                 3.00:  Ann Velocity 
 AVMX.mps                 8.00:  Max Ann Veloc 
 AZIF.deg                 0.00:  Azm, Final 
 BHAT.                   Other:  BHA Type 
 BREV.rev                 0.00:  Rev Bit Total 
 BROT.°/30m               0.00:  Build Rotating 
 BS  .in                 10.25:  Bit Size 
 BTPL.psig              511.00:  Bit Press Loss 
 CABU.                      No:  Customer Abuse 
 CGEO.           Asif Pashayev:  Customer Geo 
 COMM.                     4'd:  Run Comments 1 
 TCS .hr                 24.03:  Time Ciculation Ended 
 CV  .mps                 3.50:  Crit Velocity 
 CVMX.mps                 4.00:  Max Crit Veloc 
 DD1 .             Aziz Aliyev:  Direct Drillr 1 
 DD2 .      Fakhraddin Guliyev:  Direct Drillr 2 
 DDSV.                   Other:  DD Service 
 DEFF.%                  99.00:  % Det Eff 
 DLRX.°/30m               0.00:  Dogleg Rot Max 
 DLSO.°/30m               0.00:  Dogleg Oriented 
 DLSX.°/30m               0.00:  Dogleg Str Max 
 DRET.      23.00.40 28-Mar-21:  Drill End Time 
 DRST.      23.30.40 25-Mar-21:  Drill Start Tim 
 DTIM.hr                  0.00:  Time Drilling 
 EDEP.m                3886.01:  End Depth 
 ENG1.         Almaz Almadatov:  Engineer 1 
 ENG2.      Artemiy Matviyanov:  Engineer 2 
 ENG3.           Samir Gafarov:  Engineer 3 
 ETIM.      23.00.40 28-Mar-21:  End Time 
 FLOI.gpm               550.00:  Flow In 
 FLON.gpm               500.00:  Flow In Min 
 FLOS.cptm                0.00:  Fluid Loss 
 FLOX.gpm               590.00:  Flow In Max 
 HFLO.                      No:  High Flow 
 HPRE.                      No:  High Pressure 
 HTEM.                      No:  High Temp 
 HYDO.m                   1.80:  Hydro Offset 
 IFIN.deg                 0.00:  Inc, Final 
 IMAX.deg                 0.00:  Inc Max 
 IMIN.deg                 0.00:  Inc Min 
 IMND.m                   0.00:  Inc Min Depth 
 IMXD.m                   0.00:  Inc Max Depth 
 JARR.                      No:  Jarring 
 LETM.      03.22.40 28-Mar-21:  Log End Time 
 LOST.hr                     0:  Lost Rig Time 
 LSTM.      23.30.40 25-Mar-21:  Log Start Time 
 MDCL.ppm             34000.00:  Mud Chlorides 
 MDES.     Inversion Oil/Synthetic:  Mud Desc 
 DFD .sg                  1.51:  Mud Density 
 MDMN.sg                  1.51:  Dens Mud Min 
 MDMX.sg                  1.51:  Dens Mud Max 
 MOIL.                      70:  Run Mud Oil % 
 MOWR.                   70:30:  Run Mud OWR 
 MSND.                     0.2:  Run Mud Sand % 
 MSOL.                   21.60:  Run Mud Solids% 
 DFV .spqt               74.00:  Mud Viscosity 
 MWOD.in                  6.75:  MWD Tool OD 
 MWSI.                      No:  Serv Intrp, MWD 
 OTIM.hr                 69.09:  Time Operating 
 PCON.           Look Like New:  Pad Condition 
 PMAX.psia             3500.00:  Press Op, Max 
 PV  .cP                 70.00:  Mud PV 
 RUN .                     400:  Run Number 
 ROPA.m/hr                0.00:  ROP Avg 
 ROPN.m/hr                0.00:  ROP Min 
 ROPX.m/hr                0.00:  ROP Max 
 RPMA.rpm                80.00:  RPM Surface Avg 
 RPMN.rpm                10.00:  RPM Surface Min 
 RPMX.rpm               100.00:  RPM Surface Max 
 RRUN.                    0400:  Rig Run Number 
 RTIM.hr                  3.00:  Time Reaming 
 SAZI.deg                 0.00:  Azm, Start 
 SDEP.m                3886.01:  Start Depth 
 SIDD.                      No:  Serv Intrp, DD 
 SINC.deg                 0.00:  Inc, Start 
 SPPA.psig             3270.00:  SPP Avg 
 SPPN.psig             3220.00:  SPP Min 
 SPPX.psig             4430.00:  SPP Max 
 STIM.      23.30.40 25-Mar-21:  Start Time 
 SVCS.                 DD, MWD:  Services 
 SVER.                    9.20:  Sperry Version 
 TDAT.m                   0.00:  Tot Depth Attmp 
 TDDF.                      No:  Trip for DD 
 TFF .                      No:  Trip for Fail 
 TQAA.f-kp                8.00:  Torque Abs Avg 
 TQAN.f-kp                7.00:  Torque Abs Min 
 TQAX.f-kp               11.00:  Torque Abs Max 
 TRRT.°/30m               0.00:  Turn Rotating 
 MRT .                  EWR-M5:  Maximum Recorded Temperature 
 TTMX.degC               76.47:  Max Tool Temp 
 VS01.                90640857:  Virtual Str1 SN 
 VS02.                90639246:  Virtual Str2 SN 
 VS03.                90642265:  Virtual Str3 SN 
 VS04.                11654497:  Virtual Str4 SN 
 WBMN.klb                 0.00:  WOB Min 
 WITN.      Kamran Keberlinkiy:  Customer Rep 
 WITN.           Murad Guliyev:  Customer Rep 2 
 WOBA.klb                 0.00:  WOB Avg 
 WOBX.klb                 0.00:  WOB Max 
 YP  .lhf2               36.00:  Yield Point 
~Curve Information Block
#MNEM.UNIT                 API CODE     Curve Description
#---------               -----------    ---------------------------
 TIME.HHMMSS            00 000 000 000:  GT Time & Date
 GTDEPTH.m              00 000 000 000:  GT Depth
 GTPQH.psia             00 000 000 000:  GT HR Quartz Pressure
 GTTQ.degC              00 000 000 000:  GT Quartz Temperature
 GTTN.NONE              00 000 000 000:  GT Test Number
 GTET.sec               00 000 000 000:  GT Elapsed Test Time
 GTTVD.m                00 000 000 000:  GT True Vertical Depth
#Other Information
#
#WARRANTY: Halliburton will use its best efforts to furnish customers with 
#accurate information and interpretations that are part of, and incident to, the services 
#provided.  However, Halliburton cannot and does not warrant the accuracy 
#or correctness of such information and interpretations.  Under no circumstances should any 
#such information or interpretation be relied upon as the sole basis for any drilling, 
#completion, production, or financial decision or any procedure involving any risk to the 
#safety of any drilling venture, drilling rig or its crew or any other third party.  The 
#Customer has full responsibility for all drilling, completion and production operation.  
#Halliburton makes no representations or warranties, either expressed or 
#implied, including, but not limited to, the implied warranties of merchantability or fitness 
#for a particular purpose, with respect to the services rendered.  In no event will 
#Halliburton be liable for failure to obtain any particular results or for 
#any damages, including, but not limited to, indirect, special or consequential damages, 
#resulting from the use of any information or interpretation provided by Halliburton.
#
~A           TIME           GTDEPTH  GTPQH  GTTQ  GTTN   GTET   GTTVD  
# ...
   12:24:01.810.27-Mar-2021 3369.01 7276.20 61.77 12.00 407.09 3116.52
   12:24:02.010.27-Mar-2021 3369.01 7275.50 61.77 12.00 407.29 3116.52
   12:24:02.211.27-Mar-2021 3369.01 7275.50 61.77 12.00 407.49 3116.52
   12:24:02.411.27-Mar-2021 3369.01 7275.86 61.77 12.00 407.69 3116.52
   12:24:02.611.27-Mar-2021 3369.01 7275.84 61.77 12.00 407.89 3116.52
   12:24:02.811.27-Mar-2021 3369.01 7275.98 61.77 12.00 408.09 3116.52
   12:24:03.011.27-Mar-2021 3369.01 7279.05 61.77 12.00 408.29 3116.52
   12:24:03.211.27-Mar-2021 3369.01 7279.05 61.77 12.00 408.49 3116.52
   12:24:03.411.27-Mar-2021 3369.01 7276.64 61.77 12.00 408.69 3116.52
   12:24:03.612.27-Mar-2021 3369.01 7276.13 61.77 12.00 408.89 3116.52
   12:24:03.812.27-Mar-2021 3369.01 7276.37 61.77 12.00 409.09 3116.52
   12:24:04.012.27-Mar-2021 3369.01 7276.71 61.76 12.00 409.29 3116.52
   12:24:04.212.27-Mar-2021 3369.01 7276.71 61.76 12.00 409.49 3116.52
   12:24:04.412.27-Mar-2021 3369.01 7279.92 61.76 12.00 409.69 3116.52
   12:24:04.612.27-Mar-2021 3369.01 7275.21 61.76 12.00 409.89 3116.52
   12:24:04.812.27-Mar-2021 3369.01 7276.19 61.76 12.00 410.09 3116.52
   12:24:05.013.27-Mar-2021 3369.01 7276.43 61.76 12.00 410.29 3116.52
   12:24:05.213.27-Mar-2021 3369.01 7276.43 61.76 12.00 410.49 3116.52
   12:24:05.413.27-Mar-2021 3369.01 7276.11 61.76 12.00 410.69 3116.52
   12:24:05.613.27-Mar-2021 3369.01 7275.98 61.76 12.00 410.89 3116.52
   12:24:05.813.27-Mar-2021 3369.01 7275.38 61.76 12.00 411.09 3116.52
   12:24:06.013.27-Mar-2021 3369.01 7276.29 61.76 12.00 411.29 3116.52
   12:24:06.213.27-Mar-2021 3369.01 7276.29 61.76 12.00 411.49 3116.52
   12:24:06.414.27-Mar-2021 3369.01 7276.11 61.76 12.00 411.69 3116.52
   12:24:06.614.27-Mar-2021 3369.01 7276.27 61.76 12.00 411.89 3116.52
   12:24:06.814.27-Mar-2021 3369.01 7276.41 61.76 12.00 412.09 3116.52
   12:24:07.014.27-Mar-2021 3369.01 7275.97 61.76 12.00 412.29 3116.52
   12:24:07.214.27-Mar-2021 3369.01 7275.97 61.76 12.00 412.49 3116.52
   12:24:07.414.27-Mar-2021 3369.01 7275.80 61.76 12.00 412.69 3116.52
   12:24:07.614.27-Mar-2021 3369.01 7275.72 61.76 12.00 412.89 3116.52
   12:24:07.815.27-Mar-2021 3369.01 7279.17 61.76 12.00 413.09 3116.52
   12:24:08.015.27-Mar-2021 3369.01 7275.82 61.76 12.00 413.29 3116.52
   12:24:08.215.27-Mar-2021 3369.01 7275.82 61.76 12.00 413.49 3116.52
   12:24:08.415.27-Mar-2021 3369.01 7275.76 61.76 12.00 413.69 3116.52
   12:24:08.615.27-Mar-2021 3369.01 7275.57 61.76 12.00 413.89 3116.52
   12:24:08.815.27-Mar-2021 3369.01 7275.87 61.76 12.00 414.09 3116.52
   12:24:09.015.27-Mar-2021 3369.01 7275.42 61.76 12.00 414.29 3116.52
   12:24:09.216.27-Mar-2021 3369.01 7275.42 61.76 12.00 414.49 3116.52
   12:24:09.416.27-Mar-2021 3369.01 7275.86 61.76 12.00 414.69 3116.52
   12:24:09.616.27-Mar-2021 3369.01 7275.59 61.76 12.00 414.89 3116.52
   12:24:09.816.27-Mar-2021 3369.01 7275.63 61.76 12.00 415.09 3116.52
   12:24:10.016.27-Mar-2021 3369.01 7275.49 61.76 12.00 415.29 3116.52
   12:24:10.216.27-Mar-2021 3369.01 7275.49 61.76 12.00 415.49 3116.52
   12:24:10.416.27-Mar-2021 3369.01 7280.21 61.76 12.00 415.69 3116.52
   12:24:10.617.27-Mar-2021 3369.01 7274.83 61.76 12.00 415.89 3116.52
   12:24:10.817.27-Mar-2021 3369.01 7276.07 61.76 12.00 416.09 3116.52
   12:24:11.017.27-Mar-2021 3369.01 7275.93 61.76 12.00 416.29 3116.52
   12:24:11.217.27-Mar-2021 3369.01 7275.93 61.76 12.00 416.49 3116.52
   12:24:11.417.27-Mar-2021 3369.01 7275.73 61.76 12.00 416.69 3116.52
   12:24:11.617.27-Mar-2021 3369.01 7278.88 61.76 12.00 416.89 3116.52
   12:24:11.817.27-Mar-2021 3369.01 7275.00 61.76 12.00 417.09 3116.52
   12:24:12.018.27-Mar-2021 3369.01 7277.08 61.76 12.00 417.30 3116.52
   12:24:12.218.27-Mar-2021 3369.01 7277.08 61.76 12.00 417.50 3116.52
   12:24:12.418.27-Mar-2021 3369.01 7276.17 61.76 12.00 417.70 3116.52
   12:24:12.618.27-Mar-2021 3369.01 7276.50 61.76 12.00 417.90 3116.52
   12:24:12.818.27-Mar-2021 3369.01 7280.24 61.75 12.00 418.10 3116.52
   12:24:13.018.27-Mar-2021 3369.01 7275.17 61.75 12.00 418.30 3116.52
   12:24:13.218.27-Mar-2021 3369.01 7275.17 61.75 12.00 418.50 3116.52
   12:24:13.419.27-Mar-2021 3369.01 7276.88 61.75 12.00 418.70 3116.52
   12:24:13.619.27-Mar-2021 3369.01 7276.79 61.75 12.00 418.90 3116.52
   12:24:13.819.27-Mar-2021 3369.01 7277.06 61.75 12.00 419.10 3116.52
   12:24:14.019.27-Mar-2021 3369.01 7276.91 61.75 12.00 419.30 3116.52
   12:24:14.219.27-Mar-2021 3369.01 7276.91 61.75 12.00 419.50 3116.52
   12:24:14.419.27-Mar-2021 3369.01 7280.25 61.75 12.00 419.70 3116.52
   12:24:14.619.27-Mar-2021 3369.01 7276.09 61.75 12.00 419.90 3116.52
   12:24:14.820.27-Mar-2021 3369.01 7276.72 61.75 12.00 420.10 3116.52
   12:24:15.020.27-Mar-2021 3369.01 7276.30 61.75 12.00 420.30 3116.52
   12:24:15.220.27-Mar-2021 3369.01 7276.30 61.75 12.00 420.50 3116.52
   12:24:15.420.27-Mar-2021 3369.01 7276.60 61.75 12.00 420.70 3116.52
   12:24:15.620.27-Mar-2021 3369.01 7275.75 61.75 12.00 420.90 3116.52
   12:24:15.820.27-Mar-2021 3369.01 7275.57 61.75 12.00 421.10 3116.52
   12:24:16.020.27-Mar-2021 3369.01 7276.43 61.75 12.00 421.30 3116.52
   12:24:16.221.27-Mar-2021 3369.01 7276.43 61.75 12.00 421.50 3116.52
   12:24:16.421.27-Mar-2021 3369.01 7276.34 61.75 12.00 421.70 3116.52
   12:24:16.621.27-Mar-2021 3369.01 7276.35 61.75 12.00 421.90 3116.52
   12:24:16.821.27-Mar-2021 3369.01 7276.23 61.75 12.00 422.10 3116.52
