~Version Information
 VERS.                  2.0:   CWLS log ASCII Standard -VERSION 2.0
 WRAP.                   NO:   One line per depth step
~Well Information Block
#MNEM.UNIT     VALUE/NAME     DESCRIPTION
#---------     -----------    ---------------------------
 STRT.S             03:27:53 27-Mar-21: START TIME 03:27:53 27-Mar-21
 STOP.S             03:35:02 27-Mar-21: STOP TIME  03:35:02 27-Mar-21
 STEP.S                   0.00: STEP TIME
 NULL.                 -999.25: NULL VALUE
 DFWT.                        :  DIST FWL TEXT
 DFST.                        :  DIST FSL TEXT
 DMF .             Drill Floor:  DRILL MEAS FROM
 STIM.      20.26.40 11-Mar-21:  START TIME
 DATE.      20.26.40 30-Mar-21:  END TIME
 SPUD.               11-Mar-21:  SPUD DATE
 NREF.                    Grid:  NORTH REFERENCE
 HPTY.       Minimum Curvature:  HOLE POS TYPE
 DMOD.             Drill Model:  DRILL MOD DESC
 SVYD.                  Survey:  SURVEY DESC
 ILTD.               Lithology:  INTERP LTH DESC
 FTOP.          Formation Tops:  FORM TOPS DESC
 SON .        AZ-XX-0906805385:  JOB NUMBER
 WTYP.                Deviated:  WELL TYPE
 COMP.     BP Exploration (Caspian Sea) Ltd.:  COMPANY
 UWI .            /AZE00000198:  UNIQUE WELL IDENTIFIER
 API .            /AZE00000198:  API NUMBER
 BASE.              Azerbaijan:  LOGGING EQUIPMENT BASE LOCATION
 REGN.                   EESSA:  REGION
 PROV.                    Baku:  PROVINCE
 STAT.                    Baku:  STATE NAME
 CTRY.              Azerbaijan:  COUNTRY NAME
 FLD .                     ACG:  FIELD NAME
 SRVC.     Turan Drilling & Engineering:  CONTRACTOR
 MWDS.                    Baku:  MWD SHOP
 WELL.                    D09z:  WELL NAME
 JOBN.        AZ-XX-0906805385:  JOB TICKET NUMB
 RIG .              East Azeri:  RIG NAME
 DOE .                     N/A:  DOE NUMBER
 DCON.         Sperry Drilling:  DIRECTNL CONTR
 UNIT.                     N/A:  LOGGING EQUIPMENT ID
 PDAT.          Mean Sea Level:  PERMANENT DATUM
 MDS .        Operator Entered:  MAG DATA SOURCE
 CNTY.                        :  COUNTY
 LOC .                        :  LOCATION
 LMF .             Drill Floor:  LOG MEASURED FROM
 TVDS.m                  43.60:  TVDSS CORRECTN
 LATI.deg                40.02:  LATITUDE
 LONG.deg                51.45:  LONGITUDE
 WHNS.m                 -17.04:  WELL HEAD N/S
 WHEW.m                  -6.28:  WELL HEAD E/W
 UTMX.m              538763.98:  UTM X
 UTMY.m             4431880.20:  UTM Y
 DFWL.m                   0.00:  DISTANCE FWL
 DFSL.m                   0.00:  DISTANCE FSL
 SDEP.m                2680.01:  START DEPTH
 TDD .m                4000.01:  TOTAL DEPTH (DRILLER)
 VSDR.deg               225.71:  VERT SEC DIRECT
 GVFD.g                   1.00:  GRAVITY FIELD
 MFLD.nT              50353.00:  MAGNETIC FIELD
 MDIP.deg                59.49:  MAGNETIC DIP
 MDEC.deg                 6.46:  MAGNETIC DECL
 GRDC.deg                 0.29:  GRID CORRECTION
 AZTC.deg                 6.17:  AZM TOTAL CORR
 EPD .m                   0.00:  ELEVATION
 EGL .m                   0.00:  GROUND ELEVATION
 WDMS.m                 151.80:  WD ELEV
 APD .m                  43.60:  DEPTH ABOVE PD
 AGAP.m                  43.60:  AIR GAP
 VSEW.m                  -6.28:  VERT SEC E/W
 VSNS.m                 -17.04:  VERT SEC N/S
 DEP .m                2656.31:  DEPTH
 EKB .m                  43.60:  KB ELEVATION
 EDF .m                  43.60:  DF ELEVATION
 VSC .                       0:  VS TO CLOSURE
 MAGU.                 1851247:  MAGUTM CHECKSUM
~Parameter Information Block
#MNEM.UNIT       Value        Description
#---------     -----------    ---------------------------
 AV  .mps                 3.00:  Ann Velocity 
 AVMX.mps                 8.00:  Max Ann Veloc 
 AZIF.deg                 0.00:  Azm, Final 
 BHAT.                   Other:  BHA Type 
 BREV.rev                 0.00:  Rev Bit Total 
 BROT.°/30m               0.00:  Build Rotating 
 BS  .in                 10.25:  Bit Size 
 BTPL.psig              511.00:  Bit Press Loss 
 CABU.                      No:  Customer Abuse 
 CGEO.           Asif Pashayev:  Customer Geo 
 COMM.                     ¼Fy:  Run Comments 1 
 TCS .hr                 24.03:  Time Ciculation Ended 
 CV  .mps                 3.50:  Crit Velocity 
 CVMX.mps                 4.00:  Max Crit Veloc 
 DD1 .             Aziz Aliyev:  Direct Drillr 1 
 DD2 .      Fakhraddin Guliyev:  Direct Drillr 2 
 DDSV.                   Other:  DD Service 
 DEFF.%                  99.00:  % Det Eff 
 DLRX.°/30m               0.00:  Dogleg Rot Max 
 DLSO.°/30m               0.00:  Dogleg Oriented 
 DLSX.°/30m               0.00:  Dogleg Str Max 
 DRET.      23.00.40 28-Mar-21:  Drill End Time 
 DRST.      23.30.40 25-Mar-21:  Drill Start Tim 
 DTIM.hr                  0.00:  Time Drilling 
 EDEP.m                3886.01:  End Depth 
 ENG1.         Almaz Almadatov:  Engineer 1 
 ENG2.      Artemiy Matviyanov:  Engineer 2 
 ENG3.           Samir Gafarov:  Engineer 3 
 ETIM.      23.00.40 28-Mar-21:  End Time 
 FLOI.gpm               550.00:  Flow In 
 FLON.gpm               500.00:  Flow In Min 
 FLOS.cptm                0.00:  Fluid Loss 
 FLOX.gpm               590.00:  Flow In Max 
 HFLO.                      No:  High Flow 
 HPRE.                      No:  High Pressure 
 HTEM.                      No:  High Temp 
 HYDO.m                   1.80:  Hydro Offset 
 IFIN.deg                 0.00:  Inc, Final 
 IMAX.deg                 0.00:  Inc Max 
 IMIN.deg                 0.00:  Inc Min 
 IMND.m                   0.00:  Inc Min Depth 
 IMXD.m                   0.00:  Inc Max Depth 
 JARR.                      No:  Jarring 
 LETM.      03.22.40 28-Mar-21:  Log End Time 
 LOST.hr                     0:  Lost Rig Time 
 LSTM.      23.30.40 25-Mar-21:  Log Start Time 
 MDCL.ppm             34000.00:  Mud Chlorides 
 MDES.     Inversion Oil/Synthetic:  Mud Desc 
 DFD .sg                  1.51:  Mud Density 
 MDMN.sg                  1.51:  Dens Mud Min 
 MDMX.sg                  1.51:  Dens Mud Max 
 MOIL.                      70:  Run Mud Oil % 
 MOWR.                   70:30:  Run Mud OWR 
 MSND.                     0.2:  Run Mud Sand % 
 MSOL.                   21.60:  Run Mud Solids% 
 DFV .spqt               74.00:  Mud Viscosity 
 MWOD.in                  6.75:  MWD Tool OD 
 MWSI.                      No:  Serv Intrp, MWD 
 OTIM.hr                 69.09:  Time Operating 
 PCON.           Look Like New:  Pad Condition 
 PMAX.psia             3500.00:  Press Op, Max 
 PV  .cP                 70.00:  Mud PV 
 RUN .                     400:  Run Number 
 ROPA.m/hr                0.00:  ROP Avg 
 ROPN.m/hr                0.00:  ROP Min 
 ROPX.m/hr                0.00:  ROP Max 
 RPMA.rpm                80.00:  RPM Surface Avg 
 RPMN.rpm                10.00:  RPM Surface Min 
 RPMX.rpm               100.00:  RPM Surface Max 
 RRUN.                    0400:  Rig Run Number 
 RTIM.hr                  3.00:  Time Reaming 
 SAZI.deg                 0.00:  Azm, Start 
 SDEP.m                3886.01:  Start Depth 
 SIDD.                      No:  Serv Intrp, DD 
 SINC.deg                 0.00:  Inc, Start 
 SPPA.psig             3270.00:  SPP Avg 
 SPPN.psig             3220.00:  SPP Min 
 SPPX.psig             4430.00:  SPP Max 
 STIM.      23.30.40 25-Mar-21:  Start Time 
 SVCS.                 DD, MWD:  Services 
 SVER.                    9.20:  Sperry Version 
 TDAT.m                   0.00:  Tot Depth Attmp 
 TDDF.                      No:  Trip for DD 
 TFF .                      No:  Trip for Fail 
 TQAA.f-kp                8.00:  Torque Abs Avg 
 TQAN.f-kp                7.00:  Torque Abs Min 
 TQAX.f-kp               11.00:  Torque Abs Max 
 TRRT.°/30m               0.00:  Turn Rotating 
 MRT .                  EWR-M5:  Maximum Recorded Temperature 
 TTMX.degC               76.47:  Max Tool Temp 
 VS01.                90640857:  Virtual Str1 SN 
 VS02.                90639246:  Virtual Str2 SN 
 VS03.                90642265:  Virtual Str3 SN 
 VS04.                11654497:  Virtual Str4 SN 
 WBMN.klb                 0.00:  WOB Min 
 WITN.      Kamran Keberlinkiy:  Customer Rep 
 WITN.           Murad Guliyev:  Customer Rep 2 
 WOBA.klb                 0.00:  WOB Avg 
 WOBX.klb                 0.00:  WOB Max 
 YP  .lhf2               36.00:  Yield Point 
~Curve Information Block
#MNEM.UNIT                 API CODE     Curve Description
#---------               -----------    ---------------------------
 TIME.HHMMSS            00 000 000 000:  GT Time & Date
 GTDEPTH.m              00 000 000 000:  GT Depth
 GTPQH.psia             00 000 000 000:  GT HR Quartz Pressure
 GTTQ.degC              00 000 000 000:  GT Quartz Temperature
 GTTN.NONE              00 000 000 000:  GT Test Number
 GTET.sec               00 000 000 000:  GT Elapsed Test Time
 GTTVD.m                00 000 000 000:  GT True Vertical Depth
#Other Information
#
#WARRANTY: Halliburton will use its best efforts to furnish customers with 
#accurate information and interpretations that are part of, and incident to, the services 
#provided.  However, Halliburton cannot and does not warrant the accuracy 
#or correctness of such information and interpretations.  Under no circumstances should any 
#such information or interpretation be relied upon as the sole basis for any drilling, 
#completion, production, or financial decision or any procedure involving any risk to the 
#safety of any drilling venture, drilling rig or its crew or any other third party.  The 
#Customer has full responsibility for all drilling, completion and production operation.  
#Halliburton makes no representations or warranties, either expressed or 
#implied, including, but not limited to, the implied warranties of merchantability or fitness 
#for a particular purpose, with respect to the services rendered.  In no event will 
#Halliburton be liable for failure to obtain any particular results or for 
#any damages, including, but not limited to, indirect, special or consequential damages, 
#resulting from the use of any information or interpretation provided by Halliburton.
#
~A           TIME           GTDEPTH  GTPQH  GTTQ  GTTN  GTET   GTTVD  
# ...
   03:31:43.156.27-Mar-2021 3725.51 5265.70 61.45 3.00 230.03 3451.28
   03:31:43.356.27-Mar-2021 3725.51 5265.70 61.45 3.00 230.23 3451.28
   03:31:43.556.27-Mar-2021 3725.51 5265.40 61.45 3.00 230.43 3451.28
   03:31:43.756.27-Mar-2021 3725.51 5265.54 61.45 3.00 230.63 3451.28
   03:31:43.956.27-Mar-2021 3725.51 5265.34 61.45 3.00 230.83 3451.28
   03:31:44.156.27-Mar-2021 3725.51 5265.26 61.45 3.00 231.03 3451.28
   03:31:44.356.27-Mar-2021 3725.51 5265.26 61.45 3.00 231.23 3451.28
   03:31:44.556.27-Mar-2021 3725.51 5265.43 61.45 3.00 231.43 3451.28
   03:31:44.756.27-Mar-2021 3725.51 5265.33 61.45 3.00 231.63 3451.28
   03:31:44.956.27-Mar-2021 3725.51 5265.46 61.45 3.00 231.83 3451.28
   03:31:45.156.27-Mar-2021 3725.51 5265.41 61.45 3.00 232.03 3451.28
   03:31:45.356.27-Mar-2021 3725.51 5265.41 61.45 3.00 232.23 3451.28
   03:31:45.556.27-Mar-2021 3725.51 5265.54 61.45 3.00 232.43 3451.28
   03:31:45.756.27-Mar-2021 3725.51 5265.18 61.45 3.00 232.63 3451.28
   03:31:45.956.27-Mar-2021 3725.51 5265.43 61.45 3.00 232.83 3451.28
   03:31:46.156.27-Mar-2021 3725.51 5265.53 61.45 3.00 233.03 3451.28
   03:31:46.356.27-Mar-2021 3725.51 5265.53 61.45 3.00 233.23 3451.28
   03:31:46.556.27-Mar-2021 3725.51 5265.52 61.45 3.00 233.43 3451.28
   03:31:46.756.27-Mar-2021 3725.51 5265.77 61.45 3.00 233.63 3451.28
   03:31:46.956.27-Mar-2021 3725.51 5265.00 61.45 3.00 233.83 3451.28
   03:31:47.156.27-Mar-2021 3725.51 5265.37 61.45 3.00 234.03 3451.28
   03:31:47.356.27-Mar-2021 3725.51 5265.37 61.45 3.00 234.23 3451.28
   03:31:47.556.27-Mar-2021 3725.51 5265.54 61.45 3.00 234.43 3451.28
   03:31:47.756.27-Mar-2021 3725.51 5265.24 61.45 3.00 234.63 3451.28
   03:31:47.956.27-Mar-2021 3725.51 5265.48 61.45 3.00 234.83 3451.28
   03:31:48.156.27-Mar-2021 3725.51 5265.53 61.45 3.00 235.03 3451.28
   03:31:48.356.27-Mar-2021 3725.51 5265.53 61.45 3.00 235.23 3451.28
   03:31:48.556.27-Mar-2021 3725.51 5265.33 61.45 3.00 235.43 3451.28
   03:31:48.756.27-Mar-2021 3725.51 5265.59 61.45 3.00 235.63 3451.28
   03:31:48.957.27-Mar-2021 3725.51 5265.27 61.45 3.00 235.83 3451.28
   03:31:49.157.27-Mar-2021 3725.51 5265.59 61.45 3.00 236.03 3451.28
   03:31:49.357.27-Mar-2021 3725.51 5265.59 61.45 3.00 236.23 3451.28
   03:31:49.557.27-Mar-2021 3725.51 5265.27 61.45 3.00 236.43 3451.28
   03:31:49.757.27-Mar-2021 3725.51 5265.54 61.45 3.00 236.63 3451.28
   03:31:49.957.27-Mar-2021 3725.51 5265.43 61.45 3.00 236.83 3451.28
   03:31:50.157.27-Mar-2021 3725.51 5265.28 61.45 3.00 237.03 3451.28
   03:31:50.357.27-Mar-2021 3725.51 5265.28 61.45 3.00 237.23 3451.28
   03:31:50.557.27-Mar-2021 3725.51 5265.46 61.45 3.00 237.43 3451.28
   03:31:50.757.27-Mar-2021 3725.51 5265.36 61.45 3.00 237.63 3451.28
   03:31:50.957.27-Mar-2021 3725.51 5265.43 61.45 3.00 237.83 3451.28
   03:31:51.157.27-Mar-2021 3725.51 5265.45 61.45 3.00 238.03 3451.28
   03:31:51.357.27-Mar-2021 3725.51 5265.45 61.45 3.00 238.23 3451.28
   03:31:51.557.27-Mar-2021 3725.51 5265.37 61.45 3.00 238.43 3451.28
   03:31:51.757.27-Mar-2021 3725.51 5265.40 61.45 3.00 238.63 3451.28
   03:31:51.957.27-Mar-2021 3725.51 5265.39 61.45 3.00 238.83 3451.28
   03:31:52.157.27-Mar-2021 3725.51 5265.36 61.45 3.00 239.03 3451.28
   03:31:52.357.27-Mar-2021 3725.51 5265.36 61.45 3.00 239.23 3451.28
   03:31:52.557.27-Mar-2021 3725.51 5265.35 61.45 3.00 239.43 3451.28
   03:31:52.757.27-Mar-2021 3725.51 5265.22 61.45 3.00 239.63 3451.28
   03:31:52.957.27-Mar-2021 3725.51 5265.53 61.45 3.00 239.83 3451.28
   03:31:53.157.27-Mar-2021 3725.51 5265.37 61.45 3.00 240.03 3451.28
   03:31:53.357.27-Mar-2021 3725.51 5265.37 61.45 3.00 240.23 3451.28
   03:31:53.557.27-Mar-2021 3725.51 5265.42 61.45 3.00 240.43 3451.28
   03:31:53.757.27-Mar-2021 3725.51 5265.50 61.45 3.00 240.63 3451.28
   03:31:53.957.27-Mar-2021 3725.51 5265.32 61.45 3.00 240.83 3451.28
   03:31:54.157.27-Mar-2021 3725.51 5265.40 61.45 3.00 241.03 3451.28
   03:31:54.357.27-Mar-2021 3725.51 5265.40 61.45 3.00 241.23 3451.28
   03:31:54.557.27-Mar-2021 3725.51 5265.31 61.45 3.00 241.43 3451.28
   03:31:54.757.27-Mar-2021 3725.51 5265.67 61.45 3.00 241.63 3451.28
   03:31:54.957.27-Mar-2021 3725.51 5265.31 61.45 3.00 241.83 3451.28
   03:31:55.157.27-Mar-2021 3725.51 5265.25 61.45 3.00 242.03 3451.28
   03:31:55.357.27-Mar-2021 3725.51 5265.25 61.45 3.00 242.23 3451.28
   03:31:55.557.27-Mar-2021 3725.51 5265.32 61.45 3.00 242.43 3451.28
   03:31:55.757.27-Mar-2021 3725.51 5265.21 61.45 3.00 242.63 3451.28
   03:31:55.957.27-Mar-2021 3725.51 5265.86 61.45 3.00 242.83 3451.28
   03:31:56.157.27-Mar-2021 3725.51 5265.22 61.45 3.00 243.03 3451.28
   03:31:56.357.27-Mar-2021 3725.51 5265.22 61.45 3.00 243.23 3451.28
   03:31:56.557.27-Mar-2021 3725.51 5265.70 61.45 3.00 243.43 3451.28
   03:31:56.757.27-Mar-2021 3725.51 5265.36 61.45 3.00 243.63 3451.28
   03:31:56.958.27-Mar-2021 3725.51 5265.25 61.45 3.00 243.83 3451.28
   03:31:57.158.27-Mar-2021 3725.51 5265.46 61.45 3.00 244.03 3451.28
   03:31:57.358.27-Mar-2021 3725.51 5265.46 61.45 3.00 244.23 3451.28
   03:31:57.558.27-Mar-2021 3725.51 5265.35 61.45 3.00 244.43 3451.28
   03:31:57.758.27-Mar-2021 3725.51 5265.23 61.45 3.00 244.63 3451.28
   03:31:57.958.27-Mar-2021 3725.51 5265.52 61.45 3.00 244.83 3451.28
   03:31:58.158.27-Mar-2021 3725.51 5265.43 61.45 3.00 245.03 3451.28
   03:31:58.358.27-Mar-2021 3725.51 5265.43 61.45 3.00 245.23 3451.28
   03:31:58.558.27-Mar-2021 3725.51 5265.53 61.45 3.00 245.43 3451.28
   03:31:58.758.27-Mar-2021 3725.51 5265.27 61.45 3.00 245.63 3451.28
   03:31:58.958.27-Mar-2021 3725.51 5265.44 61.45 3.00 245.83 3451.28
   03:31:59.158.27-Mar-2021 3725.51 5265.47 61.45 3.00 246.03 3451.28
   03:31:59.358.27-Mar-2021 3725.51 5265.47 61.45 3.00 246.23 3451.28
   03:31:59.558.27-Mar-2021 3725.51 5265.37 61.45 3.00 246.43 3451.28
   03:31:59.758.27-Mar-2021 3725.51 5265.48 61.45 3.00 246.63 3451.28
   03:31:59.958.27-Mar-2021 3725.51 5265.40 61.45 3.00 246.83 3451.28
   03:32:00.158.27-Mar-2021 3725.51 5265.30 61.45 3.00 247.03 3451.28
   03:32:00.358.27-Mar-2021 3725.51 5265.30 61.45 3.00 247.23 3451.28
   03:32:00.558.27-Mar-2021 3725.51 5265.47 61.45 3.00 247.43 3451.28
   03:32:00.758.27-Mar-2021 3725.51 5265.35 61.45 3.00 247.63 3451.28
   03:32:00.958.27-Mar-2021 3725.51 5265.42 61.45 3.00 247.83 3451.28
   03:32:01.158.27-Mar-2021 3725.51 5265.42 61.45 3.00 248.03 3451.28
   03:32:01.358.27-Mar-2021 3725.51 5265.42 61.45 3.00 248.23 3451.28
   03:32:01.558.27-Mar-2021 3725.51 5265.54 61.45 3.00 248.43 3451.28
   03:32:01.758.27-Mar-2021 3725.51 5265.59 61.45 3.00 248.63 3451.28
   03:32:01.958.27-Mar-2021 3725.51 5265.07 61.45 3.00 248.83 3451.28
   03:32:02.158.27-Mar-2021 3725.51 5265.42 61.45 3.00 249.03 3451.28
   03:32:02.358.27-Mar-2021 3725.51 5265.42 61.45 3.00 249.23 3451.28
   03:32:02.558.27-Mar-2021 3725.51 5265.25 61.45 3.00 249.43 3451.28
   03:32:02.758.27-Mar-2021 3725.51 5265.36 61.45 3.00 249.63 3451.28
   03:32:02.958.27-Mar-2021 3725.51 5265.49 61.45 3.00 249.83 3451.28
   03:32:03.158.27-Mar-2021 3725.51 5265.35 61.45 3.00 250.03 3451.28
   03:32:03.358.27-Mar-2021 3725.51 5265.35 61.45 3.00 250.23 3451.28
   03:32:03.558.27-Mar-2021 3725.51 5265.43 61.45 3.00 250.43 3451.28
   03:32:03.758.27-Mar-2021 3725.51 5265.47 61.45 3.00 250.63 3451.28
   03:32:03.958.27-Mar-2021 3725.51 5265.37 61.45 3.00 250.83 3451.28
   03:32:04.158.27-Mar-2021 3725.51 5265.44 61.45 3.00 251.03 3451.28
   03:32:04.358.27-Mar-2021 3725.51 5265.44 61.45 3.00 251.23 3451.28
   03:32:04.558.27-Mar-2021 3725.51 5265.46 61.45 3.00 251.43 3451.28
   03:32:04.759.27-Mar-2021 3725.51 5265.48 61.45 3.00 251.63 3451.28
   03:32:04.959.27-Mar-2021 3725.51 5265.24 61.45 3.00 251.83 3451.28
   03:32:05.159.27-Mar-2021 3725.51 5265.40 61.45 3.00 252.03 3451.28
   03:32:05.359.27-Mar-2021 3725.51 5265.40 61.45 3.00 252.23 3451.28
   03:32:05.559.27-Mar-2021 3725.51 5265.18 61.45 3.00 252.43 3451.28
   03:32:05.759.27-Mar-2021 3725.51 5265.36 61.45 3.00 252.63 3451.28
   03:32:05.959.27-Mar-2021 3725.51 5265.64 61.45 3.00 252.83 3451.28
