~Version Information
 VERS.                  2.0:   CWLS log ASCII Standard -VERSION 2.0
 WRAP.                   NO:   One line per depth step
~Well Information Block
#MNEM.UNIT     VALUE/NAME     DESCRIPTION
#---------     -----------    ---------------------------
 STRT.S             01:51:11 27-Mar-21: START TIME 01:51:11 27-Mar-21
 STOP.S             01:58:18 27-Mar-21: STOP TIME  01:58:18 27-Mar-21
 STEP.S                   0.00: STEP TIME
 NULL.                 -999.25: NULL VALUE
 DFWT.                        :  DIST FWL TEXT
 DFST.                        :  DIST FSL TEXT
 DMF .             Drill Floor:  DRILL MEAS FROM
 STIM.      20.26.40 11-Mar-21:  START TIME
 DATE.      20.26.40 30-Mar-21:  END TIME
 SPUD.               11-Mar-21:  SPUD DATE
 NREF.                    Grid:  NORTH REFERENCE
 HPTY.       Minimum Curvature:  HOLE POS TYPE
 DMOD.             Drill Model:  DRILL MOD DESC
 SVYD.                  Survey:  SURVEY DESC
 ILTD.               Lithology:  INTERP LTH DESC
 FTOP.          Formation Tops:  FORM TOPS DESC
 SON .        AZ-XX-0906805385:  JOB NUMBER
 WTYP.                Deviated:  WELL TYPE
 COMP.     BP Exploration (Caspian Sea) Ltd.:  COMPANY
 UWI .            /AZE00000198:  UNIQUE WELL IDENTIFIER
 API .            /AZE00000198:  API NUMBER
 BASE.              Azerbaijan:  LOGGING EQUIPMENT BASE LOCATION
 REGN.                   EESSA:  REGION
 PROV.                    Baku:  PROVINCE
 STAT.                    Baku:  STATE NAME
 CTRY.              Azerbaijan:  COUNTRY NAME
 FLD .                     ACG:  FIELD NAME
 SRVC.     Turan Drilling & Engineering:  CONTRACTOR
 MWDS.                    Baku:  MWD SHOP
 WELL.                    D09z:  WELL NAME
 JOBN.        AZ-XX-0906805385:  JOB TICKET NUMB
 RIG .              East Azeri:  RIG NAME
 DOE .                     N/A:  DOE NUMBER
 DCON.         Sperry Drilling:  DIRECTNL CONTR
 UNIT.                     N/A:  LOGGING EQUIPMENT ID
 PDAT.          Mean Sea Level:  PERMANENT DATUM
 MDS .        Operator Entered:  MAG DATA SOURCE
 CNTY.                        :  COUNTY
 LOC .                        :  LOCATION
 LMF .             Drill Floor:  LOG MEASURED FROM
 TVDS.m                  43.60:  TVDSS CORRECTN
 LATI.deg                40.02:  LATITUDE
 LONG.deg                51.45:  LONGITUDE
 WHNS.m                 -17.04:  WELL HEAD N/S
 WHEW.m                  -6.28:  WELL HEAD E/W
 UTMX.m              538763.98:  UTM X
 UTMY.m             4431880.20:  UTM Y
 DFWL.m                   0.00:  DISTANCE FWL
 DFSL.m                   0.00:  DISTANCE FSL
 SDEP.m                2680.01:  START DEPTH
 TDD .m                4000.01:  TOTAL DEPTH (DRILLER)
 VSDR.deg               225.71:  VERT SEC DIRECT
 GVFD.g                   1.00:  GRAVITY FIELD
 MFLD.nT              50353.00:  MAGNETIC FIELD
 MDIP.deg                59.49:  MAGNETIC DIP
 MDEC.deg                 6.46:  MAGNETIC DECL
 GRDC.deg                 0.29:  GRID CORRECTION
 AZTC.deg                 6.17:  AZM TOTAL CORR
 EPD .m                   0.00:  ELEVATION
 EGL .m                   0.00:  GROUND ELEVATION
 WDMS.m                 151.80:  WD ELEV
 APD .m                  43.60:  DEPTH ABOVE PD
 AGAP.m                  43.60:  AIR GAP
 VSEW.m                  -6.28:  VERT SEC E/W
 VSNS.m                 -17.04:  VERT SEC N/S
 DEP .m                2656.31:  DEPTH
 EKB .m                  43.60:  KB ELEVATION
 EDF .m                  43.60:  DF ELEVATION
 VSC .                       0:  VS TO CLOSURE
 MAGU.                 1851247:  MAGUTM CHECKSUM
~Parameter Information Block
#MNEM.UNIT       Value        Description
#---------     -----------    ---------------------------
 AV  .mps                 3.00:  Ann Velocity 
 AVMX.mps                 8.00:  Max Ann Veloc 
 AZIF.deg                 0.00:  Azm, Final 
 BHAT.                   Other:  BHA Type 
 BREV.rev                 0.00:  Rev Bit Total 
 BROT.°/30m               0.00:  Build Rotating 
 BS  .in                 10.25:  Bit Size 
 BTPL.psig              511.00:  Bit Press Loss 
 CABU.                      No:  Customer Abuse 
 CGEO.           Asif Pashayev:  Customer Geo 
 COMM.                     |ºg:  Run Comments 1 
 TCS .hr                 24.03:  Time Ciculation Ended 
 CV  .mps                 3.50:  Crit Velocity 
 CVMX.mps                 4.00:  Max Crit Veloc 
 DD1 .             Aziz Aliyev:  Direct Drillr 1 
 DD2 .      Fakhraddin Guliyev:  Direct Drillr 2 
 DDSV.                   Other:  DD Service 
 DEFF.%                  99.00:  % Det Eff 
 DLRX.°/30m               0.00:  Dogleg Rot Max 
 DLSO.°/30m               0.00:  Dogleg Oriented 
 DLSX.°/30m               0.00:  Dogleg Str Max 
 DRET.      23.00.40 28-Mar-21:  Drill End Time 
 DRST.      23.30.40 25-Mar-21:  Drill Start Tim 
 DTIM.hr                  0.00:  Time Drilling 
 EDEP.m                3886.01:  End Depth 
 ENG1.         Almaz Almadatov:  Engineer 1 
 ENG2.      Artemiy Matviyanov:  Engineer 2 
 ENG3.           Samir Gafarov:  Engineer 3 
 ETIM.      23.00.40 28-Mar-21:  End Time 
 FLOI.gpm               550.00:  Flow In 
 FLON.gpm               500.00:  Flow In Min 
 FLOS.cptm                0.00:  Fluid Loss 
 FLOX.gpm               590.00:  Flow In Max 
 HFLO.                      No:  High Flow 
 HPRE.                      No:  High Pressure 
 HTEM.                      No:  High Temp 
 HYDO.m                   1.80:  Hydro Offset 
 IFIN.deg                 0.00:  Inc, Final 
 IMAX.deg                 0.00:  Inc Max 
 IMIN.deg                 0.00:  Inc Min 
 IMND.m                   0.00:  Inc Min Depth 
 IMXD.m                   0.00:  Inc Max Depth 
 JARR.                      No:  Jarring 
 LETM.      03.22.40 28-Mar-21:  Log End Time 
 LOST.hr                     0:  Lost Rig Time 
 LSTM.      23.30.40 25-Mar-21:  Log Start Time 
 MDCL.ppm             34000.00:  Mud Chlorides 
 MDES.     Inversion Oil/Synthetic:  Mud Desc 
 DFD .sg                  1.51:  Mud Density 
 MDMN.sg                  1.51:  Dens Mud Min 
 MDMX.sg                  1.51:  Dens Mud Max 
 MOIL.                      70:  Run Mud Oil % 
 MOWR.                   70:30:  Run Mud OWR 
 MSND.                     0.2:  Run Mud Sand % 
 MSOL.                   21.60:  Run Mud Solids% 
 DFV .spqt               74.00:  Mud Viscosity 
 MWOD.in                  6.75:  MWD Tool OD 
 MWSI.                      No:  Serv Intrp, MWD 
 OTIM.hr                 69.09:  Time Operating 
 PCON.           Look Like New:  Pad Condition 
 PMAX.psia             3500.00:  Press Op, Max 
 PV  .cP                 70.00:  Mud PV 
 RUN .                     400:  Run Number 
 ROPA.m/hr                0.00:  ROP Avg 
 ROPN.m/hr                0.00:  ROP Min 
 ROPX.m/hr                0.00:  ROP Max 
 RPMA.rpm                80.00:  RPM Surface Avg 
 RPMN.rpm                10.00:  RPM Surface Min 
 RPMX.rpm               100.00:  RPM Surface Max 
 RRUN.                    0400:  Rig Run Number 
 RTIM.hr                  3.00:  Time Reaming 
 SAZI.deg                 0.00:  Azm, Start 
 SDEP.m                3886.01:  Start Depth 
 SIDD.                      No:  Serv Intrp, DD 
 SINC.deg                 0.00:  Inc, Start 
 SPPA.psig             3270.00:  SPP Avg 
 SPPN.psig             3220.00:  SPP Min 
 SPPX.psig             4430.00:  SPP Max 
 STIM.      23.30.40 25-Mar-21:  Start Time 
 SVCS.                 DD, MWD:  Services 
 SVER.                    9.20:  Sperry Version 
 TDAT.m                   0.00:  Tot Depth Attmp 
 TDDF.                      No:  Trip for DD 
 TFF .                      No:  Trip for Fail 
 TQAA.f-kp                8.00:  Torque Abs Avg 
 TQAN.f-kp                7.00:  Torque Abs Min 
 TQAX.f-kp               11.00:  Torque Abs Max 
 TRRT.°/30m               0.00:  Turn Rotating 
 MRT .                  EWR-M5:  Maximum Recorded Temperature 
 TTMX.degC               76.47:  Max Tool Temp 
 VS01.                90640857:  Virtual Str1 SN 
 VS02.                90639246:  Virtual Str2 SN 
 VS03.                90642265:  Virtual Str3 SN 
 VS04.                11654497:  Virtual Str4 SN 
 WBMN.klb                 0.00:  WOB Min 
 WITN.      Kamran Keberlinkiy:  Customer Rep 
 WITN.           Murad Guliyev:  Customer Rep 2 
 WOBA.klb                 0.00:  WOB Avg 
 WOBX.klb                 0.00:  WOB Max 
 YP  .lhf2               36.00:  Yield Point 
~Curve Information Block
#MNEM.UNIT                 API CODE     Curve Description
#---------               -----------    ---------------------------
 TIME.HHMMSS            00 000 000 000:  GT Time & Date
 GTDEPTH.m              00 000 000 000:  GT Depth
 GTPQH.psia             00 000 000 000:  GT HR Quartz Pressure
 GTTQ.degC              00 000 000 000:  GT Quartz Temperature
 GTTN.NONE              00 000 000 000:  GT Test Number
 GTET.sec               00 000 000 000:  GT Elapsed Test Time
 GTTVD.m                00 000 000 000:  GT True Vertical Depth
#Other Information
#
#WARRANTY: Halliburton will use its best efforts to furnish customers with 
#accurate information and interpretations that are part of, and incident to, the services 
#provided.  However, Halliburton cannot and does not warrant the accuracy 
#or correctness of such information and interpretations.  Under no circumstances should any 
#such information or interpretation be relied upon as the sole basis for any drilling, 
#completion, production, or financial decision or any procedure involving any risk to the 
#safety of any drilling venture, drilling rig or its crew or any other third party.  The 
#Customer has full responsibility for all drilling, completion and production operation.  
#Halliburton makes no representations or warranties, either expressed or 
#implied, including, but not limited to, the implied warranties of merchantability or fitness 
#for a particular purpose, with respect to the services rendered.  In no event will 
#Halliburton be liable for failure to obtain any particular results or for 
#any damages, including, but not limited to, indirect, special or consequential damages, 
#resulting from the use of any information or interpretation provided by Halliburton.
#
~A           TIME           GTDEPTH  GTPQH  GTTQ  GTTN  GTET   GTTVD  
# ...
   01:53:29.669.27-Mar-2021 3763.51 4955.56 59.88 1.00 138.03 3487.00
   01:53:29.869.27-Mar-2021 3763.51 4955.56 59.88 1.00 138.23 3487.00
   01:53:30.069.27-Mar-2021 3763.51 4955.61 59.88 1.00 138.43 3487.00
   01:53:30.269.27-Mar-2021 3763.51 4955.57 59.88 1.00 138.63 3487.00
   01:53:30.469.27-Mar-2021 3763.51 4955.59 59.88 1.00 138.83 3487.00
   01:53:30.669.27-Mar-2021 3763.51 4955.62 59.88 1.00 139.03 3487.00
   01:53:30.869.27-Mar-2021 3763.51 4955.62 59.88 1.00 139.23 3487.00
   01:53:31.069.27-Mar-2021 3763.51 4955.66 59.88 1.00 139.43 3487.00
   01:53:31.269.27-Mar-2021 3763.51 4955.64 59.88 1.00 139.63 3487.00
   01:53:31.469.27-Mar-2021 3763.51 4955.47 59.88 1.00 139.83 3487.00
   01:53:31.669.27-Mar-2021 3763.51 4955.58 59.88 1.00 140.03 3487.00
   01:53:31.869.27-Mar-2021 3763.51 4955.58 59.88 1.00 140.23 3487.00
   01:53:32.069.27-Mar-2021 3763.51 4955.56 59.88 1.00 140.43 3487.00
   01:53:32.270.27-Mar-2021 3763.51 4955.65 59.88 1.00 140.63 3487.00
   01:53:32.470.27-Mar-2021 3763.51 4955.56 59.88 1.00 140.83 3487.00
   01:53:32.670.27-Mar-2021 3763.51 4955.51 59.88 1.00 141.03 3487.00
   01:53:32.870.27-Mar-2021 3763.51 4955.51 59.88 1.00 141.23 3487.00
   01:53:33.070.27-Mar-2021 3763.51 4955.61 59.89 1.00 141.43 3487.00
   01:53:33.270.27-Mar-2021 3763.51 4955.54 59.89 1.00 141.63 3487.00
   01:53:33.470.27-Mar-2021 3763.51 4955.66 59.89 1.00 141.83 3487.00
   01:53:33.670.27-Mar-2021 3763.51 4955.65 59.89 1.00 142.03 3487.00
   01:53:33.870.27-Mar-2021 3763.51 4955.65 59.89 1.00 142.23 3487.00
   01:53:34.070.27-Mar-2021 3763.51 4955.59 59.89 1.00 142.43 3487.00
   01:53:34.270.27-Mar-2021 3763.51 4955.61 59.89 1.00 142.63 3487.00
   01:53:34.470.27-Mar-2021 3763.51 4955.55 59.89 1.00 142.83 3487.00
   01:53:34.670.27-Mar-2021 3763.51 4955.64 59.89 1.00 143.03 3487.00
   01:53:34.870.27-Mar-2021 3763.51 4955.64 59.89 1.00 143.23 3487.00
   01:53:35.070.27-Mar-2021 3763.51 4955.48 59.89 1.00 143.43 3487.00
   01:53:35.270.27-Mar-2021 3763.51 4955.49 59.89 1.00 143.63 3487.00
   01:53:35.470.27-Mar-2021 3763.51 4955.65 59.89 1.00 143.83 3487.00
   01:53:35.670.27-Mar-2021 3763.51 4955.58 59.89 1.00 144.03 3487.00
   01:53:35.870.27-Mar-2021 3763.51 4955.58 59.89 1.00 144.23 3487.00
   01:53:36.070.27-Mar-2021 3763.51 4955.59 59.89 1.00 144.43 3487.00
   01:53:36.270.27-Mar-2021 3763.51 4955.58 59.89 1.00 144.63 3487.00
   01:53:36.470.27-Mar-2021 3763.51 4955.56 59.89 1.00 144.83 3487.00
   01:53:36.670.27-Mar-2021 3763.51 4955.58 59.89 1.00 145.03 3487.00
   01:53:36.870.27-Mar-2021 3763.51 4955.58 59.89 1.00 145.23 3487.00
   01:53:37.071.27-Mar-2021 3763.51 4955.59 59.89 1.00 145.43 3487.00
   01:53:37.271.27-Mar-2021 3763.51 4955.59 59.89 1.00 145.63 3487.00
   01:53:37.471.27-Mar-2021 3763.51 4955.58 59.89 1.00 145.83 3487.00
   01:53:37.671.27-Mar-2021 3763.51 4955.61 59.89 1.00 146.03 3487.00
   01:53:37.871.27-Mar-2021 3763.51 4955.61 59.89 1.00 146.23 3487.00
   01:53:38.071.27-Mar-2021 3763.51 4955.70 59.89 1.00 146.43 3487.00
   01:53:38.271.27-Mar-2021 3763.51 4955.49 59.89 1.00 146.63 3487.00
   01:53:38.471.27-Mar-2021 3763.51 4955.60 59.89 1.00 146.83 3487.00
   01:53:38.671.27-Mar-2021 3763.51 4955.60 59.89 1.00 147.03 3487.00
   01:53:38.871.27-Mar-2021 3763.51 4955.60 59.89 1.00 147.23 3487.00
   01:53:39.071.27-Mar-2021 3763.51 4955.55 59.89 1.00 147.43 3487.00
   01:53:39.271.27-Mar-2021 3763.51 4955.59 59.89 1.00 147.63 3487.00
   01:53:39.471.27-Mar-2021 3763.51 4955.59 59.89 1.00 147.83 3487.00
   01:53:39.671.27-Mar-2021 3763.51 4955.57 59.89 1.00 148.03 3487.00
   01:53:39.871.27-Mar-2021 3763.51 4955.57 59.89 1.00 148.23 3487.00
   01:53:40.071.27-Mar-2021 3763.51 4955.59 59.89 1.00 148.43 3487.00
   01:53:40.271.27-Mar-2021 3763.51 4955.58 59.89 1.00 148.63 3487.00
   01:53:40.471.27-Mar-2021 3763.51 4955.58 59.89 1.00 148.83 3487.00
   01:53:40.671.27-Mar-2021 3763.51 4955.60 59.89 1.00 149.03 3487.00
   01:53:40.871.27-Mar-2021 3763.51 4955.60 59.89 1.00 149.23 3487.00
   01:53:41.071.27-Mar-2021 3763.51 4955.67 59.89 1.00 149.43 3487.00
   01:53:41.271.27-Mar-2021 3763.51 4955.57 59.89 1.00 149.63 3487.00
   01:53:41.471.27-Mar-2021 3763.51 4955.49 59.89 1.00 149.83 3487.00
   01:53:41.671.27-Mar-2021 3763.51 4955.70 59.89 1.00 150.03 3487.00
   01:53:41.872.27-Mar-2021 3763.51 4955.70 59.89 1.00 150.23 3487.00
   01:53:42.072.27-Mar-2021 3763.51 4955.53 59.89 1.00 150.43 3487.00
   01:53:42.272.27-Mar-2021 3763.51 4955.64 59.89 1.00 150.63 3487.00
   01:53:42.472.27-Mar-2021 3763.51 4955.50 59.89 1.00 150.83 3487.00
   01:53:42.672.27-Mar-2021 3763.51 4955.54 59.89 1.00 151.03 3487.00
   01:53:42.872.27-Mar-2021 3763.51 4955.54 59.89 1.00 151.23 3487.00
   01:53:43.072.27-Mar-2021 3763.51 4955.56 59.89 1.00 151.43 3487.00
   01:53:43.272.27-Mar-2021 3763.51 4955.55 59.89 1.00 151.63 3487.00
   01:53:43.472.27-Mar-2021 3763.51 4955.67 59.89 1.00 151.83 3487.00
   01:53:43.672.27-Mar-2021 3763.51 4955.54 59.89 1.00 152.03 3487.00
   01:53:43.872.27-Mar-2021 3763.51 4955.54 59.89 1.00 152.23 3487.00
   01:53:44.072.27-Mar-2021 3763.51 4955.62 59.89 1.00 152.43 3487.00
   01:53:44.272.27-Mar-2021 3763.51 4955.58 59.89 1.00 152.63 3487.00
   01:53:44.472.27-Mar-2021 3763.51 4955.54 59.89 1.00 152.83 3487.00
   01:53:44.672.27-Mar-2021 3763.51 4955.61 59.89 1.00 153.03 3487.00
   01:53:44.872.27-Mar-2021 3763.51 4955.61 59.89 1.00 153.23 3487.00
   01:53:45.072.27-Mar-2021 3763.51 4955.42 59.89 1.00 153.43 3487.00
   01:53:45.272.27-Mar-2021 3763.51 4955.54 59.89 1.00 153.63 3487.00
   01:53:45.472.27-Mar-2021 3763.51 4955.63 59.89 1.00 153.83 3487.00
   01:53:45.672.27-Mar-2021 3763.51 4955.54 59.89 1.00 154.03 3487.00
   01:53:45.872.27-Mar-2021 3763.51 4955.54 59.89 1.00 154.23 3487.00
   01:53:46.072.27-Mar-2021 3763.51 4955.60 59.89 1.00 154.43 3487.00
   01:53:46.272.27-Mar-2021 3763.51 4955.56 59.89 1.00 154.63 3487.00
   01:53:46.472.27-Mar-2021 3763.51 4955.56 59.89 1.00 154.83 3487.00
   01:53:46.673.27-Mar-2021 3763.51 4955.57 59.89 1.00 155.03 3487.00
   01:53:46.873.27-Mar-2021 3763.51 4955.57 59.89 1.00 155.23 3487.00
   01:53:47.073.27-Mar-2021 3763.51 4955.57 59.89 1.00 155.43 3487.00
   01:53:47.273.27-Mar-2021 3763.51 4955.55 59.89 1.00 155.63 3487.00
   01:53:47.473.27-Mar-2021 3763.51 4955.58 59.89 1.00 155.83 3487.00
   01:53:47.673.27-Mar-2021 3763.51 4955.63 59.89 1.00 156.03 3487.00
   01:53:47.873.27-Mar-2021 3763.51 4955.63 59.89 1.00 156.23 3487.00
   01:53:48.073.27-Mar-2021 3763.51 4955.40 59.89 1.00 156.43 3487.00
   01:53:48.273.27-Mar-2021 3763.51 4938.13 59.89 1.00 156.63 3487.00
   01:53:48.473.27-Mar-2021 3763.51 4912.77 59.89 1.00 156.83 3487.00
   01:53:48.673.27-Mar-2021 3763.51 4911.73 59.89 1.00 157.03 3487.00
   01:53:48.873.27-Mar-2021 3763.51 4911.73 59.89 1.00 157.23 3487.00
   01:53:49.073.27-Mar-2021 3763.51 4911.84 59.89 1.00 157.43 3487.00
   01:53:49.273.27-Mar-2021 3763.51 4910.76 59.89 1.00 157.63 3487.00
   01:53:49.473.27-Mar-2021 3763.51 4912.06 59.89 1.00 157.83 3487.00
   01:53:49.673.27-Mar-2021 3763.51 4911.76 59.89 1.00 158.03 3487.00
   01:53:49.873.27-Mar-2021 3763.51 4911.76 59.89 1.00 158.23 3487.00
   01:53:50.073.27-Mar-2021 3763.51 4911.98 59.90 1.00 158.43 3487.00
   01:53:50.273.27-Mar-2021 3763.51 4912.27 59.90 1.00 158.63 3487.00
   01:53:50.473.27-Mar-2021 3763.51 4911.69 59.90 1.00 158.83 3487.00
   01:53:50.673.27-Mar-2021 3763.51 4912.49 59.90 1.00 159.03 3487.00
   01:53:50.873.27-Mar-2021 3763.51 4912.49 59.90 1.00 159.23 3487.00
   01:53:51.073.27-Mar-2021 3763.51 4912.30 59.90 1.00 159.43 3487.00
   01:53:51.273.27-Mar-2021 3763.51 4911.96 59.90 1.00 159.63 3487.00
   01:53:51.474.27-Mar-2021 3763.51 4911.72 59.90 1.00 159.83 3487.00
   01:53:51.674.27-Mar-2021 3763.51 4912.10 59.90 1.00 160.03 3487.00
   01:53:51.874.27-Mar-2021 3763.51 4912.10 59.90 1.00 160.23 3487.00
   01:53:52.074.27-Mar-2021 3763.51 4912.21 59.90 1.00 160.43 3487.00
   01:53:52.274.27-Mar-2021 3763.51 4912.31 59.90 1.00 160.63 3487.00
   01:53:52.474.27-Mar-2021 3763.51 4912.04 59.90 1.00 160.83 3487.00
