~Version Information
 VERS.                  2.0:   CWLS log ASCII Standard -VERSION 2.0
 WRAP.                   NO:   One line per depth step
~Well Information Block
#MNEM.UNIT     VALUE/NAME     DESCRIPTION
#---------     -----------    ---------------------------
 STRT.S             12:17:14 27-Mar-21: START TIME 12:17:14 27-Mar-21
 STOP.S             12:24:16 27-Mar-21: STOP TIME  12:24:16 27-Mar-21
 STEP.S                   0.00: STEP TIME
 NULL.                 -999.25: NULL VALUE
 DFWT.                        :  DIST FWL TEXT
 DFST.                        :  DIST FSL TEXT
 DMF .             Drill Floor:  DRILL MEAS FROM
 STIM.      20.26.40 11-Mar-21:  START TIME
 DATE.      20.26.40 30-Mar-21:  END TIME
 SPUD.               11-Mar-21:  SPUD DATE
 NREF.                    Grid:  NORTH REFERENCE
 HPTY.       Minimum Curvature:  HOLE POS TYPE
 DMOD.             Drill Model:  DRILL MOD DESC
 SVYD.                  Survey:  SURVEY DESC
 ILTD.               Lithology:  INTERP LTH DESC
 FTOP.          Formation Tops:  FORM TOPS DESC
 SON .        AZ-XX-0906805385:  JOB NUMBER
 WTYP.                Deviated:  WELL TYPE
 COMP.     BP Exploration (Caspian Sea) Ltd.:  COMPANY
 UWI .            /AZE00000198:  UNIQUE WELL IDENTIFIER
 API .            /AZE00000198:  API NUMBER
 BASE.              Azerbaijan:  LOGGING EQUIPMENT BASE LOCATION
 REGN.                   EESSA:  REGION
 PROV.                    Baku:  PROVINCE
 STAT.                    Baku:  STATE NAME
 CTRY.              Azerbaijan:  COUNTRY NAME
 FLD .                     ACG:  FIELD NAME
 SRVC.     Turan Drilling & Engineering:  CONTRACTOR
 MWDS.                    Baku:  MWD SHOP
 WELL.                    D09z:  WELL NAME
 JOBN.        AZ-XX-0906805385:  JOB TICKET NUMB
 RIG .              East Azeri:  RIG NAME
 DOE .                     N/A:  DOE NUMBER
 DCON.         Sperry Drilling:  DIRECTNL CONTR
 UNIT.                     N/A:  LOGGING EQUIPMENT ID
 PDAT.          Mean Sea Level:  PERMANENT DATUM
 MDS .        Operator Entered:  MAG DATA SOURCE
 CNTY.                        :  COUNTY
 LOC .                        :  LOCATION
 LMF .             Drill Floor:  LOG MEASURED FROM
 TVDS.m                  43.60:  TVDSS CORRECTN
 LATI.deg                40.02:  LATITUDE
 LONG.deg                51.45:  LONGITUDE
 WHNS.m                 -17.04:  WELL HEAD N/S
 WHEW.m                  -6.28:  WELL HEAD E/W
 UTMX.m              538763.98:  UTM X
 UTMY.m             4431880.20:  UTM Y
 DFWL.m                   0.00:  DISTANCE FWL
 DFSL.m                   0.00:  DISTANCE FSL
 SDEP.m                2680.01:  START DEPTH
 TDD .m                4000.01:  TOTAL DEPTH (DRILLER)
 VSDR.deg               225.71:  VERT SEC DIRECT
 GVFD.g                   1.00:  GRAVITY FIELD
 MFLD.nT              50353.00:  MAGNETIC FIELD
 MDIP.deg                59.49:  MAGNETIC DIP
 MDEC.deg                 6.46:  MAGNETIC DECL
 GRDC.deg                 0.29:  GRID CORRECTION
 AZTC.deg                 6.17:  AZM TOTAL CORR
 EPD .m                   0.00:  ELEVATION
 EGL .m                   0.00:  GROUND ELEVATION
 WDMS.m                 151.80:  WD ELEV
 APD .m                  43.60:  DEPTH ABOVE PD
 AGAP.m                  43.60:  AIR GAP
 VSEW.m                  -6.28:  VERT SEC E/W
 VSNS.m                 -17.04:  VERT SEC N/S
 DEP .m                2656.31:  DEPTH
 EKB .m                  43.60:  KB ELEVATION
 EDF .m                  43.60:  DF ELEVATION
 VSC .                       0:  VS TO CLOSURE
 MAGU.                 1851247:  MAGUTM CHECKSUM
~Parameter Information Block
#MNEM.UNIT       Value        Description
#---------     -----------    ---------------------------
 AV  .mps                 3.00:  Ann Velocity 
 AVMX.mps                 8.00:  Max Ann Veloc 
 AZIF.deg                 0.00:  Azm, Final 
 BHAT.                   Other:  BHA Type 
 BREV.rev                 0.00:  Rev Bit Total 
 BROT.°/30m               0.00:  Build Rotating 
 BS  .in                 10.25:  Bit Size 
 BTPL.psig              511.00:  Bit Press Loss 
 CABU.                      No:  Customer Abuse 
 CGEO.           Asif Pashayev:  Customer Geo 
 COMM.                     4'd:  Run Comments 1 
 TCS .hr                 24.03:  Time Ciculation Ended 
 CV  .mps                 3.50:  Crit Velocity 
 CVMX.mps                 4.00:  Max Crit Veloc 
 DD1 .             Aziz Aliyev:  Direct Drillr 1 
 DD2 .      Fakhraddin Guliyev:  Direct Drillr 2 
 DDSV.                   Other:  DD Service 
 DEFF.%                  99.00:  % Det Eff 
 DLRX.°/30m               0.00:  Dogleg Rot Max 
 DLSO.°/30m               0.00:  Dogleg Oriented 
 DLSX.°/30m               0.00:  Dogleg Str Max 
 DRET.      23.00.40 28-Mar-21:  Drill End Time 
 DRST.      23.30.40 25-Mar-21:  Drill Start Tim 
 DTIM.hr                  0.00:  Time Drilling 
 EDEP.m                3886.01:  End Depth 
 ENG1.         Almaz Almadatov:  Engineer 1 
 ENG2.      Artemiy Matviyanov:  Engineer 2 
 ENG3.           Samir Gafarov:  Engineer 3 
 ETIM.      23.00.40 28-Mar-21:  End Time 
 FLOI.gpm               550.00:  Flow In 
 FLON.gpm               500.00:  Flow In Min 
 FLOS.cptm                0.00:  Fluid Loss 
 FLOX.gpm               590.00:  Flow In Max 
 HFLO.                      No:  High Flow 
 HPRE.                      No:  High Pressure 
 HTEM.                      No:  High Temp 
 HYDO.m                   1.80:  Hydro Offset 
 IFIN.deg                 0.00:  Inc, Final 
 IMAX.deg                 0.00:  Inc Max 
 IMIN.deg                 0.00:  Inc Min 
 IMND.m                   0.00:  Inc Min Depth 
 IMXD.m                   0.00:  Inc Max Depth 
 JARR.                      No:  Jarring 
 LETM.      03.22.40 28-Mar-21:  Log End Time 
 LOST.hr                     0:  Lost Rig Time 
 LSTM.      23.30.40 25-Mar-21:  Log Start Time 
 MDCL.ppm             34000.00:  Mud Chlorides 
 MDES.     Inversion Oil/Synthetic:  Mud Desc 
 DFD .sg                  1.51:  Mud Density 
 MDMN.sg                  1.51:  Dens Mud Min 
 MDMX.sg                  1.51:  Dens Mud Max 
 MOIL.                      70:  Run Mud Oil % 
 MOWR.                   70:30:  Run Mud OWR 
 MSND.                     0.2:  Run Mud Sand % 
 MSOL.                   21.60:  Run Mud Solids% 
 DFV .spqt               74.00:  Mud Viscosity 
 MWOD.in                  6.75:  MWD Tool OD 
 MWSI.                      No:  Serv Intrp, MWD 
 OTIM.hr                 69.09:  Time Operating 
 PCON.           Look Like New:  Pad Condition 
 PMAX.psia             3500.00:  Press Op, Max 
 PV  .cP                 70.00:  Mud PV 
 RUN .                     400:  Run Number 
 ROPA.m/hr                0.00:  ROP Avg 
 ROPN.m/hr                0.00:  ROP Min 
 ROPX.m/hr                0.00:  ROP Max 
 RPMA.rpm                80.00:  RPM Surface Avg 
 RPMN.rpm                10.00:  RPM Surface Min 
 RPMX.rpm               100.00:  RPM Surface Max 
 RRUN.                    0400:  Rig Run Number 
 RTIM.hr                  3.00:  Time Reaming 
 SAZI.deg                 0.00:  Azm, Start 
 SDEP.m                3886.01:  Start Depth 
 SIDD.                      No:  Serv Intrp, DD 
 SINC.deg                 0.00:  Inc, Start 
 SPPA.psig             3270.00:  SPP Avg 
 SPPN.psig             3220.00:  SPP Min 
 SPPX.psig             4430.00:  SPP Max 
 STIM.      23.30.40 25-Mar-21:  Start Time 
 SVCS.                 DD, MWD:  Services 
 SVER.                    9.20:  Sperry Version 
 TDAT.m                   0.00:  Tot Depth Attmp 
 TDDF.                      No:  Trip for DD 
 TFF .                      No:  Trip for Fail 
 TQAA.f-kp                8.00:  Torque Abs Avg 
 TQAN.f-kp                7.00:  Torque Abs Min 
 TQAX.f-kp               11.00:  Torque Abs Max 
 TRRT.°/30m               0.00:  Turn Rotating 
 MRT .                  EWR-M5:  Maximum Recorded Temperature 
 TTMX.degC               76.47:  Max Tool Temp 
 VS01.                90640857:  Virtual Str1 SN 
 VS02.                90639246:  Virtual Str2 SN 
 VS03.                90642265:  Virtual Str3 SN 
 VS04.                11654497:  Virtual Str4 SN 
 WBMN.klb                 0.00:  WOB Min 
 WITN.      Kamran Keberlinkiy:  Customer Rep 
 WITN.           Murad Guliyev:  Customer Rep 2 
 WOBA.klb                 0.00:  WOB Avg 
 WOBX.klb                 0.00:  WOB Max 
 YP  .lhf2               36.00:  Yield Point 
~Curve Information Block
#MNEM.UNIT                 API CODE     Curve Description
#---------               -----------    ---------------------------
 TIME.HHMMSS            00 000 000 000:  GT Time & Date
 GTDEPTH.m              00 000 000 000:  GT Depth
 GTPQH.psia             00 000 000 000:  GT HR Quartz Pressure
 GTTQ.degC              00 000 000 000:  GT Quartz Temperature
 GTTN.NONE              00 000 000 000:  GT Test Number
 GTET.sec               00 000 000 000:  GT Elapsed Test Time
 GTTVD.m                00 000 000 000:  GT True Vertical Depth
#Other Information
#
#WARRANTY: Halliburton will use its best efforts to furnish customers with 
#accurate information and interpretations that are part of, and incident to, the services 
#provided.  However, Halliburton cannot and does not warrant the accuracy 
#or correctness of such information and interpretations.  Under no circumstances should any 
#such information or interpretation be relied upon as the sole basis for any drilling, 
#completion, production, or financial decision or any procedure involving any risk to the 
#safety of any drilling venture, drilling rig or its crew or any other third party.  The 
#Customer has full responsibility for all drilling, completion and production operation.  
#Halliburton makes no representations or warranties, either expressed or 
#implied, including, but not limited to, the implied warranties of merchantability or fitness 
#for a particular purpose, with respect to the services rendered.  In no event will 
#Halliburton be liable for failure to obtain any particular results or for 
#any damages, including, but not limited to, indirect, special or consequential damages, 
#resulting from the use of any information or interpretation provided by Halliburton.
#
~A           TIME           GTDEPTH  GTPQH  GTTQ  GTTN   GTET   GTTVD  
# ...
   12:18:45.186.27-Mar-2021 3369.01 4842.72 61.93 12.00  90.46 3116.52
   12:18:45.387.27-Mar-2021 3369.01 4842.77 61.93 12.00  90.66 3116.52
   12:18:45.587.27-Mar-2021 3369.01 4842.95 61.93 12.00  90.86 3116.52
   12:18:45.787.27-Mar-2021 3369.01 4843.17 61.93 12.00  91.06 3116.52
   12:18:45.987.27-Mar-2021 3369.01 4843.17 61.93 12.00  91.26 3116.52
   12:18:46.187.27-Mar-2021 3369.01 4842.88 61.93 12.00  91.46 3116.52
   12:18:46.387.27-Mar-2021 3369.01 4842.96 61.93 12.00  91.66 3116.52
   12:18:46.587.27-Mar-2021 3369.01 4842.84 61.93 12.00  91.86 3116.52
   12:18:46.788.27-Mar-2021 3369.01 4842.53 61.93 12.00  92.07 3116.52
   12:18:46.988.27-Mar-2021 3369.01 4842.53 61.93 12.00  92.27 3116.52
   12:18:47.188.27-Mar-2021 3369.01 4843.19 61.93 12.00  92.47 3116.52
   12:18:47.388.27-Mar-2021 3369.01 4843.25 61.93 12.00  92.67 3116.52
   12:18:47.588.27-Mar-2021 3369.01 4842.94 61.93 12.00  92.87 3116.52
   12:18:47.788.27-Mar-2021 3369.01 4843.76 61.93 12.00  93.07 3116.52
   12:18:47.988.27-Mar-2021 3369.01 4843.76 61.93 12.00  93.27 3116.52
   12:18:48.189.27-Mar-2021 3369.01 4843.65 61.93 12.00  93.47 3116.52
   12:18:48.389.27-Mar-2021 3369.01 4843.65 61.93 12.00  93.67 3116.52
   12:18:48.589.27-Mar-2021 3369.01 4843.16 61.93 12.00  93.87 3116.52
   12:18:48.789.27-Mar-2021 3369.01 4843.91 61.93 12.00  94.07 3116.52
   12:18:48.989.27-Mar-2021 3369.01 4843.91 61.93 12.00  94.27 3116.52
   12:18:49.189.27-Mar-2021 3369.01 4843.86 61.93 12.00  94.47 3116.52
   12:18:49.389.27-Mar-2021 3369.01 4843.92 61.93 12.00  94.67 3116.52
   12:18:49.590.27-Mar-2021 3369.01 4843.75 61.93 12.00  94.87 3116.52
   12:18:49.790.27-Mar-2021 3369.01 4843.74 61.93 12.00  95.07 3116.52
   12:18:49.990.27-Mar-2021 3369.01 4843.74 61.93 12.00  95.27 3116.52
   12:18:50.190.27-Mar-2021 3369.01 4843.79 61.93 12.00  95.47 3116.52
   12:18:50.390.27-Mar-2021 3369.01 4843.78 61.93 12.00  95.67 3116.52
   12:18:50.590.27-Mar-2021 3369.01 4843.54 61.93 12.00  95.87 3116.52
   12:18:50.790.27-Mar-2021 3369.01 4843.69 61.93 12.00  96.07 3116.52
   12:18:50.991.27-Mar-2021 3369.01 4843.69 61.93 12.00  96.27 3116.52
   12:18:51.191.27-Mar-2021 3369.01 4844.14 61.93 12.00  96.47 3116.52
   12:18:51.391.27-Mar-2021 3369.01 4843.86 61.93 12.00  96.67 3116.52
   12:18:51.591.27-Mar-2021 3369.01 4843.87 61.93 12.00  96.87 3116.52
   12:18:51.791.27-Mar-2021 3369.01 4843.79 61.93 12.00  97.07 3116.52
   12:18:51.991.27-Mar-2021 3369.01 4843.79 61.93 12.00  97.27 3116.52
   12:18:52.191.27-Mar-2021 3369.01 4844.27 61.93 12.00  97.47 3116.52
   12:18:52.392.27-Mar-2021 3369.01 4843.90 61.93 12.00  97.67 3116.52
   12:18:52.592.27-Mar-2021 3369.01 4843.74 61.92 12.00  97.87 3116.52
   12:18:52.792.27-Mar-2021 3369.01 4843.92 61.92 12.00  98.07 3116.52
   12:18:52.992.27-Mar-2021 3369.01 4843.92 61.92 12.00  98.27 3116.52
   12:18:53.192.27-Mar-2021 3369.01 4844.21 61.92 12.00  98.47 3116.52
   12:18:53.392.27-Mar-2021 3369.01 4844.00 61.92 12.00  98.67 3116.52
   12:18:53.592.27-Mar-2021 3369.01 4844.26 61.92 12.00  98.87 3116.52
   12:18:53.793.27-Mar-2021 3369.01 4844.20 61.92 12.00  99.07 3116.52
   12:18:53.993.27-Mar-2021 3369.01 4844.20 61.92 12.00  99.27 3116.52
   12:18:54.193.27-Mar-2021 3369.01 4844.50 61.92 12.00  99.47 3116.52
   12:18:54.393.27-Mar-2021 3369.01 4843.90 61.92 12.00  99.67 3116.52
   12:18:54.593.27-Mar-2021 3369.01 4844.07 61.92 12.00  99.87 3116.52
   12:18:54.793.27-Mar-2021 3369.01 4844.08 61.92 12.00 100.07 3116.52
   12:18:54.993.27-Mar-2021 3369.01 4844.08 61.92 12.00 100.27 3116.52
   12:18:55.194.27-Mar-2021 3369.01 4844.36 61.92 12.00 100.47 3116.52
   12:18:55.394.27-Mar-2021 3369.01 4844.32 61.92 12.00 100.67 3116.52
   12:18:55.594.27-Mar-2021 3369.01 4844.47 61.92 12.00 100.87 3116.52
   12:18:55.794.27-Mar-2021 3369.01 4844.43 61.92 12.00 101.07 3116.52
   12:18:55.994.27-Mar-2021 3369.01 4844.43 61.92 12.00 101.27 3116.52
   12:18:56.194.27-Mar-2021 3369.01 4844.88 61.92 12.00 101.47 3116.52
   12:18:56.394.27-Mar-2021 3369.01 4844.88 61.92 12.00 101.67 3116.52
   12:18:56.595.27-Mar-2021 3369.01 4844.85 61.92 12.00 101.87 3116.52
   12:18:56.795.27-Mar-2021 3369.01 4845.12 61.92 12.00 102.07 3116.52
   12:18:56.995.27-Mar-2021 3369.01 4845.12 61.92 12.00 102.27 3116.52
   12:18:57.195.27-Mar-2021 3369.01 4844.50 61.92 12.00 102.47 3116.52
   12:18:57.395.27-Mar-2021 3369.01 4844.74 61.92 12.00 102.67 3116.52
   12:18:57.595.27-Mar-2021 3369.01 4844.97 61.92 12.00 102.87 3116.52
   12:18:57.795.27-Mar-2021 3369.01 4844.83 61.92 12.00 103.07 3116.52
   12:18:57.996.27-Mar-2021 3369.01 4844.83 61.92 12.00 103.27 3116.52
   12:18:58.196.27-Mar-2021 3369.01 4844.67 61.92 12.00 103.47 3116.52
   12:18:58.396.27-Mar-2021 3369.01 4844.54 61.92 12.00 103.67 3116.52
   12:18:58.596.27-Mar-2021 3369.01 4844.54 61.92 12.00 103.87 3116.52
   12:18:58.796.27-Mar-2021 3369.01 4845.14 61.92 12.00 104.07 3116.52
   12:18:58.996.27-Mar-2021 3369.01 4845.14 61.92 12.00 104.27 3116.52
   12:18:59.196.27-Mar-2021 3369.01 4844.93 61.92 12.00 104.47 3116.52
   12:18:59.397.27-Mar-2021 3369.01 4845.07 61.92 12.00 104.67 3116.52
   12:18:59.597.27-Mar-2021 3369.01 4844.88 61.92 12.00 104.87 3116.52
   12:18:59.797.27-Mar-2021 3369.01 4844.82 61.92 12.00 105.07 3116.52
   12:18:59.997.27-Mar-2021 3369.01 4844.82 61.92 12.00 105.27 3116.52
   12:19:00.197.27-Mar-2021 3369.01 4845.11 61.92 12.00 105.47 3116.52
   12:19:00.397.27-Mar-2021 3369.01 4844.98 61.92 12.00 105.67 3116.52
   12:19:00.597.27-Mar-2021 3369.01 4845.22 61.92 12.00 105.87 3116.52
   12:19:00.798.27-Mar-2021 3369.01 4845.23 61.92 12.00 106.07 3116.52
   12:19:00.998.27-Mar-2021 3369.01 4845.23 61.92 12.00 106.28 3116.52
   12:19:01.198.27-Mar-2021 3369.01 4844.38 61.92 12.00 106.48 3116.52
   12:19:01.398.27-Mar-2021 3369.01 4844.19 61.92 12.00 106.68 3116.52
   12:19:01.598.27-Mar-2021 3369.01 4844.31 61.92 12.00 106.88 3116.52
   12:19:01.798.27-Mar-2021 3369.01 4844.38 61.92 12.00 107.08 3116.52
   12:19:01.998.27-Mar-2021 3369.01 4844.38 61.92 12.00 107.28 3116.52
   12:19:02.199.27-Mar-2021 3369.01 4844.93 61.92 12.00 107.48 3116.52
   12:19:02.399.27-Mar-2021 3369.01 4844.97 61.92 12.00 107.68 3116.52
   12:19:02.599.27-Mar-2021 3369.01 4845.24 61.92 12.00 107.88 3116.52
   12:19:02.799.27-Mar-2021 3369.01 4845.18 61.92 12.00 108.08 3116.52
   12:19:02.999.27-Mar-2021 3369.01 4845.18 61.92 12.00 108.28 3116.52
   12:19:03.199.27-Mar-2021 3369.01 4845.27 61.92 12.00 108.48 3116.52
   12:19:03.399.27-Mar-2021 3369.01 4845.28 61.92 12.00 108.68 3116.52
   12:19:03.600.27-Mar-2021 3369.01 4845.12 61.92 12.00 108.88 3116.52
   12:19:03.800.27-Mar-2021 3369.01 4844.87 61.92 12.00 109.08 3116.52
   12:19:04.000.27-Mar-2021 3369.01 4844.87 61.92 12.00 109.28 3116.52
   12:19:04.200.27-Mar-2021 3369.01 4844.92 61.91 12.00 109.48 3116.52
   12:19:04.400.27-Mar-2021 3369.01 4845.07 61.91 12.00 109.68 3116.52
   12:19:04.600.27-Mar-2021 3369.01 4845.49 61.91 12.00 109.88 3116.52
   12:19:04.800.27-Mar-2021 3369.01 4845.13 61.91 12.00 110.08 3116.52
   12:19:05.000.27-Mar-2021 3369.01 4845.13 61.91 12.00 110.28 3116.52
   12:19:05.201.27-Mar-2021 3369.01 4845.24 61.91 12.00 110.48 3116.52
   12:19:05.401.27-Mar-2021 3369.01 4845.07 61.91 12.00 110.68 3116.52
   12:19:05.601.27-Mar-2021 3369.01 4845.32 61.91 12.00 110.88 3116.52
   12:19:05.801.27-Mar-2021 3369.01 4845.51 61.91 12.00 111.08 3116.52
   12:19:06.001.27-Mar-2021 3369.01 4845.51 61.91 12.00 111.28 3116.52
   12:19:06.201.27-Mar-2021 3369.01 4845.47 61.91 12.00 111.48 3116.52
   12:19:06.401.27-Mar-2021 3369.01 4845.44 61.91 12.00 111.68 3116.52
   12:19:06.602.27-Mar-2021 3369.01 4845.43 61.91 12.00 111.88 3116.52
   12:19:06.802.27-Mar-2021 3369.01 4845.48 61.91 12.00 112.08 3116.52
   12:19:07.002.27-Mar-2021 3369.01 4845.48 61.91 12.00 112.28 3116.52
   12:19:07.202.27-Mar-2021 3369.01 4844.71 61.91 12.00 112.48 3116.52
   12:19:07.402.27-Mar-2021 3369.01 4845.63 61.91 12.00 112.68 3116.52
   12:19:07.602.27-Mar-2021 3369.01 4845.62 61.91 12.00 112.88 3116.52
