~Version Information
 VERS.                  2.0:   CWLS log ASCII Standard -VERSION 2.0
 WRAP.                   NO:   One line per depth step
~Well Information Block
#MNEM.UNIT     VALUE/NAME     DESCRIPTION
#---------     -----------    ---------------------------
 STRT.S             12:17:14 27-Mar-21: START TIME 12:17:14 27-Mar-21
 STOP.S             12:24:16 27-Mar-21: STOP TIME  12:24:16 27-Mar-21
 STEP.S                   0.00: STEP TIME
 NULL.                 -999.25: NULL VALUE
 DFWT.                        :  DIST FWL TEXT
 DFST.                        :  DIST FSL TEXT
 DMF .             Drill Floor:  DRILL MEAS FROM
 STIM.      20.26.40 11-Mar-21:  START TIME
 DATE.      20.26.40 30-Mar-21:  END TIME
 SPUD.               11-Mar-21:  SPUD DATE
 NREF.                    Grid:  NORTH REFERENCE
 HPTY.       Minimum Curvature:  HOLE POS TYPE
 DMOD.             Drill Model:  DRILL MOD DESC
 SVYD.                  Survey:  SURVEY DESC
 ILTD.               Lithology:  INTERP LTH DESC
 FTOP.          Formation Tops:  FORM TOPS DESC
 SON .        AZ-XX-0906805385:  JOB NUMBER
 WTYP.                Deviated:  WELL TYPE
 COMP.     BP Exploration (Caspian Sea) Ltd.:  COMPANY
 UWI .            /AZE00000198:  UNIQUE WELL IDENTIFIER
 API .            /AZE00000198:  API NUMBER
 BASE.              Azerbaijan:  LOGGING EQUIPMENT BASE LOCATION
 REGN.                   EESSA:  REGION
 PROV.                    Baku:  PROVINCE
 STAT.                    Baku:  STATE NAME
 CTRY.              Azerbaijan:  COUNTRY NAME
 FLD .                     ACG:  FIELD NAME
 SRVC.     Turan Drilling & Engineering:  CONTRACTOR
 MWDS.                    Baku:  MWD SHOP
 WELL.                    D09z:  WELL NAME
 JOBN.        AZ-XX-0906805385:  JOB TICKET NUMB
 RIG .              East Azeri:  RIG NAME
 DOE .                     N/A:  DOE NUMBER
 DCON.         Sperry Drilling:  DIRECTNL CONTR
 UNIT.                     N/A:  LOGGING EQUIPMENT ID
 PDAT.          Mean Sea Level:  PERMANENT DATUM
 MDS .        Operator Entered:  MAG DATA SOURCE
 CNTY.                        :  COUNTY
 LOC .                        :  LOCATION
 LMF .             Drill Floor:  LOG MEASURED FROM
 TVDS.m                  43.60:  TVDSS CORRECTN
 LATI.deg                40.02:  LATITUDE
 LONG.deg                51.45:  LONGITUDE
 WHNS.m                 -17.04:  WELL HEAD N/S
 WHEW.m                  -6.28:  WELL HEAD E/W
 UTMX.m              538763.98:  UTM X
 UTMY.m             4431880.20:  UTM Y
 DFWL.m                   0.00:  DISTANCE FWL
 DFSL.m                   0.00:  DISTANCE FSL
 SDEP.m                2680.01:  START DEPTH
 TDD .m                4000.01:  TOTAL DEPTH (DRILLER)
 VSDR.deg               225.71:  VERT SEC DIRECT
 GVFD.g                   1.00:  GRAVITY FIELD
 MFLD.nT              50353.00:  MAGNETIC FIELD
 MDIP.deg                59.49:  MAGNETIC DIP
 MDEC.deg                 6.46:  MAGNETIC DECL
 GRDC.deg                 0.29:  GRID CORRECTION
 AZTC.deg                 6.17:  AZM TOTAL CORR
 EPD .m                   0.00:  ELEVATION
 EGL .m                   0.00:  GROUND ELEVATION
 WDMS.m                 151.80:  WD ELEV
 APD .m                  43.60:  DEPTH ABOVE PD
 AGAP.m                  43.60:  AIR GAP
 VSEW.m                  -6.28:  VERT SEC E/W
 VSNS.m                 -17.04:  VERT SEC N/S
 DEP .m                2656.31:  DEPTH
 EKB .m                  43.60:  KB ELEVATION
 EDF .m                  43.60:  DF ELEVATION
 VSC .                       0:  VS TO CLOSURE
 MAGU.                 1851247:  MAGUTM CHECKSUM
~Parameter Information Block
#MNEM.UNIT       Value        Description
#---------     -----------    ---------------------------
 AV  .mps                 3.00:  Ann Velocity 
 AVMX.mps                 8.00:  Max Ann Veloc 
 AZIF.deg                 0.00:  Azm, Final 
 BHAT.                   Other:  BHA Type 
 BREV.rev                 0.00:  Rev Bit Total 
 BROT.°/30m               0.00:  Build Rotating 
 BS  .in                 10.25:  Bit Size 
 BTPL.psig              511.00:  Bit Press Loss 
 CABU.                      No:  Customer Abuse 
 CGEO.           Asif Pashayev:  Customer Geo 
 COMM.                     4'd:  Run Comments 1 
 TCS .hr                 24.03:  Time Ciculation Ended 
 CV  .mps                 3.50:  Crit Velocity 
 CVMX.mps                 4.00:  Max Crit Veloc 
 DD1 .             Aziz Aliyev:  Direct Drillr 1 
 DD2 .      Fakhraddin Guliyev:  Direct Drillr 2 
 DDSV.                   Other:  DD Service 
 DEFF.%                  99.00:  % Det Eff 
 DLRX.°/30m               0.00:  Dogleg Rot Max 
 DLSO.°/30m               0.00:  Dogleg Oriented 
 DLSX.°/30m               0.00:  Dogleg Str Max 
 DRET.      23.00.40 28-Mar-21:  Drill End Time 
 DRST.      23.30.40 25-Mar-21:  Drill Start Tim 
 DTIM.hr                  0.00:  Time Drilling 
 EDEP.m                3886.01:  End Depth 
 ENG1.         Almaz Almadatov:  Engineer 1 
 ENG2.      Artemiy Matviyanov:  Engineer 2 
 ENG3.           Samir Gafarov:  Engineer 3 
 ETIM.      23.00.40 28-Mar-21:  End Time 
 FLOI.gpm               550.00:  Flow In 
 FLON.gpm               500.00:  Flow In Min 
 FLOS.cptm                0.00:  Fluid Loss 
 FLOX.gpm               590.00:  Flow In Max 
 HFLO.                      No:  High Flow 
 HPRE.                      No:  High Pressure 
 HTEM.                      No:  High Temp 
 HYDO.m                   1.80:  Hydro Offset 
 IFIN.deg                 0.00:  Inc, Final 
 IMAX.deg                 0.00:  Inc Max 
 IMIN.deg                 0.00:  Inc Min 
 IMND.m                   0.00:  Inc Min Depth 
 IMXD.m                   0.00:  Inc Max Depth 
 JARR.                      No:  Jarring 
 LETM.      03.22.40 28-Mar-21:  Log End Time 
 LOST.hr                     0:  Lost Rig Time 
 LSTM.      23.30.40 25-Mar-21:  Log Start Time 
 MDCL.ppm             34000.00:  Mud Chlorides 
 MDES.     Inversion Oil/Synthetic:  Mud Desc 
 DFD .sg                  1.51:  Mud Density 
 MDMN.sg                  1.51:  Dens Mud Min 
 MDMX.sg                  1.51:  Dens Mud Max 
 MOIL.                      70:  Run Mud Oil % 
 MOWR.                   70:30:  Run Mud OWR 
 MSND.                     0.2:  Run Mud Sand % 
 MSOL.                   21.60:  Run Mud Solids% 
 DFV .spqt               74.00:  Mud Viscosity 
 MWOD.in                  6.75:  MWD Tool OD 
 MWSI.                      No:  Serv Intrp, MWD 
 OTIM.hr                 69.09:  Time Operating 
 PCON.           Look Like New:  Pad Condition 
 PMAX.psia             3500.00:  Press Op, Max 
 PV  .cP                 70.00:  Mud PV 
 RUN .                     400:  Run Number 
 ROPA.m/hr                0.00:  ROP Avg 
 ROPN.m/hr                0.00:  ROP Min 
 ROPX.m/hr                0.00:  ROP Max 
 RPMA.rpm                80.00:  RPM Surface Avg 
 RPMN.rpm                10.00:  RPM Surface Min 
 RPMX.rpm               100.00:  RPM Surface Max 
 RRUN.                    0400:  Rig Run Number 
 RTIM.hr                  3.00:  Time Reaming 
 SAZI.deg                 0.00:  Azm, Start 
 SDEP.m                3886.01:  Start Depth 
 SIDD.                      No:  Serv Intrp, DD 
 SINC.deg                 0.00:  Inc, Start 
 SPPA.psig             3270.00:  SPP Avg 
 SPPN.psig             3220.00:  SPP Min 
 SPPX.psig             4430.00:  SPP Max 
 STIM.      23.30.40 25-Mar-21:  Start Time 
 SVCS.                 DD, MWD:  Services 
 SVER.                    9.20:  Sperry Version 
 TDAT.m                   0.00:  Tot Depth Attmp 
 TDDF.                      No:  Trip for DD 
 TFF .                      No:  Trip for Fail 
 TQAA.f-kp                8.00:  Torque Abs Avg 
 TQAN.f-kp                7.00:  Torque Abs Min 
 TQAX.f-kp               11.00:  Torque Abs Max 
 TRRT.°/30m               0.00:  Turn Rotating 
 MRT .                  EWR-M5:  Maximum Recorded Temperature 
 TTMX.degC               76.47:  Max Tool Temp 
 VS01.                90640857:  Virtual Str1 SN 
 VS02.                90639246:  Virtual Str2 SN 
 VS03.                90642265:  Virtual Str3 SN 
 VS04.                11654497:  Virtual Str4 SN 
 WBMN.klb                 0.00:  WOB Min 
 WITN.      Kamran Keberlinkiy:  Customer Rep 
 WITN.           Murad Guliyev:  Customer Rep 2 
 WOBA.klb                 0.00:  WOB Avg 
 WOBX.klb                 0.00:  WOB Max 
 YP  .lhf2               36.00:  Yield Point 
~Curve Information Block
#MNEM.UNIT                 API CODE     Curve Description
#---------               -----------    ---------------------------
 TIME.HHMMSS            00 000 000 000:  GT Time & Date
 GTDEPTH.m              00 000 000 000:  GT Depth
 GTPQH.psia             00 000 000 000:  GT HR Quartz Pressure
 GTTQ.degC              00 000 000 000:  GT Quartz Temperature
 GTTN.NONE              00 000 000 000:  GT Test Number
 GTET.sec               00 000 000 000:  GT Elapsed Test Time
 GTTVD.m                00 000 000 000:  GT True Vertical Depth
#Other Information
#
#WARRANTY: Halliburton will use its best efforts to furnish customers with 
#accurate information and interpretations that are part of, and incident to, the services 
#provided.  However, Halliburton cannot and does not warrant the accuracy 
#or correctness of such information and interpretations.  Under no circumstances should any 
#such information or interpretation be relied upon as the sole basis for any drilling, 
#completion, production, or financial decision or any procedure involving any risk to the 
#safety of any drilling venture, drilling rig or its crew or any other third party.  The 
#Customer has full responsibility for all drilling, completion and production operation.  
#Halliburton makes no representations or warranties, either expressed or 
#implied, including, but not limited to, the implied warranties of merchantability or fitness 
#for a particular purpose, with respect to the services rendered.  In no event will 
#Halliburton be liable for failure to obtain any particular results or for 
#any damages, including, but not limited to, indirect, special or consequential damages, 
#resulting from the use of any information or interpretation provided by Halliburton.
#
~A           TIME           GTDEPTH  GTPQH  GTTQ  GTTN   GTET   GTTVD  
# ...
   12:20:15.650.27-Mar-2021 3369.01 4752.05 61.83 12.00 180.93 3116.52
   12:20:15.851.27-Mar-2021 3369.01 4757.44 61.84 12.00 181.13 3116.52
   12:20:16.051.27-Mar-2021 3369.01 4757.44 61.84 12.00 181.33 3116.52
   12:20:16.251.27-Mar-2021 3369.01 4765.58 61.84 12.00 181.53 3116.52
   12:20:16.451.27-Mar-2021 3369.01 4769.47 61.84 12.00 181.73 3116.52
   12:20:16.651.27-Mar-2021 3369.01 4773.31 61.84 12.00 181.93 3116.52
   12:20:16.851.27-Mar-2021 3369.01 4775.68 61.84 12.00 182.13 3116.52
   12:20:17.051.27-Mar-2021 3369.01 4775.68 61.84 12.00 182.33 3116.52
   12:20:17.252.27-Mar-2021 3369.01 4781.97 61.84 12.00 182.53 3116.52
   12:20:17.452.27-Mar-2021 3369.01 4784.90 61.84 12.00 182.73 3116.52
   12:20:17.652.27-Mar-2021 3369.01 4787.79 61.85 12.00 182.93 3116.52
   12:20:17.852.27-Mar-2021 3369.01 4789.91 61.85 12.00 183.13 3116.52
   12:20:18.052.27-Mar-2021 3369.01 4789.91 61.85 12.00 183.33 3116.52
   12:20:18.252.27-Mar-2021 3369.01 4794.99 61.85 12.00 183.53 3116.52
   12:20:18.452.27-Mar-2021 3369.01 4796.82 61.85 12.00 183.73 3116.52
   12:20:18.653.27-Mar-2021 3369.01 4798.57 61.85 12.00 183.93 3116.52
   12:20:18.853.27-Mar-2021 3369.01 4800.71 61.85 12.00 184.13 3116.52
   12:20:19.053.27-Mar-2021 3369.01 4800.71 61.85 12.00 184.33 3116.52
   12:20:19.253.27-Mar-2021 3369.01 4804.36 61.85 12.00 184.53 3116.52
   12:20:19.453.27-Mar-2021 3369.01 4805.93 61.85 12.00 184.73 3116.52
   12:20:19.653.27-Mar-2021 3369.01 4807.45 61.85 12.00 184.93 3116.52
   12:20:19.853.27-Mar-2021 3369.01 4809.16 61.85 12.00 185.13 3116.52
   12:20:20.054.27-Mar-2021 3369.01 4809.16 61.85 12.00 185.33 3116.52
   12:20:20.254.27-Mar-2021 3369.01 4811.42 61.85 12.00 185.53 3116.52
   12:20:20.454.27-Mar-2021 3369.01 4812.73 61.85 12.00 185.73 3116.52
   12:20:20.654.27-Mar-2021 3369.01 4814.08 61.86 12.00 185.93 3116.52
   12:20:20.854.27-Mar-2021 3369.01 4815.27 61.86 12.00 186.13 3116.52
   12:20:21.054.27-Mar-2021 3369.01 4815.27 61.86 12.00 186.33 3116.52
   12:20:21.254.27-Mar-2021 3369.01 4817.02 61.86 12.00 186.53 3116.52
   12:20:21.455.27-Mar-2021 3369.01 4818.18 61.86 12.00 186.73 3116.52
   12:20:21.655.27-Mar-2021 3369.01 4818.62 61.86 12.00 186.93 3116.52
   12:20:21.855.27-Mar-2021 3369.01 4819.52 61.86 12.00 187.13 3116.52
   12:20:22.055.27-Mar-2021 3369.01 4819.52 61.86 12.00 187.33 3116.52
   12:20:22.255.27-Mar-2021 3369.01 4821.72 61.86 12.00 187.53 3116.52
   12:20:22.455.27-Mar-2021 3369.01 4822.50 61.86 12.00 187.73 3116.52
   12:20:22.655.27-Mar-2021 3369.01 4823.03 61.86 12.00 187.93 3116.52
   12:20:22.856.27-Mar-2021 3369.01 4823.64 61.86 12.00 188.13 3116.52
   12:20:23.056.27-Mar-2021 3369.01 4823.64 61.86 12.00 188.33 3116.52
   12:20:23.256.27-Mar-2021 3369.01 4825.36 61.86 12.00 188.53 3116.52
   12:20:23.456.27-Mar-2021 3369.01 4825.85 61.86 12.00 188.73 3116.52
   12:20:23.656.27-Mar-2021 3369.01 4826.13 61.86 12.00 188.93 3116.52
   12:20:23.856.27-Mar-2021 3369.01 4827.40 61.86 12.00 189.13 3116.52
   12:20:24.056.27-Mar-2021 3369.01 4827.40 61.86 12.00 189.33 3116.52
   12:20:24.257.27-Mar-2021 3369.01 4828.04 61.86 12.00 189.53 3116.52
   12:20:24.457.27-Mar-2021 3369.01 4828.50 61.86 12.00 189.73 3116.52
   12:20:24.657.27-Mar-2021 3369.01 4828.49 61.86 12.00 189.93 3116.52
   12:20:24.857.27-Mar-2021 3369.01 4829.50 61.86 12.00 190.13 3116.52
   12:20:25.057.27-Mar-2021 3369.01 4829.50 61.86 12.00 190.33 3116.52
   12:20:25.257.27-Mar-2021 3369.01 4829.98 61.86 12.00 190.53 3116.52
   12:20:25.457.27-Mar-2021 3369.01 4830.01 61.86 12.00 190.73 3116.52
   12:20:25.658.27-Mar-2021 3369.01 4830.69 61.86 12.00 190.93 3116.52
   12:20:25.858.27-Mar-2021 3369.01 4830.97 61.86 12.00 191.14 3116.52
   12:20:26.058.27-Mar-2021 3369.01 4830.97 61.86 12.00 191.34 3116.52
   12:20:26.258.27-Mar-2021 3369.01 4832.20 61.86 12.00 191.54 3116.52
   12:20:26.458.27-Mar-2021 3369.01 4832.21 61.86 12.00 191.74 3116.52
   12:20:26.658.27-Mar-2021 3369.01 4832.53 61.86 12.00 191.94 3116.52
   12:20:26.858.27-Mar-2021 3369.01 4832.79 61.86 12.00 192.14 3116.52
   12:20:27.059.27-Mar-2021 3369.01 4832.79 61.86 12.00 192.34 3116.52
   12:20:27.259.27-Mar-2021 3369.01 4835.11 61.86 12.00 192.54 3116.52
   12:20:27.459.27-Mar-2021 3369.01 4835.18 61.86 12.00 192.74 3116.52
   12:20:27.659.27-Mar-2021 3369.01 4835.29 61.86 12.00 192.94 3116.52
   12:20:27.859.27-Mar-2021 3369.01 4835.68 61.86 12.00 193.14 3116.52
   12:20:28.059.27-Mar-2021 3369.01 4835.68 61.86 12.00 193.34 3116.52
   12:20:28.259.27-Mar-2021 3369.01 4835.77 61.86 12.00 193.54 3116.52
   12:20:28.459.27-Mar-2021 3369.01 4835.78 61.86 12.00 193.74 3116.52
   12:20:28.660.27-Mar-2021 3369.01 4836.09 61.86 12.00 193.94 3116.52
   12:20:28.860.27-Mar-2021 3369.01 4836.51 61.86 12.00 194.14 3116.52
   12:20:29.060.27-Mar-2021 3369.01 4836.51 61.86 12.00 194.34 3116.52
   12:20:29.260.27-Mar-2021 3369.01 4836.75 61.86 12.00 194.54 3116.52
   12:20:29.460.27-Mar-2021 3369.01 4836.83 61.86 12.00 194.74 3116.52
   12:20:29.660.27-Mar-2021 3369.01 4836.59 61.86 12.00 194.94 3116.52
   12:20:29.860.27-Mar-2021 3369.01 4836.61 61.86 12.00 195.14 3116.52
   12:20:30.061.27-Mar-2021 3369.01 4836.61 61.86 12.00 195.34 3116.52
   12:20:30.261.27-Mar-2021 3369.01 4837.57 61.86 12.00 195.54 3116.52
   12:20:30.461.27-Mar-2021 3369.01 4837.17 61.86 12.00 195.74 3116.52
   12:20:30.661.27-Mar-2021 3369.01 4837.60 61.86 12.00 195.94 3116.52
   12:20:30.861.27-Mar-2021 3369.01 4837.81 61.86 12.00 196.14 3116.52
   12:20:31.061.27-Mar-2021 3369.01 4837.81 61.86 12.00 196.34 3116.52
   12:20:31.261.27-Mar-2021 3369.01 4838.17 61.86 12.00 196.54 3116.52
   12:20:31.462.27-Mar-2021 3369.01 4838.24 61.86 12.00 196.74 3116.52
   12:20:31.662.27-Mar-2021 3369.01 4838.38 61.86 12.00 196.94 3116.52
   12:20:31.862.27-Mar-2021 3369.01 4838.72 61.86 12.00 197.14 3116.52
   12:20:32.062.27-Mar-2021 3369.01 4838.72 61.86 12.00 197.34 3116.52
   12:20:32.262.27-Mar-2021 3369.01 4838.47 61.86 12.00 197.54 3116.52
   12:20:32.462.27-Mar-2021 3369.01 4838.56 61.86 12.00 197.74 3116.52
   12:20:32.662.27-Mar-2021 3369.01 4838.38 61.86 12.00 197.94 3116.52
   12:20:32.863.27-Mar-2021 3369.01 4838.98 61.85 12.00 198.14 3116.52
   12:20:33.063.27-Mar-2021 3369.01 4838.98 61.85 12.00 198.34 3116.52
   12:20:33.263.27-Mar-2021 3369.01 4839.69 61.85 12.00 198.54 3116.52
   12:20:33.463.27-Mar-2021 3369.01 4839.57 61.85 12.00 198.74 3116.52
   12:20:33.663.27-Mar-2021 3369.01 4839.67 61.85 12.00 198.94 3116.52
   12:20:33.863.27-Mar-2021 3369.01 4839.69 61.85 12.00 199.14 3116.52
   12:20:34.063.27-Mar-2021 3369.01 4839.69 61.85 12.00 199.34 3116.52
   12:20:34.264.27-Mar-2021 3369.01 4840.34 61.85 12.00 199.54 3116.52
   12:20:34.464.27-Mar-2021 3369.01 4840.39 61.85 12.00 199.74 3116.52
   12:20:34.664.27-Mar-2021 3369.01 4840.29 61.85 12.00 199.94 3116.52
   12:20:34.864.27-Mar-2021 3369.01 4840.19 61.85 12.00 200.14 3116.52
   12:20:35.064.27-Mar-2021 3369.01 4840.19 61.85 12.00 200.34 3116.52
   12:20:35.264.27-Mar-2021 3369.01 4840.35 61.85 12.00 200.54 3116.52
   12:20:35.464.27-Mar-2021 3369.01 4840.03 61.85 12.00 200.74 3116.52
   12:20:35.665.27-Mar-2021 3369.01 4841.13 61.85 12.00 200.94 3116.52
   12:20:35.865.27-Mar-2021 3369.01 4841.07 61.85 12.00 201.14 3116.52
   12:20:36.065.27-Mar-2021 3369.01 4841.07 61.85 12.00 201.34 3116.52
   12:20:36.265.27-Mar-2021 3369.01 4840.99 61.85 12.00 201.54 3116.52
   12:20:36.465.27-Mar-2021 3369.01 4841.06 61.85 12.00 201.74 3116.52
   12:20:36.665.27-Mar-2021 3369.01 4841.15 61.85 12.00 201.94 3116.52
   12:20:36.865.27-Mar-2021 3369.01 4840.66 61.85 12.00 202.14 3116.52
   12:20:37.066.27-Mar-2021 3369.01 4840.66 61.85 12.00 202.34 3116.52
   12:20:37.266.27-Mar-2021 3369.01 4841.48 61.85 12.00 202.54 3116.52
   12:20:37.466.27-Mar-2021 3369.01 4840.98 61.85 12.00 202.74 3116.52
   12:20:37.666.27-Mar-2021 3369.01 4841.28 61.85 12.00 202.94 3116.52
   12:20:37.866.27-Mar-2021 3369.01 4841.08 61.85 12.00 203.14 3116.52
   12:20:38.066.27-Mar-2021 3369.01 4841.08 61.85 12.00 203.34 3116.52
