~Version Information
 VERS.                  2.0:   CWLS log ASCII Standard -VERSION 2.0
 WRAP.                   NO:   One line per depth step
~Well Information Block
#MNEM.UNIT     VALUE/NAME     DESCRIPTION
#---------     -----------    ---------------------------
 STRT.S             10:17:32 27-Mar-21: START TIME 10:17:32 27-Mar-21
 STOP.S             10:24:40 27-Mar-21: STOP TIME  10:24:40 27-Mar-21
 STEP.S                   0.00: STEP TIME
 NULL.                 -999.25: NULL VALUE
 DFWT.                        :  DIST FWL TEXT
 DFST.                        :  DIST FSL TEXT
 DMF .             Drill Floor:  DRILL MEAS FROM
 STIM.      20.26.40 11-Mar-21:  START TIME
 DATE.      20.26.40 30-Mar-21:  END TIME
 SPUD.               11-Mar-21:  SPUD DATE
 NREF.                    Grid:  NORTH REFERENCE
 HPTY.       Minimum Curvature:  HOLE POS TYPE
 DMOD.             Drill Model:  DRILL MOD DESC
 SVYD.                  Survey:  SURVEY DESC
 ILTD.               Lithology:  INTERP LTH DESC
 FTOP.          Formation Tops:  FORM TOPS DESC
 SON .        AZ-XX-0906805385:  JOB NUMBER
 WTYP.                Deviated:  WELL TYPE
 COMP.     BP Exploration (Caspian Sea) Ltd.:  COMPANY
 UWI .            /AZE00000198:  UNIQUE WELL IDENTIFIER
 API .            /AZE00000198:  API NUMBER
 BASE.              Azerbaijan:  LOGGING EQUIPMENT BASE LOCATION
 REGN.                   EESSA:  REGION
 PROV.                    Baku:  PROVINCE
 STAT.                    Baku:  STATE NAME
 CTRY.              Azerbaijan:  COUNTRY NAME
 FLD .                     ACG:  FIELD NAME
 SRVC.     Turan Drilling & Engineering:  CONTRACTOR
 MWDS.                    Baku:  MWD SHOP
 WELL.                    D09z:  WELL NAME
 JOBN.        AZ-XX-0906805385:  JOB TICKET NUMB
 RIG .              East Azeri:  RIG NAME
 DOE .                     N/A:  DOE NUMBER
 DCON.         Sperry Drilling:  DIRECTNL CONTR
 UNIT.                     N/A:  LOGGING EQUIPMENT ID
 PDAT.          Mean Sea Level:  PERMANENT DATUM
 MDS .        Operator Entered:  MAG DATA SOURCE
 CNTY.                        :  COUNTY
 LOC .                        :  LOCATION
 LMF .             Drill Floor:  LOG MEASURED FROM
 TVDS.m                  43.60:  TVDSS CORRECTN
 LATI.deg                40.02:  LATITUDE
 LONG.deg                51.45:  LONGITUDE
 WHNS.m                 -17.04:  WELL HEAD N/S
 WHEW.m                  -6.28:  WELL HEAD E/W
 UTMX.m              538763.98:  UTM X
 UTMY.m             4431880.20:  UTM Y
 DFWL.m                   0.00:  DISTANCE FWL
 DFSL.m                   0.00:  DISTANCE FSL
 SDEP.m                2680.01:  START DEPTH
 TDD .m                4000.01:  TOTAL DEPTH (DRILLER)
 VSDR.deg               225.71:  VERT SEC DIRECT
 GVFD.g                   1.00:  GRAVITY FIELD
 MFLD.nT              50353.00:  MAGNETIC FIELD
 MDIP.deg                59.49:  MAGNETIC DIP
 MDEC.deg                 6.46:  MAGNETIC DECL
 GRDC.deg                 0.29:  GRID CORRECTION
 AZTC.deg                 6.17:  AZM TOTAL CORR
 EPD .m                   0.00:  ELEVATION
 EGL .m                   0.00:  GROUND ELEVATION
 WDMS.m                 151.80:  WD ELEV
 APD .m                  43.60:  DEPTH ABOVE PD
 AGAP.m                  43.60:  AIR GAP
 VSEW.m                  -6.28:  VERT SEC E/W
 VSNS.m                 -17.04:  VERT SEC N/S
 DEP .m                2656.31:  DEPTH
 EKB .m                  43.60:  KB ELEVATION
 EDF .m                  43.60:  DF ELEVATION
 VSC .                       0:  VS TO CLOSURE
 MAGU.                 1851247:  MAGUTM CHECKSUM
~Parameter Information Block
#MNEM.UNIT       Value        Description
#---------     -----------    ---------------------------
 AV  .mps                 3.00:  Ann Velocity 
 AVMX.mps                 8.00:  Max Ann Veloc 
 AZIF.deg                 0.00:  Azm, Final 
 BHAT.                   Other:  BHA Type 
 BREV.rev                 0.00:  Rev Bit Total 
 BROT.°/30m               0.00:  Build Rotating 
 BS  .in                 10.25:  Bit Size 
 BTPL.psig              511.00:  Bit Press Loss 
 CABU.                      No:  Customer Abuse 
 CGEO.           Asif Pashayev:  Customer Geo 
 COMM.                     LLx:  Run Comments 1 
 TCS .hr                 24.03:  Time Ciculation Ended 
 CV  .mps                 3.50:  Crit Velocity 
 CVMX.mps                 4.00:  Max Crit Veloc 
 DD1 .             Aziz Aliyev:  Direct Drillr 1 
 DD2 .      Fakhraddin Guliyev:  Direct Drillr 2 
 DDSV.                   Other:  DD Service 
 DEFF.%                  99.00:  % Det Eff 
 DLRX.°/30m               0.00:  Dogleg Rot Max 
 DLSO.°/30m               0.00:  Dogleg Oriented 
 DLSX.°/30m               0.00:  Dogleg Str Max 
 DRET.      23.00.40 28-Mar-21:  Drill End Time 
 DRST.      23.30.40 25-Mar-21:  Drill Start Tim 
 DTIM.hr                  0.00:  Time Drilling 
 EDEP.m                3886.01:  End Depth 
 ENG1.         Almaz Almadatov:  Engineer 1 
 ENG2.      Artemiy Matviyanov:  Engineer 2 
 ENG3.           Samir Gafarov:  Engineer 3 
 ETIM.      23.00.40 28-Mar-21:  End Time 
 FLOI.gpm               550.00:  Flow In 
 FLON.gpm               500.00:  Flow In Min 
 FLOS.cptm                0.00:  Fluid Loss 
 FLOX.gpm               590.00:  Flow In Max 
 HFLO.                      No:  High Flow 
 HPRE.                      No:  High Pressure 
 HTEM.                      No:  High Temp 
 HYDO.m                   1.80:  Hydro Offset 
 IFIN.deg                 0.00:  Inc, Final 
 IMAX.deg                 0.00:  Inc Max 
 IMIN.deg                 0.00:  Inc Min 
 IMND.m                   0.00:  Inc Min Depth 
 IMXD.m                   0.00:  Inc Max Depth 
 JARR.                      No:  Jarring 
 LETM.      03.22.40 28-Mar-21:  Log End Time 
 LOST.hr                     0:  Lost Rig Time 
 LSTM.      23.30.40 25-Mar-21:  Log Start Time 
 MDCL.ppm             34000.00:  Mud Chlorides 
 MDES.     Inversion Oil/Synthetic:  Mud Desc 
 DFD .sg                  1.51:  Mud Density 
 MDMN.sg                  1.51:  Dens Mud Min 
 MDMX.sg                  1.51:  Dens Mud Max 
 MOIL.                      70:  Run Mud Oil % 
 MOWR.                   70:30:  Run Mud OWR 
 MSND.                     0.2:  Run Mud Sand % 
 MSOL.                   21.60:  Run Mud Solids% 
 DFV .spqt               74.00:  Mud Viscosity 
 MWOD.in                  6.75:  MWD Tool OD 
 MWSI.                      No:  Serv Intrp, MWD 
 OTIM.hr                 69.09:  Time Operating 
 PCON.           Look Like New:  Pad Condition 
 PMAX.psia             3500.00:  Press Op, Max 
 PV  .cP                 70.00:  Mud PV 
 RUN .                     400:  Run Number 
 ROPA.m/hr                0.00:  ROP Avg 
 ROPN.m/hr                0.00:  ROP Min 
 ROPX.m/hr                0.00:  ROP Max 
 RPMA.rpm                80.00:  RPM Surface Avg 
 RPMN.rpm                10.00:  RPM Surface Min 
 RPMX.rpm               100.00:  RPM Surface Max 
 RRUN.                    0400:  Rig Run Number 
 RTIM.hr                  3.00:  Time Reaming 
 SAZI.deg                 0.00:  Azm, Start 
 SDEP.m                3886.01:  Start Depth 
 SIDD.                      No:  Serv Intrp, DD 
 SINC.deg                 0.00:  Inc, Start 
 SPPA.psig             3270.00:  SPP Avg 
 SPPN.psig             3220.00:  SPP Min 
 SPPX.psig             4430.00:  SPP Max 
 STIM.      23.30.40 25-Mar-21:  Start Time 
 SVCS.                 DD, MWD:  Services 
 SVER.                    9.20:  Sperry Version 
 TDAT.m                   0.00:  Tot Depth Attmp 
 TDDF.                      No:  Trip for DD 
 TFF .                      No:  Trip for Fail 
 TQAA.f-kp                8.00:  Torque Abs Avg 
 TQAN.f-kp                7.00:  Torque Abs Min 
 TQAX.f-kp               11.00:  Torque Abs Max 
 TRRT.°/30m               0.00:  Turn Rotating 
 MRT .                  EWR-M5:  Maximum Recorded Temperature 
 TTMX.degC               76.47:  Max Tool Temp 
 VS01.                90640857:  Virtual Str1 SN 
 VS02.                90639246:  Virtual Str2 SN 
 VS03.                90642265:  Virtual Str3 SN 
 VS04.                11654497:  Virtual Str4 SN 
 WBMN.klb                 0.00:  WOB Min 
 WITN.      Kamran Keberlinkiy:  Customer Rep 
 WITN.           Murad Guliyev:  Customer Rep 2 
 WOBA.klb                 0.00:  WOB Avg 
 WOBX.klb                 0.00:  WOB Max 
 YP  .lhf2               36.00:  Yield Point 
~Curve Information Block
#MNEM.UNIT                 API CODE     Curve Description
#---------               -----------    ---------------------------
 TIME.HHMMSS            00 000 000 000:  GT Time & Date
 GTDEPTH.m              00 000 000 000:  GT Depth
 GTPQH.psia             00 000 000 000:  GT HR Quartz Pressure
 GTTQ.degC              00 000 000 000:  GT Quartz Temperature
 GTTN.NONE              00 000 000 000:  GT Test Number
 GTET.sec               00 000 000 000:  GT Elapsed Test Time
 GTTVD.m                00 000 000 000:  GT True Vertical Depth
#Other Information
#
#WARRANTY: Halliburton will use its best efforts to furnish customers with 
#accurate information and interpretations that are part of, and incident to, the services 
#provided.  However, Halliburton cannot and does not warrant the accuracy 
#or correctness of such information and interpretations.  Under no circumstances should any 
#such information or interpretation be relied upon as the sole basis for any drilling, 
#completion, production, or financial decision or any procedure involving any risk to the 
#safety of any drilling venture, drilling rig or its crew or any other third party.  The 
#Customer has full responsibility for all drilling, completion and production operation.  
#Halliburton makes no representations or warranties, either expressed or 
#implied, including, but not limited to, the implied warranties of merchantability or fitness 
#for a particular purpose, with respect to the services rendered.  In no event will 
#Halliburton be liable for failure to obtain any particular results or for 
#any damages, including, but not limited to, indirect, special or consequential damages, 
#resulting from the use of any information or interpretation provided by Halliburton.
#
~A           TIME           GTDEPTH  GTPQH  GTTQ  GTTN   GTET   GTTVD  
# ...
   10:20:10.200.27-Mar-2021 3325.51 4588.61 61.05 10.00 158.20 3075.77
   10:20:10.400.27-Mar-2021 3325.51 4588.61 61.05 10.00 158.40 3075.77
   10:20:10.600.27-Mar-2021 3325.51 4583.90 61.05 10.00 158.60 3075.77
   10:20:10.800.27-Mar-2021 3325.51 4500.81 61.05 10.00 158.80 3075.77
   10:20:11.000.27-Mar-2021 3325.51 4483.67 61.05 10.00 159.00 3075.77
   10:20:11.200.27-Mar-2021 3325.51 4483.67 61.05 10.00 159.20 3075.77
   10:20:11.400.27-Mar-2021 3325.51 4487.41 61.05 10.00 159.40 3075.77
   10:20:11.600.27-Mar-2021 3325.51 4489.44 61.05 10.00 159.60 3075.77
   10:20:11.800.27-Mar-2021 3325.51 4487.54 61.05 10.00 159.80 3075.77
   10:20:12.000.27-Mar-2021 3325.51 4488.63 61.05 10.00 160.00 3075.77
   10:20:12.200.27-Mar-2021 3325.51 4488.63 61.05 10.00 160.20 3075.77
   10:20:12.400.27-Mar-2021 3325.51 4488.17 61.05 10.00 160.40 3075.77
   10:20:12.600.27-Mar-2021 3325.51 4490.11 61.05 10.00 160.60 3075.77
   10:20:12.800.27-Mar-2021 3325.51 4488.36 61.05 10.00 160.80 3075.77
   10:20:13.000.27-Mar-2021 3325.51 4487.29 61.05 10.00 161.00 3075.77
   10:20:13.200.27-Mar-2021 3325.51 4487.29 61.05 10.00 161.20 3075.77
   10:20:13.400.27-Mar-2021 3325.51 4488.05 61.05 10.00 161.40 3075.77
   10:20:13.600.27-Mar-2021 3325.51 4488.53 61.05 10.00 161.60 3075.77
   10:20:13.800.27-Mar-2021 3325.51 4488.09 61.05 10.00 161.80 3075.77
   10:20:14.000.27-Mar-2021 3325.51 4489.81 61.05 10.00 162.00 3075.77
   10:20:14.200.27-Mar-2021 3325.51 4489.81 61.05 10.00 162.20 3075.77
   10:20:14.400.27-Mar-2021 3325.51 4490.11 61.05 10.00 162.40 3075.77
   10:20:14.600.27-Mar-2021 3325.51 4488.43 61.05 10.00 162.60 3075.77
   10:20:14.800.27-Mar-2021 3325.51 4490.48 61.05 10.00 162.80 3075.77
   10:20:15.000.27-Mar-2021 3325.51 4490.05 61.05 10.00 163.00 3075.77
   10:20:15.200.27-Mar-2021 3325.51 4490.05 61.05 10.00 163.20 3075.77
   10:20:15.400.27-Mar-2021 3325.51 4487.27 61.05 10.00 163.40 3075.77
   10:20:15.600.27-Mar-2021 3325.51 4487.22 61.05 10.00 163.60 3075.77
   10:20:15.800.27-Mar-2021 3325.51 4487.25 61.05 10.00 163.80 3075.77
   10:20:16.000.27-Mar-2021 3325.51 4488.39 61.05 10.00 164.00 3075.77
   10:20:16.200.27-Mar-2021 3325.51 4488.39 61.05 10.00 164.20 3075.77
   10:20:16.400.27-Mar-2021 3325.51 4487.39 61.05 10.00 164.40 3075.77
   10:20:16.600.27-Mar-2021 3325.51 4489.74 61.05 10.00 164.60 3075.77
   10:20:16.800.27-Mar-2021 3325.51 4489.11 61.05 10.00 164.80 3075.77
   10:20:17.000.27-Mar-2021 3325.51 4490.01 61.05 10.00 165.00 3075.77
   10:20:17.200.27-Mar-2021 3325.51 4490.01 61.05 10.00 165.20 3075.77
   10:20:17.400.27-Mar-2021 3325.51 4490.19 61.05 10.00 165.40 3075.77
   10:20:17.600.27-Mar-2021 3325.51 4491.09 61.05 10.00 165.60 3075.77
   10:20:17.800.27-Mar-2021 3325.51 4490.28 61.05 10.00 165.80 3075.77
   10:20:18.000.27-Mar-2021 3325.51 4490.96 61.05 10.00 166.00 3075.77
   10:20:18.200.27-Mar-2021 3325.51 4490.96 61.05 10.00 166.20 3075.77
   10:20:18.400.27-Mar-2021 3325.51 4487.98 61.05 10.00 166.40 3075.77
   10:20:18.600.27-Mar-2021 3325.51 4489.64 61.05 10.00 166.60 3075.77
   10:20:18.800.27-Mar-2021 3325.51 4489.23 61.05 10.00 166.80 3075.77
   10:20:19.000.27-Mar-2021 3325.51 4488.86 61.05 10.00 167.00 3075.77
   10:20:19.200.27-Mar-2021 3325.51 4488.86 61.05 10.00 167.20 3075.77
   10:20:19.400.27-Mar-2021 3325.51 4491.89 61.05 10.00 167.40 3075.77
   10:20:19.600.27-Mar-2021 3325.51 4491.45 61.05 10.00 167.60 3075.77
   10:20:19.800.27-Mar-2021 3325.51 4491.54 61.05 10.00 167.80 3075.77
   10:20:20.000.27-Mar-2021 3325.51 4491.07 61.05 10.00 168.00 3075.77
   10:20:20.200.27-Mar-2021 3325.51 4491.07 61.05 10.00 168.20 3075.77
   10:20:20.400.27-Mar-2021 3325.51 4489.99 61.05 10.00 168.40 3075.77
   10:20:20.600.27-Mar-2021 3325.51 4490.18 61.05 10.00 168.60 3075.77
   10:20:20.800.27-Mar-2021 3325.51 4532.85 61.05 10.00 168.80 3075.77
   10:20:21.000.27-Mar-2021 3325.51 4586.11 61.05 10.00 169.00 3075.77
   10:20:21.200.27-Mar-2021 3325.51 4586.11 61.05 10.00 169.20 3075.77
   10:20:21.400.27-Mar-2021 3325.51 4587.56 61.05 10.00 169.40 3075.77
   10:20:21.600.27-Mar-2021 3325.51 4587.55 61.05 10.00 169.60 3075.77
   10:20:21.800.27-Mar-2021 3325.51 4587.71 61.05 10.00 169.80 3075.77
   10:20:22.000.27-Mar-2021 3325.51 4587.79 61.05 10.00 170.00 3075.77
   10:20:22.200.27-Mar-2021 3325.51 4587.79 61.05 10.00 170.20 3075.77
   10:20:22.400.27-Mar-2021 3325.51 4587.86 61.05 10.00 170.40 3075.77
   10:20:22.600.27-Mar-2021 3325.51 4587.91 61.05 10.00 170.60 3075.77
   10:20:22.800.27-Mar-2021 3325.51 4587.88 61.05 10.00 170.80 3075.77
   10:20:23.000.27-Mar-2021 3325.51 4587.88 61.05 10.00 171.00 3075.77
   10:20:23.200.27-Mar-2021 3325.51 4587.88 61.05 10.00 171.20 3075.77
   10:20:23.400.27-Mar-2021 3325.51 4588.01 61.05 10.00 171.40 3075.77
   10:20:23.600.27-Mar-2021 3325.51 4588.06 61.05 10.00 171.60 3075.77
   10:20:23.800.27-Mar-2021 3325.51 4588.11 61.05 10.00 171.80 3075.77
   10:20:24.000.27-Mar-2021 3325.51 4588.06 61.05 10.00 172.00 3075.77
   10:20:24.200.27-Mar-2021 3325.51 4588.06 61.05 10.00 172.20 3075.77
   10:20:24.400.27-Mar-2021 3325.51 4588.04 61.05 10.00 172.40 3075.77
   10:20:24.600.27-Mar-2021 3325.51 4588.19 61.05 10.00 172.60 3075.77
   10:20:24.800.27-Mar-2021 3325.51 4588.15 61.05 10.00 172.80 3075.77
   10:20:25.000.27-Mar-2021 3325.51 4588.15 61.05 10.00 173.00 3075.77
   10:20:25.200.27-Mar-2021 3325.51 4588.15 61.05 10.00 173.20 3075.77
   10:20:25.400.27-Mar-2021 3325.51 4588.22 61.05 10.00 173.40 3075.77
   10:20:25.600.27-Mar-2021 3325.51 4588.17 61.05 10.00 173.60 3075.77
   10:20:25.800.27-Mar-2021 3325.51 4588.22 61.05 10.00 173.80 3075.77
   10:20:26.000.27-Mar-2021 3325.51 4588.22 61.05 10.00 174.00 3075.77
   10:20:26.200.27-Mar-2021 3325.51 4588.22 61.05 10.00 174.20 3075.77
   10:20:26.400.27-Mar-2021 3325.51 4588.18 61.05 10.00 174.40 3075.77
   10:20:26.600.27-Mar-2021 3325.51 4588.40 61.05 10.00 174.60 3075.77
   10:20:26.800.27-Mar-2021 3325.51 4588.30 61.05 10.00 174.80 3075.77
   10:20:27.000.27-Mar-2021 3325.51 4588.24 61.05 10.00 175.00 3075.77
   10:20:27.200.27-Mar-2021 3325.51 4588.24 61.05 10.00 175.20 3075.77
   10:20:27.400.27-Mar-2021 3325.51 4588.26 61.05 10.00 175.40 3075.77
   10:20:27.600.27-Mar-2021 3325.51 4588.21 61.05 10.00 175.60 3075.77
   10:20:27.800.27-Mar-2021 3325.51 4588.39 61.05 10.00 175.80 3075.77
   10:20:28.000.27-Mar-2021 3325.51 4588.29 61.05 10.00 176.00 3075.77
   10:20:28.200.27-Mar-2021 3325.51 4588.29 61.05 10.00 176.20 3075.77
   10:20:28.400.27-Mar-2021 3325.51 4588.33 61.05 10.00 176.40 3075.77
   10:20:28.600.27-Mar-2021 3325.51 4588.31 61.05 10.00 176.60 3075.77
   10:20:28.800.27-Mar-2021 3325.51 4588.52 61.05 10.00 176.80 3075.77
   10:20:29.000.27-Mar-2021 3325.51 4588.24 61.05 10.00 177.00 3075.77
   10:20:29.200.27-Mar-2021 3325.51 4588.24 61.05 10.00 177.20 3075.77
   10:20:29.400.27-Mar-2021 3325.51 4588.20 61.05 10.00 177.40 3075.77
   10:20:29.600.27-Mar-2021 3325.51 4588.38 61.05 10.00 177.60 3075.77
   10:20:29.800.27-Mar-2021 3325.51 4588.31 61.05 10.00 177.80 3075.77
   10:20:30.000.27-Mar-2021 3325.51 4588.29 61.05 10.00 178.00 3075.77
   10:20:30.200.27-Mar-2021 3325.51 4588.29 61.05 10.00 178.20 3075.77
   10:20:30.400.27-Mar-2021 3325.51 4588.48 61.05 10.00 178.40 3075.77
   10:20:30.600.27-Mar-2021 3325.51 4588.19 61.05 10.00 178.60 3075.77
   10:20:30.800.27-Mar-2021 3325.51 4588.35 61.05 10.00 178.80 3075.77
   10:20:31.000.27-Mar-2021 3325.51 4588.31 61.05 10.00 179.00 3075.77
   10:20:31.200.27-Mar-2021 3325.51 4588.31 61.05 10.00 179.20 3075.77
   10:20:31.400.27-Mar-2021 3325.51 4588.35 61.05 10.00 179.40 3075.77
   10:20:31.600.27-Mar-2021 3325.51 4588.32 61.05 10.00 179.60 3075.77
   10:20:31.800.27-Mar-2021 3325.51 4588.32 61.05 10.00 179.80 3075.77
   10:20:32.000.27-Mar-2021 3325.51 4588.38 61.05 10.00 180.00 3075.77
   10:20:32.200.27-Mar-2021 3325.51 4588.38 61.05 10.00 180.20 3075.77
   10:20:32.400.27-Mar-2021 3325.51 4588.39 61.05 10.00 180.40 3075.77
   10:20:32.600.27-Mar-2021 3325.51 4588.31 61.05 10.00 180.60 3075.77
