~Version Information
 VERS.                  2.0:   CWLS log ASCII Standard -VERSION 2.0
 WRAP.                   NO:   One line per depth step
~Well Information Block
#MNEM.UNIT     VALUE/NAME     DESCRIPTION
#---------     -----------    ---------------------------
 STRT.S             10:17:32 27-Mar-21: START TIME 10:17:32 27-Mar-21
 STOP.S             10:24:40 27-Mar-21: STOP TIME  10:24:40 27-Mar-21
 STEP.S                   0.00: STEP TIME
 NULL.                 -999.25: NULL VALUE
 DFWT.                        :  DIST FWL TEXT
 DFST.                        :  DIST FSL TEXT
 DMF .             Drill Floor:  DRILL MEAS FROM
 STIM.      20.26.40 11-Mar-21:  START TIME
 DATE.      20.26.40 30-Mar-21:  END TIME
 SPUD.               11-Mar-21:  SPUD DATE
 NREF.                    Grid:  NORTH REFERENCE
 HPTY.       Minimum Curvature:  HOLE POS TYPE
 DMOD.             Drill Model:  DRILL MOD DESC
 SVYD.                  Survey:  SURVEY DESC
 ILTD.               Lithology:  INTERP LTH DESC
 FTOP.          Formation Tops:  FORM TOPS DESC
 SON .        AZ-XX-0906805385:  JOB NUMBER
 WTYP.                Deviated:  WELL TYPE
 COMP.     BP Exploration (Caspian Sea) Ltd.:  COMPANY
 UWI .            /AZE00000198:  UNIQUE WELL IDENTIFIER
 API .            /AZE00000198:  API NUMBER
 BASE.              Azerbaijan:  LOGGING EQUIPMENT BASE LOCATION
 REGN.                   EESSA:  REGION
 PROV.                    Baku:  PROVINCE
 STAT.                    Baku:  STATE NAME
 CTRY.              Azerbaijan:  COUNTRY NAME
 FLD .                     ACG:  FIELD NAME
 SRVC.     Turan Drilling & Engineering:  CONTRACTOR
 MWDS.                    Baku:  MWD SHOP
 WELL.                    D09z:  WELL NAME
 JOBN.        AZ-XX-0906805385:  JOB TICKET NUMB
 RIG .              East Azeri:  RIG NAME
 DOE .                     N/A:  DOE NUMBER
 DCON.         Sperry Drilling:  DIRECTNL CONTR
 UNIT.                     N/A:  LOGGING EQUIPMENT ID
 PDAT.          Mean Sea Level:  PERMANENT DATUM
 MDS .        Operator Entered:  MAG DATA SOURCE
 CNTY.                        :  COUNTY
 LOC .                        :  LOCATION
 LMF .             Drill Floor:  LOG MEASURED FROM
 TVDS.m                  43.60:  TVDSS CORRECTN
 LATI.deg                40.02:  LATITUDE
 LONG.deg                51.45:  LONGITUDE
 WHNS.m                 -17.04:  WELL HEAD N/S
 WHEW.m                  -6.28:  WELL HEAD E/W
 UTMX.m              538763.98:  UTM X
 UTMY.m             4431880.20:  UTM Y
 DFWL.m                   0.00:  DISTANCE FWL
 DFSL.m                   0.00:  DISTANCE FSL
 SDEP.m                2680.01:  START DEPTH
 TDD .m                4000.01:  TOTAL DEPTH (DRILLER)
 VSDR.deg               225.71:  VERT SEC DIRECT
 GVFD.g                   1.00:  GRAVITY FIELD
 MFLD.nT              50353.00:  MAGNETIC FIELD
 MDIP.deg                59.49:  MAGNETIC DIP
 MDEC.deg                 6.46:  MAGNETIC DECL
 GRDC.deg                 0.29:  GRID CORRECTION
 AZTC.deg                 6.17:  AZM TOTAL CORR
 EPD .m                   0.00:  ELEVATION
 EGL .m                   0.00:  GROUND ELEVATION
 WDMS.m                 151.80:  WD ELEV
 APD .m                  43.60:  DEPTH ABOVE PD
 AGAP.m                  43.60:  AIR GAP
 VSEW.m                  -6.28:  VERT SEC E/W
 VSNS.m                 -17.04:  VERT SEC N/S
 DEP .m                2656.31:  DEPTH
 EKB .m                  43.60:  KB ELEVATION
 EDF .m                  43.60:  DF ELEVATION
 VSC .                       0:  VS TO CLOSURE
 MAGU.                 1851247:  MAGUTM CHECKSUM
~Parameter Information Block
#MNEM.UNIT       Value        Description
#---------     -----------    ---------------------------
 AV  .mps                 3.00:  Ann Velocity 
 AVMX.mps                 8.00:  Max Ann Veloc 
 AZIF.deg                 0.00:  Azm, Final 
 BHAT.                   Other:  BHA Type 
 BREV.rev                 0.00:  Rev Bit Total 
 BROT.°/30m               0.00:  Build Rotating 
 BS  .in                 10.25:  Bit Size 
 BTPL.psig              511.00:  Bit Press Loss 
 CABU.                      No:  Customer Abuse 
 CGEO.           Asif Pashayev:  Customer Geo 
 COMM.                     LLx:  Run Comments 1 
 TCS .hr                 24.03:  Time Ciculation Ended 
 CV  .mps                 3.50:  Crit Velocity 
 CVMX.mps                 4.00:  Max Crit Veloc 
 DD1 .             Aziz Aliyev:  Direct Drillr 1 
 DD2 .      Fakhraddin Guliyev:  Direct Drillr 2 
 DDSV.                   Other:  DD Service 
 DEFF.%                  99.00:  % Det Eff 
 DLRX.°/30m               0.00:  Dogleg Rot Max 
 DLSO.°/30m               0.00:  Dogleg Oriented 
 DLSX.°/30m               0.00:  Dogleg Str Max 
 DRET.      23.00.40 28-Mar-21:  Drill End Time 
 DRST.      23.30.40 25-Mar-21:  Drill Start Tim 
 DTIM.hr                  0.00:  Time Drilling 
 EDEP.m                3886.01:  End Depth 
 ENG1.         Almaz Almadatov:  Engineer 1 
 ENG2.      Artemiy Matviyanov:  Engineer 2 
 ENG3.           Samir Gafarov:  Engineer 3 
 ETIM.      23.00.40 28-Mar-21:  End Time 
 FLOI.gpm               550.00:  Flow In 
 FLON.gpm               500.00:  Flow In Min 
 FLOS.cptm                0.00:  Fluid Loss 
 FLOX.gpm               590.00:  Flow In Max 
 HFLO.                      No:  High Flow 
 HPRE.                      No:  High Pressure 
 HTEM.                      No:  High Temp 
 HYDO.m                   1.80:  Hydro Offset 
 IFIN.deg                 0.00:  Inc, Final 
 IMAX.deg                 0.00:  Inc Max 
 IMIN.deg                 0.00:  Inc Min 
 IMND.m                   0.00:  Inc Min Depth 
 IMXD.m                   0.00:  Inc Max Depth 
 JARR.                      No:  Jarring 
 LETM.      03.22.40 28-Mar-21:  Log End Time 
 LOST.hr                     0:  Lost Rig Time 
 LSTM.      23.30.40 25-Mar-21:  Log Start Time 
 MDCL.ppm             34000.00:  Mud Chlorides 
 MDES.     Inversion Oil/Synthetic:  Mud Desc 
 DFD .sg                  1.51:  Mud Density 
 MDMN.sg                  1.51:  Dens Mud Min 
 MDMX.sg                  1.51:  Dens Mud Max 
 MOIL.                      70:  Run Mud Oil % 
 MOWR.                   70:30:  Run Mud OWR 
 MSND.                     0.2:  Run Mud Sand % 
 MSOL.                   21.60:  Run Mud Solids% 
 DFV .spqt               74.00:  Mud Viscosity 
 MWOD.in                  6.75:  MWD Tool OD 
 MWSI.                      No:  Serv Intrp, MWD 
 OTIM.hr                 69.09:  Time Operating 
 PCON.           Look Like New:  Pad Condition 
 PMAX.psia             3500.00:  Press Op, Max 
 PV  .cP                 70.00:  Mud PV 
 RUN .                     400:  Run Number 
 ROPA.m/hr                0.00:  ROP Avg 
 ROPN.m/hr                0.00:  ROP Min 
 ROPX.m/hr                0.00:  ROP Max 
 RPMA.rpm                80.00:  RPM Surface Avg 
 RPMN.rpm                10.00:  RPM Surface Min 
 RPMX.rpm               100.00:  RPM Surface Max 
 RRUN.                    0400:  Rig Run Number 
 RTIM.hr                  3.00:  Time Reaming 
 SAZI.deg                 0.00:  Azm, Start 
 SDEP.m                3886.01:  Start Depth 
 SIDD.                      No:  Serv Intrp, DD 
 SINC.deg                 0.00:  Inc, Start 
 SPPA.psig             3270.00:  SPP Avg 
 SPPN.psig             3220.00:  SPP Min 
 SPPX.psig             4430.00:  SPP Max 
 STIM.      23.30.40 25-Mar-21:  Start Time 
 SVCS.                 DD, MWD:  Services 
 SVER.                    9.20:  Sperry Version 
 TDAT.m                   0.00:  Tot Depth Attmp 
 TDDF.                      No:  Trip for DD 
 TFF .                      No:  Trip for Fail 
 TQAA.f-kp                8.00:  Torque Abs Avg 
 TQAN.f-kp                7.00:  Torque Abs Min 
 TQAX.f-kp               11.00:  Torque Abs Max 
 TRRT.°/30m               0.00:  Turn Rotating 
 MRT .                  EWR-M5:  Maximum Recorded Temperature 
 TTMX.degC               76.47:  Max Tool Temp 
 VS01.                90640857:  Virtual Str1 SN 
 VS02.                90639246:  Virtual Str2 SN 
 VS03.                90642265:  Virtual Str3 SN 
 VS04.                11654497:  Virtual Str4 SN 
 WBMN.klb                 0.00:  WOB Min 
 WITN.      Kamran Keberlinkiy:  Customer Rep 
 WITN.           Murad Guliyev:  Customer Rep 2 
 WOBA.klb                 0.00:  WOB Avg 
 WOBX.klb                 0.00:  WOB Max 
 YP  .lhf2               36.00:  Yield Point 
~Curve Information Block
#MNEM.UNIT                 API CODE     Curve Description
#---------               -----------    ---------------------------
 TIME.HHMMSS            00 000 000 000:  GT Time & Date
 GTDEPTH.m              00 000 000 000:  GT Depth
 GTPQH.psia             00 000 000 000:  GT HR Quartz Pressure
 GTTQ.degC              00 000 000 000:  GT Quartz Temperature
 GTTN.NONE              00 000 000 000:  GT Test Number
 GTET.sec               00 000 000 000:  GT Elapsed Test Time
 GTTVD.m                00 000 000 000:  GT True Vertical Depth
#Other Information
#
#WARRANTY: Halliburton will use its best efforts to furnish customers with 
#accurate information and interpretations that are part of, and incident to, the services 
#provided.  However, Halliburton cannot and does not warrant the accuracy 
#or correctness of such information and interpretations.  Under no circumstances should any 
#such information or interpretation be relied upon as the sole basis for any drilling, 
#completion, production, or financial decision or any procedure involving any risk to the 
#safety of any drilling venture, drilling rig or its crew or any other third party.  The 
#Customer has full responsibility for all drilling, completion and production operation.  
#Halliburton makes no representations or warranties, either expressed or 
#implied, including, but not limited to, the implied warranties of merchantability or fitness 
#for a particular purpose, with respect to the services rendered.  In no event will 
#Halliburton be liable for failure to obtain any particular results or for 
#any damages, including, but not limited to, indirect, special or consequential damages, 
#resulting from the use of any information or interpretation provided by Halliburton.
#
~A           TIME           GTDEPTH  GTPQH  GTTQ  GTTN   GTET   GTTVD  
# ...
   10:23:56.200.27-Mar-2021 3325.51 7170.43 61.17 10.00 384.20 3075.77
   10:23:56.400.27-Mar-2021 3325.51 7169.39 61.17 10.00 384.40 3075.77
   10:23:56.600.27-Mar-2021 3325.51 7171.38 61.17 10.00 384.60 3075.77
   10:23:56.800.27-Mar-2021 3325.51 7171.43 61.17 10.00 384.80 3075.77
   10:23:57.000.27-Mar-2021 3325.51 7170.85 61.17 10.00 385.00 3075.77
   10:23:57.200.27-Mar-2021 3325.51 7170.85 61.17 10.00 385.20 3075.77
   10:23:57.400.27-Mar-2021 3325.51 7170.71 61.17 10.00 385.40 3075.77
   10:23:57.600.27-Mar-2021 3325.51 7170.39 61.17 10.00 385.60 3075.77
   10:23:57.800.27-Mar-2021 3325.51 7171.32 61.17 10.00 385.80 3075.77
   10:23:58.000.27-Mar-2021 3325.51 7170.83 61.17 10.00 386.00 3075.77
   10:23:58.200.27-Mar-2021 3325.51 7170.83 61.17 10.00 386.20 3075.77
   10:23:58.400.27-Mar-2021 3325.51 7170.64 61.17 10.00 386.40 3075.77
   10:23:58.600.27-Mar-2021 3325.51 7170.85 61.17 10.00 386.60 3075.77
   10:23:58.800.27-Mar-2021 3325.51 7170.97 61.17 10.00 386.80 3075.77
   10:23:59.000.27-Mar-2021 3325.51 7174.07 61.17 10.00 387.00 3075.77
   10:23:59.200.27-Mar-2021 3325.51 7174.07 61.17 10.00 387.20 3075.77
   10:23:59.400.27-Mar-2021 3325.51 7171.37 61.17 10.00 387.40 3075.77
   10:23:59.600.27-Mar-2021 3325.51 7170.81 61.17 10.00 387.60 3075.77
   10:23:59.800.27-Mar-2021 3325.51 7173.93 61.17 10.00 387.80 3075.77
   10:24:00.000.27-Mar-2021 3325.51 7170.96 61.17 10.00 388.00 3075.77
   10:24:00.200.27-Mar-2021 3325.51 7170.96 61.17 10.00 388.20 3075.77
   10:24:00.400.27-Mar-2021 3325.51 7171.54 61.17 10.00 388.40 3075.77
   10:24:00.600.27-Mar-2021 3325.51 7174.24 61.17 10.00 388.60 3075.77
   10:24:00.800.27-Mar-2021 3325.51 7171.28 61.17 10.00 388.80 3075.77
   10:24:01.000.27-Mar-2021 3325.51 7171.51 61.17 10.00 389.00 3075.77
   10:24:01.200.27-Mar-2021 3325.51 7171.51 61.17 10.00 389.20 3075.77
   10:24:01.400.27-Mar-2021 3325.51 7174.84 61.17 10.00 389.40 3075.77
   10:24:01.600.27-Mar-2021 3325.51 7171.96 61.17 10.00 389.60 3075.77
   10:24:01.800.27-Mar-2021 3325.51 7171.79 61.17 10.00 389.80 3075.77
   10:24:02.000.27-Mar-2021 3325.51 7172.41 61.17 10.00 390.00 3075.77
   10:24:02.200.27-Mar-2021 3325.51 7172.41 61.17 10.00 390.20 3075.77
   10:24:02.400.27-Mar-2021 3325.51 7172.02 61.17 10.00 390.40 3075.77
   10:24:02.600.27-Mar-2021 3325.51 7170.78 61.17 10.00 390.60 3075.77
   10:24:02.800.27-Mar-2021 3325.51 7172.17 61.17 10.00 390.80 3075.77
   10:24:03.000.27-Mar-2021 3325.51 7171.41 61.17 10.00 391.00 3075.77
   10:24:03.200.27-Mar-2021 3325.51 7171.41 61.17 10.00 391.20 3075.77
   10:24:03.400.27-Mar-2021 3325.51 7171.22 61.17 10.00 391.40 3075.77
   10:24:03.600.27-Mar-2021 3325.51 7171.11 61.17 10.00 391.60 3075.77
   10:24:03.800.27-Mar-2021 3325.51 7171.04 61.17 10.00 391.80 3075.77
   10:24:04.000.27-Mar-2021 3325.51 7171.06 61.17 10.00 392.00 3075.77
   10:24:04.200.27-Mar-2021 3325.51 7171.06 61.17 10.00 392.20 3075.77
   10:24:04.400.27-Mar-2021 3325.51 7170.85 61.17 10.00 392.40 3075.77
   10:24:04.600.27-Mar-2021 3325.51 7175.69 61.17 10.00 392.60 3075.77
   10:24:04.800.27-Mar-2021 3325.51 7169.58 61.17 10.00 392.80 3075.77
   10:24:05.000.27-Mar-2021 3325.51 7171.48 61.17 10.00 393.00 3075.77
   10:24:05.200.27-Mar-2021 3325.51 7171.48 61.17 10.00 393.20 3075.77
   10:24:05.400.27-Mar-2021 3325.51 7171.36 61.17 10.00 393.40 3075.77
   10:24:05.600.27-Mar-2021 3325.51 7171.38 61.17 10.00 393.60 3075.77
   10:24:05.800.27-Mar-2021 3325.51 7170.78 61.17 10.00 393.80 3075.77
   10:24:06.000.27-Mar-2021 3325.51 7170.30 61.17 10.00 394.00 3075.77
   10:24:06.200.27-Mar-2021 3325.51 7170.30 61.17 10.00 394.20 3075.77
   10:24:06.400.27-Mar-2021 3325.51 7170.88 61.17 10.00 394.40 3075.77
   10:24:06.600.27-Mar-2021 3325.51 7170.87 61.17 10.00 394.60 3075.77
   10:24:06.800.27-Mar-2021 3325.51 7170.56 61.17 10.00 394.80 3075.77
   10:24:07.000.27-Mar-2021 3325.51 7170.69 61.17 10.00 395.00 3075.77
   10:24:07.200.27-Mar-2021 3325.51 7170.69 61.17 10.00 395.20 3075.77
   10:24:07.400.27-Mar-2021 3325.51 7173.92 61.17 10.00 395.40 3075.77
   10:24:07.600.27-Mar-2021 3325.51 7170.60 61.17 10.00 395.60 3075.77
   10:24:07.800.27-Mar-2021 3325.51 7171.41 61.17 10.00 395.80 3075.77
   10:24:08.000.27-Mar-2021 3325.51 7170.74 61.17 10.00 396.00 3075.77
   10:24:08.200.27-Mar-2021 3325.51 7170.74 61.17 10.00 396.20 3075.77
   10:24:08.400.27-Mar-2021 3325.51 7170.54 61.17 10.00 396.40 3075.77
   10:24:08.600.27-Mar-2021 3325.51 7170.74 61.17 10.00 396.60 3075.77
   10:24:08.800.27-Mar-2021 3325.51 7171.31 61.17 10.00 396.80 3075.77
   10:24:09.000.27-Mar-2021 3325.51 7175.61 61.17 10.00 397.00 3075.77
   10:24:09.200.27-Mar-2021 3325.51 7175.61 61.17 10.00 397.20 3075.77
   10:24:09.400.27-Mar-2021 3325.51 7171.04 61.17 10.00 397.40 3075.77
   10:24:09.600.27-Mar-2021 3325.51 7171.89 61.17 10.00 397.60 3075.77
   10:24:09.800.27-Mar-2021 3325.51 7171.37 61.17 10.00 397.80 3075.77
   10:24:10.000.27-Mar-2021 3325.51 7171.48 61.17 10.00 398.00 3075.77
   10:24:10.200.27-Mar-2021 3325.51 7171.48 61.17 10.00 398.20 3075.77
   10:24:10.400.27-Mar-2021 3325.51 7171.36 61.17 10.00 398.40 3075.77
   10:24:10.600.27-Mar-2021 3325.51 7172.98 61.17 10.00 398.60 3075.77
   10:24:10.800.27-Mar-2021 3325.51 7171.76 61.17 10.00 398.80 3075.77
   10:24:11.000.27-Mar-2021 3325.51 7171.41 61.16 10.00 399.00 3075.77
   10:24:11.200.27-Mar-2021 3325.51 7171.41 61.16 10.00 399.20 3075.77
   10:24:11.400.27-Mar-2021 3325.51 7170.71 61.16 10.00 399.40 3075.77
   10:24:11.600.27-Mar-2021 3325.51 7171.65 61.16 10.00 399.60 3075.77
   10:24:11.800.27-Mar-2021 3325.51 7170.73 61.16 10.00 399.80 3075.77
   10:24:12.000.27-Mar-2021 3325.51 7170.72 61.16 10.00 400.00 3075.77
   10:24:12.200.27-Mar-2021 3325.51 7170.72 61.16 10.00 400.20 3075.77
   10:24:12.400.27-Mar-2021 3325.51 7170.77 61.16 10.00 400.40 3075.77
   10:24:12.600.27-Mar-2021 3325.51 7170.87 61.16 10.00 400.60 3075.77
   10:24:12.800.27-Mar-2021 3325.51 7170.90 61.16 10.00 400.80 3075.77
   10:24:13.000.27-Mar-2021 3325.51 7170.90 61.16 10.00 401.00 3075.77
   10:24:13.200.27-Mar-2021 3325.51 7170.90 61.16 10.00 401.20 3075.77
   10:24:13.400.27-Mar-2021 3325.51 7175.81 61.16 10.00 401.40 3075.77
   10:24:13.600.27-Mar-2021 3325.51 7169.37 61.16 10.00 401.60 3075.77
   10:24:13.800.27-Mar-2021 3325.51 7170.99 61.16 10.00 401.80 3075.77
   10:24:14.000.27-Mar-2021 3325.51 7171.43 61.16 10.00 402.00 3075.77
   10:24:14.200.27-Mar-2021 3325.51 7171.43 61.16 10.00 402.20 3075.77
   10:24:14.400.27-Mar-2021 3325.51 7170.86 61.16 10.00 402.40 3075.77
   10:24:14.600.27-Mar-2021 3325.51 7170.36 61.16 10.00 402.60 3075.77
   10:24:14.800.27-Mar-2021 3325.51 7170.56 61.16 10.00 402.80 3075.77
   10:24:15.000.27-Mar-2021 3325.51 7171.14 61.16 10.00 403.00 3075.77
   10:24:15.200.27-Mar-2021 3325.51 7171.14 61.16 10.00 403.20 3075.77
   10:24:15.400.27-Mar-2021 3325.51 7170.63 61.16 10.00 403.40 3075.77
   10:24:15.600.27-Mar-2021 3325.51 7170.84 61.16 10.00 403.60 3075.77
   10:24:15.800.27-Mar-2021 3325.51 7170.74 61.16 10.00 403.80 3075.77
   10:24:16.000.27-Mar-2021 3325.51 7170.85 61.16 10.00 404.00 3075.77
   10:24:16.200.27-Mar-2021 3325.51 7170.85 61.16 10.00 404.20 3075.77
   10:24:16.400.27-Mar-2021 3325.51 7170.95 61.16 10.00 404.40 3075.77
   10:24:16.600.27-Mar-2021 3325.51 7171.13 61.16 10.00 404.60 3075.77
   10:24:16.800.27-Mar-2021 3325.51 7170.38 61.16 10.00 404.80 3075.77
   10:24:17.000.27-Mar-2021 3325.51 7174.03 61.16 10.00 405.00 3075.77
   10:24:17.200.27-Mar-2021 3325.51 7174.03 61.16 10.00 405.20 3075.77
   10:24:17.400.27-Mar-2021 3325.51 7170.57 61.16 10.00 405.40 3075.77
   10:24:17.600.27-Mar-2021 3325.51 7171.05 61.16 10.00 405.60 3075.77
   10:24:17.800.27-Mar-2021 3325.51 7175.49 61.16 10.00 405.80 3075.77
   10:24:18.000.27-Mar-2021 3325.51 7169.49 61.16 10.00 406.00 3075.77
   10:24:18.200.27-Mar-2021 3325.51 7169.49 61.16 10.00 406.20 3075.77
   10:24:18.400.27-Mar-2021 3325.51 7171.82 61.16 10.00 406.40 3075.77
   10:24:18.600.27-Mar-2021 3325.51 7171.31 61.16 10.00 406.60 3075.77
