~Version Information
 VERS.                  2.0:   CWLS log ASCII Standard -VERSION 2.0
 WRAP.                   NO:   One line per depth step
~Well Information Block
#MNEM.UNIT     VALUE/NAME     DESCRIPTION
#---------     -----------    ---------------------------
 STRT.S             03:27:53 27-Mar-21: START TIME 03:27:53 27-Mar-21
 STOP.S             03:35:02 27-Mar-21: STOP TIME  03:35:02 27-Mar-21
 STEP.S                   0.00: STEP TIME
 NULL.                 -999.25: NULL VALUE
 DFWT.                        :  DIST FWL TEXT
 DFST.                        :  DIST FSL TEXT
 DMF .             Drill Floor:  DRILL MEAS FROM
 STIM.      20.26.40 11-Mar-21:  START TIME
 DATE.      20.26.40 30-Mar-21:  END TIME
 SPUD.               11-Mar-21:  SPUD DATE
 NREF.                    Grid:  NORTH REFERENCE
 HPTY.       Minimum Curvature:  HOLE POS TYPE
 DMOD.             Drill Model:  DRILL MOD DESC
 SVYD.                  Survey:  SURVEY DESC
 ILTD.               Lithology:  INTERP LTH DESC
 FTOP.          Formation Tops:  FORM TOPS DESC
 SON .        AZ-XX-0906805385:  JOB NUMBER
 WTYP.                Deviated:  WELL TYPE
 COMP.     BP Exploration (Caspian Sea) Ltd.:  COMPANY
 UWI .            /AZE00000198:  UNIQUE WELL IDENTIFIER
 API .            /AZE00000198:  API NUMBER
 BASE.              Azerbaijan:  LOGGING EQUIPMENT BASE LOCATION
 REGN.                   EESSA:  REGION
 PROV.                    Baku:  PROVINCE
 STAT.                    Baku:  STATE NAME
 CTRY.              Azerbaijan:  COUNTRY NAME
 FLD .                     ACG:  FIELD NAME
 SRVC.     Turan Drilling & Engineering:  CONTRACTOR
 MWDS.                    Baku:  MWD SHOP
 WELL.                    D09z:  WELL NAME
 JOBN.        AZ-XX-0906805385:  JOB TICKET NUMB
 RIG .              East Azeri:  RIG NAME
 DOE .                     N/A:  DOE NUMBER
 DCON.         Sperry Drilling:  DIRECTNL CONTR
 UNIT.                     N/A:  LOGGING EQUIPMENT ID
 PDAT.          Mean Sea Level:  PERMANENT DATUM
 MDS .        Operator Entered:  MAG DATA SOURCE
 CNTY.                        :  COUNTY
 LOC .                        :  LOCATION
 LMF .             Drill Floor:  LOG MEASURED FROM
 TVDS.m                  43.60:  TVDSS CORRECTN
 LATI.deg                40.02:  LATITUDE
 LONG.deg                51.45:  LONGITUDE
 WHNS.m                 -17.04:  WELL HEAD N/S
 WHEW.m                  -6.28:  WELL HEAD E/W
 UTMX.m              538763.98:  UTM X
 UTMY.m             4431880.20:  UTM Y
 DFWL.m                   0.00:  DISTANCE FWL
 DFSL.m                   0.00:  DISTANCE FSL
 SDEP.m                2680.01:  START DEPTH
 TDD .m                4000.01:  TOTAL DEPTH (DRILLER)
 VSDR.deg               225.71:  VERT SEC DIRECT
 GVFD.g                   1.00:  GRAVITY FIELD
 MFLD.nT              50353.00:  MAGNETIC FIELD
 MDIP.deg                59.49:  MAGNETIC DIP
 MDEC.deg                 6.46:  MAGNETIC DECL
 GRDC.deg                 0.29:  GRID CORRECTION
 AZTC.deg                 6.17:  AZM TOTAL CORR
 EPD .m                   0.00:  ELEVATION
 EGL .m                   0.00:  GROUND ELEVATION
 WDMS.m                 151.80:  WD ELEV
 APD .m                  43.60:  DEPTH ABOVE PD
 AGAP.m                  43.60:  AIR GAP
 VSEW.m                  -6.28:  VERT SEC E/W
 VSNS.m                 -17.04:  VERT SEC N/S
 DEP .m                2656.31:  DEPTH
 EKB .m                  43.60:  KB ELEVATION
 EDF .m                  43.60:  DF ELEVATION
 VSC .                       0:  VS TO CLOSURE
 MAGU.                 1851247:  MAGUTM CHECKSUM
~Parameter Information Block
#MNEM.UNIT       Value        Description
#---------     -----------    ---------------------------
 AV  .mps                 3.00:  Ann Velocity 
 AVMX.mps                 8.00:  Max Ann Veloc 
 AZIF.deg                 0.00:  Azm, Final 
 BHAT.                   Other:  BHA Type 
 BREV.rev                 0.00:  Rev Bit Total 
 BROT.°/30m               0.00:  Build Rotating 
 BS  .in                 10.25:  Bit Size 
 BTPL.psig              511.00:  Bit Press Loss 
 CABU.                      No:  Customer Abuse 
 CGEO.           Asif Pashayev:  Customer Geo 
 COMM.                     ¼Fy:  Run Comments 1 
 TCS .hr                 24.03:  Time Ciculation Ended 
 CV  .mps                 3.50:  Crit Velocity 
 CVMX.mps                 4.00:  Max Crit Veloc 
 DD1 .             Aziz Aliyev:  Direct Drillr 1 
 DD2 .      Fakhraddin Guliyev:  Direct Drillr 2 
 DDSV.                   Other:  DD Service 
 DEFF.%                  99.00:  % Det Eff 
 DLRX.°/30m               0.00:  Dogleg Rot Max 
 DLSO.°/30m               0.00:  Dogleg Oriented 
 DLSX.°/30m               0.00:  Dogleg Str Max 
 DRET.      23.00.40 28-Mar-21:  Drill End Time 
 DRST.      23.30.40 25-Mar-21:  Drill Start Tim 
 DTIM.hr                  0.00:  Time Drilling 
 EDEP.m                3886.01:  End Depth 
 ENG1.         Almaz Almadatov:  Engineer 1 
 ENG2.      Artemiy Matviyanov:  Engineer 2 
 ENG3.           Samir Gafarov:  Engineer 3 
 ETIM.      23.00.40 28-Mar-21:  End Time 
 FLOI.gpm               550.00:  Flow In 
 FLON.gpm               500.00:  Flow In Min 
 FLOS.cptm                0.00:  Fluid Loss 
 FLOX.gpm               590.00:  Flow In Max 
 HFLO.                      No:  High Flow 
 HPRE.                      No:  High Pressure 
 HTEM.                      No:  High Temp 
 HYDO.m                   1.80:  Hydro Offset 
 IFIN.deg                 0.00:  Inc, Final 
 IMAX.deg                 0.00:  Inc Max 
 IMIN.deg                 0.00:  Inc Min 
 IMND.m                   0.00:  Inc Min Depth 
 IMXD.m                   0.00:  Inc Max Depth 
 JARR.                      No:  Jarring 
 LETM.      03.22.40 28-Mar-21:  Log End Time 
 LOST.hr                     0:  Lost Rig Time 
 LSTM.      23.30.40 25-Mar-21:  Log Start Time 
 MDCL.ppm             34000.00:  Mud Chlorides 
 MDES.     Inversion Oil/Synthetic:  Mud Desc 
 DFD .sg                  1.51:  Mud Density 
 MDMN.sg                  1.51:  Dens Mud Min 
 MDMX.sg                  1.51:  Dens Mud Max 
 MOIL.                      70:  Run Mud Oil % 
 MOWR.                   70:30:  Run Mud OWR 
 MSND.                     0.2:  Run Mud Sand % 
 MSOL.                   21.60:  Run Mud Solids% 
 DFV .spqt               74.00:  Mud Viscosity 
 MWOD.in                  6.75:  MWD Tool OD 
 MWSI.                      No:  Serv Intrp, MWD 
 OTIM.hr                 69.09:  Time Operating 
 PCON.           Look Like New:  Pad Condition 
 PMAX.psia             3500.00:  Press Op, Max 
 PV  .cP                 70.00:  Mud PV 
 RUN .                     400:  Run Number 
 ROPA.m/hr                0.00:  ROP Avg 
 ROPN.m/hr                0.00:  ROP Min 
 ROPX.m/hr                0.00:  ROP Max 
 RPMA.rpm                80.00:  RPM Surface Avg 
 RPMN.rpm                10.00:  RPM Surface Min 
 RPMX.rpm               100.00:  RPM Surface Max 
 RRUN.                    0400:  Rig Run Number 
 RTIM.hr                  3.00:  Time Reaming 
 SAZI.deg                 0.00:  Azm, Start 
 SDEP.m                3886.01:  Start Depth 
 SIDD.                      No:  Serv Intrp, DD 
 SINC.deg                 0.00:  Inc, Start 
 SPPA.psig             3270.00:  SPP Avg 
 SPPN.psig             3220.00:  SPP Min 
 SPPX.psig             4430.00:  SPP Max 
 STIM.      23.30.40 25-Mar-21:  Start Time 
 SVCS.                 DD, MWD:  Services 
 SVER.                    9.20:  Sperry Version 
 TDAT.m                   0.00:  Tot Depth Attmp 
 TDDF.                      No:  Trip for DD 
 TFF .                      No:  Trip for Fail 
 TQAA.f-kp                8.00:  Torque Abs Avg 
 TQAN.f-kp                7.00:  Torque Abs Min 
 TQAX.f-kp               11.00:  Torque Abs Max 
 TRRT.°/30m               0.00:  Turn Rotating 
 MRT .                  EWR-M5:  Maximum Recorded Temperature 
 TTMX.degC               76.47:  Max Tool Temp 
 VS01.                90640857:  Virtual Str1 SN 
 VS02.                90639246:  Virtual Str2 SN 
 VS03.                90642265:  Virtual Str3 SN 
 VS04.                11654497:  Virtual Str4 SN 
 WBMN.klb                 0.00:  WOB Min 
 WITN.      Kamran Keberlinkiy:  Customer Rep 
 WITN.           Murad Guliyev:  Customer Rep 2 
 WOBA.klb                 0.00:  WOB Avg 
 WOBX.klb                 0.00:  WOB Max 
 YP  .lhf2               36.00:  Yield Point 
~Curve Information Block
#MNEM.UNIT                 API CODE     Curve Description
#---------               -----------    ---------------------------
 TIME.HHMMSS            00 000 000 000:  GT Time & Date
 GTDEPTH.m              00 000 000 000:  GT Depth
 GTPQH.psia             00 000 000 000:  GT HR Quartz Pressure
 GTTQ.degC              00 000 000 000:  GT Quartz Temperature
 GTTN.NONE              00 000 000 000:  GT Test Number
 GTET.sec               00 000 000 000:  GT Elapsed Test Time
 GTTVD.m                00 000 000 000:  GT True Vertical Depth
#Other Information
#
#WARRANTY: Halliburton will use its best efforts to furnish customers with 
#accurate information and interpretations that are part of, and incident to, the services 
#provided.  However, Halliburton cannot and does not warrant the accuracy 
#or correctness of such information and interpretations.  Under no circumstances should any 
#such information or interpretation be relied upon as the sole basis for any drilling, 
#completion, production, or financial decision or any procedure involving any risk to the 
#safety of any drilling venture, drilling rig or its crew or any other third party.  The 
#Customer has full responsibility for all drilling, completion and production operation.  
#Halliburton makes no representations or warranties, either expressed or 
#implied, including, but not limited to, the implied warranties of merchantability or fitness 
#for a particular purpose, with respect to the services rendered.  In no event will 
#Halliburton be liable for failure to obtain any particular results or for 
#any damages, including, but not limited to, indirect, special or consequential damages, 
#resulting from the use of any information or interpretation provided by Halliburton.
#
~A           TIME           GTDEPTH  GTPQH  GTTQ  GTTN  GTET   GTTVD  
# ...
   03:28:39.133.27-Mar-2021 3725.51 7801.11 61.50 3.00  46.01 3451.28
   03:28:39.333.27-Mar-2021 3725.51 7801.11 61.50 3.00  46.21 3451.28
   03:28:39.533.27-Mar-2021 3725.51 7756.23 61.50 3.00  46.41 3451.28
   03:28:39.733.27-Mar-2021 3725.51 7739.82 61.50 3.00  46.61 3451.28
   03:28:39.933.27-Mar-2021 3725.51 7716.48 61.50 3.00  46.81 3451.28
   03:28:40.133.27-Mar-2021 3725.51 7684.94 61.50 3.00  47.01 3451.28
   03:28:40.333.27-Mar-2021 3725.51 7684.94 61.50 3.00  47.21 3451.28
   03:28:40.533.27-Mar-2021 3725.51 7584.66 61.50 3.00  47.41 3451.28
   03:28:40.733.27-Mar-2021 3725.51 7527.61 61.50 3.00  47.61 3451.28
   03:28:40.933.27-Mar-2021 3725.51 7444.69 61.50 3.00  47.81 3451.28
   03:28:41.133.27-Mar-2021 3725.51 7365.49 61.50 3.00  48.01 3451.28
   03:28:41.333.27-Mar-2021 3725.51 7365.49 61.50 3.00  48.21 3451.28
   03:28:41.533.27-Mar-2021 3725.51 7202.19 61.50 3.00  48.41 3451.28
   03:28:41.733.27-Mar-2021 3725.51 7149.94 61.50 3.00  48.61 3451.28
   03:28:41.933.27-Mar-2021 3725.51 7117.07 61.49 3.00  48.81 3451.28
   03:28:42.133.27-Mar-2021 3725.51 7096.68 61.49 3.00  49.01 3451.28
   03:28:42.333.27-Mar-2021 3725.51 7096.68 61.49 3.00  49.21 3451.28
   03:28:42.533.27-Mar-2021 3725.51 7079.08 61.49 3.00  49.41 3451.28
   03:28:42.733.27-Mar-2021 3725.51 7074.92 61.49 3.00  49.61 3451.28
   03:28:42.933.27-Mar-2021 3725.51 7073.54 61.49 3.00  49.81 3451.28
   03:28:43.133.27-Mar-2021 3725.51 7072.48 61.49 3.00  50.01 3451.28
   03:28:43.333.27-Mar-2021 3725.51 7072.48 61.49 3.00  50.21 3451.28
   03:28:43.533.27-Mar-2021 3725.51 7067.12 61.49 3.00  50.41 3451.28
   03:28:43.733.27-Mar-2021 3725.51 7064.42 61.49 3.00  50.61 3451.28
   03:28:43.933.27-Mar-2021 3725.51 7062.10 61.49 3.00  50.81 3451.28
   03:28:44.133.27-Mar-2021 3725.51 7061.81 61.49 3.00  51.01 3451.28
   03:28:44.333.27-Mar-2021 3725.51 7061.81 61.49 3.00  51.21 3451.28
   03:28:44.533.27-Mar-2021 3725.51 7065.12 61.49 3.00  51.41 3451.28
   03:28:44.733.27-Mar-2021 3725.51 7065.66 61.49 3.00  51.61 3451.28
   03:28:44.933.27-Mar-2021 3725.51 7066.71 61.49 3.00  51.81 3451.28
   03:28:45.133.27-Mar-2021 3725.51 7067.10 61.49 3.00  52.01 3451.28
   03:28:45.333.27-Mar-2021 3725.51 7067.10 61.49 3.00  52.21 3451.28
   03:28:45.533.27-Mar-2021 3725.51 6606.71 61.48 3.00  52.41 3451.28
   03:28:45.734.27-Mar-2021 3725.51 5554.47 61.48 3.00  52.61 3451.28
   03:28:45.934.27-Mar-2021 3725.51 4937.25 61.48 3.00  52.81 3451.28
   03:28:46.134.27-Mar-2021 3725.51 5160.11 61.48 3.00  53.01 3451.28
   03:28:46.334.27-Mar-2021 3725.51 5160.11 61.48 3.00  53.21 3451.28
   03:28:46.534.27-Mar-2021 3725.51 5151.29 61.48 3.00  53.41 3451.28
   03:28:46.734.27-Mar-2021 3725.51 5156.56 61.48 3.00  53.61 3451.28
   03:28:46.934.27-Mar-2021 3725.51 5164.66 61.48 3.00  53.81 3451.28
   03:28:47.134.27-Mar-2021 3725.51 5162.38 61.48 3.00  54.01 3451.28
   03:28:47.334.27-Mar-2021 3725.51 5162.38 61.48 3.00  54.21 3451.28
   03:28:47.534.27-Mar-2021 3725.51 5158.84 61.47 3.00  54.41 3451.28
   03:28:47.734.27-Mar-2021 3725.51 5158.24 61.47 3.00  54.61 3451.28
   03:28:47.934.27-Mar-2021 3725.51 5159.30 61.47 3.00  54.81 3451.28
   03:28:48.134.27-Mar-2021 3725.51 5160.16 61.47 3.00  55.01 3451.28
   03:28:48.334.27-Mar-2021 3725.51 5160.16 61.47 3.00  55.21 3451.28
   03:28:48.534.27-Mar-2021 3725.51 5160.30 61.47 3.00  55.41 3451.28
   03:28:48.734.27-Mar-2021 3725.51 5158.92 61.46 3.00  55.61 3451.28
   03:28:48.934.27-Mar-2021 3725.51 5158.04 61.46 3.00  55.81 3451.28
   03:28:49.134.27-Mar-2021 3725.51 5159.87 61.46 3.00  56.01 3451.28
   03:28:49.334.27-Mar-2021 3725.51 5159.87 61.46 3.00  56.21 3451.28
   03:28:49.534.27-Mar-2021 3725.51 5158.80 61.46 3.00  56.41 3451.28
   03:28:49.734.27-Mar-2021 3725.51 5159.34 61.46 3.00  56.61 3451.28
   03:28:49.934.27-Mar-2021 3725.51 5159.80 61.46 3.00  56.81 3451.28
   03:28:50.134.27-Mar-2021 3725.51 5160.04 61.45 3.00  57.01 3451.28
   03:28:50.334.27-Mar-2021 3725.51 5160.04 61.45 3.00  57.21 3451.28
   03:28:50.534.27-Mar-2021 3725.51 5159.28 61.45 3.00  57.41 3451.28
   03:28:50.734.27-Mar-2021 3725.51 5158.93 61.45 3.00  57.61 3451.28
   03:28:50.934.27-Mar-2021 3725.51 5159.72 61.45 3.00  57.81 3451.28
   03:28:51.134.27-Mar-2021 3725.51 5158.97 61.45 3.00  58.01 3451.28
   03:28:51.334.27-Mar-2021 3725.51 5158.97 61.45 3.00  58.21 3451.28
   03:28:51.534.27-Mar-2021 3725.51 5159.89 61.44 3.00  58.41 3451.28
   03:28:51.734.27-Mar-2021 3725.51 5160.59 61.44 3.00  58.61 3451.28
   03:28:51.934.27-Mar-2021 3725.51 5160.52 61.44 3.00  58.81 3451.28
   03:28:52.134.27-Mar-2021 3725.51 5160.40 61.44 3.00  59.01 3451.28
   03:28:52.334.27-Mar-2021 3725.51 5160.40 61.44 3.00  59.21 3451.28
   03:28:52.534.27-Mar-2021 3725.51 5160.35 61.44 3.00  59.41 3451.28
   03:28:52.734.27-Mar-2021 3725.51 5160.45 61.44 3.00  59.61 3451.28
   03:28:52.934.27-Mar-2021 3725.51 5160.69 61.44 3.00  59.81 3451.28
   03:28:53.134.27-Mar-2021 3725.51 5161.90 61.44 3.00  60.01 3451.28
   03:28:53.334.27-Mar-2021 3725.51 5161.90 61.44 3.00  60.21 3451.28
   03:28:53.534.27-Mar-2021 3725.51 5164.41 61.43 3.00  60.41 3451.28
   03:28:53.735.27-Mar-2021 3725.51 5162.65 61.43 3.00  60.61 3451.28
   03:28:53.935.27-Mar-2021 3725.51 5162.65 61.43 3.00  60.81 3451.28
   03:28:54.135.27-Mar-2021 3725.51 5160.07 61.43 3.00  61.01 3451.28
   03:28:54.335.27-Mar-2021 3725.51 5160.07 61.43 3.00  61.21 3451.28
   03:28:54.535.27-Mar-2021 3725.51 5161.19 61.43 3.00  61.41 3451.28
   03:28:54.735.27-Mar-2021 3725.51 5161.26 61.43 3.00  61.61 3451.28
   03:28:54.935.27-Mar-2021 3725.51 5161.10 61.43 3.00  61.81 3451.28
   03:28:55.135.27-Mar-2021 3725.51 5160.20 61.43 3.00  62.01 3451.28
   03:28:55.335.27-Mar-2021 3725.51 5160.20 61.43 3.00  62.21 3451.28
   03:28:55.535.27-Mar-2021 3725.51 5264.72 61.43 3.00  62.41 3451.28
   03:28:55.735.27-Mar-2021 3725.51 5265.61 61.43 3.00  62.61 3451.28
   03:28:55.935.27-Mar-2021 3725.51 5264.97 61.43 3.00  62.81 3451.28
   03:28:56.135.27-Mar-2021 3725.51 5265.34 61.43 3.00  63.01 3451.28
   03:28:56.335.27-Mar-2021 3725.51 5265.34 61.43 3.00  63.21 3451.28
   03:28:56.535.27-Mar-2021 3725.51 5265.08 61.43 3.00  63.41 3451.28
   03:28:56.735.27-Mar-2021 3725.51 5265.26 61.43 3.00  63.61 3451.28
   03:28:56.935.27-Mar-2021 3725.51 5265.66 61.42 3.00  63.81 3451.28
   03:28:57.135.27-Mar-2021 3725.51 5264.96 61.42 3.00  64.01 3451.28
   03:28:57.335.27-Mar-2021 3725.51 5264.96 61.42 3.00  64.21 3451.28
   03:28:57.535.27-Mar-2021 3725.51 5265.61 61.42 3.00  64.41 3451.28
   03:28:57.735.27-Mar-2021 3725.51 5265.10 61.42 3.00  64.61 3451.28
   03:28:57.935.27-Mar-2021 3725.51 5265.22 61.42 3.00  64.81 3451.28
   03:28:58.135.27-Mar-2021 3725.51 5265.67 61.42 3.00  65.01 3451.28
   03:28:58.335.27-Mar-2021 3725.51 5265.67 61.42 3.00  65.21 3451.28
   03:28:58.535.27-Mar-2021 3725.51 5265.18 61.42 3.00  65.41 3451.28
   03:28:58.735.27-Mar-2021 3725.51 5265.61 61.42 3.00  65.61 3451.28
   03:28:58.935.27-Mar-2021 3725.51 5265.44 61.42 3.00  65.81 3451.28
   03:28:59.135.27-Mar-2021 3725.51 5265.58 61.42 3.00  66.01 3451.28
   03:28:59.335.27-Mar-2021 3725.51 5265.58 61.42 3.00  66.21 3451.28
   03:28:59.535.27-Mar-2021 3725.51 5265.12 61.42 3.00  66.41 3451.28
   03:28:59.735.27-Mar-2021 3725.51 5265.56 61.42 3.00  66.61 3451.28
   03:28:59.935.27-Mar-2021 3725.51 5265.49 61.42 3.00  66.81 3451.28
   03:29:00.135.27-Mar-2021 3725.51 5265.51 61.42 3.00  67.01 3451.28
   03:29:00.335.27-Mar-2021 3725.51 5265.51 61.42 3.00  67.21 3451.28
   03:29:00.535.27-Mar-2021 3725.51 5265.38 61.42 3.00  67.41 3451.28
   03:29:00.735.27-Mar-2021 3725.51 5265.36 61.42 3.00  67.61 3451.28
   03:29:00.935.27-Mar-2021 3725.51 5265.48 61.42 3.00  67.81 3451.28
   03:29:01.135.27-Mar-2021 3725.51 5265.50 61.42 3.00  68.01 3451.28
   03:29:01.335.27-Mar-2021 3725.51 5265.50 61.42 3.00  68.21 3451.28
   03:29:01.536.27-Mar-2021 3725.51 5265.51 61.42 3.00  68.41 3451.28
   03:29:01.736.27-Mar-2021 3725.51 5265.49 61.42 3.00  68.61 3451.28
   03:29:01.936.27-Mar-2021 3725.51 5265.47 61.42 3.00  68.81 3451.28
