~Version Information
 VERS.                  2.0:   CWLS log ASCII Standard -VERSION 2.0
 WRAP.                   NO:   One line per depth step
~Well Information Block
#MNEM.UNIT     VALUE/NAME     DESCRIPTION
#---------     -----------    ---------------------------
 STRT.S             01:51:11 27-Mar-21: START TIME 01:51:11 27-Mar-21
 STOP.S             01:58:18 27-Mar-21: STOP TIME  01:58:18 27-Mar-21
 STEP.S                   0.00: STEP TIME
 NULL.                 -999.25: NULL VALUE
 DFWT.                        :  DIST FWL TEXT
 DFST.                        :  DIST FSL TEXT
 DMF .             Drill Floor:  DRILL MEAS FROM
 STIM.      20.26.40 11-Mar-21:  START TIME
 DATE.      20.26.40 30-Mar-21:  END TIME
 SPUD.               11-Mar-21:  SPUD DATE
 NREF.                    Grid:  NORTH REFERENCE
 HPTY.       Minimum Curvature:  HOLE POS TYPE
 DMOD.             Drill Model:  DRILL MOD DESC
 SVYD.                  Survey:  SURVEY DESC
 ILTD.               Lithology:  INTERP LTH DESC
 FTOP.          Formation Tops:  FORM TOPS DESC
 SON .        AZ-XX-0906805385:  JOB NUMBER
 WTYP.                Deviated:  WELL TYPE
 COMP.     BP Exploration (Caspian Sea) Ltd.:  COMPANY
 UWI .            /AZE00000198:  UNIQUE WELL IDENTIFIER
 API .            /AZE00000198:  API NUMBER
 BASE.              Azerbaijan:  LOGGING EQUIPMENT BASE LOCATION
 REGN.                   EESSA:  REGION
 PROV.                    Baku:  PROVINCE
 STAT.                    Baku:  STATE NAME
 CTRY.              Azerbaijan:  COUNTRY NAME
 FLD .                     ACG:  FIELD NAME
 SRVC.     Turan Drilling & Engineering:  CONTRACTOR
 MWDS.                    Baku:  MWD SHOP
 WELL.                    D09z:  WELL NAME
 JOBN.        AZ-XX-0906805385:  JOB TICKET NUMB
 RIG .              East Azeri:  RIG NAME
 DOE .                     N/A:  DOE NUMBER
 DCON.         Sperry Drilling:  DIRECTNL CONTR
 UNIT.                     N/A:  LOGGING EQUIPMENT ID
 PDAT.          Mean Sea Level:  PERMANENT DATUM
 MDS .        Operator Entered:  MAG DATA SOURCE
 CNTY.                        :  COUNTY
 LOC .                        :  LOCATION
 LMF .             Drill Floor:  LOG MEASURED FROM
 TVDS.m                  43.60:  TVDSS CORRECTN
 LATI.deg                40.02:  LATITUDE
 LONG.deg                51.45:  LONGITUDE
 WHNS.m                 -17.04:  WELL HEAD N/S
 WHEW.m                  -6.28:  WELL HEAD E/W
 UTMX.m              538763.98:  UTM X
 UTMY.m             4431880.20:  UTM Y
 DFWL.m                   0.00:  DISTANCE FWL
 DFSL.m                   0.00:  DISTANCE FSL
 SDEP.m                2680.01:  START DEPTH
 TDD .m                4000.01:  TOTAL DEPTH (DRILLER)
 VSDR.deg               225.71:  VERT SEC DIRECT
 GVFD.g                   1.00:  GRAVITY FIELD
 MFLD.nT              50353.00:  MAGNETIC FIELD
 MDIP.deg                59.49:  MAGNETIC DIP
 MDEC.deg                 6.46:  MAGNETIC DECL
 GRDC.deg                 0.29:  GRID CORRECTION
 AZTC.deg                 6.17:  AZM TOTAL CORR
 EPD .m                   0.00:  ELEVATION
 EGL .m                   0.00:  GROUND ELEVATION
 WDMS.m                 151.80:  WD ELEV
 APD .m                  43.60:  DEPTH ABOVE PD
 AGAP.m                  43.60:  AIR GAP
 VSEW.m                  -6.28:  VERT SEC E/W
 VSNS.m                 -17.04:  VERT SEC N/S
 DEP .m                2656.31:  DEPTH
 EKB .m                  43.60:  KB ELEVATION
 EDF .m                  43.60:  DF ELEVATION
 VSC .                       0:  VS TO CLOSURE
 MAGU.                 1851247:  MAGUTM CHECKSUM
~Parameter Information Block
#MNEM.UNIT       Value        Description
#---------     -----------    ---------------------------
 AV  .mps                 3.00:  Ann Velocity 
 AVMX.mps                 8.00:  Max Ann Veloc 
 AZIF.deg                 0.00:  Azm, Final 
 BHAT.                   Other:  BHA Type 
 BREV.rev                 0.00:  Rev Bit Total 
 BROT.°/30m               0.00:  Build Rotating 
 BS  .in                 10.25:  Bit Size 
 BTPL.psig              511.00:  Bit Press Loss 
 CABU.                      No:  Customer Abuse 
 CGEO.           Asif Pashayev:  Customer Geo 
 COMM.                     |ºg:  Run Comments 1 
 TCS .hr                 24.03:  Time Ciculation Ended 
 CV  .mps                 3.50:  Crit Velocity 
 CVMX.mps                 4.00:  Max Crit Veloc 
 DD1 .             Aziz Aliyev:  Direct Drillr 1 
 DD2 .      Fakhraddin Guliyev:  Direct Drillr 2 
 DDSV.                   Other:  DD Service 
 DEFF.%                  99.00:  % Det Eff 
 DLRX.°/30m               0.00:  Dogleg Rot Max 
 DLSO.°/30m               0.00:  Dogleg Oriented 
 DLSX.°/30m               0.00:  Dogleg Str Max 
 DRET.      23.00.40 28-Mar-21:  Drill End Time 
 DRST.      23.30.40 25-Mar-21:  Drill Start Tim 
 DTIM.hr                  0.00:  Time Drilling 
 EDEP.m                3886.01:  End Depth 
 ENG1.         Almaz Almadatov:  Engineer 1 
 ENG2.      Artemiy Matviyanov:  Engineer 2 
 ENG3.           Samir Gafarov:  Engineer 3 
 ETIM.      23.00.40 28-Mar-21:  End Time 
 FLOI.gpm               550.00:  Flow In 
 FLON.gpm               500.00:  Flow In Min 
 FLOS.cptm                0.00:  Fluid Loss 
 FLOX.gpm               590.00:  Flow In Max 
 HFLO.                      No:  High Flow 
 HPRE.                      No:  High Pressure 
 HTEM.                      No:  High Temp 
 HYDO.m                   1.80:  Hydro Offset 
 IFIN.deg                 0.00:  Inc, Final 
 IMAX.deg                 0.00:  Inc Max 
 IMIN.deg                 0.00:  Inc Min 
 IMND.m                   0.00:  Inc Min Depth 
 IMXD.m                   0.00:  Inc Max Depth 
 JARR.                      No:  Jarring 
 LETM.      03.22.40 28-Mar-21:  Log End Time 
 LOST.hr                     0:  Lost Rig Time 
 LSTM.      23.30.40 25-Mar-21:  Log Start Time 
 MDCL.ppm             34000.00:  Mud Chlorides 
 MDES.     Inversion Oil/Synthetic:  Mud Desc 
 DFD .sg                  1.51:  Mud Density 
 MDMN.sg                  1.51:  Dens Mud Min 
 MDMX.sg                  1.51:  Dens Mud Max 
 MOIL.                      70:  Run Mud Oil % 
 MOWR.                   70:30:  Run Mud OWR 
 MSND.                     0.2:  Run Mud Sand % 
 MSOL.                   21.60:  Run Mud Solids% 
 DFV .spqt               74.00:  Mud Viscosity 
 MWOD.in                  6.75:  MWD Tool OD 
 MWSI.                      No:  Serv Intrp, MWD 
 OTIM.hr                 69.09:  Time Operating 
 PCON.           Look Like New:  Pad Condition 
 PMAX.psia             3500.00:  Press Op, Max 
 PV  .cP                 70.00:  Mud PV 
 RUN .                     400:  Run Number 
 ROPA.m/hr                0.00:  ROP Avg 
 ROPN.m/hr                0.00:  ROP Min 
 ROPX.m/hr                0.00:  ROP Max 
 RPMA.rpm                80.00:  RPM Surface Avg 
 RPMN.rpm                10.00:  RPM Surface Min 
 RPMX.rpm               100.00:  RPM Surface Max 
 RRUN.                    0400:  Rig Run Number 
 RTIM.hr                  3.00:  Time Reaming 
 SAZI.deg                 0.00:  Azm, Start 
 SDEP.m                3886.01:  Start Depth 
 SIDD.                      No:  Serv Intrp, DD 
 SINC.deg                 0.00:  Inc, Start 
 SPPA.psig             3270.00:  SPP Avg 
 SPPN.psig             3220.00:  SPP Min 
 SPPX.psig             4430.00:  SPP Max 
 STIM.      23.30.40 25-Mar-21:  Start Time 
 SVCS.                 DD, MWD:  Services 
 SVER.                    9.20:  Sperry Version 
 TDAT.m                   0.00:  Tot Depth Attmp 
 TDDF.                      No:  Trip for DD 
 TFF .                      No:  Trip for Fail 
 TQAA.f-kp                8.00:  Torque Abs Avg 
 TQAN.f-kp                7.00:  Torque Abs Min 
 TQAX.f-kp               11.00:  Torque Abs Max 
 TRRT.°/30m               0.00:  Turn Rotating 
 MRT .                  EWR-M5:  Maximum Recorded Temperature 
 TTMX.degC               76.47:  Max Tool Temp 
 VS01.                90640857:  Virtual Str1 SN 
 VS02.                90639246:  Virtual Str2 SN 
 VS03.                90642265:  Virtual Str3 SN 
 VS04.                11654497:  Virtual Str4 SN 
 WBMN.klb                 0.00:  WOB Min 
 WITN.      Kamran Keberlinkiy:  Customer Rep 
 WITN.           Murad Guliyev:  Customer Rep 2 
 WOBA.klb                 0.00:  WOB Avg 
 WOBX.klb                 0.00:  WOB Max 
 YP  .lhf2               36.00:  Yield Point 
~Curve Information Block
#MNEM.UNIT                 API CODE     Curve Description
#---------               -----------    ---------------------------
 TIME.HHMMSS            00 000 000 000:  GT Time & Date
 GTDEPTH.m              00 000 000 000:  GT Depth
 GTPQH.psia             00 000 000 000:  GT HR Quartz Pressure
 GTTQ.degC              00 000 000 000:  GT Quartz Temperature
 GTTN.NONE              00 000 000 000:  GT Test Number
 GTET.sec               00 000 000 000:  GT Elapsed Test Time
 GTTVD.m                00 000 000 000:  GT True Vertical Depth
#Other Information
#
#WARRANTY: Halliburton will use its best efforts to furnish customers with 
#accurate information and interpretations that are part of, and incident to, the services 
#provided.  However, Halliburton cannot and does not warrant the accuracy 
#or correctness of such information and interpretations.  Under no circumstances should any 
#such information or interpretation be relied upon as the sole basis for any drilling, 
#completion, production, or financial decision or any procedure involving any risk to the 
#safety of any drilling venture, drilling rig or its crew or any other third party.  The 
#Customer has full responsibility for all drilling, completion and production operation.  
#Halliburton makes no representations or warranties, either expressed or 
#implied, including, but not limited to, the implied warranties of merchantability or fitness 
#for a particular purpose, with respect to the services rendered.  In no event will 
#Halliburton be liable for failure to obtain any particular results or for 
#any damages, including, but not limited to, indirect, special or consequential damages, 
#resulting from the use of any information or interpretation provided by Halliburton.
#
~A           TIME           GTDEPTH  GTPQH  GTTQ  GTTN  GTET   GTTVD  
# ...
   01:51:57.650.27-Mar-2021 3763.51 7885.03 59.89 1.00  46.01 3487.00
   01:51:57.850.27-Mar-2021 3763.51 7885.03 59.89 1.00  46.21 3487.00
   01:51:58.050.27-Mar-2021 3763.51 7780.69 59.89 1.00  46.41 3487.00
   01:51:58.250.27-Mar-2021 3763.51 7720.47 59.89 1.00  46.61 3487.00
   01:51:58.450.27-Mar-2021 3763.51 7659.66 59.89 1.00  46.81 3487.00
   01:51:58.650.27-Mar-2021 3763.51 7613.97 59.89 1.00  47.01 3487.00
   01:51:58.850.27-Mar-2021 3763.51 7613.97 59.89 1.00  47.21 3487.00
   01:51:59.050.27-Mar-2021 3763.51 7487.86 59.89 1.00  47.41 3487.00
   01:51:59.250.27-Mar-2021 3763.51 7394.22 59.89 1.00  47.61 3487.00
   01:51:59.450.27-Mar-2021 3763.51 7303.01 59.89 1.00  47.81 3487.00
   01:51:59.650.27-Mar-2021 3763.51 7219.24 59.89 1.00  48.01 3487.00
   01:51:59.850.27-Mar-2021 3763.51 7219.24 59.89 1.00  48.21 3487.00
   01:52:00.050.27-Mar-2021 3763.51 7044.97 59.89 1.00  48.41 3487.00
   01:52:00.250.27-Mar-2021 3763.51 6976.49 59.89 1.00  48.61 3487.00
   01:52:00.451.27-Mar-2021 3763.51 6920.20 59.89 1.00  48.81 3487.00
   01:52:00.651.27-Mar-2021 3763.51 6871.35 59.89 1.00  49.01 3487.00
   01:52:00.851.27-Mar-2021 3763.51 6871.35 59.89 1.00  49.21 3487.00
   01:52:01.051.27-Mar-2021 3763.51 6787.21 59.89 1.00  49.41 3487.00
   01:52:01.251.27-Mar-2021 3763.51 6753.77 59.89 1.00  49.61 3487.00
   01:52:01.451.27-Mar-2021 3763.51 6723.75 59.89 1.00  49.81 3487.00
   01:52:01.651.27-Mar-2021 3763.51 6563.93 59.89 1.00  50.01 3487.00
   01:52:01.851.27-Mar-2021 3763.51 6563.93 59.89 1.00  50.21 3487.00
   01:52:02.051.27-Mar-2021 3763.51 4604.19 59.88 1.00  50.41 3487.00
   01:52:02.251.27-Mar-2021 3763.51 4648.41 59.88 1.00  50.61 3487.00
   01:52:02.451.27-Mar-2021 3763.51 4905.77 59.88 1.00  50.81 3487.00
   01:52:02.651.27-Mar-2021 3763.51 4908.35 59.88 1.00  51.01 3487.00
   01:52:02.851.27-Mar-2021 3763.51 4908.35 59.88 1.00  51.21 3487.00
   01:52:03.051.27-Mar-2021 3763.51 4913.54 59.88 1.00  51.41 3487.00
   01:52:03.251.27-Mar-2021 3763.51 4912.86 59.88 1.00  51.61 3487.00
   01:52:03.451.27-Mar-2021 3763.51 4915.27 59.87 1.00  51.81 3487.00
   01:52:03.651.27-Mar-2021 3763.51 4917.28 59.87 1.00  52.01 3487.00
   01:52:03.851.27-Mar-2021 3763.51 4917.28 59.87 1.00  52.21 3487.00
   01:52:04.051.27-Mar-2021 3763.51 4916.20 59.87 1.00  52.41 3487.00
   01:52:04.251.27-Mar-2021 3763.51 4914.80 59.87 1.00  52.61 3487.00
   01:52:04.451.27-Mar-2021 3763.51 4915.47 59.86 1.00  52.81 3487.00
   01:52:04.651.27-Mar-2021 3763.51 4913.92 59.86 1.00  53.01 3487.00
   01:52:04.851.27-Mar-2021 3763.51 4913.92 59.86 1.00  53.21 3487.00
   01:52:05.051.27-Mar-2021 3763.51 4914.01 59.86 1.00  53.41 3487.00
   01:52:05.252.27-Mar-2021 3763.51 4914.14 59.86 1.00  53.61 3487.00
   01:52:05.452.27-Mar-2021 3763.51 4913.54 59.85 1.00  53.81 3487.00
   01:52:05.652.27-Mar-2021 3763.51 4913.47 59.85 1.00  54.01 3487.00
   01:52:05.852.27-Mar-2021 3763.51 4913.47 59.85 1.00  54.21 3487.00
   01:52:06.052.27-Mar-2021 3763.51 4913.40 59.85 1.00  54.41 3487.00
   01:52:06.252.27-Mar-2021 3763.51 4912.85 59.85 1.00  54.61 3487.00
   01:52:06.452.27-Mar-2021 3763.51 4913.04 59.85 1.00  54.81 3487.00
   01:52:06.652.27-Mar-2021 3763.51 4912.42 59.84 1.00  55.01 3487.00
   01:52:06.852.27-Mar-2021 3763.51 4912.42 59.84 1.00  55.21 3487.00
   01:52:07.052.27-Mar-2021 3763.51 4912.25 59.84 1.00  55.41 3487.00
   01:52:07.252.27-Mar-2021 3763.51 4912.72 59.84 1.00  55.61 3487.00
   01:52:07.452.27-Mar-2021 3763.51 4912.36 59.84 1.00  55.81 3487.00
   01:52:07.652.27-Mar-2021 3763.51 4912.36 59.84 1.00  56.01 3487.00
   01:52:07.852.27-Mar-2021 3763.51 4912.36 59.84 1.00  56.21 3487.00
   01:52:08.052.27-Mar-2021 3763.51 4912.07 59.83 1.00  56.41 3487.00
   01:52:08.252.27-Mar-2021 3763.51 4912.19 59.83 1.00  56.61 3487.00
   01:52:08.452.27-Mar-2021 3763.51 4912.47 59.83 1.00  56.81 3487.00
   01:52:08.652.27-Mar-2021 3763.51 4911.98 59.83 1.00  57.01 3487.00
   01:52:08.852.27-Mar-2021 3763.51 4911.98 59.83 1.00  57.21 3487.00
   01:52:09.052.27-Mar-2021 3763.51 4911.98 59.83 1.00  57.41 3487.00
   01:52:09.252.27-Mar-2021 3763.51 4912.35 59.83 1.00  57.61 3487.00
   01:52:09.452.27-Mar-2021 3763.51 4912.35 59.83 1.00  57.81 3487.00
   01:52:09.652.27-Mar-2021 3763.51 4912.99 59.82 1.00  58.01 3487.00
   01:52:09.852.27-Mar-2021 3763.51 4912.99 59.82 1.00  58.21 3487.00
   01:52:10.053.27-Mar-2021 3763.51 4912.99 59.82 1.00  58.41 3487.00
   01:52:10.253.27-Mar-2021 3763.51 4912.64 59.82 1.00  58.61 3487.00
   01:52:10.453.27-Mar-2021 3763.51 4912.38 59.82 1.00  58.81 3487.00
   01:52:10.653.27-Mar-2021 3763.51 4912.35 59.82 1.00  59.01 3487.00
   01:52:10.853.27-Mar-2021 3763.51 4912.35 59.82 1.00  59.21 3487.00
   01:52:11.053.27-Mar-2021 3763.51 4912.94 59.82 1.00  59.41 3487.00
   01:52:11.253.27-Mar-2021 3763.51 4912.45 59.82 1.00  59.61 3487.00
   01:52:11.453.27-Mar-2021 3763.51 4929.13 59.82 1.00  59.81 3487.00
   01:52:11.653.27-Mar-2021 3763.51 4954.77 59.82 1.00  60.01 3487.00
   01:52:11.853.27-Mar-2021 3763.51 4954.77 59.82 1.00  60.21 3487.00
   01:52:12.053.27-Mar-2021 3763.51 4955.05 59.82 1.00  60.41 3487.00
   01:52:12.253.27-Mar-2021 3763.51 4955.13 59.82 1.00  60.61 3487.00
   01:52:12.453.27-Mar-2021 3763.51 4955.22 59.82 1.00  60.81 3487.00
   01:52:12.653.27-Mar-2021 3763.51 4955.18 59.82 1.00  61.01 3487.00
   01:52:12.853.27-Mar-2021 3763.51 4955.18 59.82 1.00  61.21 3487.00
   01:52:13.053.27-Mar-2021 3763.51 4955.38 59.82 1.00  61.41 3487.00
   01:52:13.253.27-Mar-2021 3763.51 4955.15 59.82 1.00  61.61 3487.00
   01:52:13.453.27-Mar-2021 3763.51 4955.26 59.82 1.00  61.81 3487.00
   01:52:13.653.27-Mar-2021 3763.51 4955.36 59.81 1.00  62.01 3487.00
   01:52:13.853.27-Mar-2021 3763.51 4955.36 59.81 1.00  62.21 3487.00
   01:52:14.053.27-Mar-2021 3763.51 4955.29 59.81 1.00  62.41 3487.00
   01:52:14.253.27-Mar-2021 3763.51 4955.38 59.81 1.00  62.61 3487.00
   01:52:14.453.27-Mar-2021 3763.51 4955.25 59.81 1.00  62.81 3487.00
   01:52:14.653.27-Mar-2021 3763.51 4955.38 59.81 1.00  63.01 3487.00
   01:52:14.854.27-Mar-2021 3763.51 4955.38 59.81 1.00  63.21 3487.00
   01:52:15.054.27-Mar-2021 3763.51 4955.32 59.81 1.00  63.41 3487.00
   01:52:15.254.27-Mar-2021 3763.51 4955.22 59.81 1.00  63.61 3487.00
   01:52:15.454.27-Mar-2021 3763.51 4955.66 59.81 1.00  63.81 3487.00
   01:52:15.654.27-Mar-2021 3763.51 4955.49 59.81 1.00  64.01 3487.00
   01:52:15.854.27-Mar-2021 3763.51 4955.49 59.81 1.00  64.21 3487.00
   01:52:16.054.27-Mar-2021 3763.51 4955.35 59.81 1.00  64.41 3487.00
   01:52:16.254.27-Mar-2021 3763.51 4955.48 59.81 1.00  64.61 3487.00
   01:52:16.454.27-Mar-2021 3763.51 4955.29 59.82 1.00  64.81 3487.00
   01:52:16.654.27-Mar-2021 3763.51 4955.31 59.82 1.00  65.01 3487.00
   01:52:16.854.27-Mar-2021 3763.51 4955.31 59.82 1.00  65.21 3487.00
   01:52:17.054.27-Mar-2021 3763.51 4955.40 59.82 1.00  65.41 3487.00
   01:52:17.254.27-Mar-2021 3763.51 4955.19 59.82 1.00  65.61 3487.00
   01:52:17.454.27-Mar-2021 3763.51 4955.44 59.82 1.00  65.81 3487.00
   01:52:17.654.27-Mar-2021 3763.51 4955.45 59.82 1.00  66.01 3487.00
   01:52:17.854.27-Mar-2021 3763.51 4955.45 59.82 1.00  66.21 3487.00
   01:52:18.054.27-Mar-2021 3763.51 4955.36 59.82 1.00  66.41 3487.00
   01:52:18.254.27-Mar-2021 3763.51 4955.48 59.82 1.00  66.61 3487.00
   01:52:18.454.27-Mar-2021 3763.51 4955.37 59.82 1.00  66.81 3487.00
   01:52:18.654.27-Mar-2021 3763.51 4955.35 59.82 1.00  67.01 3487.00
   01:52:18.854.27-Mar-2021 3763.51 4955.35 59.82 1.00  67.21 3487.00
   01:52:19.054.27-Mar-2021 3763.51 4955.41 59.82 1.00  67.41 3487.00
   01:52:19.254.27-Mar-2021 3763.51 4955.37 59.82 1.00  67.61 3487.00
   01:52:19.454.27-Mar-2021 3763.51 4955.44 59.82 1.00  67.81 3487.00
   01:52:19.655.27-Mar-2021 3763.51 4955.42 59.82 1.00  68.01 3487.00
   01:52:19.855.27-Mar-2021 3763.51 4955.42 59.82 1.00  68.21 3487.00
   01:52:20.055.27-Mar-2021 3763.51 4955.45 59.82 1.00  68.41 3487.00
   01:52:20.255.27-Mar-2021 3763.51 4955.31 59.82 1.00  68.61 3487.00
   01:52:20.455.27-Mar-2021 3763.51 4955.37 59.82 1.00  68.81 3487.00
