~Version Information
 VERS.                  2.0:   CWLS log ASCII Standard -VERSION 2.0
 WRAP.                   NO:   One line per depth step
~Well Information Block
#MNEM.UNIT     VALUE/NAME     DESCRIPTION
#---------     -----------    ---------------------------
 STRT.S             09:03:10 27-Mar-21: START TIME 09:03:10 27-Mar-21
 STOP.S             09:10:16 27-Mar-21: STOP TIME  09:10:16 27-Mar-21
 STEP.S                   0.00: STEP TIME
 NULL.                 -999.25: NULL VALUE
 DFWT.                        :  DIST FWL TEXT
 DFST.                        :  DIST FSL TEXT
 DMF .             Drill Floor:  DRILL MEAS FROM
 STIM.      20.26.40 11-Mar-21:  START TIME
 DATE.      20.26.40 30-Mar-21:  END TIME
 SPUD.               11-Mar-21:  SPUD DATE
 NREF.                    Grid:  NORTH REFERENCE
 HPTY.       Minimum Curvature:  HOLE POS TYPE
 DMOD.             Drill Model:  DRILL MOD DESC
 SVYD.                  Survey:  SURVEY DESC
 ILTD.               Lithology:  INTERP LTH DESC
 FTOP.          Formation Tops:  FORM TOPS DESC
 SON .        AZ-XX-0906805385:  JOB NUMBER
 WTYP.                Deviated:  WELL TYPE
 COMP.     BP Exploration (Caspian Sea) Ltd.:  COMPANY
 UWI .            /AZE00000198:  UNIQUE WELL IDENTIFIER
 API .            /AZE00000198:  API NUMBER
 BASE.              Azerbaijan:  LOGGING EQUIPMENT BASE LOCATION
 REGN.                   EESSA:  REGION
 PROV.                    Baku:  PROVINCE
 STAT.                    Baku:  STATE NAME
 CTRY.              Azerbaijan:  COUNTRY NAME
 FLD .                     ACG:  FIELD NAME
 SRVC.     Turan Drilling & Engineering:  CONTRACTOR
 MWDS.                    Baku:  MWD SHOP
 WELL.                    D09z:  WELL NAME
 JOBN.        AZ-XX-0906805385:  JOB TICKET NUMB
 RIG .              East Azeri:  RIG NAME
 DOE .                     N/A:  DOE NUMBER
 DCON.         Sperry Drilling:  DIRECTNL CONTR
 UNIT.                     N/A:  LOGGING EQUIPMENT ID
 PDAT.          Mean Sea Level:  PERMANENT DATUM
 MDS .        Operator Entered:  MAG DATA SOURCE
 CNTY.                        :  COUNTY
 LOC .                        :  LOCATION
 LMF .             Drill Floor:  LOG MEASURED FROM
 TVDS.m                  43.60:  TVDSS CORRECTN
 LATI.deg                40.02:  LATITUDE
 LONG.deg                51.45:  LONGITUDE
 WHNS.m                 -17.04:  WELL HEAD N/S
 WHEW.m                  -6.28:  WELL HEAD E/W
 UTMX.m              538763.98:  UTM X
 UTMY.m             4431880.20:  UTM Y
 DFWL.m                   0.00:  DISTANCE FWL
 DFSL.m                   0.00:  DISTANCE FSL
 SDEP.m                2680.01:  START DEPTH
 TDD .m                4000.01:  TOTAL DEPTH (DRILLER)
 VSDR.deg               225.71:  VERT SEC DIRECT
 GVFD.g                   1.00:  GRAVITY FIELD
 MFLD.nT              50353.00:  MAGNETIC FIELD
 MDIP.deg                59.49:  MAGNETIC DIP
 MDEC.deg                 6.46:  MAGNETIC DECL
 GRDC.deg                 0.29:  GRID CORRECTION
 AZTC.deg                 6.17:  AZM TOTAL CORR
 EPD .m                   0.00:  ELEVATION
 EGL .m                   0.00:  GROUND ELEVATION
 WDMS.m                 151.80:  WD ELEV
 APD .m                  43.60:  DEPTH ABOVE PD
 AGAP.m                  43.60:  AIR GAP
 VSEW.m                  -6.28:  VERT SEC E/W
 VSNS.m                 -17.04:  VERT SEC N/S
 DEP .m                2656.31:  DEPTH
 EKB .m                  43.60:  KB ELEVATION
 EDF .m                  43.60:  DF ELEVATION
 VSC .                       0:  VS TO CLOSURE
 MAGU.                 1851247:  MAGUTM CHECKSUM
~Parameter Information Block
#MNEM.UNIT       Value        Description
#---------     -----------    ---------------------------
 AV  .mps                 3.00:  Ann Velocity 
 AVMX.mps                 8.00:  Max Ann Veloc 
 AZIF.deg                 0.00:  Azm, Final 
 BHAT.                   Other:  BHA Type 
 BREV.rev                 0.00:  Rev Bit Total 
 BROT.°/30m               0.00:  Build Rotating 
 BS  .in                 10.25:  Bit Size 
 BTPL.psig              511.00:  Bit Press Loss 
 CABU.                      No:  Customer Abuse 
 CGEO.           Asif Pashayev:  Customer Geo 
 TCS .hr                 24.03:  Time Ciculation Ended 
 CV  .mps                 3.50:  Crit Velocity 
 CVMX.mps                 4.00:  Max Crit Veloc 
 DD1 .             Aziz Aliyev:  Direct Drillr 1 
 DD2 .      Fakhraddin Guliyev:  Direct Drillr 2 
 DDSV.                   Other:  DD Service 
 DEFF.%                  99.00:  % Det Eff 
 DLRX.°/30m               0.00:  Dogleg Rot Max 
 DLSO.°/30m               0.00:  Dogleg Oriented 
 DLSX.°/30m               0.00:  Dogleg Str Max 
 DRET.      23.00.40 28-Mar-21:  Drill End Time 
 DRST.      23.30.40 25-Mar-21:  Drill Start Tim 
 DTIM.hr                  0.00:  Time Drilling 
 EDEP.m                3886.01:  End Depth 
 ENG1.         Almaz Almadatov:  Engineer 1 
 ENG2.      Artemiy Matviyanov:  Engineer 2 
 ENG3.           Samir Gafarov:  Engineer 3 
 ETIM.      23.00.40 28-Mar-21:  End Time 
 FLOI.gpm               550.00:  Flow In 
 FLON.gpm               500.00:  Flow In Min 
 FLOS.cptm                0.00:  Fluid Loss 
 FLOX.gpm               590.00:  Flow In Max 
 HFLO.                      No:  High Flow 
 HPRE.                      No:  High Pressure 
 HTEM.                      No:  High Temp 
 HYDO.m                   1.80:  Hydro Offset 
 IFIN.deg                 0.00:  Inc, Final 
 IMAX.deg                 0.00:  Inc Max 
 IMIN.deg                 0.00:  Inc Min 
 IMND.m                   0.00:  Inc Min Depth 
 IMXD.m                   0.00:  Inc Max Depth 
 JARR.                      No:  Jarring 
 LETM.      03.22.40 28-Mar-21:  Log End Time 
 LOST.hr                     0:  Lost Rig Time 
 LSTM.      23.30.40 25-Mar-21:  Log Start Time 
 MDCL.ppm             34000.00:  Mud Chlorides 
 MDES.     Inversion Oil/Synthetic:  Mud Desc 
 DFD .sg                  1.51:  Mud Density 
 MDMN.sg                  1.51:  Dens Mud Min 
 MDMX.sg                  1.51:  Dens Mud Max 
 MOIL.                      70:  Run Mud Oil % 
 MOWR.                   70:30:  Run Mud OWR 
 MSND.                     0.2:  Run Mud Sand % 
 MSOL.                   21.60:  Run Mud Solids% 
 DFV .spqt               74.00:  Mud Viscosity 
 MWOD.in                  6.75:  MWD Tool OD 
 MWSI.                      No:  Serv Intrp, MWD 
 OTIM.hr                 69.09:  Time Operating 
 PCON.           Look Like New:  Pad Condition 
 PMAX.psia             3500.00:  Press Op, Max 
 PV  .cP                 70.00:  Mud PV 
 RUN .                     400:  Run Number 
 ROPA.m/hr                0.00:  ROP Avg 
 ROPN.m/hr                0.00:  ROP Min 
 ROPX.m/hr                0.00:  ROP Max 
 RPMA.rpm                80.00:  RPM Surface Avg 
 RPMN.rpm                10.00:  RPM Surface Min 
 RPMX.rpm               100.00:  RPM Surface Max 
 RRUN.                    0400:  Rig Run Number 
 RTIM.hr                  3.00:  Time Reaming 
 SAZI.deg                 0.00:  Azm, Start 
 SDEP.m                3886.01:  Start Depth 
 SIDD.                      No:  Serv Intrp, DD 
 SINC.deg                 0.00:  Inc, Start 
 SPPA.psig             3270.00:  SPP Avg 
 SPPN.psig             3220.00:  SPP Min 
 SPPX.psig             4430.00:  SPP Max 
 STIM.      23.30.40 25-Mar-21:  Start Time 
 SVCS.                 DD, MWD:  Services 
 SVER.                    9.20:  Sperry Version 
 TDAT.m                   0.00:  Tot Depth Attmp 
 TDDF.                      No:  Trip for DD 
 TFF .                      No:  Trip for Fail 
 TQAA.f-kp                8.00:  Torque Abs Avg 
 TQAN.f-kp                7.00:  Torque Abs Min 
 TQAX.f-kp               11.00:  Torque Abs Max 
 TRRT.°/30m               0.00:  Turn Rotating 
 MRT .                  EWR-M5:  Maximum Recorded Temperature 
 TTMX.degC               76.47:  Max Tool Temp 
 VS01.                90640857:  Virtual Str1 SN 
 VS02.                90639246:  Virtual Str2 SN 
 VS03.                90642265:  Virtual Str3 SN 
 VS04.                11654497:  Virtual Str4 SN 
 WBMN.klb                 0.00:  WOB Min 
 WITN.      Kamran Keberlinkiy:  Customer Rep 
 WITN.           Murad Guliyev:  Customer Rep 2 
 WOBA.klb                 0.00:  WOB Avg 
 WOBX.klb                 0.00:  WOB Max 
 YP  .lhf2               36.00:  Yield Point 
~Curve Information Block
#MNEM.UNIT                 API CODE     Curve Description
#---------               -----------    ---------------------------
 TIME.HHMMSS            00 000 000 000:  GT Time & Date
 GTDEPTH.m              00 000 000 000:  GT Depth
 GTPQH.psia             00 000 000 000:  GT HR Quartz Pressure
 GTTQ.degC              00 000 000 000:  GT Quartz Temperature
 GTTN.NONE              00 000 000 000:  GT Test Number
 GTET.sec               00 000 000 000:  GT Elapsed Test Time
 GTTVD.m                00 000 000 000:  GT True Vertical Depth
#Other Information
#
#WARRANTY: Halliburton will use its best efforts to furnish customers with 
#accurate information and interpretations that are part of, and incident to, the services 
#provided.  However, Halliburton cannot and does not warrant the accuracy 
#or correctness of such information and interpretations.  Under no circumstances should any 
#such information or interpretation be relied upon as the sole basis for any drilling, 
#completion, production, or financial decision or any procedure involving any risk to the 
#safety of any drilling venture, drilling rig or its crew or any other third party.  The 
#Customer has full responsibility for all drilling, completion and production operation.  
#Halliburton makes no representations or warranties, either expressed or 
#implied, including, but not limited to, the implied warranties of merchantability or fitness 
#for a particular purpose, with respect to the services rendered.  In no event will 
#Halliburton be liable for failure to obtain any particular results or for 
#any damages, including, but not limited to, indirect, special or consequential damages, 
#resulting from the use of any information or interpretation provided by Halliburton.
#
~A           TIME           GTDEPTH  GTPQH  GTTQ  GTTN  GTET   GTTVD  
# ...
   09:05:28.000.27-Mar-2021 3361.51 4829.79 61.09 8.00 138.00 3109.50
   09:05:28.200.27-Mar-2021 3361.51 4829.79 61.09 8.00 138.20 3109.50
   09:05:28.400.27-Mar-2021 3361.51 4829.64 61.09 8.00 138.40 3109.50
   09:05:28.600.27-Mar-2021 3361.51 4829.68 61.09 8.00 138.60 3109.50
   09:05:28.800.27-Mar-2021 3361.51 4829.90 61.09 8.00 138.80 3109.50
   09:05:29.000.27-Mar-2021 3361.51 4829.14 61.09 8.00 139.00 3109.50
   09:05:29.200.27-Mar-2021 3361.51 4829.14 61.09 8.00 139.20 3109.50
   09:05:29.400.27-Mar-2021 3361.51 4829.56 61.09 8.00 139.40 3109.50
   09:05:29.600.27-Mar-2021 3361.51 4829.49 61.09 8.00 139.60 3109.50
   09:05:29.800.27-Mar-2021 3361.51 4829.73 61.09 8.00 139.80 3109.50
   09:05:30.000.27-Mar-2021 3361.51 4830.42 61.09 8.00 140.00 3109.50
   09:05:30.200.27-Mar-2021 3361.51 4830.42 61.09 8.00 140.20 3109.50
   09:05:30.400.27-Mar-2021 3361.51 4830.01 61.09 8.00 140.40 3109.50
   09:05:30.600.27-Mar-2021 3361.51 4830.09 61.09 8.00 140.60 3109.50
   09:05:30.800.27-Mar-2021 3361.51 4829.57 61.09 8.00 140.80 3109.50
   09:05:31.000.27-Mar-2021 3361.51 4829.62 61.09 8.00 141.00 3109.50
   09:05:31.200.27-Mar-2021 3361.51 4829.62 61.09 8.00 141.20 3109.50
   09:05:31.400.27-Mar-2021 3361.51 4829.71 61.09 8.00 141.40 3109.50
   09:05:31.600.27-Mar-2021 3361.51 4829.75 61.09 8.00 141.60 3109.50
   09:05:31.800.27-Mar-2021 3361.51 4829.79 61.09 8.00 141.80 3109.50
   09:05:32.000.27-Mar-2021 3361.51 4829.74 61.09 8.00 142.00 3109.50
   09:05:32.200.27-Mar-2021 3361.51 4829.74 61.09 8.00 142.20 3109.50
   09:05:32.400.27-Mar-2021 3361.51 4829.70 61.09 8.00 142.40 3109.50
   09:05:32.600.27-Mar-2021 3361.51 4829.73 61.08 8.00 142.60 3109.50
   09:05:32.800.27-Mar-2021 3361.51 4829.78 61.08 8.00 142.80 3109.50
   09:05:33.000.27-Mar-2021 3361.51 4829.73 61.08 8.00 143.00 3109.50
   09:05:33.200.27-Mar-2021 3361.51 4829.73 61.08 8.00 143.20 3109.50
   09:05:33.400.27-Mar-2021 3361.51 4829.14 61.08 8.00 143.40 3109.50
   09:05:33.600.27-Mar-2021 3361.51 4830.48 61.08 8.00 143.60 3109.50
   09:05:33.800.27-Mar-2021 3361.51 4829.59 61.08 8.00 143.80 3109.50
   09:05:34.000.27-Mar-2021 3361.51 4829.57 61.08 8.00 144.00 3109.50
   09:05:34.200.27-Mar-2021 3361.51 4829.57 61.08 8.00 144.20 3109.50
   09:05:34.400.27-Mar-2021 3361.51 4829.86 61.08 8.00 144.40 3109.50
   09:05:34.600.27-Mar-2021 3361.51 4829.68 61.08 8.00 144.60 3109.50
   09:05:34.800.27-Mar-2021 3361.51 4829.71 61.08 8.00 144.80 3109.50
   09:05:35.000.27-Mar-2021 3361.51 4829.76 61.08 8.00 145.00 3109.50
   09:05:35.200.27-Mar-2021 3361.51 4829.76 61.08 8.00 145.20 3109.50
   09:05:35.400.27-Mar-2021 3361.51 4829.72 61.08 8.00 145.40 3109.50
   09:05:35.600.27-Mar-2021 3361.51 4829.78 61.08 8.00 145.60 3109.50
   09:05:35.800.27-Mar-2021 3361.51 4829.76 61.08 8.00 145.80 3109.50
   09:05:36.000.27-Mar-2021 3361.51 4829.15 61.08 8.00 146.00 3109.50
   09:05:36.200.27-Mar-2021 3361.51 4829.15 61.08 8.00 146.20 3109.50
   09:05:36.400.27-Mar-2021 3361.51 4829.61 61.08 8.00 146.40 3109.50
   09:05:36.600.27-Mar-2021 3361.51 4829.61 61.08 8.00 146.60 3109.50
   09:05:36.800.27-Mar-2021 3361.51 4829.78 61.08 8.00 146.80 3109.50
   09:05:37.000.27-Mar-2021 3361.51 4829.64 61.08 8.00 147.00 3109.50
   09:05:37.200.27-Mar-2021 3361.51 4829.64 61.08 8.00 147.20 3109.50
   09:05:37.400.27-Mar-2021 3361.51 4829.50 61.08 8.00 147.40 3109.50
   09:05:37.600.27-Mar-2021 3361.51 4829.33 61.08 8.00 147.60 3109.50
   09:05:37.800.27-Mar-2021 3361.51 4829.89 61.08 8.00 147.80 3109.50
   09:05:38.000.27-Mar-2021 3361.51 4829.82 61.08 8.00 148.00 3109.50
   09:05:38.200.27-Mar-2021 3361.51 4829.82 61.08 8.00 148.20 3109.50
   09:05:38.400.27-Mar-2021 3361.51 4829.69 61.08 8.00 148.40 3109.50
   09:05:38.600.27-Mar-2021 3361.51 4829.68 61.08 8.00 148.60 3109.50
   09:05:38.800.27-Mar-2021 3361.51 4829.68 61.08 8.00 148.80 3109.50
   09:05:39.000.27-Mar-2021 3361.51 4830.31 61.08 8.00 149.00 3109.50
   09:05:39.200.27-Mar-2021 3361.51 4830.31 61.08 8.00 149.20 3109.50
   09:05:39.400.27-Mar-2021 3361.51 4829.22 61.08 8.00 149.40 3109.50
   09:05:39.600.27-Mar-2021 3361.51 4829.82 61.08 8.00 149.60 3109.50
   09:05:39.800.27-Mar-2021 3361.51 4829.78 61.08 8.00 149.80 3109.50
   09:05:40.000.27-Mar-2021 3361.51 4829.02 61.08 8.00 150.00 3109.50
   09:05:40.200.27-Mar-2021 3361.51 4829.02 61.08 8.00 150.20 3109.50
   09:05:40.400.27-Mar-2021 3361.51 4829.61 61.08 8.00 150.40 3109.50
   09:05:40.600.27-Mar-2021 3361.51 4829.51 61.08 8.00 150.60 3109.50
   09:05:40.800.27-Mar-2021 3361.51 4829.89 61.08 8.00 150.80 3109.50
   09:05:41.000.27-Mar-2021 3361.51 4829.73 61.08 8.00 151.00 3109.50
   09:05:41.200.27-Mar-2021 3361.51 4829.73 61.08 8.00 151.20 3109.50
   09:05:41.400.27-Mar-2021 3361.51 4829.76 61.08 8.00 151.40 3109.50
   09:05:41.600.27-Mar-2021 3361.51 4829.75 61.08 8.00 151.60 3109.50
   09:05:41.800.27-Mar-2021 3361.51 4829.66 61.08 8.00 151.80 3109.50
   09:05:42.000.27-Mar-2021 3361.51 4829.70 61.08 8.00 152.00 3109.50
   09:05:42.200.27-Mar-2021 3361.51 4829.70 61.08 8.00 152.20 3109.50
   09:05:42.400.27-Mar-2021 3361.51 4829.76 61.08 8.00 152.40 3109.50
   09:05:42.600.27-Mar-2021 3361.51 4829.76 61.08 8.00 152.60 3109.50
   09:05:42.800.27-Mar-2021 3361.51 4829.76 61.08 8.00 152.80 3109.50
   09:05:43.000.27-Mar-2021 3361.51 4829.58 61.08 8.00 153.00 3109.50
   09:05:43.200.27-Mar-2021 3361.51 4829.58 61.08 8.00 153.20 3109.50
   09:05:43.400.27-Mar-2021 3361.51 4830.36 61.08 8.00 153.40 3109.50
   09:05:43.600.27-Mar-2021 3361.51 4829.19 61.08 8.00 153.60 3109.50
   09:05:43.800.27-Mar-2021 3361.51 4829.62 61.08 8.00 153.80 3109.50
   09:05:44.000.27-Mar-2021 3361.51 4829.97 61.08 8.00 154.00 3109.50
   09:05:44.200.27-Mar-2021 3361.51 4829.97 61.08 8.00 154.20 3109.50
   09:05:44.400.27-Mar-2021 3361.51 4829.59 61.08 8.00 154.40 3109.50
   09:05:44.600.27-Mar-2021 3361.51 4829.69 61.08 8.00 154.60 3109.50
   09:05:44.800.27-Mar-2021 3361.51 4829.73 61.08 8.00 154.80 3109.50
   09:05:45.000.27-Mar-2021 3361.51 4829.69 61.08 8.00 155.00 3109.50
   09:05:45.200.27-Mar-2021 3361.51 4829.69 61.08 8.00 155.20 3109.50
   09:05:45.400.27-Mar-2021 3361.51 4829.73 61.08 8.00 155.40 3109.50
   09:05:45.600.27-Mar-2021 3361.51 4829.62 61.08 8.00 155.60 3109.50
   09:05:45.800.27-Mar-2021 3361.51 4829.74 61.08 8.00 155.80 3109.50
   09:05:46.000.27-Mar-2021 3361.51 4830.32 61.08 8.00 156.00 3109.50
   09:05:46.200.27-Mar-2021 3361.51 4830.32 61.08 8.00 156.20 3109.50
   09:05:46.400.27-Mar-2021 3361.51 4822.60 61.08 8.00 156.40 3109.50
   09:05:46.600.27-Mar-2021 3361.51 4728.97 61.08 8.00 156.60 3109.50
   09:05:46.800.27-Mar-2021 3361.51 4719.43 61.08 8.00 156.80 3109.50
   09:05:47.000.27-Mar-2021 3361.51 4720.89 61.08 8.00 157.00 3109.50
   09:05:47.200.27-Mar-2021 3361.51 4720.89 61.08 8.00 157.20 3109.50
   09:05:47.400.27-Mar-2021 3361.51 4719.83 61.08 8.00 157.40 3109.50
   09:05:47.600.27-Mar-2021 3361.51 4719.64 61.08 8.00 157.60 3109.50
   09:05:47.800.27-Mar-2021 3361.51 4720.27 61.08 8.00 157.80 3109.50
   09:05:48.000.27-Mar-2021 3361.51 4719.09 61.08 8.00 158.00 3109.50
   09:05:48.200.27-Mar-2021 3361.51 4719.09 61.08 8.00 158.20 3109.50
   09:05:48.400.27-Mar-2021 3361.51 4719.69 61.08 8.00 158.40 3109.50
   09:05:48.600.27-Mar-2021 3361.51 4719.62 61.08 8.00 158.60 3109.50
   09:05:48.800.27-Mar-2021 3361.51 4719.85 61.08 8.00 158.80 3109.50
   09:05:49.000.27-Mar-2021 3361.51 4718.53 61.08 8.00 159.00 3109.50
   09:05:49.200.27-Mar-2021 3361.51 4718.53 61.08 8.00 159.20 3109.50
   09:05:49.400.27-Mar-2021 3361.51 4722.85 61.08 8.00 159.40 3109.50
   09:05:49.600.27-Mar-2021 3361.51 4721.60 61.08 8.00 159.60 3109.50
   09:05:49.800.27-Mar-2021 3361.51 4719.68 61.08 8.00 159.80 3109.50
   09:05:50.000.27-Mar-2021 3361.51 4721.14 61.08 8.00 160.00 3109.50
   09:05:50.200.27-Mar-2021 3361.51 4721.14 61.08 8.00 160.20 3109.50
   09:05:50.400.27-Mar-2021 3361.51 4720.78 61.08 8.00 160.40 3109.50
   09:05:50.600.27-Mar-2021 3361.51 4719.33 61.07 8.00 160.60 3109.50
   09:05:50.800.27-Mar-2021 3361.51 4720.12 61.07 8.00 160.80 3109.50
