~Version Information
 VERS.                  2.0:   CWLS log ASCII Standard -VERSION 2.0
 WRAP.                   NO:   One line per depth step
~Well Information Block
#MNEM.UNIT     VALUE/NAME     DESCRIPTION
#---------     -----------    ---------------------------
 STRT.S             03:27:53 27-Mar-21: START TIME 03:27:53 27-Mar-21
 STOP.S             03:35:02 27-Mar-21: STOP TIME  03:35:02 27-Mar-21
 STEP.S                   0.00: STEP TIME
 NULL.                 -999.25: NULL VALUE
 DFWT.                        :  DIST FWL TEXT
 DFST.                        :  DIST FSL TEXT
 DMF .             Drill Floor:  DRILL MEAS FROM
 STIM.      20.26.40 11-Mar-21:  START TIME
 DATE.      20.26.40 30-Mar-21:  END TIME
 SPUD.               11-Mar-21:  SPUD DATE
 NREF.                    Grid:  NORTH REFERENCE
 HPTY.       Minimum Curvature:  HOLE POS TYPE
 DMOD.             Drill Model:  DRILL MOD DESC
 SVYD.                  Survey:  SURVEY DESC
 ILTD.               Lithology:  INTERP LTH DESC
 FTOP.          Formation Tops:  FORM TOPS DESC
 SON .        AZ-XX-0906805385:  JOB NUMBER
 WTYP.                Deviated:  WELL TYPE
 COMP.     BP Exploration (Caspian Sea) Ltd.:  COMPANY
 UWI .            /AZE00000198:  UNIQUE WELL IDENTIFIER
 API .            /AZE00000198:  API NUMBER
 BASE.              Azerbaijan:  LOGGING EQUIPMENT BASE LOCATION
 REGN.                   EESSA:  REGION
 PROV.                    Baku:  PROVINCE
 STAT.                    Baku:  STATE NAME
 CTRY.              Azerbaijan:  COUNTRY NAME
 FLD .                     ACG:  FIELD NAME
 SRVC.     Turan Drilling & Engineering:  CONTRACTOR
 MWDS.                    Baku:  MWD SHOP
 WELL.                    D09z:  WELL NAME
 JOBN.        AZ-XX-0906805385:  JOB TICKET NUMB
 RIG .              East Azeri:  RIG NAME
 DOE .                     N/A:  DOE NUMBER
 DCON.         Sperry Drilling:  DIRECTNL CONTR
 UNIT.                     N/A:  LOGGING EQUIPMENT ID
 PDAT.          Mean Sea Level:  PERMANENT DATUM
 MDS .        Operator Entered:  MAG DATA SOURCE
 CNTY.                        :  COUNTY
 LOC .                        :  LOCATION
 LMF .             Drill Floor:  LOG MEASURED FROM
 TVDS.m                  43.60:  TVDSS CORRECTN
 LATI.deg                40.02:  LATITUDE
 LONG.deg                51.45:  LONGITUDE
 WHNS.m                 -17.04:  WELL HEAD N/S
 WHEW.m                  -6.28:  WELL HEAD E/W
 UTMX.m              538763.98:  UTM X
 UTMY.m             4431880.20:  UTM Y
 DFWL.m                   0.00:  DISTANCE FWL
 DFSL.m                   0.00:  DISTANCE FSL
 SDEP.m                2680.01:  START DEPTH
 TDD .m                4000.01:  TOTAL DEPTH (DRILLER)
 VSDR.deg               225.71:  VERT SEC DIRECT
 GVFD.g                   1.00:  GRAVITY FIELD
 MFLD.nT              50353.00:  MAGNETIC FIELD
 MDIP.deg                59.49:  MAGNETIC DIP
 MDEC.deg                 6.46:  MAGNETIC DECL
 GRDC.deg                 0.29:  GRID CORRECTION
 AZTC.deg                 6.17:  AZM TOTAL CORR
 EPD .m                   0.00:  ELEVATION
 EGL .m                   0.00:  GROUND ELEVATION
 WDMS.m                 151.80:  WD ELEV
 APD .m                  43.60:  DEPTH ABOVE PD
 AGAP.m                  43.60:  AIR GAP
 VSEW.m                  -6.28:  VERT SEC E/W
 VSNS.m                 -17.04:  VERT SEC N/S
 DEP .m                2656.31:  DEPTH
 EKB .m                  43.60:  KB ELEVATION
 EDF .m                  43.60:  DF ELEVATION
 VSC .                       0:  VS TO CLOSURE
 MAGU.                 1851247:  MAGUTM CHECKSUM
~Parameter Information Block
#MNEM.UNIT       Value        Description
#---------     -----------    ---------------------------
 AV  .mps                 3.00:  Ann Velocity 
 AVMX.mps                 8.00:  Max Ann Veloc 
 AZIF.deg                 0.00:  Azm, Final 
 BHAT.                   Other:  BHA Type 
 BREV.rev                 0.00:  Rev Bit Total 
 BROT.°/30m               0.00:  Build Rotating 
 BS  .in                 10.25:  Bit Size 
 BTPL.psig              511.00:  Bit Press Loss 
 CABU.                      No:  Customer Abuse 
 CGEO.           Asif Pashayev:  Customer Geo 
 COMM.                     ¼Fy:  Run Comments 1 
 TCS .hr                 24.03:  Time Ciculation Ended 
 CV  .mps                 3.50:  Crit Velocity 
 CVMX.mps                 4.00:  Max Crit Veloc 
 DD1 .             Aziz Aliyev:  Direct Drillr 1 
 DD2 .      Fakhraddin Guliyev:  Direct Drillr 2 
 DDSV.                   Other:  DD Service 
 DEFF.%                  99.00:  % Det Eff 
 DLRX.°/30m               0.00:  Dogleg Rot Max 
 DLSO.°/30m               0.00:  Dogleg Oriented 
 DLSX.°/30m               0.00:  Dogleg Str Max 
 DRET.      23.00.40 28-Mar-21:  Drill End Time 
 DRST.      23.30.40 25-Mar-21:  Drill Start Tim 
 DTIM.hr                  0.00:  Time Drilling 
 EDEP.m                3886.01:  End Depth 
 ENG1.         Almaz Almadatov:  Engineer 1 
 ENG2.      Artemiy Matviyanov:  Engineer 2 
 ENG3.           Samir Gafarov:  Engineer 3 
 ETIM.      23.00.40 28-Mar-21:  End Time 
 FLOI.gpm               550.00:  Flow In 
 FLON.gpm               500.00:  Flow In Min 
 FLOS.cptm                0.00:  Fluid Loss 
 FLOX.gpm               590.00:  Flow In Max 
 HFLO.                      No:  High Flow 
 HPRE.                      No:  High Pressure 
 HTEM.                      No:  High Temp 
 HYDO.m                   1.80:  Hydro Offset 
 IFIN.deg                 0.00:  Inc, Final 
 IMAX.deg                 0.00:  Inc Max 
 IMIN.deg                 0.00:  Inc Min 
 IMND.m                   0.00:  Inc Min Depth 
 IMXD.m                   0.00:  Inc Max Depth 
 JARR.                      No:  Jarring 
 LETM.      03.22.40 28-Mar-21:  Log End Time 
 LOST.hr                     0:  Lost Rig Time 
 LSTM.      23.30.40 25-Mar-21:  Log Start Time 
 MDCL.ppm             34000.00:  Mud Chlorides 
 MDES.     Inversion Oil/Synthetic:  Mud Desc 
 DFD .sg                  1.51:  Mud Density 
 MDMN.sg                  1.51:  Dens Mud Min 
 MDMX.sg                  1.51:  Dens Mud Max 
 MOIL.                      70:  Run Mud Oil % 
 MOWR.                   70:30:  Run Mud OWR 
 MSND.                     0.2:  Run Mud Sand % 
 MSOL.                   21.60:  Run Mud Solids% 
 DFV .spqt               74.00:  Mud Viscosity 
 MWOD.in                  6.75:  MWD Tool OD 
 MWSI.                      No:  Serv Intrp, MWD 
 OTIM.hr                 69.09:  Time Operating 
 PCON.           Look Like New:  Pad Condition 
 PMAX.psia             3500.00:  Press Op, Max 
 PV  .cP                 70.00:  Mud PV 
 RUN .                     400:  Run Number 
 ROPA.m/hr                0.00:  ROP Avg 
 ROPN.m/hr                0.00:  ROP Min 
 ROPX.m/hr                0.00:  ROP Max 
 RPMA.rpm                80.00:  RPM Surface Avg 
 RPMN.rpm                10.00:  RPM Surface Min 
 RPMX.rpm               100.00:  RPM Surface Max 
 RRUN.                    0400:  Rig Run Number 
 RTIM.hr                  3.00:  Time Reaming 
 SAZI.deg                 0.00:  Azm, Start 
 SDEP.m                3886.01:  Start Depth 
 SIDD.                      No:  Serv Intrp, DD 
 SINC.deg                 0.00:  Inc, Start 
 SPPA.psig             3270.00:  SPP Avg 
 SPPN.psig             3220.00:  SPP Min 
 SPPX.psig             4430.00:  SPP Max 
 STIM.      23.30.40 25-Mar-21:  Start Time 
 SVCS.                 DD, MWD:  Services 
 SVER.                    9.20:  Sperry Version 
 TDAT.m                   0.00:  Tot Depth Attmp 
 TDDF.                      No:  Trip for DD 
 TFF .                      No:  Trip for Fail 
 TQAA.f-kp                8.00:  Torque Abs Avg 
 TQAN.f-kp                7.00:  Torque Abs Min 
 TQAX.f-kp               11.00:  Torque Abs Max 
 TRRT.°/30m               0.00:  Turn Rotating 
 MRT .                  EWR-M5:  Maximum Recorded Temperature 
 TTMX.degC               76.47:  Max Tool Temp 
 VS01.                90640857:  Virtual Str1 SN 
 VS02.                90639246:  Virtual Str2 SN 
 VS03.                90642265:  Virtual Str3 SN 
 VS04.                11654497:  Virtual Str4 SN 
 WBMN.klb                 0.00:  WOB Min 
 WITN.      Kamran Keberlinkiy:  Customer Rep 
 WITN.           Murad Guliyev:  Customer Rep 2 
 WOBA.klb                 0.00:  WOB Avg 
 WOBX.klb                 0.00:  WOB Max 
 YP  .lhf2               36.00:  Yield Point 
~Curve Information Block
#MNEM.UNIT                 API CODE     Curve Description
#---------               -----------    ---------------------------
 TIME.HHMMSS            00 000 000 000:  GT Time & Date
 GTDEPTH.m              00 000 000 000:  GT Depth
 GTPQH.psia             00 000 000 000:  GT HR Quartz Pressure
 GTTQ.degC              00 000 000 000:  GT Quartz Temperature
 GTTN.NONE              00 000 000 000:  GT Test Number
 GTET.sec               00 000 000 000:  GT Elapsed Test Time
 GTTVD.m                00 000 000 000:  GT True Vertical Depth
#Other Information
#
#WARRANTY: Halliburton will use its best efforts to furnish customers with 
#accurate information and interpretations that are part of, and incident to, the services 
#provided.  However, Halliburton cannot and does not warrant the accuracy 
#or correctness of such information and interpretations.  Under no circumstances should any 
#such information or interpretation be relied upon as the sole basis for any drilling, 
#completion, production, or financial decision or any procedure involving any risk to the 
#safety of any drilling venture, drilling rig or its crew or any other third party.  The 
#Customer has full responsibility for all drilling, completion and production operation.  
#Halliburton makes no representations or warranties, either expressed or 
#implied, including, but not limited to, the implied warranties of merchantability or fitness 
#for a particular purpose, with respect to the services rendered.  In no event will 
#Halliburton be liable for failure to obtain any particular results or for 
#any damages, including, but not limited to, indirect, special or consequential damages, 
#resulting from the use of any information or interpretation provided by Halliburton.
#
~A           TIME           GTDEPTH  GTPQH  GTTQ  GTTN  GTET   GTTVD  
# ...
   03:30:57.150.27-Mar-2021 3725.51 5265.40 61.45 3.00 184.02 3451.28
   03:30:57.350.27-Mar-2021 3725.51 5265.40 61.45 3.00 184.22 3451.28
   03:30:57.550.27-Mar-2021 3725.51 5265.41 61.45 3.00 184.42 3451.28
   03:30:57.750.27-Mar-2021 3725.51 5265.40 61.45 3.00 184.62 3451.28
   03:30:57.950.27-Mar-2021 3725.51 5265.43 61.45 3.00 184.82 3451.28
   03:30:58.150.27-Mar-2021 3725.51 5265.34 61.45 3.00 185.02 3451.28
   03:30:58.350.27-Mar-2021 3725.51 5265.34 61.45 3.00 185.22 3451.28
   03:30:58.550.27-Mar-2021 3725.51 5265.33 61.45 3.00 185.42 3451.28
   03:30:58.750.27-Mar-2021 3725.51 5265.23 61.45 3.00 185.62 3451.28
   03:30:58.950.27-Mar-2021 3725.51 5265.47 61.45 3.00 185.82 3451.28
   03:30:59.150.27-Mar-2021 3725.51 5265.58 61.45 3.00 186.02 3451.28
   03:30:59.350.27-Mar-2021 3725.51 5265.58 61.45 3.00 186.22 3451.28
   03:30:59.550.27-Mar-2021 3725.51 5265.79 61.45 3.00 186.42 3451.28
   03:30:59.750.27-Mar-2021 3725.51 5265.41 61.45 3.00 186.62 3451.28
   03:30:59.950.27-Mar-2021 3725.51 5265.21 61.45 3.00 186.82 3451.28
   03:31:00.150.27-Mar-2021 3725.51 5265.39 61.45 3.00 187.02 3451.28
   03:31:00.350.27-Mar-2021 3725.51 5265.39 61.45 3.00 187.22 3451.28
   03:31:00.550.27-Mar-2021 3725.51 5265.47 61.45 3.00 187.42 3451.28
   03:31:00.750.27-Mar-2021 3725.51 5265.19 61.45 3.00 187.62 3451.28
   03:31:00.950.27-Mar-2021 3725.51 5265.44 61.45 3.00 187.82 3451.28
   03:31:01.151.27-Mar-2021 3725.51 5265.47 61.45 3.00 188.02 3451.28
   03:31:01.351.27-Mar-2021 3725.51 5265.47 61.45 3.00 188.22 3451.28
   03:31:01.551.27-Mar-2021 3725.51 5265.59 61.45 3.00 188.42 3451.28
   03:31:01.751.27-Mar-2021 3725.51 5265.30 61.45 3.00 188.62 3451.28
   03:31:01.951.27-Mar-2021 3725.51 5265.27 61.45 3.00 188.82 3451.28
   03:31:02.151.27-Mar-2021 3725.51 5265.57 61.45 3.00 189.02 3451.28
   03:31:02.351.27-Mar-2021 3725.51 5265.57 61.45 3.00 189.22 3451.28
   03:31:02.551.27-Mar-2021 3725.51 5265.35 61.45 3.00 189.42 3451.28
   03:31:02.751.27-Mar-2021 3725.51 5265.44 61.45 3.00 189.62 3451.28
   03:31:02.951.27-Mar-2021 3725.51 5265.45 61.45 3.00 189.82 3451.28
   03:31:03.151.27-Mar-2021 3725.51 5265.38 61.45 3.00 190.02 3451.28
   03:31:03.351.27-Mar-2021 3725.51 5265.38 61.45 3.00 190.22 3451.28
   03:31:03.551.27-Mar-2021 3725.51 5265.39 61.45 3.00 190.42 3451.28
   03:31:03.751.27-Mar-2021 3725.51 5265.41 61.45 3.00 190.62 3451.28
   03:31:03.951.27-Mar-2021 3725.51 5265.46 61.45 3.00 190.82 3451.28
   03:31:04.151.27-Mar-2021 3725.51 5265.41 61.45 3.00 191.02 3451.28
   03:31:04.351.27-Mar-2021 3725.51 5265.41 61.45 3.00 191.22 3451.28
   03:31:04.551.27-Mar-2021 3725.51 5265.42 61.45 3.00 191.42 3451.28
   03:31:04.751.27-Mar-2021 3725.51 5265.48 61.45 3.00 191.62 3451.28
   03:31:04.951.27-Mar-2021 3725.51 5265.25 61.45 3.00 191.82 3451.28
   03:31:05.151.27-Mar-2021 3725.51 5265.43 61.45 3.00 192.02 3451.28
   03:31:05.351.27-Mar-2021 3725.51 5265.43 61.45 3.00 192.22 3451.28
   03:31:05.551.27-Mar-2021 3725.51 5265.35 61.45 3.00 192.42 3451.28
   03:31:05.751.27-Mar-2021 3725.51 5265.34 61.45 3.00 192.62 3451.28
   03:31:05.951.27-Mar-2021 3725.51 5265.44 61.45 3.00 192.82 3451.28
   03:31:06.151.27-Mar-2021 3725.51 5265.42 61.45 3.00 193.02 3451.28
   03:31:06.351.27-Mar-2021 3725.51 5265.42 61.45 3.00 193.22 3451.28
   03:31:06.551.27-Mar-2021 3725.51 5265.46 61.45 3.00 193.42 3451.28
   03:31:06.751.27-Mar-2021 3725.51 5265.47 61.45 3.00 193.62 3451.28
   03:31:06.951.27-Mar-2021 3725.51 5265.36 61.45 3.00 193.82 3451.28
   03:31:07.151.27-Mar-2021 3725.51 5265.41 61.45 3.00 194.02 3451.28
   03:31:07.351.27-Mar-2021 3725.51 5265.41 61.45 3.00 194.22 3451.28
   03:31:07.551.27-Mar-2021 3725.51 5265.48 61.45 3.00 194.42 3451.28
   03:31:07.751.27-Mar-2021 3725.51 5265.60 61.45 3.00 194.62 3451.28
   03:31:07.951.27-Mar-2021 3725.51 5265.19 61.45 3.00 194.82 3451.28
   03:31:08.151.27-Mar-2021 3725.51 5265.40 61.45 3.00 195.02 3451.28
   03:31:08.351.27-Mar-2021 3725.51 5265.40 61.45 3.00 195.22 3451.28
   03:31:08.551.27-Mar-2021 3725.51 5265.29 61.45 3.00 195.42 3451.28
   03:31:08.751.27-Mar-2021 3725.51 5265.47 61.45 3.00 195.62 3451.28
   03:31:08.951.27-Mar-2021 3725.51 5265.73 61.45 3.00 195.82 3451.28
   03:31:09.152.27-Mar-2021 3725.51 5265.09 61.45 3.00 196.02 3451.28
   03:31:09.352.27-Mar-2021 3725.51 5265.09 61.45 3.00 196.22 3451.28
   03:31:09.552.27-Mar-2021 3725.51 5265.48 61.45 3.00 196.42 3451.28
   03:31:09.752.27-Mar-2021 3725.51 5265.65 61.45 3.00 196.62 3451.28
   03:31:09.952.27-Mar-2021 3725.51 5265.28 61.45 3.00 196.82 3451.28
   03:31:10.152.27-Mar-2021 3725.51 5265.37 61.45 3.00 197.02 3451.28
   03:31:10.352.27-Mar-2021 3725.51 5265.37 61.45 3.00 197.22 3451.28
   03:31:10.552.27-Mar-2021 3725.51 5265.37 61.45 3.00 197.42 3451.28
   03:31:10.752.27-Mar-2021 3725.51 5265.22 61.45 3.00 197.62 3451.28
   03:31:10.952.27-Mar-2021 3725.51 5265.57 61.45 3.00 197.82 3451.28
   03:31:11.152.27-Mar-2021 3725.51 5265.35 61.45 3.00 198.02 3451.28
   03:31:11.352.27-Mar-2021 3725.51 5265.35 61.45 3.00 198.22 3451.28
   03:31:11.552.27-Mar-2021 3725.51 5265.37 61.45 3.00 198.42 3451.28
   03:31:11.752.27-Mar-2021 3725.51 5265.30 61.45 3.00 198.62 3451.28
   03:31:11.952.27-Mar-2021 3725.51 5265.55 61.45 3.00 198.82 3451.28
   03:31:12.152.27-Mar-2021 3725.51 5265.46 61.45 3.00 199.02 3451.28
   03:31:12.352.27-Mar-2021 3725.51 5265.46 61.45 3.00 199.23 3451.28
   03:31:12.552.27-Mar-2021 3725.51 5265.46 61.45 3.00 199.43 3451.28
   03:31:12.752.27-Mar-2021 3725.51 5265.50 61.45 3.00 199.63 3451.28
   03:31:12.952.27-Mar-2021 3725.51 5265.36 61.45 3.00 199.83 3451.28
   03:31:13.152.27-Mar-2021 3725.51 5265.41 61.45 3.00 200.03 3451.28
   03:31:13.352.27-Mar-2021 3725.51 5265.41 61.45 3.00 200.23 3451.28
   03:31:13.552.27-Mar-2021 3725.51 5265.44 61.45 3.00 200.43 3451.28
   03:31:13.752.27-Mar-2021 3725.51 5265.44 61.45 3.00 200.63 3451.28
   03:31:13.952.27-Mar-2021 3725.51 5265.42 61.45 3.00 200.83 3451.28
   03:31:14.152.27-Mar-2021 3725.51 5265.44 61.45 3.00 201.03 3451.28
   03:31:14.352.27-Mar-2021 3725.51 5265.44 61.45 3.00 201.23 3451.28
   03:31:14.552.27-Mar-2021 3725.51 5265.74 61.45 3.00 201.43 3451.28
   03:31:14.752.27-Mar-2021 3725.51 5265.39 61.45 3.00 201.63 3451.28
   03:31:14.952.27-Mar-2021 3725.51 5265.21 61.45 3.00 201.83 3451.28
   03:31:15.152.27-Mar-2021 3725.51 5265.58 61.45 3.00 202.03 3451.28
   03:31:15.352.27-Mar-2021 3725.51 5265.58 61.45 3.00 202.23 3451.28
   03:31:15.552.27-Mar-2021 3725.51 5265.29 61.45 3.00 202.43 3451.28
   03:31:15.752.27-Mar-2021 3725.51 5265.41 61.45 3.00 202.63 3451.28
   03:31:15.952.27-Mar-2021 3725.51 5265.49 61.45 3.00 202.83 3451.28
   03:31:16.152.27-Mar-2021 3725.51 5265.36 61.45 3.00 203.03 3451.28
   03:31:16.352.27-Mar-2021 3725.51 5265.36 61.45 3.00 203.23 3451.28
   03:31:16.552.27-Mar-2021 3725.51 5265.47 61.45 3.00 203.43 3451.28
   03:31:16.752.27-Mar-2021 3725.51 5265.34 61.45 3.00 203.63 3451.28
   03:31:16.953.27-Mar-2021 3725.51 5265.68 61.45 3.00 203.83 3451.28
   03:31:17.153.27-Mar-2021 3725.51 5265.22 61.45 3.00 204.03 3451.28
   03:31:17.353.27-Mar-2021 3725.51 5265.22 61.45 3.00 204.23 3451.28
   03:31:17.553.27-Mar-2021 3725.51 5265.59 61.45 3.00 204.43 3451.28
   03:31:17.753.27-Mar-2021 3725.51 5265.42 61.45 3.00 204.63 3451.28
   03:31:17.953.27-Mar-2021 3725.51 5265.19 61.45 3.00 204.83 3451.28
   03:31:18.153.27-Mar-2021 3725.51 5265.91 61.45 3.00 205.03 3451.28
   03:31:18.353.27-Mar-2021 3725.51 5265.91 61.45 3.00 205.23 3451.28
   03:31:18.553.27-Mar-2021 3725.51 5265.08 61.45 3.00 205.43 3451.28
   03:31:18.753.27-Mar-2021 3725.51 5265.64 61.45 3.00 205.63 3451.28
   03:31:18.953.27-Mar-2021 3725.51 5265.54 61.45 3.00 205.83 3451.28
   03:31:19.153.27-Mar-2021 3725.51 5265.32 61.45 3.00 206.03 3451.28
   03:31:19.353.27-Mar-2021 3725.51 5265.32 61.45 3.00 206.23 3451.28
   03:31:19.553.27-Mar-2021 3725.51 5265.47 61.45 3.00 206.43 3451.28
   03:31:19.753.27-Mar-2021 3725.51 5265.48 61.45 3.00 206.63 3451.28
   03:31:19.953.27-Mar-2021 3725.51 5265.20 61.45 3.00 206.83 3451.28
