~Version Information
 VERS.                  2.0:   CWLS log ASCII Standard -VERSION 2.0
 WRAP.                   NO:   One line per depth step
~Well Information Block
#MNEM.UNIT     VALUE/NAME     DESCRIPTION
#---------     -----------    ---------------------------
 STRT.S             11:05:10 27-Mar-21: START TIME 11:05:10 27-Mar-21
 STOP.S             11:12:21 27-Mar-21: STOP TIME  11:12:21 27-Mar-21
 STEP.S                   0.00: STEP TIME
 NULL.                 -999.25: NULL VALUE
 DFWT.                        :  DIST FWL TEXT
 DFST.                        :  DIST FSL TEXT
 DMF .             Drill Floor:  DRILL MEAS FROM
 STIM.      20.26.40 11-Mar-21:  START TIME
 DATE.      20.26.40 30-Mar-21:  END TIME
 SPUD.               11-Mar-21:  SPUD DATE
 NREF.                    Grid:  NORTH REFERENCE
 HPTY.       Minimum Curvature:  HOLE POS TYPE
 DMOD.             Drill Model:  DRILL MOD DESC
 SVYD.                  Survey:  SURVEY DESC
 ILTD.               Lithology:  INTERP LTH DESC
 FTOP.          Formation Tops:  FORM TOPS DESC
 SON .        AZ-XX-0906805385:  JOB NUMBER
 WTYP.                Deviated:  WELL TYPE
 COMP.     BP Exploration (Caspian Sea) Ltd.:  COMPANY
 UWI .            /AZE00000198:  UNIQUE WELL IDENTIFIER
 API .            /AZE00000198:  API NUMBER
 BASE.              Azerbaijan:  LOGGING EQUIPMENT BASE LOCATION
 REGN.                   EESSA:  REGION
 PROV.                    Baku:  PROVINCE
 STAT.                    Baku:  STATE NAME
 CTRY.              Azerbaijan:  COUNTRY NAME
 FLD .                     ACG:  FIELD NAME
 SRVC.     Turan Drilling & Engineering:  CONTRACTOR
 MWDS.                    Baku:  MWD SHOP
 WELL.                    D09z:  WELL NAME
 JOBN.        AZ-XX-0906805385:  JOB TICKET NUMB
 RIG .              East Azeri:  RIG NAME
 DOE .                     N/A:  DOE NUMBER
 DCON.         Sperry Drilling:  DIRECTNL CONTR
 UNIT.                     N/A:  LOGGING EQUIPMENT ID
 PDAT.          Mean Sea Level:  PERMANENT DATUM
 MDS .        Operator Entered:  MAG DATA SOURCE
 CNTY.                        :  COUNTY
 LOC .                        :  LOCATION
 LMF .             Drill Floor:  LOG MEASURED FROM
 TVDS.m                  43.60:  TVDSS CORRECTN
 LATI.deg                40.02:  LATITUDE
 LONG.deg                51.45:  LONGITUDE
 WHNS.m                 -17.04:  WELL HEAD N/S
 WHEW.m                  -6.28:  WELL HEAD E/W
 UTMX.m              538763.98:  UTM X
 UTMY.m             4431880.20:  UTM Y
 DFWL.m                   0.00:  DISTANCE FWL
 DFSL.m                   0.00:  DISTANCE FSL
 SDEP.m                2680.01:  START DEPTH
 TDD .m                4000.01:  TOTAL DEPTH (DRILLER)
 VSDR.deg               225.71:  VERT SEC DIRECT
 GVFD.g                   1.00:  GRAVITY FIELD
 MFLD.nT              50353.00:  MAGNETIC FIELD
 MDIP.deg                59.49:  MAGNETIC DIP
 MDEC.deg                 6.46:  MAGNETIC DECL
 GRDC.deg                 0.29:  GRID CORRECTION
 AZTC.deg                 6.17:  AZM TOTAL CORR
 EPD .m                   0.00:  ELEVATION
 EGL .m                   0.00:  GROUND ELEVATION
 WDMS.m                 151.80:  WD ELEV
 APD .m                  43.60:  DEPTH ABOVE PD
 AGAP.m                  43.60:  AIR GAP
 VSEW.m                  -6.28:  VERT SEC E/W
 VSNS.m                 -17.04:  VERT SEC N/S
 DEP .m                2656.31:  DEPTH
 EKB .m                  43.60:  KB ELEVATION
 EDF .m                  43.60:  DF ELEVATION
 VSC .                       0:  VS TO CLOSURE
 MAGU.                 1851247:  MAGUTM CHECKSUM
~Parameter Information Block
#MNEM.UNIT       Value        Description
#---------     -----------    ---------------------------
 AV  .mps                 3.00:  Ann Velocity 
 AVMX.mps                 8.00:  Max Ann Veloc 
 AZIF.deg                 0.00:  Azm, Final 
 BHAT.                   Other:  BHA Type 
 BREV.rev                 0.00:  Rev Bit Total 
 BROT.°/30m               0.00:  Build Rotating 
 BS  .in                 10.25:  Bit Size 
 BTPL.psig              511.00:  Bit Press Loss 
 CABU.                      No:  Customer Abuse 
 CGEO.           Asif Pashayev:  Customer Geo 
 COMM.                     $Ml:  Run Comments 1 
 TCS .hr                 24.03:  Time Ciculation Ended 
 CV  .mps                 3.50:  Crit Velocity 
 CVMX.mps                 4.00:  Max Crit Veloc 
 DD1 .             Aziz Aliyev:  Direct Drillr 1 
 DD2 .      Fakhraddin Guliyev:  Direct Drillr 2 
 DDSV.                   Other:  DD Service 
 DEFF.%                  99.00:  % Det Eff 
 DLRX.°/30m               0.00:  Dogleg Rot Max 
 DLSO.°/30m               0.00:  Dogleg Oriented 
 DLSX.°/30m               0.00:  Dogleg Str Max 
 DRET.      23.00.40 28-Mar-21:  Drill End Time 
 DRST.      23.30.40 25-Mar-21:  Drill Start Tim 
 DTIM.hr                  0.00:  Time Drilling 
 EDEP.m                3886.01:  End Depth 
 ENG1.         Almaz Almadatov:  Engineer 1 
 ENG2.      Artemiy Matviyanov:  Engineer 2 
 ENG3.           Samir Gafarov:  Engineer 3 
 ETIM.      23.00.40 28-Mar-21:  End Time 
 FLOI.gpm               550.00:  Flow In 
 FLON.gpm               500.00:  Flow In Min 
 FLOS.cptm                0.00:  Fluid Loss 
 FLOX.gpm               590.00:  Flow In Max 
 HFLO.                      No:  High Flow 
 HPRE.                      No:  High Pressure 
 HTEM.                      No:  High Temp 
 HYDO.m                   1.80:  Hydro Offset 
 IFIN.deg                 0.00:  Inc, Final 
 IMAX.deg                 0.00:  Inc Max 
 IMIN.deg                 0.00:  Inc Min 
 IMND.m                   0.00:  Inc Min Depth 
 IMXD.m                   0.00:  Inc Max Depth 
 JARR.                      No:  Jarring 
 LETM.      03.22.40 28-Mar-21:  Log End Time 
 LOST.hr                     0:  Lost Rig Time 
 LSTM.      23.30.40 25-Mar-21:  Log Start Time 
 MDCL.ppm             34000.00:  Mud Chlorides 
 MDES.     Inversion Oil/Synthetic:  Mud Desc 
 DFD .sg                  1.51:  Mud Density 
 MDMN.sg                  1.51:  Dens Mud Min 
 MDMX.sg                  1.51:  Dens Mud Max 
 MOIL.                      70:  Run Mud Oil % 
 MOWR.                   70:30:  Run Mud OWR 
 MSND.                     0.2:  Run Mud Sand % 
 MSOL.                   21.60:  Run Mud Solids% 
 DFV .spqt               74.00:  Mud Viscosity 
 MWOD.in                  6.75:  MWD Tool OD 
 MWSI.                      No:  Serv Intrp, MWD 
 OTIM.hr                 69.09:  Time Operating 
 PCON.           Look Like New:  Pad Condition 
 PMAX.psia             3500.00:  Press Op, Max 
 PV  .cP                 70.00:  Mud PV 
 RUN .                     400:  Run Number 
 ROPA.m/hr                0.00:  ROP Avg 
 ROPN.m/hr                0.00:  ROP Min 
 ROPX.m/hr                0.00:  ROP Max 
 RPMA.rpm                80.00:  RPM Surface Avg 
 RPMN.rpm                10.00:  RPM Surface Min 
 RPMX.rpm               100.00:  RPM Surface Max 
 RRUN.                    0400:  Rig Run Number 
 RTIM.hr                  3.00:  Time Reaming 
 SAZI.deg                 0.00:  Azm, Start 
 SDEP.m                3886.01:  Start Depth 
 SIDD.                      No:  Serv Intrp, DD 
 SINC.deg                 0.00:  Inc, Start 
 SPPA.psig             3270.00:  SPP Avg 
 SPPN.psig             3220.00:  SPP Min 
 SPPX.psig             4430.00:  SPP Max 
 STIM.      23.30.40 25-Mar-21:  Start Time 
 SVCS.                 DD, MWD:  Services 
 SVER.                    9.20:  Sperry Version 
 TDAT.m                   0.00:  Tot Depth Attmp 
 TDDF.                      No:  Trip for DD 
 TFF .                      No:  Trip for Fail 
 TQAA.f-kp                8.00:  Torque Abs Avg 
 TQAN.f-kp                7.00:  Torque Abs Min 
 TQAX.f-kp               11.00:  Torque Abs Max 
 TRRT.°/30m               0.00:  Turn Rotating 
 MRT .                  EWR-M5:  Maximum Recorded Temperature 
 TTMX.degC               76.47:  Max Tool Temp 
 VS01.                90640857:  Virtual Str1 SN 
 VS02.                90639246:  Virtual Str2 SN 
 VS03.                90642265:  Virtual Str3 SN 
 VS04.                11654497:  Virtual Str4 SN 
 WBMN.klb                 0.00:  WOB Min 
 WITN.      Kamran Keberlinkiy:  Customer Rep 
 WITN.           Murad Guliyev:  Customer Rep 2 
 WOBA.klb                 0.00:  WOB Avg 
 WOBX.klb                 0.00:  WOB Max 
 YP  .lhf2               36.00:  Yield Point 
~Curve Information Block
#MNEM.UNIT                 API CODE     Curve Description
#---------               -----------    ---------------------------
 TIME.HHMMSS            00 000 000 000:  GT Time & Date
 GTDEPTH.m              00 000 000 000:  GT Depth
 GTPQH.psia             00 000 000 000:  GT HR Quartz Pressure
 GTTQ.degC              00 000 000 000:  GT Quartz Temperature
 GTTN.NONE              00 000 000 000:  GT Test Number
 GTET.sec               00 000 000 000:  GT Elapsed Test Time
 GTTVD.m                00 000 000 000:  GT True Vertical Depth
#Other Information
#
#WARRANTY: Halliburton will use its best efforts to furnish customers with 
#accurate information and interpretations that are part of, and incident to, the services 
#provided.  However, Halliburton cannot and does not warrant the accuracy 
#or correctness of such information and interpretations.  Under no circumstances should any 
#such information or interpretation be relied upon as the sole basis for any drilling, 
#completion, production, or financial decision or any procedure involving any risk to the 
#safety of any drilling venture, drilling rig or its crew or any other third party.  The 
#Customer has full responsibility for all drilling, completion and production operation.  
#Halliburton makes no representations or warranties, either expressed or 
#implied, including, but not limited to, the implied warranties of merchantability or fitness 
#for a particular purpose, with respect to the services rendered.  In no event will 
#Halliburton be liable for failure to obtain any particular results or for 
#any damages, including, but not limited to, indirect, special or consequential damages, 
#resulting from the use of any information or interpretation provided by Halliburton.
#
~A           TIME           GTDEPTH  GTPQH  GTTQ  GTTN   GTET   GTTVD  
# ...
   11:06:40.648.27-Mar-2021 3279.01 4782.58 61.27 11.00  90.42 3032.17
   11:06:40.848.27-Mar-2021 3279.01 4782.64 61.27 11.00  90.62 3032.17
   11:06:41.048.27-Mar-2021 3279.01 4782.55 61.27 11.00  90.82 3032.17
   11:06:41.248.27-Mar-2021 3279.01 4782.57 61.27 11.00  91.02 3032.17
   11:06:41.448.27-Mar-2021 3279.01 4782.57 61.27 11.00  91.22 3032.17
   11:06:41.648.27-Mar-2021 3279.01 4781.55 61.27 11.00  91.42 3032.17
   11:06:41.848.27-Mar-2021 3279.01 4782.03 61.27 11.00  91.62 3032.17
   11:06:42.048.27-Mar-2021 3279.01 4782.11 61.27 11.00  91.82 3032.17
   11:06:42.248.27-Mar-2021 3279.01 4782.28 61.27 11.00  92.02 3032.17
   11:06:42.448.27-Mar-2021 3279.01 4782.28 61.27 11.00  92.22 3032.17
   11:06:42.648.27-Mar-2021 3279.01 4782.53 61.27 11.00  92.42 3032.17
   11:06:42.848.27-Mar-2021 3279.01 4782.61 61.27 11.00  92.62 3032.17
   11:06:43.049.27-Mar-2021 3279.01 4782.47 61.27 11.00  92.82 3032.17
   11:06:43.249.27-Mar-2021 3279.01 4781.56 61.27 11.00  93.02 3032.17
   11:06:43.449.27-Mar-2021 3279.01 4781.56 61.27 11.00  93.22 3032.17
   11:06:43.649.27-Mar-2021 3279.01 4782.70 61.27 11.00  93.42 3032.17
   11:06:43.849.27-Mar-2021 3279.01 4782.51 61.27 11.00  93.62 3032.17
   11:06:44.049.27-Mar-2021 3279.01 4781.96 61.27 11.00  93.82 3032.17
   11:06:44.249.27-Mar-2021 3279.01 4782.14 61.27 11.00  94.02 3032.17
   11:06:44.449.27-Mar-2021 3279.01 4782.14 61.27 11.00  94.22 3032.17
   11:06:44.649.27-Mar-2021 3279.01 4782.66 61.27 11.00  94.42 3032.17
   11:06:44.849.27-Mar-2021 3279.01 4782.56 61.27 11.00  94.62 3032.17
   11:06:45.049.27-Mar-2021 3279.01 4782.63 61.27 11.00  94.82 3032.17
   11:06:45.249.27-Mar-2021 3279.01 4782.65 61.27 11.00  95.02 3032.17
   11:06:45.449.27-Mar-2021 3279.01 4782.65 61.27 11.00  95.22 3032.17
   11:06:45.649.27-Mar-2021 3279.01 4781.76 61.27 11.00  95.42 3032.17
   11:06:45.849.27-Mar-2021 3279.01 4782.06 61.27 11.00  95.62 3032.17
   11:06:46.049.27-Mar-2021 3279.01 4782.31 61.27 11.00  95.82 3032.17
   11:06:46.249.27-Mar-2021 3279.01 4782.36 61.27 11.00  96.02 3032.17
   11:06:46.449.27-Mar-2021 3279.01 4782.36 61.27 11.00  96.22 3032.17
   11:06:46.649.27-Mar-2021 3279.01 4782.70 61.27 11.00  96.42 3032.17
   11:06:46.849.27-Mar-2021 3279.01 4782.68 61.27 11.00  96.62 3032.17
   11:06:47.049.27-Mar-2021 3279.01 4782.69 61.27 11.00  96.82 3032.17
   11:06:47.250.27-Mar-2021 3279.01 4782.72 61.27 11.00  97.02 3032.17
   11:06:47.450.27-Mar-2021 3279.01 4782.72 61.27 11.00  97.22 3032.17
   11:06:47.650.27-Mar-2021 3279.01 4782.70 61.27 11.00  97.42 3032.17
   11:06:47.850.27-Mar-2021 3279.01 4782.75 61.27 11.00  97.62 3032.17
   11:06:48.050.27-Mar-2021 3279.01 4782.76 61.27 11.00  97.82 3032.17
   11:06:48.250.27-Mar-2021 3279.01 4782.73 61.27 11.00  98.02 3032.17
   11:06:48.450.27-Mar-2021 3279.01 4782.73 61.27 11.00  98.22 3032.17
   11:06:48.650.27-Mar-2021 3279.01 4782.75 61.27 11.00  98.42 3032.17
   11:06:48.850.27-Mar-2021 3279.01 4782.22 61.27 11.00  98.62 3032.17
   11:06:49.050.27-Mar-2021 3279.01 4781.97 61.27 11.00  98.82 3032.17
   11:06:49.250.27-Mar-2021 3279.01 4782.33 61.27 11.00  99.02 3032.17
   11:06:49.450.27-Mar-2021 3279.01 4782.33 61.27 11.00  99.22 3032.17
   11:06:49.650.27-Mar-2021 3279.01 4782.54 61.27 11.00  99.42 3032.17
   11:06:49.850.27-Mar-2021 3279.01 4782.66 61.27 11.00  99.62 3032.17
   11:06:50.050.27-Mar-2021 3279.01 4782.64 61.27 11.00  99.82 3032.17
   11:06:50.250.27-Mar-2021 3279.01 4782.70 61.27 11.00 100.02 3032.17
   11:06:50.450.27-Mar-2021 3279.01 4782.70 61.27 11.00 100.22 3032.17
   11:06:50.650.27-Mar-2021 3279.01 4782.71 61.27 11.00 100.42 3032.17
   11:06:50.850.27-Mar-2021 3279.01 4782.67 61.27 11.00 100.62 3032.17
   11:06:51.050.27-Mar-2021 3279.01 4782.70 61.27 11.00 100.82 3032.17
   11:06:51.250.27-Mar-2021 3279.01 4782.78 61.27 11.00 101.02 3032.17
   11:06:51.450.27-Mar-2021 3279.01 4782.78 61.27 11.00 101.22 3032.17
   11:06:51.651.27-Mar-2021 3279.01 4782.21 61.27 11.00 101.42 3032.17
   11:06:51.851.27-Mar-2021 3279.01 4782.91 61.27 11.00 101.62 3032.17
   11:06:52.051.27-Mar-2021 3279.01 4783.24 61.27 11.00 101.82 3032.17
   11:06:52.251.27-Mar-2021 3279.01 4782.99 61.27 11.00 102.02 3032.17
   11:06:52.451.27-Mar-2021 3279.01 4782.99 61.27 11.00 102.22 3032.17
   11:06:52.651.27-Mar-2021 3279.01 4782.85 61.27 11.00 102.42 3032.17
   11:06:52.851.27-Mar-2021 3279.01 4782.74 61.27 11.00 102.62 3032.17
   11:06:53.051.27-Mar-2021 3279.01 4782.02 61.27 11.00 102.82 3032.17
   11:06:53.251.27-Mar-2021 3279.01 4782.68 61.27 11.00 103.02 3032.17
   11:06:53.451.27-Mar-2021 3279.01 4782.68 61.27 11.00 103.22 3032.17
   11:06:53.651.27-Mar-2021 3279.01 4782.70 61.27 11.00 103.42 3032.17
   11:06:53.851.27-Mar-2021 3279.01 4782.66 61.27 11.00 103.62 3032.17
   11:06:54.051.27-Mar-2021 3279.01 4781.91 61.27 11.00 103.82 3032.17
   11:06:54.251.27-Mar-2021 3279.01 4782.81 61.27 11.00 104.02 3032.17
   11:06:54.451.27-Mar-2021 3279.01 4782.81 61.27 11.00 104.22 3032.17
   11:06:54.651.27-Mar-2021 3279.01 4782.74 61.27 11.00 104.42 3032.17
   11:06:54.851.27-Mar-2021 3279.01 4782.70 61.27 11.00 104.62 3032.17
   11:06:55.051.27-Mar-2021 3279.01 4782.78 61.27 11.00 104.82 3032.17
   11:06:55.251.27-Mar-2021 3279.01 4781.73 61.27 11.00 105.02 3032.17
   11:06:55.451.27-Mar-2021 3279.01 4781.73 61.27 11.00 105.22 3032.17
   11:06:55.651.27-Mar-2021 3279.01 4782.97 61.27 11.00 105.42 3032.17
   11:06:55.852.27-Mar-2021 3279.01 4782.62 61.27 11.00 105.62 3032.17
   11:06:56.052.27-Mar-2021 3279.01 4782.68 61.27 11.00 105.82 3032.17
   11:06:56.252.27-Mar-2021 3279.01 4782.79 61.27 11.00 106.02 3032.17
   11:06:56.452.27-Mar-2021 3279.01 4782.79 61.27 11.00 106.22 3032.17
   11:06:56.652.27-Mar-2021 3279.01 4782.93 61.27 11.00 106.42 3032.17
   11:06:56.852.27-Mar-2021 3279.01 4782.82 61.27 11.00 106.62 3032.17
   11:06:57.052.27-Mar-2021 3279.01 4782.78 61.27 11.00 106.83 3032.17
   11:06:57.252.27-Mar-2021 3279.01 4782.75 61.27 11.00 107.03 3032.17
   11:06:57.452.27-Mar-2021 3279.01 4782.75 61.27 11.00 107.23 3032.17
   11:06:57.652.27-Mar-2021 3279.01 4782.82 61.27 11.00 107.43 3032.17
   11:06:57.852.27-Mar-2021 3279.01 4782.91 61.27 11.00 107.63 3032.17
   11:06:58.052.27-Mar-2021 3279.01 4782.82 61.27 11.00 107.83 3032.17
   11:06:58.252.27-Mar-2021 3279.01 4782.84 61.27 11.00 108.03 3032.17
   11:06:58.452.27-Mar-2021 3279.01 4782.84 61.27 11.00 108.23 3032.17
   11:06:58.652.27-Mar-2021 3279.01 4782.52 61.27 11.00 108.43 3032.17
   11:06:58.852.27-Mar-2021 3279.01 4782.42 61.27 11.00 108.63 3032.17
   11:06:59.052.27-Mar-2021 3279.01 4782.42 61.27 11.00 108.83 3032.17
   11:06:59.252.27-Mar-2021 3279.01 4782.61 61.27 11.00 109.03 3032.17
   11:06:59.452.27-Mar-2021 3279.01 4782.61 61.27 11.00 109.23 3032.17
   11:06:59.652.27-Mar-2021 3279.01 4782.81 61.27 11.00 109.43 3032.17
   11:06:59.852.27-Mar-2021 3279.01 4782.80 61.27 11.00 109.63 3032.17
   11:07:00.052.27-Mar-2021 3279.01 4782.85 61.27 11.00 109.83 3032.17
   11:07:00.253.27-Mar-2021 3279.01 4782.85 61.27 11.00 110.03 3032.17
   11:07:00.453.27-Mar-2021 3279.01 4782.85 61.27 11.00 110.23 3032.17
   11:07:00.653.27-Mar-2021 3279.01 4782.80 61.27 11.00 110.43 3032.17
   11:07:00.853.27-Mar-2021 3279.01 4782.86 61.27 11.00 110.63 3032.17
   11:07:01.053.27-Mar-2021 3279.01 4781.91 61.27 11.00 110.83 3032.17
   11:07:01.253.27-Mar-2021 3279.01 4782.69 61.27 11.00 111.03 3032.17
   11:07:01.453.27-Mar-2021 3279.01 4782.69 61.27 11.00 111.23 3032.17
   11:07:01.653.27-Mar-2021 3279.01 4782.77 61.27 11.00 111.43 3032.17
   11:07:01.853.27-Mar-2021 3279.01 4782.87 61.27 11.00 111.63 3032.17
   11:07:02.053.27-Mar-2021 3279.01 4782.80 61.27 11.00 111.83 3032.17
   11:07:02.253.27-Mar-2021 3279.01 4782.85 61.27 11.00 112.03 3032.17
   11:07:02.453.27-Mar-2021 3279.01 4782.85 61.27 11.00 112.23 3032.17
   11:07:02.653.27-Mar-2021 3279.01 4781.97 61.27 11.00 112.43 3032.17
   11:07:02.853.27-Mar-2021 3279.01 4782.92 61.27 11.00 112.63 3032.17
   11:07:03.053.27-Mar-2021 3279.01 4783.03 61.27 11.00 112.83 3032.17
