~Version Information
 VERS.                  2.0:   CWLS log ASCII Standard -VERSION 2.0
 WRAP.                   NO:   One line per depth step
~Well Information Block
#MNEM.UNIT     VALUE/NAME     DESCRIPTION
#---------     -----------    ---------------------------
 STRT.S             12:17:14 27-Mar-21: START TIME 12:17:14 27-Mar-21
 STOP.S             12:24:16 27-Mar-21: STOP TIME  12:24:16 27-Mar-21
 STEP.S                   0.00: STEP TIME
 NULL.                 -999.25: NULL VALUE
 DFWT.                        :  DIST FWL TEXT
 DFST.                        :  DIST FSL TEXT
 DMF .             Drill Floor:  DRILL MEAS FROM
 STIM.      20.26.40 11-Mar-21:  START TIME
 DATE.      20.26.40 30-Mar-21:  END TIME
 SPUD.               11-Mar-21:  SPUD DATE
 NREF.                    Grid:  NORTH REFERENCE
 HPTY.       Minimum Curvature:  HOLE POS TYPE
 DMOD.             Drill Model:  DRILL MOD DESC
 SVYD.                  Survey:  SURVEY DESC
 ILTD.               Lithology:  INTERP LTH DESC
 FTOP.          Formation Tops:  FORM TOPS DESC
 SON .        AZ-XX-0906805385:  JOB NUMBER
 WTYP.                Deviated:  WELL TYPE
 COMP.     BP Exploration (Caspian Sea) Ltd.:  COMPANY
 UWI .            /AZE00000198:  UNIQUE WELL IDENTIFIER
 API .            /AZE00000198:  API NUMBER
 BASE.              Azerbaijan:  LOGGING EQUIPMENT BASE LOCATION
 REGN.                   EESSA:  REGION
 PROV.                    Baku:  PROVINCE
 STAT.                    Baku:  STATE NAME
 CTRY.              Azerbaijan:  COUNTRY NAME
 FLD .                     ACG:  FIELD NAME
 SRVC.     Turan Drilling & Engineering:  CONTRACTOR
 MWDS.                    Baku:  MWD SHOP
 WELL.                    D09z:  WELL NAME
 JOBN.        AZ-XX-0906805385:  JOB TICKET NUMB
 RIG .              East Azeri:  RIG NAME
 DOE .                     N/A:  DOE NUMBER
 DCON.         Sperry Drilling:  DIRECTNL CONTR
 UNIT.                     N/A:  LOGGING EQUIPMENT ID
 PDAT.          Mean Sea Level:  PERMANENT DATUM
 MDS .        Operator Entered:  MAG DATA SOURCE
 CNTY.                        :  COUNTY
 LOC .                        :  LOCATION
 LMF .             Drill Floor:  LOG MEASURED FROM
 TVDS.m                  43.60:  TVDSS CORRECTN
 LATI.deg                40.02:  LATITUDE
 LONG.deg                51.45:  LONGITUDE
 WHNS.m                 -17.04:  WELL HEAD N/S
 WHEW.m                  -6.28:  WELL HEAD E/W
 UTMX.m              538763.98:  UTM X
 UTMY.m             4431880.20:  UTM Y
 DFWL.m                   0.00:  DISTANCE FWL
 DFSL.m                   0.00:  DISTANCE FSL
 SDEP.m                2680.01:  START DEPTH
 TDD .m                4000.01:  TOTAL DEPTH (DRILLER)
 VSDR.deg               225.71:  VERT SEC DIRECT
 GVFD.g                   1.00:  GRAVITY FIELD
 MFLD.nT              50353.00:  MAGNETIC FIELD
 MDIP.deg                59.49:  MAGNETIC DIP
 MDEC.deg                 6.46:  MAGNETIC DECL
 GRDC.deg                 0.29:  GRID CORRECTION
 AZTC.deg                 6.17:  AZM TOTAL CORR
 EPD .m                   0.00:  ELEVATION
 EGL .m                   0.00:  GROUND ELEVATION
 WDMS.m                 151.80:  WD ELEV
 APD .m                  43.60:  DEPTH ABOVE PD
 AGAP.m                  43.60:  AIR GAP
 VSEW.m                  -6.28:  VERT SEC E/W
 VSNS.m                 -17.04:  VERT SEC N/S
 DEP .m                2656.31:  DEPTH
 EKB .m                  43.60:  KB ELEVATION
 EDF .m                  43.60:  DF ELEVATION
 VSC .                       0:  VS TO CLOSURE
 MAGU.                 1851247:  MAGUTM CHECKSUM
~Parameter Information Block
#MNEM.UNIT       Value        Description
#---------     -----------    ---------------------------
 AV  .mps                 3.00:  Ann Velocity 
 AVMX.mps                 8.00:  Max Ann Veloc 
 AZIF.deg                 0.00:  Azm, Final 
 BHAT.                   Other:  BHA Type 
 BREV.rev                 0.00:  Rev Bit Total 
 BROT.°/30m               0.00:  Build Rotating 
 BS  .in                 10.25:  Bit Size 
 BTPL.psig              511.00:  Bit Press Loss 
 CABU.                      No:  Customer Abuse 
 CGEO.           Asif Pashayev:  Customer Geo 
 COMM.                     4'd:  Run Comments 1 
 TCS .hr                 24.03:  Time Ciculation Ended 
 CV  .mps                 3.50:  Crit Velocity 
 CVMX.mps                 4.00:  Max Crit Veloc 
 DD1 .             Aziz Aliyev:  Direct Drillr 1 
 DD2 .      Fakhraddin Guliyev:  Direct Drillr 2 
 DDSV.                   Other:  DD Service 
 DEFF.%                  99.00:  % Det Eff 
 DLRX.°/30m               0.00:  Dogleg Rot Max 
 DLSO.°/30m               0.00:  Dogleg Oriented 
 DLSX.°/30m               0.00:  Dogleg Str Max 
 DRET.      23.00.40 28-Mar-21:  Drill End Time 
 DRST.      23.30.40 25-Mar-21:  Drill Start Tim 
 DTIM.hr                  0.00:  Time Drilling 
 EDEP.m                3886.01:  End Depth 
 ENG1.         Almaz Almadatov:  Engineer 1 
 ENG2.      Artemiy Matviyanov:  Engineer 2 
 ENG3.           Samir Gafarov:  Engineer 3 
 ETIM.      23.00.40 28-Mar-21:  End Time 
 FLOI.gpm               550.00:  Flow In 
 FLON.gpm               500.00:  Flow In Min 
 FLOS.cptm                0.00:  Fluid Loss 
 FLOX.gpm               590.00:  Flow In Max 
 HFLO.                      No:  High Flow 
 HPRE.                      No:  High Pressure 
 HTEM.                      No:  High Temp 
 HYDO.m                   1.80:  Hydro Offset 
 IFIN.deg                 0.00:  Inc, Final 
 IMAX.deg                 0.00:  Inc Max 
 IMIN.deg                 0.00:  Inc Min 
 IMND.m                   0.00:  Inc Min Depth 
 IMXD.m                   0.00:  Inc Max Depth 
 JARR.                      No:  Jarring 
 LETM.      03.22.40 28-Mar-21:  Log End Time 
 LOST.hr                     0:  Lost Rig Time 
 LSTM.      23.30.40 25-Mar-21:  Log Start Time 
 MDCL.ppm             34000.00:  Mud Chlorides 
 MDES.     Inversion Oil/Synthetic:  Mud Desc 
 DFD .sg                  1.51:  Mud Density 
 MDMN.sg                  1.51:  Dens Mud Min 
 MDMX.sg                  1.51:  Dens Mud Max 
 MOIL.                      70:  Run Mud Oil % 
 MOWR.                   70:30:  Run Mud OWR 
 MSND.                     0.2:  Run Mud Sand % 
 MSOL.                   21.60:  Run Mud Solids% 
 DFV .spqt               74.00:  Mud Viscosity 
 MWOD.in                  6.75:  MWD Tool OD 
 MWSI.                      No:  Serv Intrp, MWD 
 OTIM.hr                 69.09:  Time Operating 
 PCON.           Look Like New:  Pad Condition 
 PMAX.psia             3500.00:  Press Op, Max 
 PV  .cP                 70.00:  Mud PV 
 RUN .                     400:  Run Number 
 ROPA.m/hr                0.00:  ROP Avg 
 ROPN.m/hr                0.00:  ROP Min 
 ROPX.m/hr                0.00:  ROP Max 
 RPMA.rpm                80.00:  RPM Surface Avg 
 RPMN.rpm                10.00:  RPM Surface Min 
 RPMX.rpm               100.00:  RPM Surface Max 
 RRUN.                    0400:  Rig Run Number 
 RTIM.hr                  3.00:  Time Reaming 
 SAZI.deg                 0.00:  Azm, Start 
 SDEP.m                3886.01:  Start Depth 
 SIDD.                      No:  Serv Intrp, DD 
 SINC.deg                 0.00:  Inc, Start 
 SPPA.psig             3270.00:  SPP Avg 
 SPPN.psig             3220.00:  SPP Min 
 SPPX.psig             4430.00:  SPP Max 
 STIM.      23.30.40 25-Mar-21:  Start Time 
 SVCS.                 DD, MWD:  Services 
 SVER.                    9.20:  Sperry Version 
 TDAT.m                   0.00:  Tot Depth Attmp 
 TDDF.                      No:  Trip for DD 
 TFF .                      No:  Trip for Fail 
 TQAA.f-kp                8.00:  Torque Abs Avg 
 TQAN.f-kp                7.00:  Torque Abs Min 
 TQAX.f-kp               11.00:  Torque Abs Max 
 TRRT.°/30m               0.00:  Turn Rotating 
 MRT .                  EWR-M5:  Maximum Recorded Temperature 
 TTMX.degC               76.47:  Max Tool Temp 
 VS01.                90640857:  Virtual Str1 SN 
 VS02.                90639246:  Virtual Str2 SN 
 VS03.                90642265:  Virtual Str3 SN 
 VS04.                11654497:  Virtual Str4 SN 
 WBMN.klb                 0.00:  WOB Min 
 WITN.      Kamran Keberlinkiy:  Customer Rep 
 WITN.           Murad Guliyev:  Customer Rep 2 
 WOBA.klb                 0.00:  WOB Avg 
 WOBX.klb                 0.00:  WOB Max 
 YP  .lhf2               36.00:  Yield Point 
~Curve Information Block
#MNEM.UNIT                 API CODE     Curve Description
#---------               -----------    ---------------------------
 TIME.HHMMSS            00 000 000 000:  GT Time & Date
 GTDEPTH.m              00 000 000 000:  GT Depth
 GTPQH.psia             00 000 000 000:  GT HR Quartz Pressure
 GTTQ.degC              00 000 000 000:  GT Quartz Temperature
 GTTN.NONE              00 000 000 000:  GT Test Number
 GTET.sec               00 000 000 000:  GT Elapsed Test Time
 GTTVD.m                00 000 000 000:  GT True Vertical Depth
#Other Information
#
#WARRANTY: Halliburton will use its best efforts to furnish customers with 
#accurate information and interpretations that are part of, and incident to, the services 
#provided.  However, Halliburton cannot and does not warrant the accuracy 
#or correctness of such information and interpretations.  Under no circumstances should any 
#such information or interpretation be relied upon as the sole basis for any drilling, 
#completion, production, or financial decision or any procedure involving any risk to the 
#safety of any drilling venture, drilling rig or its crew or any other third party.  The 
#Customer has full responsibility for all drilling, completion and production operation.  
#Halliburton makes no representations or warranties, either expressed or 
#implied, including, but not limited to, the implied warranties of merchantability or fitness 
#for a particular purpose, with respect to the services rendered.  In no event will 
#Halliburton be liable for failure to obtain any particular results or for 
#any damages, including, but not limited to, indirect, special or consequential damages, 
#resulting from the use of any information or interpretation provided by Halliburton.
#
~A           TIME           GTDEPTH  GTPQH  GTTQ  GTTN   GTET   GTTVD  
# ...
   12:21:23.498.27-Mar-2021 3369.01 4845.37 61.81 12.00 248.78 3116.52
   12:21:23.699.27-Mar-2021 3369.01 4845.43 61.81 12.00 248.98 3116.52
   12:21:23.899.27-Mar-2021 3369.01 4845.22 61.81 12.00 249.18 3116.52
   12:21:24.099.27-Mar-2021 3369.01 4845.22 61.81 12.00 249.38 3116.52
   12:21:24.299.27-Mar-2021 3369.01 4846.02 61.81 12.00 249.58 3116.52
   12:21:24.499.27-Mar-2021 3369.01 4845.50 61.81 12.00 249.78 3116.52
   12:21:24.699.27-Mar-2021 3369.01 4845.73 61.81 12.00 249.98 3116.52
   12:21:24.899.27-Mar-2021 3369.01 4845.66 61.81 12.00 250.18 3116.52
   12:21:25.100.27-Mar-2021 3369.01 4845.66 61.81 12.00 250.38 3116.52
   12:21:25.300.27-Mar-2021 3369.01 4845.62 61.81 12.00 250.58 3116.52
   12:21:25.500.27-Mar-2021 3369.01 4845.49 61.81 12.00 250.78 3116.52
   12:21:25.700.27-Mar-2021 3369.01 4845.62 61.81 12.00 250.98 3116.52
   12:21:25.900.27-Mar-2021 3369.01 4845.51 61.81 12.00 251.18 3116.52
   12:21:26.100.27-Mar-2021 3369.01 4845.51 61.81 12.00 251.38 3116.52
   12:21:26.300.27-Mar-2021 3369.01 4845.63 61.81 12.00 251.58 3116.52
   12:21:26.501.27-Mar-2021 3369.01 4845.58 61.81 12.00 251.78 3116.52
   12:21:26.701.27-Mar-2021 3369.01 4845.24 61.81 12.00 251.98 3116.52
   12:21:26.901.27-Mar-2021 3369.01 4846.51 61.81 12.00 252.18 3116.52
   12:21:27.101.27-Mar-2021 3369.01 4846.51 61.81 12.00 252.38 3116.52
   12:21:27.301.27-Mar-2021 3369.01 4845.89 61.81 12.00 252.58 3116.52
   12:21:27.501.27-Mar-2021 3369.01 4845.87 61.81 12.00 252.78 3116.52
   12:21:27.701.27-Mar-2021 3369.01 4845.84 61.81 12.00 252.98 3116.52
   12:21:27.902.27-Mar-2021 3369.01 4845.88 61.81 12.00 253.18 3116.52
   12:21:28.102.27-Mar-2021 3369.01 4845.88 61.81 12.00 253.38 3116.52
   12:21:28.302.27-Mar-2021 3369.01 4845.94 61.81 12.00 253.58 3116.52
   12:21:28.502.27-Mar-2021 3369.01 4845.84 61.81 12.00 253.78 3116.52
   12:21:28.702.27-Mar-2021 3369.01 4845.97 61.81 12.00 253.98 3116.52
   12:21:28.902.27-Mar-2021 3369.01 4845.89 61.81 12.00 254.18 3116.52
   12:21:29.102.27-Mar-2021 3369.01 4845.89 61.81 12.00 254.38 3116.52
   12:21:29.303.27-Mar-2021 3369.01 4845.66 61.81 12.00 254.58 3116.52
   12:21:29.503.27-Mar-2021 3369.01 4845.70 61.81 12.00 254.78 3116.52
   12:21:29.703.27-Mar-2021 3369.01 4845.84 61.80 12.00 254.98 3116.52
   12:21:29.903.27-Mar-2021 3369.01 4845.36 61.80 12.00 255.18 3116.52
   12:21:30.103.27-Mar-2021 3369.01 4845.36 61.80 12.00 255.38 3116.52
   12:21:30.303.27-Mar-2021 3369.01 4845.50 61.80 12.00 255.58 3116.52
   12:21:30.503.27-Mar-2021 3369.01 4845.58 61.80 12.00 255.78 3116.52
   12:21:30.703.27-Mar-2021 3369.01 4845.58 61.80 12.00 255.98 3116.52
   12:21:30.904.27-Mar-2021 3369.01 4845.61 61.80 12.00 256.18 3116.52
   12:21:31.104.27-Mar-2021 3369.01 4845.61 61.80 12.00 256.38 3116.52
   12:21:31.304.27-Mar-2021 3369.01 4845.56 61.80 12.00 256.58 3116.52
   12:21:31.504.27-Mar-2021 3369.01 4845.57 61.80 12.00 256.78 3116.52
   12:21:31.704.27-Mar-2021 3369.01 4845.69 61.80 12.00 256.98 3116.52
   12:21:31.904.27-Mar-2021 3369.01 4845.67 61.80 12.00 257.18 3116.52
   12:21:32.104.27-Mar-2021 3369.01 4845.67 61.80 12.00 257.38 3116.52
   12:21:32.305.27-Mar-2021 3369.01 4845.58 61.80 12.00 257.58 3116.52
   12:21:32.505.27-Mar-2021 3369.01 4845.09 61.80 12.00 257.78 3116.52
   12:21:32.705.27-Mar-2021 3369.01 4846.38 61.80 12.00 257.98 3116.52
   12:21:32.905.27-Mar-2021 3369.01 4846.54 61.80 12.00 258.18 3116.52
   12:21:33.105.27-Mar-2021 3369.01 4846.54 61.80 12.00 258.38 3116.52
   12:21:33.305.27-Mar-2021 3369.01 4846.54 61.80 12.00 258.58 3116.52
   12:21:33.505.27-Mar-2021 3369.01 4846.12 61.80 12.00 258.78 3116.52
   12:21:33.706.27-Mar-2021 3369.01 4846.29 61.80 12.00 258.98 3116.52
   12:21:33.906.27-Mar-2021 3369.01 4846.39 61.80 12.00 259.18 3116.52
   12:21:34.106.27-Mar-2021 3369.01 4846.39 61.80 12.00 259.38 3116.52
   12:21:34.306.27-Mar-2021 3369.01 4846.36 61.80 12.00 259.58 3116.52
   12:21:34.506.27-Mar-2021 3369.01 4846.16 61.80 12.00 259.78 3116.52
   12:21:34.706.27-Mar-2021 3369.01 4846.00 61.80 12.00 259.98 3116.52
   12:21:34.906.27-Mar-2021 3369.01 4846.24 61.80 12.00 260.18 3116.52
   12:21:35.107.27-Mar-2021 3369.01 4846.24 61.80 12.00 260.38 3116.52
   12:21:35.307.27-Mar-2021 3369.01 4845.37 61.80 12.00 260.58 3116.52
   12:21:35.507.27-Mar-2021 3369.01 4846.12 61.80 12.00 260.78 3116.52
   12:21:35.707.27-Mar-2021 3369.01 4845.98 61.80 12.00 260.98 3116.52
   12:21:35.907.27-Mar-2021 3369.01 4846.15 61.80 12.00 261.18 3116.52
   12:21:36.107.27-Mar-2021 3369.01 4846.15 61.80 12.00 261.38 3116.52
   12:21:36.307.27-Mar-2021 3369.01 4845.71 61.80 12.00 261.58 3116.52
   12:21:36.508.27-Mar-2021 3369.01 4845.70 61.80 12.00 261.79 3116.52
   12:21:36.708.27-Mar-2021 3369.01 4845.55 61.80 12.00 261.99 3116.52
   12:21:36.908.27-Mar-2021 3369.01 4845.30 61.80 12.00 262.19 3116.52
   12:21:37.108.27-Mar-2021 3369.01 4845.30 61.80 12.00 262.39 3116.52
   12:21:37.308.27-Mar-2021 3369.01 4846.30 61.80 12.00 262.59 3116.52
   12:21:37.508.27-Mar-2021 3369.01 4845.77 61.80 12.00 262.79 3116.52
   12:21:37.708.27-Mar-2021 3369.01 4845.91 61.80 12.00 262.99 3116.52
   12:21:37.909.27-Mar-2021 3369.01 4846.02 61.80 12.00 263.19 3116.52
   12:21:38.109.27-Mar-2021 3369.01 4846.02 61.80 12.00 263.39 3116.52
   12:21:38.309.27-Mar-2021 3369.01 4846.04 61.80 12.00 263.59 3116.52
   12:21:38.509.27-Mar-2021 3369.01 4845.89 61.80 12.00 263.79 3116.52
   12:21:38.709.27-Mar-2021 3369.01 4845.80 61.80 12.00 263.99 3116.52
   12:21:38.909.27-Mar-2021 3369.01 4845.87 61.80 12.00 264.19 3116.52
   12:21:39.109.27-Mar-2021 3369.01 4845.87 61.80 12.00 264.39 3116.52
   12:21:39.310.27-Mar-2021 3369.01 4846.19 61.80 12.00 264.59 3116.52
   12:21:39.510.27-Mar-2021 3369.01 4846.03 61.80 12.00 264.79 3116.52
   12:21:39.710.27-Mar-2021 3369.01 4845.70 61.80 12.00 264.99 3116.52
   12:21:39.910.27-Mar-2021 3369.01 4845.79 61.80 12.00 265.19 3116.52
   12:21:40.110.27-Mar-2021 3369.01 4845.79 61.80 12.00 265.39 3116.52
   12:21:40.310.27-Mar-2021 3369.01 4846.56 61.80 12.00 265.59 3116.52
   12:21:40.510.27-Mar-2021 3369.01 4845.83 61.80 12.00 265.79 3116.52
   12:21:40.711.27-Mar-2021 3369.01 4846.00 61.80 12.00 265.99 3116.52
   12:21:40.911.27-Mar-2021 3369.01 4845.80 61.80 12.00 266.19 3116.52
   12:21:41.111.27-Mar-2021 3369.01 4845.80 61.80 12.00 266.39 3116.52
   12:21:41.311.27-Mar-2021 3369.01 4845.84 61.80 12.00 266.59 3116.52
   12:21:41.511.27-Mar-2021 3369.01 4845.92 61.80 12.00 266.79 3116.52
   12:21:41.711.27-Mar-2021 3369.01 4845.76 61.80 12.00 266.99 3116.52
   12:21:41.911.27-Mar-2021 3369.01 4845.64 61.80 12.00 267.19 3116.52
   12:21:42.112.27-Mar-2021 3369.01 4845.64 61.80 12.00 267.39 3116.52
   12:21:42.312.27-Mar-2021 3369.01 4845.82 61.80 12.00 267.59 3116.52
   12:21:42.512.27-Mar-2021 3369.01 4845.83 61.80 12.00 267.79 3116.52
   12:21:42.712.27-Mar-2021 3369.01 4816.48 61.80 12.00 267.99 3116.52
   12:21:42.912.27-Mar-2021 3369.01 4186.73 61.80 12.00 268.19 3116.52
   12:21:43.112.27-Mar-2021 3369.01 4186.73 61.80 12.00 268.39 3116.52
   12:21:43.312.27-Mar-2021 3369.01 3013.26 61.79 12.00 268.59 3116.52
   12:21:43.513.27-Mar-2021 3369.01 2586.18 61.79 12.00 268.79 3116.52
   12:21:43.713.27-Mar-2021 3369.01 2224.39 61.79 12.00 268.99 3116.52
   12:21:43.913.27-Mar-2021 3369.01 1936.85 61.79 12.00 269.19 3116.52
   12:21:44.113.27-Mar-2021 3369.01 1936.85 61.79 12.00 269.39 3116.52
   12:21:44.313.27-Mar-2021 3369.01 1750.72 61.79 12.00 269.59 3116.52
   12:21:44.513.27-Mar-2021 3369.01 1731.57 61.79 12.00 269.79 3116.52
   12:21:44.713.27-Mar-2021 3369.01 1717.06 61.79 12.00 269.99 3116.52
   12:21:44.914.27-Mar-2021 3369.01 1715.30 61.79 12.00 270.19 3116.52
   12:21:45.114.27-Mar-2021 3369.01 1715.30 61.79 12.00 270.39 3116.52
   12:21:45.314.27-Mar-2021 3369.01 1711.81 61.78 12.00 270.59 3116.52
   12:21:45.514.27-Mar-2021 3369.01 1710.57 61.78 12.00 270.79 3116.52
   12:21:45.714.27-Mar-2021 3369.01 1707.99 61.78 12.00 270.99 3116.52
   12:21:45.914.27-Mar-2021 3369.01 1703.03 61.78 12.00 271.19 3116.52
