~Version Information
 VERS.                  2.0:   CWLS log ASCII Standard -VERSION 2.0
 WRAP.                   NO:   One line per depth step
~Well Information Block
#MNEM.UNIT     VALUE/NAME     DESCRIPTION
#---------     -----------    ---------------------------
 STRT.S             05:56:12 27-Mar-21: START TIME 05:56:12 27-Mar-21
 STOP.S             06:03:17 27-Mar-21: STOP TIME  06:03:17 27-Mar-21
 STEP.S                   0.00: STEP TIME
 NULL.                 -999.25: NULL VALUE
 DFWT.                        :  DIST FWL TEXT
 DFST.                        :  DIST FSL TEXT
 DMF .             Drill Floor:  DRILL MEAS FROM
 STIM.      20.26.40 11-Mar-21:  START TIME
 DATE.      20.26.40 30-Mar-21:  END TIME
 SPUD.               11-Mar-21:  SPUD DATE
 NREF.                    Grid:  NORTH REFERENCE
 HPTY.       Minimum Curvature:  HOLE POS TYPE
 DMOD.             Drill Model:  DRILL MOD DESC
 SVYD.                  Survey:  SURVEY DESC
 ILTD.               Lithology:  INTERP LTH DESC
 FTOP.          Formation Tops:  FORM TOPS DESC
 SON .        AZ-XX-0906805385:  JOB NUMBER
 WTYP.                Deviated:  WELL TYPE
 COMP.     BP Exploration (Caspian Sea) Ltd.:  COMPANY
 UWI .            /AZE00000198:  UNIQUE WELL IDENTIFIER
 API .            /AZE00000198:  API NUMBER
 BASE.              Azerbaijan:  LOGGING EQUIPMENT BASE LOCATION
 REGN.                   EESSA:  REGION
 PROV.                    Baku:  PROVINCE
 STAT.                    Baku:  STATE NAME
 CTRY.              Azerbaijan:  COUNTRY NAME
 FLD .                     ACG:  FIELD NAME
 SRVC.     Turan Drilling & Engineering:  CONTRACTOR
 MWDS.                    Baku:  MWD SHOP
 WELL.                    D09z:  WELL NAME
 JOBN.        AZ-XX-0906805385:  JOB TICKET NUMB
 RIG .              East Azeri:  RIG NAME
 DOE .                     N/A:  DOE NUMBER
 DCON.         Sperry Drilling:  DIRECTNL CONTR
 UNIT.                     N/A:  LOGGING EQUIPMENT ID
 PDAT.          Mean Sea Level:  PERMANENT DATUM
 MDS .        Operator Entered:  MAG DATA SOURCE
 CNTY.                        :  COUNTY
 LOC .                        :  LOCATION
 LMF .             Drill Floor:  LOG MEASURED FROM
 TVDS.m                  43.60:  TVDSS CORRECTN
 LATI.deg                40.02:  LATITUDE
 LONG.deg                51.45:  LONGITUDE
 WHNS.m                 -17.04:  WELL HEAD N/S
 WHEW.m                  -6.28:  WELL HEAD E/W
 UTMX.m              538763.98:  UTM X
 UTMY.m             4431880.20:  UTM Y
 DFWL.m                   0.00:  DISTANCE FWL
 DFSL.m                   0.00:  DISTANCE FSL
 SDEP.m                2680.01:  START DEPTH
 TDD .m                4000.01:  TOTAL DEPTH (DRILLER)
 VSDR.deg               225.71:  VERT SEC DIRECT
 GVFD.g                   1.00:  GRAVITY FIELD
 MFLD.nT              50353.00:  MAGNETIC FIELD
 MDIP.deg                59.49:  MAGNETIC DIP
 MDEC.deg                 6.46:  MAGNETIC DECL
 GRDC.deg                 0.29:  GRID CORRECTION
 AZTC.deg                 6.17:  AZM TOTAL CORR
 EPD .m                   0.00:  ELEVATION
 EGL .m                   0.00:  GROUND ELEVATION
 WDMS.m                 151.80:  WD ELEV
 APD .m                  43.60:  DEPTH ABOVE PD
 AGAP.m                  43.60:  AIR GAP
 VSEW.m                  -6.28:  VERT SEC E/W
 VSNS.m                 -17.04:  VERT SEC N/S
 DEP .m                2656.31:  DEPTH
 EKB .m                  43.60:  KB ELEVATION
 EDF .m                  43.60:  DF ELEVATION
 VSC .                       0:  VS TO CLOSURE
 MAGU.                 1851247:  MAGUTM CHECKSUM
~Parameter Information Block
#MNEM.UNIT       Value        Description
#---------     -----------    ---------------------------
 AV  .mps                 3.00:  Ann Velocity 
 AVMX.mps                 8.00:  Max Ann Veloc 
 AZIF.deg                 0.00:  Azm, Final 
 BHAT.                   Other:  BHA Type 
 BREV.rev                 0.00:  Rev Bit Total 
 BROT.°/30m               0.00:  Build Rotating 
 BS  .in                 10.25:  Bit Size 
 BTPL.psig              511.00:  Bit Press Loss 
 CABU.                      No:  Customer Abuse 
 CGEO.           Asif Pashayev:  Customer Geo 
 COMM.                     ÌìW:  Run Comments 1 
 TCS .hr                 24.03:  Time Ciculation Ended 
 CV  .mps                 3.50:  Crit Velocity 
 CVMX.mps                 4.00:  Max Crit Veloc 
 DD1 .             Aziz Aliyev:  Direct Drillr 1 
 DD2 .      Fakhraddin Guliyev:  Direct Drillr 2 
 DDSV.                   Other:  DD Service 
 DEFF.%                  99.00:  % Det Eff 
 DLRX.°/30m               0.00:  Dogleg Rot Max 
 DLSO.°/30m               0.00:  Dogleg Oriented 
 DLSX.°/30m               0.00:  Dogleg Str Max 
 DRET.      23.00.40 28-Mar-21:  Drill End Time 
 DRST.      23.30.40 25-Mar-21:  Drill Start Tim 
 DTIM.hr                  0.00:  Time Drilling 
 EDEP.m                3886.01:  End Depth 
 ENG1.         Almaz Almadatov:  Engineer 1 
 ENG2.      Artemiy Matviyanov:  Engineer 2 
 ENG3.           Samir Gafarov:  Engineer 3 
 ETIM.      23.00.40 28-Mar-21:  End Time 
 FLOI.gpm               550.00:  Flow In 
 FLON.gpm               500.00:  Flow In Min 
 FLOS.cptm                0.00:  Fluid Loss 
 FLOX.gpm               590.00:  Flow In Max 
 HFLO.                      No:  High Flow 
 HPRE.                      No:  High Pressure 
 HTEM.                      No:  High Temp 
 HYDO.m                   1.80:  Hydro Offset 
 IFIN.deg                 0.00:  Inc, Final 
 IMAX.deg                 0.00:  Inc Max 
 IMIN.deg                 0.00:  Inc Min 
 IMND.m                   0.00:  Inc Min Depth 
 IMXD.m                   0.00:  Inc Max Depth 
 JARR.                      No:  Jarring 
 LETM.      03.22.40 28-Mar-21:  Log End Time 
 LOST.hr                     0:  Lost Rig Time 
 LSTM.      23.30.40 25-Mar-21:  Log Start Time 
 MDCL.ppm             34000.00:  Mud Chlorides 
 MDES.     Inversion Oil/Synthetic:  Mud Desc 
 DFD .sg                  1.51:  Mud Density 
 MDMN.sg                  1.51:  Dens Mud Min 
 MDMX.sg                  1.51:  Dens Mud Max 
 MOIL.                      70:  Run Mud Oil % 
 MOWR.                   70:30:  Run Mud OWR 
 MSND.                     0.2:  Run Mud Sand % 
 MSOL.                   21.60:  Run Mud Solids% 
 DFV .spqt               74.00:  Mud Viscosity 
 MWOD.in                  6.75:  MWD Tool OD 
 MWSI.                      No:  Serv Intrp, MWD 
 OTIM.hr                 69.09:  Time Operating 
 PCON.           Look Like New:  Pad Condition 
 PMAX.psia             3500.00:  Press Op, Max 
 PV  .cP                 70.00:  Mud PV 
 RUN .                     400:  Run Number 
 ROPA.m/hr                0.00:  ROP Avg 
 ROPN.m/hr                0.00:  ROP Min 
 ROPX.m/hr                0.00:  ROP Max 
 RPMA.rpm                80.00:  RPM Surface Avg 
 RPMN.rpm                10.00:  RPM Surface Min 
 RPMX.rpm               100.00:  RPM Surface Max 
 RRUN.                    0400:  Rig Run Number 
 RTIM.hr                  3.00:  Time Reaming 
 SAZI.deg                 0.00:  Azm, Start 
 SDEP.m                3886.01:  Start Depth 
 SIDD.                      No:  Serv Intrp, DD 
 SINC.deg                 0.00:  Inc, Start 
 SPPA.psig             3270.00:  SPP Avg 
 SPPN.psig             3220.00:  SPP Min 
 SPPX.psig             4430.00:  SPP Max 
 STIM.      23.30.40 25-Mar-21:  Start Time 
 SVCS.                 DD, MWD:  Services 
 SVER.                    9.20:  Sperry Version 
 TDAT.m                   0.00:  Tot Depth Attmp 
 TDDF.                      No:  Trip for DD 
 TFF .                      No:  Trip for Fail 
 TQAA.f-kp                8.00:  Torque Abs Avg 
 TQAN.f-kp                7.00:  Torque Abs Min 
 TQAX.f-kp               11.00:  Torque Abs Max 
 TRRT.°/30m               0.00:  Turn Rotating 
 MRT .                  EWR-M5:  Maximum Recorded Temperature 
 TTMX.degC               76.47:  Max Tool Temp 
 VS01.                90640857:  Virtual Str1 SN 
 VS02.                90639246:  Virtual Str2 SN 
 VS03.                90642265:  Virtual Str3 SN 
 VS04.                11654497:  Virtual Str4 SN 
 WBMN.klb                 0.00:  WOB Min 
 WITN.      Kamran Keberlinkiy:  Customer Rep 
 WITN.           Murad Guliyev:  Customer Rep 2 
 WOBA.klb                 0.00:  WOB Avg 
 WOBX.klb                 0.00:  WOB Max 
 YP  .lhf2               36.00:  Yield Point 
~Curve Information Block
#MNEM.UNIT                 API CODE     Curve Description
#---------               -----------    ---------------------------
 TIME.HHMMSS            00 000 000 000:  GT Time & Date
 GTDEPTH.m              00 000 000 000:  GT Depth
 GTPQH.psia             00 000 000 000:  GT HR Quartz Pressure
 GTTQ.degC              00 000 000 000:  GT Quartz Temperature
 GTTN.NONE              00 000 000 000:  GT Test Number
 GTET.sec               00 000 000 000:  GT Elapsed Test Time
 GTTVD.m                00 000 000 000:  GT True Vertical Depth
#Other Information
#
#WARRANTY: Halliburton will use its best efforts to furnish customers with 
#accurate information and interpretations that are part of, and incident to, the services 
#provided.  However, Halliburton cannot and does not warrant the accuracy 
#or correctness of such information and interpretations.  Under no circumstances should any 
#such information or interpretation be relied upon as the sole basis for any drilling, 
#completion, production, or financial decision or any procedure involving any risk to the 
#safety of any drilling venture, drilling rig or its crew or any other third party.  The 
#Customer has full responsibility for all drilling, completion and production operation.  
#Halliburton makes no representations or warranties, either expressed or 
#implied, including, but not limited to, the implied warranties of merchantability or fitness 
#for a particular purpose, with respect to the services rendered.  In no event will 
#Halliburton be liable for failure to obtain any particular results or for 
#any damages, including, but not limited to, indirect, special or consequential damages, 
#resulting from the use of any information or interpretation provided by Halliburton.
#
~A           TIME           GTDEPTH  GTPQH  GTTQ  GTTN  GTET   GTTVD  
# ...
   05:57:44.000.27-Mar-2021 3467.51 5141.23 60.08 4.00  92.00 3208.79
   05:57:44.200.27-Mar-2021 3467.51 5141.23 60.08 4.00  92.20 3208.79
   05:57:44.400.27-Mar-2021 3467.51 5141.24 60.08 4.00  92.40 3208.79
   05:57:44.600.27-Mar-2021 3467.51 5141.26 60.08 4.00  92.60 3208.79
   05:57:44.800.27-Mar-2021 3467.51 5141.38 60.08 4.00  92.80 3208.79
   05:57:45.000.27-Mar-2021 3467.51 5141.19 60.08 4.00  93.00 3208.79
   05:57:45.200.27-Mar-2021 3467.51 5141.19 60.08 4.00  93.20 3208.79
   05:57:45.400.27-Mar-2021 3467.51 5141.16 60.08 4.00  93.40 3208.79
   05:57:45.600.27-Mar-2021 3467.51 5141.30 60.08 4.00  93.60 3208.79
   05:57:45.800.27-Mar-2021 3467.51 5141.18 60.08 4.00  93.80 3208.79
   05:57:46.000.27-Mar-2021 3467.51 5141.24 60.08 4.00  94.00 3208.79
   05:57:46.200.27-Mar-2021 3467.51 5141.24 60.08 4.00  94.20 3208.79
   05:57:46.400.27-Mar-2021 3467.51 5141.22 60.08 4.00  94.40 3208.79
   05:57:46.600.27-Mar-2021 3467.51 5141.21 60.08 4.00  94.60 3208.79
   05:57:46.800.27-Mar-2021 3467.51 5141.23 60.08 4.00  94.80 3208.79
   05:57:47.000.27-Mar-2021 3467.51 5141.19 60.08 4.00  95.00 3208.79
   05:57:47.200.27-Mar-2021 3467.51 5141.19 60.08 4.00  95.20 3208.79
   05:57:47.400.27-Mar-2021 3467.51 5141.24 60.08 4.00  95.40 3208.79
   05:57:47.600.27-Mar-2021 3467.51 5141.20 60.08 4.00  95.60 3208.79
   05:57:47.800.27-Mar-2021 3467.51 5141.19 60.08 4.00  95.80 3208.79
   05:57:48.000.27-Mar-2021 3467.51 5141.21 60.08 4.00  96.00 3208.79
   05:57:48.200.27-Mar-2021 3467.51 5141.21 60.08 4.00  96.20 3208.79
   05:57:48.400.27-Mar-2021 3467.51 5141.19 60.08 4.00  96.40 3208.79
   05:57:48.600.27-Mar-2021 3467.51 5141.21 60.08 4.00  96.60 3208.79
   05:57:48.800.27-Mar-2021 3467.51 5141.22 60.08 4.00  96.80 3208.79
   05:57:49.000.27-Mar-2021 3467.51 5141.20 60.08 4.00  97.00 3208.79
   05:57:49.200.27-Mar-2021 3467.51 5141.20 60.08 4.00  97.20 3208.79
   05:57:49.400.27-Mar-2021 3467.51 5141.21 60.08 4.00  97.40 3208.79
   05:57:49.600.27-Mar-2021 3467.51 5141.21 60.08 4.00  97.60 3208.79
   05:57:49.800.27-Mar-2021 3467.51 5141.21 60.08 4.00  97.80 3208.79
   05:57:50.000.27-Mar-2021 3467.51 5141.23 60.08 4.00  98.00 3208.79
   05:57:50.200.27-Mar-2021 3467.51 5141.23 60.08 4.00  98.20 3208.79
   05:57:50.400.27-Mar-2021 3467.51 5141.24 60.08 4.00  98.40 3208.79
   05:57:50.600.27-Mar-2021 3467.51 5141.24 60.08 4.00  98.60 3208.79
   05:57:50.800.27-Mar-2021 3467.51 5141.26 60.08 4.00  98.80 3208.79
   05:57:51.000.27-Mar-2021 3467.51 5141.25 60.08 4.00  99.00 3208.79
   05:57:51.200.27-Mar-2021 3467.51 5141.25 60.08 4.00  99.20 3208.79
   05:57:51.400.27-Mar-2021 3467.51 5141.28 60.08 4.00  99.40 3208.79
   05:57:51.600.27-Mar-2021 3467.51 5141.21 60.08 4.00  99.60 3208.79
   05:57:51.800.27-Mar-2021 3467.51 5141.20 60.08 4.00  99.80 3208.79
   05:57:52.000.27-Mar-2021 3467.51 5141.22 60.08 4.00 100.00 3208.79
   05:57:52.200.27-Mar-2021 3467.51 5141.22 60.08 4.00 100.20 3208.79
   05:57:52.400.27-Mar-2021 3467.51 5141.19 60.08 4.00 100.40 3208.79
   05:57:52.600.27-Mar-2021 3467.51 5141.23 60.08 4.00 100.60 3208.79
   05:57:52.800.27-Mar-2021 3467.51 5141.22 60.08 4.00 100.80 3208.79
   05:57:53.000.27-Mar-2021 3467.51 5141.23 60.08 4.00 101.00 3208.79
   05:57:53.200.27-Mar-2021 3467.51 5141.23 60.08 4.00 101.20 3208.79
   05:57:53.400.27-Mar-2021 3467.51 5141.24 60.08 4.00 101.40 3208.79
   05:57:53.600.27-Mar-2021 3467.51 5141.23 60.08 4.00 101.60 3208.79
   05:57:53.800.27-Mar-2021 3467.51 5141.26 60.08 4.00 101.80 3208.79
   05:57:54.000.27-Mar-2021 3467.51 5141.17 60.08 4.00 102.00 3208.79
   05:57:54.200.27-Mar-2021 3467.51 5141.17 60.08 4.00 102.20 3208.79
   05:57:54.400.27-Mar-2021 3467.51 5141.26 60.08 4.00 102.40 3208.79
   05:57:54.600.27-Mar-2021 3467.51 5141.18 60.08 4.00 102.60 3208.79
   05:57:54.800.27-Mar-2021 3467.51 5141.15 60.08 4.00 102.80 3208.79
   05:57:55.000.27-Mar-2021 3467.51 5141.29 60.08 4.00 103.00 3208.79
   05:57:55.200.27-Mar-2021 3467.51 5141.29 60.08 4.00 103.20 3208.79
   05:57:55.400.27-Mar-2021 3467.51 5141.16 60.08 4.00 103.40 3208.79
   05:57:55.600.27-Mar-2021 3467.51 5141.23 60.08 4.00 103.60 3208.79
   05:57:55.800.27-Mar-2021 3467.51 5141.22 60.08 4.00 103.80 3208.79
   05:57:56.000.27-Mar-2021 3467.51 5141.24 60.08 4.00 104.00 3208.79
   05:57:56.200.27-Mar-2021 3467.51 5141.24 60.08 4.00 104.20 3208.79
   05:57:56.400.27-Mar-2021 3467.51 5141.25 60.08 4.00 104.40 3208.79
   05:57:56.600.27-Mar-2021 3467.51 5141.17 60.08 4.00 104.60 3208.79
   05:57:56.800.27-Mar-2021 3467.51 5141.23 60.08 4.00 104.80 3208.79
   05:57:57.000.27-Mar-2021 3467.51 5141.18 60.08 4.00 105.00 3208.79
   05:57:57.200.27-Mar-2021 3467.51 5141.18 60.08 4.00 105.20 3208.79
   05:57:57.400.27-Mar-2021 3467.51 5141.28 60.08 4.00 105.40 3208.79
   05:57:57.600.27-Mar-2021 3467.51 5141.15 60.08 4.00 105.60 3208.79
   05:57:57.800.27-Mar-2021 3467.51 5141.25 60.08 4.00 105.80 3208.79
   05:57:58.000.27-Mar-2021 3467.51 5141.16 60.08 4.00 106.00 3208.79
   05:57:58.200.27-Mar-2021 3467.51 5141.16 60.08 4.00 106.20 3208.79
   05:57:58.400.27-Mar-2021 3467.51 5141.18 60.08 4.00 106.40 3208.79
   05:57:58.600.27-Mar-2021 3467.51 5141.22 60.08 4.00 106.60 3208.79
   05:57:58.800.27-Mar-2021 3467.51 5141.22 60.08 4.00 106.80 3208.79
   05:57:59.000.27-Mar-2021 3467.51 5141.19 60.08 4.00 107.00 3208.79
   05:57:59.200.27-Mar-2021 3467.51 5141.19 60.08 4.00 107.20 3208.79
   05:57:59.400.27-Mar-2021 3467.51 5141.22 60.08 4.00 107.40 3208.79
   05:57:59.600.27-Mar-2021 3467.51 5141.23 60.08 4.00 107.60 3208.79
   05:57:59.800.27-Mar-2021 3467.51 5141.24 60.08 4.00 107.80 3208.79
   05:58:00.000.27-Mar-2021 3467.51 5141.23 60.08 4.00 108.00 3208.79
   05:58:00.200.27-Mar-2021 3467.51 5141.23 60.08 4.00 108.20 3208.79
   05:58:00.400.27-Mar-2021 3467.51 5141.23 60.08 4.00 108.40 3208.79
   05:58:00.600.27-Mar-2021 3467.51 5141.28 60.08 4.00 108.60 3208.79
   05:58:00.800.27-Mar-2021 3467.51 5141.17 60.08 4.00 108.80 3208.79
   05:58:01.000.27-Mar-2021 3467.51 5141.24 60.08 4.00 109.00 3208.79
   05:58:01.200.27-Mar-2021 3467.51 5141.24 60.08 4.00 109.20 3208.79
   05:58:01.400.27-Mar-2021 3467.51 5141.23 60.08 4.00 109.40 3208.79
   05:58:01.600.27-Mar-2021 3467.51 5141.21 60.08 4.00 109.60 3208.79
   05:58:01.800.27-Mar-2021 3467.51 5141.19 60.08 4.00 109.80 3208.79
   05:58:02.000.27-Mar-2021 3467.51 5141.23 60.08 4.00 110.00 3208.79
   05:58:02.200.27-Mar-2021 3467.51 5141.23 60.08 4.00 110.20 3208.79
   05:58:02.400.27-Mar-2021 3467.51 5141.23 60.08 4.00 110.40 3208.79
   05:58:02.600.27-Mar-2021 3467.51 5141.24 60.08 4.00 110.60 3208.79
   05:58:02.800.27-Mar-2021 3467.51 5141.23 60.08 4.00 110.80 3208.79
   05:58:03.000.27-Mar-2021 3467.51 5141.23 60.08 4.00 111.00 3208.79
   05:58:03.200.27-Mar-2021 3467.51 5141.23 60.08 4.00 111.20 3208.79
   05:58:03.400.27-Mar-2021 3467.51 5141.34 60.08 4.00 111.40 3208.79
   05:58:03.600.27-Mar-2021 3467.51 5141.22 60.08 4.00 111.60 3208.79
   05:58:03.800.27-Mar-2021 3467.51 5141.23 60.08 4.00 111.80 3208.79
   05:58:04.000.27-Mar-2021 3467.51 5141.09 60.08 4.00 112.00 3208.79
   05:58:04.200.27-Mar-2021 3467.51 5141.09 60.08 4.00 112.20 3208.79
   05:58:04.400.27-Mar-2021 3467.51 5141.20 60.08 4.00 112.40 3208.79
   05:58:04.600.27-Mar-2021 3467.51 5141.24 60.08 4.00 112.60 3208.79
   05:58:04.800.27-Mar-2021 3467.51 5141.20 60.08 4.00 112.80 3208.79
   05:58:05.000.27-Mar-2021 3467.51 5141.22 60.08 4.00 113.00 3208.79
   05:58:05.200.27-Mar-2021 3467.51 5141.22 60.08 4.00 113.20 3208.79
   05:58:05.400.27-Mar-2021 3467.51 5141.30 60.08 4.00 113.40 3208.79
   05:58:05.600.27-Mar-2021 3467.51 5141.24 60.08 4.00 113.60 3208.79
   05:58:05.800.27-Mar-2021 3467.51 5141.19 60.08 4.00 113.80 3208.79
   05:58:06.000.27-Mar-2021 3467.51 5141.21 60.08 4.00 114.00 3208.79
   05:58:06.200.27-Mar-2021 3467.51 5141.21 60.08 4.00 114.20 3208.79
   05:58:06.400.27-Mar-2021 3467.51 5141.19 60.08 4.00 114.40 3208.79
   05:58:06.600.27-Mar-2021 3467.51 5141.15 60.08 4.00 114.60 3208.79
   05:58:06.800.27-Mar-2021 3467.51 5141.28 60.08 4.00 114.80 3208.79
