~Version Information
 VERS.                  2.0:   CWLS log ASCII Standard -VERSION 2.0
 WRAP.                   NO:   One line per depth step
~Well Information Block
#MNEM.UNIT     VALUE/NAME     DESCRIPTION
#---------     -----------    ---------------------------
 STRT.S             03:27:53 27-Mar-21: START TIME 03:27:53 27-Mar-21
 STOP.S             03:35:02 27-Mar-21: STOP TIME  03:35:02 27-Mar-21
 STEP.S                   0.00: STEP TIME
 NULL.                 -999.25: NULL VALUE
 DFWT.                        :  DIST FWL TEXT
 DFST.                        :  DIST FSL TEXT
 DMF .             Drill Floor:  DRILL MEAS FROM
 STIM.      20.26.40 11-Mar-21:  START TIME
 DATE.      20.26.40 30-Mar-21:  END TIME
 SPUD.               11-Mar-21:  SPUD DATE
 NREF.                    Grid:  NORTH REFERENCE
 HPTY.       Minimum Curvature:  HOLE POS TYPE
 DMOD.             Drill Model:  DRILL MOD DESC
 SVYD.                  Survey:  SURVEY DESC
 ILTD.               Lithology:  INTERP LTH DESC
 FTOP.          Formation Tops:  FORM TOPS DESC
 SON .        AZ-XX-0906805385:  JOB NUMBER
 WTYP.                Deviated:  WELL TYPE
 COMP.     BP Exploration (Caspian Sea) Ltd.:  COMPANY
 UWI .            /AZE00000198:  UNIQUE WELL IDENTIFIER
 API .            /AZE00000198:  API NUMBER
 BASE.              Azerbaijan:  LOGGING EQUIPMENT BASE LOCATION
 REGN.                   EESSA:  REGION
 PROV.                    Baku:  PROVINCE
 STAT.                    Baku:  STATE NAME
 CTRY.              Azerbaijan:  COUNTRY NAME
 FLD .                     ACG:  FIELD NAME
 SRVC.     Turan Drilling & Engineering:  CONTRACTOR
 MWDS.                    Baku:  MWD SHOP
 WELL.                    D09z:  WELL NAME
 JOBN.        AZ-XX-0906805385:  JOB TICKET NUMB
 RIG .              East Azeri:  RIG NAME
 DOE .                     N/A:  DOE NUMBER
 DCON.         Sperry Drilling:  DIRECTNL CONTR
 UNIT.                     N/A:  LOGGING EQUIPMENT ID
 PDAT.          Mean Sea Level:  PERMANENT DATUM
 MDS .        Operator Entered:  MAG DATA SOURCE
 CNTY.                        :  COUNTY
 LOC .                        :  LOCATION
 LMF .             Drill Floor:  LOG MEASURED FROM
 TVDS.m                  43.60:  TVDSS CORRECTN
 LATI.deg                40.02:  LATITUDE
 LONG.deg                51.45:  LONGITUDE
 WHNS.m                 -17.04:  WELL HEAD N/S
 WHEW.m                  -6.28:  WELL HEAD E/W
 UTMX.m              538763.98:  UTM X
 UTMY.m             4431880.20:  UTM Y
 DFWL.m                   0.00:  DISTANCE FWL
 DFSL.m                   0.00:  DISTANCE FSL
 SDEP.m                2680.01:  START DEPTH
 TDD .m                4000.01:  TOTAL DEPTH (DRILLER)
 VSDR.deg               225.71:  VERT SEC DIRECT
 GVFD.g                   1.00:  GRAVITY FIELD
 MFLD.nT              50353.00:  MAGNETIC FIELD
 MDIP.deg                59.49:  MAGNETIC DIP
 MDEC.deg                 6.46:  MAGNETIC DECL
 GRDC.deg                 0.29:  GRID CORRECTION
 AZTC.deg                 6.17:  AZM TOTAL CORR
 EPD .m                   0.00:  ELEVATION
 EGL .m                   0.00:  GROUND ELEVATION
 WDMS.m                 151.80:  WD ELEV
 APD .m                  43.60:  DEPTH ABOVE PD
 AGAP.m                  43.60:  AIR GAP
 VSEW.m                  -6.28:  VERT SEC E/W
 VSNS.m                 -17.04:  VERT SEC N/S
 DEP .m                2656.31:  DEPTH
 EKB .m                  43.60:  KB ELEVATION
 EDF .m                  43.60:  DF ELEVATION
 VSC .                       0:  VS TO CLOSURE
 MAGU.                 1851247:  MAGUTM CHECKSUM
~Parameter Information Block
#MNEM.UNIT       Value        Description
#---------     -----------    ---------------------------
 AV  .mps                 3.00:  Ann Velocity 
 AVMX.mps                 8.00:  Max Ann Veloc 
 AZIF.deg                 0.00:  Azm, Final 
 BHAT.                   Other:  BHA Type 
 BREV.rev                 0.00:  Rev Bit Total 
 BROT.°/30m               0.00:  Build Rotating 
 BS  .in                 10.25:  Bit Size 
 BTPL.psig              511.00:  Bit Press Loss 
 CABU.                      No:  Customer Abuse 
 CGEO.           Asif Pashayev:  Customer Geo 
 COMM.                     ¼Fy:  Run Comments 1 
 TCS .hr                 24.03:  Time Ciculation Ended 
 CV  .mps                 3.50:  Crit Velocity 
 CVMX.mps                 4.00:  Max Crit Veloc 
 DD1 .             Aziz Aliyev:  Direct Drillr 1 
 DD2 .      Fakhraddin Guliyev:  Direct Drillr 2 
 DDSV.                   Other:  DD Service 
 DEFF.%                  99.00:  % Det Eff 
 DLRX.°/30m               0.00:  Dogleg Rot Max 
 DLSO.°/30m               0.00:  Dogleg Oriented 
 DLSX.°/30m               0.00:  Dogleg Str Max 
 DRET.      23.00.40 28-Mar-21:  Drill End Time 
 DRST.      23.30.40 25-Mar-21:  Drill Start Tim 
 DTIM.hr                  0.00:  Time Drilling 
 EDEP.m                3886.01:  End Depth 
 ENG1.         Almaz Almadatov:  Engineer 1 
 ENG2.      Artemiy Matviyanov:  Engineer 2 
 ENG3.           Samir Gafarov:  Engineer 3 
 ETIM.      23.00.40 28-Mar-21:  End Time 
 FLOI.gpm               550.00:  Flow In 
 FLON.gpm               500.00:  Flow In Min 
 FLOS.cptm                0.00:  Fluid Loss 
 FLOX.gpm               590.00:  Flow In Max 
 HFLO.                      No:  High Flow 
 HPRE.                      No:  High Pressure 
 HTEM.                      No:  High Temp 
 HYDO.m                   1.80:  Hydro Offset 
 IFIN.deg                 0.00:  Inc, Final 
 IMAX.deg                 0.00:  Inc Max 
 IMIN.deg                 0.00:  Inc Min 
 IMND.m                   0.00:  Inc Min Depth 
 IMXD.m                   0.00:  Inc Max Depth 
 JARR.                      No:  Jarring 
 LETM.      03.22.40 28-Mar-21:  Log End Time 
 LOST.hr                     0:  Lost Rig Time 
 LSTM.      23.30.40 25-Mar-21:  Log Start Time 
 MDCL.ppm             34000.00:  Mud Chlorides 
 MDES.     Inversion Oil/Synthetic:  Mud Desc 
 DFD .sg                  1.51:  Mud Density 
 MDMN.sg                  1.51:  Dens Mud Min 
 MDMX.sg                  1.51:  Dens Mud Max 
 MOIL.                      70:  Run Mud Oil % 
 MOWR.                   70:30:  Run Mud OWR 
 MSND.                     0.2:  Run Mud Sand % 
 MSOL.                   21.60:  Run Mud Solids% 
 DFV .spqt               74.00:  Mud Viscosity 
 MWOD.in                  6.75:  MWD Tool OD 
 MWSI.                      No:  Serv Intrp, MWD 
 OTIM.hr                 69.09:  Time Operating 
 PCON.           Look Like New:  Pad Condition 
 PMAX.psia             3500.00:  Press Op, Max 
 PV  .cP                 70.00:  Mud PV 
 RUN .                     400:  Run Number 
 ROPA.m/hr                0.00:  ROP Avg 
 ROPN.m/hr                0.00:  ROP Min 
 ROPX.m/hr                0.00:  ROP Max 
 RPMA.rpm                80.00:  RPM Surface Avg 
 RPMN.rpm                10.00:  RPM Surface Min 
 RPMX.rpm               100.00:  RPM Surface Max 
 RRUN.                    0400:  Rig Run Number 
 RTIM.hr                  3.00:  Time Reaming 
 SAZI.deg                 0.00:  Azm, Start 
 SDEP.m                3886.01:  Start Depth 
 SIDD.                      No:  Serv Intrp, DD 
 SINC.deg                 0.00:  Inc, Start 
 SPPA.psig             3270.00:  SPP Avg 
 SPPN.psig             3220.00:  SPP Min 
 SPPX.psig             4430.00:  SPP Max 
 STIM.      23.30.40 25-Mar-21:  Start Time 
 SVCS.                 DD, MWD:  Services 
 SVER.                    9.20:  Sperry Version 
 TDAT.m                   0.00:  Tot Depth Attmp 
 TDDF.                      No:  Trip for DD 
 TFF .                      No:  Trip for Fail 
 TQAA.f-kp                8.00:  Torque Abs Avg 
 TQAN.f-kp                7.00:  Torque Abs Min 
 TQAX.f-kp               11.00:  Torque Abs Max 
 TRRT.°/30m               0.00:  Turn Rotating 
 MRT .                  EWR-M5:  Maximum Recorded Temperature 
 TTMX.degC               76.47:  Max Tool Temp 
 VS01.                90640857:  Virtual Str1 SN 
 VS02.                90639246:  Virtual Str2 SN 
 VS03.                90642265:  Virtual Str3 SN 
 VS04.                11654497:  Virtual Str4 SN 
 WBMN.klb                 0.00:  WOB Min 
 WITN.      Kamran Keberlinkiy:  Customer Rep 
 WITN.           Murad Guliyev:  Customer Rep 2 
 WOBA.klb                 0.00:  WOB Avg 
 WOBX.klb                 0.00:  WOB Max 
 YP  .lhf2               36.00:  Yield Point 
~Curve Information Block
#MNEM.UNIT                 API CODE     Curve Description
#---------               -----------    ---------------------------
 TIME.HHMMSS            00 000 000 000:  GT Time & Date
 GTDEPTH.m              00 000 000 000:  GT Depth
 GTPQH.psia             00 000 000 000:  GT HR Quartz Pressure
 GTTQ.degC              00 000 000 000:  GT Quartz Temperature
 GTTN.NONE              00 000 000 000:  GT Test Number
 GTET.sec               00 000 000 000:  GT Elapsed Test Time
 GTTVD.m                00 000 000 000:  GT True Vertical Depth
#Other Information
#
#WARRANTY: Halliburton will use its best efforts to furnish customers with 
#accurate information and interpretations that are part of, and incident to, the services 
#provided.  However, Halliburton cannot and does not warrant the accuracy 
#or correctness of such information and interpretations.  Under no circumstances should any 
#such information or interpretation be relied upon as the sole basis for any drilling, 
#completion, production, or financial decision or any procedure involving any risk to the 
#safety of any drilling venture, drilling rig or its crew or any other third party.  The 
#Customer has full responsibility for all drilling, completion and production operation.  
#Halliburton makes no representations or warranties, either expressed or 
#implied, including, but not limited to, the implied warranties of merchantability or fitness 
#for a particular purpose, with respect to the services rendered.  In no event will 
#Halliburton be liable for failure to obtain any particular results or for 
#any damages, including, but not limited to, indirect, special or consequential damages, 
#resulting from the use of any information or interpretation provided by Halliburton.
#
~A           TIME           GTDEPTH  GTPQH  GTTQ  GTTN  GTET   GTTVD  
# ...
   03:30:11.144.27-Mar-2021 3725.51 5265.46 61.45 3.00 138.02 3451.28
   03:30:11.344.27-Mar-2021 3725.51 5265.46 61.45 3.00 138.22 3451.28
   03:30:11.544.27-Mar-2021 3725.51 5265.45 61.45 3.00 138.42 3451.28
   03:30:11.744.27-Mar-2021 3725.51 5265.40 61.45 3.00 138.62 3451.28
   03:30:11.944.27-Mar-2021 3725.51 5266.23 61.45 3.00 138.82 3451.28
   03:30:12.144.27-Mar-2021 3725.51 5265.37 61.45 3.00 139.02 3451.28
   03:30:12.344.27-Mar-2021 3725.51 5265.37 61.45 3.00 139.22 3451.28
   03:30:12.544.27-Mar-2021 3725.51 5266.05 61.45 3.00 139.42 3451.28
   03:30:12.744.27-Mar-2021 3725.51 5265.53 61.45 3.00 139.62 3451.28
   03:30:12.944.27-Mar-2021 3725.51 5265.60 61.45 3.00 139.82 3451.28
   03:30:13.144.27-Mar-2021 3725.51 5265.62 61.45 3.00 140.02 3451.28
   03:30:13.345.27-Mar-2021 3725.51 5265.62 61.45 3.00 140.22 3451.28
   03:30:13.545.27-Mar-2021 3725.51 5265.66 61.45 3.00 140.42 3451.28
   03:30:13.745.27-Mar-2021 3725.51 5265.41 61.45 3.00 140.62 3451.28
   03:30:13.945.27-Mar-2021 3725.51 5265.73 61.45 3.00 140.82 3451.28
   03:30:14.145.27-Mar-2021 3725.51 5265.74 61.45 3.00 141.02 3451.28
   03:30:14.345.27-Mar-2021 3725.51 5265.74 61.45 3.00 141.22 3451.28
   03:30:14.545.27-Mar-2021 3725.51 5265.77 61.45 3.00 141.42 3451.28
   03:30:14.745.27-Mar-2021 3725.51 5265.41 61.45 3.00 141.62 3451.28
   03:30:14.945.27-Mar-2021 3725.51 5265.63 61.45 3.00 141.82 3451.28
   03:30:15.145.27-Mar-2021 3725.51 5265.77 61.45 3.00 142.02 3451.28
   03:30:15.345.27-Mar-2021 3725.51 5265.77 61.45 3.00 142.22 3451.28
   03:30:15.545.27-Mar-2021 3725.51 5265.66 61.45 3.00 142.42 3451.28
   03:30:15.745.27-Mar-2021 3725.51 5265.77 61.45 3.00 142.62 3451.28
   03:30:15.945.27-Mar-2021 3725.51 5265.51 61.45 3.00 142.82 3451.28
   03:30:16.145.27-Mar-2021 3725.51 5265.56 61.45 3.00 143.02 3451.28
   03:30:16.345.27-Mar-2021 3725.51 5265.56 61.45 3.00 143.22 3451.28
   03:30:16.545.27-Mar-2021 3725.51 5265.62 61.45 3.00 143.42 3451.28
   03:30:16.745.27-Mar-2021 3725.51 5265.60 61.45 3.00 143.62 3451.28
   03:30:16.945.27-Mar-2021 3725.51 5265.63 61.45 3.00 143.82 3451.28
   03:30:17.145.27-Mar-2021 3725.51 5265.62 61.45 3.00 144.02 3451.28
   03:30:17.345.27-Mar-2021 3725.51 5265.62 61.45 3.00 144.22 3451.28
   03:30:17.545.27-Mar-2021 3725.51 5265.76 61.45 3.00 144.42 3451.28
   03:30:17.745.27-Mar-2021 3725.51 5265.69 61.45 3.00 144.62 3451.28
   03:30:17.945.27-Mar-2021 3725.51 5265.31 61.45 3.00 144.82 3451.28
   03:30:18.145.27-Mar-2021 3725.51 5265.76 61.45 3.00 145.02 3451.28
   03:30:18.345.27-Mar-2021 3725.51 5265.76 61.45 3.00 145.22 3451.28
   03:30:18.545.27-Mar-2021 3725.51 5265.41 61.45 3.00 145.42 3451.28
   03:30:18.745.27-Mar-2021 3725.51 5265.63 61.45 3.00 145.62 3451.28
   03:30:18.945.27-Mar-2021 3725.51 5265.75 61.45 3.00 145.82 3451.28
   03:30:19.145.27-Mar-2021 3725.51 5265.54 61.45 3.00 146.02 3451.28
   03:30:19.345.27-Mar-2021 3725.51 5265.54 61.45 3.00 146.22 3451.28
   03:30:19.545.27-Mar-2021 3725.51 5265.66 61.45 3.00 146.42 3451.28
   03:30:19.745.27-Mar-2021 3725.51 5265.64 61.45 3.00 146.62 3451.28
   03:30:19.945.27-Mar-2021 3725.51 5265.57 61.45 3.00 146.82 3451.28
   03:30:20.145.27-Mar-2021 3725.51 5265.87 61.45 3.00 147.02 3451.28
   03:30:20.345.27-Mar-2021 3725.51 5265.87 61.45 3.00 147.22 3451.28
   03:30:20.545.27-Mar-2021 3725.51 5265.68 61.45 3.00 147.42 3451.28
   03:30:20.745.27-Mar-2021 3725.51 5265.86 61.45 3.00 147.62 3451.28
   03:30:20.945.27-Mar-2021 3725.51 5265.25 61.45 3.00 147.82 3451.28
   03:30:21.145.27-Mar-2021 3725.51 5265.72 61.45 3.00 148.02 3451.28
   03:30:21.346.27-Mar-2021 3725.51 5265.72 61.45 3.00 148.22 3451.28
   03:30:21.546.27-Mar-2021 3725.51 5265.12 61.45 3.00 148.42 3451.28
   03:30:21.746.27-Mar-2021 3725.51 5265.88 61.45 3.00 148.62 3451.28
   03:30:21.946.27-Mar-2021 3725.51 5265.95 61.45 3.00 148.82 3451.28
   03:30:22.146.27-Mar-2021 3725.51 5265.14 61.45 3.00 149.02 3451.28
   03:30:22.346.27-Mar-2021 3725.51 5265.14 61.45 3.00 149.22 3451.28
   03:30:22.546.27-Mar-2021 3725.51 5265.68 61.45 3.00 149.42 3451.28
   03:30:22.746.27-Mar-2021 3725.51 5265.65 61.45 3.00 149.62 3451.28
   03:30:22.946.27-Mar-2021 3725.51 5265.46 61.45 3.00 149.82 3451.28
   03:30:23.146.27-Mar-2021 3725.51 5265.54 61.45 3.00 150.02 3451.28
   03:30:23.346.27-Mar-2021 3725.51 5265.54 61.45 3.00 150.22 3451.28
   03:30:23.546.27-Mar-2021 3725.51 5265.51 61.45 3.00 150.42 3451.28
   03:30:23.746.27-Mar-2021 3725.51 5265.80 61.45 3.00 150.62 3451.28
   03:30:23.946.27-Mar-2021 3725.51 5265.59 61.45 3.00 150.82 3451.28
   03:30:24.146.27-Mar-2021 3725.51 5265.36 61.45 3.00 151.02 3451.28
   03:30:24.346.27-Mar-2021 3725.51 5265.36 61.45 3.00 151.22 3451.28
   03:30:24.546.27-Mar-2021 3725.51 5265.53 61.45 3.00 151.42 3451.28
   03:30:24.746.27-Mar-2021 3725.51 5265.46 61.45 3.00 151.62 3451.28
   03:30:24.946.27-Mar-2021 3725.51 5265.73 61.45 3.00 151.82 3451.28
   03:30:25.146.27-Mar-2021 3725.51 5265.63 61.45 3.00 152.02 3451.28
   03:30:25.346.27-Mar-2021 3725.51 5265.63 61.45 3.00 152.22 3451.28
   03:30:25.546.27-Mar-2021 3725.51 5265.64 61.45 3.00 152.42 3451.28
   03:30:25.746.27-Mar-2021 3725.51 5265.69 61.45 3.00 152.62 3451.28
   03:30:25.946.27-Mar-2021 3725.51 5265.59 61.45 3.00 152.82 3451.28
   03:30:26.146.27-Mar-2021 3725.51 5265.58 61.45 3.00 153.02 3451.28
   03:30:26.346.27-Mar-2021 3725.51 5265.58 61.45 3.00 153.22 3451.28
   03:30:26.546.27-Mar-2021 3725.51 5265.63 61.45 3.00 153.42 3451.28
   03:30:26.746.27-Mar-2021 3725.51 5265.47 61.45 3.00 153.62 3451.28
   03:30:26.946.27-Mar-2021 3725.51 5265.98 61.45 3.00 153.82 3451.28
   03:30:27.146.27-Mar-2021 3725.51 5265.39 61.45 3.00 154.02 3451.28
   03:30:27.346.27-Mar-2021 3725.51 5265.39 61.45 3.00 154.22 3451.28
   03:30:27.546.27-Mar-2021 3725.51 5265.85 61.45 3.00 154.42 3451.28
   03:30:27.746.27-Mar-2021 3725.51 5265.48 61.45 3.00 154.62 3451.28
   03:30:27.946.27-Mar-2021 3725.51 5265.42 61.45 3.00 154.82 3451.28
   03:30:28.146.27-Mar-2021 3725.51 5265.73 61.45 3.00 155.02 3451.28
   03:30:28.346.27-Mar-2021 3725.51 5265.73 61.45 3.00 155.22 3451.28
   03:30:28.546.27-Mar-2021 3725.51 5265.49 61.45 3.00 155.42 3451.28
   03:30:28.746.27-Mar-2021 3725.51 5265.62 61.45 3.00 155.62 3451.28
   03:30:28.946.27-Mar-2021 3725.51 5265.64 61.45 3.00 155.82 3451.28
   03:30:29.147.27-Mar-2021 3725.51 5265.56 61.45 3.00 156.02 3451.28
   03:30:29.347.27-Mar-2021 3725.51 5265.56 61.45 3.00 156.22 3451.28
   03:30:29.547.27-Mar-2021 3725.51 5265.60 61.45 3.00 156.42 3451.28
   03:30:29.747.27-Mar-2021 3725.51 5265.49 61.45 3.00 156.62 3451.28
   03:30:29.947.27-Mar-2021 3725.51 5265.88 61.45 3.00 156.82 3451.28
   03:30:30.147.27-Mar-2021 3725.51 5265.39 61.45 3.00 157.02 3451.28
   03:30:30.347.27-Mar-2021 3725.51 5265.39 61.45 3.00 157.22 3451.28
   03:30:30.547.27-Mar-2021 3725.51 5265.88 61.45 3.00 157.42 3451.28
   03:30:30.747.27-Mar-2021 3725.51 5265.62 61.45 3.00 157.62 3451.28
   03:30:30.947.27-Mar-2021 3725.51 5265.21 61.45 3.00 157.82 3451.28
   03:30:31.147.27-Mar-2021 3725.51 5266.24 61.45 3.00 158.02 3451.28
   03:30:31.347.27-Mar-2021 3725.51 5266.24 61.45 3.00 158.22 3451.28
   03:30:31.547.27-Mar-2021 3725.51 5265.27 61.45 3.00 158.42 3451.28
   03:30:31.747.27-Mar-2021 3725.51 5265.81 61.45 3.00 158.62 3451.28
   03:30:31.947.27-Mar-2021 3725.51 5264.48 61.45 3.00 158.82 3451.28
   03:30:32.147.27-Mar-2021 3725.51 5200.27 61.45 3.00 159.02 3451.28
   03:30:32.347.27-Mar-2021 3725.51 5200.27 61.45 3.00 159.22 3451.28
   03:30:32.547.27-Mar-2021 3725.51 5162.95 61.45 3.00 159.42 3451.28
   03:30:32.747.27-Mar-2021 3725.51 5163.16 61.45 3.00 159.62 3451.28
   03:30:32.947.27-Mar-2021 3725.51 5165.20 61.45 3.00 159.82 3451.28
   03:30:33.147.27-Mar-2021 3725.51 5166.88 61.45 3.00 160.02 3451.28
   03:30:33.347.27-Mar-2021 3725.51 5166.88 61.45 3.00 160.22 3451.28
   03:30:33.547.27-Mar-2021 3725.51 5168.64 61.45 3.00 160.42 3451.28
   03:30:33.747.27-Mar-2021 3725.51 5167.80 61.45 3.00 160.62 3451.28
   03:30:33.947.27-Mar-2021 3725.51 5168.17 61.45 3.00 160.82 3451.28
