~Version Information
 VERS.                  2.0:   CWLS log ASCII Standard -VERSION 2.0
 WRAP.                   NO:   One line per depth step
~Well Information Block
#MNEM.UNIT     VALUE/NAME     DESCRIPTION
#---------     -----------    ---------------------------
 STRT.S             01:51:11 27-Mar-21: START TIME 01:51:11 27-Mar-21
 STOP.S             01:58:18 27-Mar-21: STOP TIME  01:58:18 27-Mar-21
 STEP.S                   0.00: STEP TIME
 NULL.                 -999.25: NULL VALUE
 DFWT.                        :  DIST FWL TEXT
 DFST.                        :  DIST FSL TEXT
 DMF .             Drill Floor:  DRILL MEAS FROM
 STIM.      20.26.40 11-Mar-21:  START TIME
 DATE.      20.26.40 30-Mar-21:  END TIME
 SPUD.               11-Mar-21:  SPUD DATE
 NREF.                    Grid:  NORTH REFERENCE
 HPTY.       Minimum Curvature:  HOLE POS TYPE
 DMOD.             Drill Model:  DRILL MOD DESC
 SVYD.                  Survey:  SURVEY DESC
 ILTD.               Lithology:  INTERP LTH DESC
 FTOP.          Formation Tops:  FORM TOPS DESC
 SON .        AZ-XX-0906805385:  JOB NUMBER
 WTYP.                Deviated:  WELL TYPE
 COMP.     BP Exploration (Caspian Sea) Ltd.:  COMPANY
 UWI .            /AZE00000198:  UNIQUE WELL IDENTIFIER
 API .            /AZE00000198:  API NUMBER
 BASE.              Azerbaijan:  LOGGING EQUIPMENT BASE LOCATION
 REGN.                   EESSA:  REGION
 PROV.                    Baku:  PROVINCE
 STAT.                    Baku:  STATE NAME
 CTRY.              Azerbaijan:  COUNTRY NAME
 FLD .                     ACG:  FIELD NAME
 SRVC.     Turan Drilling & Engineering:  CONTRACTOR
 MWDS.                    Baku:  MWD SHOP
 WELL.                    D09z:  WELL NAME
 JOBN.        AZ-XX-0906805385:  JOB TICKET NUMB
 RIG .              East Azeri:  RIG NAME
 DOE .                     N/A:  DOE NUMBER
 DCON.         Sperry Drilling:  DIRECTNL CONTR
 UNIT.                     N/A:  LOGGING EQUIPMENT ID
 PDAT.          Mean Sea Level:  PERMANENT DATUM
 MDS .        Operator Entered:  MAG DATA SOURCE
 CNTY.                        :  COUNTY
 LOC .                        :  LOCATION
 LMF .             Drill Floor:  LOG MEASURED FROM
 TVDS.m                  43.60:  TVDSS CORRECTN
 LATI.deg                40.02:  LATITUDE
 LONG.deg                51.45:  LONGITUDE
 WHNS.m                 -17.04:  WELL HEAD N/S
 WHEW.m                  -6.28:  WELL HEAD E/W
 UTMX.m              538763.98:  UTM X
 UTMY.m             4431880.20:  UTM Y
 DFWL.m                   0.00:  DISTANCE FWL
 DFSL.m                   0.00:  DISTANCE FSL
 SDEP.m                2680.01:  START DEPTH
 TDD .m                4000.01:  TOTAL DEPTH (DRILLER)
 VSDR.deg               225.71:  VERT SEC DIRECT
 GVFD.g                   1.00:  GRAVITY FIELD
 MFLD.nT              50353.00:  MAGNETIC FIELD
 MDIP.deg                59.49:  MAGNETIC DIP
 MDEC.deg                 6.46:  MAGNETIC DECL
 GRDC.deg                 0.29:  GRID CORRECTION
 AZTC.deg                 6.17:  AZM TOTAL CORR
 EPD .m                   0.00:  ELEVATION
 EGL .m                   0.00:  GROUND ELEVATION
 WDMS.m                 151.80:  WD ELEV
 APD .m                  43.60:  DEPTH ABOVE PD
 AGAP.m                  43.60:  AIR GAP
 VSEW.m                  -6.28:  VERT SEC E/W
 VSNS.m                 -17.04:  VERT SEC N/S
 DEP .m                2656.31:  DEPTH
 EKB .m                  43.60:  KB ELEVATION
 EDF .m                  43.60:  DF ELEVATION
 VSC .                       0:  VS TO CLOSURE
 MAGU.                 1851247:  MAGUTM CHECKSUM
~Parameter Information Block
#MNEM.UNIT       Value        Description
#---------     -----------    ---------------------------
 AV  .mps                 3.00:  Ann Velocity 
 AVMX.mps                 8.00:  Max Ann Veloc 
 AZIF.deg                 0.00:  Azm, Final 
 BHAT.                   Other:  BHA Type 
 BREV.rev                 0.00:  Rev Bit Total 
 BROT.°/30m               0.00:  Build Rotating 
 BS  .in                 10.25:  Bit Size 
 BTPL.psig              511.00:  Bit Press Loss 
 CABU.                      No:  Customer Abuse 
 CGEO.           Asif Pashayev:  Customer Geo 
 COMM.                     |ºg:  Run Comments 1 
 TCS .hr                 24.03:  Time Ciculation Ended 
 CV  .mps                 3.50:  Crit Velocity 
 CVMX.mps                 4.00:  Max Crit Veloc 
 DD1 .             Aziz Aliyev:  Direct Drillr 1 
 DD2 .      Fakhraddin Guliyev:  Direct Drillr 2 
 DDSV.                   Other:  DD Service 
 DEFF.%                  99.00:  % Det Eff 
 DLRX.°/30m               0.00:  Dogleg Rot Max 
 DLSO.°/30m               0.00:  Dogleg Oriented 
 DLSX.°/30m               0.00:  Dogleg Str Max 
 DRET.      23.00.40 28-Mar-21:  Drill End Time 
 DRST.      23.30.40 25-Mar-21:  Drill Start Tim 
 DTIM.hr                  0.00:  Time Drilling 
 EDEP.m                3886.01:  End Depth 
 ENG1.         Almaz Almadatov:  Engineer 1 
 ENG2.      Artemiy Matviyanov:  Engineer 2 
 ENG3.           Samir Gafarov:  Engineer 3 
 ETIM.      23.00.40 28-Mar-21:  End Time 
 FLOI.gpm               550.00:  Flow In 
 FLON.gpm               500.00:  Flow In Min 
 FLOS.cptm                0.00:  Fluid Loss 
 FLOX.gpm               590.00:  Flow In Max 
 HFLO.                      No:  High Flow 
 HPRE.                      No:  High Pressure 
 HTEM.                      No:  High Temp 
 HYDO.m                   1.80:  Hydro Offset 
 IFIN.deg                 0.00:  Inc, Final 
 IMAX.deg                 0.00:  Inc Max 
 IMIN.deg                 0.00:  Inc Min 
 IMND.m                   0.00:  Inc Min Depth 
 IMXD.m                   0.00:  Inc Max Depth 
 JARR.                      No:  Jarring 
 LETM.      03.22.40 28-Mar-21:  Log End Time 
 LOST.hr                     0:  Lost Rig Time 
 LSTM.      23.30.40 25-Mar-21:  Log Start Time 
 MDCL.ppm             34000.00:  Mud Chlorides 
 MDES.     Inversion Oil/Synthetic:  Mud Desc 
 DFD .sg                  1.51:  Mud Density 
 MDMN.sg                  1.51:  Dens Mud Min 
 MDMX.sg                  1.51:  Dens Mud Max 
 MOIL.                      70:  Run Mud Oil % 
 MOWR.                   70:30:  Run Mud OWR 
 MSND.                     0.2:  Run Mud Sand % 
 MSOL.                   21.60:  Run Mud Solids% 
 DFV .spqt               74.00:  Mud Viscosity 
 MWOD.in                  6.75:  MWD Tool OD 
 MWSI.                      No:  Serv Intrp, MWD 
 OTIM.hr                 69.09:  Time Operating 
 PCON.           Look Like New:  Pad Condition 
 PMAX.psia             3500.00:  Press Op, Max 
 PV  .cP                 70.00:  Mud PV 
 RUN .                     400:  Run Number 
 ROPA.m/hr                0.00:  ROP Avg 
 ROPN.m/hr                0.00:  ROP Min 
 ROPX.m/hr                0.00:  ROP Max 
 RPMA.rpm                80.00:  RPM Surface Avg 
 RPMN.rpm                10.00:  RPM Surface Min 
 RPMX.rpm               100.00:  RPM Surface Max 
 RRUN.                    0400:  Rig Run Number 
 RTIM.hr                  3.00:  Time Reaming 
 SAZI.deg                 0.00:  Azm, Start 
 SDEP.m                3886.01:  Start Depth 
 SIDD.                      No:  Serv Intrp, DD 
 SINC.deg                 0.00:  Inc, Start 
 SPPA.psig             3270.00:  SPP Avg 
 SPPN.psig             3220.00:  SPP Min 
 SPPX.psig             4430.00:  SPP Max 
 STIM.      23.30.40 25-Mar-21:  Start Time 
 SVCS.                 DD, MWD:  Services 
 SVER.                    9.20:  Sperry Version 
 TDAT.m                   0.00:  Tot Depth Attmp 
 TDDF.                      No:  Trip for DD 
 TFF .                      No:  Trip for Fail 
 TQAA.f-kp                8.00:  Torque Abs Avg 
 TQAN.f-kp                7.00:  Torque Abs Min 
 TQAX.f-kp               11.00:  Torque Abs Max 
 TRRT.°/30m               0.00:  Turn Rotating 
 MRT .                  EWR-M5:  Maximum Recorded Temperature 
 TTMX.degC               76.47:  Max Tool Temp 
 VS01.                90640857:  Virtual Str1 SN 
 VS02.                90639246:  Virtual Str2 SN 
 VS03.                90642265:  Virtual Str3 SN 
 VS04.                11654497:  Virtual Str4 SN 
 WBMN.klb                 0.00:  WOB Min 
 WITN.      Kamran Keberlinkiy:  Customer Rep 
 WITN.           Murad Guliyev:  Customer Rep 2 
 WOBA.klb                 0.00:  WOB Avg 
 WOBX.klb                 0.00:  WOB Max 
 YP  .lhf2               36.00:  Yield Point 
~Curve Information Block
#MNEM.UNIT                 API CODE     Curve Description
#---------               -----------    ---------------------------
 TIME.HHMMSS            00 000 000 000:  GT Time & Date
 GTDEPTH.m              00 000 000 000:  GT Depth
 GTPQH.psia             00 000 000 000:  GT HR Quartz Pressure
 GTTQ.degC              00 000 000 000:  GT Quartz Temperature
 GTTN.NONE              00 000 000 000:  GT Test Number
 GTET.sec               00 000 000 000:  GT Elapsed Test Time
 GTTVD.m                00 000 000 000:  GT True Vertical Depth
#Other Information
#
#WARRANTY: Halliburton will use its best efforts to furnish customers with 
#accurate information and interpretations that are part of, and incident to, the services 
#provided.  However, Halliburton cannot and does not warrant the accuracy 
#or correctness of such information and interpretations.  Under no circumstances should any 
#such information or interpretation be relied upon as the sole basis for any drilling, 
#completion, production, or financial decision or any procedure involving any risk to the 
#safety of any drilling venture, drilling rig or its crew or any other third party.  The 
#Customer has full responsibility for all drilling, completion and production operation.  
#Halliburton makes no representations or warranties, either expressed or 
#implied, including, but not limited to, the implied warranties of merchantability or fitness 
#for a particular purpose, with respect to the services rendered.  In no event will 
#Halliburton be liable for failure to obtain any particular results or for 
#any damages, including, but not limited to, indirect, special or consequential damages, 
#resulting from the use of any information or interpretation provided by Halliburton.
#
~A           TIME           GTDEPTH  GTPQH  GTTQ  GTTN  GTET   GTTVD  
# ...
   01:51:34.645.27-Mar-2021 3763.51 8094.75 59.89 1.00  23.00 3487.00
   01:51:34.845.27-Mar-2021 3763.51 8094.75 59.89 1.00  23.20 3487.00
   01:51:35.045.27-Mar-2021 3763.51 8094.63 59.89 1.00  23.40 3487.00
   01:51:35.245.27-Mar-2021 3763.51 8094.14 59.89 1.00  23.60 3487.00
   01:51:35.445.27-Mar-2021 3763.51 8099.49 59.89 1.00  23.80 3487.00
   01:51:35.645.27-Mar-2021 3763.51 8094.04 59.89 1.00  24.00 3487.00
   01:51:35.845.27-Mar-2021 3763.51 8094.04 59.89 1.00  24.21 3487.00
   01:51:36.045.27-Mar-2021 3763.51 8094.52 59.89 1.00  24.41 3487.00
   01:51:36.246.27-Mar-2021 3763.51 8094.47 59.89 1.00  24.61 3487.00
   01:51:36.446.27-Mar-2021 3763.51 8094.00 59.89 1.00  24.81 3487.00
   01:51:36.646.27-Mar-2021 3763.51 8098.74 59.89 1.00  25.01 3487.00
   01:51:36.846.27-Mar-2021 3763.51 8098.74 59.89 1.00  25.21 3487.00
   01:51:37.046.27-Mar-2021 3763.51 8096.13 59.89 1.00  25.41 3487.00
   01:51:37.246.27-Mar-2021 3763.51 8096.08 59.89 1.00  25.61 3487.00
   01:51:37.446.27-Mar-2021 3763.51 8098.49 59.89 1.00  25.81 3487.00
   01:51:37.646.27-Mar-2021 3763.51 8095.72 59.89 1.00  26.01 3487.00
   01:51:37.846.27-Mar-2021 3763.51 8095.72 59.89 1.00  26.21 3487.00
   01:51:38.046.27-Mar-2021 3763.51 8097.05 59.89 1.00  26.41 3487.00
   01:51:38.246.27-Mar-2021 3763.51 8096.89 59.89 1.00  26.61 3487.00
   01:51:38.446.27-Mar-2021 3763.51 8095.84 59.89 1.00  26.81 3487.00
   01:51:38.646.27-Mar-2021 3763.51 8095.47 59.89 1.00  27.01 3487.00
   01:51:38.846.27-Mar-2021 3763.51 8095.47 59.89 1.00  27.21 3487.00
   01:51:39.046.27-Mar-2021 3763.51 8095.84 59.89 1.00  27.41 3487.00
   01:51:39.246.27-Mar-2021 3763.51 8096.52 59.89 1.00  27.61 3487.00
   01:51:39.446.27-Mar-2021 3763.51 8096.07 59.89 1.00  27.81 3487.00
   01:51:39.646.27-Mar-2021 3763.51 8095.93 59.89 1.00  28.01 3487.00
   01:51:39.846.27-Mar-2021 3763.51 8095.93 59.89 1.00  28.21 3487.00
   01:51:40.046.27-Mar-2021 3763.51 8096.80 59.89 1.00  28.41 3487.00
   01:51:40.246.27-Mar-2021 3763.51 8097.15 59.89 1.00  28.61 3487.00
   01:51:40.446.27-Mar-2021 3763.51 8097.05 59.89 1.00  28.81 3487.00
   01:51:40.646.27-Mar-2021 3763.51 8096.83 59.89 1.00  29.01 3487.00
   01:51:40.846.27-Mar-2021 3763.51 8096.83 59.89 1.00  29.21 3487.00
   01:51:41.047.27-Mar-2021 3763.51 8096.83 59.89 1.00  29.41 3487.00
   01:51:41.247.27-Mar-2021 3763.51 8097.77 59.89 1.00  29.61 3487.00
   01:51:41.447.27-Mar-2021 3763.51 8097.09 59.89 1.00  29.81 3487.00
   01:51:41.647.27-Mar-2021 3763.51 8097.55 59.89 1.00  30.01 3487.00
   01:51:41.847.27-Mar-2021 3763.51 8097.55 59.89 1.00  30.21 3487.00
   01:51:42.047.27-Mar-2021 3763.51 8097.04 59.89 1.00  30.41 3487.00
   01:51:42.247.27-Mar-2021 3763.51 8096.85 59.89 1.00  30.61 3487.00
   01:51:42.447.27-Mar-2021 3763.51 8096.36 59.89 1.00  30.81 3487.00
   01:51:42.647.27-Mar-2021 3763.51 8096.45 59.89 1.00  31.01 3487.00
   01:51:42.847.27-Mar-2021 3763.51 8096.45 59.89 1.00  31.21 3487.00
   01:51:43.047.27-Mar-2021 3763.51 8096.82 59.89 1.00  31.41 3487.00
   01:51:43.247.27-Mar-2021 3763.51 8097.47 59.89 1.00  31.61 3487.00
   01:51:43.447.27-Mar-2021 3763.51 8097.87 59.89 1.00  31.81 3487.00
   01:51:43.647.27-Mar-2021 3763.51 8101.16 59.89 1.00  32.01 3487.00
   01:51:43.847.27-Mar-2021 3763.51 8101.16 59.89 1.00  32.21 3487.00
   01:51:44.047.27-Mar-2021 3763.51 8098.20 59.89 1.00  32.41 3487.00
   01:51:44.247.27-Mar-2021 3763.51 8098.25 59.89 1.00  32.61 3487.00
   01:51:44.447.27-Mar-2021 3763.51 8097.77 59.89 1.00  32.81 3487.00
   01:51:44.647.27-Mar-2021 3763.51 8097.25 59.89 1.00  33.01 3487.00
   01:51:44.847.27-Mar-2021 3763.51 8097.25 59.89 1.00  33.21 3487.00
   01:51:45.047.27-Mar-2021 3763.51 8098.05 59.89 1.00  33.41 3487.00
   01:51:45.247.27-Mar-2021 3763.51 8098.67 59.89 1.00  33.61 3487.00
   01:51:45.447.27-Mar-2021 3763.51 8097.48 59.89 1.00  33.81 3487.00
   01:51:45.647.27-Mar-2021 3763.51 8097.19 59.89 1.00  34.01 3487.00
   01:51:45.848.27-Mar-2021 3763.51 8097.19 59.89 1.00  34.21 3487.00
   01:51:46.048.27-Mar-2021 3763.51 8102.84 59.89 1.00  34.41 3487.00
   01:51:46.248.27-Mar-2021 3763.51 8097.90 59.89 1.00  34.61 3487.00
   01:51:46.448.27-Mar-2021 3763.51 8099.75 59.89 1.00  34.81 3487.00
   01:51:46.648.27-Mar-2021 3763.51 8098.80 59.89 1.00  35.01 3487.00
   01:51:46.848.27-Mar-2021 3763.51 8098.80 59.89 1.00  35.21 3487.00
   01:51:47.048.27-Mar-2021 3763.51 8098.25 59.89 1.00  35.41 3487.00
   01:51:47.248.27-Mar-2021 3763.51 8098.31 59.89 1.00  35.61 3487.00
   01:51:47.448.27-Mar-2021 3763.51 8102.21 59.89 1.00  35.81 3487.00
   01:51:47.648.27-Mar-2021 3763.51 8100.26 59.89 1.00  36.01 3487.00
   01:51:47.848.27-Mar-2021 3763.51 8100.26 59.89 1.00  36.21 3487.00
   01:51:48.048.27-Mar-2021 3763.51 8099.46 59.89 1.00  36.41 3487.00
   01:51:48.248.27-Mar-2021 3763.51 8106.94 59.89 1.00  36.61 3487.00
   01:51:48.448.27-Mar-2021 3763.51 8127.59 59.89 1.00  36.81 3487.00
   01:51:48.648.27-Mar-2021 3763.51 8166.16 59.89 1.00  37.01 3487.00
   01:51:48.848.27-Mar-2021 3763.51 8166.16 59.89 1.00  37.21 3487.00
   01:51:49.048.27-Mar-2021 3763.51 8169.25 59.89 1.00  37.41 3487.00
   01:51:49.248.27-Mar-2021 3763.51 8174.10 59.89 1.00  37.61 3487.00
   01:51:49.448.27-Mar-2021 3763.51 8178.48 59.89 1.00  37.81 3487.00
   01:51:49.648.27-Mar-2021 3763.51 8179.61 59.89 1.00  38.01 3487.00
   01:51:49.848.27-Mar-2021 3763.51 8179.61 59.89 1.00  38.21 3487.00
   01:51:50.048.27-Mar-2021 3763.51 8186.72 59.89 1.00  38.41 3487.00
   01:51:50.248.27-Mar-2021 3763.51 8190.82 59.89 1.00  38.61 3487.00
   01:51:50.448.27-Mar-2021 3763.51 8194.54 59.89 1.00  38.81 3487.00
   01:51:50.648.27-Mar-2021 3763.51 8197.07 59.89 1.00  39.01 3487.00
   01:51:50.849.27-Mar-2021 3763.51 8197.07 59.89 1.00  39.21 3487.00
   01:51:51.049.27-Mar-2021 3763.51 8202.75 59.89 1.00  39.41 3487.00
   01:51:51.249.27-Mar-2021 3763.51 8202.98 59.89 1.00  39.61 3487.00
   01:51:51.449.27-Mar-2021 3763.51 8205.94 59.89 1.00  39.81 3487.00
   01:51:51.649.27-Mar-2021 3763.51 8207.68 59.89 1.00  40.01 3487.00
   01:51:51.849.27-Mar-2021 3763.51 8207.68 59.89 1.00  40.21 3487.00
   01:51:52.049.27-Mar-2021 3763.51 8210.64 59.89 1.00  40.41 3487.00
   01:51:52.249.27-Mar-2021 3763.51 8212.93 59.89 1.00  40.61 3487.00
   01:51:52.449.27-Mar-2021 3763.51 8215.20 59.89 1.00  40.81 3487.00
   01:51:52.649.27-Mar-2021 3763.51 8217.12 59.89 1.00  41.01 3487.00
   01:51:52.849.27-Mar-2021 3763.51 8217.12 59.89 1.00  41.21 3487.00
   01:51:53.049.27-Mar-2021 3763.51 8219.92 59.89 1.00  41.41 3487.00
   01:51:53.249.27-Mar-2021 3763.51 8222.08 59.89 1.00  41.61 3487.00
   01:51:53.449.27-Mar-2021 3763.51 8224.02 59.89 1.00  41.81 3487.00
   01:51:53.649.27-Mar-2021 3763.51 8224.89 59.89 1.00  42.01 3487.00
   01:51:53.849.27-Mar-2021 3763.51 8224.89 59.89 1.00  42.21 3487.00
   01:51:54.049.27-Mar-2021 3763.51 8225.33 59.89 1.00  42.41 3487.00
   01:51:54.249.27-Mar-2021 3763.51 8228.49 59.89 1.00  42.61 3487.00
   01:51:54.449.27-Mar-2021 3763.51 8230.09 59.89 1.00  42.81 3487.00
   01:51:54.649.27-Mar-2021 3763.51 8236.72 59.89 1.00  43.01 3487.00
   01:51:54.849.27-Mar-2021 3763.51 8236.72 59.89 1.00  43.21 3487.00
   01:51:55.049.27-Mar-2021 3763.51 8215.66 59.89 1.00  43.41 3487.00
   01:51:55.249.27-Mar-2021 3763.51 8206.86 59.89 1.00  43.61 3487.00
   01:51:55.449.27-Mar-2021 3763.51 8189.30 59.89 1.00  43.81 3487.00
   01:51:55.650.27-Mar-2021 3763.51 8175.82 59.89 1.00  44.01 3487.00
   01:51:55.850.27-Mar-2021 3763.51 8175.82 59.89 1.00  44.21 3487.00
   01:51:56.050.27-Mar-2021 3763.51 8151.37 59.89 1.00  44.41 3487.00
   01:51:56.250.27-Mar-2021 3763.51 8127.73 59.89 1.00  44.61 3487.00
   01:51:56.450.27-Mar-2021 3763.51 8096.26 59.89 1.00  44.81 3487.00
   01:51:56.650.27-Mar-2021 3763.51 8067.79 59.89 1.00  45.01 3487.00
   01:51:56.850.27-Mar-2021 3763.51 8067.79 59.89 1.00  45.21 3487.00
   01:51:57.050.27-Mar-2021 3763.51 8007.54 59.89 1.00  45.41 3487.00
   01:51:57.250.27-Mar-2021 3763.51 7966.66 59.89 1.00  45.61 3487.00
   01:51:57.450.27-Mar-2021 3763.51 7926.43 59.89 1.00  45.81 3487.00
