~Version Information
 VERS.                  2.0:   CWLS log ASCII Standard -VERSION 2.0
 WRAP.                   NO:   One line per depth step
~Well Information Block
#MNEM.UNIT     VALUE/NAME     DESCRIPTION
#---------     -----------    ---------------------------
 STRT.S             07:02:33 27-Mar-21: START TIME 07:02:33 27-Mar-21
 STOP.S             07:09:44 27-Mar-21: STOP TIME  07:09:44 27-Mar-21
 STEP.S                   0.00: STEP TIME
 NULL.                 -999.25: NULL VALUE
 DFWT.                        :  DIST FWL TEXT
 DFST.                        :  DIST FSL TEXT
 DMF .             Drill Floor:  DRILL MEAS FROM
 STIM.      20.26.40 11-Mar-21:  START TIME
 DATE.      20.26.40 30-Mar-21:  END TIME
 SPUD.               11-Mar-21:  SPUD DATE
 NREF.                    Grid:  NORTH REFERENCE
 HPTY.       Minimum Curvature:  HOLE POS TYPE
 DMOD.             Drill Model:  DRILL MOD DESC
 SVYD.                  Survey:  SURVEY DESC
 ILTD.               Lithology:  INTERP LTH DESC
 FTOP.          Formation Tops:  FORM TOPS DESC
 SON .        AZ-XX-0906805385:  JOB NUMBER
 WTYP.                Deviated:  WELL TYPE
 COMP.     BP Exploration (Caspian Sea) Ltd.:  COMPANY
 UWI .            /AZE00000198:  UNIQUE WELL IDENTIFIER
 API .            /AZE00000198:  API NUMBER
 BASE.              Azerbaijan:  LOGGING EQUIPMENT BASE LOCATION
 REGN.                   EESSA:  REGION
 PROV.                    Baku:  PROVINCE
 STAT.                    Baku:  STATE NAME
 CTRY.              Azerbaijan:  COUNTRY NAME
 FLD .                     ACG:  FIELD NAME
 SRVC.     Turan Drilling & Engineering:  CONTRACTOR
 MWDS.                    Baku:  MWD SHOP
 WELL.                    D09z:  WELL NAME
 JOBN.        AZ-XX-0906805385:  JOB TICKET NUMB
 RIG .              East Azeri:  RIG NAME
 DOE .                     N/A:  DOE NUMBER
 DCON.         Sperry Drilling:  DIRECTNL CONTR
 UNIT.                     N/A:  LOGGING EQUIPMENT ID
 PDAT.          Mean Sea Level:  PERMANENT DATUM
 MDS .        Operator Entered:  MAG DATA SOURCE
 CNTY.                        :  COUNTY
 LOC .                        :  LOCATION
 LMF .             Drill Floor:  LOG MEASURED FROM
 TVDS.m                  43.60:  TVDSS CORRECTN
 LATI.deg                40.02:  LATITUDE
 LONG.deg                51.45:  LONGITUDE
 WHNS.m                 -17.04:  WELL HEAD N/S
 WHEW.m                  -6.28:  WELL HEAD E/W
 UTMX.m              538763.98:  UTM X
 UTMY.m             4431880.20:  UTM Y
 DFWL.m                   0.00:  DISTANCE FWL
 DFSL.m                   0.00:  DISTANCE FSL
 SDEP.m                2680.01:  START DEPTH
 TDD .m                4000.01:  TOTAL DEPTH (DRILLER)
 VSDR.deg               225.71:  VERT SEC DIRECT
 GVFD.g                   1.00:  GRAVITY FIELD
 MFLD.nT              50353.00:  MAGNETIC FIELD
 MDIP.deg                59.49:  MAGNETIC DIP
 MDEC.deg                 6.46:  MAGNETIC DECL
 GRDC.deg                 0.29:  GRID CORRECTION
 AZTC.deg                 6.17:  AZM TOTAL CORR
 EPD .m                   0.00:  ELEVATION
 EGL .m                   0.00:  GROUND ELEVATION
 WDMS.m                 151.80:  WD ELEV
 APD .m                  43.60:  DEPTH ABOVE PD
 AGAP.m                  43.60:  AIR GAP
 VSEW.m                  -6.28:  VERT SEC E/W
 VSNS.m                 -17.04:  VERT SEC N/S
 DEP .m                2656.31:  DEPTH
 EKB .m                  43.60:  KB ELEVATION
 EDF .m                  43.60:  DF ELEVATION
 VSC .                       0:  VS TO CLOSURE
 MAGU.                 1851247:  MAGUTM CHECKSUM
~Parameter Information Block
#MNEM.UNIT       Value        Description
#---------     -----------    ---------------------------
 AV  .mps                 3.00:  Ann Velocity 
 AVMX.mps                 8.00:  Max Ann Veloc 
 AZIF.deg                 0.00:  Azm, Final 
 BHAT.                   Other:  BHA Type 
 BREV.rev                 0.00:  Rev Bit Total 
 BROT.°/30m               0.00:  Build Rotating 
 BS  .in                 10.25:  Bit Size 
 BTPL.psig              511.00:  Bit Press Loss 
 CABU.                      No:  Customer Abuse 
 CGEO.           Asif Pashayev:  Customer Geo 
 COMM.                     ¬\q:  Run Comments 1 
 TCS .hr                 24.03:  Time Ciculation Ended 
 CV  .mps                 3.50:  Crit Velocity 
 CVMX.mps                 4.00:  Max Crit Veloc 
 DD1 .             Aziz Aliyev:  Direct Drillr 1 
 DD2 .      Fakhraddin Guliyev:  Direct Drillr 2 
 DDSV.                   Other:  DD Service 
 DEFF.%                  99.00:  % Det Eff 
 DLRX.°/30m               0.00:  Dogleg Rot Max 
 DLSO.°/30m               0.00:  Dogleg Oriented 
 DLSX.°/30m               0.00:  Dogleg Str Max 
 DRET.      23.00.40 28-Mar-21:  Drill End Time 
 DRST.      23.30.40 25-Mar-21:  Drill Start Tim 
 DTIM.hr                  0.00:  Time Drilling 
 EDEP.m                3886.01:  End Depth 
 ENG1.         Almaz Almadatov:  Engineer 1 
 ENG2.      Artemiy Matviyanov:  Engineer 2 
 ENG3.           Samir Gafarov:  Engineer 3 
 ETIM.      23.00.40 28-Mar-21:  End Time 
 FLOI.gpm               550.00:  Flow In 
 FLON.gpm               500.00:  Flow In Min 
 FLOS.cptm                0.00:  Fluid Loss 
 FLOX.gpm               590.00:  Flow In Max 
 HFLO.                      No:  High Flow 
 HPRE.                      No:  High Pressure 
 HTEM.                      No:  High Temp 
 HYDO.m                   1.80:  Hydro Offset 
 IFIN.deg                 0.00:  Inc, Final 
 IMAX.deg                 0.00:  Inc Max 
 IMIN.deg                 0.00:  Inc Min 
 IMND.m                   0.00:  Inc Min Depth 
 IMXD.m                   0.00:  Inc Max Depth 
 JARR.                      No:  Jarring 
 LETM.      03.22.40 28-Mar-21:  Log End Time 
 LOST.hr                     0:  Lost Rig Time 
 LSTM.      23.30.40 25-Mar-21:  Log Start Time 
 MDCL.ppm             34000.00:  Mud Chlorides 
 MDES.     Inversion Oil/Synthetic:  Mud Desc 
 DFD .sg                  1.51:  Mud Density 
 MDMN.sg                  1.51:  Dens Mud Min 
 MDMX.sg                  1.51:  Dens Mud Max 
 MOIL.                      70:  Run Mud Oil % 
 MOWR.                   70:30:  Run Mud OWR 
 MSND.                     0.2:  Run Mud Sand % 
 MSOL.                   21.60:  Run Mud Solids% 
 DFV .spqt               74.00:  Mud Viscosity 
 MWOD.in                  6.75:  MWD Tool OD 
 MWSI.                      No:  Serv Intrp, MWD 
 OTIM.hr                 69.09:  Time Operating 
 PCON.           Look Like New:  Pad Condition 
 PMAX.psia             3500.00:  Press Op, Max 
 PV  .cP                 70.00:  Mud PV 
 RUN .                     400:  Run Number 
 ROPA.m/hr                0.00:  ROP Avg 
 ROPN.m/hr                0.00:  ROP Min 
 ROPX.m/hr                0.00:  ROP Max 
 RPMA.rpm                80.00:  RPM Surface Avg 
 RPMN.rpm                10.00:  RPM Surface Min 
 RPMX.rpm               100.00:  RPM Surface Max 
 RRUN.                    0400:  Rig Run Number 
 RTIM.hr                  3.00:  Time Reaming 
 SAZI.deg                 0.00:  Azm, Start 
 SDEP.m                3886.01:  Start Depth 
 SIDD.                      No:  Serv Intrp, DD 
 SINC.deg                 0.00:  Inc, Start 
 SPPA.psig             3270.00:  SPP Avg 
 SPPN.psig             3220.00:  SPP Min 
 SPPX.psig             4430.00:  SPP Max 
 STIM.      23.30.40 25-Mar-21:  Start Time 
 SVCS.                 DD, MWD:  Services 
 SVER.                    9.20:  Sperry Version 
 TDAT.m                   0.00:  Tot Depth Attmp 
 TDDF.                      No:  Trip for DD 
 TFF .                      No:  Trip for Fail 
 TQAA.f-kp                8.00:  Torque Abs Avg 
 TQAN.f-kp                7.00:  Torque Abs Min 
 TQAX.f-kp               11.00:  Torque Abs Max 
 TRRT.°/30m               0.00:  Turn Rotating 
 MRT .                  EWR-M5:  Maximum Recorded Temperature 
 TTMX.degC               76.47:  Max Tool Temp 
 VS01.                90640857:  Virtual Str1 SN 
 VS02.                90639246:  Virtual Str2 SN 
 VS03.                90642265:  Virtual Str3 SN 
 VS04.                11654497:  Virtual Str4 SN 
 WBMN.klb                 0.00:  WOB Min 
 WITN.      Kamran Keberlinkiy:  Customer Rep 
 WITN.           Murad Guliyev:  Customer Rep 2 
 WOBA.klb                 0.00:  WOB Avg 
 WOBX.klb                 0.00:  WOB Max 
 YP  .lhf2               36.00:  Yield Point 
~Curve Information Block
#MNEM.UNIT                 API CODE     Curve Description
#---------               -----------    ---------------------------
 TIME.HHMMSS            00 000 000 000:  GT Time & Date
 GTDEPTH.m              00 000 000 000:  GT Depth
 GTPQH.psia             00 000 000 000:  GT HR Quartz Pressure
 GTTQ.degC              00 000 000 000:  GT Quartz Temperature
 GTTN.NONE              00 000 000 000:  GT Test Number
 GTET.sec               00 000 000 000:  GT Elapsed Test Time
 GTTVD.m                00 000 000 000:  GT True Vertical Depth
#Other Information
#
#WARRANTY: Halliburton will use its best efforts to furnish customers with 
#accurate information and interpretations that are part of, and incident to, the services 
#provided.  However, Halliburton cannot and does not warrant the accuracy 
#or correctness of such information and interpretations.  Under no circumstances should any 
#such information or interpretation be relied upon as the sole basis for any drilling, 
#completion, production, or financial decision or any procedure involving any risk to the 
#safety of any drilling venture, drilling rig or its crew or any other third party.  The 
#Customer has full responsibility for all drilling, completion and production operation.  
#Halliburton makes no representations or warranties, either expressed or 
#implied, including, but not limited to, the implied warranties of merchantability or fitness 
#for a particular purpose, with respect to the services rendered.  In no event will 
#Halliburton be liable for failure to obtain any particular results or for 
#any damages, including, but not limited to, indirect, special or consequential damages, 
#resulting from the use of any information or interpretation provided by Halliburton.
#
~A           TIME           GTDEPTH  GTPQH  GTTQ  GTTN  GTET   GTTVD  
# ...
   07:09:27.629.27-Mar-2021 3426.01 7387.95 60.47 6.00 414.10 3169.91
   07:09:27.829.27-Mar-2021 3426.01 7387.95 60.47 6.00 414.30 3169.91
   07:09:28.029.27-Mar-2021 3426.01 7385.05 60.47 6.00 414.50 3169.91
   07:09:28.229.27-Mar-2021 3426.01 7384.23 60.47 6.00 414.70 3169.91
   07:09:28.429.27-Mar-2021 3426.01 7384.57 60.47 6.00 414.90 3169.91
   07:09:28.629.27-Mar-2021 3426.01 7383.78 60.47 6.00 415.10 3169.91
   07:09:28.829.27-Mar-2021 3426.01 7383.78 60.47 6.00 415.30 3169.91
   07:09:29.029.27-Mar-2021 3426.01 7382.24 60.47 6.00 415.50 3169.91
   07:09:29.230.27-Mar-2021 3426.01 7384.90 60.47 6.00 415.70 3169.91
   07:09:29.430.27-Mar-2021 3426.01 7384.60 60.47 6.00 415.90 3169.91
   07:09:29.630.27-Mar-2021 3426.01 7384.57 60.47 6.00 416.10 3169.91
   07:09:29.830.27-Mar-2021 3426.01 7384.57 60.47 6.00 416.30 3169.91
   07:09:30.030.27-Mar-2021 3426.01 7384.10 60.47 6.00 416.50 3169.91
   07:09:30.230.27-Mar-2021 3426.01 7389.45 60.47 6.00 416.70 3169.91
   07:09:30.430.27-Mar-2021 3426.01 7382.87 60.47 6.00 416.90 3169.91
   07:09:30.630.27-Mar-2021 3426.01 7385.40 60.47 6.00 417.10 3169.91
   07:09:30.830.27-Mar-2021 3426.01 7385.40 60.47 6.00 417.30 3169.91
   07:09:31.030.27-Mar-2021 3426.01 7385.26 60.47 6.00 417.50 3169.91
   07:09:31.230.27-Mar-2021 3426.01 7388.85 60.47 6.00 417.70 3169.91
   07:09:31.430.27-Mar-2021 3426.01 7384.69 60.47 6.00 417.90 3169.91
   07:09:31.630.27-Mar-2021 3426.01 7385.47 60.47 6.00 418.10 3169.91
   07:09:31.830.27-Mar-2021 3426.01 7385.47 60.47 6.00 418.30 3169.91
   07:09:32.030.27-Mar-2021 3426.01 7385.37 60.47 6.00 418.50 3169.91
   07:09:32.230.27-Mar-2021 3426.01 7384.64 60.47 6.00 418.70 3169.91
   07:09:32.430.27-Mar-2021 3426.01 7384.28 60.47 6.00 418.90 3169.91
   07:09:32.630.27-Mar-2021 3426.01 7384.51 60.47 6.00 419.10 3169.91
   07:09:32.830.27-Mar-2021 3426.01 7384.51 60.47 6.00 419.30 3169.91
   07:09:33.030.27-Mar-2021 3426.01 7384.76 60.47 6.00 419.50 3169.91
   07:09:33.231.27-Mar-2021 3426.01 7384.88 60.47 6.00 419.70 3169.91
   07:09:33.431.27-Mar-2021 3426.01 7385.09 60.47 6.00 419.90 3169.91
   07:09:33.631.27-Mar-2021 3426.01 7385.03 60.47 6.00 420.10 3169.91
   07:09:33.831.27-Mar-2021 3426.01 7385.03 60.47 6.00 420.30 3169.91
   07:09:34.031.27-Mar-2021 3426.01 7384.61 60.47 6.00 420.50 3169.91
   07:09:34.231.27-Mar-2021 3426.01 7384.48 60.47 6.00 420.70 3169.91
   07:09:34.431.27-Mar-2021 3426.01 7387.53 60.47 6.00 420.90 3169.91
   07:09:34.631.27-Mar-2021 3426.01 7384.86 60.47 6.00 421.10 3169.91
   07:09:34.831.27-Mar-2021 3426.01 7384.86 60.47 6.00 421.30 3169.91
   07:09:35.031.27-Mar-2021 3426.01 7385.35 60.47 6.00 421.50 3169.91
   07:09:35.231.27-Mar-2021 3426.01 7384.88 60.47 6.00 421.71 3169.91
   07:09:35.431.27-Mar-2021 3426.01 7384.70 60.47 6.00 421.91 3169.91
   07:09:35.631.27-Mar-2021 3426.01 7384.02 60.47 6.00 422.11 3169.91
   07:09:35.831.27-Mar-2021 3426.01 7384.02 60.47 6.00 422.31 3169.91
   07:09:36.031.27-Mar-2021 3426.01 7383.69 60.47 6.00 422.51 3169.91
   07:09:36.231.27-Mar-2021 3426.01 7384.86 60.47 6.00 422.71 3169.91
   07:09:36.431.27-Mar-2021 3426.01 7384.55 60.47 6.00 422.91 3169.91
   07:09:36.631.27-Mar-2021 3426.01 7384.57 60.47 6.00 423.11 3169.91
   07:09:36.831.27-Mar-2021 3426.01 7384.57 60.47 6.00 423.31 3169.91
   07:09:37.031.27-Mar-2021 3426.01 7384.54 60.47 6.00 423.51 3169.91
   07:09:37.232.27-Mar-2021 3426.01 7388.03 60.47 6.00 423.71 3169.91
   07:09:37.432.27-Mar-2021 3426.01 7384.53 60.47 6.00 423.91 3169.91
   07:09:37.632.27-Mar-2021 3426.01 7384.85 60.47 6.00 424.11 3169.91
   07:09:37.832.27-Mar-2021 3426.01 7384.85 60.47 6.00 424.31 3169.91
   07:09:38.032.27-Mar-2021 3426.01 7384.80 60.47 6.00 424.51 3169.91
   07:09:38.232.27-Mar-2021 3426.01 7384.13 60.47 6.00 424.71 3169.91
   07:09:38.432.27-Mar-2021 3426.01 7388.49 60.47 6.00 424.91 3169.91
   07:09:38.632.27-Mar-2021 3426.01 7382.70 60.47 6.00 425.11 3169.91
   07:09:38.832.27-Mar-2021 3426.01 7382.70 60.47 6.00 425.31 3169.91
   07:09:39.032.27-Mar-2021 3426.01 7385.24 60.47 6.00 425.51 3169.91
   07:09:39.232.27-Mar-2021 3426.01 7385.04 60.47 6.00 425.71 3169.91
   07:09:39.432.27-Mar-2021 3426.01 7385.24 60.47 6.00 425.91 3169.91
   07:09:39.632.27-Mar-2021 3426.01 7384.63 60.47 6.00 426.11 3169.91
   07:09:39.832.27-Mar-2021 3426.01 7384.63 60.47 6.00 426.31 3169.91
   07:09:40.032.27-Mar-2021 3426.01 7388.10 60.47 6.00 426.51 3169.91
   07:09:40.232.27-Mar-2021 3426.01 7385.42 60.47 6.00 426.71 3169.91
   07:09:40.432.27-Mar-2021 3426.01 7386.00 60.47 6.00 426.91 3169.91
   07:09:40.632.27-Mar-2021 3426.01 7385.49 60.47 6.00 427.11 3169.91
   07:09:40.832.27-Mar-2021 3426.01 7385.49 60.47 6.00 427.31 3169.91
   07:09:41.032.27-Mar-2021 3426.01 7385.43 60.47 6.00 427.51 3169.91
   07:09:41.233.27-Mar-2021 3426.01 7389.60 60.47 6.00 427.71 3169.91
   07:09:41.433.27-Mar-2021 3426.01 7383.30 60.47 6.00 427.91 3169.91
   07:09:41.633.27-Mar-2021 3426.01 7385.45 60.47 6.00 428.11 3169.91
   07:09:41.833.27-Mar-2021 3426.01 7385.45 60.47 6.00 428.31 3169.91
   07:09:42.033.27-Mar-2021 3426.01 7385.40 60.47 6.00 428.51 3169.91
   07:09:42.233.27-Mar-2021 3426.01 7385.36 60.47 6.00 428.71 3169.91
   07:09:42.433.27-Mar-2021 3426.01 7384.37 60.47 6.00 428.91 3169.91
   07:09:42.633.27-Mar-2021 3426.01 7384.96 60.47 6.00 429.11 3169.91
   07:09:42.833.27-Mar-2021 3426.01 7384.96 60.47 6.00 429.31 3169.91
   07:09:43.033.27-Mar-2021 3426.01 7385.24 60.47 6.00 429.51 3169.91
   07:09:43.233.27-Mar-2021 3426.01 7385.19 60.47 6.00 429.71 3169.91
   07:09:43.433.27-Mar-2021 3426.01 7385.04 60.47 6.00 429.91 3169.91
   07:09:43.633.27-Mar-2021 3426.01 7385.01 60.47 6.00 430.11 3169.91
   07:09:43.833.27-Mar-2021 3426.01 7385.01 60.47 6.00 430.31 3169.91
   07:09:44.033.27-Mar-2021 3426.01 7384.78 60.47 6.00 430.51 3169.91
   07:09:44.233.27-Mar-2021 3426.01 7384.42 60.47 6.00 430.71 3169.91
   07:09:44.433.27-Mar-2021 3426.01 7384.50 60.47 6.00 430.91 3169.91
