~Version Information
 VERS.                  2.0:   CWLS log ASCII Standard -VERSION 2.0
 WRAP.                   NO:   One line per depth step
~Well Information Block
#MNEM.UNIT     VALUE/NAME     DESCRIPTION
#---------     -----------    ---------------------------
 STRT.S             03:27:53 27-Mar-21: START TIME 03:27:53 27-Mar-21
 STOP.S             03:35:02 27-Mar-21: STOP TIME  03:35:02 27-Mar-21
 STEP.S                   0.00: STEP TIME
 NULL.                 -999.25: NULL VALUE
 DFWT.                        :  DIST FWL TEXT
 DFST.                        :  DIST FSL TEXT
 DMF .             Drill Floor:  DRILL MEAS FROM
 STIM.      20.26.40 11-Mar-21:  START TIME
 DATE.      20.26.40 30-Mar-21:  END TIME
 SPUD.               11-Mar-21:  SPUD DATE
 NREF.                    Grid:  NORTH REFERENCE
 HPTY.       Minimum Curvature:  HOLE POS TYPE
 DMOD.             Drill Model:  DRILL MOD DESC
 SVYD.                  Survey:  SURVEY DESC
 ILTD.               Lithology:  INTERP LTH DESC
 FTOP.          Formation Tops:  FORM TOPS DESC
 SON .        AZ-XX-0906805385:  JOB NUMBER
 WTYP.                Deviated:  WELL TYPE
 COMP.     BP Exploration (Caspian Sea) Ltd.:  COMPANY
 UWI .            /AZE00000198:  UNIQUE WELL IDENTIFIER
 API .            /AZE00000198:  API NUMBER
 BASE.              Azerbaijan:  LOGGING EQUIPMENT BASE LOCATION
 REGN.                   EESSA:  REGION
 PROV.                    Baku:  PROVINCE
 STAT.                    Baku:  STATE NAME
 CTRY.              Azerbaijan:  COUNTRY NAME
 FLD .                     ACG:  FIELD NAME
 SRVC.     Turan Drilling & Engineering:  CONTRACTOR
 MWDS.                    Baku:  MWD SHOP
 WELL.                    D09z:  WELL NAME
 JOBN.        AZ-XX-0906805385:  JOB TICKET NUMB
 RIG .              East Azeri:  RIG NAME
 DOE .                     N/A:  DOE NUMBER
 DCON.         Sperry Drilling:  DIRECTNL CONTR
 UNIT.                     N/A:  LOGGING EQUIPMENT ID
 PDAT.          Mean Sea Level:  PERMANENT DATUM
 MDS .        Operator Entered:  MAG DATA SOURCE
 CNTY.                        :  COUNTY
 LOC .                        :  LOCATION
 LMF .             Drill Floor:  LOG MEASURED FROM
 TVDS.m                  43.60:  TVDSS CORRECTN
 LATI.deg                40.02:  LATITUDE
 LONG.deg                51.45:  LONGITUDE
 WHNS.m                 -17.04:  WELL HEAD N/S
 WHEW.m                  -6.28:  WELL HEAD E/W
 UTMX.m              538763.98:  UTM X
 UTMY.m             4431880.20:  UTM Y
 DFWL.m                   0.00:  DISTANCE FWL
 DFSL.m                   0.00:  DISTANCE FSL
 SDEP.m                2680.01:  START DEPTH
 TDD .m                4000.01:  TOTAL DEPTH (DRILLER)
 VSDR.deg               225.71:  VERT SEC DIRECT
 GVFD.g                   1.00:  GRAVITY FIELD
 MFLD.nT              50353.00:  MAGNETIC FIELD
 MDIP.deg                59.49:  MAGNETIC DIP
 MDEC.deg                 6.46:  MAGNETIC DECL
 GRDC.deg                 0.29:  GRID CORRECTION
 AZTC.deg                 6.17:  AZM TOTAL CORR
 EPD .m                   0.00:  ELEVATION
 EGL .m                   0.00:  GROUND ELEVATION
 WDMS.m                 151.80:  WD ELEV
 APD .m                  43.60:  DEPTH ABOVE PD
 AGAP.m                  43.60:  AIR GAP
 VSEW.m                  -6.28:  VERT SEC E/W
 VSNS.m                 -17.04:  VERT SEC N/S
 DEP .m                2656.31:  DEPTH
 EKB .m                  43.60:  KB ELEVATION
 EDF .m                  43.60:  DF ELEVATION
 VSC .                       0:  VS TO CLOSURE
 MAGU.                 1851247:  MAGUTM CHECKSUM
~Parameter Information Block
#MNEM.UNIT       Value        Description
#---------     -----------    ---------------------------
 AV  .mps                 3.00:  Ann Velocity 
 AVMX.mps                 8.00:  Max Ann Veloc 
 AZIF.deg                 0.00:  Azm, Final 
 BHAT.                   Other:  BHA Type 
 BREV.rev                 0.00:  Rev Bit Total 
 BROT.°/30m               0.00:  Build Rotating 
 BS  .in                 10.25:  Bit Size 
 BTPL.psig              511.00:  Bit Press Loss 
 CABU.                      No:  Customer Abuse 
 CGEO.           Asif Pashayev:  Customer Geo 
 COMM.                     ¼Fy:  Run Comments 1 
 TCS .hr                 24.03:  Time Ciculation Ended 
 CV  .mps                 3.50:  Crit Velocity 
 CVMX.mps                 4.00:  Max Crit Veloc 
 DD1 .             Aziz Aliyev:  Direct Drillr 1 
 DD2 .      Fakhraddin Guliyev:  Direct Drillr 2 
 DDSV.                   Other:  DD Service 
 DEFF.%                  99.00:  % Det Eff 
 DLRX.°/30m               0.00:  Dogleg Rot Max 
 DLSO.°/30m               0.00:  Dogleg Oriented 
 DLSX.°/30m               0.00:  Dogleg Str Max 
 DRET.      23.00.40 28-Mar-21:  Drill End Time 
 DRST.      23.30.40 25-Mar-21:  Drill Start Tim 
 DTIM.hr                  0.00:  Time Drilling 
 EDEP.m                3886.01:  End Depth 
 ENG1.         Almaz Almadatov:  Engineer 1 
 ENG2.      Artemiy Matviyanov:  Engineer 2 
 ENG3.           Samir Gafarov:  Engineer 3 
 ETIM.      23.00.40 28-Mar-21:  End Time 
 FLOI.gpm               550.00:  Flow In 
 FLON.gpm               500.00:  Flow In Min 
 FLOS.cptm                0.00:  Fluid Loss 
 FLOX.gpm               590.00:  Flow In Max 
 HFLO.                      No:  High Flow 
 HPRE.                      No:  High Pressure 
 HTEM.                      No:  High Temp 
 HYDO.m                   1.80:  Hydro Offset 
 IFIN.deg                 0.00:  Inc, Final 
 IMAX.deg                 0.00:  Inc Max 
 IMIN.deg                 0.00:  Inc Min 
 IMND.m                   0.00:  Inc Min Depth 
 IMXD.m                   0.00:  Inc Max Depth 
 JARR.                      No:  Jarring 
 LETM.      03.22.40 28-Mar-21:  Log End Time 
 LOST.hr                     0:  Lost Rig Time 
 LSTM.      23.30.40 25-Mar-21:  Log Start Time 
 MDCL.ppm             34000.00:  Mud Chlorides 
 MDES.     Inversion Oil/Synthetic:  Mud Desc 
 DFD .sg                  1.51:  Mud Density 
 MDMN.sg                  1.51:  Dens Mud Min 
 MDMX.sg                  1.51:  Dens Mud Max 
 MOIL.                      70:  Run Mud Oil % 
 MOWR.                   70:30:  Run Mud OWR 
 MSND.                     0.2:  Run Mud Sand % 
 MSOL.                   21.60:  Run Mud Solids% 
 DFV .spqt               74.00:  Mud Viscosity 
 MWOD.in                  6.75:  MWD Tool OD 
 MWSI.                      No:  Serv Intrp, MWD 
 OTIM.hr                 69.09:  Time Operating 
 PCON.           Look Like New:  Pad Condition 
 PMAX.psia             3500.00:  Press Op, Max 
 PV  .cP                 70.00:  Mud PV 
 RUN .                     400:  Run Number 
 ROPA.m/hr                0.00:  ROP Avg 
 ROPN.m/hr                0.00:  ROP Min 
 ROPX.m/hr                0.00:  ROP Max 
 RPMA.rpm                80.00:  RPM Surface Avg 
 RPMN.rpm                10.00:  RPM Surface Min 
 RPMX.rpm               100.00:  RPM Surface Max 
 RRUN.                    0400:  Rig Run Number 
 RTIM.hr                  3.00:  Time Reaming 
 SAZI.deg                 0.00:  Azm, Start 
 SDEP.m                3886.01:  Start Depth 
 SIDD.                      No:  Serv Intrp, DD 
 SINC.deg                 0.00:  Inc, Start 
 SPPA.psig             3270.00:  SPP Avg 
 SPPN.psig             3220.00:  SPP Min 
 SPPX.psig             4430.00:  SPP Max 
 STIM.      23.30.40 25-Mar-21:  Start Time 
 SVCS.                 DD, MWD:  Services 
 SVER.                    9.20:  Sperry Version 
 TDAT.m                   0.00:  Tot Depth Attmp 
 TDDF.                      No:  Trip for DD 
 TFF .                      No:  Trip for Fail 
 TQAA.f-kp                8.00:  Torque Abs Avg 
 TQAN.f-kp                7.00:  Torque Abs Min 
 TQAX.f-kp               11.00:  Torque Abs Max 
 TRRT.°/30m               0.00:  Turn Rotating 
 MRT .                  EWR-M5:  Maximum Recorded Temperature 
 TTMX.degC               76.47:  Max Tool Temp 
 VS01.                90640857:  Virtual Str1 SN 
 VS02.                90639246:  Virtual Str2 SN 
 VS03.                90642265:  Virtual Str3 SN 
 VS04.                11654497:  Virtual Str4 SN 
 WBMN.klb                 0.00:  WOB Min 
 WITN.      Kamran Keberlinkiy:  Customer Rep 
 WITN.           Murad Guliyev:  Customer Rep 2 
 WOBA.klb                 0.00:  WOB Avg 
 WOBX.klb                 0.00:  WOB Max 
 YP  .lhf2               36.00:  Yield Point 
~Curve Information Block
#MNEM.UNIT                 API CODE     Curve Description
#---------               -----------    ---------------------------
 TIME.HHMMSS            00 000 000 000:  GT Time & Date
 GTDEPTH.m              00 000 000 000:  GT Depth
 GTPQH.psia             00 000 000 000:  GT HR Quartz Pressure
 GTTQ.degC              00 000 000 000:  GT Quartz Temperature
 GTTN.NONE              00 000 000 000:  GT Test Number
 GTET.sec               00 000 000 000:  GT Elapsed Test Time
 GTTVD.m                00 000 000 000:  GT True Vertical Depth
#Other Information
#
#WARRANTY: Halliburton will use its best efforts to furnish customers with 
#accurate information and interpretations that are part of, and incident to, the services 
#provided.  However, Halliburton cannot and does not warrant the accuracy 
#or correctness of such information and interpretations.  Under no circumstances should any 
#such information or interpretation be relied upon as the sole basis for any drilling, 
#completion, production, or financial decision or any procedure involving any risk to the 
#safety of any drilling venture, drilling rig or its crew or any other third party.  The 
#Customer has full responsibility for all drilling, completion and production operation.  
#Halliburton makes no representations or warranties, either expressed or 
#implied, including, but not limited to, the implied warranties of merchantability or fitness 
#for a particular purpose, with respect to the services rendered.  In no event will 
#Halliburton be liable for failure to obtain any particular results or for 
#any damages, including, but not limited to, indirect, special or consequential damages, 
#resulting from the use of any information or interpretation provided by Halliburton.
#
~A           TIME           GTDEPTH  GTPQH  GTTQ  GTTN  GTET   GTTVD  
# ...
   03:32:29.162.27-Mar-2021 3725.51 5178.00 61.45 3.00 276.03 3451.28
   03:32:29.362.27-Mar-2021 3725.51 5178.00 61.45 3.00 276.23 3451.28
   03:32:29.562.27-Mar-2021 3725.51 5264.32 61.45 3.00 276.43 3451.28
   03:32:29.762.27-Mar-2021 3725.51 5264.77 61.45 3.00 276.63 3451.28
   03:32:29.962.27-Mar-2021 3725.51 5265.01 61.45 3.00 276.83 3451.28
   03:32:30.162.27-Mar-2021 3725.51 5264.76 61.45 3.00 277.03 3451.28
   03:32:30.362.27-Mar-2021 3725.51 5264.76 61.45 3.00 277.23 3451.28
   03:32:30.562.27-Mar-2021 3725.51 5265.03 61.45 3.00 277.43 3451.28
   03:32:30.762.27-Mar-2021 3725.51 5264.92 61.45 3.00 277.63 3451.28
   03:32:30.962.27-Mar-2021 3725.51 5264.90 61.45 3.00 277.83 3451.28
   03:32:31.162.27-Mar-2021 3725.51 5264.92 61.45 3.00 278.03 3451.28
   03:32:31.362.27-Mar-2021 3725.51 5264.92 61.45 3.00 278.23 3451.28
   03:32:31.562.27-Mar-2021 3725.51 5265.03 61.45 3.00 278.43 3451.28
   03:32:31.762.27-Mar-2021 3725.51 5265.03 61.45 3.00 278.63 3451.28
   03:32:31.962.27-Mar-2021 3725.51 5264.99 61.45 3.00 278.83 3451.28
   03:32:32.162.27-Mar-2021 3725.51 5265.05 61.45 3.00 279.04 3451.28
   03:32:32.362.27-Mar-2021 3725.51 5265.05 61.45 3.00 279.24 3451.28
   03:32:32.562.27-Mar-2021 3725.51 5265.29 61.45 3.00 279.44 3451.28
   03:32:32.762.27-Mar-2021 3725.51 5265.01 61.45 3.00 279.64 3451.28
   03:32:32.962.27-Mar-2021 3725.51 5265.25 61.45 3.00 279.84 3451.28
   03:32:33.162.27-Mar-2021 3725.51 5265.14 61.45 3.00 280.04 3451.28
   03:32:33.362.27-Mar-2021 3725.51 5265.14 61.45 3.00 280.24 3451.28
   03:32:33.562.27-Mar-2021 3725.51 5265.13 61.45 3.00 280.44 3451.28
   03:32:33.762.27-Mar-2021 3725.51 5265.27 61.45 3.00 280.64 3451.28
   03:32:33.962.27-Mar-2021 3725.51 5265.25 61.45 3.00 280.84 3451.28
   03:32:34.162.27-Mar-2021 3725.51 5264.97 61.45 3.00 281.04 3451.28
   03:32:34.362.27-Mar-2021 3725.51 5264.97 61.45 3.00 281.24 3451.28
   03:32:34.562.27-Mar-2021 3725.51 5265.23 61.45 3.00 281.44 3451.28
   03:32:34.762.27-Mar-2021 3725.51 5265.30 61.45 3.00 281.64 3451.28
   03:32:34.962.27-Mar-2021 3725.51 5265.38 61.45 3.00 281.84 3451.28
   03:32:35.162.27-Mar-2021 3725.51 5264.95 61.45 3.00 282.04 3451.28
   03:32:35.362.27-Mar-2021 3725.51 5264.95 61.45 3.00 282.24 3451.28
   03:32:35.562.27-Mar-2021 3725.51 5265.26 61.45 3.00 282.44 3451.28
   03:32:35.762.27-Mar-2021 3725.51 5265.22 61.45 3.00 282.64 3451.28
   03:32:35.962.27-Mar-2021 3725.51 5265.07 61.45 3.00 282.84 3451.28
   03:32:36.162.27-Mar-2021 3725.51 5265.49 61.45 3.00 283.04 3451.28
   03:32:36.362.27-Mar-2021 3725.51 5265.49 61.45 3.00 283.24 3451.28
   03:32:36.562.27-Mar-2021 3725.51 5265.35 61.45 3.00 283.44 3451.28
   03:32:36.763.27-Mar-2021 3725.51 5265.26 61.45 3.00 283.64 3451.28
   03:32:36.963.27-Mar-2021 3725.51 5265.08 61.45 3.00 283.84 3451.28
   03:32:37.163.27-Mar-2021 3725.51 5265.18 61.45 3.00 284.04 3451.28
   03:32:37.363.27-Mar-2021 3725.51 5265.18 61.45 3.00 284.24 3451.28
   03:32:37.563.27-Mar-2021 3725.51 5265.18 61.45 3.00 284.44 3451.28
   03:32:37.763.27-Mar-2021 3725.51 5265.15 61.45 3.00 284.64 3451.28
   03:32:37.963.27-Mar-2021 3725.51 5265.28 61.45 3.00 284.84 3451.28
   03:32:38.163.27-Mar-2021 3725.51 5265.24 61.45 3.00 285.04 3451.28
   03:32:38.363.27-Mar-2021 3725.51 5265.24 61.45 3.00 285.24 3451.28
   03:32:38.563.27-Mar-2021 3725.51 5265.20 61.45 3.00 285.44 3451.28
   03:32:38.763.27-Mar-2021 3725.51 5265.22 61.45 3.00 285.64 3451.28
   03:32:38.963.27-Mar-2021 3725.51 5265.19 61.45 3.00 285.84 3451.28
   03:32:39.163.27-Mar-2021 3725.51 5265.10 61.45 3.00 286.04 3451.28
   03:32:39.363.27-Mar-2021 3725.51 5265.10 61.45 3.00 286.24 3451.28
   03:32:39.563.27-Mar-2021 3725.51 5265.04 61.45 3.00 286.44 3451.28
   03:32:39.763.27-Mar-2021 3725.51 5265.36 61.45 3.00 286.64 3451.28
   03:32:39.963.27-Mar-2021 3725.51 5265.27 61.45 3.00 286.84 3451.28
   03:32:40.163.27-Mar-2021 3725.51 5265.03 61.45 3.00 287.04 3451.28
   03:32:40.363.27-Mar-2021 3725.51 5265.03 61.45 3.00 287.24 3451.28
   03:32:40.563.27-Mar-2021 3725.51 5265.35 61.45 3.00 287.44 3451.28
   03:32:40.763.27-Mar-2021 3725.51 5265.17 61.45 3.00 287.64 3451.28
   03:32:40.963.27-Mar-2021 3725.51 5265.21 61.45 3.00 287.84 3451.28
   03:32:41.163.27-Mar-2021 3725.51 5265.24 61.45 3.00 288.04 3451.28
   03:32:41.363.27-Mar-2021 3725.51 5265.24 61.45 3.00 288.24 3451.28
   03:32:41.563.27-Mar-2021 3725.51 5265.24 61.45 3.00 288.44 3451.28
   03:32:41.763.27-Mar-2021 3725.51 5265.27 61.45 3.00 288.64 3451.28
   03:32:41.963.27-Mar-2021 3725.51 5265.22 61.45 3.00 288.84 3451.28
   03:32:42.163.27-Mar-2021 3725.51 5265.32 61.45 3.00 289.04 3451.28
   03:32:42.363.27-Mar-2021 3725.51 5265.32 61.45 3.00 289.24 3451.28
   03:32:42.563.27-Mar-2021 3725.51 5265.07 61.45 3.00 289.44 3451.28
   03:32:42.763.27-Mar-2021 3725.51 5265.28 61.45 3.00 289.64 3451.28
   03:32:42.963.27-Mar-2021 3725.51 5265.38 61.45 3.00 289.84 3451.28
   03:32:43.163.27-Mar-2021 3725.51 5265.12 61.45 3.00 290.04 3451.28
   03:32:43.363.27-Mar-2021 3725.51 5265.12 61.45 3.00 290.24 3451.28
   03:32:43.563.27-Mar-2021 3725.51 5265.23 61.45 3.00 290.44 3451.28
   03:32:43.763.27-Mar-2021 3725.51 5265.13 61.45 3.00 290.64 3451.28
   03:32:43.963.27-Mar-2021 3725.51 5265.27 61.45 3.00 290.84 3451.28
   03:32:44.163.27-Mar-2021 3725.51 5265.34 61.45 3.00 291.04 3451.28
   03:32:44.363.27-Mar-2021 3725.51 5265.34 61.45 3.00 291.24 3451.28
   03:32:44.563.27-Mar-2021 3725.51 5265.16 61.45 3.00 291.44 3451.28
   03:32:44.764.27-Mar-2021 3725.51 5265.01 61.45 3.00 291.64 3451.28
   03:32:44.964.27-Mar-2021 3725.51 5265.37 61.45 3.00 291.84 3451.28
   03:32:45.164.27-Mar-2021 3725.51 5265.44 61.45 3.00 292.04 3451.28
   03:32:45.364.27-Mar-2021 3725.51 5265.44 61.45 3.00 292.24 3451.28
   03:32:45.564.27-Mar-2021 3725.51 5265.42 61.45 3.00 292.44 3451.28
   03:32:45.764.27-Mar-2021 3725.51 5265.29 61.45 3.00 292.64 3451.28
   03:32:45.964.27-Mar-2021 3725.51 5265.02 61.45 3.00 292.84 3451.28
   03:32:46.164.27-Mar-2021 3725.51 5265.31 61.45 3.00 293.04 3451.28
   03:32:46.364.27-Mar-2021 3725.51 5265.31 61.45 3.00 293.24 3451.28
   03:32:46.564.27-Mar-2021 3725.51 5265.20 61.45 3.00 293.44 3451.28
   03:32:46.764.27-Mar-2021 3725.51 5265.23 61.45 3.00 293.64 3451.28
   03:32:46.964.27-Mar-2021 3725.51 5265.16 61.45 3.00 293.84 3451.28
   03:32:47.164.27-Mar-2021 3725.51 5265.24 61.45 3.00 294.04 3451.28
   03:32:47.364.27-Mar-2021 3725.51 5265.24 61.45 3.00 294.24 3451.28
   03:32:47.564.27-Mar-2021 3725.51 5265.28 61.45 3.00 294.44 3451.28
   03:32:47.764.27-Mar-2021 3725.51 5265.32 61.45 3.00 294.64 3451.28
   03:32:47.964.27-Mar-2021 3725.51 5265.24 61.45 3.00 294.84 3451.28
   03:32:48.164.27-Mar-2021 3725.51 5265.19 61.45 3.00 295.04 3451.28
   03:32:48.364.27-Mar-2021 3725.51 5265.19 61.45 3.00 295.24 3451.28
   03:32:48.564.27-Mar-2021 3725.51 5265.24 61.45 3.00 295.44 3451.28
   03:32:48.764.27-Mar-2021 3725.51 5265.36 61.45 3.00 295.64 3451.28
   03:32:48.964.27-Mar-2021 3725.51 5265.33 61.45 3.00 295.84 3451.28
   03:32:49.164.27-Mar-2021 3725.51 5265.08 61.45 3.00 296.04 3451.28
   03:32:49.364.27-Mar-2021 3725.51 5265.08 61.45 3.00 296.24 3451.28
   03:32:49.564.27-Mar-2021 3725.51 5265.39 61.45 3.00 296.44 3451.28
   03:32:49.764.27-Mar-2021 3725.51 5265.21 61.45 3.00 296.64 3451.28
   03:32:49.964.27-Mar-2021 3725.51 5265.16 61.45 3.00 296.84 3451.28
   03:32:50.164.27-Mar-2021 3725.51 5265.29 61.45 3.00 297.04 3451.28
   03:32:50.364.27-Mar-2021 3725.51 5265.29 61.45 3.00 297.24 3451.28
   03:32:50.564.27-Mar-2021 3725.51 5265.18 61.45 3.00 297.44 3451.28
   03:32:50.764.27-Mar-2021 3725.51 5265.27 61.45 3.00 297.64 3451.28
   03:32:50.964.27-Mar-2021 3725.51 5265.31 61.45 3.00 297.84 3451.28
   03:32:51.164.27-Mar-2021 3725.51 5265.11 61.45 3.00 298.04 3451.28
   03:32:51.364.27-Mar-2021 3725.51 5265.11 61.45 3.00 298.24 3451.28
   03:32:51.564.27-Mar-2021 3725.51 5265.13 61.45 3.00 298.44 3451.28
   03:32:51.764.27-Mar-2021 3725.51 5265.34 61.45 3.00 298.64 3451.28
   03:32:51.964.27-Mar-2021 3725.51 5265.34 61.45 3.00 298.84 3451.28
