~Version Information
 VERS.                  2.0:   CWLS log ASCII Standard -VERSION 2.0
 WRAP.                   NO:   One line per depth step
~Well Information Block
#MNEM.UNIT     VALUE/NAME     DESCRIPTION
#---------     -----------    ---------------------------
 STRT.S             07:58:58 27-Mar-21: START TIME 07:58:58 27-Mar-21
 STOP.S             08:06:05 27-Mar-21: STOP TIME  08:06:05 27-Mar-21
 STEP.S                   0.00: STEP TIME
 NULL.                 -999.25: NULL VALUE
 DFWT.                        :  DIST FWL TEXT
 DFST.                        :  DIST FSL TEXT
 DMF .             Drill Floor:  DRILL MEAS FROM
 STIM.      20.26.40 11-Mar-21:  START TIME
 DATE.      20.26.40 30-Mar-21:  END TIME
 SPUD.               11-Mar-21:  SPUD DATE
 NREF.                    Grid:  NORTH REFERENCE
 HPTY.       Minimum Curvature:  HOLE POS TYPE
 DMOD.             Drill Model:  DRILL MOD DESC
 SVYD.                  Survey:  SURVEY DESC
 ILTD.               Lithology:  INTERP LTH DESC
 FTOP.          Formation Tops:  FORM TOPS DESC
 SON .        AZ-XX-0906805385:  JOB NUMBER
 WTYP.                Deviated:  WELL TYPE
 COMP.     BP Exploration (Caspian Sea) Ltd.:  COMPANY
 UWI .            /AZE00000198:  UNIQUE WELL IDENTIFIER
 API .            /AZE00000198:  API NUMBER
 BASE.              Azerbaijan:  LOGGING EQUIPMENT BASE LOCATION
 REGN.                   EESSA:  REGION
 PROV.                    Baku:  PROVINCE
 STAT.                    Baku:  STATE NAME
 CTRY.              Azerbaijan:  COUNTRY NAME
 FLD .                     ACG:  FIELD NAME
 SRVC.     Turan Drilling & Engineering:  CONTRACTOR
 MWDS.                    Baku:  MWD SHOP
 WELL.                    D09z:  WELL NAME
 JOBN.        AZ-XX-0906805385:  JOB TICKET NUMB
 RIG .              East Azeri:  RIG NAME
 DOE .                     N/A:  DOE NUMBER
 DCON.         Sperry Drilling:  DIRECTNL CONTR
 UNIT.                     N/A:  LOGGING EQUIPMENT ID
 PDAT.          Mean Sea Level:  PERMANENT DATUM
 MDS .        Operator Entered:  MAG DATA SOURCE
 CNTY.                        :  COUNTY
 LOC .                        :  LOCATION
 LMF .             Drill Floor:  LOG MEASURED FROM
 TVDS.m                  43.60:  TVDSS CORRECTN
 LATI.deg                40.02:  LATITUDE
 LONG.deg                51.45:  LONGITUDE
 WHNS.m                 -17.04:  WELL HEAD N/S
 WHEW.m                  -6.28:  WELL HEAD E/W
 UTMX.m              538763.98:  UTM X
 UTMY.m             4431880.20:  UTM Y
 DFWL.m                   0.00:  DISTANCE FWL
 DFSL.m                   0.00:  DISTANCE FSL
 SDEP.m                2680.01:  START DEPTH
 TDD .m                4000.01:  TOTAL DEPTH (DRILLER)
 VSDR.deg               225.71:  VERT SEC DIRECT
 GVFD.g                   1.00:  GRAVITY FIELD
 MFLD.nT              50353.00:  MAGNETIC FIELD
 MDIP.deg                59.49:  MAGNETIC DIP
 MDEC.deg                 6.46:  MAGNETIC DECL
 GRDC.deg                 0.29:  GRID CORRECTION
 AZTC.deg                 6.17:  AZM TOTAL CORR
 EPD .m                   0.00:  ELEVATION
 EGL .m                   0.00:  GROUND ELEVATION
 WDMS.m                 151.80:  WD ELEV
 APD .m                  43.60:  DEPTH ABOVE PD
 AGAP.m                  43.60:  AIR GAP
 VSEW.m                  -6.28:  VERT SEC E/W
 VSNS.m                 -17.04:  VERT SEC N/S
 DEP .m                2656.31:  DEPTH
 EKB .m                  43.60:  KB ELEVATION
 EDF .m                  43.60:  DF ELEVATION
 VSC .                       0:  VS TO CLOSURE
 MAGU.                 1851247:  MAGUTM CHECKSUM
~Parameter Information Block
#MNEM.UNIT       Value        Description
#---------     -----------    ---------------------------
 AV  .mps                 3.00:  Ann Velocity 
 AVMX.mps                 8.00:  Max Ann Veloc 
 AZIF.deg                 0.00:  Azm, Final 
 BHAT.                   Other:  BHA Type 
 BREV.rev                 0.00:  Rev Bit Total 
 BROT.°/30m               0.00:  Build Rotating 
 BS  .in                 10.25:  Bit Size 
 BTPL.psig              511.00:  Bit Press Loss 
 CABU.                      No:  Customer Abuse 
 CGEO.           Asif Pashayev:  Customer Geo 
 COMM.                     ôNh:  Run Comments 1 
 TCS .hr                 24.03:  Time Ciculation Ended 
 CV  .mps                 3.50:  Crit Velocity 
 CVMX.mps                 4.00:  Max Crit Veloc 
 DD1 .             Aziz Aliyev:  Direct Drillr 1 
 DD2 .      Fakhraddin Guliyev:  Direct Drillr 2 
 DDSV.                   Other:  DD Service 
 DEFF.%                  99.00:  % Det Eff 
 DLRX.°/30m               0.00:  Dogleg Rot Max 
 DLSO.°/30m               0.00:  Dogleg Oriented 
 DLSX.°/30m               0.00:  Dogleg Str Max 
 DRET.      23.00.40 28-Mar-21:  Drill End Time 
 DRST.      23.30.40 25-Mar-21:  Drill Start Tim 
 DTIM.hr                  0.00:  Time Drilling 
 EDEP.m                3886.01:  End Depth 
 ENG1.         Almaz Almadatov:  Engineer 1 
 ENG2.      Artemiy Matviyanov:  Engineer 2 
 ENG3.           Samir Gafarov:  Engineer 3 
 ETIM.      23.00.40 28-Mar-21:  End Time 
 FLOI.gpm               550.00:  Flow In 
 FLON.gpm               500.00:  Flow In Min 
 FLOS.cptm                0.00:  Fluid Loss 
 FLOX.gpm               590.00:  Flow In Max 
 HFLO.                      No:  High Flow 
 HPRE.                      No:  High Pressure 
 HTEM.                      No:  High Temp 
 HYDO.m                   1.80:  Hydro Offset 
 IFIN.deg                 0.00:  Inc, Final 
 IMAX.deg                 0.00:  Inc Max 
 IMIN.deg                 0.00:  Inc Min 
 IMND.m                   0.00:  Inc Min Depth 
 IMXD.m                   0.00:  Inc Max Depth 
 JARR.                      No:  Jarring 
 LETM.      03.22.40 28-Mar-21:  Log End Time 
 LOST.hr                     0:  Lost Rig Time 
 LSTM.      23.30.40 25-Mar-21:  Log Start Time 
 MDCL.ppm             34000.00:  Mud Chlorides 
 MDES.     Inversion Oil/Synthetic:  Mud Desc 
 DFD .sg                  1.51:  Mud Density 
 MDMN.sg                  1.51:  Dens Mud Min 
 MDMX.sg                  1.51:  Dens Mud Max 
 MOIL.                      70:  Run Mud Oil % 
 MOWR.                   70:30:  Run Mud OWR 
 MSND.                     0.2:  Run Mud Sand % 
 MSOL.                   21.60:  Run Mud Solids% 
 DFV .spqt               74.00:  Mud Viscosity 
 MWOD.in                  6.75:  MWD Tool OD 
 MWSI.                      No:  Serv Intrp, MWD 
 OTIM.hr                 69.09:  Time Operating 
 PCON.           Look Like New:  Pad Condition 
 PMAX.psia             3500.00:  Press Op, Max 
 PV  .cP                 70.00:  Mud PV 
 RUN .                     400:  Run Number 
 ROPA.m/hr                0.00:  ROP Avg 
 ROPN.m/hr                0.00:  ROP Min 
 ROPX.m/hr                0.00:  ROP Max 
 RPMA.rpm                80.00:  RPM Surface Avg 
 RPMN.rpm                10.00:  RPM Surface Min 
 RPMX.rpm               100.00:  RPM Surface Max 
 RRUN.                    0400:  Rig Run Number 
 RTIM.hr                  3.00:  Time Reaming 
 SAZI.deg                 0.00:  Azm, Start 
 SDEP.m                3886.01:  Start Depth 
 SIDD.                      No:  Serv Intrp, DD 
 SINC.deg                 0.00:  Inc, Start 
 SPPA.psig             3270.00:  SPP Avg 
 SPPN.psig             3220.00:  SPP Min 
 SPPX.psig             4430.00:  SPP Max 
 STIM.      23.30.40 25-Mar-21:  Start Time 
 SVCS.                 DD, MWD:  Services 
 SVER.                    9.20:  Sperry Version 
 TDAT.m                   0.00:  Tot Depth Attmp 
 TDDF.                      No:  Trip for DD 
 TFF .                      No:  Trip for Fail 
 TQAA.f-kp                8.00:  Torque Abs Avg 
 TQAN.f-kp                7.00:  Torque Abs Min 
 TQAX.f-kp               11.00:  Torque Abs Max 
 TRRT.°/30m               0.00:  Turn Rotating 
 MRT .                  EWR-M5:  Maximum Recorded Temperature 
 TTMX.degC               76.47:  Max Tool Temp 
 VS01.                90640857:  Virtual Str1 SN 
 VS02.                90639246:  Virtual Str2 SN 
 VS03.                90642265:  Virtual Str3 SN 
 VS04.                11654497:  Virtual Str4 SN 
 WBMN.klb                 0.00:  WOB Min 
 WITN.      Kamran Keberlinkiy:  Customer Rep 
 WITN.           Murad Guliyev:  Customer Rep 2 
 WOBA.klb                 0.00:  WOB Avg 
 WOBX.klb                 0.00:  WOB Max 
 YP  .lhf2               36.00:  Yield Point 
~Curve Information Block
#MNEM.UNIT                 API CODE     Curve Description
#---------               -----------    ---------------------------
 TIME.HHMMSS            00 000 000 000:  GT Time & Date
 GTDEPTH.m              00 000 000 000:  GT Depth
 GTPQH.psia             00 000 000 000:  GT HR Quartz Pressure
 GTTQ.degC              00 000 000 000:  GT Quartz Temperature
 GTTN.NONE              00 000 000 000:  GT Test Number
 GTET.sec               00 000 000 000:  GT Elapsed Test Time
 GTTVD.m                00 000 000 000:  GT True Vertical Depth
#Other Information
#
#WARRANTY: Halliburton will use its best efforts to furnish customers with 
#accurate information and interpretations that are part of, and incident to, the services 
#provided.  However, Halliburton cannot and does not warrant the accuracy 
#or correctness of such information and interpretations.  Under no circumstances should any 
#such information or interpretation be relied upon as the sole basis for any drilling, 
#completion, production, or financial decision or any procedure involving any risk to the 
#safety of any drilling venture, drilling rig or its crew or any other third party.  The 
#Customer has full responsibility for all drilling, completion and production operation.  
#Halliburton makes no representations or warranties, either expressed or 
#implied, including, but not limited to, the implied warranties of merchantability or fitness 
#for a particular purpose, with respect to the services rendered.  In no event will 
#Halliburton be liable for failure to obtain any particular results or for 
#any damages, including, but not limited to, indirect, special or consequential damages, 
#resulting from the use of any information or interpretation provided by Halliburton.
#
~A           TIME           GTDEPTH  GTPQH  GTTQ  GTTN  GTET   GTTVD  
# ...
   07:59:21.000.27-Mar-2021 3413.01 7350.43 60.89 7.00  23.00 3157.73
   07:59:21.200.27-Mar-2021 3413.01 7350.43 60.89 7.00  23.20 3157.73
   07:59:21.400.27-Mar-2021 3413.01 7350.02 60.89 7.00  23.40 3157.73
   07:59:21.600.27-Mar-2021 3413.01 7349.92 60.89 7.00  23.60 3157.73
   07:59:21.800.27-Mar-2021 3413.01 7349.47 60.89 7.00  23.80 3157.73
   07:59:22.000.27-Mar-2021 3413.01 7353.82 60.89 7.00  24.00 3157.73
   07:59:22.200.27-Mar-2021 3413.01 7353.82 60.89 7.00  24.20 3157.73
   07:59:22.400.27-Mar-2021 3413.01 7351.00 60.89 7.00  24.40 3157.73
   07:59:22.600.27-Mar-2021 3413.01 7351.04 60.89 7.00  24.60 3157.73
   07:59:22.800.27-Mar-2021 3413.01 7350.82 60.89 7.00  24.80 3157.73
   07:59:23.000.27-Mar-2021 3413.01 7355.12 60.89 7.00  25.00 3157.73
   07:59:23.200.27-Mar-2021 3413.01 7355.12 60.89 7.00  25.20 3157.73
   07:59:23.400.27-Mar-2021 3413.01 7351.10 60.89 7.00  25.40 3157.73
   07:59:23.600.27-Mar-2021 3413.01 7351.57 60.89 7.00  25.60 3157.73
   07:59:23.800.27-Mar-2021 3413.01 7351.57 60.89 7.00  25.80 3157.73
   07:59:24.000.27-Mar-2021 3413.01 7351.46 60.89 7.00  26.00 3157.73
   07:59:24.200.27-Mar-2021 3413.01 7351.46 60.89 7.00  26.20 3157.73
   07:59:24.400.27-Mar-2021 3413.01 7354.67 60.89 7.00  26.40 3157.73
   07:59:24.600.27-Mar-2021 3413.01 7351.64 60.89 7.00  26.60 3157.73
   07:59:24.800.27-Mar-2021 3413.01 7352.31 60.89 7.00  26.80 3157.73
   07:59:25.000.27-Mar-2021 3413.01 7351.62 60.89 7.00  27.00 3157.73
   07:59:25.200.27-Mar-2021 3413.01 7351.62 60.89 7.00  27.20 3157.73
   07:59:25.400.27-Mar-2021 3413.01 7351.53 60.89 7.00  27.40 3157.73
   07:59:25.600.27-Mar-2021 3413.01 7351.44 60.89 7.00  27.60 3157.73
   07:59:25.800.27-Mar-2021 3413.01 7351.24 60.89 7.00  27.80 3157.73
   07:59:26.000.27-Mar-2021 3413.01 7351.84 60.89 7.00  28.00 3157.73
   07:59:26.200.27-Mar-2021 3413.01 7351.84 60.89 7.00  28.20 3157.73
   07:59:26.400.27-Mar-2021 3413.01 7351.89 60.89 7.00  28.40 3157.73
   07:59:26.600.27-Mar-2021 3413.01 7352.20 60.89 7.00  28.60 3157.73
   07:59:26.800.27-Mar-2021 3413.01 7352.23 60.89 7.00  28.80 3157.73
   07:59:27.000.27-Mar-2021 3413.01 7352.09 60.89 7.00  29.00 3157.73
   07:59:27.200.27-Mar-2021 3413.01 7352.09 60.89 7.00  29.20 3157.73
   07:59:27.400.27-Mar-2021 3413.01 7351.90 60.89 7.00  29.40 3157.73
   07:59:27.600.27-Mar-2021 3413.01 7355.29 60.89 7.00  29.60 3157.73
   07:59:27.800.27-Mar-2021 3413.01 7351.27 60.89 7.00  29.80 3157.73
   07:59:28.000.27-Mar-2021 3413.01 7352.35 60.89 7.00  30.00 3157.73
   07:59:28.200.27-Mar-2021 3413.01 7352.35 60.89 7.00  30.20 3157.73
   07:59:28.400.27-Mar-2021 3413.01 7351.97 60.89 7.00  30.40 3157.73
   07:59:28.600.27-Mar-2021 3413.01 7351.97 60.89 7.00  30.60 3157.73
   07:59:28.800.27-Mar-2021 3413.01 7351.76 60.89 7.00  30.80 3157.73
   07:59:29.000.27-Mar-2021 3413.01 7352.02 60.89 7.00  31.00 3157.73
   07:59:29.200.27-Mar-2021 3413.01 7352.02 60.89 7.00  31.20 3157.73
   07:59:29.400.27-Mar-2021 3413.01 7352.27 60.89 7.00  31.40 3157.73
   07:59:29.600.27-Mar-2021 3413.01 7352.07 60.89 7.00  31.60 3157.73
   07:59:29.800.27-Mar-2021 3413.01 7352.26 60.89 7.00  31.80 3157.73
   07:59:30.000.27-Mar-2021 3413.01 7352.07 60.89 7.00  32.00 3157.73
   07:59:30.200.27-Mar-2021 3413.01 7352.07 60.89 7.00  32.20 3157.73
   07:59:30.400.27-Mar-2021 3413.01 7355.83 60.89 7.00  32.40 3157.73
   07:59:30.600.27-Mar-2021 3413.01 7352.36 60.89 7.00  32.60 3157.73
   07:59:30.800.27-Mar-2021 3413.01 7352.97 60.89 7.00  32.80 3157.73
   07:59:31.000.27-Mar-2021 3413.01 7352.57 60.89 7.00  33.00 3157.73
   07:59:31.200.27-Mar-2021 3413.01 7352.57 60.89 7.00  33.20 3157.73
   07:59:31.400.27-Mar-2021 3413.01 7352.34 60.89 7.00  33.40 3157.73
   07:59:31.600.27-Mar-2021 3413.01 7352.17 60.89 7.00  33.60 3157.73
   07:59:31.800.27-Mar-2021 3413.01 7355.55 60.89 7.00  33.80 3157.73
   07:59:32.000.27-Mar-2021 3413.01 7353.08 60.89 7.00  34.00 3157.73
   07:59:32.200.27-Mar-2021 3413.01 7353.08 60.89 7.00  34.20 3157.73
   07:59:32.400.27-Mar-2021 3413.01 7353.19 60.89 7.00  34.40 3157.73
   07:59:32.600.27-Mar-2021 3413.01 7353.22 60.89 7.00  34.60 3157.73
   07:59:32.800.27-Mar-2021 3413.01 7356.81 60.89 7.00  34.80 3157.73
   07:59:33.000.27-Mar-2021 3413.01 7352.67 60.89 7.00  35.00 3157.73
   07:59:33.200.27-Mar-2021 3413.01 7352.67 60.89 7.00  35.20 3157.73
   07:59:33.400.27-Mar-2021 3413.01 7354.58 60.89 7.00  35.40 3157.73
   07:59:33.600.27-Mar-2021 3413.01 7353.66 60.89 7.00  35.60 3157.73
   07:59:33.800.27-Mar-2021 3413.01 7353.79 60.89 7.00  35.80 3157.73
   07:59:34.000.27-Mar-2021 3413.01 7353.41 60.89 7.00  36.00 3157.73
   07:59:34.200.27-Mar-2021 3413.01 7353.41 60.89 7.00  36.20 3157.73
   07:59:34.400.27-Mar-2021 3413.01 7357.81 60.89 7.00  36.40 3157.73
   07:59:34.600.27-Mar-2021 3413.01 7353.13 60.89 7.00  36.60 3157.73
   07:59:34.800.27-Mar-2021 3413.01 7353.92 60.89 7.00  36.80 3157.73
   07:59:35.000.27-Mar-2021 3413.01 7354.20 60.89 7.00  37.00 3157.73
   07:59:35.200.27-Mar-2021 3413.01 7354.20 60.89 7.00  37.20 3157.73
   07:59:35.400.27-Mar-2021 3413.01 7354.14 60.89 7.00  37.40 3157.73
   07:59:35.600.27-Mar-2021 3413.01 7353.77 60.89 7.00  37.60 3157.73
   07:59:35.800.27-Mar-2021 3413.01 7353.62 60.89 7.00  37.80 3157.73
   07:59:36.000.27-Mar-2021 3413.01 7354.08 60.89 7.00  38.00 3157.73
   07:59:36.200.27-Mar-2021 3413.01 7354.08 60.89 7.00  38.20 3157.73
   07:59:36.400.27-Mar-2021 3413.01 7354.43 60.89 7.00  38.40 3157.73
   07:59:36.600.27-Mar-2021 3413.01 7354.56 60.89 7.00  38.60 3157.73
   07:59:36.800.27-Mar-2021 3413.01 7354.29 60.89 7.00  38.80 3157.73
   07:59:37.000.27-Mar-2021 3413.01 7354.08 60.89 7.00  39.00 3157.73
   07:59:37.200.27-Mar-2021 3413.01 7354.08 60.89 7.00  39.20 3157.73
   07:59:37.400.27-Mar-2021 3413.01 7353.93 60.89 7.00  39.40 3157.73
   07:59:37.600.27-Mar-2021 3413.01 7353.97 60.89 7.00  39.60 3157.73
   07:59:37.800.27-Mar-2021 3413.01 7357.68 60.89 7.00  39.80 3157.73
   07:59:38.000.27-Mar-2021 3413.01 7353.62 60.89 7.00  40.00 3157.73
   07:59:38.200.27-Mar-2021 3413.01 7353.62 60.89 7.00  40.20 3157.73
   07:59:38.400.27-Mar-2021 3413.01 7353.94 60.89 7.00  40.40 3157.73
   07:59:38.600.27-Mar-2021 3413.01 7354.44 60.89 7.00  40.60 3157.73
   07:59:38.800.27-Mar-2021 3413.01 7354.06 60.89 7.00  40.80 3157.73
   07:59:39.000.27-Mar-2021 3413.01 7354.47 60.89 7.00  41.00 3157.73
   07:59:39.200.27-Mar-2021 3413.01 7354.47 60.89 7.00  41.20 3157.73
   07:59:39.400.27-Mar-2021 3413.01 7357.63 60.89 7.00  41.40 3157.73
   07:59:39.600.27-Mar-2021 3413.01 7356.81 60.88 7.00  41.60 3157.73
   07:59:39.800.27-Mar-2021 3413.01 7353.39 60.88 7.00  41.80 3157.73
   07:59:40.000.27-Mar-2021 3413.01 7349.48 60.88 7.00  42.00 3157.73
   07:59:40.200.27-Mar-2021 3413.01 7349.48 60.88 7.00  42.20 3157.73
   07:59:40.400.27-Mar-2021 3413.01 7343.38 60.88 7.00  42.40 3157.73
   07:59:40.600.27-Mar-2021 3413.01 7339.90 60.88 7.00  42.60 3157.73
   07:59:40.800.27-Mar-2021 3413.01 7338.11 60.88 7.00  42.80 3157.73
   07:59:41.000.27-Mar-2021 3413.01 7337.80 60.88 7.00  43.00 3157.73
   07:59:41.200.27-Mar-2021 3413.01 7337.80 60.88 7.00  43.20 3157.73
   07:59:41.400.27-Mar-2021 3413.01 7333.78 60.88 7.00  43.40 3157.73
   07:59:41.600.27-Mar-2021 3413.01 7311.19 60.88 7.00  43.60 3157.73
   07:59:41.800.27-Mar-2021 3413.01 7290.41 60.88 7.00  43.80 3157.73
   07:59:42.000.27-Mar-2021 3413.01 7265.59 60.88 7.00  44.00 3157.73
   07:59:42.200.27-Mar-2021 3413.01 7265.59 60.88 7.00  44.20 3157.73
   07:59:42.400.27-Mar-2021 3413.01 7198.82 60.88 7.00  44.40 3157.73
   07:59:42.600.27-Mar-2021 3413.01 7162.60 60.88 7.00  44.60 3157.73
   07:59:42.800.27-Mar-2021 3413.01 7116.59 60.88 7.00  44.80 3157.73
   07:59:43.000.27-Mar-2021 3413.01 7067.57 60.88 7.00  45.00 3157.73
   07:59:43.200.27-Mar-2021 3413.01 7067.57 60.88 7.00  45.20 3157.73
   07:59:43.400.27-Mar-2021 3413.01 6938.34 60.88 7.00  45.40 3157.73
   07:59:43.600.27-Mar-2021 3413.01 6862.18 60.88 7.00  45.60 3157.73
   07:59:43.800.27-Mar-2021 3413.01 6776.20 60.88 7.00  45.80 3157.73
