~Version Information
 VERS.                  2.0:   CWLS log ASCII Standard -VERSION 2.0
 WRAP.                   NO:   One line per depth step
~Well Information Block
#MNEM.UNIT     VALUE/NAME     DESCRIPTION
#---------     -----------    ---------------------------
 STRT.S             12:17:14 27-Mar-21: START TIME 12:17:14 27-Mar-21
 STOP.S             12:24:16 27-Mar-21: STOP TIME  12:24:16 27-Mar-21
 STEP.S                   0.00: STEP TIME
 NULL.                 -999.25: NULL VALUE
 DFWT.                        :  DIST FWL TEXT
 DFST.                        :  DIST FSL TEXT
 DMF .             Drill Floor:  DRILL MEAS FROM
 STIM.      20.26.40 11-Mar-21:  START TIME
 DATE.      20.26.40 30-Mar-21:  END TIME
 SPUD.               11-Mar-21:  SPUD DATE
 NREF.                    Grid:  NORTH REFERENCE
 HPTY.       Minimum Curvature:  HOLE POS TYPE
 DMOD.             Drill Model:  DRILL MOD DESC
 SVYD.                  Survey:  SURVEY DESC
 ILTD.               Lithology:  INTERP LTH DESC
 FTOP.          Formation Tops:  FORM TOPS DESC
 SON .        AZ-XX-0906805385:  JOB NUMBER
 WTYP.                Deviated:  WELL TYPE
 COMP.     BP Exploration (Caspian Sea) Ltd.:  COMPANY
 UWI .            /AZE00000198:  UNIQUE WELL IDENTIFIER
 API .            /AZE00000198:  API NUMBER
 BASE.              Azerbaijan:  LOGGING EQUIPMENT BASE LOCATION
 REGN.                   EESSA:  REGION
 PROV.                    Baku:  PROVINCE
 STAT.                    Baku:  STATE NAME
 CTRY.              Azerbaijan:  COUNTRY NAME
 FLD .                     ACG:  FIELD NAME
 SRVC.     Turan Drilling & Engineering:  CONTRACTOR
 MWDS.                    Baku:  MWD SHOP
 WELL.                    D09z:  WELL NAME
 JOBN.        AZ-XX-0906805385:  JOB TICKET NUMB
 RIG .              East Azeri:  RIG NAME
 DOE .                     N/A:  DOE NUMBER
 DCON.         Sperry Drilling:  DIRECTNL CONTR
 UNIT.                     N/A:  LOGGING EQUIPMENT ID
 PDAT.          Mean Sea Level:  PERMANENT DATUM
 MDS .        Operator Entered:  MAG DATA SOURCE
 CNTY.                        :  COUNTY
 LOC .                        :  LOCATION
 LMF .             Drill Floor:  LOG MEASURED FROM
 TVDS.m                  43.60:  TVDSS CORRECTN
 LATI.deg                40.02:  LATITUDE
 LONG.deg                51.45:  LONGITUDE
 WHNS.m                 -17.04:  WELL HEAD N/S
 WHEW.m                  -6.28:  WELL HEAD E/W
 UTMX.m              538763.98:  UTM X
 UTMY.m             4431880.20:  UTM Y
 DFWL.m                   0.00:  DISTANCE FWL
 DFSL.m                   0.00:  DISTANCE FSL
 SDEP.m                2680.01:  START DEPTH
 TDD .m                4000.01:  TOTAL DEPTH (DRILLER)
 VSDR.deg               225.71:  VERT SEC DIRECT
 GVFD.g                   1.00:  GRAVITY FIELD
 MFLD.nT              50353.00:  MAGNETIC FIELD
 MDIP.deg                59.49:  MAGNETIC DIP
 MDEC.deg                 6.46:  MAGNETIC DECL
 GRDC.deg                 0.29:  GRID CORRECTION
 AZTC.deg                 6.17:  AZM TOTAL CORR
 EPD .m                   0.00:  ELEVATION
 EGL .m                   0.00:  GROUND ELEVATION
 WDMS.m                 151.80:  WD ELEV
 APD .m                  43.60:  DEPTH ABOVE PD
 AGAP.m                  43.60:  AIR GAP
 VSEW.m                  -6.28:  VERT SEC E/W
 VSNS.m                 -17.04:  VERT SEC N/S
 DEP .m                2656.31:  DEPTH
 EKB .m                  43.60:  KB ELEVATION
 EDF .m                  43.60:  DF ELEVATION
 VSC .                       0:  VS TO CLOSURE
 MAGU.                 1851247:  MAGUTM CHECKSUM
~Parameter Information Block
#MNEM.UNIT       Value        Description
#---------     -----------    ---------------------------
 AV  .mps                 3.00:  Ann Velocity 
 AVMX.mps                 8.00:  Max Ann Veloc 
 AZIF.deg                 0.00:  Azm, Final 
 BHAT.                   Other:  BHA Type 
 BREV.rev                 0.00:  Rev Bit Total 
 BROT.°/30m               0.00:  Build Rotating 
 BS  .in                 10.25:  Bit Size 
 BTPL.psig              511.00:  Bit Press Loss 
 CABU.                      No:  Customer Abuse 
 CGEO.           Asif Pashayev:  Customer Geo 
 COMM.                     4'd:  Run Comments 1 
 TCS .hr                 24.03:  Time Ciculation Ended 
 CV  .mps                 3.50:  Crit Velocity 
 CVMX.mps                 4.00:  Max Crit Veloc 
 DD1 .             Aziz Aliyev:  Direct Drillr 1 
 DD2 .      Fakhraddin Guliyev:  Direct Drillr 2 
 DDSV.                   Other:  DD Service 
 DEFF.%                  99.00:  % Det Eff 
 DLRX.°/30m               0.00:  Dogleg Rot Max 
 DLSO.°/30m               0.00:  Dogleg Oriented 
 DLSX.°/30m               0.00:  Dogleg Str Max 
 DRET.      23.00.40 28-Mar-21:  Drill End Time 
 DRST.      23.30.40 25-Mar-21:  Drill Start Tim 
 DTIM.hr                  0.00:  Time Drilling 
 EDEP.m                3886.01:  End Depth 
 ENG1.         Almaz Almadatov:  Engineer 1 
 ENG2.      Artemiy Matviyanov:  Engineer 2 
 ENG3.           Samir Gafarov:  Engineer 3 
 ETIM.      23.00.40 28-Mar-21:  End Time 
 FLOI.gpm               550.00:  Flow In 
 FLON.gpm               500.00:  Flow In Min 
 FLOS.cptm                0.00:  Fluid Loss 
 FLOX.gpm               590.00:  Flow In Max 
 HFLO.                      No:  High Flow 
 HPRE.                      No:  High Pressure 
 HTEM.                      No:  High Temp 
 HYDO.m                   1.80:  Hydro Offset 
 IFIN.deg                 0.00:  Inc, Final 
 IMAX.deg                 0.00:  Inc Max 
 IMIN.deg                 0.00:  Inc Min 
 IMND.m                   0.00:  Inc Min Depth 
 IMXD.m                   0.00:  Inc Max Depth 
 JARR.                      No:  Jarring 
 LETM.      03.22.40 28-Mar-21:  Log End Time 
 LOST.hr                     0:  Lost Rig Time 
 LSTM.      23.30.40 25-Mar-21:  Log Start Time 
 MDCL.ppm             34000.00:  Mud Chlorides 
 MDES.     Inversion Oil/Synthetic:  Mud Desc 
 DFD .sg                  1.51:  Mud Density 
 MDMN.sg                  1.51:  Dens Mud Min 
 MDMX.sg                  1.51:  Dens Mud Max 
 MOIL.                      70:  Run Mud Oil % 
 MOWR.                   70:30:  Run Mud OWR 
 MSND.                     0.2:  Run Mud Sand % 
 MSOL.                   21.60:  Run Mud Solids% 
 DFV .spqt               74.00:  Mud Viscosity 
 MWOD.in                  6.75:  MWD Tool OD 
 MWSI.                      No:  Serv Intrp, MWD 
 OTIM.hr                 69.09:  Time Operating 
 PCON.           Look Like New:  Pad Condition 
 PMAX.psia             3500.00:  Press Op, Max 
 PV  .cP                 70.00:  Mud PV 
 RUN .                     400:  Run Number 
 ROPA.m/hr                0.00:  ROP Avg 
 ROPN.m/hr                0.00:  ROP Min 
 ROPX.m/hr                0.00:  ROP Max 
 RPMA.rpm                80.00:  RPM Surface Avg 
 RPMN.rpm                10.00:  RPM Surface Min 
 RPMX.rpm               100.00:  RPM Surface Max 
 RRUN.                    0400:  Rig Run Number 
 RTIM.hr                  3.00:  Time Reaming 
 SAZI.deg                 0.00:  Azm, Start 
 SDEP.m                3886.01:  Start Depth 
 SIDD.                      No:  Serv Intrp, DD 
 SINC.deg                 0.00:  Inc, Start 
 SPPA.psig             3270.00:  SPP Avg 
 SPPN.psig             3220.00:  SPP Min 
 SPPX.psig             4430.00:  SPP Max 
 STIM.      23.30.40 25-Mar-21:  Start Time 
 SVCS.                 DD, MWD:  Services 
 SVER.                    9.20:  Sperry Version 
 TDAT.m                   0.00:  Tot Depth Attmp 
 TDDF.                      No:  Trip for DD 
 TFF .                      No:  Trip for Fail 
 TQAA.f-kp                8.00:  Torque Abs Avg 
 TQAN.f-kp                7.00:  Torque Abs Min 
 TQAX.f-kp               11.00:  Torque Abs Max 
 TRRT.°/30m               0.00:  Turn Rotating 
 MRT .                  EWR-M5:  Maximum Recorded Temperature 
 TTMX.degC               76.47:  Max Tool Temp 
 VS01.                90640857:  Virtual Str1 SN 
 VS02.                90639246:  Virtual Str2 SN 
 VS03.                90642265:  Virtual Str3 SN 
 VS04.                11654497:  Virtual Str4 SN 
 WBMN.klb                 0.00:  WOB Min 
 WITN.      Kamran Keberlinkiy:  Customer Rep 
 WITN.           Murad Guliyev:  Customer Rep 2 
 WOBA.klb                 0.00:  WOB Avg 
 WOBX.klb                 0.00:  WOB Max 
 YP  .lhf2               36.00:  Yield Point 
~Curve Information Block
#MNEM.UNIT                 API CODE     Curve Description
#---------               -----------    ---------------------------
 TIME.HHMMSS            00 000 000 000:  GT Time & Date
 GTDEPTH.m              00 000 000 000:  GT Depth
 GTPQH.psia             00 000 000 000:  GT HR Quartz Pressure
 GTTQ.degC              00 000 000 000:  GT Quartz Temperature
 GTTN.NONE              00 000 000 000:  GT Test Number
 GTET.sec               00 000 000 000:  GT Elapsed Test Time
 GTTVD.m                00 000 000 000:  GT True Vertical Depth
#Other Information
#
#WARRANTY: Halliburton will use its best efforts to furnish customers with 
#accurate information and interpretations that are part of, and incident to, the services 
#provided.  However, Halliburton cannot and does not warrant the accuracy 
#or correctness of such information and interpretations.  Under no circumstances should any 
#such information or interpretation be relied upon as the sole basis for any drilling, 
#completion, production, or financial decision or any procedure involving any risk to the 
#safety of any drilling venture, drilling rig or its crew or any other third party.  The 
#Customer has full responsibility for all drilling, completion and production operation.  
#Halliburton makes no representations or warranties, either expressed or 
#implied, including, but not limited to, the implied warranties of merchantability or fitness 
#for a particular purpose, with respect to the services rendered.  In no event will 
#Halliburton be liable for failure to obtain any particular results or for 
#any damages, including, but not limited to, indirect, special or consequential damages, 
#resulting from the use of any information or interpretation provided by Halliburton.
#
~A           TIME           GTDEPTH  GTPQH  GTTQ  GTTN   GTET   GTTVD  
# ...
   12:21:00.882.27-Mar-2021 3369.01 4844.66 61.83 12.00 226.16 3116.52
   12:21:01.083.27-Mar-2021 3369.01 4844.66 61.83 12.00 226.36 3116.52
   12:21:01.283.27-Mar-2021 3369.01 4844.93 61.83 12.00 226.56 3116.52
   12:21:01.483.27-Mar-2021 3369.01 4844.98 61.83 12.00 226.76 3116.52
   12:21:01.683.27-Mar-2021 3369.01 4844.66 61.83 12.00 226.96 3116.52
   12:21:01.883.27-Mar-2021 3369.01 4844.46 61.83 12.00 227.16 3116.52
   12:21:02.083.27-Mar-2021 3369.01 4844.46 61.83 12.00 227.36 3116.52
   12:21:02.283.27-Mar-2021 3369.01 4845.03 61.83 12.00 227.56 3116.52
   12:21:02.484.27-Mar-2021 3369.01 4844.92 61.83 12.00 227.76 3116.52
   12:21:02.684.27-Mar-2021 3369.01 4844.97 61.83 12.00 227.96 3116.52
   12:21:02.884.27-Mar-2021 3369.01 4844.57 61.83 12.00 228.16 3116.52
   12:21:03.084.27-Mar-2021 3369.01 4844.57 61.83 12.00 228.36 3116.52
   12:21:03.284.27-Mar-2021 3369.01 4845.02 61.83 12.00 228.56 3116.52
   12:21:03.484.27-Mar-2021 3369.01 4845.01 61.83 12.00 228.76 3116.52
   12:21:03.684.27-Mar-2021 3369.01 4844.71 61.83 12.00 228.96 3116.52
   12:21:03.885.27-Mar-2021 3369.01 4845.21 61.83 12.00 229.16 3116.52
   12:21:04.085.27-Mar-2021 3369.01 4845.21 61.83 12.00 229.36 3116.52
   12:21:04.285.27-Mar-2021 3369.01 4845.05 61.83 12.00 229.56 3116.52
   12:21:04.485.27-Mar-2021 3369.01 4845.06 61.83 12.00 229.76 3116.52
   12:21:04.685.27-Mar-2021 3369.01 4844.88 61.82 12.00 229.96 3116.52
   12:21:04.885.27-Mar-2021 3369.01 4844.28 61.82 12.00 230.16 3116.52
   12:21:05.085.27-Mar-2021 3369.01 4844.28 61.82 12.00 230.36 3116.52
   12:21:05.286.27-Mar-2021 3369.01 4844.77 61.82 12.00 230.56 3116.52
   12:21:05.486.27-Mar-2021 3369.01 4844.72 61.82 12.00 230.76 3116.52
   12:21:05.686.27-Mar-2021 3369.01 4844.26 61.82 12.00 230.96 3116.52
   12:21:05.886.27-Mar-2021 3369.01 4844.23 61.82 12.00 231.16 3116.52
   12:21:06.086.27-Mar-2021 3369.01 4844.23 61.82 12.00 231.36 3116.52
   12:21:06.286.27-Mar-2021 3369.01 4844.83 61.82 12.00 231.56 3116.52
   12:21:06.486.27-Mar-2021 3369.01 4844.63 61.82 12.00 231.76 3116.52
   12:21:06.687.27-Mar-2021 3369.01 4845.33 61.82 12.00 231.96 3116.52
   12:21:06.887.27-Mar-2021 3369.01 4844.77 61.82 12.00 232.16 3116.52
   12:21:07.087.27-Mar-2021 3369.01 4844.77 61.82 12.00 232.36 3116.52
   12:21:07.287.27-Mar-2021 3369.01 4845.15 61.82 12.00 232.56 3116.52
   12:21:07.487.27-Mar-2021 3369.01 4845.08 61.82 12.00 232.76 3116.52
   12:21:07.687.27-Mar-2021 3369.01 4844.71 61.82 12.00 232.96 3116.52
   12:21:07.887.27-Mar-2021 3369.01 4844.83 61.82 12.00 233.16 3116.52
   12:21:08.088.27-Mar-2021 3369.01 4844.83 61.82 12.00 233.36 3116.52
   12:21:08.288.27-Mar-2021 3369.01 4844.94 61.82 12.00 233.57 3116.52
   12:21:08.488.27-Mar-2021 3369.01 4844.94 61.82 12.00 233.77 3116.52
   12:21:08.688.27-Mar-2021 3369.01 4844.78 61.82 12.00 233.97 3116.52
   12:21:08.888.27-Mar-2021 3369.01 4844.72 61.82 12.00 234.17 3116.52
   12:21:09.088.27-Mar-2021 3369.01 4844.72 61.82 12.00 234.37 3116.52
   12:21:09.288.27-Mar-2021 3369.01 4845.05 61.82 12.00 234.57 3116.52
   12:21:09.488.27-Mar-2021 3369.01 4845.21 61.82 12.00 234.77 3116.52
   12:21:09.689.27-Mar-2021 3369.01 4844.68 61.82 12.00 234.97 3116.52
   12:21:09.889.27-Mar-2021 3369.01 4845.39 61.82 12.00 235.17 3116.52
   12:21:10.089.27-Mar-2021 3369.01 4845.39 61.82 12.00 235.37 3116.52
   12:21:10.289.27-Mar-2021 3369.01 4845.34 61.82 12.00 235.57 3116.52
   12:21:10.489.27-Mar-2021 3369.01 4845.27 61.82 12.00 235.77 3116.52
   12:21:10.689.27-Mar-2021 3369.01 4844.84 61.82 12.00 235.97 3116.52
   12:21:10.889.27-Mar-2021 3369.01 4844.84 61.82 12.00 236.17 3116.52
   12:21:11.090.27-Mar-2021 3369.01 4844.84 61.82 12.00 236.37 3116.52
   12:21:11.290.27-Mar-2021 3369.01 4845.01 61.82 12.00 236.57 3116.52
   12:21:11.490.27-Mar-2021 3369.01 4845.09 61.82 12.00 236.77 3116.52
   12:21:11.690.27-Mar-2021 3369.01 4844.99 61.82 12.00 236.97 3116.52
   12:21:11.890.27-Mar-2021 3369.01 4845.16 61.82 12.00 237.17 3116.52
   12:21:12.090.27-Mar-2021 3369.01 4845.16 61.82 12.00 237.37 3116.52
   12:21:12.290.27-Mar-2021 3369.01 4844.67 61.82 12.00 237.57 3116.52
   12:21:12.491.27-Mar-2021 3369.01 4845.53 61.82 12.00 237.77 3116.52
   12:21:12.691.27-Mar-2021 3369.01 4845.54 61.82 12.00 237.97 3116.52
   12:21:12.891.27-Mar-2021 3369.01 4845.56 61.82 12.00 238.17 3116.52
   12:21:13.091.27-Mar-2021 3369.01 4845.56 61.82 12.00 238.37 3116.52
   12:21:13.291.27-Mar-2021 3369.01 4845.39 61.82 12.00 238.57 3116.52
   12:21:13.491.27-Mar-2021 3369.01 4845.31 61.82 12.00 238.77 3116.52
   12:21:13.691.27-Mar-2021 3369.01 4845.01 61.82 12.00 238.97 3116.52
   12:21:13.892.27-Mar-2021 3369.01 4845.67 61.82 12.00 239.17 3116.52
   12:21:14.092.27-Mar-2021 3369.01 4845.67 61.82 12.00 239.37 3116.52
   12:21:14.292.27-Mar-2021 3369.01 4845.46 61.82 12.00 239.57 3116.52
   12:21:14.492.27-Mar-2021 3369.01 4845.19 61.82 12.00 239.77 3116.52
   12:21:14.692.27-Mar-2021 3369.01 4845.30 61.82 12.00 239.97 3116.52
   12:21:14.892.27-Mar-2021 3369.01 4845.52 61.82 12.00 240.17 3116.52
   12:21:15.092.27-Mar-2021 3369.01 4845.52 61.82 12.00 240.37 3116.52
   12:21:15.293.27-Mar-2021 3369.01 4845.63 61.82 12.00 240.57 3116.52
   12:21:15.493.27-Mar-2021 3369.01 4845.80 61.82 12.00 240.77 3116.52
   12:21:15.693.27-Mar-2021 3369.01 4845.75 61.82 12.00 240.97 3116.52
   12:21:15.893.27-Mar-2021 3369.01 4846.00 61.82 12.00 241.17 3116.52
   12:21:16.093.27-Mar-2021 3369.01 4846.00 61.82 12.00 241.37 3116.52
   12:21:16.293.27-Mar-2021 3369.01 4845.65 61.82 12.00 241.57 3116.52
   12:21:16.493.27-Mar-2021 3369.01 4845.14 61.82 12.00 241.77 3116.52
   12:21:16.694.27-Mar-2021 3369.01 4845.83 61.81 12.00 241.97 3116.52
   12:21:16.894.27-Mar-2021 3369.01 4845.53 61.81 12.00 242.17 3116.52
   12:21:17.094.27-Mar-2021 3369.01 4845.53 61.81 12.00 242.37 3116.52
   12:21:17.294.27-Mar-2021 3369.01 4845.39 61.81 12.00 242.57 3116.52
   12:21:17.494.27-Mar-2021 3369.01 4845.49 61.81 12.00 242.77 3116.52
   12:21:17.694.27-Mar-2021 3369.01 4845.48 61.81 12.00 242.97 3116.52
   12:21:17.894.27-Mar-2021 3369.01 4845.81 61.81 12.00 243.17 3116.52
   12:21:18.095.27-Mar-2021 3369.01 4845.81 61.81 12.00 243.37 3116.52
   12:21:18.295.27-Mar-2021 3369.01 4845.06 61.81 12.00 243.57 3116.52
   12:21:18.495.27-Mar-2021 3369.01 4845.05 61.81 12.00 243.77 3116.52
   12:21:18.695.27-Mar-2021 3369.01 4845.20 61.81 12.00 243.97 3116.52
   12:21:18.895.27-Mar-2021 3369.01 4845.36 61.81 12.00 244.17 3116.52
   12:21:19.095.27-Mar-2021 3369.01 4845.36 61.81 12.00 244.37 3116.52
   12:21:19.295.27-Mar-2021 3369.01 4845.21 61.81 12.00 244.57 3116.52
   12:21:19.496.27-Mar-2021 3369.01 4845.15 61.81 12.00 244.77 3116.52
   12:21:19.696.27-Mar-2021 3369.01 4844.70 61.81 12.00 244.97 3116.52
   12:21:19.896.27-Mar-2021 3369.01 4845.96 61.81 12.00 245.17 3116.52
   12:21:20.096.27-Mar-2021 3369.01 4845.96 61.81 12.00 245.37 3116.52
   12:21:20.296.27-Mar-2021 3369.01 4846.09 61.81 12.00 245.57 3116.52
   12:21:20.496.27-Mar-2021 3369.01 4845.88 61.81 12.00 245.77 3116.52
   12:21:20.696.27-Mar-2021 3369.01 4845.83 61.81 12.00 245.97 3116.52
   12:21:20.897.27-Mar-2021 3369.01 4845.77 61.81 12.00 246.17 3116.52
   12:21:21.097.27-Mar-2021 3369.01 4845.77 61.81 12.00 246.37 3116.52
   12:21:21.297.27-Mar-2021 3369.01 4845.67 61.81 12.00 246.57 3116.52
   12:21:21.497.27-Mar-2021 3369.01 4845.70 61.81 12.00 246.77 3116.52
   12:21:21.697.27-Mar-2021 3369.01 4845.63 61.81 12.00 246.97 3116.52
   12:21:21.897.27-Mar-2021 3369.01 4845.48 61.81 12.00 247.17 3116.52
   12:21:22.097.27-Mar-2021 3369.01 4845.48 61.81 12.00 247.37 3116.52
   12:21:22.298.27-Mar-2021 3369.01 4845.12 61.81 12.00 247.58 3116.52
   12:21:22.498.27-Mar-2021 3369.01 4845.71 61.81 12.00 247.78 3116.52
   12:21:22.698.27-Mar-2021 3369.01 4845.05 61.81 12.00 247.98 3116.52
   12:21:22.898.27-Mar-2021 3369.01 4845.36 61.81 12.00 248.18 3116.52
   12:21:23.098.27-Mar-2021 3369.01 4845.36 61.81 12.00 248.38 3116.52
   12:21:23.298.27-Mar-2021 3369.01 4845.66 61.81 12.00 248.58 3116.52
