~Version Information
 VERS.                  2.0:   CWLS log ASCII Standard -VERSION 2.0
 WRAP.                   NO:   One line per depth step
~Well Information Block
#MNEM.UNIT     VALUE/NAME     DESCRIPTION
#---------     -----------    ---------------------------
 STRT.S             05:56:12 27-Mar-21: START TIME 05:56:12 27-Mar-21
 STOP.S             06:03:17 27-Mar-21: STOP TIME  06:03:17 27-Mar-21
 STEP.S                   0.00: STEP TIME
 NULL.                 -999.25: NULL VALUE
 DFWT.                        :  DIST FWL TEXT
 DFST.                        :  DIST FSL TEXT
 DMF .             Drill Floor:  DRILL MEAS FROM
 STIM.      20.26.40 11-Mar-21:  START TIME
 DATE.      20.26.40 30-Mar-21:  END TIME
 SPUD.               11-Mar-21:  SPUD DATE
 NREF.                    Grid:  NORTH REFERENCE
 HPTY.       Minimum Curvature:  HOLE POS TYPE
 DMOD.             Drill Model:  DRILL MOD DESC
 SVYD.                  Survey:  SURVEY DESC
 ILTD.               Lithology:  INTERP LTH DESC
 FTOP.          Formation Tops:  FORM TOPS DESC
 SON .        AZ-XX-0906805385:  JOB NUMBER
 WTYP.                Deviated:  WELL TYPE
 COMP.     BP Exploration (Caspian Sea) Ltd.:  COMPANY
 UWI .            /AZE00000198:  UNIQUE WELL IDENTIFIER
 API .            /AZE00000198:  API NUMBER
 BASE.              Azerbaijan:  LOGGING EQUIPMENT BASE LOCATION
 REGN.                   EESSA:  REGION
 PROV.                    Baku:  PROVINCE
 STAT.                    Baku:  STATE NAME
 CTRY.              Azerbaijan:  COUNTRY NAME
 FLD .                     ACG:  FIELD NAME
 SRVC.     Turan Drilling & Engineering:  CONTRACTOR
 MWDS.                    Baku:  MWD SHOP
 WELL.                    D09z:  WELL NAME
 JOBN.        AZ-XX-0906805385:  JOB TICKET NUMB
 RIG .              East Azeri:  RIG NAME
 DOE .                     N/A:  DOE NUMBER
 DCON.         Sperry Drilling:  DIRECTNL CONTR
 UNIT.                     N/A:  LOGGING EQUIPMENT ID
 PDAT.          Mean Sea Level:  PERMANENT DATUM
 MDS .        Operator Entered:  MAG DATA SOURCE
 CNTY.                        :  COUNTY
 LOC .                        :  LOCATION
 LMF .             Drill Floor:  LOG MEASURED FROM
 TVDS.m                  43.60:  TVDSS CORRECTN
 LATI.deg                40.02:  LATITUDE
 LONG.deg                51.45:  LONGITUDE
 WHNS.m                 -17.04:  WELL HEAD N/S
 WHEW.m                  -6.28:  WELL HEAD E/W
 UTMX.m              538763.98:  UTM X
 UTMY.m             4431880.20:  UTM Y
 DFWL.m                   0.00:  DISTANCE FWL
 DFSL.m                   0.00:  DISTANCE FSL
 SDEP.m                2680.01:  START DEPTH
 TDD .m                4000.01:  TOTAL DEPTH (DRILLER)
 VSDR.deg               225.71:  VERT SEC DIRECT
 GVFD.g                   1.00:  GRAVITY FIELD
 MFLD.nT              50353.00:  MAGNETIC FIELD
 MDIP.deg                59.49:  MAGNETIC DIP
 MDEC.deg                 6.46:  MAGNETIC DECL
 GRDC.deg                 0.29:  GRID CORRECTION
 AZTC.deg                 6.17:  AZM TOTAL CORR
 EPD .m                   0.00:  ELEVATION
 EGL .m                   0.00:  GROUND ELEVATION
 WDMS.m                 151.80:  WD ELEV
 APD .m                  43.60:  DEPTH ABOVE PD
 AGAP.m                  43.60:  AIR GAP
 VSEW.m                  -6.28:  VERT SEC E/W
 VSNS.m                 -17.04:  VERT SEC N/S
 DEP .m                2656.31:  DEPTH
 EKB .m                  43.60:  KB ELEVATION
 EDF .m                  43.60:  DF ELEVATION
 VSC .                       0:  VS TO CLOSURE
 MAGU.                 1851247:  MAGUTM CHECKSUM
~Parameter Information Block
#MNEM.UNIT       Value        Description
#---------     -----------    ---------------------------
 AV  .mps                 3.00:  Ann Velocity 
 AVMX.mps                 8.00:  Max Ann Veloc 
 AZIF.deg                 0.00:  Azm, Final 
 BHAT.                   Other:  BHA Type 
 BREV.rev                 0.00:  Rev Bit Total 
 BROT.°/30m               0.00:  Build Rotating 
 BS  .in                 10.25:  Bit Size 
 BTPL.psig              511.00:  Bit Press Loss 
 CABU.                      No:  Customer Abuse 
 CGEO.           Asif Pashayev:  Customer Geo 
 COMM.                     ÌìW:  Run Comments 1 
 TCS .hr                 24.03:  Time Ciculation Ended 
 CV  .mps                 3.50:  Crit Velocity 
 CVMX.mps                 4.00:  Max Crit Veloc 
 DD1 .             Aziz Aliyev:  Direct Drillr 1 
 DD2 .      Fakhraddin Guliyev:  Direct Drillr 2 
 DDSV.                   Other:  DD Service 
 DEFF.%                  99.00:  % Det Eff 
 DLRX.°/30m               0.00:  Dogleg Rot Max 
 DLSO.°/30m               0.00:  Dogleg Oriented 
 DLSX.°/30m               0.00:  Dogleg Str Max 
 DRET.      23.00.40 28-Mar-21:  Drill End Time 
 DRST.      23.30.40 25-Mar-21:  Drill Start Tim 
 DTIM.hr                  0.00:  Time Drilling 
 EDEP.m                3886.01:  End Depth 
 ENG1.         Almaz Almadatov:  Engineer 1 
 ENG2.      Artemiy Matviyanov:  Engineer 2 
 ENG3.           Samir Gafarov:  Engineer 3 
 ETIM.      23.00.40 28-Mar-21:  End Time 
 FLOI.gpm               550.00:  Flow In 
 FLON.gpm               500.00:  Flow In Min 
 FLOS.cptm                0.00:  Fluid Loss 
 FLOX.gpm               590.00:  Flow In Max 
 HFLO.                      No:  High Flow 
 HPRE.                      No:  High Pressure 
 HTEM.                      No:  High Temp 
 HYDO.m                   1.80:  Hydro Offset 
 IFIN.deg                 0.00:  Inc, Final 
 IMAX.deg                 0.00:  Inc Max 
 IMIN.deg                 0.00:  Inc Min 
 IMND.m                   0.00:  Inc Min Depth 
 IMXD.m                   0.00:  Inc Max Depth 
 JARR.                      No:  Jarring 
 LETM.      03.22.40 28-Mar-21:  Log End Time 
 LOST.hr                     0:  Lost Rig Time 
 LSTM.      23.30.40 25-Mar-21:  Log Start Time 
 MDCL.ppm             34000.00:  Mud Chlorides 
 MDES.     Inversion Oil/Synthetic:  Mud Desc 
 DFD .sg                  1.51:  Mud Density 
 MDMN.sg                  1.51:  Dens Mud Min 
 MDMX.sg                  1.51:  Dens Mud Max 
 MOIL.                      70:  Run Mud Oil % 
 MOWR.                   70:30:  Run Mud OWR 
 MSND.                     0.2:  Run Mud Sand % 
 MSOL.                   21.60:  Run Mud Solids% 
 DFV .spqt               74.00:  Mud Viscosity 
 MWOD.in                  6.75:  MWD Tool OD 
 MWSI.                      No:  Serv Intrp, MWD 
 OTIM.hr                 69.09:  Time Operating 
 PCON.           Look Like New:  Pad Condition 
 PMAX.psia             3500.00:  Press Op, Max 
 PV  .cP                 70.00:  Mud PV 
 RUN .                     400:  Run Number 
 ROPA.m/hr                0.00:  ROP Avg 
 ROPN.m/hr                0.00:  ROP Min 
 ROPX.m/hr                0.00:  ROP Max 
 RPMA.rpm                80.00:  RPM Surface Avg 
 RPMN.rpm                10.00:  RPM Surface Min 
 RPMX.rpm               100.00:  RPM Surface Max 
 RRUN.                    0400:  Rig Run Number 
 RTIM.hr                  3.00:  Time Reaming 
 SAZI.deg                 0.00:  Azm, Start 
 SDEP.m                3886.01:  Start Depth 
 SIDD.                      No:  Serv Intrp, DD 
 SINC.deg                 0.00:  Inc, Start 
 SPPA.psig             3270.00:  SPP Avg 
 SPPN.psig             3220.00:  SPP Min 
 SPPX.psig             4430.00:  SPP Max 
 STIM.      23.30.40 25-Mar-21:  Start Time 
 SVCS.                 DD, MWD:  Services 
 SVER.                    9.20:  Sperry Version 
 TDAT.m                   0.00:  Tot Depth Attmp 
 TDDF.                      No:  Trip for DD 
 TFF .                      No:  Trip for Fail 
 TQAA.f-kp                8.00:  Torque Abs Avg 
 TQAN.f-kp                7.00:  Torque Abs Min 
 TQAX.f-kp               11.00:  Torque Abs Max 
 TRRT.°/30m               0.00:  Turn Rotating 
 MRT .                  EWR-M5:  Maximum Recorded Temperature 
 TTMX.degC               76.47:  Max Tool Temp 
 VS01.                90640857:  Virtual Str1 SN 
 VS02.                90639246:  Virtual Str2 SN 
 VS03.                90642265:  Virtual Str3 SN 
 VS04.                11654497:  Virtual Str4 SN 
 WBMN.klb                 0.00:  WOB Min 
 WITN.      Kamran Keberlinkiy:  Customer Rep 
 WITN.           Murad Guliyev:  Customer Rep 2 
 WOBA.klb                 0.00:  WOB Avg 
 WOBX.klb                 0.00:  WOB Max 
 YP  .lhf2               36.00:  Yield Point 
~Curve Information Block
#MNEM.UNIT                 API CODE     Curve Description
#---------               -----------    ---------------------------
 TIME.HHMMSS            00 000 000 000:  GT Time & Date
 GTDEPTH.m              00 000 000 000:  GT Depth
 GTPQH.psia             00 000 000 000:  GT HR Quartz Pressure
 GTTQ.degC              00 000 000 000:  GT Quartz Temperature
 GTTN.NONE              00 000 000 000:  GT Test Number
 GTET.sec               00 000 000 000:  GT Elapsed Test Time
 GTTVD.m                00 000 000 000:  GT True Vertical Depth
#Other Information
#
#WARRANTY: Halliburton will use its best efforts to furnish customers with 
#accurate information and interpretations that are part of, and incident to, the services 
#provided.  However, Halliburton cannot and does not warrant the accuracy 
#or correctness of such information and interpretations.  Under no circumstances should any 
#such information or interpretation be relied upon as the sole basis for any drilling, 
#completion, production, or financial decision or any procedure involving any risk to the 
#safety of any drilling venture, drilling rig or its crew or any other third party.  The 
#Customer has full responsibility for all drilling, completion and production operation.  
#Halliburton makes no representations or warranties, either expressed or 
#implied, including, but not limited to, the implied warranties of merchantability or fitness 
#for a particular purpose, with respect to the services rendered.  In no event will 
#Halliburton be liable for failure to obtain any particular results or for 
#any damages, including, but not limited to, indirect, special or consequential damages, 
#resulting from the use of any information or interpretation provided by Halliburton.
#
~A           TIME           GTDEPTH  GTPQH  GTTQ  GTTN  GTET   GTTVD  
# ...
   05:56:58.000.27-Mar-2021 3467.51 7697.30 60.14 4.00  46.00 3208.79
   05:56:58.200.27-Mar-2021 3467.51 7697.30 60.14 4.00  46.20 3208.79
   05:56:58.400.27-Mar-2021 3467.51 7685.77 60.14 4.00  46.40 3208.79
   05:56:58.600.27-Mar-2021 3467.51 7676.45 60.14 4.00  46.60 3208.79
   05:56:58.800.27-Mar-2021 3467.51 7665.99 60.14 4.00  46.80 3208.79
   05:56:59.000.27-Mar-2021 3467.51 7658.01 60.14 4.00  47.00 3208.79
   05:56:59.200.27-Mar-2021 3467.51 7658.01 60.14 4.00  47.20 3208.79
   05:56:59.400.27-Mar-2021 3467.51 7641.56 60.14 4.00  47.40 3208.79
   05:56:59.600.27-Mar-2021 3467.51 7632.61 60.14 4.00  47.60 3208.79
   05:56:59.800.27-Mar-2021 3467.51 7628.46 60.14 4.00  47.80 3208.79
   05:57:00.000.27-Mar-2021 3467.51 7619.80 60.14 4.00  48.00 3208.79
   05:57:00.200.27-Mar-2021 3467.51 7619.80 60.14 4.00  48.20 3208.79
   05:57:00.400.27-Mar-2021 3467.51 7608.44 60.14 4.00  48.40 3208.79
   05:57:00.600.27-Mar-2021 3467.51 7605.43 60.14 4.00  48.60 3208.79
   05:57:00.800.27-Mar-2021 3467.51 7482.54 60.14 4.00  48.80 3208.79
   05:57:01.000.27-Mar-2021 3467.51 7239.01 60.14 4.00  49.00 3208.79
   05:57:01.200.27-Mar-2021 3467.51 7239.01 60.14 4.00  49.20 3208.79
   05:57:01.400.27-Mar-2021 3467.51 6020.36 60.14 4.00  49.40 3208.79
   05:57:01.600.27-Mar-2021 3467.51 5391.62 60.14 4.00  49.60 3208.79
   05:57:01.800.27-Mar-2021 3467.51 4802.61 60.14 4.00  49.80 3208.79
   05:57:02.000.27-Mar-2021 3467.51 4914.06 60.14 4.00  50.00 3208.79
   05:57:02.200.27-Mar-2021 3467.51 4914.06 60.14 4.00  50.20 3208.79
   05:57:02.400.27-Mar-2021 3467.51 4968.69 60.13 4.00  50.40 3208.79
   05:57:02.600.27-Mar-2021 3467.51 4962.18 60.13 4.00  50.60 3208.79
   05:57:02.800.27-Mar-2021 3467.51 4958.55 60.13 4.00  50.80 3208.79
   05:57:03.000.27-Mar-2021 3467.51 4953.03 60.13 4.00  51.00 3208.79
   05:57:03.200.27-Mar-2021 3467.51 4953.03 60.13 4.00  51.20 3208.79
   05:57:03.400.27-Mar-2021 3467.51 4944.46 60.13 4.00  51.40 3208.79
   05:57:03.600.27-Mar-2021 3467.51 4933.67 60.13 4.00  51.60 3208.79
   05:57:03.800.27-Mar-2021 3467.51 4934.50 60.12 4.00  51.80 3208.79
   05:57:04.000.27-Mar-2021 3467.51 4949.91 60.12 4.00  52.00 3208.79
   05:57:04.200.27-Mar-2021 3467.51 4949.91 60.12 4.00  52.20 3208.79
   05:57:04.400.27-Mar-2021 3467.51 4948.27 60.12 4.00  52.40 3208.79
   05:57:04.600.27-Mar-2021 3467.51 4947.71 60.12 4.00  52.60 3208.79
   05:57:04.800.27-Mar-2021 3467.51 4941.14 60.11 4.00  52.80 3208.79
   05:57:05.000.27-Mar-2021 3467.51 4937.89 60.11 4.00  53.00 3208.79
   05:57:05.200.27-Mar-2021 3467.51 4937.89 60.11 4.00  53.20 3208.79
   05:57:05.400.27-Mar-2021 3467.51 4942.89 60.11 4.00  53.40 3208.79
   05:57:05.600.27-Mar-2021 3467.51 4942.15 60.11 4.00  53.60 3208.79
   05:57:05.800.27-Mar-2021 3467.51 4936.67 60.10 4.00  53.80 3208.79
   05:57:06.000.27-Mar-2021 3467.51 4931.90 60.10 4.00  54.00 3208.79
   05:57:06.200.27-Mar-2021 3467.51 4931.90 60.10 4.00  54.20 3208.79
   05:57:06.400.27-Mar-2021 3467.51 4924.64 60.10 4.00  54.40 3208.79
   05:57:06.600.27-Mar-2021 3467.51 4919.94 60.10 4.00  54.60 3208.79
   05:57:06.800.27-Mar-2021 3467.51 4916.46 60.10 4.00  54.80 3208.79
   05:57:07.000.27-Mar-2021 3467.51 4911.60 60.09 4.00  55.00 3208.79
   05:57:07.200.27-Mar-2021 3467.51 4911.60 60.09 4.00  55.20 3208.79
   05:57:07.400.27-Mar-2021 3467.51 4893.32 60.09 4.00  55.40 3208.79
   05:57:07.600.27-Mar-2021 3467.51 4880.72 60.09 4.00  55.60 3208.79
   05:57:07.800.27-Mar-2021 3467.51 4884.60 60.09 4.00  55.80 3208.79
   05:57:08.000.27-Mar-2021 3467.51 4888.44 60.09 4.00  56.00 3208.79
   05:57:08.200.27-Mar-2021 3467.51 4888.44 60.09 4.00  56.20 3208.79
   05:57:08.400.27-Mar-2021 3467.51 4866.94 60.08 4.00  56.40 3208.79
   05:57:08.600.27-Mar-2021 3467.51 4857.34 60.08 4.00  56.60 3208.79
   05:57:08.800.27-Mar-2021 3467.51 4859.60 60.08 4.00  56.80 3208.79
   05:57:09.000.27-Mar-2021 3467.51 4884.36 60.08 4.00  57.00 3208.79
   05:57:09.200.27-Mar-2021 3467.51 4884.36 60.08 4.00  57.20 3208.79
   05:57:09.400.27-Mar-2021 3467.51 5008.08 60.08 4.00  57.40 3208.79
   05:57:09.600.27-Mar-2021 3467.51 5006.59 60.08 4.00  57.60 3208.79
   05:57:09.800.27-Mar-2021 3467.51 5006.27 60.08 4.00  57.80 3208.79
   05:57:10.000.27-Mar-2021 3467.51 5008.88 60.07 4.00  58.00 3208.79
   05:57:10.200.27-Mar-2021 3467.51 5008.88 60.07 4.00  58.20 3208.79
   05:57:10.400.27-Mar-2021 3467.51 5010.36 60.07 4.00  58.40 3208.79
   05:57:10.600.27-Mar-2021 3467.51 5026.62 60.07 4.00  58.60 3208.79
   05:57:10.800.27-Mar-2021 3467.51 5133.18 60.07 4.00  58.80 3208.79
   05:57:11.000.27-Mar-2021 3467.51 5140.09 60.07 4.00  59.00 3208.79
   05:57:11.200.27-Mar-2021 3467.51 5140.09 60.07 4.00  59.20 3208.79
   05:57:11.400.27-Mar-2021 3467.51 5140.59 60.07 4.00  59.40 3208.79
   05:57:11.600.27-Mar-2021 3467.51 5140.57 60.07 4.00  59.60 3208.79
   05:57:11.800.27-Mar-2021 3467.51 5140.59 60.07 4.00  59.80 3208.79
   05:57:12.000.27-Mar-2021 3467.51 5140.64 60.07 4.00  60.00 3208.79
   05:57:12.200.27-Mar-2021 3467.51 5140.64 60.07 4.00  60.20 3208.79
   05:57:12.400.27-Mar-2021 3467.51 5140.77 60.07 4.00  60.40 3208.79
   05:57:12.600.27-Mar-2021 3467.51 5140.80 60.07 4.00  60.60 3208.79
   05:57:12.800.27-Mar-2021 3467.51 5140.85 60.07 4.00  60.80 3208.79
   05:57:13.000.27-Mar-2021 3467.51 5140.81 60.07 4.00  61.00 3208.79
   05:57:13.200.27-Mar-2021 3467.51 5140.81 60.07 4.00  61.20 3208.79
   05:57:13.400.27-Mar-2021 3467.51 5140.92 60.06 4.00  61.40 3208.79
   05:57:13.600.27-Mar-2021 3467.51 5140.88 60.06 4.00  61.60 3208.79
   05:57:13.800.27-Mar-2021 3467.51 5140.94 60.06 4.00  61.80 3208.79
   05:57:14.000.27-Mar-2021 3467.51 5140.96 60.06 4.00  62.00 3208.79
   05:57:14.200.27-Mar-2021 3467.51 5140.96 60.06 4.00  62.20 3208.79
   05:57:14.400.27-Mar-2021 3467.51 5140.91 60.06 4.00  62.40 3208.79
   05:57:14.600.27-Mar-2021 3467.51 5141.00 60.06 4.00  62.60 3208.79
   05:57:14.800.27-Mar-2021 3467.51 5140.96 60.06 4.00  62.80 3208.79
   05:57:15.000.27-Mar-2021 3467.51 5140.97 60.06 4.00  63.00 3208.79
   05:57:15.200.27-Mar-2021 3467.51 5140.97 60.06 4.00  63.20 3208.79
   05:57:15.400.27-Mar-2021 3467.51 5140.99 60.06 4.00  63.40 3208.79
   05:57:15.600.27-Mar-2021 3467.51 5141.03 60.06 4.00  63.60 3208.79
   05:57:15.800.27-Mar-2021 3467.51 5141.02 60.06 4.00  63.80 3208.79
   05:57:16.000.27-Mar-2021 3467.51 5141.02 60.06 4.00  64.00 3208.79
   05:57:16.200.27-Mar-2021 3467.51 5141.02 60.06 4.00  64.20 3208.79
   05:57:16.400.27-Mar-2021 3467.51 5141.02 60.06 4.00  64.40 3208.79
   05:57:16.600.27-Mar-2021 3467.51 5141.04 60.06 4.00  64.60 3208.79
   05:57:16.800.27-Mar-2021 3467.51 5141.08 60.06 4.00  64.80 3208.79
   05:57:17.000.27-Mar-2021 3467.51 5140.97 60.06 4.00  65.00 3208.79
   05:57:17.200.27-Mar-2021 3467.51 5140.97 60.06 4.00  65.20 3208.79
   05:57:17.400.27-Mar-2021 3467.51 5141.01 60.06 4.00  65.40 3208.79
   05:57:17.600.27-Mar-2021 3467.51 5140.97 60.06 4.00  65.60 3208.79
   05:57:17.800.27-Mar-2021 3467.51 5141.12 60.06 4.00  65.80 3208.79
   05:57:18.000.27-Mar-2021 3467.51 5141.08 60.06 4.00  66.00 3208.79
   05:57:18.200.27-Mar-2021 3467.51 5141.08 60.06 4.00  66.20 3208.79
   05:57:18.400.27-Mar-2021 3467.51 5141.06 60.06 4.00  66.40 3208.79
   05:57:18.600.27-Mar-2021 3467.51 5141.04 60.06 4.00  66.60 3208.79
   05:57:18.800.27-Mar-2021 3467.51 5140.87 60.06 4.00  66.80 3208.79
   05:57:19.000.27-Mar-2021 3467.51 5141.27 60.06 4.00  67.00 3208.79
   05:57:19.200.27-Mar-2021 3467.51 5141.27 60.06 4.00  67.20 3208.79
   05:57:19.400.27-Mar-2021 3467.51 5141.11 60.07 4.00  67.40 3208.79
   05:57:19.600.27-Mar-2021 3467.51 5141.04 60.07 4.00  67.60 3208.79
   05:57:19.800.27-Mar-2021 3467.51 5141.02 60.07 4.00  67.80 3208.79
   05:57:20.000.27-Mar-2021 3467.51 5141.06 60.07 4.00  68.00 3208.79
   05:57:20.200.27-Mar-2021 3467.51 5141.06 60.07 4.00  68.20 3208.79
   05:57:20.400.27-Mar-2021 3467.51 5141.09 60.07 4.00  68.40 3208.79
   05:57:20.600.27-Mar-2021 3467.51 5141.06 60.07 4.00  68.60 3208.79
   05:57:20.800.27-Mar-2021 3467.51 5141.06 60.07 4.00  68.80 3208.79
