~Version Information
 VERS.                  2.0:   CWLS log ASCII Standard -VERSION 2.0
 WRAP.                   NO:   One line per depth step
~Well Information Block
#MNEM.UNIT     VALUE/NAME     DESCRIPTION
#---------     -----------    ---------------------------
 STRT.S             06:42:15 27-Mar-21: START TIME 06:42:15 27-Mar-21
 STOP.S             06:49:25 27-Mar-21: STOP TIME  06:49:25 27-Mar-21
 STEP.S                   0.00: STEP TIME
 NULL.                 -999.25: NULL VALUE
 DFWT.                        :  DIST FWL TEXT
 DFST.                        :  DIST FSL TEXT
 DMF .             Drill Floor:  DRILL MEAS FROM
 STIM.      20.26.40 11-Mar-21:  START TIME
 DATE.      20.26.40 30-Mar-21:  END TIME
 SPUD.               11-Mar-21:  SPUD DATE
 NREF.                    Grid:  NORTH REFERENCE
 HPTY.       Minimum Curvature:  HOLE POS TYPE
 DMOD.             Drill Model:  DRILL MOD DESC
 SVYD.                  Survey:  SURVEY DESC
 ILTD.               Lithology:  INTERP LTH DESC
 FTOP.          Formation Tops:  FORM TOPS DESC
 SON .        AZ-XX-0906805385:  JOB NUMBER
 WTYP.                Deviated:  WELL TYPE
 COMP.     BP Exploration (Caspian Sea) Ltd.:  COMPANY
 UWI .            /AZE00000198:  UNIQUE WELL IDENTIFIER
 API .            /AZE00000198:  API NUMBER
 BASE.              Azerbaijan:  LOGGING EQUIPMENT BASE LOCATION
 REGN.                   EESSA:  REGION
 PROV.                    Baku:  PROVINCE
 STAT.                    Baku:  STATE NAME
 CTRY.              Azerbaijan:  COUNTRY NAME
 FLD .                     ACG:  FIELD NAME
 SRVC.     Turan Drilling & Engineering:  CONTRACTOR
 MWDS.                    Baku:  MWD SHOP
 WELL.                    D09z:  WELL NAME
 JOBN.        AZ-XX-0906805385:  JOB TICKET NUMB
 RIG .              East Azeri:  RIG NAME
 DOE .                     N/A:  DOE NUMBER
 DCON.         Sperry Drilling:  DIRECTNL CONTR
 UNIT.                     N/A:  LOGGING EQUIPMENT ID
 PDAT.          Mean Sea Level:  PERMANENT DATUM
 MDS .        Operator Entered:  MAG DATA SOURCE
 CNTY.                        :  COUNTY
 LOC .                        :  LOCATION
 LMF .             Drill Floor:  LOG MEASURED FROM
 TVDS.m                  43.60:  TVDSS CORRECTN
 LATI.deg                40.02:  LATITUDE
 LONG.deg                51.45:  LONGITUDE
 WHNS.m                 -17.04:  WELL HEAD N/S
 WHEW.m                  -6.28:  WELL HEAD E/W
 UTMX.m              538763.98:  UTM X
 UTMY.m             4431880.20:  UTM Y
 DFWL.m                   0.00:  DISTANCE FWL
 DFSL.m                   0.00:  DISTANCE FSL
 SDEP.m                2680.01:  START DEPTH
 TDD .m                4000.01:  TOTAL DEPTH (DRILLER)
 VSDR.deg               225.71:  VERT SEC DIRECT
 GVFD.g                   1.00:  GRAVITY FIELD
 MFLD.nT              50353.00:  MAGNETIC FIELD
 MDIP.deg                59.49:  MAGNETIC DIP
 MDEC.deg                 6.46:  MAGNETIC DECL
 GRDC.deg                 0.29:  GRID CORRECTION
 AZTC.deg                 6.17:  AZM TOTAL CORR
 EPD .m                   0.00:  ELEVATION
 EGL .m                   0.00:  GROUND ELEVATION
 WDMS.m                 151.80:  WD ELEV
 APD .m                  43.60:  DEPTH ABOVE PD
 AGAP.m                  43.60:  AIR GAP
 VSEW.m                  -6.28:  VERT SEC E/W
 VSNS.m                 -17.04:  VERT SEC N/S
 DEP .m                2656.31:  DEPTH
 EKB .m                  43.60:  KB ELEVATION
 EDF .m                  43.60:  DF ELEVATION
 VSC .                       0:  VS TO CLOSURE
 MAGU.                 1851247:  MAGUTM CHECKSUM
~Parameter Information Block
#MNEM.UNIT       Value        Description
#---------     -----------    ---------------------------
 AV  .mps                 3.00:  Ann Velocity 
 AVMX.mps                 8.00:  Max Ann Veloc 
 AZIF.deg                 0.00:  Azm, Final 
 BHAT.                   Other:  BHA Type 
 BREV.rev                 0.00:  Rev Bit Total 
 BROT.°/30m               0.00:  Build Rotating 
 BS  .in                 10.25:  Bit Size 
 BTPL.psig              511.00:  Bit Press Loss 
 CABU.                      No:  Customer Abuse 
 CGEO.           Asif Pashayev:  Customer Geo 
 COMM.                     lÇi:  Run Comments 1 
 TCS .hr                 24.03:  Time Ciculation Ended 
 CV  .mps                 3.50:  Crit Velocity 
 CVMX.mps                 4.00:  Max Crit Veloc 
 DD1 .             Aziz Aliyev:  Direct Drillr 1 
 DD2 .      Fakhraddin Guliyev:  Direct Drillr 2 
 DDSV.                   Other:  DD Service 
 DEFF.%                  99.00:  % Det Eff 
 DLRX.°/30m               0.00:  Dogleg Rot Max 
 DLSO.°/30m               0.00:  Dogleg Oriented 
 DLSX.°/30m               0.00:  Dogleg Str Max 
 DRET.      23.00.40 28-Mar-21:  Drill End Time 
 DRST.      23.30.40 25-Mar-21:  Drill Start Tim 
 DTIM.hr                  0.00:  Time Drilling 
 EDEP.m                3886.01:  End Depth 
 ENG1.         Almaz Almadatov:  Engineer 1 
 ENG2.      Artemiy Matviyanov:  Engineer 2 
 ENG3.           Samir Gafarov:  Engineer 3 
 ETIM.      23.00.40 28-Mar-21:  End Time 
 FLOI.gpm               550.00:  Flow In 
 FLON.gpm               500.00:  Flow In Min 
 FLOS.cptm                0.00:  Fluid Loss 
 FLOX.gpm               590.00:  Flow In Max 
 HFLO.                      No:  High Flow 
 HPRE.                      No:  High Pressure 
 HTEM.                      No:  High Temp 
 HYDO.m                   1.80:  Hydro Offset 
 IFIN.deg                 0.00:  Inc, Final 
 IMAX.deg                 0.00:  Inc Max 
 IMIN.deg                 0.00:  Inc Min 
 IMND.m                   0.00:  Inc Min Depth 
 IMXD.m                   0.00:  Inc Max Depth 
 JARR.                      No:  Jarring 
 LETM.      03.22.40 28-Mar-21:  Log End Time 
 LOST.hr                     0:  Lost Rig Time 
 LSTM.      23.30.40 25-Mar-21:  Log Start Time 
 MDCL.ppm             34000.00:  Mud Chlorides 
 MDES.     Inversion Oil/Synthetic:  Mud Desc 
 DFD .sg                  1.51:  Mud Density 
 MDMN.sg                  1.51:  Dens Mud Min 
 MDMX.sg                  1.51:  Dens Mud Max 
 MOIL.                      70:  Run Mud Oil % 
 MOWR.                   70:30:  Run Mud OWR 
 MSND.                     0.2:  Run Mud Sand % 
 MSOL.                   21.60:  Run Mud Solids% 
 DFV .spqt               74.00:  Mud Viscosity 
 MWOD.in                  6.75:  MWD Tool OD 
 MWSI.                      No:  Serv Intrp, MWD 
 OTIM.hr                 69.09:  Time Operating 
 PCON.           Look Like New:  Pad Condition 
 PMAX.psia             3500.00:  Press Op, Max 
 PV  .cP                 70.00:  Mud PV 
 RUN .                     400:  Run Number 
 ROPA.m/hr                0.00:  ROP Avg 
 ROPN.m/hr                0.00:  ROP Min 
 ROPX.m/hr                0.00:  ROP Max 
 RPMA.rpm                80.00:  RPM Surface Avg 
 RPMN.rpm                10.00:  RPM Surface Min 
 RPMX.rpm               100.00:  RPM Surface Max 
 RRUN.                    0400:  Rig Run Number 
 RTIM.hr                  3.00:  Time Reaming 
 SAZI.deg                 0.00:  Azm, Start 
 SDEP.m                3886.01:  Start Depth 
 SIDD.                      No:  Serv Intrp, DD 
 SINC.deg                 0.00:  Inc, Start 
 SPPA.psig             3270.00:  SPP Avg 
 SPPN.psig             3220.00:  SPP Min 
 SPPX.psig             4430.00:  SPP Max 
 STIM.      23.30.40 25-Mar-21:  Start Time 
 SVCS.                 DD, MWD:  Services 
 SVER.                    9.20:  Sperry Version 
 TDAT.m                   0.00:  Tot Depth Attmp 
 TDDF.                      No:  Trip for DD 
 TFF .                      No:  Trip for Fail 
 TQAA.f-kp                8.00:  Torque Abs Avg 
 TQAN.f-kp                7.00:  Torque Abs Min 
 TQAX.f-kp               11.00:  Torque Abs Max 
 TRRT.°/30m               0.00:  Turn Rotating 
 MRT .                  EWR-M5:  Maximum Recorded Temperature 
 TTMX.degC               76.47:  Max Tool Temp 
 VS01.                90640857:  Virtual Str1 SN 
 VS02.                90639246:  Virtual Str2 SN 
 VS03.                90642265:  Virtual Str3 SN 
 VS04.                11654497:  Virtual Str4 SN 
 WBMN.klb                 0.00:  WOB Min 
 WITN.      Kamran Keberlinkiy:  Customer Rep 
 WITN.           Murad Guliyev:  Customer Rep 2 
 WOBA.klb                 0.00:  WOB Avg 
 WOBX.klb                 0.00:  WOB Max 
 YP  .lhf2               36.00:  Yield Point 
~Curve Information Block
#MNEM.UNIT                 API CODE     Curve Description
#---------               -----------    ---------------------------
 TIME.HHMMSS            00 000 000 000:  GT Time & Date
 GTDEPTH.m              00 000 000 000:  GT Depth
 GTPQH.psia             00 000 000 000:  GT HR Quartz Pressure
 GTTQ.degC              00 000 000 000:  GT Quartz Temperature
 GTTN.NONE              00 000 000 000:  GT Test Number
 GTET.sec               00 000 000 000:  GT Elapsed Test Time
 GTTVD.m                00 000 000 000:  GT True Vertical Depth
#Other Information
#
#WARRANTY: Halliburton will use its best efforts to furnish customers with 
#accurate information and interpretations that are part of, and incident to, the services 
#provided.  However, Halliburton cannot and does not warrant the accuracy 
#or correctness of such information and interpretations.  Under no circumstances should any 
#such information or interpretation be relied upon as the sole basis for any drilling, 
#completion, production, or financial decision or any procedure involving any risk to the 
#safety of any drilling venture, drilling rig or its crew or any other third party.  The 
#Customer has full responsibility for all drilling, completion and production operation.  
#Halliburton makes no representations or warranties, either expressed or 
#implied, including, but not limited to, the implied warranties of merchantability or fitness 
#for a particular purpose, with respect to the services rendered.  In no event will 
#Halliburton be liable for failure to obtain any particular results or for 
#any damages, including, but not limited to, indirect, special or consequential damages, 
#resulting from the use of any information or interpretation provided by Halliburton.
#
~A           TIME           GTDEPTH  GTPQH  GTTQ  GTTN  GTET   GTTVD  
# ...
   06:49:09.326.27-Mar-2021 3443.51 7427.63 60.39 5.00 414.10 3186.30
   06:49:09.526.27-Mar-2021 3443.51 7427.63 60.39 5.00 414.30 3186.30
   06:49:09.726.27-Mar-2021 3443.51 7429.56 60.39 5.00 414.50 3186.30
   06:49:09.926.27-Mar-2021 3443.51 7429.56 60.39 5.00 414.70 3186.30
   06:49:10.126.27-Mar-2021 3443.51 7426.80 60.39 5.00 414.90 3186.30
   06:49:10.326.27-Mar-2021 3443.51 7428.08 60.39 5.00 415.10 3186.30
   06:49:10.526.27-Mar-2021 3443.51 7428.08 60.39 5.00 415.30 3186.30
   06:49:10.726.27-Mar-2021 3443.51 7431.82 60.39 5.00 415.50 3186.30
   06:49:10.926.27-Mar-2021 3443.51 7426.50 60.39 5.00 415.70 3186.30
   06:49:11.126.27-Mar-2021 3443.51 7427.99 60.39 5.00 415.90 3186.30
   06:49:11.326.27-Mar-2021 3443.51 7427.71 60.39 5.00 416.10 3186.30
   06:49:11.526.27-Mar-2021 3443.51 7427.71 60.39 5.00 416.30 3186.30
   06:49:11.726.27-Mar-2021 3443.51 7428.08 60.39 5.00 416.50 3186.30
   06:49:11.926.27-Mar-2021 3443.51 7427.51 60.39 5.00 416.70 3186.30
   06:49:12.126.27-Mar-2021 3443.51 7431.66 60.39 5.00 416.90 3186.30
   06:49:12.327.27-Mar-2021 3443.51 7427.73 60.39 5.00 417.10 3186.30
   06:49:12.527.27-Mar-2021 3443.51 7427.73 60.39 5.00 417.30 3186.30
   06:49:12.727.27-Mar-2021 3443.51 7429.16 60.39 5.00 417.50 3186.30
   06:49:12.927.27-Mar-2021 3443.51 7428.80 60.39 5.00 417.70 3186.30
   06:49:13.127.27-Mar-2021 3443.51 7428.21 60.39 5.00 417.90 3186.30
   06:49:13.327.27-Mar-2021 3443.51 7427.73 60.39 5.00 418.10 3186.30
   06:49:13.527.27-Mar-2021 3443.51 7427.73 60.39 5.00 418.30 3186.30
   06:49:13.727.27-Mar-2021 3443.51 7427.21 60.39 5.00 418.50 3186.30
   06:49:13.927.27-Mar-2021 3443.51 7428.12 60.39 5.00 418.70 3186.30
   06:49:14.127.27-Mar-2021 3443.51 7427.62 60.39 5.00 418.90 3186.30
   06:49:14.327.27-Mar-2021 3443.51 7427.57 60.39 5.00 419.10 3186.30
   06:49:14.527.27-Mar-2021 3443.51 7427.57 60.39 5.00 419.30 3186.30
   06:49:14.727.27-Mar-2021 3443.51 7427.85 60.39 5.00 419.50 3186.30
   06:49:14.927.27-Mar-2021 3443.51 7427.72 60.39 5.00 419.70 3186.30
   06:49:15.127.27-Mar-2021 3443.51 7427.88 60.39 5.00 419.90 3186.30
   06:49:15.327.27-Mar-2021 3443.51 7429.73 60.39 5.00 420.10 3186.30
   06:49:15.527.27-Mar-2021 3443.51 7429.73 60.39 5.00 420.30 3186.30
   06:49:15.727.27-Mar-2021 3443.51 7427.66 60.39 5.00 420.50 3186.30
   06:49:15.927.27-Mar-2021 3443.51 7428.55 60.39 5.00 420.70 3186.30
   06:49:16.127.27-Mar-2021 3443.51 7427.90 60.39 5.00 420.90 3186.30
   06:49:16.328.27-Mar-2021 3443.51 7427.83 60.39 5.00 421.10 3186.30
   06:49:16.528.27-Mar-2021 3443.51 7427.83 60.39 5.00 421.30 3186.30
   06:49:16.728.27-Mar-2021 3443.51 7427.48 60.39 5.00 421.50 3186.30
   06:49:16.928.27-Mar-2021 3443.51 7427.07 60.39 5.00 421.71 3186.30
   06:49:17.128.27-Mar-2021 3443.51 7427.45 60.39 5.00 421.91 3186.30
   06:49:17.328.27-Mar-2021 3443.51 7427.35 60.39 5.00 422.11 3186.30
   06:49:17.528.27-Mar-2021 3443.51 7427.35 60.39 5.00 422.31 3186.30
   06:49:17.728.27-Mar-2021 3443.51 7427.37 60.39 5.00 422.51 3186.30
   06:49:17.928.27-Mar-2021 3443.51 7427.49 60.39 5.00 422.71 3186.30
   06:49:18.128.27-Mar-2021 3443.51 7431.82 60.39 5.00 422.91 3186.30
   06:49:18.328.27-Mar-2021 3443.51 7426.80 60.39 5.00 423.11 3186.30
   06:49:18.528.27-Mar-2021 3443.51 7426.80 60.39 5.00 423.31 3186.30
   06:49:18.728.27-Mar-2021 3443.51 7428.06 60.39 5.00 423.51 3186.30
   06:49:18.928.27-Mar-2021 3443.51 7429.82 60.39 5.00 423.71 3186.30
   06:49:19.128.27-Mar-2021 3443.51 7429.40 60.39 5.00 423.91 3186.30
   06:49:19.328.27-Mar-2021 3443.51 7426.86 60.39 5.00 424.11 3186.30
   06:49:19.528.27-Mar-2021 3443.51 7426.86 60.39 5.00 424.31 3186.30
   06:49:19.728.27-Mar-2021 3443.51 7427.55 60.39 5.00 424.51 3186.30
   06:49:19.928.27-Mar-2021 3443.51 7431.93 60.39 5.00 424.71 3186.30
   06:49:20.128.27-Mar-2021 3443.51 7427.34 60.39 5.00 424.91 3186.30
   06:49:20.329.27-Mar-2021 3443.51 7428.69 60.39 5.00 425.11 3186.30
   06:49:20.529.27-Mar-2021 3443.51 7428.69 60.39 5.00 425.31 3186.30
   06:49:20.729.27-Mar-2021 3443.51 7429.54 60.39 5.00 425.51 3186.30
   06:49:20.929.27-Mar-2021 3443.51 7427.93 60.39 5.00 425.71 3186.30
   06:49:21.129.27-Mar-2021 3443.51 7428.18 60.39 5.00 425.91 3186.30
   06:49:21.329.27-Mar-2021 3443.51 7432.22 60.39 5.00 426.11 3186.30
   06:49:21.529.27-Mar-2021 3443.51 7432.22 60.39 5.00 426.31 3186.30
   06:49:21.729.27-Mar-2021 3443.51 7428.82 60.39 5.00 426.51 3186.30
   06:49:21.929.27-Mar-2021 3443.51 7428.95 60.39 5.00 426.71 3186.30
   06:49:22.129.27-Mar-2021 3443.51 7428.94 60.39 5.00 426.91 3186.30
   06:49:22.329.27-Mar-2021 3443.51 7428.91 60.39 5.00 427.11 3186.30
   06:49:22.529.27-Mar-2021 3443.51 7428.91 60.39 5.00 427.31 3186.30
   06:49:22.729.27-Mar-2021 3443.51 7427.79 60.39 5.00 427.51 3186.30
   06:49:22.929.27-Mar-2021 3443.51 7427.27 60.39 5.00 427.71 3186.30
   06:49:23.129.27-Mar-2021 3443.51 7427.27 60.39 5.00 427.91 3186.30
   06:49:23.329.27-Mar-2021 3443.51 7427.54 60.39 5.00 428.11 3186.30
   06:49:23.529.27-Mar-2021 3443.51 7427.54 60.39 5.00 428.31 3186.30
   06:49:23.729.27-Mar-2021 3443.51 7427.71 60.39 5.00 428.51 3186.30
   06:49:23.929.27-Mar-2021 3443.51 7427.92 60.39 5.00 428.71 3186.30
   06:49:24.129.27-Mar-2021 3443.51 7428.12 60.39 5.00 428.91 3186.30
   06:49:24.330.27-Mar-2021 3443.51 7427.96 60.39 5.00 429.11 3186.30
   06:49:24.530.27-Mar-2021 3443.51 7427.96 60.39 5.00 429.31 3186.30
   06:49:24.730.27-Mar-2021 3443.51 7430.94 60.39 5.00 429.51 3186.30
   06:49:24.930.27-Mar-2021 3443.51 7427.88 60.39 5.00 429.71 3186.30
   06:49:25.130.27-Mar-2021 3443.51 7428.49 60.39 5.00 429.91 3186.30
