~Version Information
 VERS.                  2.0:   CWLS log ASCII Standard -VERSION 2.0
 WRAP.                   NO:   One line per depth step
~Well Information Block
#MNEM.UNIT     VALUE/NAME     DESCRIPTION
#---------     -----------    ---------------------------
 STRT.S             11:05:10 27-Mar-21: START TIME 11:05:10 27-Mar-21
 STOP.S             11:12:21 27-Mar-21: STOP TIME  11:12:21 27-Mar-21
 STEP.S                   0.00: STEP TIME
 NULL.                 -999.25: NULL VALUE
 DFWT.                        :  DIST FWL TEXT
 DFST.                        :  DIST FSL TEXT
 DMF .             Drill Floor:  DRILL MEAS FROM
 STIM.      20.26.40 11-Mar-21:  START TIME
 DATE.      20.26.40 30-Mar-21:  END TIME
 SPUD.               11-Mar-21:  SPUD DATE
 NREF.                    Grid:  NORTH REFERENCE
 HPTY.       Minimum Curvature:  HOLE POS TYPE
 DMOD.             Drill Model:  DRILL MOD DESC
 SVYD.                  Survey:  SURVEY DESC
 ILTD.               Lithology:  INTERP LTH DESC
 FTOP.          Formation Tops:  FORM TOPS DESC
 SON .        AZ-XX-0906805385:  JOB NUMBER
 WTYP.                Deviated:  WELL TYPE
 COMP.     BP Exploration (Caspian Sea) Ltd.:  COMPANY
 UWI .            /AZE00000198:  UNIQUE WELL IDENTIFIER
 API .            /AZE00000198:  API NUMBER
 BASE.              Azerbaijan:  LOGGING EQUIPMENT BASE LOCATION
 REGN.                   EESSA:  REGION
 PROV.                    Baku:  PROVINCE
 STAT.                    Baku:  STATE NAME
 CTRY.              Azerbaijan:  COUNTRY NAME
 FLD .                     ACG:  FIELD NAME
 SRVC.     Turan Drilling & Engineering:  CONTRACTOR
 MWDS.                    Baku:  MWD SHOP
 WELL.                    D09z:  WELL NAME
 JOBN.        AZ-XX-0906805385:  JOB TICKET NUMB
 RIG .              East Azeri:  RIG NAME
 DOE .                     N/A:  DOE NUMBER
 DCON.         Sperry Drilling:  DIRECTNL CONTR
 UNIT.                     N/A:  LOGGING EQUIPMENT ID
 PDAT.          Mean Sea Level:  PERMANENT DATUM
 MDS .        Operator Entered:  MAG DATA SOURCE
 CNTY.                        :  COUNTY
 LOC .                        :  LOCATION
 LMF .             Drill Floor:  LOG MEASURED FROM
 TVDS.m                  43.60:  TVDSS CORRECTN
 LATI.deg                40.02:  LATITUDE
 LONG.deg                51.45:  LONGITUDE
 WHNS.m                 -17.04:  WELL HEAD N/S
 WHEW.m                  -6.28:  WELL HEAD E/W
 UTMX.m              538763.98:  UTM X
 UTMY.m             4431880.20:  UTM Y
 DFWL.m                   0.00:  DISTANCE FWL
 DFSL.m                   0.00:  DISTANCE FSL
 SDEP.m                2680.01:  START DEPTH
 TDD .m                4000.01:  TOTAL DEPTH (DRILLER)
 VSDR.deg               225.71:  VERT SEC DIRECT
 GVFD.g                   1.00:  GRAVITY FIELD
 MFLD.nT              50353.00:  MAGNETIC FIELD
 MDIP.deg                59.49:  MAGNETIC DIP
 MDEC.deg                 6.46:  MAGNETIC DECL
 GRDC.deg                 0.29:  GRID CORRECTION
 AZTC.deg                 6.17:  AZM TOTAL CORR
 EPD .m                   0.00:  ELEVATION
 EGL .m                   0.00:  GROUND ELEVATION
 WDMS.m                 151.80:  WD ELEV
 APD .m                  43.60:  DEPTH ABOVE PD
 AGAP.m                  43.60:  AIR GAP
 VSEW.m                  -6.28:  VERT SEC E/W
 VSNS.m                 -17.04:  VERT SEC N/S
 DEP .m                2656.31:  DEPTH
 EKB .m                  43.60:  KB ELEVATION
 EDF .m                  43.60:  DF ELEVATION
 VSC .                       0:  VS TO CLOSURE
 MAGU.                 1851247:  MAGUTM CHECKSUM
~Parameter Information Block
#MNEM.UNIT       Value        Description
#---------     -----------    ---------------------------
 AV  .mps                 3.00:  Ann Velocity 
 AVMX.mps                 8.00:  Max Ann Veloc 
 AZIF.deg                 0.00:  Azm, Final 
 BHAT.                   Other:  BHA Type 
 BREV.rev                 0.00:  Rev Bit Total 
 BROT.°/30m               0.00:  Build Rotating 
 BS  .in                 10.25:  Bit Size 
 BTPL.psig              511.00:  Bit Press Loss 
 CABU.                      No:  Customer Abuse 
 CGEO.           Asif Pashayev:  Customer Geo 
 COMM.                     $Ml:  Run Comments 1 
 TCS .hr                 24.03:  Time Ciculation Ended 
 CV  .mps                 3.50:  Crit Velocity 
 CVMX.mps                 4.00:  Max Crit Veloc 
 DD1 .             Aziz Aliyev:  Direct Drillr 1 
 DD2 .      Fakhraddin Guliyev:  Direct Drillr 2 
 DDSV.                   Other:  DD Service 
 DEFF.%                  99.00:  % Det Eff 
 DLRX.°/30m               0.00:  Dogleg Rot Max 
 DLSO.°/30m               0.00:  Dogleg Oriented 
 DLSX.°/30m               0.00:  Dogleg Str Max 
 DRET.      23.00.40 28-Mar-21:  Drill End Time 
 DRST.      23.30.40 25-Mar-21:  Drill Start Tim 
 DTIM.hr                  0.00:  Time Drilling 
 EDEP.m                3886.01:  End Depth 
 ENG1.         Almaz Almadatov:  Engineer 1 
 ENG2.      Artemiy Matviyanov:  Engineer 2 
 ENG3.           Samir Gafarov:  Engineer 3 
 ETIM.      23.00.40 28-Mar-21:  End Time 
 FLOI.gpm               550.00:  Flow In 
 FLON.gpm               500.00:  Flow In Min 
 FLOS.cptm                0.00:  Fluid Loss 
 FLOX.gpm               590.00:  Flow In Max 
 HFLO.                      No:  High Flow 
 HPRE.                      No:  High Pressure 
 HTEM.                      No:  High Temp 
 HYDO.m                   1.80:  Hydro Offset 
 IFIN.deg                 0.00:  Inc, Final 
 IMAX.deg                 0.00:  Inc Max 
 IMIN.deg                 0.00:  Inc Min 
 IMND.m                   0.00:  Inc Min Depth 
 IMXD.m                   0.00:  Inc Max Depth 
 JARR.                      No:  Jarring 
 LETM.      03.22.40 28-Mar-21:  Log End Time 
 LOST.hr                     0:  Lost Rig Time 
 LSTM.      23.30.40 25-Mar-21:  Log Start Time 
 MDCL.ppm             34000.00:  Mud Chlorides 
 MDES.     Inversion Oil/Synthetic:  Mud Desc 
 DFD .sg                  1.51:  Mud Density 
 MDMN.sg                  1.51:  Dens Mud Min 
 MDMX.sg                  1.51:  Dens Mud Max 
 MOIL.                      70:  Run Mud Oil % 
 MOWR.                   70:30:  Run Mud OWR 
 MSND.                     0.2:  Run Mud Sand % 
 MSOL.                   21.60:  Run Mud Solids% 
 DFV .spqt               74.00:  Mud Viscosity 
 MWOD.in                  6.75:  MWD Tool OD 
 MWSI.                      No:  Serv Intrp, MWD 
 OTIM.hr                 69.09:  Time Operating 
 PCON.           Look Like New:  Pad Condition 
 PMAX.psia             3500.00:  Press Op, Max 
 PV  .cP                 70.00:  Mud PV 
 RUN .                     400:  Run Number 
 ROPA.m/hr                0.00:  ROP Avg 
 ROPN.m/hr                0.00:  ROP Min 
 ROPX.m/hr                0.00:  ROP Max 
 RPMA.rpm                80.00:  RPM Surface Avg 
 RPMN.rpm                10.00:  RPM Surface Min 
 RPMX.rpm               100.00:  RPM Surface Max 
 RRUN.                    0400:  Rig Run Number 
 RTIM.hr                  3.00:  Time Reaming 
 SAZI.deg                 0.00:  Azm, Start 
 SDEP.m                3886.01:  Start Depth 
 SIDD.                      No:  Serv Intrp, DD 
 SINC.deg                 0.00:  Inc, Start 
 SPPA.psig             3270.00:  SPP Avg 
 SPPN.psig             3220.00:  SPP Min 
 SPPX.psig             4430.00:  SPP Max 
 STIM.      23.30.40 25-Mar-21:  Start Time 
 SVCS.                 DD, MWD:  Services 
 SVER.                    9.20:  Sperry Version 
 TDAT.m                   0.00:  Tot Depth Attmp 
 TDDF.                      No:  Trip for DD 
 TFF .                      No:  Trip for Fail 
 TQAA.f-kp                8.00:  Torque Abs Avg 
 TQAN.f-kp                7.00:  Torque Abs Min 
 TQAX.f-kp               11.00:  Torque Abs Max 
 TRRT.°/30m               0.00:  Turn Rotating 
 MRT .                  EWR-M5:  Maximum Recorded Temperature 
 TTMX.degC               76.47:  Max Tool Temp 
 VS01.                90640857:  Virtual Str1 SN 
 VS02.                90639246:  Virtual Str2 SN 
 VS03.                90642265:  Virtual Str3 SN 
 VS04.                11654497:  Virtual Str4 SN 
 WBMN.klb                 0.00:  WOB Min 
 WITN.      Kamran Keberlinkiy:  Customer Rep 
 WITN.           Murad Guliyev:  Customer Rep 2 
 WOBA.klb                 0.00:  WOB Avg 
 WOBX.klb                 0.00:  WOB Max 
 YP  .lhf2               36.00:  Yield Point 
~Curve Information Block
#MNEM.UNIT                 API CODE     Curve Description
#---------               -----------    ---------------------------
 TIME.HHMMSS            00 000 000 000:  GT Time & Date
 GTDEPTH.m              00 000 000 000:  GT Depth
 GTPQH.psia             00 000 000 000:  GT HR Quartz Pressure
 GTTQ.degC              00 000 000 000:  GT Quartz Temperature
 GTTN.NONE              00 000 000 000:  GT Test Number
 GTET.sec               00 000 000 000:  GT Elapsed Test Time
 GTTVD.m                00 000 000 000:  GT True Vertical Depth
#Other Information
#
#WARRANTY: Halliburton will use its best efforts to furnish customers with 
#accurate information and interpretations that are part of, and incident to, the services 
#provided.  However, Halliburton cannot and does not warrant the accuracy 
#or correctness of such information and interpretations.  Under no circumstances should any 
#such information or interpretation be relied upon as the sole basis for any drilling, 
#completion, production, or financial decision or any procedure involving any risk to the 
#safety of any drilling venture, drilling rig or its crew or any other third party.  The 
#Customer has full responsibility for all drilling, completion and production operation.  
#Halliburton makes no representations or warranties, either expressed or 
#implied, including, but not limited to, the implied warranties of merchantability or fitness 
#for a particular purpose, with respect to the services rendered.  In no event will 
#Halliburton be liable for failure to obtain any particular results or for 
#any damages, including, but not limited to, indirect, special or consequential damages, 
#resulting from the use of any information or interpretation provided by Halliburton.
#
~A           TIME           GTDEPTH  GTPQH  GTTQ  GTTN   GTET   GTTVD  
# ...
   11:10:26.701.27-Mar-2021 3279.01 4782.54 61.26 11.00 316.47 3032.17
   11:10:26.901.27-Mar-2021 3279.01 4782.50 61.26 11.00 316.67 3032.17
   11:10:27.101.27-Mar-2021 3279.01 4782.23 61.26 11.00 316.87 3032.17
   11:10:27.301.27-Mar-2021 3279.01 4782.33 61.26 11.00 317.07 3032.17
   11:10:27.501.27-Mar-2021 3279.01 4782.33 61.26 11.00 317.27 3032.17
   11:10:27.701.27-Mar-2021 3279.01 4782.21 61.26 11.00 317.47 3032.17
   11:10:27.901.27-Mar-2021 3279.01 4782.10 61.26 11.00 317.67 3032.17
   11:10:28.101.27-Mar-2021 3279.01 4782.22 61.26 11.00 317.87 3032.17
   11:10:28.301.27-Mar-2021 3279.01 4782.36 61.26 11.00 318.07 3032.17
   11:10:28.501.27-Mar-2021 3279.01 4782.36 61.26 11.00 318.27 3032.17
   11:10:28.701.27-Mar-2021 3279.01 4782.16 61.26 11.00 318.47 3032.17
   11:10:28.901.27-Mar-2021 3279.01 4781.90 61.26 11.00 318.67 3032.17
   11:10:29.101.27-Mar-2021 3279.01 4782.12 61.26 11.00 318.87 3032.17
   11:10:29.301.27-Mar-2021 3279.01 4782.58 61.26 11.00 319.07 3032.17
   11:10:29.502.27-Mar-2021 3279.01 4782.58 61.26 11.00 319.27 3032.17
   11:10:29.702.27-Mar-2021 3279.01 4782.09 61.26 11.00 319.47 3032.17
   11:10:29.902.27-Mar-2021 3279.01 4782.80 61.26 11.00 319.67 3032.17
   11:10:30.102.27-Mar-2021 3279.01 4782.33 61.26 11.00 319.87 3032.17
   11:10:30.302.27-Mar-2021 3279.01 4782.02 61.26 11.00 320.07 3032.17
   11:10:30.502.27-Mar-2021 3279.01 4782.02 61.26 11.00 320.27 3032.17
   11:10:30.702.27-Mar-2021 3279.01 4782.41 61.26 11.00 320.48 3032.17
   11:10:30.902.27-Mar-2021 3279.01 4782.23 61.26 11.00 320.68 3032.17
   11:10:31.102.27-Mar-2021 3279.01 4782.39 61.26 11.00 320.88 3032.17
   11:10:31.302.27-Mar-2021 3279.01 4782.37 61.26 11.00 321.08 3032.17
   11:10:31.502.27-Mar-2021 3279.01 4782.37 61.26 11.00 321.28 3032.17
   11:10:31.702.27-Mar-2021 3279.01 4782.00 61.26 11.00 321.48 3032.17
   11:10:31.902.27-Mar-2021 3279.01 4782.56 61.26 11.00 321.68 3032.17
   11:10:32.102.27-Mar-2021 3279.01 4781.81 61.26 11.00 321.88 3032.17
   11:10:32.302.27-Mar-2021 3279.01 4782.51 61.26 11.00 322.08 3032.17
   11:10:32.502.27-Mar-2021 3279.01 4782.51 61.26 11.00 322.28 3032.17
   11:10:32.702.27-Mar-2021 3279.01 4782.22 61.26 11.00 322.48 3032.17
   11:10:32.902.27-Mar-2021 3279.01 4781.90 61.26 11.00 322.68 3032.17
   11:10:33.102.27-Mar-2021 3279.01 4782.19 61.26 11.00 322.88 3032.17
   11:10:33.302.27-Mar-2021 3279.01 4782.23 61.26 11.00 323.08 3032.17
   11:10:33.502.27-Mar-2021 3279.01 4782.23 61.26 11.00 323.28 3032.17
   11:10:33.702.27-Mar-2021 3279.01 4782.57 61.26 11.00 323.48 3032.17
   11:10:33.903.27-Mar-2021 3279.01 4781.86 61.26 11.00 323.68 3032.17
   11:10:34.103.27-Mar-2021 3279.01 4781.87 61.26 11.00 323.88 3032.17
   11:10:34.303.27-Mar-2021 3279.01 4782.65 61.26 11.00 324.08 3032.17
   11:10:34.503.27-Mar-2021 3279.01 4782.65 61.26 11.00 324.28 3032.17
   11:10:34.703.27-Mar-2021 3279.01 4782.73 61.26 11.00 324.48 3032.17
   11:10:34.903.27-Mar-2021 3279.01 4782.35 61.26 11.00 324.68 3032.17
   11:10:35.103.27-Mar-2021 3279.01 4782.02 61.26 11.00 324.88 3032.17
   11:10:35.303.27-Mar-2021 3279.01 4782.39 61.26 11.00 325.08 3032.17
   11:10:35.503.27-Mar-2021 3279.01 4782.39 61.26 11.00 325.28 3032.17
   11:10:35.703.27-Mar-2021 3279.01 4781.87 61.26 11.00 325.48 3032.17
   11:10:35.903.27-Mar-2021 3279.01 4782.25 61.26 11.00 325.68 3032.17
   11:10:36.103.27-Mar-2021 3279.01 4781.20 61.26 11.00 325.88 3032.17
   11:10:36.303.27-Mar-2021 3279.01 4782.00 61.26 11.00 326.08 3032.17
   11:10:36.503.27-Mar-2021 3279.01 4782.00 61.26 11.00 326.28 3032.17
   11:10:36.703.27-Mar-2021 3279.01 4782.44 61.26 11.00 326.48 3032.17
   11:10:36.903.27-Mar-2021 3279.01 4782.32 61.26 11.00 326.68 3032.17
   11:10:37.103.27-Mar-2021 3279.01 4782.13 61.26 11.00 326.88 3032.17
   11:10:37.303.27-Mar-2021 3279.01 4782.42 61.26 11.00 327.08 3032.17
   11:10:37.503.27-Mar-2021 3279.01 4782.42 61.26 11.00 327.28 3032.17
   11:10:37.703.27-Mar-2021 3279.01 4782.33 61.26 11.00 327.48 3032.17
   11:10:37.903.27-Mar-2021 3279.01 4782.66 61.26 11.00 327.68 3032.17
   11:10:38.104.27-Mar-2021 3279.01 4782.63 61.26 11.00 327.88 3032.17
   11:10:38.304.27-Mar-2021 3279.01 4782.56 61.26 11.00 328.08 3032.17
   11:10:38.504.27-Mar-2021 3279.01 4782.56 61.26 11.00 328.28 3032.17
   11:10:38.704.27-Mar-2021 3279.01 4782.15 61.26 11.00 328.48 3032.17
   11:10:38.904.27-Mar-2021 3279.01 4781.76 61.26 11.00 328.68 3032.17
   11:10:39.104.27-Mar-2021 3279.01 4782.79 61.26 11.00 328.88 3032.17
   11:10:39.304.27-Mar-2021 3279.01 4782.45 61.26 11.00 329.08 3032.17
   11:10:39.504.27-Mar-2021 3279.01 4782.45 61.26 11.00 329.28 3032.17
   11:10:39.704.27-Mar-2021 3279.01 4782.31 61.26 11.00 329.48 3032.17
   11:10:39.904.27-Mar-2021 3279.01 4781.89 61.26 11.00 329.68 3032.17
   11:10:40.104.27-Mar-2021 3279.01 4782.11 61.26 11.00 329.88 3032.17
   11:10:40.304.27-Mar-2021 3279.01 4782.60 61.26 11.00 330.08 3032.17
   11:10:40.504.27-Mar-2021 3279.01 4782.60 61.26 11.00 330.28 3032.17
   11:10:40.704.27-Mar-2021 3279.01 4782.52 61.26 11.00 330.48 3032.17
   11:10:40.904.27-Mar-2021 3279.01 4782.49 61.26 11.00 330.68 3032.17
   11:10:41.104.27-Mar-2021 3279.01 4782.15 61.26 11.00 330.88 3032.17
   11:10:41.304.27-Mar-2021 3279.01 4782.40 61.26 11.00 331.08 3032.17
   11:10:41.504.27-Mar-2021 3279.01 4782.40 61.26 11.00 331.28 3032.17
   11:10:41.704.27-Mar-2021 3279.01 4782.55 61.26 11.00 331.48 3032.17
   11:10:41.904.27-Mar-2021 3279.01 4782.12 61.26 11.00 331.68 3032.17
   11:10:42.104.27-Mar-2021 3279.01 4783.14 61.26 11.00 331.88 3032.17
   11:10:42.305.27-Mar-2021 3279.01 4782.21 61.26 11.00 332.08 3032.17
   11:10:42.505.27-Mar-2021 3279.01 4782.21 61.26 11.00 332.28 3032.17
   11:10:42.705.27-Mar-2021 3279.01 4782.25 61.26 11.00 332.48 3032.17
   11:10:42.905.27-Mar-2021 3279.01 4782.18 61.26 11.00 332.68 3032.17
   11:10:43.105.27-Mar-2021 3279.01 4782.07 61.26 11.00 332.88 3032.17
   11:10:43.305.27-Mar-2021 3279.01 4782.74 61.26 11.00 333.08 3032.17
   11:10:43.505.27-Mar-2021 3279.01 4782.74 61.26 11.00 333.28 3032.17
   11:10:43.705.27-Mar-2021 3279.01 4782.23 61.26 11.00 333.48 3032.17
   11:10:43.905.27-Mar-2021 3279.01 4782.38 61.26 11.00 333.68 3032.17
   11:10:44.105.27-Mar-2021 3279.01 4781.14 61.26 11.00 333.88 3032.17
   11:10:44.305.27-Mar-2021 3279.01 4782.64 61.26 11.00 334.08 3032.17
   11:10:44.505.27-Mar-2021 3279.01 4782.64 61.26 11.00 334.28 3032.17
   11:10:44.705.27-Mar-2021 3279.01 4781.57 61.26 11.00 334.48 3032.17
   11:10:44.905.27-Mar-2021 3279.01 4781.80 61.26 11.00 334.68 3032.17
   11:10:45.105.27-Mar-2021 3279.01 4781.48 61.26 11.00 334.88 3032.17
   11:10:45.305.27-Mar-2021 3279.01 4781.56 61.26 11.00 335.08 3032.17
   11:10:45.505.27-Mar-2021 3279.01 4781.56 61.26 11.00 335.28 3032.17
   11:10:45.705.27-Mar-2021 3279.01 4783.36 61.26 11.00 335.48 3032.17
   11:10:45.905.27-Mar-2021 3279.01 4781.51 61.26 11.00 335.68 3032.17
   11:10:46.105.27-Mar-2021 3279.01 4782.30 61.26 11.00 335.88 3032.17
   11:10:46.305.27-Mar-2021 3279.01 4782.59 61.26 11.00 336.08 3032.17
   11:10:46.505.27-Mar-2021 3279.01 4782.59 61.26 11.00 336.28 3032.17
   11:10:46.706.27-Mar-2021 3279.01 4782.23 61.26 11.00 336.48 3032.17
   11:10:46.906.27-Mar-2021 3279.01 4782.49 61.26 11.00 336.68 3032.17
   11:10:47.106.27-Mar-2021 3279.01 4782.29 61.26 11.00 336.88 3032.17
   11:10:47.306.27-Mar-2021 3279.01 4782.32 61.26 11.00 337.08 3032.17
   11:10:47.506.27-Mar-2021 3279.01 4782.32 61.26 11.00 337.28 3032.17
   11:10:47.706.27-Mar-2021 3279.01 4782.48 61.26 11.00 337.48 3032.17
   11:10:47.906.27-Mar-2021 3279.01 4782.71 61.26 11.00 337.68 3032.17
   11:10:48.106.27-Mar-2021 3279.01 4782.43 61.26 11.00 337.88 3032.17
   11:10:48.306.27-Mar-2021 3279.01 4782.24 61.26 11.00 338.08 3032.17
   11:10:48.506.27-Mar-2021 3279.01 4782.24 61.26 11.00 338.28 3032.17
   11:10:48.706.27-Mar-2021 3279.01 4782.48 61.26 11.00 338.48 3032.17
   11:10:48.906.27-Mar-2021 3279.01 4781.66 61.26 11.00 338.68 3032.17
   11:10:49.106.27-Mar-2021 3279.01 4782.48 61.26 11.00 338.88 3032.17
