~Version Information
 VERS.                  2.0:   CWLS log ASCII Standard -VERSION 2.0
 WRAP.                   NO:   One line per depth step
~Well Information Block
#MNEM.UNIT     VALUE/NAME     DESCRIPTION
#---------     -----------    ---------------------------
 STRT.S             12:17:14 27-Mar-21: START TIME 12:17:14 27-Mar-21
 STOP.S             12:24:16 27-Mar-21: STOP TIME  12:24:16 27-Mar-21
 STEP.S                   0.00: STEP TIME
 NULL.                 -999.25: NULL VALUE
 DFWT.                        :  DIST FWL TEXT
 DFST.                        :  DIST FSL TEXT
 DMF .             Drill Floor:  DRILL MEAS FROM
 STIM.      20.26.40 11-Mar-21:  START TIME
 DATE.      20.26.40 30-Mar-21:  END TIME
 SPUD.               11-Mar-21:  SPUD DATE
 NREF.                    Grid:  NORTH REFERENCE
 HPTY.       Minimum Curvature:  HOLE POS TYPE
 DMOD.             Drill Model:  DRILL MOD DESC
 SVYD.                  Survey:  SURVEY DESC
 ILTD.               Lithology:  INTERP LTH DESC
 FTOP.          Formation Tops:  FORM TOPS DESC
 SON .        AZ-XX-0906805385:  JOB NUMBER
 WTYP.                Deviated:  WELL TYPE
 COMP.     BP Exploration (Caspian Sea) Ltd.:  COMPANY
 UWI .            /AZE00000198:  UNIQUE WELL IDENTIFIER
 API .            /AZE00000198:  API NUMBER
 BASE.              Azerbaijan:  LOGGING EQUIPMENT BASE LOCATION
 REGN.                   EESSA:  REGION
 PROV.                    Baku:  PROVINCE
 STAT.                    Baku:  STATE NAME
 CTRY.              Azerbaijan:  COUNTRY NAME
 FLD .                     ACG:  FIELD NAME
 SRVC.     Turan Drilling & Engineering:  CONTRACTOR
 MWDS.                    Baku:  MWD SHOP
 WELL.                    D09z:  WELL NAME
 JOBN.        AZ-XX-0906805385:  JOB TICKET NUMB
 RIG .              East Azeri:  RIG NAME
 DOE .                     N/A:  DOE NUMBER
 DCON.         Sperry Drilling:  DIRECTNL CONTR
 UNIT.                     N/A:  LOGGING EQUIPMENT ID
 PDAT.          Mean Sea Level:  PERMANENT DATUM
 MDS .        Operator Entered:  MAG DATA SOURCE
 CNTY.                        :  COUNTY
 LOC .                        :  LOCATION
 LMF .             Drill Floor:  LOG MEASURED FROM
 TVDS.m                  43.60:  TVDSS CORRECTN
 LATI.deg                40.02:  LATITUDE
 LONG.deg                51.45:  LONGITUDE
 WHNS.m                 -17.04:  WELL HEAD N/S
 WHEW.m                  -6.28:  WELL HEAD E/W
 UTMX.m              538763.98:  UTM X
 UTMY.m             4431880.20:  UTM Y
 DFWL.m                   0.00:  DISTANCE FWL
 DFSL.m                   0.00:  DISTANCE FSL
 SDEP.m                2680.01:  START DEPTH
 TDD .m                4000.01:  TOTAL DEPTH (DRILLER)
 VSDR.deg               225.71:  VERT SEC DIRECT
 GVFD.g                   1.00:  GRAVITY FIELD
 MFLD.nT              50353.00:  MAGNETIC FIELD
 MDIP.deg                59.49:  MAGNETIC DIP
 MDEC.deg                 6.46:  MAGNETIC DECL
 GRDC.deg                 0.29:  GRID CORRECTION
 AZTC.deg                 6.17:  AZM TOTAL CORR
 EPD .m                   0.00:  ELEVATION
 EGL .m                   0.00:  GROUND ELEVATION
 WDMS.m                 151.80:  WD ELEV
 APD .m                  43.60:  DEPTH ABOVE PD
 AGAP.m                  43.60:  AIR GAP
 VSEW.m                  -6.28:  VERT SEC E/W
 VSNS.m                 -17.04:  VERT SEC N/S
 DEP .m                2656.31:  DEPTH
 EKB .m                  43.60:  KB ELEVATION
 EDF .m                  43.60:  DF ELEVATION
 VSC .                       0:  VS TO CLOSURE
 MAGU.                 1851247:  MAGUTM CHECKSUM
~Parameter Information Block
#MNEM.UNIT       Value        Description
#---------     -----------    ---------------------------
 AV  .mps                 3.00:  Ann Velocity 
 AVMX.mps                 8.00:  Max Ann Veloc 
 AZIF.deg                 0.00:  Azm, Final 
 BHAT.                   Other:  BHA Type 
 BREV.rev                 0.00:  Rev Bit Total 
 BROT.°/30m               0.00:  Build Rotating 
 BS  .in                 10.25:  Bit Size 
 BTPL.psig              511.00:  Bit Press Loss 
 CABU.                      No:  Customer Abuse 
 CGEO.           Asif Pashayev:  Customer Geo 
 COMM.                     4'd:  Run Comments 1 
 TCS .hr                 24.03:  Time Ciculation Ended 
 CV  .mps                 3.50:  Crit Velocity 
 CVMX.mps                 4.00:  Max Crit Veloc 
 DD1 .             Aziz Aliyev:  Direct Drillr 1 
 DD2 .      Fakhraddin Guliyev:  Direct Drillr 2 
 DDSV.                   Other:  DD Service 
 DEFF.%                  99.00:  % Det Eff 
 DLRX.°/30m               0.00:  Dogleg Rot Max 
 DLSO.°/30m               0.00:  Dogleg Oriented 
 DLSX.°/30m               0.00:  Dogleg Str Max 
 DRET.      23.00.40 28-Mar-21:  Drill End Time 
 DRST.      23.30.40 25-Mar-21:  Drill Start Tim 
 DTIM.hr                  0.00:  Time Drilling 
 EDEP.m                3886.01:  End Depth 
 ENG1.         Almaz Almadatov:  Engineer 1 
 ENG2.      Artemiy Matviyanov:  Engineer 2 
 ENG3.           Samir Gafarov:  Engineer 3 
 ETIM.      23.00.40 28-Mar-21:  End Time 
 FLOI.gpm               550.00:  Flow In 
 FLON.gpm               500.00:  Flow In Min 
 FLOS.cptm                0.00:  Fluid Loss 
 FLOX.gpm               590.00:  Flow In Max 
 HFLO.                      No:  High Flow 
 HPRE.                      No:  High Pressure 
 HTEM.                      No:  High Temp 
 HYDO.m                   1.80:  Hydro Offset 
 IFIN.deg                 0.00:  Inc, Final 
 IMAX.deg                 0.00:  Inc Max 
 IMIN.deg                 0.00:  Inc Min 
 IMND.m                   0.00:  Inc Min Depth 
 IMXD.m                   0.00:  Inc Max Depth 
 JARR.                      No:  Jarring 
 LETM.      03.22.40 28-Mar-21:  Log End Time 
 LOST.hr                     0:  Lost Rig Time 
 LSTM.      23.30.40 25-Mar-21:  Log Start Time 
 MDCL.ppm             34000.00:  Mud Chlorides 
 MDES.     Inversion Oil/Synthetic:  Mud Desc 
 DFD .sg                  1.51:  Mud Density 
 MDMN.sg                  1.51:  Dens Mud Min 
 MDMX.sg                  1.51:  Dens Mud Max 
 MOIL.                      70:  Run Mud Oil % 
 MOWR.                   70:30:  Run Mud OWR 
 MSND.                     0.2:  Run Mud Sand % 
 MSOL.                   21.60:  Run Mud Solids% 
 DFV .spqt               74.00:  Mud Viscosity 
 MWOD.in                  6.75:  MWD Tool OD 
 MWSI.                      No:  Serv Intrp, MWD 
 OTIM.hr                 69.09:  Time Operating 
 PCON.           Look Like New:  Pad Condition 
 PMAX.psia             3500.00:  Press Op, Max 
 PV  .cP                 70.00:  Mud PV 
 RUN .                     400:  Run Number 
 ROPA.m/hr                0.00:  ROP Avg 
 ROPN.m/hr                0.00:  ROP Min 
 ROPX.m/hr                0.00:  ROP Max 
 RPMA.rpm                80.00:  RPM Surface Avg 
 RPMN.rpm                10.00:  RPM Surface Min 
 RPMX.rpm               100.00:  RPM Surface Max 
 RRUN.                    0400:  Rig Run Number 
 RTIM.hr                  3.00:  Time Reaming 
 SAZI.deg                 0.00:  Azm, Start 
 SDEP.m                3886.01:  Start Depth 
 SIDD.                      No:  Serv Intrp, DD 
 SINC.deg                 0.00:  Inc, Start 
 SPPA.psig             3270.00:  SPP Avg 
 SPPN.psig             3220.00:  SPP Min 
 SPPX.psig             4430.00:  SPP Max 
 STIM.      23.30.40 25-Mar-21:  Start Time 
 SVCS.                 DD, MWD:  Services 
 SVER.                    9.20:  Sperry Version 
 TDAT.m                   0.00:  Tot Depth Attmp 
 TDDF.                      No:  Trip for DD 
 TFF .                      No:  Trip for Fail 
 TQAA.f-kp                8.00:  Torque Abs Avg 
 TQAN.f-kp                7.00:  Torque Abs Min 
 TQAX.f-kp               11.00:  Torque Abs Max 
 TRRT.°/30m               0.00:  Turn Rotating 
 MRT .                  EWR-M5:  Maximum Recorded Temperature 
 TTMX.degC               76.47:  Max Tool Temp 
 VS01.                90640857:  Virtual Str1 SN 
 VS02.                90639246:  Virtual Str2 SN 
 VS03.                90642265:  Virtual Str3 SN 
 VS04.                11654497:  Virtual Str4 SN 
 WBMN.klb                 0.00:  WOB Min 
 WITN.      Kamran Keberlinkiy:  Customer Rep 
 WITN.           Murad Guliyev:  Customer Rep 2 
 WOBA.klb                 0.00:  WOB Avg 
 WOBX.klb                 0.00:  WOB Max 
 YP  .lhf2               36.00:  Yield Point 
~Curve Information Block
#MNEM.UNIT                 API CODE     Curve Description
#---------               -----------    ---------------------------
 TIME.HHMMSS            00 000 000 000:  GT Time & Date
 GTDEPTH.m              00 000 000 000:  GT Depth
 GTPQH.psia             00 000 000 000:  GT HR Quartz Pressure
 GTTQ.degC              00 000 000 000:  GT Quartz Temperature
 GTTN.NONE              00 000 000 000:  GT Test Number
 GTET.sec               00 000 000 000:  GT Elapsed Test Time
 GTTVD.m                00 000 000 000:  GT True Vertical Depth
#Other Information
#
#WARRANTY: Halliburton will use its best efforts to furnish customers with 
#accurate information and interpretations that are part of, and incident to, the services 
#provided.  However, Halliburton cannot and does not warrant the accuracy 
#or correctness of such information and interpretations.  Under no circumstances should any 
#such information or interpretation be relied upon as the sole basis for any drilling, 
#completion, production, or financial decision or any procedure involving any risk to the 
#safety of any drilling venture, drilling rig or its crew or any other third party.  The 
#Customer has full responsibility for all drilling, completion and production operation.  
#Halliburton makes no representations or warranties, either expressed or 
#implied, including, but not limited to, the implied warranties of merchantability or fitness 
#for a particular purpose, with respect to the services rendered.  In no event will 
#Halliburton be liable for failure to obtain any particular results or for 
#any damages, including, but not limited to, indirect, special or consequential damages, 
#resulting from the use of any information or interpretation provided by Halliburton.
#
~A           TIME           GTDEPTH  GTPQH  GTTQ  GTTN   GTET   GTTVD  
# ...
   12:22:08.730.27-Mar-2021 3369.01 4795.76 61.78 12.00 294.01 3116.52
   12:22:08.931.27-Mar-2021 3369.01 4797.70 61.78 12.00 294.21 3116.52
   12:22:09.131.27-Mar-2021 3369.01 4797.70 61.78 12.00 294.41 3116.52
   12:22:09.331.27-Mar-2021 3369.01 4800.78 61.78 12.00 294.61 3116.52
   12:22:09.531.27-Mar-2021 3369.01 4801.49 61.78 12.00 294.81 3116.52
   12:22:09.731.27-Mar-2021 3369.01 4803.73 61.78 12.00 295.01 3116.52
   12:22:09.931.27-Mar-2021 3369.01 4804.50 61.78 12.00 295.21 3116.52
   12:22:10.131.27-Mar-2021 3369.01 4804.50 61.78 12.00 295.41 3116.52
   12:22:10.332.27-Mar-2021 3369.01 4807.36 61.78 12.00 295.61 3116.52
   12:22:10.532.27-Mar-2021 3369.01 4808.18 61.78 12.00 295.81 3116.52
   12:22:10.732.27-Mar-2021 3369.01 4809.24 61.79 12.00 296.01 3116.52
   12:22:10.932.27-Mar-2021 3369.01 4810.57 61.79 12.00 296.21 3116.52
   12:22:11.132.27-Mar-2021 3369.01 4810.57 61.79 12.00 296.41 3116.52
   12:22:11.332.27-Mar-2021 3369.01 4813.15 61.79 12.00 296.61 3116.52
   12:22:11.532.27-Mar-2021 3369.01 4814.15 61.79 12.00 296.81 3116.52
   12:22:11.733.27-Mar-2021 3369.01 4814.68 61.79 12.00 297.01 3116.52
   12:22:11.933.27-Mar-2021 3369.01 4815.45 61.79 12.00 297.21 3116.52
   12:22:12.133.27-Mar-2021 3369.01 4815.45 61.79 12.00 297.41 3116.52
   12:22:12.333.27-Mar-2021 3369.01 4817.82 61.79 12.00 297.61 3116.52
   12:22:12.533.27-Mar-2021 3369.01 4818.00 61.79 12.00 297.81 3116.52
   12:22:12.733.27-Mar-2021 3369.01 4818.56 61.79 12.00 298.01 3116.52
   12:22:12.933.27-Mar-2021 3369.01 4819.16 61.79 12.00 298.21 3116.52
   12:22:13.133.27-Mar-2021 3369.01 4819.16 61.79 12.00 298.41 3116.52
   12:22:13.334.27-Mar-2021 3369.01 4821.77 61.79 12.00 298.61 3116.52
   12:22:13.534.27-Mar-2021 3369.01 4821.76 61.79 12.00 298.81 3116.52
   12:22:13.734.27-Mar-2021 3369.01 4821.95 61.79 12.00 299.01 3116.52
   12:22:13.934.27-Mar-2021 3369.01 4822.59 61.79 12.00 299.21 3116.52
   12:22:14.134.27-Mar-2021 3369.01 4822.59 61.79 12.00 299.41 3116.52
   12:22:14.334.27-Mar-2021 3369.01 4824.62 61.79 12.00 299.61 3116.52
   12:22:14.534.27-Mar-2021 3369.01 4824.21 61.79 12.00 299.81 3116.52
   12:22:14.735.27-Mar-2021 3369.01 4824.63 61.79 12.00 300.01 3116.52
   12:22:14.935.27-Mar-2021 3369.01 4824.99 61.79 12.00 300.21 3116.52
   12:22:15.135.27-Mar-2021 3369.01 4824.99 61.79 12.00 300.41 3116.52
   12:22:15.335.27-Mar-2021 3369.01 4827.01 61.79 12.00 300.61 3116.52
   12:22:15.535.27-Mar-2021 3369.01 4827.09 61.79 12.00 300.81 3116.52
   12:22:15.735.27-Mar-2021 3369.01 4827.67 61.79 12.00 301.01 3116.52
   12:22:15.935.27-Mar-2021 3369.01 4827.68 61.79 12.00 301.21 3116.52
   12:22:16.136.27-Mar-2021 3369.01 4827.68 61.79 12.00 301.41 3116.52
   12:22:16.336.27-Mar-2021 3369.01 4828.59 61.79 12.00 301.61 3116.52
   12:22:16.536.27-Mar-2021 3369.01 4829.26 61.79 12.00 301.81 3116.52
   12:22:16.736.27-Mar-2021 3369.01 4829.65 61.79 12.00 302.01 3116.52
   12:22:16.936.27-Mar-2021 3369.01 4829.67 61.79 12.00 302.21 3116.52
   12:22:17.136.27-Mar-2021 3369.01 4829.67 61.79 12.00 302.41 3116.52
   12:22:17.336.27-Mar-2021 3369.01 4830.67 61.79 12.00 302.61 3116.52
   12:22:17.537.27-Mar-2021 3369.01 4831.04 61.79 12.00 302.81 3116.52
   12:22:17.737.27-Mar-2021 3369.01 4831.19 61.79 12.00 303.01 3116.52
   12:22:17.937.27-Mar-2021 3369.01 4831.78 61.79 12.00 303.21 3116.52
   12:22:18.137.27-Mar-2021 3369.01 4831.78 61.79 12.00 303.41 3116.52
   12:22:18.337.27-Mar-2021 3369.01 4831.81 61.79 12.00 303.61 3116.52
   12:22:18.537.27-Mar-2021 3369.01 4832.90 61.78 12.00 303.81 3116.52
   12:22:18.737.27-Mar-2021 3369.01 4832.70 61.78 12.00 304.01 3116.52
   12:22:18.938.27-Mar-2021 3369.01 4833.21 61.78 12.00 304.22 3116.52
   12:22:19.138.27-Mar-2021 3369.01 4833.21 61.78 12.00 304.42 3116.52
   12:22:19.338.27-Mar-2021 3369.01 4833.35 61.78 12.00 304.62 3116.52
   12:22:19.538.27-Mar-2021 3369.01 4833.68 61.78 12.00 304.82 3116.52
   12:22:19.738.27-Mar-2021 3369.01 4834.02 61.78 12.00 305.02 3116.52
   12:22:19.938.27-Mar-2021 3369.01 4833.96 61.78 12.00 305.22 3116.52
   12:22:20.138.27-Mar-2021 3369.01 4833.96 61.78 12.00 305.42 3116.52
   12:22:20.339.27-Mar-2021 3369.01 4834.06 61.78 12.00 305.62 3116.52
   12:22:20.539.27-Mar-2021 3369.01 4834.22 61.78 12.00 305.82 3116.52
   12:22:20.739.27-Mar-2021 3369.01 4834.57 61.78 12.00 306.02 3116.52
   12:22:20.939.27-Mar-2021 3369.01 4834.58 61.78 12.00 306.22 3116.52
   12:22:21.139.27-Mar-2021 3369.01 4834.58 61.78 12.00 306.42 3116.52
   12:22:21.339.27-Mar-2021 3369.01 4835.81 61.78 12.00 306.62 3116.52
   12:22:21.539.27-Mar-2021 3369.01 4836.15 61.78 12.00 306.82 3116.52
   12:22:21.740.27-Mar-2021 3369.01 4835.99 61.78 12.00 307.02 3116.52
   12:22:21.940.27-Mar-2021 3369.01 4836.14 61.78 12.00 307.22 3116.52
   12:22:22.140.27-Mar-2021 3369.01 4836.14 61.78 12.00 307.42 3116.52
   12:22:22.340.27-Mar-2021 3369.01 4836.19 61.78 12.00 307.62 3116.52
   12:22:22.540.27-Mar-2021 3369.01 4837.46 61.78 12.00 307.82 3116.52
   12:22:22.740.27-Mar-2021 3369.01 4837.12 61.78 12.00 308.02 3116.52
   12:22:22.940.27-Mar-2021 3369.01 4836.85 61.78 12.00 308.22 3116.52
   12:22:23.141.27-Mar-2021 3369.01 4836.85 61.78 12.00 308.42 3116.52
   12:22:23.341.27-Mar-2021 3369.01 4837.44 61.78 12.00 308.62 3116.52
   12:22:23.541.27-Mar-2021 3369.01 4836.96 61.78 12.00 308.82 3116.52
   12:22:23.741.27-Mar-2021 3369.01 4838.97 61.78 12.00 309.02 3116.52
   12:22:23.941.27-Mar-2021 3369.01 4838.34 61.78 12.00 309.22 3116.52
   12:22:24.141.27-Mar-2021 3369.01 4838.34 61.78 12.00 309.42 3116.52
   12:22:24.341.27-Mar-2021 3369.01 4838.63 61.78 12.00 309.62 3116.52
   12:22:24.542.27-Mar-2021 3369.01 4838.73 61.78 12.00 309.82 3116.52
   12:22:24.742.27-Mar-2021 3369.01 4837.92 61.78 12.00 310.02 3116.52
   12:22:24.942.27-Mar-2021 3369.01 4839.47 61.78 12.00 310.22 3116.52
   12:22:25.142.27-Mar-2021 3369.01 4839.47 61.78 12.00 310.42 3116.52
   12:22:25.342.27-Mar-2021 3369.01 4838.69 61.78 12.00 310.62 3116.52
   12:22:25.542.27-Mar-2021 3369.01 4838.91 61.78 12.00 310.82 3116.52
   12:22:25.742.27-Mar-2021 3369.01 4838.84 61.78 12.00 311.02 3116.52
   12:22:25.943.27-Mar-2021 3369.01 4838.91 61.78 12.00 311.22 3116.52
   12:22:26.143.27-Mar-2021 3369.01 4838.91 61.78 12.00 311.42 3116.52
   12:22:26.343.27-Mar-2021 3369.01 4838.89 61.78 12.00 311.62 3116.52
   12:22:26.543.27-Mar-2021 3369.01 4839.14 61.78 12.00 311.82 3116.52
   12:22:26.743.27-Mar-2021 3369.01 4839.37 61.78 12.00 312.02 3116.52
   12:22:26.943.27-Mar-2021 3369.01 4839.28 61.78 12.00 312.22 3116.52
   12:22:27.143.27-Mar-2021 3369.01 4839.28 61.78 12.00 312.42 3116.52
   12:22:27.344.27-Mar-2021 3369.01 4839.37 61.78 12.00 312.62 3116.52
   12:22:27.544.27-Mar-2021 3369.01 4839.57 61.78 12.00 312.82 3116.52
   12:22:27.744.27-Mar-2021 3369.01 4839.75 61.78 12.00 313.02 3116.52
   12:22:27.944.27-Mar-2021 3369.01 4839.44 61.78 12.00 313.22 3116.52
   12:22:28.144.27-Mar-2021 3369.01 4839.44 61.78 12.00 313.42 3116.52
   12:22:28.344.27-Mar-2021 3369.01 4840.07 61.78 12.00 313.62 3116.52
   12:22:28.544.27-Mar-2021 3369.01 4840.09 61.78 12.00 313.82 3116.52
   12:22:28.745.27-Mar-2021 3369.01 4840.10 61.78 12.00 314.02 3116.52
   12:22:28.945.27-Mar-2021 3369.01 4840.21 61.78 12.00 314.22 3116.52
   12:22:29.145.27-Mar-2021 3369.01 4840.21 61.78 12.00 314.42 3116.52
   12:22:29.345.27-Mar-2021 3369.01 4840.57 61.78 12.00 314.62 3116.52
   12:22:29.545.27-Mar-2021 3369.01 4840.43 61.78 12.00 314.82 3116.52
   12:22:29.745.27-Mar-2021 3369.01 4840.53 61.78 12.00 315.02 3116.52
   12:22:29.945.27-Mar-2021 3369.01 4840.60 61.78 12.00 315.22 3116.52
   12:22:30.146.27-Mar-2021 3369.01 4840.60 61.78 12.00 315.42 3116.52
   12:22:30.346.27-Mar-2021 3369.01 4840.88 61.78 12.00 315.62 3116.52
   12:22:30.546.27-Mar-2021 3369.01 4840.44 61.78 12.00 315.82 3116.52
   12:22:30.746.27-Mar-2021 3369.01 4841.30 61.78 12.00 316.02 3116.52
   12:22:30.946.27-Mar-2021 3369.01 4840.87 61.78 12.00 316.22 3116.52
   12:22:31.146.27-Mar-2021 3369.01 4840.87 61.78 12.00 316.42 3116.52
