~Version Information
 VERS.                  2.0:   CWLS log ASCII Standard -VERSION 2.0
 WRAP.                   NO:   One line per depth step
~Well Information Block
#MNEM.UNIT     VALUE/NAME     DESCRIPTION
#---------     -----------    ---------------------------
 STRT.S             09:55:14 27-Mar-21: START TIME 09:55:14 27-Mar-21
 STOP.S             10:02:25 27-Mar-21: STOP TIME  10:02:25 27-Mar-21
 STEP.S                   0.00: STEP TIME
 NULL.                 -999.25: NULL VALUE
 DFWT.                        :  DIST FWL TEXT
 DFST.                        :  DIST FSL TEXT
 DMF .             Drill Floor:  DRILL MEAS FROM
 STIM.      20.26.40 11-Mar-21:  START TIME
 DATE.      20.26.40 30-Mar-21:  END TIME
 SPUD.               11-Mar-21:  SPUD DATE
 NREF.                    Grid:  NORTH REFERENCE
 HPTY.       Minimum Curvature:  HOLE POS TYPE
 DMOD.             Drill Model:  DRILL MOD DESC
 SVYD.                  Survey:  SURVEY DESC
 ILTD.               Lithology:  INTERP LTH DESC
 FTOP.          Formation Tops:  FORM TOPS DESC
 SON .        AZ-XX-0906805385:  JOB NUMBER
 WTYP.                Deviated:  WELL TYPE
 COMP.     BP Exploration (Caspian Sea) Ltd.:  COMPANY
 UWI .            /AZE00000198:  UNIQUE WELL IDENTIFIER
 API .            /AZE00000198:  API NUMBER
 BASE.              Azerbaijan:  LOGGING EQUIPMENT BASE LOCATION
 REGN.                   EESSA:  REGION
 PROV.                    Baku:  PROVINCE
 STAT.                    Baku:  STATE NAME
 CTRY.              Azerbaijan:  COUNTRY NAME
 FLD .                     ACG:  FIELD NAME
 SRVC.     Turan Drilling & Engineering:  CONTRACTOR
 MWDS.                    Baku:  MWD SHOP
 WELL.                    D09z:  WELL NAME
 JOBN.        AZ-XX-0906805385:  JOB TICKET NUMB
 RIG .              East Azeri:  RIG NAME
 DOE .                     N/A:  DOE NUMBER
 DCON.         Sperry Drilling:  DIRECTNL CONTR
 UNIT.                     N/A:  LOGGING EQUIPMENT ID
 PDAT.          Mean Sea Level:  PERMANENT DATUM
 MDS .        Operator Entered:  MAG DATA SOURCE
 CNTY.                        :  COUNTY
 LOC .                        :  LOCATION
 LMF .             Drill Floor:  LOG MEASURED FROM
 TVDS.m                  43.60:  TVDSS CORRECTN
 LATI.deg                40.02:  LATITUDE
 LONG.deg                51.45:  LONGITUDE
 WHNS.m                 -17.04:  WELL HEAD N/S
 WHEW.m                  -6.28:  WELL HEAD E/W
 UTMX.m              538763.98:  UTM X
 UTMY.m             4431880.20:  UTM Y
 DFWL.m                   0.00:  DISTANCE FWL
 DFSL.m                   0.00:  DISTANCE FSL
 SDEP.m                2680.01:  START DEPTH
 TDD .m                4000.01:  TOTAL DEPTH (DRILLER)
 VSDR.deg               225.71:  VERT SEC DIRECT
 GVFD.g                   1.00:  GRAVITY FIELD
 MFLD.nT              50353.00:  MAGNETIC FIELD
 MDIP.deg                59.49:  MAGNETIC DIP
 MDEC.deg                 6.46:  MAGNETIC DECL
 GRDC.deg                 0.29:  GRID CORRECTION
 AZTC.deg                 6.17:  AZM TOTAL CORR
 EPD .m                   0.00:  ELEVATION
 EGL .m                   0.00:  GROUND ELEVATION
 WDMS.m                 151.80:  WD ELEV
 APD .m                  43.60:  DEPTH ABOVE PD
 AGAP.m                  43.60:  AIR GAP
 VSEW.m                  -6.28:  VERT SEC E/W
 VSNS.m                 -17.04:  VERT SEC N/S
 DEP .m                2656.31:  DEPTH
 EKB .m                  43.60:  KB ELEVATION
 EDF .m                  43.60:  DF ELEVATION
 VSC .                       0:  VS TO CLOSURE
 MAGU.                 1851247:  MAGUTM CHECKSUM
~Parameter Information Block
#MNEM.UNIT       Value        Description
#---------     -----------    ---------------------------
 AV  .mps                 3.00:  Ann Velocity 
 AVMX.mps                 8.00:  Max Ann Veloc 
 AZIF.deg                 0.00:  Azm, Final 
 BHAT.                   Other:  BHA Type 
 BREV.rev                 0.00:  Rev Bit Total 
 BROT.°/30m               0.00:  Build Rotating 
 BS  .in                 10.25:  Bit Size 
 BTPL.psig              511.00:  Bit Press Loss 
 CABU.                      No:  Customer Abuse 
 CGEO.           Asif Pashayev:  Customer Geo 
 COMM.                     ”Rk:  Run Comments 1 
 TCS .hr                 24.03:  Time Ciculation Ended 
 CV  .mps                 3.50:  Crit Velocity 
 CVMX.mps                 4.00:  Max Crit Veloc 
 DD1 .             Aziz Aliyev:  Direct Drillr 1 
 DD2 .      Fakhraddin Guliyev:  Direct Drillr 2 
 DDSV.                   Other:  DD Service 
 DEFF.%                  99.00:  % Det Eff 
 DLRX.°/30m               0.00:  Dogleg Rot Max 
 DLSO.°/30m               0.00:  Dogleg Oriented 
 DLSX.°/30m               0.00:  Dogleg Str Max 
 DRET.      23.00.40 28-Mar-21:  Drill End Time 
 DRST.      23.30.40 25-Mar-21:  Drill Start Tim 
 DTIM.hr                  0.00:  Time Drilling 
 EDEP.m                3886.01:  End Depth 
 ENG1.         Almaz Almadatov:  Engineer 1 
 ENG2.      Artemiy Matviyanov:  Engineer 2 
 ENG3.           Samir Gafarov:  Engineer 3 
 ETIM.      23.00.40 28-Mar-21:  End Time 
 FLOI.gpm               550.00:  Flow In 
 FLON.gpm               500.00:  Flow In Min 
 FLOS.cptm                0.00:  Fluid Loss 
 FLOX.gpm               590.00:  Flow In Max 
 HFLO.                      No:  High Flow 
 HPRE.                      No:  High Pressure 
 HTEM.                      No:  High Temp 
 HYDO.m                   1.80:  Hydro Offset 
 IFIN.deg                 0.00:  Inc, Final 
 IMAX.deg                 0.00:  Inc Max 
 IMIN.deg                 0.00:  Inc Min 
 IMND.m                   0.00:  Inc Min Depth 
 IMXD.m                   0.00:  Inc Max Depth 
 JARR.                      No:  Jarring 
 LETM.      03.22.40 28-Mar-21:  Log End Time 
 LOST.hr                     0:  Lost Rig Time 
 LSTM.      23.30.40 25-Mar-21:  Log Start Time 
 MDCL.ppm             34000.00:  Mud Chlorides 
 MDES.     Inversion Oil/Synthetic:  Mud Desc 
 DFD .sg                  1.51:  Mud Density 
 MDMN.sg                  1.51:  Dens Mud Min 
 MDMX.sg                  1.51:  Dens Mud Max 
 MOIL.                      70:  Run Mud Oil % 
 MOWR.                   70:30:  Run Mud OWR 
 MSND.                     0.2:  Run Mud Sand % 
 MSOL.                   21.60:  Run Mud Solids% 
 DFV .spqt               74.00:  Mud Viscosity 
 MWOD.in                  6.75:  MWD Tool OD 
 MWSI.                      No:  Serv Intrp, MWD 
 OTIM.hr                 69.09:  Time Operating 
 PCON.           Look Like New:  Pad Condition 
 PMAX.psia             3500.00:  Press Op, Max 
 PV  .cP                 70.00:  Mud PV 
 RUN .                     400:  Run Number 
 ROPA.m/hr                0.00:  ROP Avg 
 ROPN.m/hr                0.00:  ROP Min 
 ROPX.m/hr                0.00:  ROP Max 
 RPMA.rpm                80.00:  RPM Surface Avg 
 RPMN.rpm                10.00:  RPM Surface Min 
 RPMX.rpm               100.00:  RPM Surface Max 
 RRUN.                    0400:  Rig Run Number 
 RTIM.hr                  3.00:  Time Reaming 
 SAZI.deg                 0.00:  Azm, Start 
 SDEP.m                3886.01:  Start Depth 
 SIDD.                      No:  Serv Intrp, DD 
 SINC.deg                 0.00:  Inc, Start 
 SPPA.psig             3270.00:  SPP Avg 
 SPPN.psig             3220.00:  SPP Min 
 SPPX.psig             4430.00:  SPP Max 
 STIM.      23.30.40 25-Mar-21:  Start Time 
 SVCS.                 DD, MWD:  Services 
 SVER.                    9.20:  Sperry Version 
 TDAT.m                   0.00:  Tot Depth Attmp 
 TDDF.                      No:  Trip for DD 
 TFF .                      No:  Trip for Fail 
 TQAA.f-kp                8.00:  Torque Abs Avg 
 TQAN.f-kp                7.00:  Torque Abs Min 
 TQAX.f-kp               11.00:  Torque Abs Max 
 TRRT.°/30m               0.00:  Turn Rotating 
 MRT .                  EWR-M5:  Maximum Recorded Temperature 
 TTMX.degC               76.47:  Max Tool Temp 
 VS01.                90640857:  Virtual Str1 SN 
 VS02.                90639246:  Virtual Str2 SN 
 VS03.                90642265:  Virtual Str3 SN 
 VS04.                11654497:  Virtual Str4 SN 
 WBMN.klb                 0.00:  WOB Min 
 WITN.      Kamran Keberlinkiy:  Customer Rep 
 WITN.           Murad Guliyev:  Customer Rep 2 
 WOBA.klb                 0.00:  WOB Avg 
 WOBX.klb                 0.00:  WOB Max 
 YP  .lhf2               36.00:  Yield Point 
~Curve Information Block
#MNEM.UNIT                 API CODE     Curve Description
#---------               -----------    ---------------------------
 TIME.HHMMSS            00 000 000 000:  GT Time & Date
 GTDEPTH.m              00 000 000 000:  GT Depth
 GTPQH.psia             00 000 000 000:  GT HR Quartz Pressure
 GTTQ.degC              00 000 000 000:  GT Quartz Temperature
 GTTN.NONE              00 000 000 000:  GT Test Number
 GTET.sec               00 000 000 000:  GT Elapsed Test Time
 GTTVD.m                00 000 000 000:  GT True Vertical Depth
#Other Information
#
#WARRANTY: Halliburton will use its best efforts to furnish customers with 
#accurate information and interpretations that are part of, and incident to, the services 
#provided.  However, Halliburton cannot and does not warrant the accuracy 
#or correctness of such information and interpretations.  Under no circumstances should any 
#such information or interpretation be relied upon as the sole basis for any drilling, 
#completion, production, or financial decision or any procedure involving any risk to the 
#safety of any drilling venture, drilling rig or its crew or any other third party.  The 
#Customer has full responsibility for all drilling, completion and production operation.  
#Halliburton makes no representations or warranties, either expressed or 
#implied, including, but not limited to, the implied warranties of merchantability or fitness 
#for a particular purpose, with respect to the services rendered.  In no event will 
#Halliburton be liable for failure to obtain any particular results or for 
#any damages, including, but not limited to, indirect, special or consequential damages, 
#resulting from the use of any information or interpretation provided by Halliburton.
#
~A           TIME           GTDEPTH  GTPQH  GTTQ  GTTN  GTET   GTTVD  
# ...
   09:59:27.000.27-Mar-2021 3319.01 4586.50 60.89 9.00 253.00 3069.68
   09:59:27.200.27-Mar-2021 3319.01 4586.50 60.89 9.00 253.20 3069.68
   09:59:27.400.27-Mar-2021 3319.01 4586.46 60.89 9.00 253.40 3069.68
   09:59:27.600.27-Mar-2021 3319.01 4586.46 60.89 9.00 253.60 3069.68
   09:59:27.800.27-Mar-2021 3319.01 4586.47 60.89 9.00 253.80 3069.68
   09:59:28.000.27-Mar-2021 3319.01 4586.57 60.89 9.00 254.00 3069.68
   09:59:28.200.27-Mar-2021 3319.01 4586.57 60.89 9.00 254.20 3069.68
   09:59:28.400.27-Mar-2021 3319.01 4586.45 60.89 9.00 254.40 3069.68
   09:59:28.600.27-Mar-2021 3319.01 4586.28 60.89 9.00 254.60 3069.68
   09:59:28.800.27-Mar-2021 3319.01 4586.62 60.89 9.00 254.80 3069.68
   09:59:29.000.27-Mar-2021 3319.01 4586.53 60.89 9.00 255.00 3069.68
   09:59:29.200.27-Mar-2021 3319.01 4586.53 60.89 9.00 255.20 3069.68
   09:59:29.400.27-Mar-2021 3319.01 4586.45 60.89 9.00 255.40 3069.68
   09:59:29.600.27-Mar-2021 3319.01 4586.45 60.89 9.00 255.60 3069.68
   09:59:29.800.27-Mar-2021 3319.01 4586.45 60.89 9.00 255.80 3069.68
   09:59:30.000.27-Mar-2021 3319.01 4586.44 60.89 9.00 256.00 3069.68
   09:59:30.200.27-Mar-2021 3319.01 4586.44 60.89 9.00 256.20 3069.68
   09:59:30.400.27-Mar-2021 3319.01 4586.43 60.89 9.00 256.40 3069.68
   09:59:30.600.27-Mar-2021 3319.01 4586.50 60.89 9.00 256.60 3069.68
   09:59:30.800.27-Mar-2021 3319.01 4586.53 60.89 9.00 256.80 3069.68
   09:59:31.000.27-Mar-2021 3319.01 4586.44 60.89 9.00 257.00 3069.68
   09:59:31.200.27-Mar-2021 3319.01 4586.44 60.89 9.00 257.20 3069.68
   09:59:31.400.27-Mar-2021 3319.01 4586.53 60.89 9.00 257.40 3069.68
   09:59:31.600.27-Mar-2021 3319.01 4586.41 60.89 9.00 257.60 3069.68
   09:59:31.800.27-Mar-2021 3319.01 4586.55 60.89 9.00 257.80 3069.68
   09:59:32.000.27-Mar-2021 3319.01 4586.43 60.89 9.00 258.00 3069.68
   09:59:32.200.27-Mar-2021 3319.01 4586.43 60.89 9.00 258.20 3069.68
   09:59:32.400.27-Mar-2021 3319.01 4586.54 60.89 9.00 258.40 3069.68
   09:59:32.600.27-Mar-2021 3319.01 4586.51 60.89 9.00 258.60 3069.68
   09:59:32.800.27-Mar-2021 3319.01 4586.32 60.89 9.00 258.80 3069.68
   09:59:33.000.27-Mar-2021 3319.01 4586.61 60.89 9.00 259.00 3069.68
   09:59:33.200.27-Mar-2021 3319.01 4586.61 60.89 9.00 259.20 3069.68
   09:59:33.400.27-Mar-2021 3319.01 4586.47 60.89 9.00 259.40 3069.68
   09:59:33.600.27-Mar-2021 3319.01 4586.52 60.89 9.00 259.60 3069.68
   09:59:33.800.27-Mar-2021 3319.01 4586.50 60.89 9.00 259.80 3069.68
   09:59:34.000.27-Mar-2021 3319.01 4586.37 60.89 9.00 260.00 3069.68
   09:59:34.200.27-Mar-2021 3319.01 4586.37 60.89 9.00 260.20 3069.68
   09:59:34.400.27-Mar-2021 3319.01 4586.49 60.89 9.00 260.40 3069.68
   09:59:34.600.27-Mar-2021 3319.01 4586.44 60.90 9.00 260.60 3069.68
   09:59:34.800.27-Mar-2021 3319.01 4586.47 60.89 9.00 260.80 3069.68
   09:59:35.000.27-Mar-2021 3319.01 4586.52 60.89 9.00 261.00 3069.68
   09:59:35.200.27-Mar-2021 3319.01 4586.52 60.89 9.00 261.20 3069.68
   09:59:35.400.27-Mar-2021 3319.01 4586.39 60.89 9.00 261.40 3069.68
   09:59:35.600.27-Mar-2021 3319.01 4586.57 60.89 9.00 261.60 3069.68
   09:59:35.800.27-Mar-2021 3319.01 4586.40 60.89 9.00 261.80 3069.68
   09:59:36.000.27-Mar-2021 3319.01 4586.45 60.89 9.00 262.00 3069.68
   09:59:36.200.27-Mar-2021 3319.01 4586.45 60.89 9.00 262.20 3069.68
   09:59:36.400.27-Mar-2021 3319.01 4586.51 60.89 9.00 262.40 3069.68
   09:59:36.600.27-Mar-2021 3319.01 4586.55 60.89 9.00 262.60 3069.68
   09:59:36.800.27-Mar-2021 3319.01 4586.45 60.90 9.00 262.80 3069.68
   09:59:37.000.27-Mar-2021 3319.01 4586.45 60.89 9.00 263.00 3069.68
   09:59:37.200.27-Mar-2021 3319.01 4586.45 60.89 9.00 263.20 3069.68
   09:59:37.400.27-Mar-2021 3319.01 4586.51 60.90 9.00 263.40 3069.68
   09:59:37.600.27-Mar-2021 3319.01 4586.50 60.89 9.00 263.60 3069.68
   09:59:37.800.27-Mar-2021 3319.01 4586.48 60.89 9.00 263.80 3069.68
   09:59:38.000.27-Mar-2021 3319.01 4586.47 60.90 9.00 264.00 3069.68
   09:59:38.200.27-Mar-2021 3319.01 4586.47 60.90 9.00 264.20 3069.68
   09:59:38.400.27-Mar-2021 3319.01 4586.46 60.90 9.00 264.40 3069.68
   09:59:38.600.27-Mar-2021 3319.01 4586.44 60.89 9.00 264.60 3069.68
   09:59:38.800.27-Mar-2021 3319.01 4586.44 60.90 9.00 264.80 3069.68
   09:59:39.000.27-Mar-2021 3319.01 4586.52 60.89 9.00 265.00 3069.68
   09:59:39.200.27-Mar-2021 3319.01 4586.52 60.89 9.00 265.20 3069.68
   09:59:39.400.27-Mar-2021 3319.01 4586.53 60.90 9.00 265.40 3069.68
   09:59:39.600.27-Mar-2021 3319.01 4586.42 60.90 9.00 265.60 3069.68
   09:59:39.800.27-Mar-2021 3319.01 4586.47 60.89 9.00 265.80 3069.68
   09:59:40.000.27-Mar-2021 3319.01 4586.46 60.90 9.00 266.00 3069.68
   09:59:40.200.27-Mar-2021 3319.01 4586.46 60.90 9.00 266.20 3069.68
   09:59:40.400.27-Mar-2021 3319.01 4586.50 60.90 9.00 266.40 3069.68
   09:59:40.600.27-Mar-2021 3319.01 4586.43 60.90 9.00 266.60 3069.68
   09:59:40.800.27-Mar-2021 3319.01 4586.46 60.90 9.00 266.80 3069.68
   09:59:41.000.27-Mar-2021 3319.01 4586.49 60.90 9.00 267.00 3069.68
   09:59:41.200.27-Mar-2021 3319.01 4586.49 60.90 9.00 267.20 3069.68
   09:59:41.400.27-Mar-2021 3319.01 4586.59 60.90 9.00 267.40 3069.68
   09:59:41.600.27-Mar-2021 3319.01 4586.41 60.90 9.00 267.60 3069.68
   09:59:41.800.27-Mar-2021 3319.01 4555.79 60.90 9.00 267.80 3069.68
   09:59:42.000.27-Mar-2021 3319.01 4379.46 60.90 9.00 268.00 3069.68
   09:59:42.200.27-Mar-2021 3319.01 4379.46 60.90 9.00 268.20 3069.68
   09:59:42.400.27-Mar-2021 3319.01 4339.77 60.90 9.00 268.40 3069.68
   09:59:42.600.27-Mar-2021 3319.01 4337.23 60.90 9.00 268.60 3069.68
   09:59:42.800.27-Mar-2021 3319.01 4336.82 60.90 9.00 268.80 3069.68
   09:59:43.000.27-Mar-2021 3319.01 4337.23 60.89 9.00 269.00 3069.68
   09:59:43.200.27-Mar-2021 3319.01 4337.23 60.89 9.00 269.20 3069.68
   09:59:43.400.27-Mar-2021 3319.01 4335.62 60.89 9.00 269.40 3069.68
   09:59:43.600.27-Mar-2021 3319.01 4336.66 60.89 9.00 269.60 3069.68
   09:59:43.800.27-Mar-2021 3319.01 4335.71 60.89 9.00 269.80 3069.68
   09:59:44.000.27-Mar-2021 3319.01 4336.04 60.89 9.00 270.00 3069.68
   09:59:44.200.27-Mar-2021 3319.01 4336.04 60.89 9.00 270.20 3069.68
   09:59:44.400.27-Mar-2021 3319.01 4336.43 60.89 9.00 270.40 3069.68
   09:59:44.600.27-Mar-2021 3319.01 4334.79 60.89 9.00 270.60 3069.68
   09:59:44.800.27-Mar-2021 3319.01 4335.52 60.89 9.00 270.80 3069.68
   09:59:45.000.27-Mar-2021 3319.01 4333.44 60.89 9.00 271.00 3069.68
   09:59:45.200.27-Mar-2021 3319.01 4333.44 60.89 9.00 271.20 3069.68
   09:59:45.400.27-Mar-2021 3319.01 4334.25 60.89 9.00 271.40 3069.68
   09:59:45.600.27-Mar-2021 3319.01 4333.92 60.89 9.00 271.60 3069.68
   09:59:45.800.27-Mar-2021 3319.01 4334.70 60.89 9.00 271.80 3069.68
   09:59:46.000.27-Mar-2021 3319.01 4331.16 60.89 9.00 272.00 3069.68
   09:59:46.200.27-Mar-2021 3319.01 4331.16 60.89 9.00 272.20 3069.68
   09:59:46.400.27-Mar-2021 3319.01 4332.17 60.89 9.00 272.40 3069.68
   09:59:46.600.27-Mar-2021 3319.01 4332.66 60.89 9.00 272.60 3069.68
   09:59:46.800.27-Mar-2021 3319.01 4333.44 60.89 9.00 272.80 3069.68
   09:59:47.000.27-Mar-2021 3319.01 4332.08 60.89 9.00 273.00 3069.68
   09:59:47.200.27-Mar-2021 3319.01 4332.08 60.89 9.00 273.20 3069.68
   09:59:47.400.27-Mar-2021 3319.01 4333.88 60.89 9.00 273.40 3069.68
   09:59:47.600.27-Mar-2021 3319.01 4333.08 60.89 9.00 273.60 3069.68
   09:59:47.800.27-Mar-2021 3319.01 4333.29 60.89 9.00 273.80 3069.68
   09:59:48.000.27-Mar-2021 3319.01 4334.82 60.89 9.00 274.00 3069.68
   09:59:48.200.27-Mar-2021 3319.01 4334.82 60.89 9.00 274.20 3069.68
   09:59:48.400.27-Mar-2021 3319.01 4333.16 60.89 9.00 274.40 3069.68
   09:59:48.600.27-Mar-2021 3319.01 4333.60 60.89 9.00 274.60 3069.68
   09:59:48.800.27-Mar-2021 3319.01 4333.71 60.89 9.00 274.80 3069.68
   09:59:49.000.27-Mar-2021 3319.01 4331.54 60.89 9.00 275.00 3069.68
   09:59:49.200.27-Mar-2021 3319.01 4331.54 60.89 9.00 275.20 3069.68
   09:59:49.400.27-Mar-2021 3319.01 4332.90 60.89 9.00 275.40 3069.68
   09:59:49.600.27-Mar-2021 3319.01 4332.02 60.89 9.00 275.60 3069.68
   09:59:49.800.27-Mar-2021 3319.01 4332.49 60.89 9.00 275.80 3069.68
