~Version Information
 VERS.                  2.0:   CWLS log ASCII Standard -VERSION 2.0
 WRAP.                   NO:   One line per depth step
~Well Information Block
#MNEM.UNIT     VALUE/NAME     DESCRIPTION
#---------     -----------    ---------------------------
 STRT.S             12:17:14 27-Mar-21: START TIME 12:17:14 27-Mar-21
 STOP.S             12:24:16 27-Mar-21: STOP TIME  12:24:16 27-Mar-21
 STEP.S                   0.00: STEP TIME
 NULL.                 -999.25: NULL VALUE
 DFWT.                        :  DIST FWL TEXT
 DFST.                        :  DIST FSL TEXT
 DMF .             Drill Floor:  DRILL MEAS FROM
 STIM.      20.26.40 11-Mar-21:  START TIME
 DATE.      20.26.40 30-Mar-21:  END TIME
 SPUD.               11-Mar-21:  SPUD DATE
 NREF.                    Grid:  NORTH REFERENCE
 HPTY.       Minimum Curvature:  HOLE POS TYPE
 DMOD.             Drill Model:  DRILL MOD DESC
 SVYD.                  Survey:  SURVEY DESC
 ILTD.               Lithology:  INTERP LTH DESC
 FTOP.          Formation Tops:  FORM TOPS DESC
 SON .        AZ-XX-0906805385:  JOB NUMBER
 WTYP.                Deviated:  WELL TYPE
 COMP.     BP Exploration (Caspian Sea) Ltd.:  COMPANY
 UWI .            /AZE00000198:  UNIQUE WELL IDENTIFIER
 API .            /AZE00000198:  API NUMBER
 BASE.              Azerbaijan:  LOGGING EQUIPMENT BASE LOCATION
 REGN.                   EESSA:  REGION
 PROV.                    Baku:  PROVINCE
 STAT.                    Baku:  STATE NAME
 CTRY.              Azerbaijan:  COUNTRY NAME
 FLD .                     ACG:  FIELD NAME
 SRVC.     Turan Drilling & Engineering:  CONTRACTOR
 MWDS.                    Baku:  MWD SHOP
 WELL.                    D09z:  WELL NAME
 JOBN.        AZ-XX-0906805385:  JOB TICKET NUMB
 RIG .              East Azeri:  RIG NAME
 DOE .                     N/A:  DOE NUMBER
 DCON.         Sperry Drilling:  DIRECTNL CONTR
 UNIT.                     N/A:  LOGGING EQUIPMENT ID
 PDAT.          Mean Sea Level:  PERMANENT DATUM
 MDS .        Operator Entered:  MAG DATA SOURCE
 CNTY.                        :  COUNTY
 LOC .                        :  LOCATION
 LMF .             Drill Floor:  LOG MEASURED FROM
 TVDS.m                  43.60:  TVDSS CORRECTN
 LATI.deg                40.02:  LATITUDE
 LONG.deg                51.45:  LONGITUDE
 WHNS.m                 -17.04:  WELL HEAD N/S
 WHEW.m                  -6.28:  WELL HEAD E/W
 UTMX.m              538763.98:  UTM X
 UTMY.m             4431880.20:  UTM Y
 DFWL.m                   0.00:  DISTANCE FWL
 DFSL.m                   0.00:  DISTANCE FSL
 SDEP.m                2680.01:  START DEPTH
 TDD .m                4000.01:  TOTAL DEPTH (DRILLER)
 VSDR.deg               225.71:  VERT SEC DIRECT
 GVFD.g                   1.00:  GRAVITY FIELD
 MFLD.nT              50353.00:  MAGNETIC FIELD
 MDIP.deg                59.49:  MAGNETIC DIP
 MDEC.deg                 6.46:  MAGNETIC DECL
 GRDC.deg                 0.29:  GRID CORRECTION
 AZTC.deg                 6.17:  AZM TOTAL CORR
 EPD .m                   0.00:  ELEVATION
 EGL .m                   0.00:  GROUND ELEVATION
 WDMS.m                 151.80:  WD ELEV
 APD .m                  43.60:  DEPTH ABOVE PD
 AGAP.m                  43.60:  AIR GAP
 VSEW.m                  -6.28:  VERT SEC E/W
 VSNS.m                 -17.04:  VERT SEC N/S
 DEP .m                2656.31:  DEPTH
 EKB .m                  43.60:  KB ELEVATION
 EDF .m                  43.60:  DF ELEVATION
 VSC .                       0:  VS TO CLOSURE
 MAGU.                 1851247:  MAGUTM CHECKSUM
~Parameter Information Block
#MNEM.UNIT       Value        Description
#---------     -----------    ---------------------------
 AV  .mps                 3.00:  Ann Velocity 
 AVMX.mps                 8.00:  Max Ann Veloc 
 AZIF.deg                 0.00:  Azm, Final 
 BHAT.                   Other:  BHA Type 
 BREV.rev                 0.00:  Rev Bit Total 
 BROT.°/30m               0.00:  Build Rotating 
 BS  .in                 10.25:  Bit Size 
 BTPL.psig              511.00:  Bit Press Loss 
 CABU.                      No:  Customer Abuse 
 CGEO.           Asif Pashayev:  Customer Geo 
 COMM.                     4'd:  Run Comments 1 
 TCS .hr                 24.03:  Time Ciculation Ended 
 CV  .mps                 3.50:  Crit Velocity 
 CVMX.mps                 4.00:  Max Crit Veloc 
 DD1 .             Aziz Aliyev:  Direct Drillr 1 
 DD2 .      Fakhraddin Guliyev:  Direct Drillr 2 
 DDSV.                   Other:  DD Service 
 DEFF.%                  99.00:  % Det Eff 
 DLRX.°/30m               0.00:  Dogleg Rot Max 
 DLSO.°/30m               0.00:  Dogleg Oriented 
 DLSX.°/30m               0.00:  Dogleg Str Max 
 DRET.      23.00.40 28-Mar-21:  Drill End Time 
 DRST.      23.30.40 25-Mar-21:  Drill Start Tim 
 DTIM.hr                  0.00:  Time Drilling 
 EDEP.m                3886.01:  End Depth 
 ENG1.         Almaz Almadatov:  Engineer 1 
 ENG2.      Artemiy Matviyanov:  Engineer 2 
 ENG3.           Samir Gafarov:  Engineer 3 
 ETIM.      23.00.40 28-Mar-21:  End Time 
 FLOI.gpm               550.00:  Flow In 
 FLON.gpm               500.00:  Flow In Min 
 FLOS.cptm                0.00:  Fluid Loss 
 FLOX.gpm               590.00:  Flow In Max 
 HFLO.                      No:  High Flow 
 HPRE.                      No:  High Pressure 
 HTEM.                      No:  High Temp 
 HYDO.m                   1.80:  Hydro Offset 
 IFIN.deg                 0.00:  Inc, Final 
 IMAX.deg                 0.00:  Inc Max 
 IMIN.deg                 0.00:  Inc Min 
 IMND.m                   0.00:  Inc Min Depth 
 IMXD.m                   0.00:  Inc Max Depth 
 JARR.                      No:  Jarring 
 LETM.      03.22.40 28-Mar-21:  Log End Time 
 LOST.hr                     0:  Lost Rig Time 
 LSTM.      23.30.40 25-Mar-21:  Log Start Time 
 MDCL.ppm             34000.00:  Mud Chlorides 
 MDES.     Inversion Oil/Synthetic:  Mud Desc 
 DFD .sg                  1.51:  Mud Density 
 MDMN.sg                  1.51:  Dens Mud Min 
 MDMX.sg                  1.51:  Dens Mud Max 
 MOIL.                      70:  Run Mud Oil % 
 MOWR.                   70:30:  Run Mud OWR 
 MSND.                     0.2:  Run Mud Sand % 
 MSOL.                   21.60:  Run Mud Solids% 
 DFV .spqt               74.00:  Mud Viscosity 
 MWOD.in                  6.75:  MWD Tool OD 
 MWSI.                      No:  Serv Intrp, MWD 
 OTIM.hr                 69.09:  Time Operating 
 PCON.           Look Like New:  Pad Condition 
 PMAX.psia             3500.00:  Press Op, Max 
 PV  .cP                 70.00:  Mud PV 
 RUN .                     400:  Run Number 
 ROPA.m/hr                0.00:  ROP Avg 
 ROPN.m/hr                0.00:  ROP Min 
 ROPX.m/hr                0.00:  ROP Max 
 RPMA.rpm                80.00:  RPM Surface Avg 
 RPMN.rpm                10.00:  RPM Surface Min 
 RPMX.rpm               100.00:  RPM Surface Max 
 RRUN.                    0400:  Rig Run Number 
 RTIM.hr                  3.00:  Time Reaming 
 SAZI.deg                 0.00:  Azm, Start 
 SDEP.m                3886.01:  Start Depth 
 SIDD.                      No:  Serv Intrp, DD 
 SINC.deg                 0.00:  Inc, Start 
 SPPA.psig             3270.00:  SPP Avg 
 SPPN.psig             3220.00:  SPP Min 
 SPPX.psig             4430.00:  SPP Max 
 STIM.      23.30.40 25-Mar-21:  Start Time 
 SVCS.                 DD, MWD:  Services 
 SVER.                    9.20:  Sperry Version 
 TDAT.m                   0.00:  Tot Depth Attmp 
 TDDF.                      No:  Trip for DD 
 TFF .                      No:  Trip for Fail 
 TQAA.f-kp                8.00:  Torque Abs Avg 
 TQAN.f-kp                7.00:  Torque Abs Min 
 TQAX.f-kp               11.00:  Torque Abs Max 
 TRRT.°/30m               0.00:  Turn Rotating 
 MRT .                  EWR-M5:  Maximum Recorded Temperature 
 TTMX.degC               76.47:  Max Tool Temp 
 VS01.                90640857:  Virtual Str1 SN 
 VS02.                90639246:  Virtual Str2 SN 
 VS03.                90642265:  Virtual Str3 SN 
 VS04.                11654497:  Virtual Str4 SN 
 WBMN.klb                 0.00:  WOB Min 
 WITN.      Kamran Keberlinkiy:  Customer Rep 
 WITN.           Murad Guliyev:  Customer Rep 2 
 WOBA.klb                 0.00:  WOB Avg 
 WOBX.klb                 0.00:  WOB Max 
 YP  .lhf2               36.00:  Yield Point 
~Curve Information Block
#MNEM.UNIT                 API CODE     Curve Description
#---------               -----------    ---------------------------
 TIME.HHMMSS            00 000 000 000:  GT Time & Date
 GTDEPTH.m              00 000 000 000:  GT Depth
 GTPQH.psia             00 000 000 000:  GT HR Quartz Pressure
 GTTQ.degC              00 000 000 000:  GT Quartz Temperature
 GTTN.NONE              00 000 000 000:  GT Test Number
 GTET.sec               00 000 000 000:  GT Elapsed Test Time
 GTTVD.m                00 000 000 000:  GT True Vertical Depth
#Other Information
#
#WARRANTY: Halliburton will use its best efforts to furnish customers with 
#accurate information and interpretations that are part of, and incident to, the services 
#provided.  However, Halliburton cannot and does not warrant the accuracy 
#or correctness of such information and interpretations.  Under no circumstances should any 
#such information or interpretation be relied upon as the sole basis for any drilling, 
#completion, production, or financial decision or any procedure involving any risk to the 
#safety of any drilling venture, drilling rig or its crew or any other third party.  The 
#Customer has full responsibility for all drilling, completion and production operation.  
#Halliburton makes no representations or warranties, either expressed or 
#implied, including, but not limited to, the implied warranties of merchantability or fitness 
#for a particular purpose, with respect to the services rendered.  In no event will 
#Halliburton be liable for failure to obtain any particular results or for 
#any damages, including, but not limited to, indirect, special or consequential damages, 
#resulting from the use of any information or interpretation provided by Halliburton.
#
~A           TIME           GTDEPTH  GTPQH  GTTQ  GTTN   GTET   GTTVD  
# ...
   12:22:31.346.27-Mar-2021 3369.01 4841.37 61.77 12.00 316.62 3116.52
   12:22:31.547.27-Mar-2021 3369.01 4841.34 61.77 12.00 316.82 3116.52
   12:22:31.747.27-Mar-2021 3369.01 4841.62 61.77 12.00 317.02 3116.52
   12:22:31.947.27-Mar-2021 3369.01 4840.94 61.77 12.00 317.22 3116.52
   12:22:32.147.27-Mar-2021 3369.01 4840.94 61.77 12.00 317.42 3116.52
   12:22:32.347.27-Mar-2021 3369.01 4840.87 61.77 12.00 317.62 3116.52
   12:22:32.547.27-Mar-2021 3369.01 4841.70 61.77 12.00 317.82 3116.52
   12:22:32.747.27-Mar-2021 3369.01 4841.56 61.77 12.00 318.02 3116.52
   12:22:32.948.27-Mar-2021 3369.01 4841.61 61.77 12.00 318.22 3116.52
   12:22:33.148.27-Mar-2021 3369.01 4841.61 61.77 12.00 318.43 3116.52
   12:22:33.348.27-Mar-2021 3369.01 4841.85 61.77 12.00 318.63 3116.52
   12:22:33.548.27-Mar-2021 3369.01 4842.03 61.77 12.00 318.83 3116.52
   12:22:33.748.27-Mar-2021 3369.01 4842.43 61.77 12.00 319.03 3116.52
   12:22:33.948.27-Mar-2021 3369.01 4842.07 61.77 12.00 319.23 3116.52
   12:22:34.148.27-Mar-2021 3369.01 4842.07 61.77 12.00 319.43 3116.52
   12:22:34.348.27-Mar-2021 3369.01 4842.82 61.77 12.00 319.63 3116.52
   12:22:34.549.27-Mar-2021 3369.01 4841.94 61.77 12.00 319.83 3116.52
   12:22:34.749.27-Mar-2021 3369.01 4842.48 61.77 12.00 320.03 3116.52
   12:22:34.949.27-Mar-2021 3369.01 4842.82 61.77 12.00 320.23 3116.52
   12:22:35.149.27-Mar-2021 3369.01 4842.82 61.77 12.00 320.43 3116.52
   12:22:35.349.27-Mar-2021 3369.01 4842.12 61.77 12.00 320.63 3116.52
   12:22:35.549.27-Mar-2021 3369.01 4842.35 61.77 12.00 320.83 3116.52
   12:22:35.749.27-Mar-2021 3369.01 4842.39 61.77 12.00 321.03 3116.52
   12:22:35.950.27-Mar-2021 3369.01 4842.44 61.77 12.00 321.23 3116.52
   12:22:36.150.27-Mar-2021 3369.01 4842.44 61.77 12.00 321.43 3116.52
   12:22:36.350.27-Mar-2021 3369.01 4842.52 61.77 12.00 321.63 3116.52
   12:22:36.550.27-Mar-2021 3369.01 4842.45 61.77 12.00 321.83 3116.52
   12:22:36.750.27-Mar-2021 3369.01 4842.63 61.77 12.00 322.03 3116.52
   12:22:36.950.27-Mar-2021 3369.01 4842.81 61.77 12.00 322.23 3116.52
   12:22:37.150.27-Mar-2021 3369.01 4842.81 61.77 12.00 322.43 3116.52
   12:22:37.351.27-Mar-2021 3369.01 4841.90 61.77 12.00 322.63 3116.52
   12:22:37.551.27-Mar-2021 3369.01 4842.77 61.77 12.00 322.83 3116.52
   12:22:37.751.27-Mar-2021 3369.01 4842.69 61.77 12.00 323.03 3116.52
   12:22:37.951.27-Mar-2021 3369.01 4843.23 61.77 12.00 323.23 3116.52
   12:22:38.151.27-Mar-2021 3369.01 4843.23 61.77 12.00 323.43 3116.52
   12:22:38.351.27-Mar-2021 3369.01 4842.46 61.77 12.00 323.63 3116.52
   12:22:38.551.27-Mar-2021 3369.01 4842.53 61.77 12.00 323.83 3116.52
   12:22:38.752.27-Mar-2021 3369.01 4842.77 61.77 12.00 324.03 3116.52
   12:22:38.952.27-Mar-2021 3369.01 4842.77 61.77 12.00 324.23 3116.52
   12:22:39.152.27-Mar-2021 3369.01 4842.77 61.77 12.00 324.43 3116.52
   12:22:39.352.27-Mar-2021 3369.01 4843.25 61.77 12.00 324.63 3116.52
   12:22:39.552.27-Mar-2021 3369.01 4842.80 61.77 12.00 324.83 3116.52
   12:22:39.752.27-Mar-2021 3369.01 4842.93 61.77 12.00 325.03 3116.52
   12:22:39.952.27-Mar-2021 3369.01 4842.61 61.77 12.00 325.23 3116.52
   12:22:40.153.27-Mar-2021 3369.01 4842.61 61.77 12.00 325.43 3116.52
   12:22:40.353.27-Mar-2021 3369.01 4842.87 61.77 12.00 325.63 3116.52
   12:22:40.553.27-Mar-2021 3369.01 4843.45 61.77 12.00 325.83 3116.52
   12:22:40.753.27-Mar-2021 3369.01 4843.12 61.77 12.00 326.03 3116.52
   12:22:40.953.27-Mar-2021 3369.01 4843.04 61.77 12.00 326.23 3116.52
   12:22:41.153.27-Mar-2021 3369.01 4843.04 61.77 12.00 326.43 3116.52
   12:22:41.353.27-Mar-2021 3369.01 4843.12 61.77 12.00 326.63 3116.52
   12:22:41.554.27-Mar-2021 3369.01 4841.85 61.77 12.00 326.83 3116.52
   12:22:41.754.27-Mar-2021 3369.01 4844.13 61.77 12.00 327.03 3116.52
   12:22:41.954.27-Mar-2021 3369.01 4843.74 61.77 12.00 327.23 3116.52
   12:22:42.154.27-Mar-2021 3369.01 4843.74 61.77 12.00 327.43 3116.52
   12:22:42.354.27-Mar-2021 3369.01 4843.65 61.77 12.00 327.63 3116.52
   12:22:42.554.27-Mar-2021 3369.01 4843.19 61.77 12.00 327.83 3116.52
   12:22:42.754.27-Mar-2021 3369.01 4842.46 61.77 12.00 328.03 3116.52
   12:22:42.955.27-Mar-2021 3369.01 4844.64 61.77 12.00 328.23 3116.52
   12:22:43.155.27-Mar-2021 3369.01 4844.64 61.77 12.00 328.43 3116.52
   12:22:43.355.27-Mar-2021 3369.01 4843.20 61.77 12.00 328.63 3116.52
   12:22:43.555.27-Mar-2021 3369.01 4843.48 61.76 12.00 328.83 3116.52
   12:22:43.755.27-Mar-2021 3369.01 4843.57 61.76 12.00 329.03 3116.52
   12:22:43.955.27-Mar-2021 3369.01 4842.72 61.76 12.00 329.23 3116.52
   12:22:44.155.27-Mar-2021 3369.01 4842.72 61.76 12.00 329.43 3116.52
   12:22:44.356.27-Mar-2021 3369.01 4843.51 61.76 12.00 329.63 3116.52
   12:22:44.556.27-Mar-2021 3369.01 4843.10 61.76 12.00 329.83 3116.52
   12:22:44.756.27-Mar-2021 3369.01 4843.40 61.76 12.00 330.03 3116.52
   12:22:44.956.27-Mar-2021 3369.01 4843.70 61.76 12.00 330.23 3116.52
   12:22:45.156.27-Mar-2021 3369.01 4843.70 61.76 12.00 330.43 3116.52
   12:22:45.356.27-Mar-2021 3369.01 4843.78 61.76 12.00 330.63 3116.52
   12:22:45.556.27-Mar-2021 3369.01 4843.51 61.76 12.00 330.83 3116.52
   12:22:45.757.27-Mar-2021 3369.01 4843.37 61.76 12.00 331.03 3116.52
   12:22:45.957.27-Mar-2021 3369.01 4843.50 61.76 12.00 331.23 3116.52
   12:22:46.157.27-Mar-2021 3369.01 4843.50 61.76 12.00 331.43 3116.52
   12:22:46.357.27-Mar-2021 3369.01 4843.45 61.76 12.00 331.63 3116.52
   12:22:46.557.27-Mar-2021 3369.01 4843.59 61.76 12.00 331.83 3116.52
   12:22:46.757.27-Mar-2021 3369.01 4843.61 61.76 12.00 332.03 3116.52
   12:22:46.957.27-Mar-2021 3369.01 4843.56 61.76 12.00 332.23 3116.52
   12:22:47.158.27-Mar-2021 3369.01 4843.56 61.76 12.00 332.44 3116.52
   12:22:47.358.27-Mar-2021 3369.01 4844.30 61.76 12.00 332.64 3116.52
   12:22:47.558.27-Mar-2021 3369.01 4843.53 61.76 12.00 332.84 3116.52
   12:22:47.758.27-Mar-2021 3369.01 4843.97 61.76 12.00 333.04 3116.52
   12:22:47.958.27-Mar-2021 3369.01 4844.22 61.76 12.00 333.24 3116.52
   12:22:48.158.27-Mar-2021 3369.01 4844.22 61.76 12.00 333.44 3116.52
   12:22:48.358.27-Mar-2021 3369.01 4844.16 61.76 12.00 333.64 3116.52
   12:22:48.559.27-Mar-2021 3369.01 4844.20 61.76 12.00 333.84 3116.52
   12:22:48.759.27-Mar-2021 3369.01 4844.11 61.76 12.00 334.04 3116.52
   12:22:48.959.27-Mar-2021 3369.01 4843.98 61.76 12.00 334.24 3116.52
   12:22:49.159.27-Mar-2021 3369.01 4843.98 61.76 12.00 334.44 3116.52
   12:22:49.359.27-Mar-2021 3369.01 4843.70 61.76 12.00 334.64 3116.52
   12:22:49.559.27-Mar-2021 3369.01 4843.80 61.76 12.00 334.84 3116.52
   12:22:49.759.27-Mar-2021 3369.01 4843.53 61.76 12.00 335.04 3116.52
   12:22:49.960.27-Mar-2021 3369.01 4845.07 61.76 12.00 335.24 3116.52
   12:22:50.160.27-Mar-2021 3369.01 4845.07 61.76 12.00 335.44 3116.52
   12:22:50.360.27-Mar-2021 3369.01 4844.09 61.76 12.00 335.64 3116.52
   12:22:50.560.27-Mar-2021 3369.01 4844.32 61.76 12.00 335.84 3116.52
   12:22:50.760.27-Mar-2021 3369.01 4844.39 61.76 12.00 336.04 3116.52
   12:22:50.960.27-Mar-2021 3369.01 4844.52 61.76 12.00 336.24 3116.52
   12:22:51.160.27-Mar-2021 3369.01 4844.52 61.76 12.00 336.44 3116.52
   12:22:51.361.27-Mar-2021 3369.01 4843.20 61.76 12.00 336.64 3116.52
   12:22:51.561.27-Mar-2021 3369.01 4844.49 61.76 12.00 336.84 3116.52
   12:22:51.761.27-Mar-2021 3369.01 4844.06 61.76 12.00 337.04 3116.52
   12:22:51.961.27-Mar-2021 3369.01 4844.15 61.76 12.00 337.24 3116.52
   12:22:52.161.27-Mar-2021 3369.01 4844.15 61.76 12.00 337.44 3116.52
   12:22:52.361.27-Mar-2021 3369.01 4844.04 61.76 12.00 337.64 3116.52
   12:22:52.561.27-Mar-2021 3369.01 4843.05 61.76 12.00 337.84 3116.52
   12:22:52.762.27-Mar-2021 3369.01 4844.85 61.76 12.00 338.04 3116.52
   12:22:52.962.27-Mar-2021 3369.01 4844.43 61.76 12.00 338.24 3116.52
   12:22:53.162.27-Mar-2021 3369.01 4844.43 61.76 12.00 338.44 3116.52
   12:22:53.362.27-Mar-2021 3369.01 4844.51 61.76 12.00 338.64 3116.52
   12:22:53.562.27-Mar-2021 3369.01 4844.28 61.76 12.00 338.84 3116.52
   12:22:53.762.27-Mar-2021 3369.01 4844.22 61.76 12.00 339.04 3116.52
