~Version Information
 VERS.                  2.0:   CWLS log ASCII Standard -VERSION 2.0
 WRAP.                   NO:   One line per depth step
~Well Information Block
#MNEM.UNIT     VALUE/NAME     DESCRIPTION
#---------     -----------    ---------------------------
 STRT.S             06:42:15 27-Mar-21: START TIME 06:42:15 27-Mar-21
 STOP.S             06:49:25 27-Mar-21: STOP TIME  06:49:25 27-Mar-21
 STEP.S                   0.00: STEP TIME
 NULL.                 -999.25: NULL VALUE
 DFWT.                        :  DIST FWL TEXT
 DFST.                        :  DIST FSL TEXT
 DMF .             Drill Floor:  DRILL MEAS FROM
 STIM.      20.26.40 11-Mar-21:  START TIME
 DATE.      20.26.40 30-Mar-21:  END TIME
 SPUD.               11-Mar-21:  SPUD DATE
 NREF.                    Grid:  NORTH REFERENCE
 HPTY.       Minimum Curvature:  HOLE POS TYPE
 DMOD.             Drill Model:  DRILL MOD DESC
 SVYD.                  Survey:  SURVEY DESC
 ILTD.               Lithology:  INTERP LTH DESC
 FTOP.          Formation Tops:  FORM TOPS DESC
 SON .        AZ-XX-0906805385:  JOB NUMBER
 WTYP.                Deviated:  WELL TYPE
 COMP.     BP Exploration (Caspian Sea) Ltd.:  COMPANY
 UWI .            /AZE00000198:  UNIQUE WELL IDENTIFIER
 API .            /AZE00000198:  API NUMBER
 BASE.              Azerbaijan:  LOGGING EQUIPMENT BASE LOCATION
 REGN.                   EESSA:  REGION
 PROV.                    Baku:  PROVINCE
 STAT.                    Baku:  STATE NAME
 CTRY.              Azerbaijan:  COUNTRY NAME
 FLD .                     ACG:  FIELD NAME
 SRVC.     Turan Drilling & Engineering:  CONTRACTOR
 MWDS.                    Baku:  MWD SHOP
 WELL.                    D09z:  WELL NAME
 JOBN.        AZ-XX-0906805385:  JOB TICKET NUMB
 RIG .              East Azeri:  RIG NAME
 DOE .                     N/A:  DOE NUMBER
 DCON.         Sperry Drilling:  DIRECTNL CONTR
 UNIT.                     N/A:  LOGGING EQUIPMENT ID
 PDAT.          Mean Sea Level:  PERMANENT DATUM
 MDS .        Operator Entered:  MAG DATA SOURCE
 CNTY.                        :  COUNTY
 LOC .                        :  LOCATION
 LMF .             Drill Floor:  LOG MEASURED FROM
 TVDS.m                  43.60:  TVDSS CORRECTN
 LATI.deg                40.02:  LATITUDE
 LONG.deg                51.45:  LONGITUDE
 WHNS.m                 -17.04:  WELL HEAD N/S
 WHEW.m                  -6.28:  WELL HEAD E/W
 UTMX.m              538763.98:  UTM X
 UTMY.m             4431880.20:  UTM Y
 DFWL.m                   0.00:  DISTANCE FWL
 DFSL.m                   0.00:  DISTANCE FSL
 SDEP.m                2680.01:  START DEPTH
 TDD .m                4000.01:  TOTAL DEPTH (DRILLER)
 VSDR.deg               225.71:  VERT SEC DIRECT
 GVFD.g                   1.00:  GRAVITY FIELD
 MFLD.nT              50353.00:  MAGNETIC FIELD
 MDIP.deg                59.49:  MAGNETIC DIP
 MDEC.deg                 6.46:  MAGNETIC DECL
 GRDC.deg                 0.29:  GRID CORRECTION
 AZTC.deg                 6.17:  AZM TOTAL CORR
 EPD .m                   0.00:  ELEVATION
 EGL .m                   0.00:  GROUND ELEVATION
 WDMS.m                 151.80:  WD ELEV
 APD .m                  43.60:  DEPTH ABOVE PD
 AGAP.m                  43.60:  AIR GAP
 VSEW.m                  -6.28:  VERT SEC E/W
 VSNS.m                 -17.04:  VERT SEC N/S
 DEP .m                2656.31:  DEPTH
 EKB .m                  43.60:  KB ELEVATION
 EDF .m                  43.60:  DF ELEVATION
 VSC .                       0:  VS TO CLOSURE
 MAGU.                 1851247:  MAGUTM CHECKSUM
~Parameter Information Block
#MNEM.UNIT       Value        Description
#---------     -----------    ---------------------------
 AV  .mps                 3.00:  Ann Velocity 
 AVMX.mps                 8.00:  Max Ann Veloc 
 AZIF.deg                 0.00:  Azm, Final 
 BHAT.                   Other:  BHA Type 
 BREV.rev                 0.00:  Rev Bit Total 
 BROT.°/30m               0.00:  Build Rotating 
 BS  .in                 10.25:  Bit Size 
 BTPL.psig              511.00:  Bit Press Loss 
 CABU.                      No:  Customer Abuse 
 CGEO.           Asif Pashayev:  Customer Geo 
 COMM.                     lÇi:  Run Comments 1 
 TCS .hr                 24.03:  Time Ciculation Ended 
 CV  .mps                 3.50:  Crit Velocity 
 CVMX.mps                 4.00:  Max Crit Veloc 
 DD1 .             Aziz Aliyev:  Direct Drillr 1 
 DD2 .      Fakhraddin Guliyev:  Direct Drillr 2 
 DDSV.                   Other:  DD Service 
 DEFF.%                  99.00:  % Det Eff 
 DLRX.°/30m               0.00:  Dogleg Rot Max 
 DLSO.°/30m               0.00:  Dogleg Oriented 
 DLSX.°/30m               0.00:  Dogleg Str Max 
 DRET.      23.00.40 28-Mar-21:  Drill End Time 
 DRST.      23.30.40 25-Mar-21:  Drill Start Tim 
 DTIM.hr                  0.00:  Time Drilling 
 EDEP.m                3886.01:  End Depth 
 ENG1.         Almaz Almadatov:  Engineer 1 
 ENG2.      Artemiy Matviyanov:  Engineer 2 
 ENG3.           Samir Gafarov:  Engineer 3 
 ETIM.      23.00.40 28-Mar-21:  End Time 
 FLOI.gpm               550.00:  Flow In 
 FLON.gpm               500.00:  Flow In Min 
 FLOS.cptm                0.00:  Fluid Loss 
 FLOX.gpm               590.00:  Flow In Max 
 HFLO.                      No:  High Flow 
 HPRE.                      No:  High Pressure 
 HTEM.                      No:  High Temp 
 HYDO.m                   1.80:  Hydro Offset 
 IFIN.deg                 0.00:  Inc, Final 
 IMAX.deg                 0.00:  Inc Max 
 IMIN.deg                 0.00:  Inc Min 
 IMND.m                   0.00:  Inc Min Depth 
 IMXD.m                   0.00:  Inc Max Depth 
 JARR.                      No:  Jarring 
 LETM.      03.22.40 28-Mar-21:  Log End Time 
 LOST.hr                     0:  Lost Rig Time 
 LSTM.      23.30.40 25-Mar-21:  Log Start Time 
 MDCL.ppm             34000.00:  Mud Chlorides 
 MDES.     Inversion Oil/Synthetic:  Mud Desc 
 DFD .sg                  1.51:  Mud Density 
 MDMN.sg                  1.51:  Dens Mud Min 
 MDMX.sg                  1.51:  Dens Mud Max 
 MOIL.                      70:  Run Mud Oil % 
 MOWR.                   70:30:  Run Mud OWR 
 MSND.                     0.2:  Run Mud Sand % 
 MSOL.                   21.60:  Run Mud Solids% 
 DFV .spqt               74.00:  Mud Viscosity 
 MWOD.in                  6.75:  MWD Tool OD 
 MWSI.                      No:  Serv Intrp, MWD 
 OTIM.hr                 69.09:  Time Operating 
 PCON.           Look Like New:  Pad Condition 
 PMAX.psia             3500.00:  Press Op, Max 
 PV  .cP                 70.00:  Mud PV 
 RUN .                     400:  Run Number 
 ROPA.m/hr                0.00:  ROP Avg 
 ROPN.m/hr                0.00:  ROP Min 
 ROPX.m/hr                0.00:  ROP Max 
 RPMA.rpm                80.00:  RPM Surface Avg 
 RPMN.rpm                10.00:  RPM Surface Min 
 RPMX.rpm               100.00:  RPM Surface Max 
 RRUN.                    0400:  Rig Run Number 
 RTIM.hr                  3.00:  Time Reaming 
 SAZI.deg                 0.00:  Azm, Start 
 SDEP.m                3886.01:  Start Depth 
 SIDD.                      No:  Serv Intrp, DD 
 SINC.deg                 0.00:  Inc, Start 
 SPPA.psig             3270.00:  SPP Avg 
 SPPN.psig             3220.00:  SPP Min 
 SPPX.psig             4430.00:  SPP Max 
 STIM.      23.30.40 25-Mar-21:  Start Time 
 SVCS.                 DD, MWD:  Services 
 SVER.                    9.20:  Sperry Version 
 TDAT.m                   0.00:  Tot Depth Attmp 
 TDDF.                      No:  Trip for DD 
 TFF .                      No:  Trip for Fail 
 TQAA.f-kp                8.00:  Torque Abs Avg 
 TQAN.f-kp                7.00:  Torque Abs Min 
 TQAX.f-kp               11.00:  Torque Abs Max 
 TRRT.°/30m               0.00:  Turn Rotating 
 MRT .                  EWR-M5:  Maximum Recorded Temperature 
 TTMX.degC               76.47:  Max Tool Temp 
 VS01.                90640857:  Virtual Str1 SN 
 VS02.                90639246:  Virtual Str2 SN 
 VS03.                90642265:  Virtual Str3 SN 
 VS04.                11654497:  Virtual Str4 SN 
 WBMN.klb                 0.00:  WOB Min 
 WITN.      Kamran Keberlinkiy:  Customer Rep 
 WITN.           Murad Guliyev:  Customer Rep 2 
 WOBA.klb                 0.00:  WOB Avg 
 WOBX.klb                 0.00:  WOB Max 
 YP  .lhf2               36.00:  Yield Point 
~Curve Information Block
#MNEM.UNIT                 API CODE     Curve Description
#---------               -----------    ---------------------------
 TIME.HHMMSS            00 000 000 000:  GT Time & Date
 GTDEPTH.m              00 000 000 000:  GT Depth
 GTPQH.psia             00 000 000 000:  GT HR Quartz Pressure
 GTTQ.degC              00 000 000 000:  GT Quartz Temperature
 GTTN.NONE              00 000 000 000:  GT Test Number
 GTET.sec               00 000 000 000:  GT Elapsed Test Time
 GTTVD.m                00 000 000 000:  GT True Vertical Depth
#Other Information
#
#WARRANTY: Halliburton will use its best efforts to furnish customers with 
#accurate information and interpretations that are part of, and incident to, the services 
#provided.  However, Halliburton cannot and does not warrant the accuracy 
#or correctness of such information and interpretations.  Under no circumstances should any 
#such information or interpretation be relied upon as the sole basis for any drilling, 
#completion, production, or financial decision or any procedure involving any risk to the 
#safety of any drilling venture, drilling rig or its crew or any other third party.  The 
#Customer has full responsibility for all drilling, completion and production operation.  
#Halliburton makes no representations or warranties, either expressed or 
#implied, including, but not limited to, the implied warranties of merchantability or fitness 
#for a particular purpose, with respect to the services rendered.  In no event will 
#Halliburton be liable for failure to obtain any particular results or for 
#any damages, including, but not limited to, indirect, special or consequential damages, 
#resulting from the use of any information or interpretation provided by Halliburton.
#
~A           TIME           GTDEPTH  GTPQH  GTTQ  GTTN  GTET   GTTVD  
   06:42:15.223.27-Mar-2021 3443.51 7405.21 60.47 5.00   0.00 3186.30
   06:42:15.423.27-Mar-2021 3443.51 7405.21 60.47 5.00   0.20 3186.30
   06:42:15.623.27-Mar-2021 3443.51 7405.37 60.47 5.00   0.40 3186.30
   06:42:15.823.27-Mar-2021 3443.51 7409.55 60.46 5.00   0.60 3186.30
   06:42:16.023.27-Mar-2021 3443.51 7405.03 60.46 5.00   0.80 3186.30
   06:42:16.223.27-Mar-2021 3443.51 7406.53 60.46 5.00   1.00 3186.30
   06:42:16.423.27-Mar-2021 3443.51 7406.53 60.46 5.00   1.20 3186.30
   06:42:16.623.27-Mar-2021 3443.51 7407.41 60.46 5.00   1.40 3186.30
   06:42:16.823.27-Mar-2021 3443.51 7407.24 60.46 5.00   1.60 3186.30
   06:42:17.023.27-Mar-2021 3443.51 7411.26 60.46 5.00   1.80 3186.30
   06:42:17.223.27-Mar-2021 3443.51 7407.05 60.46 5.00   2.00 3186.30
   06:42:17.423.27-Mar-2021 3443.51 7407.05 60.46 5.00   2.20 3186.30
   06:42:17.623.27-Mar-2021 3443.51 7408.88 60.46 5.00   2.40 3186.30
   06:42:17.823.27-Mar-2021 3443.51 7408.80 60.46 5.00   2.60 3186.30
   06:42:18.023.27-Mar-2021 3443.51 7410.46 60.46 5.00   2.80 3186.30
   06:42:18.223.27-Mar-2021 3443.51 7410.84 60.46 5.00   3.00 3186.30
   06:42:18.423.27-Mar-2021 3443.51 7410.84 60.46 5.00   3.20 3186.30
   06:42:18.624.27-Mar-2021 3443.51 7409.72 60.46 5.00   3.40 3186.30
   06:42:18.824.27-Mar-2021 3443.51 7411.55 60.46 5.00   3.60 3186.30
   06:42:19.024.27-Mar-2021 3443.51 7412.03 60.46 5.00   3.80 3186.30
   06:42:19.224.27-Mar-2021 3443.51 7409.85 60.46 5.00   4.00 3186.30
   06:42:19.424.27-Mar-2021 3443.51 7409.85 60.46 5.00   4.20 3186.30
   06:42:19.624.27-Mar-2021 3443.51 7410.46 60.46 5.00   4.40 3186.30
   06:42:19.824.27-Mar-2021 3443.51 7411.63 60.46 5.00   4.60 3186.30
   06:42:20.024.27-Mar-2021 3443.51 7410.51 60.46 5.00   4.80 3186.30
   06:42:20.224.27-Mar-2021 3443.51 7411.19 60.46 5.00   5.00 3186.30
   06:42:20.424.27-Mar-2021 3443.51 7411.19 60.46 5.00   5.20 3186.30
   06:42:20.624.27-Mar-2021 3443.51 7411.21 60.46 5.00   5.40 3186.30
   06:42:20.824.27-Mar-2021 3443.51 7412.24 60.46 5.00   5.60 3186.30
   06:42:21.024.27-Mar-2021 3443.51 7412.49 60.46 5.00   5.80 3186.30
   06:42:21.224.27-Mar-2021 3443.51 7412.72 60.46 5.00   6.00 3186.30
   06:42:21.424.27-Mar-2021 3443.51 7412.72 60.46 5.00   6.20 3186.30
   06:42:21.624.27-Mar-2021 3443.51 7412.18 60.46 5.00   6.40 3186.30
   06:42:21.824.27-Mar-2021 3443.51 7412.49 60.46 5.00   6.60 3186.30
   06:42:22.024.27-Mar-2021 3443.51 7412.35 60.46 5.00   6.80 3186.30
   06:42:22.224.27-Mar-2021 3443.51 7413.13 60.46 5.00   7.00 3186.30
   06:42:22.424.27-Mar-2021 3443.51 7413.13 60.46 5.00   7.20 3186.30
   06:42:22.625.27-Mar-2021 3443.51 7413.03 60.46 5.00   7.40 3186.30
   06:42:22.825.27-Mar-2021 3443.51 7413.02 60.46 5.00   7.60 3186.30
   06:42:23.025.27-Mar-2021 3443.51 7413.40 60.46 5.00   7.80 3186.30
   06:42:23.225.27-Mar-2021 3443.51 7413.44 60.46 5.00   8.00 3186.30
   06:42:23.425.27-Mar-2021 3443.51 7413.44 60.46 5.00   8.20 3186.30
   06:42:23.625.27-Mar-2021 3443.51 7413.51 60.46 5.00   8.40 3186.30
   06:42:23.825.27-Mar-2021 3443.51 7416.90 60.46 5.00   8.60 3186.30
   06:42:24.025.27-Mar-2021 3443.51 7413.85 60.46 5.00   8.80 3186.30
   06:42:24.225.27-Mar-2021 3443.51 7414.41 60.46 5.00   9.00 3186.30
   06:42:24.425.27-Mar-2021 3443.51 7414.41 60.46 5.00   9.20 3186.30
   06:42:24.625.27-Mar-2021 3443.51 7414.45 60.46 5.00   9.40 3186.30
   06:42:24.825.27-Mar-2021 3443.51 7414.04 60.46 5.00   9.60 3186.30
   06:42:25.025.27-Mar-2021 3443.51 7414.39 60.46 5.00   9.80 3186.30
   06:42:25.225.27-Mar-2021 3443.51 7414.52 60.46 5.00  10.00 3186.30
   06:42:25.425.27-Mar-2021 3443.51 7414.52 60.46 5.00  10.20 3186.30
   06:42:25.625.27-Mar-2021 3443.51 7415.05 60.46 5.00  10.40 3186.30
   06:42:25.825.27-Mar-2021 3443.51 7414.83 60.46 5.00  10.60 3186.30
   06:42:26.025.27-Mar-2021 3443.51 7414.77 60.46 5.00  10.80 3186.30
   06:42:26.225.27-Mar-2021 3443.51 7414.99 60.46 5.00  11.00 3186.30
   06:42:26.425.27-Mar-2021 3443.51 7414.99 60.46 5.00  11.20 3186.30
   06:42:26.626.27-Mar-2021 3443.51 7415.49 60.46 5.00  11.40 3186.30
   06:42:26.826.27-Mar-2021 3443.51 7415.43 60.46 5.00  11.60 3186.30
   06:42:27.026.27-Mar-2021 3443.51 7415.33 60.46 5.00  11.80 3186.30
   06:42:27.226.27-Mar-2021 3443.51 7419.48 60.46 5.00  12.00 3186.30
   06:42:27.426.27-Mar-2021 3443.51 7419.48 60.46 5.00  12.20 3186.30
   06:42:27.626.27-Mar-2021 3443.51 7416.12 60.46 5.00  12.40 3186.30
   06:42:27.826.27-Mar-2021 3443.51 7416.11 60.46 5.00  12.60 3186.30
   06:42:28.026.27-Mar-2021 3443.51 7416.23 60.46 5.00  12.80 3186.30
   06:42:28.226.27-Mar-2021 3443.51 7419.69 60.46 5.00  13.00 3186.30
   06:42:28.426.27-Mar-2021 3443.51 7419.69 60.46 5.00  13.20 3186.30
   06:42:28.626.27-Mar-2021 3443.51 7417.10 60.46 5.00  13.40 3186.30
   06:42:28.826.27-Mar-2021 3443.51 7416.66 60.46 5.00  13.60 3186.30
   06:42:29.026.27-Mar-2021 3443.51 7421.08 60.46 5.00  13.80 3186.30
   06:42:29.226.27-Mar-2021 3443.51 7416.95 60.46 5.00  14.00 3186.30
   06:42:29.426.27-Mar-2021 3443.51 7416.95 60.46 5.00  14.20 3186.30
   06:42:29.626.27-Mar-2021 3443.51 7417.44 60.45 5.00  14.40 3186.30
   06:42:29.826.27-Mar-2021 3443.51 7422.58 60.45 5.00  14.60 3186.30
   06:42:30.026.27-Mar-2021 3443.51 7417.54 60.45 5.00  14.80 3186.30
   06:42:30.226.27-Mar-2021 3443.51 7418.22 60.45 5.00  15.00 3186.30
   06:42:30.426.27-Mar-2021 3443.51 7418.22 60.45 5.00  15.20 3186.30
   06:42:30.626.27-Mar-2021 3443.51 7418.85 60.45 5.00  15.40 3186.30
   06:42:30.827.27-Mar-2021 3443.51 7418.68 60.45 5.00  15.60 3186.30
   06:42:31.027.27-Mar-2021 3443.51 7417.87 60.45 5.00  15.80 3186.30
   06:42:31.227.27-Mar-2021 3443.51 7421.52 60.45 5.00  16.00 3186.30
   06:42:31.427.27-Mar-2021 3443.51 7421.52 60.45 5.00  16.20 3186.30
   06:42:31.627.27-Mar-2021 3443.51 7421.52 60.45 5.00  16.40 3186.30
   06:42:31.827.27-Mar-2021 3443.51 7419.11 60.45 5.00  16.60 3186.30
   06:42:32.027.27-Mar-2021 3443.51 7419.47 60.45 5.00  16.80 3186.30
   06:42:32.227.27-Mar-2021 3443.51 7419.14 60.45 5.00  17.00 3186.30
   06:42:32.427.27-Mar-2021 3443.51 7419.14 60.45 5.00  17.20 3186.30
   06:42:32.627.27-Mar-2021 3443.51 7419.19 60.45 5.00  17.40 3186.30
   06:42:32.827.27-Mar-2021 3443.51 7419.76 60.45 5.00  17.60 3186.30
   06:42:33.027.27-Mar-2021 3443.51 7419.93 60.45 5.00  17.80 3186.30
   06:42:33.227.27-Mar-2021 3443.51 7419.82 60.45 5.00  18.00 3186.30
   06:42:33.427.27-Mar-2021 3443.51 7419.82 60.45 5.00  18.20 3186.30
   06:42:33.627.27-Mar-2021 3443.51 7420.22 60.45 5.00  18.40 3186.30
   06:42:33.827.27-Mar-2021 3443.51 7419.96 60.45 5.00  18.60 3186.30
   06:42:34.027.27-Mar-2021 3443.51 7419.96 60.45 5.00  18.80 3186.30
   06:42:34.227.27-Mar-2021 3443.51 7420.09 60.45 5.00  19.00 3186.30
   06:42:34.427.27-Mar-2021 3443.51 7420.09 60.45 5.00  19.20 3186.30
   06:42:34.627.27-Mar-2021 3443.51 7419.36 60.45 5.00  19.40 3186.30
   06:42:34.828.27-Mar-2021 3443.51 7420.10 60.45 5.00  19.60 3186.30
   06:42:35.028.27-Mar-2021 3443.51 7420.87 60.45 5.00  19.80 3186.30
   06:42:35.228.27-Mar-2021 3443.51 7420.53 60.45 5.00  20.00 3186.30
   06:42:35.428.27-Mar-2021 3443.51 7420.53 60.45 5.00  20.21 3186.30
   06:42:35.628.27-Mar-2021 3443.51 7419.84 60.45 5.00  20.41 3186.30
   06:42:35.828.27-Mar-2021 3443.51 7420.45 60.45 5.00  20.61 3186.30
   06:42:36.028.27-Mar-2021 3443.51 7419.99 60.45 5.00  20.81 3186.30
   06:42:36.228.27-Mar-2021 3443.51 7420.62 60.45 5.00  21.01 3186.30
   06:42:36.428.27-Mar-2021 3443.51 7420.62 60.45 5.00  21.21 3186.30
   06:42:36.628.27-Mar-2021 3443.51 7420.58 60.45 5.00  21.41 3186.30
   06:42:36.828.27-Mar-2021 3443.51 7420.68 60.45 5.00  21.61 3186.30
   06:42:37.028.27-Mar-2021 3443.51 7420.53 60.45 5.00  21.81 3186.30
   06:42:37.228.27-Mar-2021 3443.51 7424.30 60.45 5.00  22.01 3186.30
   06:42:37.428.27-Mar-2021 3443.51 7424.30 60.45 5.00  22.21 3186.30
   06:42:37.628.27-Mar-2021 3443.51 7421.75 60.45 5.00  22.41 3186.30
   06:42:37.828.27-Mar-2021 3443.51 7421.00 60.45 5.00  22.61 3186.30
   06:42:38.028.27-Mar-2021 3443.51 7421.50 60.45 5.00  22.81 3186.30
