~Version Information
 VERS.                  2.0:   CWLS log ASCII Standard -VERSION 2.0
 WRAP.                   NO:   One line per depth step
~Well Information Block
#MNEM.UNIT     VALUE/NAME     DESCRIPTION
#---------     -----------    ---------------------------
 STRT.S             11:05:10 27-Mar-21: START TIME 11:05:10 27-Mar-21
 STOP.S             11:12:21 27-Mar-21: STOP TIME  11:12:21 27-Mar-21
 STEP.S                   0.00: STEP TIME
 NULL.                 -999.25: NULL VALUE
 DFWT.                        :  DIST FWL TEXT
 DFST.                        :  DIST FSL TEXT
 DMF .             Drill Floor:  DRILL MEAS FROM
 STIM.      20.26.40 11-Mar-21:  START TIME
 DATE.      20.26.40 30-Mar-21:  END TIME
 SPUD.               11-Mar-21:  SPUD DATE
 NREF.                    Grid:  NORTH REFERENCE
 HPTY.       Minimum Curvature:  HOLE POS TYPE
 DMOD.             Drill Model:  DRILL MOD DESC
 SVYD.                  Survey:  SURVEY DESC
 ILTD.               Lithology:  INTERP LTH DESC
 FTOP.          Formation Tops:  FORM TOPS DESC
 SON .        AZ-XX-0906805385:  JOB NUMBER
 WTYP.                Deviated:  WELL TYPE
 COMP.     BP Exploration (Caspian Sea) Ltd.:  COMPANY
 UWI .            /AZE00000198:  UNIQUE WELL IDENTIFIER
 API .            /AZE00000198:  API NUMBER
 BASE.              Azerbaijan:  LOGGING EQUIPMENT BASE LOCATION
 REGN.                   EESSA:  REGION
 PROV.                    Baku:  PROVINCE
 STAT.                    Baku:  STATE NAME
 CTRY.              Azerbaijan:  COUNTRY NAME
 FLD .                     ACG:  FIELD NAME
 SRVC.     Turan Drilling & Engineering:  CONTRACTOR
 MWDS.                    Baku:  MWD SHOP
 WELL.                    D09z:  WELL NAME
 JOBN.        AZ-XX-0906805385:  JOB TICKET NUMB
 RIG .              East Azeri:  RIG NAME
 DOE .                     N/A:  DOE NUMBER
 DCON.         Sperry Drilling:  DIRECTNL CONTR
 UNIT.                     N/A:  LOGGING EQUIPMENT ID
 PDAT.          Mean Sea Level:  PERMANENT DATUM
 MDS .        Operator Entered:  MAG DATA SOURCE
 CNTY.                        :  COUNTY
 LOC .                        :  LOCATION
 LMF .             Drill Floor:  LOG MEASURED FROM
 TVDS.m                  43.60:  TVDSS CORRECTN
 LATI.deg                40.02:  LATITUDE
 LONG.deg                51.45:  LONGITUDE
 WHNS.m                 -17.04:  WELL HEAD N/S
 WHEW.m                  -6.28:  WELL HEAD E/W
 UTMX.m              538763.98:  UTM X
 UTMY.m             4431880.20:  UTM Y
 DFWL.m                   0.00:  DISTANCE FWL
 DFSL.m                   0.00:  DISTANCE FSL
 SDEP.m                2680.01:  START DEPTH
 TDD .m                4000.01:  TOTAL DEPTH (DRILLER)
 VSDR.deg               225.71:  VERT SEC DIRECT
 GVFD.g                   1.00:  GRAVITY FIELD
 MFLD.nT              50353.00:  MAGNETIC FIELD
 MDIP.deg                59.49:  MAGNETIC DIP
 MDEC.deg                 6.46:  MAGNETIC DECL
 GRDC.deg                 0.29:  GRID CORRECTION
 AZTC.deg                 6.17:  AZM TOTAL CORR
 EPD .m                   0.00:  ELEVATION
 EGL .m                   0.00:  GROUND ELEVATION
 WDMS.m                 151.80:  WD ELEV
 APD .m                  43.60:  DEPTH ABOVE PD
 AGAP.m                  43.60:  AIR GAP
 VSEW.m                  -6.28:  VERT SEC E/W
 VSNS.m                 -17.04:  VERT SEC N/S
 DEP .m                2656.31:  DEPTH
 EKB .m                  43.60:  KB ELEVATION
 EDF .m                  43.60:  DF ELEVATION
 VSC .                       0:  VS TO CLOSURE
 MAGU.                 1851247:  MAGUTM CHECKSUM
~Parameter Information Block
#MNEM.UNIT       Value        Description
#---------     -----------    ---------------------------
 AV  .mps                 3.00:  Ann Velocity 
 AVMX.mps                 8.00:  Max Ann Veloc 
 AZIF.deg                 0.00:  Azm, Final 
 BHAT.                   Other:  BHA Type 
 BREV.rev                 0.00:  Rev Bit Total 
 BROT.°/30m               0.00:  Build Rotating 
 BS  .in                 10.25:  Bit Size 
 BTPL.psig              511.00:  Bit Press Loss 
 CABU.                      No:  Customer Abuse 
 CGEO.           Asif Pashayev:  Customer Geo 
 COMM.                     $Ml:  Run Comments 1 
 TCS .hr                 24.03:  Time Ciculation Ended 
 CV  .mps                 3.50:  Crit Velocity 
 CVMX.mps                 4.00:  Max Crit Veloc 
 DD1 .             Aziz Aliyev:  Direct Drillr 1 
 DD2 .      Fakhraddin Guliyev:  Direct Drillr 2 
 DDSV.                   Other:  DD Service 
 DEFF.%                  99.00:  % Det Eff 
 DLRX.°/30m               0.00:  Dogleg Rot Max 
 DLSO.°/30m               0.00:  Dogleg Oriented 
 DLSX.°/30m               0.00:  Dogleg Str Max 
 DRET.      23.00.40 28-Mar-21:  Drill End Time 
 DRST.      23.30.40 25-Mar-21:  Drill Start Tim 
 DTIM.hr                  0.00:  Time Drilling 
 EDEP.m                3886.01:  End Depth 
 ENG1.         Almaz Almadatov:  Engineer 1 
 ENG2.      Artemiy Matviyanov:  Engineer 2 
 ENG3.           Samir Gafarov:  Engineer 3 
 ETIM.      23.00.40 28-Mar-21:  End Time 
 FLOI.gpm               550.00:  Flow In 
 FLON.gpm               500.00:  Flow In Min 
 FLOS.cptm                0.00:  Fluid Loss 
 FLOX.gpm               590.00:  Flow In Max 
 HFLO.                      No:  High Flow 
 HPRE.                      No:  High Pressure 
 HTEM.                      No:  High Temp 
 HYDO.m                   1.80:  Hydro Offset 
 IFIN.deg                 0.00:  Inc, Final 
 IMAX.deg                 0.00:  Inc Max 
 IMIN.deg                 0.00:  Inc Min 
 IMND.m                   0.00:  Inc Min Depth 
 IMXD.m                   0.00:  Inc Max Depth 
 JARR.                      No:  Jarring 
 LETM.      03.22.40 28-Mar-21:  Log End Time 
 LOST.hr                     0:  Lost Rig Time 
 LSTM.      23.30.40 25-Mar-21:  Log Start Time 
 MDCL.ppm             34000.00:  Mud Chlorides 
 MDES.     Inversion Oil/Synthetic:  Mud Desc 
 DFD .sg                  1.51:  Mud Density 
 MDMN.sg                  1.51:  Dens Mud Min 
 MDMX.sg                  1.51:  Dens Mud Max 
 MOIL.                      70:  Run Mud Oil % 
 MOWR.                   70:30:  Run Mud OWR 
 MSND.                     0.2:  Run Mud Sand % 
 MSOL.                   21.60:  Run Mud Solids% 
 DFV .spqt               74.00:  Mud Viscosity 
 MWOD.in                  6.75:  MWD Tool OD 
 MWSI.                      No:  Serv Intrp, MWD 
 OTIM.hr                 69.09:  Time Operating 
 PCON.           Look Like New:  Pad Condition 
 PMAX.psia             3500.00:  Press Op, Max 
 PV  .cP                 70.00:  Mud PV 
 RUN .                     400:  Run Number 
 ROPA.m/hr                0.00:  ROP Avg 
 ROPN.m/hr                0.00:  ROP Min 
 ROPX.m/hr                0.00:  ROP Max 
 RPMA.rpm                80.00:  RPM Surface Avg 
 RPMN.rpm                10.00:  RPM Surface Min 
 RPMX.rpm               100.00:  RPM Surface Max 
 RRUN.                    0400:  Rig Run Number 
 RTIM.hr                  3.00:  Time Reaming 
 SAZI.deg                 0.00:  Azm, Start 
 SDEP.m                3886.01:  Start Depth 
 SIDD.                      No:  Serv Intrp, DD 
 SINC.deg                 0.00:  Inc, Start 
 SPPA.psig             3270.00:  SPP Avg 
 SPPN.psig             3220.00:  SPP Min 
 SPPX.psig             4430.00:  SPP Max 
 STIM.      23.30.40 25-Mar-21:  Start Time 
 SVCS.                 DD, MWD:  Services 
 SVER.                    9.20:  Sperry Version 
 TDAT.m                   0.00:  Tot Depth Attmp 
 TDDF.                      No:  Trip for DD 
 TFF .                      No:  Trip for Fail 
 TQAA.f-kp                8.00:  Torque Abs Avg 
 TQAN.f-kp                7.00:  Torque Abs Min 
 TQAX.f-kp               11.00:  Torque Abs Max 
 TRRT.°/30m               0.00:  Turn Rotating 
 MRT .                  EWR-M5:  Maximum Recorded Temperature 
 TTMX.degC               76.47:  Max Tool Temp 
 VS01.                90640857:  Virtual Str1 SN 
 VS02.                90639246:  Virtual Str2 SN 
 VS03.                90642265:  Virtual Str3 SN 
 VS04.                11654497:  Virtual Str4 SN 
 WBMN.klb                 0.00:  WOB Min 
 WITN.      Kamran Keberlinkiy:  Customer Rep 
 WITN.           Murad Guliyev:  Customer Rep 2 
 WOBA.klb                 0.00:  WOB Avg 
 WOBX.klb                 0.00:  WOB Max 
 YP  .lhf2               36.00:  Yield Point 
~Curve Information Block
#MNEM.UNIT                 API CODE     Curve Description
#---------               -----------    ---------------------------
 TIME.HHMMSS            00 000 000 000:  GT Time & Date
 GTDEPTH.m              00 000 000 000:  GT Depth
 GTPQH.psia             00 000 000 000:  GT HR Quartz Pressure
 GTTQ.degC              00 000 000 000:  GT Quartz Temperature
 GTTN.NONE              00 000 000 000:  GT Test Number
 GTET.sec               00 000 000 000:  GT Elapsed Test Time
 GTTVD.m                00 000 000 000:  GT True Vertical Depth
#Other Information
#
#WARRANTY: Halliburton will use its best efforts to furnish customers with 
#accurate information and interpretations that are part of, and incident to, the services 
#provided.  However, Halliburton cannot and does not warrant the accuracy 
#or correctness of such information and interpretations.  Under no circumstances should any 
#such information or interpretation be relied upon as the sole basis for any drilling, 
#completion, production, or financial decision or any procedure involving any risk to the 
#safety of any drilling venture, drilling rig or its crew or any other third party.  The 
#Customer has full responsibility for all drilling, completion and production operation.  
#Halliburton makes no representations or warranties, either expressed or 
#implied, including, but not limited to, the implied warranties of merchantability or fitness 
#for a particular purpose, with respect to the services rendered.  In no event will 
#Halliburton be liable for failure to obtain any particular results or for 
#any damages, including, but not limited to, indirect, special or consequential damages, 
#resulting from the use of any information or interpretation provided by Halliburton.
#
~A           TIME           GTDEPTH  GTPQH  GTTQ  GTTN   GTET   GTTVD  
# ...
   11:08:11.069.27-Mar-2021 3279.01 4781.25 61.26 11.00 180.84 3032.17
   11:08:11.269.27-Mar-2021 3279.01 4781.65 61.26 11.00 181.04 3032.17
   11:08:11.469.27-Mar-2021 3279.01 4781.65 61.26 11.00 181.24 3032.17
   11:08:11.669.27-Mar-2021 3279.01 4780.35 61.26 11.00 181.44 3032.17
   11:08:11.869.27-Mar-2021 3279.01 4781.15 61.26 11.00 181.64 3032.17
   11:08:12.069.27-Mar-2021 3279.01 4782.01 61.26 11.00 181.84 3032.17
   11:08:12.269.27-Mar-2021 3279.01 4781.70 61.26 11.00 182.04 3032.17
   11:08:12.469.27-Mar-2021 3279.01 4781.70 61.26 11.00 182.24 3032.17
   11:08:12.669.27-Mar-2021 3279.01 4781.75 61.27 11.00 182.44 3032.17
   11:08:12.870.27-Mar-2021 3279.01 4781.49 61.27 11.00 182.64 3032.17
   11:08:13.070.27-Mar-2021 3279.01 4781.75 61.27 11.00 182.84 3032.17
   11:08:13.270.27-Mar-2021 3279.01 4781.43 61.27 11.00 183.04 3032.17
   11:08:13.470.27-Mar-2021 3279.01 4781.43 61.27 11.00 183.24 3032.17
   11:08:13.670.27-Mar-2021 3279.01 4781.64 61.27 11.00 183.44 3032.17
   11:08:13.870.27-Mar-2021 3279.01 4781.64 61.27 11.00 183.64 3032.17
   11:08:14.070.27-Mar-2021 3279.01 4781.43 61.27 11.00 183.84 3032.17
   11:08:14.270.27-Mar-2021 3279.01 4781.66 61.27 11.00 184.04 3032.17
   11:08:14.470.27-Mar-2021 3279.01 4781.66 61.27 11.00 184.24 3032.17
   11:08:14.670.27-Mar-2021 3279.01 4781.78 61.27 11.00 184.44 3032.17
   11:08:14.870.27-Mar-2021 3279.01 4780.91 61.27 11.00 184.64 3032.17
   11:08:15.070.27-Mar-2021 3279.01 4781.55 61.27 11.00 184.84 3032.17
   11:08:15.270.27-Mar-2021 3279.01 4782.49 61.27 11.00 185.04 3032.17
   11:08:15.470.27-Mar-2021 3279.01 4782.49 61.27 11.00 185.24 3032.17
   11:08:15.670.27-Mar-2021 3279.01 4781.42 61.27 11.00 185.44 3032.17
   11:08:15.870.27-Mar-2021 3279.01 4782.10 61.27 11.00 185.64 3032.17
   11:08:16.070.27-Mar-2021 3279.01 4782.16 61.27 11.00 185.84 3032.17
   11:08:16.270.27-Mar-2021 3279.01 4781.59 61.27 11.00 186.04 3032.17
   11:08:16.470.27-Mar-2021 3279.01 4781.59 61.27 11.00 186.24 3032.17
   11:08:16.670.27-Mar-2021 3279.01 4782.03 61.27 11.00 186.44 3032.17
   11:08:16.870.27-Mar-2021 3279.01 4782.13 61.27 11.00 186.64 3032.17
   11:08:17.071.27-Mar-2021 3279.01 4782.00 61.27 11.00 186.84 3032.17
   11:08:17.271.27-Mar-2021 3279.01 4782.05 61.27 11.00 187.04 3032.17
   11:08:17.471.27-Mar-2021 3279.01 4782.05 61.27 11.00 187.24 3032.17
   11:08:17.671.27-Mar-2021 3279.01 4781.23 61.27 11.00 187.44 3032.17
   11:08:17.871.27-Mar-2021 3279.01 4783.07 61.27 11.00 187.64 3032.17
   11:08:18.071.27-Mar-2021 3279.01 4781.34 61.27 11.00 187.84 3032.17
   11:08:18.271.27-Mar-2021 3279.01 4781.87 61.27 11.00 188.04 3032.17
   11:08:18.471.27-Mar-2021 3279.01 4781.87 61.27 11.00 188.24 3032.17
   11:08:18.671.27-Mar-2021 3279.01 4782.06 61.27 11.00 188.44 3032.17
   11:08:18.871.27-Mar-2021 3279.01 4781.57 61.27 11.00 188.64 3032.17
   11:08:19.071.27-Mar-2021 3279.01 4781.68 61.27 11.00 188.84 3032.17
   11:08:19.271.27-Mar-2021 3279.01 4781.85 61.27 11.00 189.04 3032.17
   11:08:19.471.27-Mar-2021 3279.01 4781.85 61.27 11.00 189.24 3032.17
   11:08:19.671.27-Mar-2021 3279.01 4782.62 61.27 11.00 189.44 3032.17
   11:08:19.871.27-Mar-2021 3279.01 4780.79 61.27 11.00 189.64 3032.17
   11:08:20.071.27-Mar-2021 3279.01 4781.45 61.27 11.00 189.84 3032.17
   11:08:20.271.27-Mar-2021 3279.01 4782.94 61.27 11.00 190.04 3032.17
   11:08:20.471.27-Mar-2021 3279.01 4782.94 61.27 11.00 190.24 3032.17
   11:08:20.671.27-Mar-2021 3279.01 4782.02 61.27 11.00 190.44 3032.17
   11:08:20.871.27-Mar-2021 3279.01 4782.53 61.27 11.00 190.64 3032.17
   11:08:21.071.27-Mar-2021 3279.01 4781.97 61.27 11.00 190.84 3032.17
   11:08:21.272.27-Mar-2021 3279.01 4781.52 61.27 11.00 191.04 3032.17
   11:08:21.472.27-Mar-2021 3279.01 4781.52 61.27 11.00 191.24 3032.17
   11:08:21.672.27-Mar-2021 3279.01 4782.15 61.27 11.00 191.44 3032.17
   11:08:21.872.27-Mar-2021 3279.01 4781.88 61.27 11.00 191.64 3032.17
   11:08:22.072.27-Mar-2021 3279.01 4782.62 61.27 11.00 191.84 3032.17
   11:08:22.272.27-Mar-2021 3279.01 4782.30 61.27 11.00 192.04 3032.17
   11:08:22.472.27-Mar-2021 3279.01 4782.30 61.27 11.00 192.24 3032.17
   11:08:22.672.27-Mar-2021 3279.01 4781.97 61.27 11.00 192.45 3032.17
   11:08:22.872.27-Mar-2021 3279.01 4782.22 61.27 11.00 192.65 3032.17
   11:08:23.072.27-Mar-2021 3279.01 4782.27 61.27 11.00 192.85 3032.17
   11:08:23.272.27-Mar-2021 3279.01 4782.07 61.27 11.00 193.05 3032.17
   11:08:23.472.27-Mar-2021 3279.01 4782.07 61.27 11.00 193.25 3032.17
   11:08:23.672.27-Mar-2021 3279.01 4782.16 61.27 11.00 193.45 3032.17
   11:08:23.872.27-Mar-2021 3279.01 4782.27 61.27 11.00 193.65 3032.17
   11:08:24.072.27-Mar-2021 3279.01 4782.07 61.27 11.00 193.85 3032.17
   11:08:24.272.27-Mar-2021 3279.01 4782.17 61.27 11.00 194.05 3032.17
   11:08:24.472.27-Mar-2021 3279.01 4782.17 61.27 11.00 194.25 3032.17
   11:08:24.672.27-Mar-2021 3279.01 4781.29 61.27 11.00 194.45 3032.17
   11:08:24.872.27-Mar-2021 3279.01 4781.48 61.27 11.00 194.65 3032.17
   11:08:25.072.27-Mar-2021 3279.01 4782.19 61.27 11.00 194.85 3032.17
   11:08:25.272.27-Mar-2021 3279.01 4782.56 61.27 11.00 195.05 3032.17
   11:08:25.472.27-Mar-2021 3279.01 4782.56 61.27 11.00 195.25 3032.17
   11:08:25.673.27-Mar-2021 3279.01 4782.06 61.27 11.00 195.45 3032.17
   11:08:25.873.27-Mar-2021 3279.01 4782.40 61.27 11.00 195.65 3032.17
   11:08:26.073.27-Mar-2021 3279.01 4782.53 61.27 11.00 195.85 3032.17
   11:08:26.273.27-Mar-2021 3279.01 4782.28 61.27 11.00 196.05 3032.17
   11:08:26.473.27-Mar-2021 3279.01 4782.28 61.27 11.00 196.25 3032.17
   11:08:26.673.27-Mar-2021 3279.01 4782.15 61.27 11.00 196.45 3032.17
   11:08:26.873.27-Mar-2021 3279.01 4782.22 61.27 11.00 196.65 3032.17
   11:08:27.073.27-Mar-2021 3279.01 4782.04 61.27 11.00 196.85 3032.17
   11:08:27.273.27-Mar-2021 3279.01 4781.80 61.27 11.00 197.05 3032.17
   11:08:27.473.27-Mar-2021 3279.01 4781.80 61.27 11.00 197.25 3032.17
   11:08:27.673.27-Mar-2021 3279.01 4782.25 61.27 11.00 197.45 3032.17
   11:08:27.873.27-Mar-2021 3279.01 4782.64 61.27 11.00 197.65 3032.17
   11:08:28.073.27-Mar-2021 3279.01 4781.92 61.27 11.00 197.85 3032.17
   11:08:28.273.27-Mar-2021 3279.01 4781.63 61.27 11.00 198.05 3032.17
   11:08:28.473.27-Mar-2021 3279.01 4781.63 61.27 11.00 198.25 3032.17
   11:08:28.673.27-Mar-2021 3279.01 4781.66 61.27 11.00 198.45 3032.17
   11:08:28.873.27-Mar-2021 3279.01 4782.24 61.27 11.00 198.65 3032.17
   11:08:29.073.27-Mar-2021 3279.01 4782.81 61.27 11.00 198.85 3032.17
   11:08:29.273.27-Mar-2021 3279.01 4781.48 61.27 11.00 199.05 3032.17
   11:08:29.473.27-Mar-2021 3279.01 4781.48 61.27 11.00 199.25 3032.17
   11:08:29.673.27-Mar-2021 3279.01 4781.53 61.27 11.00 199.45 3032.17
   11:08:29.874.27-Mar-2021 3279.01 4781.74 61.27 11.00 199.65 3032.17
   11:08:30.074.27-Mar-2021 3279.01 4782.96 61.27 11.00 199.85 3032.17
   11:08:30.274.27-Mar-2021 3279.01 4782.40 61.27 11.00 200.05 3032.17
   11:08:30.474.27-Mar-2021 3279.01 4782.40 61.27 11.00 200.25 3032.17
   11:08:30.674.27-Mar-2021 3279.01 4782.17 61.27 11.00 200.45 3032.17
   11:08:30.874.27-Mar-2021 3279.01 4781.53 61.27 11.00 200.65 3032.17
   11:08:31.074.27-Mar-2021 3279.01 4781.76 61.27 11.00 200.85 3032.17
   11:08:31.274.27-Mar-2021 3279.01 4783.30 61.27 11.00 201.05 3032.17
   11:08:31.474.27-Mar-2021 3279.01 4783.30 61.27 11.00 201.25 3032.17
   11:08:31.674.27-Mar-2021 3279.01 4782.00 61.27 11.00 201.45 3032.17
   11:08:31.874.27-Mar-2021 3279.01 4782.11 61.27 11.00 201.65 3032.17
   11:08:32.074.27-Mar-2021 3279.01 4782.21 61.27 11.00 201.85 3032.17
   11:08:32.274.27-Mar-2021 3279.01 4782.17 61.27 11.00 202.05 3032.17
   11:08:32.474.27-Mar-2021 3279.01 4782.17 61.27 11.00 202.25 3032.17
   11:08:32.674.27-Mar-2021 3279.01 4782.52 61.27 11.00 202.45 3032.17
   11:08:32.874.27-Mar-2021 3279.01 4782.35 61.27 11.00 202.65 3032.17
   11:08:33.074.27-Mar-2021 3279.01 4782.10 61.27 11.00 202.85 3032.17
   11:08:33.274.27-Mar-2021 3279.01 4782.27 61.27 11.00 203.05 3032.17
   11:08:33.474.27-Mar-2021 3279.01 4782.27 61.27 11.00 203.25 3032.17
