~Version Information
 VERS.                  2.0:   CWLS log ASCII Standard -VERSION 2.0
 WRAP.                   NO:   One line per depth step
~Well Information Block
#MNEM.UNIT     VALUE/NAME     DESCRIPTION
#---------     -----------    ---------------------------
 STRT.S             09:03:10 27-Mar-21: START TIME 09:03:10 27-Mar-21
 STOP.S             09:10:16 27-Mar-21: STOP TIME  09:10:16 27-Mar-21
 STEP.S                   0.00: STEP TIME
 NULL.                 -999.25: NULL VALUE
 DFWT.                        :  DIST FWL TEXT
 DFST.                        :  DIST FSL TEXT
 DMF .             Drill Floor:  DRILL MEAS FROM
 STIM.      20.26.40 11-Mar-21:  START TIME
 DATE.      20.26.40 30-Mar-21:  END TIME
 SPUD.               11-Mar-21:  SPUD DATE
 NREF.                    Grid:  NORTH REFERENCE
 HPTY.       Minimum Curvature:  HOLE POS TYPE
 DMOD.             Drill Model:  DRILL MOD DESC
 SVYD.                  Survey:  SURVEY DESC
 ILTD.               Lithology:  INTERP LTH DESC
 FTOP.          Formation Tops:  FORM TOPS DESC
 SON .        AZ-XX-0906805385:  JOB NUMBER
 WTYP.                Deviated:  WELL TYPE
 COMP.     BP Exploration (Caspian Sea) Ltd.:  COMPANY
 UWI .            /AZE00000198:  UNIQUE WELL IDENTIFIER
 API .            /AZE00000198:  API NUMBER
 BASE.              Azerbaijan:  LOGGING EQUIPMENT BASE LOCATION
 REGN.                   EESSA:  REGION
 PROV.                    Baku:  PROVINCE
 STAT.                    Baku:  STATE NAME
 CTRY.              Azerbaijan:  COUNTRY NAME
 FLD .                     ACG:  FIELD NAME
 SRVC.     Turan Drilling & Engineering:  CONTRACTOR
 MWDS.                    Baku:  MWD SHOP
 WELL.                    D09z:  WELL NAME
 JOBN.        AZ-XX-0906805385:  JOB TICKET NUMB
 RIG .              East Azeri:  RIG NAME
 DOE .                     N/A:  DOE NUMBER
 DCON.         Sperry Drilling:  DIRECTNL CONTR
 UNIT.                     N/A:  LOGGING EQUIPMENT ID
 PDAT.          Mean Sea Level:  PERMANENT DATUM
 MDS .        Operator Entered:  MAG DATA SOURCE
 CNTY.                        :  COUNTY
 LOC .                        :  LOCATION
 LMF .             Drill Floor:  LOG MEASURED FROM
 TVDS.m                  43.60:  TVDSS CORRECTN
 LATI.deg                40.02:  LATITUDE
 LONG.deg                51.45:  LONGITUDE
 WHNS.m                 -17.04:  WELL HEAD N/S
 WHEW.m                  -6.28:  WELL HEAD E/W
 UTMX.m              538763.98:  UTM X
 UTMY.m             4431880.20:  UTM Y
 DFWL.m                   0.00:  DISTANCE FWL
 DFSL.m                   0.00:  DISTANCE FSL
 SDEP.m                2680.01:  START DEPTH
 TDD .m                4000.01:  TOTAL DEPTH (DRILLER)
 VSDR.deg               225.71:  VERT SEC DIRECT
 GVFD.g                   1.00:  GRAVITY FIELD
 MFLD.nT              50353.00:  MAGNETIC FIELD
 MDIP.deg                59.49:  MAGNETIC DIP
 MDEC.deg                 6.46:  MAGNETIC DECL
 GRDC.deg                 0.29:  GRID CORRECTION
 AZTC.deg                 6.17:  AZM TOTAL CORR
 EPD .m                   0.00:  ELEVATION
 EGL .m                   0.00:  GROUND ELEVATION
 WDMS.m                 151.80:  WD ELEV
 APD .m                  43.60:  DEPTH ABOVE PD
 AGAP.m                  43.60:  AIR GAP
 VSEW.m                  -6.28:  VERT SEC E/W
 VSNS.m                 -17.04:  VERT SEC N/S
 DEP .m                2656.31:  DEPTH
 EKB .m                  43.60:  KB ELEVATION
 EDF .m                  43.60:  DF ELEVATION
 VSC .                       0:  VS TO CLOSURE
 MAGU.                 1851247:  MAGUTM CHECKSUM
~Parameter Information Block
#MNEM.UNIT       Value        Description
#---------     -----------    ---------------------------
 AV  .mps                 3.00:  Ann Velocity 
 AVMX.mps                 8.00:  Max Ann Veloc 
 AZIF.deg                 0.00:  Azm, Final 
 BHAT.                   Other:  BHA Type 
 BREV.rev                 0.00:  Rev Bit Total 
 BROT.°/30m               0.00:  Build Rotating 
 BS  .in                 10.25:  Bit Size 
 BTPL.psig              511.00:  Bit Press Loss 
 CABU.                      No:  Customer Abuse 
 CGEO.           Asif Pashayev:  Customer Geo 
 TCS .hr                 24.03:  Time Ciculation Ended 
 CV  .mps                 3.50:  Crit Velocity 
 CVMX.mps                 4.00:  Max Crit Veloc 
 DD1 .             Aziz Aliyev:  Direct Drillr 1 
 DD2 .      Fakhraddin Guliyev:  Direct Drillr 2 
 DDSV.                   Other:  DD Service 
 DEFF.%                  99.00:  % Det Eff 
 DLRX.°/30m               0.00:  Dogleg Rot Max 
 DLSO.°/30m               0.00:  Dogleg Oriented 
 DLSX.°/30m               0.00:  Dogleg Str Max 
 DRET.      23.00.40 28-Mar-21:  Drill End Time 
 DRST.      23.30.40 25-Mar-21:  Drill Start Tim 
 DTIM.hr                  0.00:  Time Drilling 
 EDEP.m                3886.01:  End Depth 
 ENG1.         Almaz Almadatov:  Engineer 1 
 ENG2.      Artemiy Matviyanov:  Engineer 2 
 ENG3.           Samir Gafarov:  Engineer 3 
 ETIM.      23.00.40 28-Mar-21:  End Time 
 FLOI.gpm               550.00:  Flow In 
 FLON.gpm               500.00:  Flow In Min 
 FLOS.cptm                0.00:  Fluid Loss 
 FLOX.gpm               590.00:  Flow In Max 
 HFLO.                      No:  High Flow 
 HPRE.                      No:  High Pressure 
 HTEM.                      No:  High Temp 
 HYDO.m                   1.80:  Hydro Offset 
 IFIN.deg                 0.00:  Inc, Final 
 IMAX.deg                 0.00:  Inc Max 
 IMIN.deg                 0.00:  Inc Min 
 IMND.m                   0.00:  Inc Min Depth 
 IMXD.m                   0.00:  Inc Max Depth 
 JARR.                      No:  Jarring 
 LETM.      03.22.40 28-Mar-21:  Log End Time 
 LOST.hr                     0:  Lost Rig Time 
 LSTM.      23.30.40 25-Mar-21:  Log Start Time 
 MDCL.ppm             34000.00:  Mud Chlorides 
 MDES.     Inversion Oil/Synthetic:  Mud Desc 
 DFD .sg                  1.51:  Mud Density 
 MDMN.sg                  1.51:  Dens Mud Min 
 MDMX.sg                  1.51:  Dens Mud Max 
 MOIL.                      70:  Run Mud Oil % 
 MOWR.                   70:30:  Run Mud OWR 
 MSND.                     0.2:  Run Mud Sand % 
 MSOL.                   21.60:  Run Mud Solids% 
 DFV .spqt               74.00:  Mud Viscosity 
 MWOD.in                  6.75:  MWD Tool OD 
 MWSI.                      No:  Serv Intrp, MWD 
 OTIM.hr                 69.09:  Time Operating 
 PCON.           Look Like New:  Pad Condition 
 PMAX.psia             3500.00:  Press Op, Max 
 PV  .cP                 70.00:  Mud PV 
 RUN .                     400:  Run Number 
 ROPA.m/hr                0.00:  ROP Avg 
 ROPN.m/hr                0.00:  ROP Min 
 ROPX.m/hr                0.00:  ROP Max 
 RPMA.rpm                80.00:  RPM Surface Avg 
 RPMN.rpm                10.00:  RPM Surface Min 
 RPMX.rpm               100.00:  RPM Surface Max 
 RRUN.                    0400:  Rig Run Number 
 RTIM.hr                  3.00:  Time Reaming 
 SAZI.deg                 0.00:  Azm, Start 
 SDEP.m                3886.01:  Start Depth 
 SIDD.                      No:  Serv Intrp, DD 
 SINC.deg                 0.00:  Inc, Start 
 SPPA.psig             3270.00:  SPP Avg 
 SPPN.psig             3220.00:  SPP Min 
 SPPX.psig             4430.00:  SPP Max 
 STIM.      23.30.40 25-Mar-21:  Start Time 
 SVCS.                 DD, MWD:  Services 
 SVER.                    9.20:  Sperry Version 
 TDAT.m                   0.00:  Tot Depth Attmp 
 TDDF.                      No:  Trip for DD 
 TFF .                      No:  Trip for Fail 
 TQAA.f-kp                8.00:  Torque Abs Avg 
 TQAN.f-kp                7.00:  Torque Abs Min 
 TQAX.f-kp               11.00:  Torque Abs Max 
 TRRT.°/30m               0.00:  Turn Rotating 
 MRT .                  EWR-M5:  Maximum Recorded Temperature 
 TTMX.degC               76.47:  Max Tool Temp 
 VS01.                90640857:  Virtual Str1 SN 
 VS02.                90639246:  Virtual Str2 SN 
 VS03.                90642265:  Virtual Str3 SN 
 VS04.                11654497:  Virtual Str4 SN 
 WBMN.klb                 0.00:  WOB Min 
 WITN.      Kamran Keberlinkiy:  Customer Rep 
 WITN.           Murad Guliyev:  Customer Rep 2 
 WOBA.klb                 0.00:  WOB Avg 
 WOBX.klb                 0.00:  WOB Max 
 YP  .lhf2               36.00:  Yield Point 
~Curve Information Block
#MNEM.UNIT                 API CODE     Curve Description
#---------               -----------    ---------------------------
 TIME.HHMMSS            00 000 000 000:  GT Time & Date
 GTDEPTH.m              00 000 000 000:  GT Depth
 GTPQH.psia             00 000 000 000:  GT HR Quartz Pressure
 GTTQ.degC              00 000 000 000:  GT Quartz Temperature
 GTTN.NONE              00 000 000 000:  GT Test Number
 GTET.sec               00 000 000 000:  GT Elapsed Test Time
 GTTVD.m                00 000 000 000:  GT True Vertical Depth
#Other Information
#
#WARRANTY: Halliburton will use its best efforts to furnish customers with 
#accurate information and interpretations that are part of, and incident to, the services 
#provided.  However, Halliburton cannot and does not warrant the accuracy 
#or correctness of such information and interpretations.  Under no circumstances should any 
#such information or interpretation be relied upon as the sole basis for any drilling, 
#completion, production, or financial decision or any procedure involving any risk to the 
#safety of any drilling venture, drilling rig or its crew or any other third party.  The 
#Customer has full responsibility for all drilling, completion and production operation.  
#Halliburton makes no representations or warranties, either expressed or 
#implied, including, but not limited to, the implied warranties of merchantability or fitness 
#for a particular purpose, with respect to the services rendered.  In no event will 
#Halliburton be liable for failure to obtain any particular results or for 
#any damages, including, but not limited to, indirect, special or consequential damages, 
#resulting from the use of any information or interpretation provided by Halliburton.
#
~A           TIME           GTDEPTH  GTPQH  GTTQ  GTTN  GTET   GTTVD  
   09:03:10.000.27-Mar-2021 3361.51 7233.70 61.24 8.00   0.00 3109.50
   09:03:10.200.27-Mar-2021 3361.51 7233.70 61.24 8.00   0.20 3109.50
   09:03:10.400.27-Mar-2021 3361.51 7234.10 61.24 8.00   0.40 3109.50
   09:03:10.600.27-Mar-2021 3361.51 7234.26 61.24 8.00   0.60 3109.50
   09:03:10.800.27-Mar-2021 3361.51 7235.07 61.24 8.00   0.80 3109.50
   09:03:11.000.27-Mar-2021 3361.51 7234.78 61.24 8.00   1.00 3109.50
   09:03:11.200.27-Mar-2021 3361.51 7234.78 61.24 8.00   1.20 3109.50
   09:03:11.400.27-Mar-2021 3361.51 7238.24 61.24 8.00   1.40 3109.50
   09:03:11.600.27-Mar-2021 3361.51 7236.57 61.24 8.00   1.60 3109.50
   09:03:11.800.27-Mar-2021 3361.51 7235.99 61.24 8.00   1.80 3109.50
   09:03:12.000.27-Mar-2021 3361.51 7235.79 61.24 8.00   2.00 3109.50
   09:03:12.200.27-Mar-2021 3361.51 7235.79 61.24 8.00   2.20 3109.50
   09:03:12.400.27-Mar-2021 3361.51 7236.19 61.24 8.00   2.40 3109.50
   09:03:12.600.27-Mar-2021 3361.51 7236.54 61.24 8.00   2.60 3109.50
   09:03:12.800.27-Mar-2021 3361.51 7237.22 61.24 8.00   2.80 3109.50
   09:03:13.000.27-Mar-2021 3361.51 7236.93 61.23 8.00   3.00 3109.50
   09:03:13.200.27-Mar-2021 3361.51 7236.93 61.23 8.00   3.20 3109.50
   09:03:13.400.27-Mar-2021 3361.51 7237.63 61.23 8.00   3.40 3109.50
   09:03:13.600.27-Mar-2021 3361.51 7241.32 61.23 8.00   3.60 3109.50
   09:03:13.800.27-Mar-2021 3361.51 7237.00 61.23 8.00   3.80 3109.50
   09:03:14.000.27-Mar-2021 3361.51 7237.59 61.23 8.00   4.00 3109.50
   09:03:14.200.27-Mar-2021 3361.51 7237.59 61.23 8.00   4.20 3109.50
   09:03:14.400.27-Mar-2021 3361.51 7238.02 61.23 8.00   4.40 3109.50
   09:03:14.600.27-Mar-2021 3361.51 7237.96 61.23 8.00   4.60 3109.50
   09:03:14.800.27-Mar-2021 3361.51 7241.25 61.23 8.00   4.80 3109.50
   09:03:15.000.27-Mar-2021 3361.51 7237.88 61.23 8.00   5.00 3109.50
   09:03:15.200.27-Mar-2021 3361.51 7237.88 61.23 8.00   5.20 3109.50
   09:03:15.400.27-Mar-2021 3361.51 7239.89 61.23 8.00   5.40 3109.50
   09:03:15.600.27-Mar-2021 3361.51 7238.87 61.23 8.00   5.60 3109.50
   09:03:15.800.27-Mar-2021 3361.51 7241.15 61.23 8.00   5.80 3109.50
   09:03:16.000.27-Mar-2021 3361.51 7241.49 61.23 8.00   6.00 3109.50
   09:03:16.200.27-Mar-2021 3361.51 7241.49 61.23 8.00   6.20 3109.50
   09:03:16.400.27-Mar-2021 3361.51 7241.24 61.23 8.00   6.40 3109.50
   09:03:16.600.27-Mar-2021 3361.51 7239.88 61.23 8.00   6.60 3109.50
   09:03:16.800.27-Mar-2021 3361.51 7240.30 61.23 8.00   6.80 3109.50
   09:03:17.000.27-Mar-2021 3361.51 7244.37 61.23 8.00   7.00 3109.50
   09:03:17.200.27-Mar-2021 3361.51 7244.37 61.23 8.00   7.20 3109.50
   09:03:17.400.27-Mar-2021 3361.51 7242.17 61.23 8.00   7.40 3109.50
   09:03:17.600.27-Mar-2021 3361.51 7241.17 61.23 8.00   7.60 3109.50
   09:03:17.800.27-Mar-2021 3361.51 7244.96 61.23 8.00   7.80 3109.50
   09:03:18.000.27-Mar-2021 3361.51 7241.38 61.23 8.00   8.00 3109.50
   09:03:18.200.27-Mar-2021 3361.51 7241.38 61.23 8.00   8.20 3109.50
   09:03:18.400.27-Mar-2021 3361.51 7242.07 61.23 8.00   8.40 3109.50
   09:03:18.600.27-Mar-2021 3361.51 7242.57 61.23 8.00   8.60 3109.50
   09:03:18.800.27-Mar-2021 3361.51 7242.16 61.23 8.00   8.80 3109.50
   09:03:19.000.27-Mar-2021 3361.51 7246.29 61.23 8.00   9.00 3109.50
   09:03:19.200.27-Mar-2021 3361.51 7246.29 61.23 8.00   9.20 3109.50
   09:03:19.400.27-Mar-2021 3361.51 7241.51 61.23 8.00   9.40 3109.50
   09:03:19.600.27-Mar-2021 3361.51 7243.88 61.23 8.00   9.60 3109.50
   09:03:19.800.27-Mar-2021 3361.51 7243.24 61.23 8.00   9.80 3109.50
   09:03:20.000.27-Mar-2021 3361.51 7247.05 61.23 8.00  10.00 3109.50
   09:03:20.200.27-Mar-2021 3361.51 7247.05 61.23 8.00  10.20 3109.50
   09:03:20.400.27-Mar-2021 3361.51 7243.17 61.23 8.00  10.40 3109.50
   09:03:20.600.27-Mar-2021 3361.51 7244.73 61.23 8.00  10.60 3109.50
   09:03:20.800.27-Mar-2021 3361.51 7247.55 61.23 8.00  10.80 3109.50
   09:03:21.000.27-Mar-2021 3361.51 7243.51 61.23 8.00  11.00 3109.50
   09:03:21.200.27-Mar-2021 3361.51 7243.51 61.23 8.00  11.20 3109.50
   09:03:21.400.27-Mar-2021 3361.51 7244.47 61.23 8.00  11.40 3109.50
   09:03:21.600.27-Mar-2021 3361.51 7246.77 61.22 8.00  11.60 3109.50
   09:03:21.800.27-Mar-2021 3361.51 7246.61 61.22 8.00  11.80 3109.50
   09:03:22.000.27-Mar-2021 3361.51 7244.85 61.22 8.00  12.00 3109.50
   09:03:22.200.27-Mar-2021 3361.51 7244.85 61.22 8.00  12.20 3109.50
   09:03:22.400.27-Mar-2021 3361.51 7245.41 61.22 8.00  12.40 3109.50
   09:03:22.600.27-Mar-2021 3361.51 7245.25 61.22 8.00  12.60 3109.50
   09:03:22.800.27-Mar-2021 3361.51 7245.53 61.22 8.00  12.80 3109.50
   09:03:23.000.27-Mar-2021 3361.51 7245.00 61.22 8.00  13.00 3109.50
   09:03:23.200.27-Mar-2021 3361.51 7245.00 61.22 8.00  13.20 3109.50
   09:03:23.400.27-Mar-2021 3361.51 7245.81 61.22 8.00  13.40 3109.50
   09:03:23.600.27-Mar-2021 3361.51 7245.59 61.22 8.00  13.60 3109.50
   09:03:23.800.27-Mar-2021 3361.51 7245.92 61.22 8.00  13.80 3109.50
   09:03:24.000.27-Mar-2021 3361.51 7245.90 61.22 8.00  14.00 3109.50
   09:03:24.200.27-Mar-2021 3361.51 7245.90 61.22 8.00  14.20 3109.50
   09:03:24.400.27-Mar-2021 3361.51 7245.53 61.22 8.00  14.40 3109.50
   09:03:24.600.27-Mar-2021 3361.51 7245.60 61.22 8.00  14.60 3109.50
   09:03:24.800.27-Mar-2021 3361.51 7245.47 61.22 8.00  14.80 3109.50
   09:03:25.000.27-Mar-2021 3361.51 7249.58 61.22 8.00  15.00 3109.50
   09:03:25.200.27-Mar-2021 3361.51 7249.58 61.22 8.00  15.20 3109.50
   09:03:25.400.27-Mar-2021 3361.51 7246.23 61.22 8.00  15.40 3109.50
   09:03:25.600.27-Mar-2021 3361.51 7246.54 61.22 8.00  15.60 3109.50
   09:03:25.800.27-Mar-2021 3361.51 7246.26 61.22 8.00  15.80 3109.50
   09:03:26.000.27-Mar-2021 3361.51 7246.12 61.22 8.00  16.00 3109.50
   09:03:26.200.27-Mar-2021 3361.51 7246.12 61.22 8.00  16.20 3109.50
   09:03:26.400.27-Mar-2021 3361.51 7246.12 61.22 8.00  16.40 3109.50
   09:03:26.600.27-Mar-2021 3361.51 7245.63 61.22 8.00  16.60 3109.50
   09:03:26.800.27-Mar-2021 3361.51 7246.67 61.22 8.00  16.80 3109.50
   09:03:27.000.27-Mar-2021 3361.51 7249.58 61.22 8.00  17.00 3109.50
   09:03:27.200.27-Mar-2021 3361.51 7246.73 61.22 8.00  17.20 3109.50
   09:03:27.400.27-Mar-2021 3361.51 7246.73 61.22 8.00  17.40 3109.50
   09:03:27.600.27-Mar-2021 3361.51 7246.73 61.22 8.00  17.60 3109.50
   09:03:27.800.27-Mar-2021 3361.51 7246.84 61.22 8.00  17.80 3109.50
   09:03:28.000.27-Mar-2021 3361.51 7246.82 61.22 8.00  18.00 3109.50
   09:03:28.200.27-Mar-2021 3361.51 7246.82 61.22 8.00  18.20 3109.50
   09:03:28.400.27-Mar-2021 3361.51 7247.95 61.22 8.00  18.40 3109.50
   09:03:28.600.27-Mar-2021 3361.51 7248.68 61.22 8.00  18.60 3109.50
   09:03:28.800.27-Mar-2021 3361.51 7246.65 61.22 8.00  18.80 3109.50
   09:03:29.000.27-Mar-2021 3361.51 7247.50 61.22 8.00  19.00 3109.50
   09:03:29.200.27-Mar-2021 3361.51 7247.50 61.22 8.00  19.20 3109.50
   09:03:29.400.27-Mar-2021 3361.51 7250.74 61.22 8.00  19.40 3109.50
   09:03:29.600.27-Mar-2021 3361.51 7246.91 61.22 8.00  19.60 3109.50
   09:03:29.800.27-Mar-2021 3361.51 7247.35 61.22 8.00  19.80 3109.50
   09:03:30.000.27-Mar-2021 3361.51 7248.59 61.21 8.00  20.00 3109.50
   09:03:30.200.27-Mar-2021 3361.51 7248.59 61.21 8.00  20.20 3109.50
   09:03:30.400.27-Mar-2021 3361.51 7247.40 61.21 8.00  20.40 3109.50
   09:03:30.600.27-Mar-2021 3361.51 7248.30 61.21 8.00  20.60 3109.50
   09:03:30.800.27-Mar-2021 3361.51 7248.48 61.21 8.00  20.80 3109.50
   09:03:31.000.27-Mar-2021 3361.51 7250.65 61.21 8.00  21.00 3109.50
   09:03:31.200.27-Mar-2021 3361.51 7250.65 61.21 8.00  21.20 3109.50
   09:03:31.400.27-Mar-2021 3361.51 7250.88 61.21 8.00  21.40 3109.50
   09:03:31.600.27-Mar-2021 3361.51 7249.27 61.21 8.00  21.60 3109.50
   09:03:31.800.27-Mar-2021 3361.51 7249.68 61.21 8.00  21.80 3109.50
   09:03:32.000.27-Mar-2021 3361.51 7248.83 61.21 8.00  22.00 3109.50
   09:03:32.200.27-Mar-2021 3361.51 7248.83 61.21 8.00  22.20 3109.50
   09:03:32.400.27-Mar-2021 3361.51 7252.72 61.21 8.00  22.40 3109.50
   09:03:32.600.27-Mar-2021 3361.51 7249.25 61.21 8.00  22.60 3109.50
   09:03:32.800.27-Mar-2021 3361.51 7249.77 61.21 8.00  22.80 3109.50
