~Version Information
 VERS.                  2.0:   CWLS log ASCII Standard -VERSION 2.0
 WRAP.                   NO:   One line per depth step
~Well Information Block
#MNEM.UNIT     VALUE/NAME     DESCRIPTION
#---------     -----------    ---------------------------
 STRT.S             09:55:14 27-Mar-21: START TIME 09:55:14 27-Mar-21
 STOP.S             10:02:25 27-Mar-21: STOP TIME  10:02:25 27-Mar-21
 STEP.S                   0.00: STEP TIME
 NULL.                 -999.25: NULL VALUE
 DFWT.                        :  DIST FWL TEXT
 DFST.                        :  DIST FSL TEXT
 DMF .             Drill Floor:  DRILL MEAS FROM
 STIM.      20.26.40 11-Mar-21:  START TIME
 DATE.      20.26.40 30-Mar-21:  END TIME
 SPUD.               11-Mar-21:  SPUD DATE
 NREF.                    Grid:  NORTH REFERENCE
 HPTY.       Minimum Curvature:  HOLE POS TYPE
 DMOD.             Drill Model:  DRILL MOD DESC
 SVYD.                  Survey:  SURVEY DESC
 ILTD.               Lithology:  INTERP LTH DESC
 FTOP.          Formation Tops:  FORM TOPS DESC
 SON .        AZ-XX-0906805385:  JOB NUMBER
 WTYP.                Deviated:  WELL TYPE
 COMP.     BP Exploration (Caspian Sea) Ltd.:  COMPANY
 UWI .            /AZE00000198:  UNIQUE WELL IDENTIFIER
 API .            /AZE00000198:  API NUMBER
 BASE.              Azerbaijan:  LOGGING EQUIPMENT BASE LOCATION
 REGN.                   EESSA:  REGION
 PROV.                    Baku:  PROVINCE
 STAT.                    Baku:  STATE NAME
 CTRY.              Azerbaijan:  COUNTRY NAME
 FLD .                     ACG:  FIELD NAME
 SRVC.     Turan Drilling & Engineering:  CONTRACTOR
 MWDS.                    Baku:  MWD SHOP
 WELL.                    D09z:  WELL NAME
 JOBN.        AZ-XX-0906805385:  JOB TICKET NUMB
 RIG .              East Azeri:  RIG NAME
 DOE .                     N/A:  DOE NUMBER
 DCON.         Sperry Drilling:  DIRECTNL CONTR
 UNIT.                     N/A:  LOGGING EQUIPMENT ID
 PDAT.          Mean Sea Level:  PERMANENT DATUM
 MDS .        Operator Entered:  MAG DATA SOURCE
 CNTY.                        :  COUNTY
 LOC .                        :  LOCATION
 LMF .             Drill Floor:  LOG MEASURED FROM
 TVDS.m                  43.60:  TVDSS CORRECTN
 LATI.deg                40.02:  LATITUDE
 LONG.deg                51.45:  LONGITUDE
 WHNS.m                 -17.04:  WELL HEAD N/S
 WHEW.m                  -6.28:  WELL HEAD E/W
 UTMX.m              538763.98:  UTM X
 UTMY.m             4431880.20:  UTM Y
 DFWL.m                   0.00:  DISTANCE FWL
 DFSL.m                   0.00:  DISTANCE FSL
 SDEP.m                2680.01:  START DEPTH
 TDD .m                4000.01:  TOTAL DEPTH (DRILLER)
 VSDR.deg               225.71:  VERT SEC DIRECT
 GVFD.g                   1.00:  GRAVITY FIELD
 MFLD.nT              50353.00:  MAGNETIC FIELD
 MDIP.deg                59.49:  MAGNETIC DIP
 MDEC.deg                 6.46:  MAGNETIC DECL
 GRDC.deg                 0.29:  GRID CORRECTION
 AZTC.deg                 6.17:  AZM TOTAL CORR
 EPD .m                   0.00:  ELEVATION
 EGL .m                   0.00:  GROUND ELEVATION
 WDMS.m                 151.80:  WD ELEV
 APD .m                  43.60:  DEPTH ABOVE PD
 AGAP.m                  43.60:  AIR GAP
 VSEW.m                  -6.28:  VERT SEC E/W
 VSNS.m                 -17.04:  VERT SEC N/S
 DEP .m                2656.31:  DEPTH
 EKB .m                  43.60:  KB ELEVATION
 EDF .m                  43.60:  DF ELEVATION
 VSC .                       0:  VS TO CLOSURE
 MAGU.                 1851247:  MAGUTM CHECKSUM
~Parameter Information Block
#MNEM.UNIT       Value        Description
#---------     -----------    ---------------------------
 AV  .mps                 3.00:  Ann Velocity 
 AVMX.mps                 8.00:  Max Ann Veloc 
 AZIF.deg                 0.00:  Azm, Final 
 BHAT.                   Other:  BHA Type 
 BREV.rev                 0.00:  Rev Bit Total 
 BROT.°/30m               0.00:  Build Rotating 
 BS  .in                 10.25:  Bit Size 
 BTPL.psig              511.00:  Bit Press Loss 
 CABU.                      No:  Customer Abuse 
 CGEO.           Asif Pashayev:  Customer Geo 
 COMM.                     ”Rk:  Run Comments 1 
 TCS .hr                 24.03:  Time Ciculation Ended 
 CV  .mps                 3.50:  Crit Velocity 
 CVMX.mps                 4.00:  Max Crit Veloc 
 DD1 .             Aziz Aliyev:  Direct Drillr 1 
 DD2 .      Fakhraddin Guliyev:  Direct Drillr 2 
 DDSV.                   Other:  DD Service 
 DEFF.%                  99.00:  % Det Eff 
 DLRX.°/30m               0.00:  Dogleg Rot Max 
 DLSO.°/30m               0.00:  Dogleg Oriented 
 DLSX.°/30m               0.00:  Dogleg Str Max 
 DRET.      23.00.40 28-Mar-21:  Drill End Time 
 DRST.      23.30.40 25-Mar-21:  Drill Start Tim 
 DTIM.hr                  0.00:  Time Drilling 
 EDEP.m                3886.01:  End Depth 
 ENG1.         Almaz Almadatov:  Engineer 1 
 ENG2.      Artemiy Matviyanov:  Engineer 2 
 ENG3.           Samir Gafarov:  Engineer 3 
 ETIM.      23.00.40 28-Mar-21:  End Time 
 FLOI.gpm               550.00:  Flow In 
 FLON.gpm               500.00:  Flow In Min 
 FLOS.cptm                0.00:  Fluid Loss 
 FLOX.gpm               590.00:  Flow In Max 
 HFLO.                      No:  High Flow 
 HPRE.                      No:  High Pressure 
 HTEM.                      No:  High Temp 
 HYDO.m                   1.80:  Hydro Offset 
 IFIN.deg                 0.00:  Inc, Final 
 IMAX.deg                 0.00:  Inc Max 
 IMIN.deg                 0.00:  Inc Min 
 IMND.m                   0.00:  Inc Min Depth 
 IMXD.m                   0.00:  Inc Max Depth 
 JARR.                      No:  Jarring 
 LETM.      03.22.40 28-Mar-21:  Log End Time 
 LOST.hr                     0:  Lost Rig Time 
 LSTM.      23.30.40 25-Mar-21:  Log Start Time 
 MDCL.ppm             34000.00:  Mud Chlorides 
 MDES.     Inversion Oil/Synthetic:  Mud Desc 
 DFD .sg                  1.51:  Mud Density 
 MDMN.sg                  1.51:  Dens Mud Min 
 MDMX.sg                  1.51:  Dens Mud Max 
 MOIL.                      70:  Run Mud Oil % 
 MOWR.                   70:30:  Run Mud OWR 
 MSND.                     0.2:  Run Mud Sand % 
 MSOL.                   21.60:  Run Mud Solids% 
 DFV .spqt               74.00:  Mud Viscosity 
 MWOD.in                  6.75:  MWD Tool OD 
 MWSI.                      No:  Serv Intrp, MWD 
 OTIM.hr                 69.09:  Time Operating 
 PCON.           Look Like New:  Pad Condition 
 PMAX.psia             3500.00:  Press Op, Max 
 PV  .cP                 70.00:  Mud PV 
 RUN .                     400:  Run Number 
 ROPA.m/hr                0.00:  ROP Avg 
 ROPN.m/hr                0.00:  ROP Min 
 ROPX.m/hr                0.00:  ROP Max 
 RPMA.rpm                80.00:  RPM Surface Avg 
 RPMN.rpm                10.00:  RPM Surface Min 
 RPMX.rpm               100.00:  RPM Surface Max 
 RRUN.                    0400:  Rig Run Number 
 RTIM.hr                  3.00:  Time Reaming 
 SAZI.deg                 0.00:  Azm, Start 
 SDEP.m                3886.01:  Start Depth 
 SIDD.                      No:  Serv Intrp, DD 
 SINC.deg                 0.00:  Inc, Start 
 SPPA.psig             3270.00:  SPP Avg 
 SPPN.psig             3220.00:  SPP Min 
 SPPX.psig             4430.00:  SPP Max 
 STIM.      23.30.40 25-Mar-21:  Start Time 
 SVCS.                 DD, MWD:  Services 
 SVER.                    9.20:  Sperry Version 
 TDAT.m                   0.00:  Tot Depth Attmp 
 TDDF.                      No:  Trip for DD 
 TFF .                      No:  Trip for Fail 
 TQAA.f-kp                8.00:  Torque Abs Avg 
 TQAN.f-kp                7.00:  Torque Abs Min 
 TQAX.f-kp               11.00:  Torque Abs Max 
 TRRT.°/30m               0.00:  Turn Rotating 
 MRT .                  EWR-M5:  Maximum Recorded Temperature 
 TTMX.degC               76.47:  Max Tool Temp 
 VS01.                90640857:  Virtual Str1 SN 
 VS02.                90639246:  Virtual Str2 SN 
 VS03.                90642265:  Virtual Str3 SN 
 VS04.                11654497:  Virtual Str4 SN 
 WBMN.klb                 0.00:  WOB Min 
 WITN.      Kamran Keberlinkiy:  Customer Rep 
 WITN.           Murad Guliyev:  Customer Rep 2 
 WOBA.klb                 0.00:  WOB Avg 
 WOBX.klb                 0.00:  WOB Max 
 YP  .lhf2               36.00:  Yield Point 
~Curve Information Block
#MNEM.UNIT                 API CODE     Curve Description
#---------               -----------    ---------------------------
 TIME.HHMMSS            00 000 000 000:  GT Time & Date
 GTDEPTH.m              00 000 000 000:  GT Depth
 GTPQH.psia             00 000 000 000:  GT HR Quartz Pressure
 GTTQ.degC              00 000 000 000:  GT Quartz Temperature
 GTTN.NONE              00 000 000 000:  GT Test Number
 GTET.sec               00 000 000 000:  GT Elapsed Test Time
 GTTVD.m                00 000 000 000:  GT True Vertical Depth
#Other Information
#
#WARRANTY: Halliburton will use its best efforts to furnish customers with 
#accurate information and interpretations that are part of, and incident to, the services 
#provided.  However, Halliburton cannot and does not warrant the accuracy 
#or correctness of such information and interpretations.  Under no circumstances should any 
#such information or interpretation be relied upon as the sole basis for any drilling, 
#completion, production, or financial decision or any procedure involving any risk to the 
#safety of any drilling venture, drilling rig or its crew or any other third party.  The 
#Customer has full responsibility for all drilling, completion and production operation.  
#Halliburton makes no representations or warranties, either expressed or 
#implied, including, but not limited to, the implied warranties of merchantability or fitness 
#for a particular purpose, with respect to the services rendered.  In no event will 
#Halliburton be liable for failure to obtain any particular results or for 
#any damages, including, but not limited to, indirect, special or consequential damages, 
#resulting from the use of any information or interpretation provided by Halliburton.
#
~A           TIME           GTDEPTH  GTPQH  GTTQ  GTTN  GTET   GTTVD  
# ...
   10:01:45.000.27-Mar-2021 3319.01 7161.56 60.97 9.00 391.00 3069.68
   10:01:45.200.27-Mar-2021 3319.01 7161.56 60.97 9.00 391.20 3069.68
   10:01:45.400.27-Mar-2021 3319.01 7160.92 60.97 9.00 391.40 3069.68
   10:01:45.600.27-Mar-2021 3319.01 7162.20 60.97 9.00 391.60 3069.68
   10:01:45.800.27-Mar-2021 3319.01 7161.61 60.97 9.00 391.80 3069.68
   10:01:46.000.27-Mar-2021 3319.01 7161.10 60.97 9.00 392.00 3069.68
   10:01:46.200.27-Mar-2021 3319.01 7161.10 60.97 9.00 392.20 3069.68
   10:01:46.400.27-Mar-2021 3319.01 7161.12 60.97 9.00 392.40 3069.68
   10:01:46.600.27-Mar-2021 3319.01 7161.27 60.97 9.00 392.60 3069.68
   10:01:46.800.27-Mar-2021 3319.01 7164.65 60.97 9.00 392.80 3069.68
   10:01:47.000.27-Mar-2021 3319.01 7161.36 60.97 9.00 393.00 3069.68
   10:01:47.200.27-Mar-2021 3319.01 7161.36 60.97 9.00 393.20 3069.68
   10:01:47.400.27-Mar-2021 3319.01 7161.24 60.97 9.00 393.40 3069.68
   10:01:47.600.27-Mar-2021 3319.01 7161.02 60.97 9.00 393.60 3069.68
   10:01:47.800.27-Mar-2021 3319.01 7161.46 60.97 9.00 393.80 3069.68
   10:01:48.000.27-Mar-2021 3319.01 7160.89 60.97 9.00 394.00 3069.68
   10:01:48.200.27-Mar-2021 3319.01 7160.89 60.97 9.00 394.20 3069.68
   10:01:48.400.27-Mar-2021 3319.01 7159.95 60.97 9.00 394.40 3069.68
   10:01:48.600.27-Mar-2021 3319.01 7161.43 60.97 9.00 394.60 3069.68
   10:01:48.800.27-Mar-2021 3319.01 7162.47 60.97 9.00 394.80 3069.68
   10:01:49.000.27-Mar-2021 3319.01 7161.60 60.97 9.00 395.00 3069.68
   10:01:49.200.27-Mar-2021 3319.01 7161.60 60.97 9.00 395.20 3069.68
   10:01:49.400.27-Mar-2021 3319.01 7161.69 60.97 9.00 395.40 3069.68
   10:01:49.600.27-Mar-2021 3319.01 7165.69 60.97 9.00 395.60 3069.68
   10:01:49.800.27-Mar-2021 3319.01 7160.80 60.97 9.00 395.80 3069.68
   10:01:50.000.27-Mar-2021 3319.01 7161.91 60.97 9.00 396.00 3069.68
   10:01:50.200.27-Mar-2021 3319.01 7161.91 60.97 9.00 396.20 3069.68
   10:01:50.400.27-Mar-2021 3319.01 7162.16 60.97 9.00 396.40 3069.68
   10:01:50.600.27-Mar-2021 3319.01 7162.15 60.97 9.00 396.60 3069.68
   10:01:50.800.27-Mar-2021 3319.01 7162.23 60.97 9.00 396.80 3069.68
   10:01:51.000.27-Mar-2021 3319.01 7164.67 60.97 9.00 397.00 3069.68
   10:01:51.200.27-Mar-2021 3319.01 7164.67 60.97 9.00 397.20 3069.68
   10:01:51.400.27-Mar-2021 3319.01 7162.53 60.97 9.00 397.40 3069.68
   10:01:51.600.27-Mar-2021 3319.01 7161.89 60.97 9.00 397.60 3069.68
   10:01:51.800.27-Mar-2021 3319.01 7161.94 60.97 9.00 397.80 3069.68
   10:01:52.000.27-Mar-2021 3319.01 7162.18 60.97 9.00 398.00 3069.68
   10:01:52.200.27-Mar-2021 3319.01 7162.18 60.97 9.00 398.20 3069.68
   10:01:52.400.27-Mar-2021 3319.01 7162.53 60.97 9.00 398.40 3069.68
   10:01:52.600.27-Mar-2021 3319.01 7161.98 60.97 9.00 398.60 3069.68
   10:01:52.800.27-Mar-2021 3319.01 7162.07 60.97 9.00 398.80 3069.68
   10:01:53.000.27-Mar-2021 3319.01 7161.98 60.97 9.00 399.00 3069.68
   10:01:53.200.27-Mar-2021 3319.01 7161.98 60.97 9.00 399.20 3069.68
   10:01:53.400.27-Mar-2021 3319.01 7161.83 60.96 9.00 399.40 3069.68
   10:01:53.600.27-Mar-2021 3319.01 7161.55 60.96 9.00 399.60 3069.68
   10:01:53.800.27-Mar-2021 3319.01 7161.17 60.96 9.00 399.80 3069.68
   10:01:54.000.27-Mar-2021 3319.01 7161.60 60.96 9.00 400.00 3069.68
   10:01:54.200.27-Mar-2021 3319.01 7161.60 60.96 9.00 400.20 3069.68
   10:01:54.400.27-Mar-2021 3319.01 7162.15 60.96 9.00 400.40 3069.68
   10:01:54.600.27-Mar-2021 3319.01 7161.54 60.96 9.00 400.60 3069.68
   10:01:54.800.27-Mar-2021 3319.01 7162.31 60.96 9.00 400.80 3069.68
   10:01:55.000.27-Mar-2021 3319.01 7161.82 60.96 9.00 401.00 3069.68
   10:01:55.200.27-Mar-2021 3319.01 7161.82 60.96 9.00 401.20 3069.68
   10:01:55.400.27-Mar-2021 3319.01 7161.71 60.96 9.00 401.40 3069.68
   10:01:55.600.27-Mar-2021 3319.01 7161.00 60.96 9.00 401.60 3069.68
   10:01:55.800.27-Mar-2021 3319.01 7162.22 60.96 9.00 401.80 3069.68
   10:01:56.000.27-Mar-2021 3319.01 7161.25 60.96 9.00 402.00 3069.68
   10:01:56.200.27-Mar-2021 3319.01 7161.25 60.96 9.00 402.20 3069.68
   10:01:56.400.27-Mar-2021 3319.01 7161.40 60.96 9.00 402.40 3069.68
   10:01:56.600.27-Mar-2021 3319.01 7161.14 60.96 9.00 402.60 3069.68
   10:01:56.800.27-Mar-2021 3319.01 7161.35 60.96 9.00 402.80 3069.68
   10:01:57.000.27-Mar-2021 3319.01 7164.82 60.96 9.00 403.00 3069.68
   10:01:57.200.27-Mar-2021 3319.01 7164.82 60.96 9.00 403.20 3069.68
   10:01:57.400.27-Mar-2021 3319.01 7161.92 60.96 9.00 403.40 3069.68
   10:01:57.600.27-Mar-2021 3319.01 7161.55 60.96 9.00 403.60 3069.68
   10:01:57.800.27-Mar-2021 3319.01 7161.27 60.96 9.00 403.80 3069.68
   10:01:58.000.27-Mar-2021 3319.01 7161.34 60.96 9.00 404.00 3069.68
   10:01:58.200.27-Mar-2021 3319.01 7161.34 60.96 9.00 404.20 3069.68
   10:01:58.400.27-Mar-2021 3319.01 7164.51 60.96 9.00 404.40 3069.68
   10:01:58.600.27-Mar-2021 3319.01 7161.77 60.96 9.00 404.60 3069.68
   10:01:58.800.27-Mar-2021 3319.01 7161.26 60.96 9.00 404.80 3069.68
   10:01:59.000.27-Mar-2021 3319.01 7162.17 60.96 9.00 405.00 3069.68
   10:01:59.200.27-Mar-2021 3319.01 7162.17 60.96 9.00 405.20 3069.68
   10:01:59.400.27-Mar-2021 3319.01 7161.72 60.96 9.00 405.40 3069.68
   10:01:59.600.27-Mar-2021 3319.01 7161.89 60.96 9.00 405.60 3069.68
   10:01:59.800.27-Mar-2021 3319.01 7163.45 60.96 9.00 405.80 3069.68
   10:02:00.000.27-Mar-2021 3319.01 7162.57 60.96 9.00 406.00 3069.68
   10:02:00.200.27-Mar-2021 3319.01 7162.57 60.96 9.00 406.20 3069.68
   10:02:00.400.27-Mar-2021 3319.01 7162.57 60.96 9.00 406.40 3069.68
   10:02:00.600.27-Mar-2021 3319.01 7161.94 60.96 9.00 406.60 3069.68
   10:02:00.800.27-Mar-2021 3319.01 7161.67 60.96 9.00 406.80 3069.68
   10:02:01.000.27-Mar-2021 3319.01 7162.18 60.96 9.00 407.00 3069.68
   10:02:01.200.27-Mar-2021 3319.01 7162.18 60.96 9.00 407.20 3069.68
   10:02:01.400.27-Mar-2021 3319.01 7165.30 60.96 9.00 407.40 3069.68
   10:02:01.600.27-Mar-2021 3319.01 7161.30 60.96 9.00 407.60 3069.68
   10:02:01.800.27-Mar-2021 3319.01 7162.02 60.96 9.00 407.80 3069.68
   10:02:02.000.27-Mar-2021 3319.01 7161.75 60.96 9.00 408.00 3069.68
   10:02:02.200.27-Mar-2021 3319.01 7161.75 60.96 9.00 408.20 3069.68
   10:02:02.400.27-Mar-2021 3319.01 7162.08 60.96 9.00 408.40 3069.68
   10:02:02.600.27-Mar-2021 3319.01 7161.70 60.96 9.00 408.60 3069.68
   10:02:02.800.27-Mar-2021 3319.01 7162.11 60.96 9.00 408.80 3069.68
   10:02:03.000.27-Mar-2021 3319.01 7161.91 60.96 9.00 409.00 3069.68
   10:02:03.200.27-Mar-2021 3319.01 7161.91 60.96 9.00 409.20 3069.68
   10:02:03.400.27-Mar-2021 3319.01 7161.42 60.96 9.00 409.40 3069.68
   10:02:03.600.27-Mar-2021 3319.01 7161.55 60.96 9.00 409.60 3069.68
   10:02:03.800.27-Mar-2021 3319.01 7161.21 60.96 9.00 409.80 3069.68
   10:02:04.000.27-Mar-2021 3319.01 7161.05 60.96 9.00 410.00 3069.68
   10:02:04.200.27-Mar-2021 3319.01 7161.05 60.96 9.00 410.20 3069.68
   10:02:04.400.27-Mar-2021 3319.01 7161.27 60.96 9.00 410.40 3069.68
   10:02:04.600.27-Mar-2021 3319.01 7161.29 60.96 9.00 410.60 3069.68
   10:02:04.800.27-Mar-2021 3319.01 7164.20 60.96 9.00 410.80 3069.68
   10:02:05.000.27-Mar-2021 3319.01 7161.18 60.96 9.00 411.00 3069.68
   10:02:05.200.27-Mar-2021 3319.01 7161.18 60.96 9.00 411.20 3069.68
   10:02:05.400.27-Mar-2021 3319.01 7161.22 60.96 9.00 411.40 3069.68
   10:02:05.600.27-Mar-2021 3319.01 7161.17 60.96 9.00 411.60 3069.68
   10:02:05.800.27-Mar-2021 3319.01 7161.69 60.96 9.00 411.80 3069.68
   10:02:06.000.27-Mar-2021 3319.01 7160.84 60.96 9.00 412.00 3069.68
   10:02:06.200.27-Mar-2021 3319.01 7160.84 60.96 9.00 412.20 3069.68
   10:02:06.400.27-Mar-2021 3319.01 7160.77 60.96 9.00 412.40 3069.68
   10:02:06.600.27-Mar-2021 3319.01 7161.13 60.95 9.00 412.60 3069.68
   10:02:06.800.27-Mar-2021 3319.01 7160.95 60.95 9.00 412.80 3069.68
   10:02:07.000.27-Mar-2021 3319.01 7160.78 60.95 9.00 413.00 3069.68
   10:02:07.200.27-Mar-2021 3319.01 7160.78 60.95 9.00 413.20 3069.68
   10:02:07.400.27-Mar-2021 3319.01 7164.66 60.95 9.00 413.40 3069.68
   10:02:07.600.27-Mar-2021 3319.01 7160.96 60.95 9.00 413.60 3069.68
   10:02:07.800.27-Mar-2021 3319.01 7161.12 60.95 9.00 413.80 3069.68
