~Version Information
 VERS.                  2.0:   CWLS log ASCII Standard -VERSION 2.0
 WRAP.                   NO:   One line per depth step
~Well Information Block
#MNEM.UNIT     VALUE/NAME     DESCRIPTION
#---------     -----------    ---------------------------
 STRT.S             03:27:53 27-Mar-21: START TIME 03:27:53 27-Mar-21
 STOP.S             03:35:02 27-Mar-21: STOP TIME  03:35:02 27-Mar-21
 STEP.S                   0.00: STEP TIME
 NULL.                 -999.25: NULL VALUE
 DFWT.                        :  DIST FWL TEXT
 DFST.                        :  DIST FSL TEXT
 DMF .             Drill Floor:  DRILL MEAS FROM
 STIM.      20.26.40 11-Mar-21:  START TIME
 DATE.      20.26.40 30-Mar-21:  END TIME
 SPUD.               11-Mar-21:  SPUD DATE
 NREF.                    Grid:  NORTH REFERENCE
 HPTY.       Minimum Curvature:  HOLE POS TYPE
 DMOD.             Drill Model:  DRILL MOD DESC
 SVYD.                  Survey:  SURVEY DESC
 ILTD.               Lithology:  INTERP LTH DESC
 FTOP.          Formation Tops:  FORM TOPS DESC
 SON .        AZ-XX-0906805385:  JOB NUMBER
 WTYP.                Deviated:  WELL TYPE
 COMP.     BP Exploration (Caspian Sea) Ltd.:  COMPANY
 UWI .            /AZE00000198:  UNIQUE WELL IDENTIFIER
 API .            /AZE00000198:  API NUMBER
 BASE.              Azerbaijan:  LOGGING EQUIPMENT BASE LOCATION
 REGN.                   EESSA:  REGION
 PROV.                    Baku:  PROVINCE
 STAT.                    Baku:  STATE NAME
 CTRY.              Azerbaijan:  COUNTRY NAME
 FLD .                     ACG:  FIELD NAME
 SRVC.     Turan Drilling & Engineering:  CONTRACTOR
 MWDS.                    Baku:  MWD SHOP
 WELL.                    D09z:  WELL NAME
 JOBN.        AZ-XX-0906805385:  JOB TICKET NUMB
 RIG .              East Azeri:  RIG NAME
 DOE .                     N/A:  DOE NUMBER
 DCON.         Sperry Drilling:  DIRECTNL CONTR
 UNIT.                     N/A:  LOGGING EQUIPMENT ID
 PDAT.          Mean Sea Level:  PERMANENT DATUM
 MDS .        Operator Entered:  MAG DATA SOURCE
 CNTY.                        :  COUNTY
 LOC .                        :  LOCATION
 LMF .             Drill Floor:  LOG MEASURED FROM
 TVDS.m                  43.60:  TVDSS CORRECTN
 LATI.deg                40.02:  LATITUDE
 LONG.deg                51.45:  LONGITUDE
 WHNS.m                 -17.04:  WELL HEAD N/S
 WHEW.m                  -6.28:  WELL HEAD E/W
 UTMX.m              538763.98:  UTM X
 UTMY.m             4431880.20:  UTM Y
 DFWL.m                   0.00:  DISTANCE FWL
 DFSL.m                   0.00:  DISTANCE FSL
 SDEP.m                2680.01:  START DEPTH
 TDD .m                4000.01:  TOTAL DEPTH (DRILLER)
 VSDR.deg               225.71:  VERT SEC DIRECT
 GVFD.g                   1.00:  GRAVITY FIELD
 MFLD.nT              50353.00:  MAGNETIC FIELD
 MDIP.deg                59.49:  MAGNETIC DIP
 MDEC.deg                 6.46:  MAGNETIC DECL
 GRDC.deg                 0.29:  GRID CORRECTION
 AZTC.deg                 6.17:  AZM TOTAL CORR
 EPD .m                   0.00:  ELEVATION
 EGL .m                   0.00:  GROUND ELEVATION
 WDMS.m                 151.80:  WD ELEV
 APD .m                  43.60:  DEPTH ABOVE PD
 AGAP.m                  43.60:  AIR GAP
 VSEW.m                  -6.28:  VERT SEC E/W
 VSNS.m                 -17.04:  VERT SEC N/S
 DEP .m                2656.31:  DEPTH
 EKB .m                  43.60:  KB ELEVATION
 EDF .m                  43.60:  DF ELEVATION
 VSC .                       0:  VS TO CLOSURE
 MAGU.                 1851247:  MAGUTM CHECKSUM
~Parameter Information Block
#MNEM.UNIT       Value        Description
#---------     -----------    ---------------------------
 AV  .mps                 3.00:  Ann Velocity 
 AVMX.mps                 8.00:  Max Ann Veloc 
 AZIF.deg                 0.00:  Azm, Final 
 BHAT.                   Other:  BHA Type 
 BREV.rev                 0.00:  Rev Bit Total 
 BROT.°/30m               0.00:  Build Rotating 
 BS  .in                 10.25:  Bit Size 
 BTPL.psig              511.00:  Bit Press Loss 
 CABU.                      No:  Customer Abuse 
 CGEO.           Asif Pashayev:  Customer Geo 
 COMM.                     ¼Fy:  Run Comments 1 
 TCS .hr                 24.03:  Time Ciculation Ended 
 CV  .mps                 3.50:  Crit Velocity 
 CVMX.mps                 4.00:  Max Crit Veloc 
 DD1 .             Aziz Aliyev:  Direct Drillr 1 
 DD2 .      Fakhraddin Guliyev:  Direct Drillr 2 
 DDSV.                   Other:  DD Service 
 DEFF.%                  99.00:  % Det Eff 
 DLRX.°/30m               0.00:  Dogleg Rot Max 
 DLSO.°/30m               0.00:  Dogleg Oriented 
 DLSX.°/30m               0.00:  Dogleg Str Max 
 DRET.      23.00.40 28-Mar-21:  Drill End Time 
 DRST.      23.30.40 25-Mar-21:  Drill Start Tim 
 DTIM.hr                  0.00:  Time Drilling 
 EDEP.m                3886.01:  End Depth 
 ENG1.         Almaz Almadatov:  Engineer 1 
 ENG2.      Artemiy Matviyanov:  Engineer 2 
 ENG3.           Samir Gafarov:  Engineer 3 
 ETIM.      23.00.40 28-Mar-21:  End Time 
 FLOI.gpm               550.00:  Flow In 
 FLON.gpm               500.00:  Flow In Min 
 FLOS.cptm                0.00:  Fluid Loss 
 FLOX.gpm               590.00:  Flow In Max 
 HFLO.                      No:  High Flow 
 HPRE.                      No:  High Pressure 
 HTEM.                      No:  High Temp 
 HYDO.m                   1.80:  Hydro Offset 
 IFIN.deg                 0.00:  Inc, Final 
 IMAX.deg                 0.00:  Inc Max 
 IMIN.deg                 0.00:  Inc Min 
 IMND.m                   0.00:  Inc Min Depth 
 IMXD.m                   0.00:  Inc Max Depth 
 JARR.                      No:  Jarring 
 LETM.      03.22.40 28-Mar-21:  Log End Time 
 LOST.hr                     0:  Lost Rig Time 
 LSTM.      23.30.40 25-Mar-21:  Log Start Time 
 MDCL.ppm             34000.00:  Mud Chlorides 
 MDES.     Inversion Oil/Synthetic:  Mud Desc 
 DFD .sg                  1.51:  Mud Density 
 MDMN.sg                  1.51:  Dens Mud Min 
 MDMX.sg                  1.51:  Dens Mud Max 
 MOIL.                      70:  Run Mud Oil % 
 MOWR.                   70:30:  Run Mud OWR 
 MSND.                     0.2:  Run Mud Sand % 
 MSOL.                   21.60:  Run Mud Solids% 
 DFV .spqt               74.00:  Mud Viscosity 
 MWOD.in                  6.75:  MWD Tool OD 
 MWSI.                      No:  Serv Intrp, MWD 
 OTIM.hr                 69.09:  Time Operating 
 PCON.           Look Like New:  Pad Condition 
 PMAX.psia             3500.00:  Press Op, Max 
 PV  .cP                 70.00:  Mud PV 
 RUN .                     400:  Run Number 
 ROPA.m/hr                0.00:  ROP Avg 
 ROPN.m/hr                0.00:  ROP Min 
 ROPX.m/hr                0.00:  ROP Max 
 RPMA.rpm                80.00:  RPM Surface Avg 
 RPMN.rpm                10.00:  RPM Surface Min 
 RPMX.rpm               100.00:  RPM Surface Max 
 RRUN.                    0400:  Rig Run Number 
 RTIM.hr                  3.00:  Time Reaming 
 SAZI.deg                 0.00:  Azm, Start 
 SDEP.m                3886.01:  Start Depth 
 SIDD.                      No:  Serv Intrp, DD 
 SINC.deg                 0.00:  Inc, Start 
 SPPA.psig             3270.00:  SPP Avg 
 SPPN.psig             3220.00:  SPP Min 
 SPPX.psig             4430.00:  SPP Max 
 STIM.      23.30.40 25-Mar-21:  Start Time 
 SVCS.                 DD, MWD:  Services 
 SVER.                    9.20:  Sperry Version 
 TDAT.m                   0.00:  Tot Depth Attmp 
 TDDF.                      No:  Trip for DD 
 TFF .                      No:  Trip for Fail 
 TQAA.f-kp                8.00:  Torque Abs Avg 
 TQAN.f-kp                7.00:  Torque Abs Min 
 TQAX.f-kp               11.00:  Torque Abs Max 
 TRRT.°/30m               0.00:  Turn Rotating 
 MRT .                  EWR-M5:  Maximum Recorded Temperature 
 TTMX.degC               76.47:  Max Tool Temp 
 VS01.                90640857:  Virtual Str1 SN 
 VS02.                90639246:  Virtual Str2 SN 
 VS03.                90642265:  Virtual Str3 SN 
 VS04.                11654497:  Virtual Str4 SN 
 WBMN.klb                 0.00:  WOB Min 
 WITN.      Kamran Keberlinkiy:  Customer Rep 
 WITN.           Murad Guliyev:  Customer Rep 2 
 WOBA.klb                 0.00:  WOB Avg 
 WOBX.klb                 0.00:  WOB Max 
 YP  .lhf2               36.00:  Yield Point 
~Curve Information Block
#MNEM.UNIT                 API CODE     Curve Description
#---------               -----------    ---------------------------
 TIME.HHMMSS            00 000 000 000:  GT Time & Date
 GTDEPTH.m              00 000 000 000:  GT Depth
 GTPQH.psia             00 000 000 000:  GT HR Quartz Pressure
 GTTQ.degC              00 000 000 000:  GT Quartz Temperature
 GTTN.NONE              00 000 000 000:  GT Test Number
 GTET.sec               00 000 000 000:  GT Elapsed Test Time
 GTTVD.m                00 000 000 000:  GT True Vertical Depth
#Other Information
#
#WARRANTY: Halliburton will use its best efforts to furnish customers with 
#accurate information and interpretations that are part of, and incident to, the services 
#provided.  However, Halliburton cannot and does not warrant the accuracy 
#or correctness of such information and interpretations.  Under no circumstances should any 
#such information or interpretation be relied upon as the sole basis for any drilling, 
#completion, production, or financial decision or any procedure involving any risk to the 
#safety of any drilling venture, drilling rig or its crew or any other third party.  The 
#Customer has full responsibility for all drilling, completion and production operation.  
#Halliburton makes no representations or warranties, either expressed or 
#implied, including, but not limited to, the implied warranties of merchantability or fitness 
#for a particular purpose, with respect to the services rendered.  In no event will 
#Halliburton be liable for failure to obtain any particular results or for 
#any damages, including, but not limited to, indirect, special or consequential damages, 
#resulting from the use of any information or interpretation provided by Halliburton.
#
~A           TIME           GTDEPTH  GTPQH  GTTQ  GTTN  GTET   GTTVD  
# ...
   03:33:15.167.27-Mar-2021 3725.51 5265.24 61.45 3.00 322.04 3451.28
   03:33:15.367.27-Mar-2021 3725.51 5265.24 61.45 3.00 322.24 3451.28
   03:33:15.567.27-Mar-2021 3725.51 5265.26 61.45 3.00 322.44 3451.28
   03:33:15.767.27-Mar-2021 3725.51 5265.23 61.45 3.00 322.64 3451.28
   03:33:15.967.27-Mar-2021 3725.51 5265.24 61.45 3.00 322.84 3451.28
   03:33:16.167.27-Mar-2021 3725.51 5265.35 61.45 3.00 323.04 3451.28
   03:33:16.367.27-Mar-2021 3725.51 5265.35 61.45 3.00 323.24 3451.28
   03:33:16.568.27-Mar-2021 3725.51 5265.21 61.45 3.00 323.44 3451.28
   03:33:16.768.27-Mar-2021 3725.51 5265.23 61.45 3.00 323.64 3451.28
   03:33:16.968.27-Mar-2021 3725.51 5265.34 61.45 3.00 323.84 3451.28
   03:33:17.168.27-Mar-2021 3725.51 5265.23 61.45 3.00 324.04 3451.28
   03:33:17.368.27-Mar-2021 3725.51 5265.23 61.45 3.00 324.24 3451.28
   03:33:17.568.27-Mar-2021 3725.51 5265.29 61.45 3.00 324.44 3451.28
   03:33:17.768.27-Mar-2021 3725.51 5265.14 61.45 3.00 324.64 3451.28
   03:33:17.968.27-Mar-2021 3725.51 5265.31 61.45 3.00 324.84 3451.28
   03:33:18.168.27-Mar-2021 3725.51 5265.30 61.45 3.00 325.04 3451.28
   03:33:18.368.27-Mar-2021 3725.51 5265.30 61.45 3.00 325.24 3451.28
   03:33:18.568.27-Mar-2021 3725.51 5265.26 61.45 3.00 325.44 3451.28
   03:33:18.768.27-Mar-2021 3725.51 5265.24 61.45 3.00 325.64 3451.28
   03:33:18.968.27-Mar-2021 3725.51 5265.30 61.45 3.00 325.84 3451.28
   03:33:19.168.27-Mar-2021 3725.51 5265.27 61.45 3.00 326.04 3451.28
   03:33:19.368.27-Mar-2021 3725.51 5265.27 61.45 3.00 326.24 3451.28
   03:33:19.568.27-Mar-2021 3725.51 5265.26 61.45 3.00 326.44 3451.28
   03:33:19.768.27-Mar-2021 3725.51 5265.52 61.45 3.00 326.64 3451.28
   03:33:19.968.27-Mar-2021 3725.51 5265.13 61.45 3.00 326.84 3451.28
   03:33:20.168.27-Mar-2021 3725.51 5265.14 61.45 3.00 327.04 3451.28
   03:33:20.368.27-Mar-2021 3725.51 5265.14 61.45 3.00 327.24 3451.28
   03:33:20.568.27-Mar-2021 3725.51 5265.19 61.45 3.00 327.44 3451.28
   03:33:20.768.27-Mar-2021 3725.51 5265.08 61.45 3.00 327.64 3451.28
   03:33:20.968.27-Mar-2021 3725.51 5265.55 61.45 3.00 327.84 3451.28
   03:33:21.168.27-Mar-2021 3725.51 5265.22 61.45 3.00 328.04 3451.28
   03:33:21.368.27-Mar-2021 3725.51 5265.22 61.45 3.00 328.24 3451.28
   03:33:21.568.27-Mar-2021 3725.51 5265.54 61.45 3.00 328.44 3451.28
   03:33:21.768.27-Mar-2021 3725.51 5265.24 61.45 3.00 328.64 3451.28
   03:33:21.968.27-Mar-2021 3725.51 5265.32 61.45 3.00 328.84 3451.28
   03:33:22.168.27-Mar-2021 3725.51 5265.09 61.45 3.00 329.04 3451.28
   03:33:22.368.27-Mar-2021 3725.51 5265.09 61.45 3.00 329.24 3451.28
   03:33:22.568.27-Mar-2021 3725.51 5265.41 61.45 3.00 329.44 3451.28
   03:33:22.768.27-Mar-2021 3725.51 5265.11 61.45 3.00 329.64 3451.28
   03:33:22.968.27-Mar-2021 3725.51 5265.24 61.45 3.00 329.84 3451.28
   03:33:23.168.27-Mar-2021 3725.51 5265.30 61.45 3.00 330.04 3451.28
   03:33:23.368.27-Mar-2021 3725.51 5265.30 61.45 3.00 330.24 3451.28
   03:33:23.568.27-Mar-2021 3725.51 5265.29 61.45 3.00 330.44 3451.28
   03:33:23.768.27-Mar-2021 3725.51 5265.09 61.45 3.00 330.64 3451.28
   03:33:23.968.27-Mar-2021 3725.51 5265.28 61.45 3.00 330.84 3451.28
   03:33:24.168.27-Mar-2021 3725.51 5265.37 61.45 3.00 331.04 3451.28
   03:33:24.368.27-Mar-2021 3725.51 5265.37 61.45 3.00 331.24 3451.28
   03:33:24.569.27-Mar-2021 3725.51 5265.34 61.45 3.00 331.44 3451.28
   03:33:24.769.27-Mar-2021 3725.51 5265.22 61.45 3.00 331.64 3451.28
   03:33:24.969.27-Mar-2021 3725.51 5265.23 61.45 3.00 331.84 3451.28
   03:33:25.169.27-Mar-2021 3725.51 5265.29 61.45 3.00 332.04 3451.28
   03:33:25.369.27-Mar-2021 3725.51 5265.29 61.45 3.00 332.24 3451.28
   03:33:25.569.27-Mar-2021 3725.51 5265.30 61.45 3.00 332.44 3451.28
   03:33:25.769.27-Mar-2021 3725.51 5265.28 61.45 3.00 332.64 3451.28
   03:33:25.969.27-Mar-2021 3725.51 5265.22 61.45 3.00 332.84 3451.28
   03:33:26.169.27-Mar-2021 3725.51 5265.30 61.45 3.00 333.04 3451.28
   03:33:26.369.27-Mar-2021 3725.51 5265.30 61.45 3.00 333.24 3451.28
   03:33:26.569.27-Mar-2021 3725.51 5265.32 61.45 3.00 333.44 3451.28
   03:33:26.769.27-Mar-2021 3725.51 5265.41 61.45 3.00 333.64 3451.28
   03:33:26.969.27-Mar-2021 3725.51 5265.07 61.45 3.00 333.84 3451.28
   03:33:27.169.27-Mar-2021 3725.51 5265.20 61.45 3.00 334.04 3451.28
   03:33:27.369.27-Mar-2021 3725.51 5265.20 61.45 3.00 334.24 3451.28
   03:33:27.569.27-Mar-2021 3725.51 5265.25 61.45 3.00 334.44 3451.28
   03:33:27.769.27-Mar-2021 3725.51 5265.24 61.45 3.00 334.64 3451.28
   03:33:27.969.27-Mar-2021 3725.51 5265.24 61.45 3.00 334.84 3451.28
   03:33:28.169.27-Mar-2021 3725.51 5265.23 61.45 3.00 335.04 3451.28
   03:33:28.369.27-Mar-2021 3725.51 5265.23 61.45 3.00 335.24 3451.28
   03:33:28.569.27-Mar-2021 3725.51 5265.29 61.45 3.00 335.44 3451.28
   03:33:28.769.27-Mar-2021 3725.51 5265.30 61.45 3.00 335.64 3451.28
   03:33:28.969.27-Mar-2021 3725.51 5265.16 61.45 3.00 335.84 3451.28
   03:33:29.169.27-Mar-2021 3725.51 5265.48 61.45 3.00 336.04 3451.28
   03:33:29.369.27-Mar-2021 3725.51 5265.48 61.45 3.00 336.24 3451.28
   03:33:29.569.27-Mar-2021 3725.51 5265.35 61.45 3.00 336.44 3451.28
   03:33:29.769.27-Mar-2021 3725.51 5265.42 61.45 3.00 336.64 3451.28
   03:33:29.969.27-Mar-2021 3725.51 5265.13 61.45 3.00 336.84 3451.28
   03:33:30.169.27-Mar-2021 3725.51 5265.16 61.45 3.00 337.04 3451.28
   03:33:30.369.27-Mar-2021 3725.51 5265.16 61.45 3.00 337.24 3451.28
   03:33:30.569.27-Mar-2021 3725.51 5265.08 61.45 3.00 337.44 3451.28
   03:33:30.769.27-Mar-2021 3725.51 5265.36 61.45 3.00 337.64 3451.28
   03:33:30.969.27-Mar-2021 3725.51 5265.50 61.45 3.00 337.84 3451.28
   03:33:31.169.27-Mar-2021 3725.51 5265.06 61.45 3.00 338.04 3451.28
   03:33:31.369.27-Mar-2021 3725.51 5265.06 61.45 3.00 338.24 3451.28
   03:33:31.569.27-Mar-2021 3725.51 5265.34 61.45 3.00 338.44 3451.28
   03:33:31.769.27-Mar-2021 3725.51 5265.42 61.45 3.00 338.64 3451.28
   03:33:31.969.27-Mar-2021 3725.51 5265.24 61.45 3.00 338.84 3451.28
   03:33:32.169.27-Mar-2021 3725.51 5265.13 61.45 3.00 339.04 3451.28
   03:33:32.369.27-Mar-2021 3725.51 5265.13 61.45 3.00 339.24 3451.28
   03:33:32.570.27-Mar-2021 3725.51 5265.26 61.45 3.00 339.44 3451.28
   03:33:32.770.27-Mar-2021 3725.51 5265.53 61.45 3.00 339.64 3451.28
   03:33:32.970.27-Mar-2021 3725.51 5265.19 61.45 3.00 339.84 3451.28
   03:33:33.170.27-Mar-2021 3725.51 5265.10 61.45 3.00 340.04 3451.28
   03:33:33.370.27-Mar-2021 3725.51 5265.10 61.45 3.00 340.24 3451.28
   03:33:33.570.27-Mar-2021 3725.51 5265.23 61.45 3.00 340.44 3451.28
   03:33:33.770.27-Mar-2021 3725.51 5265.21 61.45 3.00 340.64 3451.28
   03:33:33.970.27-Mar-2021 3725.51 5265.32 61.45 3.00 340.84 3451.28
   03:33:34.170.27-Mar-2021 3725.51 5265.25 61.45 3.00 341.04 3451.28
   03:33:34.370.27-Mar-2021 3725.51 5265.25 61.45 3.00 341.24 3451.28
   03:33:34.570.27-Mar-2021 3725.51 5265.34 61.45 3.00 341.44 3451.28
   03:33:34.770.27-Mar-2021 3725.51 5265.27 61.45 3.00 341.64 3451.28
   03:33:34.970.27-Mar-2021 3725.51 5265.28 61.45 3.00 341.84 3451.28
   03:33:35.170.27-Mar-2021 3725.51 5265.25 61.45 3.00 342.04 3451.28
   03:33:35.370.27-Mar-2021 3725.51 5265.25 61.45 3.00 342.24 3451.28
   03:33:35.570.27-Mar-2021 3725.51 5265.27 61.45 3.00 342.44 3451.28
   03:33:35.770.27-Mar-2021 3725.51 5265.18 61.45 3.00 342.64 3451.28
   03:33:35.970.27-Mar-2021 3725.51 5265.50 61.45 3.00 342.84 3451.28
   03:33:36.170.27-Mar-2021 3725.51 5265.23 61.45 3.00 343.04 3451.28
   03:33:36.370.27-Mar-2021 3725.51 5265.23 61.45 3.00 343.24 3451.28
   03:33:36.570.27-Mar-2021 3725.51 5265.46 61.45 3.00 343.44 3451.28
   03:33:36.770.27-Mar-2021 3725.51 5265.26 61.45 3.00 343.64 3451.28
   03:33:36.970.27-Mar-2021 3725.51 5265.15 61.45 3.00 343.84 3451.28
   03:33:37.170.27-Mar-2021 3725.51 5265.31 61.45 3.00 344.04 3451.28
   03:33:37.370.27-Mar-2021 3725.51 5265.31 61.45 3.00 344.24 3451.28
   03:33:37.570.27-Mar-2021 3725.51 5265.33 61.45 3.00 344.44 3451.28
   03:33:37.770.27-Mar-2021 3725.51 5265.27 61.45 3.00 344.64 3451.28
   03:33:37.970.27-Mar-2021 3725.51 5265.29 61.45 3.00 344.84 3451.28
