~Version Information
 VERS.                  2.0:   CWLS log ASCII Standard -VERSION 2.0
 WRAP.                   NO:   One line per depth step
~Well Information Block
#MNEM.UNIT     VALUE/NAME     DESCRIPTION
#---------     -----------    ---------------------------
 STRT.S             07:02:33 27-Mar-21: START TIME 07:02:33 27-Mar-21
 STOP.S             07:09:44 27-Mar-21: STOP TIME  07:09:44 27-Mar-21
 STEP.S                   0.00: STEP TIME
 NULL.                 -999.25: NULL VALUE
 DFWT.                        :  DIST FWL TEXT
 DFST.                        :  DIST FSL TEXT
 DMF .             Drill Floor:  DRILL MEAS FROM
 STIM.      20.26.40 11-Mar-21:  START TIME
 DATE.      20.26.40 30-Mar-21:  END TIME
 SPUD.               11-Mar-21:  SPUD DATE
 NREF.                    Grid:  NORTH REFERENCE
 HPTY.       Minimum Curvature:  HOLE POS TYPE
 DMOD.             Drill Model:  DRILL MOD DESC
 SVYD.                  Survey:  SURVEY DESC
 ILTD.               Lithology:  INTERP LTH DESC
 FTOP.          Formation Tops:  FORM TOPS DESC
 SON .        AZ-XX-0906805385:  JOB NUMBER
 WTYP.                Deviated:  WELL TYPE
 COMP.     BP Exploration (Caspian Sea) Ltd.:  COMPANY
 UWI .            /AZE00000198:  UNIQUE WELL IDENTIFIER
 API .            /AZE00000198:  API NUMBER
 BASE.              Azerbaijan:  LOGGING EQUIPMENT BASE LOCATION
 REGN.                   EESSA:  REGION
 PROV.                    Baku:  PROVINCE
 STAT.                    Baku:  STATE NAME
 CTRY.              Azerbaijan:  COUNTRY NAME
 FLD .                     ACG:  FIELD NAME
 SRVC.     Turan Drilling & Engineering:  CONTRACTOR
 MWDS.                    Baku:  MWD SHOP
 WELL.                    D09z:  WELL NAME
 JOBN.        AZ-XX-0906805385:  JOB TICKET NUMB
 RIG .              East Azeri:  RIG NAME
 DOE .                     N/A:  DOE NUMBER
 DCON.         Sperry Drilling:  DIRECTNL CONTR
 UNIT.                     N/A:  LOGGING EQUIPMENT ID
 PDAT.          Mean Sea Level:  PERMANENT DATUM
 MDS .        Operator Entered:  MAG DATA SOURCE
 CNTY.                        :  COUNTY
 LOC .                        :  LOCATION
 LMF .             Drill Floor:  LOG MEASURED FROM
 TVDS.m                  43.60:  TVDSS CORRECTN
 LATI.deg                40.02:  LATITUDE
 LONG.deg                51.45:  LONGITUDE
 WHNS.m                 -17.04:  WELL HEAD N/S
 WHEW.m                  -6.28:  WELL HEAD E/W
 UTMX.m              538763.98:  UTM X
 UTMY.m             4431880.20:  UTM Y
 DFWL.m                   0.00:  DISTANCE FWL
 DFSL.m                   0.00:  DISTANCE FSL
 SDEP.m                2680.01:  START DEPTH
 TDD .m                4000.01:  TOTAL DEPTH (DRILLER)
 VSDR.deg               225.71:  VERT SEC DIRECT
 GVFD.g                   1.00:  GRAVITY FIELD
 MFLD.nT              50353.00:  MAGNETIC FIELD
 MDIP.deg                59.49:  MAGNETIC DIP
 MDEC.deg                 6.46:  MAGNETIC DECL
 GRDC.deg                 0.29:  GRID CORRECTION
 AZTC.deg                 6.17:  AZM TOTAL CORR
 EPD .m                   0.00:  ELEVATION
 EGL .m                   0.00:  GROUND ELEVATION
 WDMS.m                 151.80:  WD ELEV
 APD .m                  43.60:  DEPTH ABOVE PD
 AGAP.m                  43.60:  AIR GAP
 VSEW.m                  -6.28:  VERT SEC E/W
 VSNS.m                 -17.04:  VERT SEC N/S
 DEP .m                2656.31:  DEPTH
 EKB .m                  43.60:  KB ELEVATION
 EDF .m                  43.60:  DF ELEVATION
 VSC .                       0:  VS TO CLOSURE
 MAGU.                 1851247:  MAGUTM CHECKSUM
~Parameter Information Block
#MNEM.UNIT       Value        Description
#---------     -----------    ---------------------------
 AV  .mps                 3.00:  Ann Velocity 
 AVMX.mps                 8.00:  Max Ann Veloc 
 AZIF.deg                 0.00:  Azm, Final 
 BHAT.                   Other:  BHA Type 
 BREV.rev                 0.00:  Rev Bit Total 
 BROT.°/30m               0.00:  Build Rotating 
 BS  .in                 10.25:  Bit Size 
 BTPL.psig              511.00:  Bit Press Loss 
 CABU.                      No:  Customer Abuse 
 CGEO.           Asif Pashayev:  Customer Geo 
 COMM.                     ¬\q:  Run Comments 1 
 TCS .hr                 24.03:  Time Ciculation Ended 
 CV  .mps                 3.50:  Crit Velocity 
 CVMX.mps                 4.00:  Max Crit Veloc 
 DD1 .             Aziz Aliyev:  Direct Drillr 1 
 DD2 .      Fakhraddin Guliyev:  Direct Drillr 2 
 DDSV.                   Other:  DD Service 
 DEFF.%                  99.00:  % Det Eff 
 DLRX.°/30m               0.00:  Dogleg Rot Max 
 DLSO.°/30m               0.00:  Dogleg Oriented 
 DLSX.°/30m               0.00:  Dogleg Str Max 
 DRET.      23.00.40 28-Mar-21:  Drill End Time 
 DRST.      23.30.40 25-Mar-21:  Drill Start Tim 
 DTIM.hr                  0.00:  Time Drilling 
 EDEP.m                3886.01:  End Depth 
 ENG1.         Almaz Almadatov:  Engineer 1 
 ENG2.      Artemiy Matviyanov:  Engineer 2 
 ENG3.           Samir Gafarov:  Engineer 3 
 ETIM.      23.00.40 28-Mar-21:  End Time 
 FLOI.gpm               550.00:  Flow In 
 FLON.gpm               500.00:  Flow In Min 
 FLOS.cptm                0.00:  Fluid Loss 
 FLOX.gpm               590.00:  Flow In Max 
 HFLO.                      No:  High Flow 
 HPRE.                      No:  High Pressure 
 HTEM.                      No:  High Temp 
 HYDO.m                   1.80:  Hydro Offset 
 IFIN.deg                 0.00:  Inc, Final 
 IMAX.deg                 0.00:  Inc Max 
 IMIN.deg                 0.00:  Inc Min 
 IMND.m                   0.00:  Inc Min Depth 
 IMXD.m                   0.00:  Inc Max Depth 
 JARR.                      No:  Jarring 
 LETM.      03.22.40 28-Mar-21:  Log End Time 
 LOST.hr                     0:  Lost Rig Time 
 LSTM.      23.30.40 25-Mar-21:  Log Start Time 
 MDCL.ppm             34000.00:  Mud Chlorides 
 MDES.     Inversion Oil/Synthetic:  Mud Desc 
 DFD .sg                  1.51:  Mud Density 
 MDMN.sg                  1.51:  Dens Mud Min 
 MDMX.sg                  1.51:  Dens Mud Max 
 MOIL.                      70:  Run Mud Oil % 
 MOWR.                   70:30:  Run Mud OWR 
 MSND.                     0.2:  Run Mud Sand % 
 MSOL.                   21.60:  Run Mud Solids% 
 DFV .spqt               74.00:  Mud Viscosity 
 MWOD.in                  6.75:  MWD Tool OD 
 MWSI.                      No:  Serv Intrp, MWD 
 OTIM.hr                 69.09:  Time Operating 
 PCON.           Look Like New:  Pad Condition 
 PMAX.psia             3500.00:  Press Op, Max 
 PV  .cP                 70.00:  Mud PV 
 RUN .                     400:  Run Number 
 ROPA.m/hr                0.00:  ROP Avg 
 ROPN.m/hr                0.00:  ROP Min 
 ROPX.m/hr                0.00:  ROP Max 
 RPMA.rpm                80.00:  RPM Surface Avg 
 RPMN.rpm                10.00:  RPM Surface Min 
 RPMX.rpm               100.00:  RPM Surface Max 
 RRUN.                    0400:  Rig Run Number 
 RTIM.hr                  3.00:  Time Reaming 
 SAZI.deg                 0.00:  Azm, Start 
 SDEP.m                3886.01:  Start Depth 
 SIDD.                      No:  Serv Intrp, DD 
 SINC.deg                 0.00:  Inc, Start 
 SPPA.psig             3270.00:  SPP Avg 
 SPPN.psig             3220.00:  SPP Min 
 SPPX.psig             4430.00:  SPP Max 
 STIM.      23.30.40 25-Mar-21:  Start Time 
 SVCS.                 DD, MWD:  Services 
 SVER.                    9.20:  Sperry Version 
 TDAT.m                   0.00:  Tot Depth Attmp 
 TDDF.                      No:  Trip for DD 
 TFF .                      No:  Trip for Fail 
 TQAA.f-kp                8.00:  Torque Abs Avg 
 TQAN.f-kp                7.00:  Torque Abs Min 
 TQAX.f-kp               11.00:  Torque Abs Max 
 TRRT.°/30m               0.00:  Turn Rotating 
 MRT .                  EWR-M5:  Maximum Recorded Temperature 
 TTMX.degC               76.47:  Max Tool Temp 
 VS01.                90640857:  Virtual Str1 SN 
 VS02.                90639246:  Virtual Str2 SN 
 VS03.                90642265:  Virtual Str3 SN 
 VS04.                11654497:  Virtual Str4 SN 
 WBMN.klb                 0.00:  WOB Min 
 WITN.      Kamran Keberlinkiy:  Customer Rep 
 WITN.           Murad Guliyev:  Customer Rep 2 
 WOBA.klb                 0.00:  WOB Avg 
 WOBX.klb                 0.00:  WOB Max 
 YP  .lhf2               36.00:  Yield Point 
~Curve Information Block
#MNEM.UNIT                 API CODE     Curve Description
#---------               -----------    ---------------------------
 TIME.HHMMSS            00 000 000 000:  GT Time & Date
 GTDEPTH.m              00 000 000 000:  GT Depth
 GTPQH.psia             00 000 000 000:  GT HR Quartz Pressure
 GTTQ.degC              00 000 000 000:  GT Quartz Temperature
 GTTN.NONE              00 000 000 000:  GT Test Number
 GTET.sec               00 000 000 000:  GT Elapsed Test Time
 GTTVD.m                00 000 000 000:  GT True Vertical Depth
#Other Information
#
#WARRANTY: Halliburton will use its best efforts to furnish customers with 
#accurate information and interpretations that are part of, and incident to, the services 
#provided.  However, Halliburton cannot and does not warrant the accuracy 
#or correctness of such information and interpretations.  Under no circumstances should any 
#such information or interpretation be relied upon as the sole basis for any drilling, 
#completion, production, or financial decision or any procedure involving any risk to the 
#safety of any drilling venture, drilling rig or its crew or any other third party.  The 
#Customer has full responsibility for all drilling, completion and production operation.  
#Halliburton makes no representations or warranties, either expressed or 
#implied, including, but not limited to, the implied warranties of merchantability or fitness 
#for a particular purpose, with respect to the services rendered.  In no event will 
#Halliburton be liable for failure to obtain any particular results or for 
#any damages, including, but not limited to, indirect, special or consequential damages, 
#resulting from the use of any information or interpretation provided by Halliburton.
#
~A           TIME           GTDEPTH  GTPQH  GTTQ  GTTN  GTET   GTTVD  
# ...
   07:02:56.532.27-Mar-2021 3426.01 7380.05 60.36 6.00  23.01 3169.91
   07:02:56.732.27-Mar-2021 3426.01 7380.05 60.36 6.00  23.21 3169.91
   07:02:56.932.27-Mar-2021 3426.01 7380.55 60.36 6.00  23.41 3169.91
   07:02:57.132.27-Mar-2021 3426.01 7381.08 60.36 6.00  23.61 3169.91
   07:02:57.332.27-Mar-2021 3426.01 7380.40 60.36 6.00  23.81 3169.91
   07:02:57.532.27-Mar-2021 3426.01 7380.59 60.36 6.00  24.01 3169.91
   07:02:57.732.27-Mar-2021 3426.01 7380.59 60.36 6.00  24.21 3169.91
   07:02:57.932.27-Mar-2021 3426.01 7380.04 60.36 6.00  24.41 3169.91
   07:02:58.132.27-Mar-2021 3426.01 7383.64 60.36 6.00  24.61 3169.91
   07:02:58.332.27-Mar-2021 3426.01 7380.54 60.36 6.00  24.81 3169.91
   07:02:58.532.27-Mar-2021 3426.01 7381.96 60.36 6.00  25.01 3169.91
   07:02:58.732.27-Mar-2021 3426.01 7381.96 60.36 6.00  25.21 3169.91
   07:02:58.932.27-Mar-2021 3426.01 7381.40 60.36 6.00  25.41 3169.91
   07:02:59.132.27-Mar-2021 3426.01 7381.07 60.36 6.00  25.61 3169.91
   07:02:59.332.27-Mar-2021 3426.01 7385.87 60.36 6.00  25.81 3169.91
   07:02:59.533.27-Mar-2021 3426.01 7380.10 60.36 6.00  26.01 3169.91
   07:02:59.733.27-Mar-2021 3426.01 7380.10 60.36 6.00  26.21 3169.91
   07:02:59.933.27-Mar-2021 3426.01 7382.54 60.36 6.00  26.41 3169.91
   07:03:00.133.27-Mar-2021 3426.01 7382.15 60.36 6.00  26.61 3169.91
   07:03:00.333.27-Mar-2021 3426.01 7382.41 60.36 6.00  26.81 3169.91
   07:03:00.533.27-Mar-2021 3426.01 7381.60 60.36 6.00  27.01 3169.91
   07:03:00.733.27-Mar-2021 3426.01 7381.60 60.36 6.00  27.21 3169.91
   07:03:00.933.27-Mar-2021 3426.01 7381.55 60.36 6.00  27.41 3169.91
   07:03:01.133.27-Mar-2021 3426.01 7382.88 60.36 6.00  27.61 3169.91
   07:03:01.333.27-Mar-2021 3426.01 7382.16 60.36 6.00  27.81 3169.91
   07:03:01.533.27-Mar-2021 3426.01 7382.28 60.36 6.00  28.01 3169.91
   07:03:01.733.27-Mar-2021 3426.01 7382.28 60.36 6.00  28.21 3169.91
   07:03:01.933.27-Mar-2021 3426.01 7382.07 60.36 6.00  28.41 3169.91
   07:03:02.133.27-Mar-2021 3426.01 7382.03 60.36 6.00  28.61 3169.91
   07:03:02.333.27-Mar-2021 3426.01 7382.43 60.36 6.00  28.81 3169.91
   07:03:02.533.27-Mar-2021 3426.01 7382.75 60.36 6.00  29.01 3169.91
   07:03:02.733.27-Mar-2021 3426.01 7382.75 60.36 6.00  29.21 3169.91
   07:03:02.933.27-Mar-2021 3426.01 7382.86 60.36 6.00  29.41 3169.91
   07:03:03.133.27-Mar-2021 3426.01 7382.87 60.36 6.00  29.61 3169.91
   07:03:03.333.27-Mar-2021 3426.01 7382.58 60.36 6.00  29.81 3169.91
   07:03:03.533.27-Mar-2021 3426.01 7382.60 60.36 6.00  30.01 3169.91
   07:03:03.734.27-Mar-2021 3426.01 7382.60 60.36 6.00  30.21 3169.91
   07:03:03.934.27-Mar-2021 3426.01 7384.98 60.36 6.00  30.41 3169.91
   07:03:04.134.27-Mar-2021 3426.01 7383.36 60.36 6.00  30.61 3169.91
   07:03:04.334.27-Mar-2021 3426.01 7382.90 60.36 6.00  30.81 3169.91
   07:03:04.534.27-Mar-2021 3426.01 7383.38 60.36 6.00  31.01 3169.91
   07:03:04.734.27-Mar-2021 3426.01 7383.38 60.36 6.00  31.21 3169.91
   07:03:04.934.27-Mar-2021 3426.01 7383.32 60.36 6.00  31.41 3169.91
   07:03:05.134.27-Mar-2021 3426.01 7382.58 60.35 6.00  31.61 3169.91
   07:03:05.334.27-Mar-2021 3426.01 7382.73 60.35 6.00  31.81 3169.91
   07:03:05.534.27-Mar-2021 3426.01 7382.51 60.35 6.00  32.01 3169.91
   07:03:05.734.27-Mar-2021 3426.01 7382.51 60.35 6.00  32.21 3169.91
   07:03:05.934.27-Mar-2021 3426.01 7383.09 60.35 6.00  32.41 3169.91
   07:03:06.134.27-Mar-2021 3426.01 7382.88 60.35 6.00  32.61 3169.91
   07:03:06.334.27-Mar-2021 3426.01 7383.23 60.35 6.00  32.81 3169.91
   07:03:06.534.27-Mar-2021 3426.01 7382.81 60.35 6.00  33.01 3169.91
   07:03:06.734.27-Mar-2021 3426.01 7382.81 60.35 6.00  33.21 3169.91
   07:03:06.934.27-Mar-2021 3426.01 7383.08 60.35 6.00  33.41 3169.91
   07:03:07.134.27-Mar-2021 3426.01 7383.83 60.35 6.00  33.61 3169.91
   07:03:07.334.27-Mar-2021 3426.01 7383.12 60.35 6.00  33.81 3169.91
   07:03:07.534.27-Mar-2021 3426.01 7383.30 60.35 6.00  34.01 3169.91
   07:03:07.735.27-Mar-2021 3426.01 7383.30 60.35 6.00  34.21 3169.91
   07:03:07.935.27-Mar-2021 3426.01 7386.02 60.35 6.00  34.41 3169.91
   07:03:08.135.27-Mar-2021 3426.01 7382.87 60.35 6.00  34.61 3169.91
   07:03:08.335.27-Mar-2021 3426.01 7383.87 60.35 6.00  34.81 3169.91
   07:03:08.535.27-Mar-2021 3426.01 7383.93 60.35 6.00  35.01 3169.91
   07:03:08.735.27-Mar-2021 3426.01 7383.93 60.35 6.00  35.21 3169.91
   07:03:08.935.27-Mar-2021 3426.01 7383.71 60.35 6.00  35.41 3169.91
   07:03:09.135.27-Mar-2021 3426.01 7386.56 60.35 6.00  35.61 3169.91
   07:03:09.335.27-Mar-2021 3426.01 7423.82 60.35 6.00  35.81 3169.91
   07:03:09.535.27-Mar-2021 3426.01 7459.33 60.35 6.00  36.01 3169.91
   07:03:09.735.27-Mar-2021 3426.01 7459.33 60.35 6.00  36.21 3169.91
   07:03:09.935.27-Mar-2021 3426.01 7526.26 60.35 6.00  36.41 3169.91
   07:03:10.135.27-Mar-2021 3426.01 7550.17 60.35 6.00  36.61 3169.91
   07:03:10.335.27-Mar-2021 3426.01 7531.31 60.35 6.00  36.81 3169.91
   07:03:10.535.27-Mar-2021 3426.01 7519.93 60.35 6.00  37.01 3169.91
   07:03:10.735.27-Mar-2021 3426.01 7519.93 60.35 6.00  37.21 3169.91
   07:03:10.935.27-Mar-2021 3426.01 7494.66 60.35 6.00  37.41 3169.91
   07:03:11.135.27-Mar-2021 3426.01 7469.25 60.35 6.00  37.61 3169.91
   07:03:11.335.27-Mar-2021 3426.01 7458.77 60.35 6.00  37.81 3169.91
   07:03:11.535.27-Mar-2021 3426.01 7442.22 60.35 6.00  38.01 3169.91
   07:03:11.736.27-Mar-2021 3426.01 7442.22 60.35 6.00  38.21 3169.91
   07:03:11.936.27-Mar-2021 3426.01 7420.58 60.35 6.00  38.41 3169.91
   07:03:12.136.27-Mar-2021 3426.01 7410.73 60.35 6.00  38.61 3169.91
   07:03:12.336.27-Mar-2021 3426.01 7406.31 60.35 6.00  38.81 3169.91
   07:03:12.536.27-Mar-2021 3426.01 7395.05 60.35 6.00  39.01 3169.91
   07:03:12.736.27-Mar-2021 3426.01 7395.05 60.35 6.00  39.21 3169.91
   07:03:12.936.27-Mar-2021 3426.01 7373.52 60.35 6.00  39.41 3169.91
   07:03:13.136.27-Mar-2021 3426.01 7367.42 60.35 6.00  39.61 3169.91
   07:03:13.336.27-Mar-2021 3426.01 7363.88 60.35 6.00  39.81 3169.91
   07:03:13.536.27-Mar-2021 3426.01 7353.68 60.35 6.00  40.01 3169.91
   07:03:13.736.27-Mar-2021 3426.01 7353.68 60.35 6.00  40.21 3169.91
   07:03:13.936.27-Mar-2021 3426.01 7340.75 60.35 6.00  40.41 3169.91
   07:03:14.136.27-Mar-2021 3426.01 7329.38 60.35 6.00  40.61 3169.91
   07:03:14.336.27-Mar-2021 3426.01 7324.61 60.35 6.00  40.81 3169.91
   07:03:14.536.27-Mar-2021 3426.01 7311.08 60.35 6.00  41.01 3169.91
   07:03:14.736.27-Mar-2021 3426.01 7311.08 60.35 6.00  41.21 3169.91
   07:03:14.936.27-Mar-2021 3426.01 7300.58 60.35 6.00  41.41 3169.91
   07:03:15.136.27-Mar-2021 3426.01 7294.99 60.35 6.00  41.61 3169.91
   07:03:15.336.27-Mar-2021 3426.01 7260.21 60.35 6.00  41.81 3169.91
   07:03:15.536.27-Mar-2021 3426.01 7205.23 60.35 6.00  42.01 3169.91
   07:03:15.737.27-Mar-2021 3426.01 7205.23 60.35 6.00  42.21 3169.91
   07:03:15.937.27-Mar-2021 3426.01 7013.70 60.35 6.00  42.41 3169.91
   07:03:16.137.27-Mar-2021 3426.01 6889.44 60.35 6.00  42.61 3169.91
   07:03:16.337.27-Mar-2021 3426.01 6770.43 60.35 6.00  42.81 3169.91
   07:03:16.537.27-Mar-2021 3426.01 6664.68 60.35 6.00  43.01 3169.91
   07:03:16.737.27-Mar-2021 3426.01 6664.68 60.35 6.00  43.21 3169.91
   07:03:16.937.27-Mar-2021 3426.01 6460.04 60.35 6.00  43.41 3169.91
   07:03:17.137.27-Mar-2021 3426.01 6362.78 60.35 6.00  43.61 3169.91
   07:03:17.337.27-Mar-2021 3426.01 6297.99 60.35 6.00  43.81 3169.91
   07:03:17.537.27-Mar-2021 3426.01 6328.29 60.35 6.00  44.01 3169.91
   07:03:17.737.27-Mar-2021 3426.01 6328.29 60.35 6.00  44.21 3169.91
   07:03:17.937.27-Mar-2021 3426.01 6416.39 60.35 6.00  44.41 3169.91
   07:03:18.137.27-Mar-2021 3426.01 6273.64 60.35 6.00  44.61 3169.91
   07:03:18.337.27-Mar-2021 3426.01 6093.85 60.35 6.00  44.81 3169.91
   07:03:18.537.27-Mar-2021 3426.01 5934.74 60.35 6.00  45.01 3169.91
   07:03:18.737.27-Mar-2021 3426.01 5934.74 60.35 6.00  45.21 3169.91
   07:03:18.937.27-Mar-2021 3426.01 5566.56 60.35 6.00  45.41 3169.91
   07:03:19.137.27-Mar-2021 3426.01 5403.38 60.35 6.00  45.61 3169.91
   07:03:19.337.27-Mar-2021 3426.01 5249.48 60.34 6.00  45.81 3169.91
