~Version Information
 VERS.                  2.0:   CWLS log ASCII Standard -VERSION 2.0
 WRAP.                   NO:   One line per depth step
~Well Information Block
#MNEM.UNIT     VALUE/NAME     DESCRIPTION
#---------     -----------    ---------------------------
 STRT.S             03:27:53 27-Mar-21: START TIME 03:27:53 27-Mar-21
 STOP.S             03:35:02 27-Mar-21: STOP TIME  03:35:02 27-Mar-21
 STEP.S                   0.00: STEP TIME
 NULL.                 -999.25: NULL VALUE
 DFWT.                        :  DIST FWL TEXT
 DFST.                        :  DIST FSL TEXT
 DMF .             Drill Floor:  DRILL MEAS FROM
 STIM.      20.26.40 11-Mar-21:  START TIME
 DATE.      20.26.40 30-Mar-21:  END TIME
 SPUD.               11-Mar-21:  SPUD DATE
 NREF.                    Grid:  NORTH REFERENCE
 HPTY.       Minimum Curvature:  HOLE POS TYPE
 DMOD.             Drill Model:  DRILL MOD DESC
 SVYD.                  Survey:  SURVEY DESC
 ILTD.               Lithology:  INTERP LTH DESC
 FTOP.          Formation Tops:  FORM TOPS DESC
 SON .        AZ-XX-0906805385:  JOB NUMBER
 WTYP.                Deviated:  WELL TYPE
 COMP.     BP Exploration (Caspian Sea) Ltd.:  COMPANY
 UWI .            /AZE00000198:  UNIQUE WELL IDENTIFIER
 API .            /AZE00000198:  API NUMBER
 BASE.              Azerbaijan:  LOGGING EQUIPMENT BASE LOCATION
 REGN.                   EESSA:  REGION
 PROV.                    Baku:  PROVINCE
 STAT.                    Baku:  STATE NAME
 CTRY.              Azerbaijan:  COUNTRY NAME
 FLD .                     ACG:  FIELD NAME
 SRVC.     Turan Drilling & Engineering:  CONTRACTOR
 MWDS.                    Baku:  MWD SHOP
 WELL.                    D09z:  WELL NAME
 JOBN.        AZ-XX-0906805385:  JOB TICKET NUMB
 RIG .              East Azeri:  RIG NAME
 DOE .                     N/A:  DOE NUMBER
 DCON.         Sperry Drilling:  DIRECTNL CONTR
 UNIT.                     N/A:  LOGGING EQUIPMENT ID
 PDAT.          Mean Sea Level:  PERMANENT DATUM
 MDS .        Operator Entered:  MAG DATA SOURCE
 CNTY.                        :  COUNTY
 LOC .                        :  LOCATION
 LMF .             Drill Floor:  LOG MEASURED FROM
 TVDS.m                  43.60:  TVDSS CORRECTN
 LATI.deg                40.02:  LATITUDE
 LONG.deg                51.45:  LONGITUDE
 WHNS.m                 -17.04:  WELL HEAD N/S
 WHEW.m                  -6.28:  WELL HEAD E/W
 UTMX.m              538763.98:  UTM X
 UTMY.m             4431880.20:  UTM Y
 DFWL.m                   0.00:  DISTANCE FWL
 DFSL.m                   0.00:  DISTANCE FSL
 SDEP.m                2680.01:  START DEPTH
 TDD .m                4000.01:  TOTAL DEPTH (DRILLER)
 VSDR.deg               225.71:  VERT SEC DIRECT
 GVFD.g                   1.00:  GRAVITY FIELD
 MFLD.nT              50353.00:  MAGNETIC FIELD
 MDIP.deg                59.49:  MAGNETIC DIP
 MDEC.deg                 6.46:  MAGNETIC DECL
 GRDC.deg                 0.29:  GRID CORRECTION
 AZTC.deg                 6.17:  AZM TOTAL CORR
 EPD .m                   0.00:  ELEVATION
 EGL .m                   0.00:  GROUND ELEVATION
 WDMS.m                 151.80:  WD ELEV
 APD .m                  43.60:  DEPTH ABOVE PD
 AGAP.m                  43.60:  AIR GAP
 VSEW.m                  -6.28:  VERT SEC E/W
 VSNS.m                 -17.04:  VERT SEC N/S
 DEP .m                2656.31:  DEPTH
 EKB .m                  43.60:  KB ELEVATION
 EDF .m                  43.60:  DF ELEVATION
 VSC .                       0:  VS TO CLOSURE
 MAGU.                 1851247:  MAGUTM CHECKSUM
~Parameter Information Block
#MNEM.UNIT       Value        Description
#---------     -----------    ---------------------------
 AV  .mps                 3.00:  Ann Velocity 
 AVMX.mps                 8.00:  Max Ann Veloc 
 AZIF.deg                 0.00:  Azm, Final 
 BHAT.                   Other:  BHA Type 
 BREV.rev                 0.00:  Rev Bit Total 
 BROT.°/30m               0.00:  Build Rotating 
 BS  .in                 10.25:  Bit Size 
 BTPL.psig              511.00:  Bit Press Loss 
 CABU.                      No:  Customer Abuse 
 CGEO.           Asif Pashayev:  Customer Geo 
 COMM.                     ¼Fy:  Run Comments 1 
 TCS .hr                 24.03:  Time Ciculation Ended 
 CV  .mps                 3.50:  Crit Velocity 
 CVMX.mps                 4.00:  Max Crit Veloc 
 DD1 .             Aziz Aliyev:  Direct Drillr 1 
 DD2 .      Fakhraddin Guliyev:  Direct Drillr 2 
 DDSV.                   Other:  DD Service 
 DEFF.%                  99.00:  % Det Eff 
 DLRX.°/30m               0.00:  Dogleg Rot Max 
 DLSO.°/30m               0.00:  Dogleg Oriented 
 DLSX.°/30m               0.00:  Dogleg Str Max 
 DRET.      23.00.40 28-Mar-21:  Drill End Time 
 DRST.      23.30.40 25-Mar-21:  Drill Start Tim 
 DTIM.hr                  0.00:  Time Drilling 
 EDEP.m                3886.01:  End Depth 
 ENG1.         Almaz Almadatov:  Engineer 1 
 ENG2.      Artemiy Matviyanov:  Engineer 2 
 ENG3.           Samir Gafarov:  Engineer 3 
 ETIM.      23.00.40 28-Mar-21:  End Time 
 FLOI.gpm               550.00:  Flow In 
 FLON.gpm               500.00:  Flow In Min 
 FLOS.cptm                0.00:  Fluid Loss 
 FLOX.gpm               590.00:  Flow In Max 
 HFLO.                      No:  High Flow 
 HPRE.                      No:  High Pressure 
 HTEM.                      No:  High Temp 
 HYDO.m                   1.80:  Hydro Offset 
 IFIN.deg                 0.00:  Inc, Final 
 IMAX.deg                 0.00:  Inc Max 
 IMIN.deg                 0.00:  Inc Min 
 IMND.m                   0.00:  Inc Min Depth 
 IMXD.m                   0.00:  Inc Max Depth 
 JARR.                      No:  Jarring 
 LETM.      03.22.40 28-Mar-21:  Log End Time 
 LOST.hr                     0:  Lost Rig Time 
 LSTM.      23.30.40 25-Mar-21:  Log Start Time 
 MDCL.ppm             34000.00:  Mud Chlorides 
 MDES.     Inversion Oil/Synthetic:  Mud Desc 
 DFD .sg                  1.51:  Mud Density 
 MDMN.sg                  1.51:  Dens Mud Min 
 MDMX.sg                  1.51:  Dens Mud Max 
 MOIL.                      70:  Run Mud Oil % 
 MOWR.                   70:30:  Run Mud OWR 
 MSND.                     0.2:  Run Mud Sand % 
 MSOL.                   21.60:  Run Mud Solids% 
 DFV .spqt               74.00:  Mud Viscosity 
 MWOD.in                  6.75:  MWD Tool OD 
 MWSI.                      No:  Serv Intrp, MWD 
 OTIM.hr                 69.09:  Time Operating 
 PCON.           Look Like New:  Pad Condition 
 PMAX.psia             3500.00:  Press Op, Max 
 PV  .cP                 70.00:  Mud PV 
 RUN .                     400:  Run Number 
 ROPA.m/hr                0.00:  ROP Avg 
 ROPN.m/hr                0.00:  ROP Min 
 ROPX.m/hr                0.00:  ROP Max 
 RPMA.rpm                80.00:  RPM Surface Avg 
 RPMN.rpm                10.00:  RPM Surface Min 
 RPMX.rpm               100.00:  RPM Surface Max 
 RRUN.                    0400:  Rig Run Number 
 RTIM.hr                  3.00:  Time Reaming 
 SAZI.deg                 0.00:  Azm, Start 
 SDEP.m                3886.01:  Start Depth 
 SIDD.                      No:  Serv Intrp, DD 
 SINC.deg                 0.00:  Inc, Start 
 SPPA.psig             3270.00:  SPP Avg 
 SPPN.psig             3220.00:  SPP Min 
 SPPX.psig             4430.00:  SPP Max 
 STIM.      23.30.40 25-Mar-21:  Start Time 
 SVCS.                 DD, MWD:  Services 
 SVER.                    9.20:  Sperry Version 
 TDAT.m                   0.00:  Tot Depth Attmp 
 TDDF.                      No:  Trip for DD 
 TFF .                      No:  Trip for Fail 
 TQAA.f-kp                8.00:  Torque Abs Avg 
 TQAN.f-kp                7.00:  Torque Abs Min 
 TQAX.f-kp               11.00:  Torque Abs Max 
 TRRT.°/30m               0.00:  Turn Rotating 
 MRT .                  EWR-M5:  Maximum Recorded Temperature 
 TTMX.degC               76.47:  Max Tool Temp 
 VS01.                90640857:  Virtual Str1 SN 
 VS02.                90639246:  Virtual Str2 SN 
 VS03.                90642265:  Virtual Str3 SN 
 VS04.                11654497:  Virtual Str4 SN 
 WBMN.klb                 0.00:  WOB Min 
 WITN.      Kamran Keberlinkiy:  Customer Rep 
 WITN.           Murad Guliyev:  Customer Rep 2 
 WOBA.klb                 0.00:  WOB Avg 
 WOBX.klb                 0.00:  WOB Max 
 YP  .lhf2               36.00:  Yield Point 
~Curve Information Block
#MNEM.UNIT                 API CODE     Curve Description
#---------               -----------    ---------------------------
 TIME.HHMMSS            00 000 000 000:  GT Time & Date
 GTDEPTH.m              00 000 000 000:  GT Depth
 GTPQH.psia             00 000 000 000:  GT HR Quartz Pressure
 GTTQ.degC              00 000 000 000:  GT Quartz Temperature
 GTTN.NONE              00 000 000 000:  GT Test Number
 GTET.sec               00 000 000 000:  GT Elapsed Test Time
 GTTVD.m                00 000 000 000:  GT True Vertical Depth
#Other Information
#
#WARRANTY: Halliburton will use its best efforts to furnish customers with 
#accurate information and interpretations that are part of, and incident to, the services 
#provided.  However, Halliburton cannot and does not warrant the accuracy 
#or correctness of such information and interpretations.  Under no circumstances should any 
#such information or interpretation be relied upon as the sole basis for any drilling, 
#completion, production, or financial decision or any procedure involving any risk to the 
#safety of any drilling venture, drilling rig or its crew or any other third party.  The 
#Customer has full responsibility for all drilling, completion and production operation.  
#Halliburton makes no representations or warranties, either expressed or 
#implied, including, but not limited to, the implied warranties of merchantability or fitness 
#for a particular purpose, with respect to the services rendered.  In no event will 
#Halliburton be liable for failure to obtain any particular results or for 
#any damages, including, but not limited to, indirect, special or consequential damages, 
#resulting from the use of any information or interpretation provided by Halliburton.
#
~A           TIME           GTDEPTH  GTPQH  GTTQ  GTTN  GTET   GTTVD  
# ...
   03:29:25.138.27-Mar-2021 3725.51 5265.43 61.44 3.00  92.01 3451.28
   03:29:25.338.27-Mar-2021 3725.51 5265.43 61.44 3.00  92.21 3451.28
   03:29:25.539.27-Mar-2021 3725.51 5265.66 61.44 3.00  92.41 3451.28
   03:29:25.739.27-Mar-2021 3725.51 5265.91 61.44 3.00  92.61 3451.28
   03:29:25.939.27-Mar-2021 3725.51 5265.37 61.44 3.00  92.81 3451.28
   03:29:26.139.27-Mar-2021 3725.51 5265.66 61.44 3.00  93.01 3451.28
   03:29:26.339.27-Mar-2021 3725.51 5265.66 61.44 3.00  93.21 3451.28
   03:29:26.539.27-Mar-2021 3725.51 5265.50 61.44 3.00  93.41 3451.28
   03:29:26.739.27-Mar-2021 3725.51 5265.54 61.44 3.00  93.61 3451.28
   03:29:26.939.27-Mar-2021 3725.51 5265.85 61.44 3.00  93.81 3451.28
   03:29:27.139.27-Mar-2021 3725.51 5265.68 61.44 3.00  94.01 3451.28
   03:29:27.339.27-Mar-2021 3725.51 5265.68 61.44 3.00  94.21 3451.28
   03:29:27.539.27-Mar-2021 3725.51 5265.55 61.44 3.00  94.41 3451.28
   03:29:27.739.27-Mar-2021 3725.51 5265.64 61.44 3.00  94.61 3451.28
   03:29:27.939.27-Mar-2021 3725.51 5265.83 61.44 3.00  94.81 3451.28
   03:29:28.139.27-Mar-2021 3725.51 5265.60 61.44 3.00  95.01 3451.28
   03:29:28.339.27-Mar-2021 3725.51 5265.60 61.44 3.00  95.21 3451.28
   03:29:28.539.27-Mar-2021 3725.51 5265.75 61.44 3.00  95.41 3451.28
   03:29:28.739.27-Mar-2021 3725.51 5265.73 61.44 3.00  95.61 3451.28
   03:29:28.939.27-Mar-2021 3725.51 5265.54 61.44 3.00  95.81 3451.28
   03:29:29.139.27-Mar-2021 3725.51 5265.71 61.44 3.00  96.01 3451.28
   03:29:29.339.27-Mar-2021 3725.51 5265.71 61.44 3.00  96.21 3451.28
   03:29:29.539.27-Mar-2021 3725.51 5265.66 61.44 3.00  96.41 3451.28
   03:29:29.739.27-Mar-2021 3725.51 5265.64 61.44 3.00  96.61 3451.28
   03:29:29.939.27-Mar-2021 3725.51 5265.73 61.44 3.00  96.81 3451.28
   03:29:30.139.27-Mar-2021 3725.51 5265.70 61.44 3.00  97.01 3451.28
   03:29:30.339.27-Mar-2021 3725.51 5265.70 61.44 3.00  97.21 3451.28
   03:29:30.539.27-Mar-2021 3725.51 5265.83 61.44 3.00  97.41 3451.28
   03:29:30.739.27-Mar-2021 3725.51 5265.56 61.44 3.00  97.61 3451.28
   03:29:30.939.27-Mar-2021 3725.51 5265.61 61.44 3.00  97.81 3451.28
   03:29:31.139.27-Mar-2021 3725.51 5265.78 61.44 3.00  98.01 3451.28
   03:29:31.339.27-Mar-2021 3725.51 5265.78 61.44 3.00  98.21 3451.28
   03:29:31.539.27-Mar-2021 3725.51 5265.60 61.44 3.00  98.41 3451.28
   03:29:31.739.27-Mar-2021 3725.51 5265.76 61.44 3.00  98.61 3451.28
   03:29:31.939.27-Mar-2021 3725.51 5265.67 61.44 3.00  98.81 3451.28
   03:29:32.139.27-Mar-2021 3725.51 5265.62 61.44 3.00  99.01 3451.28
   03:29:32.339.27-Mar-2021 3725.51 5265.62 61.44 3.00  99.21 3451.28
   03:29:32.539.27-Mar-2021 3725.51 5265.70 61.44 3.00  99.41 3451.28
   03:29:32.739.27-Mar-2021 3725.51 5265.52 61.44 3.00  99.61 3451.28
   03:29:32.939.27-Mar-2021 3725.51 5266.04 61.44 3.00  99.81 3451.28
   03:29:33.139.27-Mar-2021 3725.51 5265.51 61.44 3.00 100.01 3451.28
   03:29:33.339.27-Mar-2021 3725.51 5265.51 61.44 3.00 100.21 3451.28
   03:29:33.540.27-Mar-2021 3725.51 5265.84 61.44 3.00 100.41 3451.28
   03:29:33.740.27-Mar-2021 3725.51 5265.50 61.44 3.00 100.61 3451.28
   03:29:33.940.27-Mar-2021 3725.51 5265.48 61.44 3.00 100.81 3451.28
   03:29:34.140.27-Mar-2021 3725.51 5266.08 61.44 3.00 101.01 3451.28
   03:29:34.340.27-Mar-2021 3725.51 5266.08 61.44 3.00 101.21 3451.28
   03:29:34.540.27-Mar-2021 3725.51 5265.50 61.44 3.00 101.41 3451.28
   03:29:34.740.27-Mar-2021 3725.51 5265.91 61.44 3.00 101.61 3451.28
   03:29:34.940.27-Mar-2021 3725.51 5265.60 61.44 3.00 101.81 3451.28
   03:29:35.140.27-Mar-2021 3725.51 5265.53 61.44 3.00 102.01 3451.28
   03:29:35.340.27-Mar-2021 3725.51 5265.53 61.44 3.00 102.21 3451.28
   03:29:35.540.27-Mar-2021 3725.51 5265.74 61.44 3.00 102.41 3451.28
   03:29:35.740.27-Mar-2021 3725.51 5265.49 61.44 3.00 102.61 3451.28
   03:29:35.940.27-Mar-2021 3725.51 5265.54 61.44 3.00 102.81 3451.28
   03:29:36.140.27-Mar-2021 3725.51 5265.77 61.44 3.00 103.01 3451.28
   03:29:36.340.27-Mar-2021 3725.51 5265.77 61.44 3.00 103.21 3451.28
   03:29:36.540.27-Mar-2021 3725.51 5265.74 61.44 3.00 103.41 3451.28
   03:29:36.740.27-Mar-2021 3725.51 5265.78 61.44 3.00 103.61 3451.28
   03:29:36.940.27-Mar-2021 3725.51 5265.44 61.44 3.00 103.81 3451.28
   03:29:37.140.27-Mar-2021 3725.51 5265.65 61.44 3.00 104.01 3451.28
   03:29:37.340.27-Mar-2021 3725.51 5265.65 61.44 3.00 104.21 3451.28
   03:29:37.540.27-Mar-2021 3725.51 5265.51 61.44 3.00 104.41 3451.28
   03:29:37.740.27-Mar-2021 3725.51 5265.71 61.44 3.00 104.61 3451.28
   03:29:37.940.27-Mar-2021 3725.51 5265.72 61.44 3.00 104.81 3451.28
   03:29:38.140.27-Mar-2021 3725.51 5265.65 61.44 3.00 105.01 3451.28
   03:29:38.340.27-Mar-2021 3725.51 5265.65 61.44 3.00 105.21 3451.28
   03:29:38.540.27-Mar-2021 3725.51 5265.72 61.44 3.00 105.41 3451.28
   03:29:38.740.27-Mar-2021 3725.51 5265.69 61.44 3.00 105.61 3451.28
   03:29:38.940.27-Mar-2021 3725.51 5265.72 61.44 3.00 105.81 3451.28
   03:29:39.140.27-Mar-2021 3725.51 5265.73 61.44 3.00 106.01 3451.28
   03:29:39.340.27-Mar-2021 3725.51 5265.73 61.44 3.00 106.21 3451.28
   03:29:39.540.27-Mar-2021 3725.51 5265.57 61.44 3.00 106.41 3451.28
   03:29:39.740.27-Mar-2021 3725.51 5265.82 61.44 3.00 106.61 3451.28
   03:29:39.940.27-Mar-2021 3725.51 5265.75 61.44 3.00 106.81 3451.28
   03:29:40.140.27-Mar-2021 3725.51 5265.37 61.44 3.00 107.01 3451.28
   03:29:40.340.27-Mar-2021 3725.51 5265.37 61.44 3.00 107.21 3451.28
   03:29:40.540.27-Mar-2021 3725.51 5265.84 61.44 3.00 107.41 3451.28
   03:29:40.740.27-Mar-2021 3725.51 5265.41 61.44 3.00 107.61 3451.28
   03:29:40.940.27-Mar-2021 3725.51 5265.66 61.44 3.00 107.81 3451.28
   03:29:41.140.27-Mar-2021 3725.51 5265.81 61.44 3.00 108.01 3451.28
   03:29:41.340.27-Mar-2021 3725.51 5265.81 61.44 3.00 108.21 3451.28
   03:29:41.541.27-Mar-2021 3725.51 5265.68 61.44 3.00 108.41 3451.28
   03:29:41.741.27-Mar-2021 3725.51 5265.71 61.44 3.00 108.61 3451.28
   03:29:41.941.27-Mar-2021 3725.51 5265.61 61.44 3.00 108.81 3451.28
   03:29:42.141.27-Mar-2021 3725.51 5265.67 61.44 3.00 109.01 3451.28
   03:29:42.341.27-Mar-2021 3725.51 5265.67 61.44 3.00 109.21 3451.28
   03:29:42.541.27-Mar-2021 3725.51 5265.50 61.44 3.00 109.41 3451.28
   03:29:42.741.27-Mar-2021 3725.51 5265.79 61.44 3.00 109.61 3451.28
   03:29:42.941.27-Mar-2021 3725.51 5265.85 61.44 3.00 109.81 3451.28
   03:29:43.141.27-Mar-2021 3725.51 5265.41 61.44 3.00 110.01 3451.28
   03:29:43.341.27-Mar-2021 3725.51 5265.41 61.44 3.00 110.21 3451.28
   03:29:43.541.27-Mar-2021 3725.51 5265.91 61.44 3.00 110.41 3451.28
   03:29:43.741.27-Mar-2021 3725.51 5265.35 61.44 3.00 110.61 3451.28
   03:29:43.941.27-Mar-2021 3725.51 5265.72 61.44 3.00 110.81 3451.28
   03:29:44.141.27-Mar-2021 3725.51 5265.89 61.44 3.00 111.01 3451.28
   03:29:44.341.27-Mar-2021 3725.51 5265.89 61.44 3.00 111.21 3451.28
   03:29:44.541.27-Mar-2021 3725.51 5265.72 61.44 3.00 111.41 3451.28
   03:29:44.741.27-Mar-2021 3725.51 5265.79 61.44 3.00 111.61 3451.28
   03:29:44.941.27-Mar-2021 3725.51 5265.80 61.44 3.00 111.81 3451.28
   03:29:45.141.27-Mar-2021 3725.51 5265.50 61.44 3.00 112.01 3451.28
   03:29:45.341.27-Mar-2021 3725.51 5265.50 61.44 3.00 112.21 3451.28
   03:29:45.541.27-Mar-2021 3725.51 5265.85 61.44 3.00 112.41 3451.28
   03:29:45.741.27-Mar-2021 3725.51 5265.46 61.44 3.00 112.61 3451.28
   03:29:45.941.27-Mar-2021 3725.51 5265.97 61.44 3.00 112.81 3451.28
   03:29:46.141.27-Mar-2021 3725.51 5265.50 61.44 3.00 113.01 3451.28
   03:29:46.341.27-Mar-2021 3725.51 5265.50 61.44 3.00 113.21 3451.28
   03:29:46.541.27-Mar-2021 3725.51 5265.78 61.44 3.00 113.41 3451.28
   03:29:46.741.27-Mar-2021 3725.51 5265.53 61.44 3.00 113.61 3451.28
   03:29:46.941.27-Mar-2021 3725.51 5265.55 61.45 3.00 113.81 3451.28
   03:29:47.141.27-Mar-2021 3725.51 5265.84 61.44 3.00 114.01 3451.28
   03:29:47.341.27-Mar-2021 3725.51 5265.84 61.44 3.00 114.21 3451.28
   03:29:47.541.27-Mar-2021 3725.51 5265.55 61.45 3.00 114.41 3451.28
   03:29:47.741.27-Mar-2021 3725.51 5265.70 61.45 3.00 114.61 3451.28
   03:29:47.941.27-Mar-2021 3725.51 5265.65 61.45 3.00 114.81 3451.28
