~Version Information
 VERS.                  2.0:   CWLS log ASCII Standard -VERSION 2.0
 WRAP.                   NO:   One line per depth step
~Well Information Block
#MNEM.UNIT     VALUE/NAME     DESCRIPTION
#---------     -----------    ---------------------------
 STRT.S             06:42:15 27-Mar-21: START TIME 06:42:15 27-Mar-21
 STOP.S             06:49:25 27-Mar-21: STOP TIME  06:49:25 27-Mar-21
 STEP.S                   0.00: STEP TIME
 NULL.                 -999.25: NULL VALUE
 DFWT.                        :  DIST FWL TEXT
 DFST.                        :  DIST FSL TEXT
 DMF .             Drill Floor:  DRILL MEAS FROM
 STIM.      20.26.40 11-Mar-21:  START TIME
 DATE.      20.26.40 30-Mar-21:  END TIME
 SPUD.               11-Mar-21:  SPUD DATE
 NREF.                    Grid:  NORTH REFERENCE
 HPTY.       Minimum Curvature:  HOLE POS TYPE
 DMOD.             Drill Model:  DRILL MOD DESC
 SVYD.                  Survey:  SURVEY DESC
 ILTD.               Lithology:  INTERP LTH DESC
 FTOP.          Formation Tops:  FORM TOPS DESC
 SON .        AZ-XX-0906805385:  JOB NUMBER
 WTYP.                Deviated:  WELL TYPE
 COMP.     BP Exploration (Caspian Sea) Ltd.:  COMPANY
 UWI .            /AZE00000198:  UNIQUE WELL IDENTIFIER
 API .            /AZE00000198:  API NUMBER
 BASE.              Azerbaijan:  LOGGING EQUIPMENT BASE LOCATION
 REGN.                   EESSA:  REGION
 PROV.                    Baku:  PROVINCE
 STAT.                    Baku:  STATE NAME
 CTRY.              Azerbaijan:  COUNTRY NAME
 FLD .                     ACG:  FIELD NAME
 SRVC.     Turan Drilling & Engineering:  CONTRACTOR
 MWDS.                    Baku:  MWD SHOP
 WELL.                    D09z:  WELL NAME
 JOBN.        AZ-XX-0906805385:  JOB TICKET NUMB
 RIG .              East Azeri:  RIG NAME
 DOE .                     N/A:  DOE NUMBER
 DCON.         Sperry Drilling:  DIRECTNL CONTR
 UNIT.                     N/A:  LOGGING EQUIPMENT ID
 PDAT.          Mean Sea Level:  PERMANENT DATUM
 MDS .        Operator Entered:  MAG DATA SOURCE
 CNTY.                        :  COUNTY
 LOC .                        :  LOCATION
 LMF .             Drill Floor:  LOG MEASURED FROM
 TVDS.m                  43.60:  TVDSS CORRECTN
 LATI.deg                40.02:  LATITUDE
 LONG.deg                51.45:  LONGITUDE
 WHNS.m                 -17.04:  WELL HEAD N/S
 WHEW.m                  -6.28:  WELL HEAD E/W
 UTMX.m              538763.98:  UTM X
 UTMY.m             4431880.20:  UTM Y
 DFWL.m                   0.00:  DISTANCE FWL
 DFSL.m                   0.00:  DISTANCE FSL
 SDEP.m                2680.01:  START DEPTH
 TDD .m                4000.01:  TOTAL DEPTH (DRILLER)
 VSDR.deg               225.71:  VERT SEC DIRECT
 GVFD.g                   1.00:  GRAVITY FIELD
 MFLD.nT              50353.00:  MAGNETIC FIELD
 MDIP.deg                59.49:  MAGNETIC DIP
 MDEC.deg                 6.46:  MAGNETIC DECL
 GRDC.deg                 0.29:  GRID CORRECTION
 AZTC.deg                 6.17:  AZM TOTAL CORR
 EPD .m                   0.00:  ELEVATION
 EGL .m                   0.00:  GROUND ELEVATION
 WDMS.m                 151.80:  WD ELEV
 APD .m                  43.60:  DEPTH ABOVE PD
 AGAP.m                  43.60:  AIR GAP
 VSEW.m                  -6.28:  VERT SEC E/W
 VSNS.m                 -17.04:  VERT SEC N/S
 DEP .m                2656.31:  DEPTH
 EKB .m                  43.60:  KB ELEVATION
 EDF .m                  43.60:  DF ELEVATION
 VSC .                       0:  VS TO CLOSURE
 MAGU.                 1851247:  MAGUTM CHECKSUM
~Parameter Information Block
#MNEM.UNIT       Value        Description
#---------     -----------    ---------------------------
 AV  .mps                 3.00:  Ann Velocity 
 AVMX.mps                 8.00:  Max Ann Veloc 
 AZIF.deg                 0.00:  Azm, Final 
 BHAT.                   Other:  BHA Type 
 BREV.rev                 0.00:  Rev Bit Total 
 BROT.°/30m               0.00:  Build Rotating 
 BS  .in                 10.25:  Bit Size 
 BTPL.psig              511.00:  Bit Press Loss 
 CABU.                      No:  Customer Abuse 
 CGEO.           Asif Pashayev:  Customer Geo 
 COMM.                     lÇi:  Run Comments 1 
 TCS .hr                 24.03:  Time Ciculation Ended 
 CV  .mps                 3.50:  Crit Velocity 
 CVMX.mps                 4.00:  Max Crit Veloc 
 DD1 .             Aziz Aliyev:  Direct Drillr 1 
 DD2 .      Fakhraddin Guliyev:  Direct Drillr 2 
 DDSV.                   Other:  DD Service 
 DEFF.%                  99.00:  % Det Eff 
 DLRX.°/30m               0.00:  Dogleg Rot Max 
 DLSO.°/30m               0.00:  Dogleg Oriented 
 DLSX.°/30m               0.00:  Dogleg Str Max 
 DRET.      23.00.40 28-Mar-21:  Drill End Time 
 DRST.      23.30.40 25-Mar-21:  Drill Start Tim 
 DTIM.hr                  0.00:  Time Drilling 
 EDEP.m                3886.01:  End Depth 
 ENG1.         Almaz Almadatov:  Engineer 1 
 ENG2.      Artemiy Matviyanov:  Engineer 2 
 ENG3.           Samir Gafarov:  Engineer 3 
 ETIM.      23.00.40 28-Mar-21:  End Time 
 FLOI.gpm               550.00:  Flow In 
 FLON.gpm               500.00:  Flow In Min 
 FLOS.cptm                0.00:  Fluid Loss 
 FLOX.gpm               590.00:  Flow In Max 
 HFLO.                      No:  High Flow 
 HPRE.                      No:  High Pressure 
 HTEM.                      No:  High Temp 
 HYDO.m                   1.80:  Hydro Offset 
 IFIN.deg                 0.00:  Inc, Final 
 IMAX.deg                 0.00:  Inc Max 
 IMIN.deg                 0.00:  Inc Min 
 IMND.m                   0.00:  Inc Min Depth 
 IMXD.m                   0.00:  Inc Max Depth 
 JARR.                      No:  Jarring 
 LETM.      03.22.40 28-Mar-21:  Log End Time 
 LOST.hr                     0:  Lost Rig Time 
 LSTM.      23.30.40 25-Mar-21:  Log Start Time 
 MDCL.ppm             34000.00:  Mud Chlorides 
 MDES.     Inversion Oil/Synthetic:  Mud Desc 
 DFD .sg                  1.51:  Mud Density 
 MDMN.sg                  1.51:  Dens Mud Min 
 MDMX.sg                  1.51:  Dens Mud Max 
 MOIL.                      70:  Run Mud Oil % 
 MOWR.                   70:30:  Run Mud OWR 
 MSND.                     0.2:  Run Mud Sand % 
 MSOL.                   21.60:  Run Mud Solids% 
 DFV .spqt               74.00:  Mud Viscosity 
 MWOD.in                  6.75:  MWD Tool OD 
 MWSI.                      No:  Serv Intrp, MWD 
 OTIM.hr                 69.09:  Time Operating 
 PCON.           Look Like New:  Pad Condition 
 PMAX.psia             3500.00:  Press Op, Max 
 PV  .cP                 70.00:  Mud PV 
 RUN .                     400:  Run Number 
 ROPA.m/hr                0.00:  ROP Avg 
 ROPN.m/hr                0.00:  ROP Min 
 ROPX.m/hr                0.00:  ROP Max 
 RPMA.rpm                80.00:  RPM Surface Avg 
 RPMN.rpm                10.00:  RPM Surface Min 
 RPMX.rpm               100.00:  RPM Surface Max 
 RRUN.                    0400:  Rig Run Number 
 RTIM.hr                  3.00:  Time Reaming 
 SAZI.deg                 0.00:  Azm, Start 
 SDEP.m                3886.01:  Start Depth 
 SIDD.                      No:  Serv Intrp, DD 
 SINC.deg                 0.00:  Inc, Start 
 SPPA.psig             3270.00:  SPP Avg 
 SPPN.psig             3220.00:  SPP Min 
 SPPX.psig             4430.00:  SPP Max 
 STIM.      23.30.40 25-Mar-21:  Start Time 
 SVCS.                 DD, MWD:  Services 
 SVER.                    9.20:  Sperry Version 
 TDAT.m                   0.00:  Tot Depth Attmp 
 TDDF.                      No:  Trip for DD 
 TFF .                      No:  Trip for Fail 
 TQAA.f-kp                8.00:  Torque Abs Avg 
 TQAN.f-kp                7.00:  Torque Abs Min 
 TQAX.f-kp               11.00:  Torque Abs Max 
 TRRT.°/30m               0.00:  Turn Rotating 
 MRT .                  EWR-M5:  Maximum Recorded Temperature 
 TTMX.degC               76.47:  Max Tool Temp 
 VS01.                90640857:  Virtual Str1 SN 
 VS02.                90639246:  Virtual Str2 SN 
 VS03.                90642265:  Virtual Str3 SN 
 VS04.                11654497:  Virtual Str4 SN 
 WBMN.klb                 0.00:  WOB Min 
 WITN.      Kamran Keberlinkiy:  Customer Rep 
 WITN.           Murad Guliyev:  Customer Rep 2 
 WOBA.klb                 0.00:  WOB Avg 
 WOBX.klb                 0.00:  WOB Max 
 YP  .lhf2               36.00:  Yield Point 
~Curve Information Block
#MNEM.UNIT                 API CODE     Curve Description
#---------               -----------    ---------------------------
 TIME.HHMMSS            00 000 000 000:  GT Time & Date
 GTDEPTH.m              00 000 000 000:  GT Depth
 GTPQH.psia             00 000 000 000:  GT HR Quartz Pressure
 GTTQ.degC              00 000 000 000:  GT Quartz Temperature
 GTTN.NONE              00 000 000 000:  GT Test Number
 GTET.sec               00 000 000 000:  GT Elapsed Test Time
 GTTVD.m                00 000 000 000:  GT True Vertical Depth
#Other Information
#
#WARRANTY: Halliburton will use its best efforts to furnish customers with 
#accurate information and interpretations that are part of, and incident to, the services 
#provided.  However, Halliburton cannot and does not warrant the accuracy 
#or correctness of such information and interpretations.  Under no circumstances should any 
#such information or interpretation be relied upon as the sole basis for any drilling, 
#completion, production, or financial decision or any procedure involving any risk to the 
#safety of any drilling venture, drilling rig or its crew or any other third party.  The 
#Customer has full responsibility for all drilling, completion and production operation.  
#Halliburton makes no representations or warranties, either expressed or 
#implied, including, but not limited to, the implied warranties of merchantability or fitness 
#for a particular purpose, with respect to the services rendered.  In no event will 
#Halliburton be liable for failure to obtain any particular results or for 
#any damages, including, but not limited to, indirect, special or consequential damages, 
#resulting from the use of any information or interpretation provided by Halliburton.
#
~A           TIME           GTDEPTH  GTPQH  GTTQ  GTTN  GTET   GTTVD  
# ...
   06:42:38.228.27-Mar-2021 3443.51 7420.83 60.45 5.00  23.01 3186.30
   06:42:38.428.27-Mar-2021 3443.51 7420.83 60.45 5.00  23.21 3186.30
   06:42:38.628.27-Mar-2021 3443.51 7424.64 60.45 5.00  23.41 3186.30
   06:42:38.829.27-Mar-2021 3443.51 7420.54 60.45 5.00  23.61 3186.30
   06:42:39.029.27-Mar-2021 3443.51 7422.12 60.45 5.00  23.81 3186.30
   06:42:39.229.27-Mar-2021 3443.51 7421.97 60.45 5.00  24.01 3186.30
   06:42:39.429.27-Mar-2021 3443.51 7421.97 60.45 5.00  24.21 3186.30
   06:42:39.629.27-Mar-2021 3443.51 7421.74 60.45 5.00  24.41 3186.30
   06:42:39.829.27-Mar-2021 3443.51 7421.85 60.45 5.00  24.61 3186.30
   06:42:40.029.27-Mar-2021 3443.51 7421.71 60.45 5.00  24.81 3186.30
   06:42:40.229.27-Mar-2021 3443.51 7425.03 60.45 5.00  25.01 3186.30
   06:42:40.429.27-Mar-2021 3443.51 7425.03 60.45 5.00  25.21 3186.30
   06:42:40.629.27-Mar-2021 3443.51 7423.05 60.45 5.00  25.41 3186.30
   06:42:40.829.27-Mar-2021 3443.51 7422.66 60.45 5.00  25.61 3186.30
   06:42:41.029.27-Mar-2021 3443.51 7422.66 60.45 5.00  25.81 3186.30
   06:42:41.229.27-Mar-2021 3443.51 7422.34 60.45 5.00  26.01 3186.30
   06:42:41.429.27-Mar-2021 3443.51 7422.34 60.45 5.00  26.21 3186.30
   06:42:41.629.27-Mar-2021 3443.51 7422.18 60.45 5.00  26.41 3186.30
   06:42:41.829.27-Mar-2021 3443.51 7423.21 60.45 5.00  26.61 3186.30
   06:42:42.029.27-Mar-2021 3443.51 7422.96 60.45 5.00  26.81 3186.30
   06:42:42.229.27-Mar-2021 3443.51 7423.22 60.45 5.00  27.01 3186.30
   06:42:42.429.27-Mar-2021 3443.51 7423.22 60.45 5.00  27.21 3186.30
   06:42:42.629.27-Mar-2021 3443.51 7422.86 60.45 5.00  27.41 3186.30
   06:42:42.830.27-Mar-2021 3443.51 7422.93 60.45 5.00  27.61 3186.30
   06:42:43.030.27-Mar-2021 3443.51 7423.30 60.45 5.00  27.81 3186.30
   06:42:43.230.27-Mar-2021 3443.51 7423.60 60.45 5.00  28.01 3186.30
   06:42:43.430.27-Mar-2021 3443.51 7423.60 60.45 5.00  28.21 3186.30
   06:42:43.630.27-Mar-2021 3443.51 7423.57 60.45 5.00  28.41 3186.30
   06:42:43.830.27-Mar-2021 3443.51 7423.32 60.44 5.00  28.61 3186.30
   06:42:44.030.27-Mar-2021 3443.51 7423.55 60.44 5.00  28.81 3186.30
   06:42:44.230.27-Mar-2021 3443.51 7423.16 60.44 5.00  29.01 3186.30
   06:42:44.430.27-Mar-2021 3443.51 7423.16 60.44 5.00  29.21 3186.30
   06:42:44.630.27-Mar-2021 3443.51 7427.36 60.44 5.00  29.41 3186.30
   06:42:44.830.27-Mar-2021 3443.51 7422.90 60.44 5.00  29.61 3186.30
   06:42:45.030.27-Mar-2021 3443.51 7423.46 60.44 5.00  29.81 3186.30
   06:42:45.230.27-Mar-2021 3443.51 7424.39 60.44 5.00  30.01 3186.30
   06:42:45.430.27-Mar-2021 3443.51 7424.39 60.44 5.00  30.21 3186.30
   06:42:45.630.27-Mar-2021 3443.51 7424.04 60.44 5.00  30.41 3186.30
   06:42:45.830.27-Mar-2021 3443.51 7423.21 60.44 5.00  30.61 3186.30
   06:42:46.030.27-Mar-2021 3443.51 7423.29 60.44 5.00  30.81 3186.30
   06:42:46.230.27-Mar-2021 3443.51 7423.44 60.44 5.00  31.01 3186.30
   06:42:46.430.27-Mar-2021 3443.51 7423.44 60.44 5.00  31.21 3186.30
   06:42:46.630.27-Mar-2021 3443.51 7423.77 60.44 5.00  31.41 3186.30
   06:42:46.831.27-Mar-2021 3443.51 7423.79 60.44 5.00  31.61 3186.30
   06:42:47.031.27-Mar-2021 3443.51 7424.14 60.44 5.00  31.81 3186.30
   06:42:47.231.27-Mar-2021 3443.51 7424.10 60.44 5.00  32.01 3186.30
   06:42:47.431.27-Mar-2021 3443.51 7424.10 60.44 5.00  32.21 3186.30
   06:42:47.631.27-Mar-2021 3443.51 7424.45 60.44 5.00  32.41 3186.30
   06:42:47.831.27-Mar-2021 3443.51 7424.86 60.44 5.00  32.61 3186.30
   06:42:48.031.27-Mar-2021 3443.51 7424.21 60.44 5.00  32.81 3186.30
   06:42:48.231.27-Mar-2021 3443.51 7424.48 60.44 5.00  33.01 3186.30
   06:42:48.431.27-Mar-2021 3443.51 7424.48 60.44 5.00  33.21 3186.30
   06:42:48.631.27-Mar-2021 3443.51 7423.75 60.44 5.00  33.41 3186.30
   06:42:48.831.27-Mar-2021 3443.51 7427.59 60.44 5.00  33.61 3186.30
   06:42:49.031.27-Mar-2021 3443.51 7423.48 60.44 5.00  33.81 3186.30
   06:42:49.231.27-Mar-2021 3443.51 7424.67 60.44 5.00  34.01 3186.30
   06:42:49.431.27-Mar-2021 3443.51 7424.67 60.44 5.00  34.21 3186.30
   06:42:49.631.27-Mar-2021 3443.51 7424.80 60.44 5.00  34.41 3186.30
   06:42:49.831.27-Mar-2021 3443.51 7424.98 60.44 5.00  34.61 3186.30
   06:42:50.031.27-Mar-2021 3443.51 7424.46 60.44 5.00  34.81 3186.30
   06:42:50.231.27-Mar-2021 3443.51 7424.50 60.44 5.00  35.01 3186.30
   06:42:50.431.27-Mar-2021 3443.51 7424.50 60.44 5.00  35.21 3186.30
   06:42:50.631.27-Mar-2021 3443.51 7425.50 60.44 5.00  35.41 3186.30
   06:42:50.832.27-Mar-2021 3443.51 7425.64 60.44 5.00  35.61 3186.30
   06:42:51.032.27-Mar-2021 3443.51 7462.35 60.44 5.00  35.81 3186.30
   06:42:51.232.27-Mar-2021 3443.51 7506.86 60.44 5.00  36.01 3186.30
   06:42:51.432.27-Mar-2021 3443.51 7506.86 60.44 5.00  36.21 3186.30
   06:42:51.632.27-Mar-2021 3443.51 7517.12 60.44 5.00  36.41 3186.30
   06:42:51.832.27-Mar-2021 3443.51 7550.36 60.44 5.00  36.61 3186.30
   06:42:52.032.27-Mar-2021 3443.51 7582.96 60.44 5.00  36.81 3186.30
   06:42:52.232.27-Mar-2021 3443.51 7600.69 60.44 5.00  37.01 3186.30
   06:42:52.432.27-Mar-2021 3443.51 7600.69 60.44 5.00  37.21 3186.30
   06:42:52.632.27-Mar-2021 3443.51 7570.49 60.44 5.00  37.41 3186.30
   06:42:52.832.27-Mar-2021 3443.51 7555.49 60.44 5.00  37.61 3186.30
   06:42:53.032.27-Mar-2021 3443.51 7549.47 60.44 5.00  37.81 3186.30
   06:42:53.232.27-Mar-2021 3443.51 7550.47 60.44 5.00  38.01 3186.30
   06:42:53.432.27-Mar-2021 3443.51 7550.47 60.44 5.00  38.21 3186.30
   06:42:53.632.27-Mar-2021 3443.51 7568.19 60.44 5.00  38.41 3186.30
   06:42:53.832.27-Mar-2021 3443.51 7573.59 60.44 5.00  38.61 3186.30
   06:42:54.032.27-Mar-2021 3443.51 7576.65 60.44 5.00  38.81 3186.30
   06:42:54.232.27-Mar-2021 3443.51 7578.42 60.44 5.00  39.01 3186.30
   06:42:54.432.27-Mar-2021 3443.51 7578.42 60.44 5.00  39.21 3186.30
   06:42:54.632.27-Mar-2021 3443.51 7578.39 60.44 5.00  39.41 3186.30
   06:42:54.833.27-Mar-2021 3443.51 7583.27 60.44 5.00  39.61 3186.30
   06:42:55.033.27-Mar-2021 3443.51 7572.84 60.44 5.00  39.81 3186.30
   06:42:55.233.27-Mar-2021 3443.51 7574.19 60.44 5.00  40.01 3186.30
   06:42:55.433.27-Mar-2021 3443.51 7574.19 60.44 5.00  40.21 3186.30
   06:42:55.633.27-Mar-2021 3443.51 7568.33 60.44 5.00  40.41 3186.30
   06:42:55.833.27-Mar-2021 3443.51 7564.25 60.44 5.00  40.61 3186.30
   06:42:56.033.27-Mar-2021 3443.51 7559.87 60.44 5.00  40.81 3186.30
   06:42:56.233.27-Mar-2021 3443.51 7555.29 60.44 5.00  41.01 3186.30
   06:42:56.433.27-Mar-2021 3443.51 7555.29 60.44 5.00  41.21 3186.30
   06:42:56.633.27-Mar-2021 3443.51 7552.46 60.44 5.00  41.41 3186.30
   06:42:56.833.27-Mar-2021 3443.51 7552.26 60.44 5.00  41.61 3186.30
   06:42:57.033.27-Mar-2021 3443.51 7536.74 60.44 5.00  41.81 3186.30
   06:42:57.233.27-Mar-2021 3443.51 7520.85 60.44 5.00  42.01 3186.30
   06:42:57.433.27-Mar-2021 3443.51 7520.85 60.44 5.00  42.21 3186.30
   06:42:57.633.27-Mar-2021 3443.51 7477.82 60.44 5.00  42.41 3186.30
   06:42:57.833.27-Mar-2021 3443.51 7451.68 60.44 5.00  42.61 3186.30
   06:42:58.033.27-Mar-2021 3443.51 7420.34 60.44 5.00  42.81 3186.30
   06:42:58.233.27-Mar-2021 3443.51 7388.78 60.44 5.00  43.01 3186.30
   06:42:58.433.27-Mar-2021 3443.51 7388.78 60.44 5.00  43.21 3186.30
   06:42:58.633.27-Mar-2021 3443.51 7294.50 60.44 5.00  43.41 3186.30
   06:42:58.834.27-Mar-2021 3443.51 7260.87 60.44 5.00  43.61 3186.30
   06:42:59.034.27-Mar-2021 3443.51 7211.70 60.44 5.00  43.81 3186.30
   06:42:59.234.27-Mar-2021 3443.51 7128.39 60.44 5.00  44.01 3186.30
   06:42:59.434.27-Mar-2021 3443.51 7128.39 60.44 5.00  44.21 3186.30
   06:42:59.634.27-Mar-2021 3443.51 6973.11 60.44 5.00  44.41 3186.30
   06:42:59.834.27-Mar-2021 3443.51 6890.42 60.44 5.00  44.61 3186.30
   06:43:00.034.27-Mar-2021 3443.51 6905.31 60.44 5.00  44.81 3186.30
   06:43:00.234.27-Mar-2021 3443.51 6762.45 60.44 5.00  45.01 3186.30
   06:43:00.434.27-Mar-2021 3443.51 6762.45 60.44 5.00  45.21 3186.30
   06:43:00.634.27-Mar-2021 3443.51 6497.76 60.44 5.00  45.41 3186.30
   06:43:00.834.27-Mar-2021 3443.51 6353.44 60.44 5.00  45.61 3186.30
   06:43:01.034.27-Mar-2021 3443.51 6191.09 60.43 5.00  45.81 3186.30
