~Version Information
 VERS.                  2.0:   CWLS log ASCII Standard -VERSION 2.0
 WRAP.                   NO:   One line per depth step
~Well Information Block
#MNEM.UNIT     VALUE/NAME     DESCRIPTION
#---------     -----------    ---------------------------
 STRT.S             12:17:14 27-Mar-21: START TIME 12:17:14 27-Mar-21
 STOP.S             12:24:16 27-Mar-21: STOP TIME  12:24:16 27-Mar-21
 STEP.S                   0.00: STEP TIME
 NULL.                 -999.25: NULL VALUE
 DFWT.                        :  DIST FWL TEXT
 DFST.                        :  DIST FSL TEXT
 DMF .             Drill Floor:  DRILL MEAS FROM
 STIM.      20.26.40 11-Mar-21:  START TIME
 DATE.      20.26.40 30-Mar-21:  END TIME
 SPUD.               11-Mar-21:  SPUD DATE
 NREF.                    Grid:  NORTH REFERENCE
 HPTY.       Minimum Curvature:  HOLE POS TYPE
 DMOD.             Drill Model:  DRILL MOD DESC
 SVYD.                  Survey:  SURVEY DESC
 ILTD.               Lithology:  INTERP LTH DESC
 FTOP.          Formation Tops:  FORM TOPS DESC
 SON .        AZ-XX-0906805385:  JOB NUMBER
 WTYP.                Deviated:  WELL TYPE
 COMP.     BP Exploration (Caspian Sea) Ltd.:  COMPANY
 UWI .            /AZE00000198:  UNIQUE WELL IDENTIFIER
 API .            /AZE00000198:  API NUMBER
 BASE.              Azerbaijan:  LOGGING EQUIPMENT BASE LOCATION
 REGN.                   EESSA:  REGION
 PROV.                    Baku:  PROVINCE
 STAT.                    Baku:  STATE NAME
 CTRY.              Azerbaijan:  COUNTRY NAME
 FLD .                     ACG:  FIELD NAME
 SRVC.     Turan Drilling & Engineering:  CONTRACTOR
 MWDS.                    Baku:  MWD SHOP
 WELL.                    D09z:  WELL NAME
 JOBN.        AZ-XX-0906805385:  JOB TICKET NUMB
 RIG .              East Azeri:  RIG NAME
 DOE .                     N/A:  DOE NUMBER
 DCON.         Sperry Drilling:  DIRECTNL CONTR
 UNIT.                     N/A:  LOGGING EQUIPMENT ID
 PDAT.          Mean Sea Level:  PERMANENT DATUM
 MDS .        Operator Entered:  MAG DATA SOURCE
 CNTY.                        :  COUNTY
 LOC .                        :  LOCATION
 LMF .             Drill Floor:  LOG MEASURED FROM
 TVDS.m                  43.60:  TVDSS CORRECTN
 LATI.deg                40.02:  LATITUDE
 LONG.deg                51.45:  LONGITUDE
 WHNS.m                 -17.04:  WELL HEAD N/S
 WHEW.m                  -6.28:  WELL HEAD E/W
 UTMX.m              538763.98:  UTM X
 UTMY.m             4431880.20:  UTM Y
 DFWL.m                   0.00:  DISTANCE FWL
 DFSL.m                   0.00:  DISTANCE FSL
 SDEP.m                2680.01:  START DEPTH
 TDD .m                4000.01:  TOTAL DEPTH (DRILLER)
 VSDR.deg               225.71:  VERT SEC DIRECT
 GVFD.g                   1.00:  GRAVITY FIELD
 MFLD.nT              50353.00:  MAGNETIC FIELD
 MDIP.deg                59.49:  MAGNETIC DIP
 MDEC.deg                 6.46:  MAGNETIC DECL
 GRDC.deg                 0.29:  GRID CORRECTION
 AZTC.deg                 6.17:  AZM TOTAL CORR
 EPD .m                   0.00:  ELEVATION
 EGL .m                   0.00:  GROUND ELEVATION
 WDMS.m                 151.80:  WD ELEV
 APD .m                  43.60:  DEPTH ABOVE PD
 AGAP.m                  43.60:  AIR GAP
 VSEW.m                  -6.28:  VERT SEC E/W
 VSNS.m                 -17.04:  VERT SEC N/S
 DEP .m                2656.31:  DEPTH
 EKB .m                  43.60:  KB ELEVATION
 EDF .m                  43.60:  DF ELEVATION
 VSC .                       0:  VS TO CLOSURE
 MAGU.                 1851247:  MAGUTM CHECKSUM
~Parameter Information Block
#MNEM.UNIT       Value        Description
#---------     -----------    ---------------------------
 AV  .mps                 3.00:  Ann Velocity 
 AVMX.mps                 8.00:  Max Ann Veloc 
 AZIF.deg                 0.00:  Azm, Final 
 BHAT.                   Other:  BHA Type 
 BREV.rev                 0.00:  Rev Bit Total 
 BROT.°/30m               0.00:  Build Rotating 
 BS  .in                 10.25:  Bit Size 
 BTPL.psig              511.00:  Bit Press Loss 
 CABU.                      No:  Customer Abuse 
 CGEO.           Asif Pashayev:  Customer Geo 
 COMM.                     4'd:  Run Comments 1 
 TCS .hr                 24.03:  Time Ciculation Ended 
 CV  .mps                 3.50:  Crit Velocity 
 CVMX.mps                 4.00:  Max Crit Veloc 
 DD1 .             Aziz Aliyev:  Direct Drillr 1 
 DD2 .      Fakhraddin Guliyev:  Direct Drillr 2 
 DDSV.                   Other:  DD Service 
 DEFF.%                  99.00:  % Det Eff 
 DLRX.°/30m               0.00:  Dogleg Rot Max 
 DLSO.°/30m               0.00:  Dogleg Oriented 
 DLSX.°/30m               0.00:  Dogleg Str Max 
 DRET.      23.00.40 28-Mar-21:  Drill End Time 
 DRST.      23.30.40 25-Mar-21:  Drill Start Tim 
 DTIM.hr                  0.00:  Time Drilling 
 EDEP.m                3886.01:  End Depth 
 ENG1.         Almaz Almadatov:  Engineer 1 
 ENG2.      Artemiy Matviyanov:  Engineer 2 
 ENG3.           Samir Gafarov:  Engineer 3 
 ETIM.      23.00.40 28-Mar-21:  End Time 
 FLOI.gpm               550.00:  Flow In 
 FLON.gpm               500.00:  Flow In Min 
 FLOS.cptm                0.00:  Fluid Loss 
 FLOX.gpm               590.00:  Flow In Max 
 HFLO.                      No:  High Flow 
 HPRE.                      No:  High Pressure 
 HTEM.                      No:  High Temp 
 HYDO.m                   1.80:  Hydro Offset 
 IFIN.deg                 0.00:  Inc, Final 
 IMAX.deg                 0.00:  Inc Max 
 IMIN.deg                 0.00:  Inc Min 
 IMND.m                   0.00:  Inc Min Depth 
 IMXD.m                   0.00:  Inc Max Depth 
 JARR.                      No:  Jarring 
 LETM.      03.22.40 28-Mar-21:  Log End Time 
 LOST.hr                     0:  Lost Rig Time 
 LSTM.      23.30.40 25-Mar-21:  Log Start Time 
 MDCL.ppm             34000.00:  Mud Chlorides 
 MDES.     Inversion Oil/Synthetic:  Mud Desc 
 DFD .sg                  1.51:  Mud Density 
 MDMN.sg                  1.51:  Dens Mud Min 
 MDMX.sg                  1.51:  Dens Mud Max 
 MOIL.                      70:  Run Mud Oil % 
 MOWR.                   70:30:  Run Mud OWR 
 MSND.                     0.2:  Run Mud Sand % 
 MSOL.                   21.60:  Run Mud Solids% 
 DFV .spqt               74.00:  Mud Viscosity 
 MWOD.in                  6.75:  MWD Tool OD 
 MWSI.                      No:  Serv Intrp, MWD 
 OTIM.hr                 69.09:  Time Operating 
 PCON.           Look Like New:  Pad Condition 
 PMAX.psia             3500.00:  Press Op, Max 
 PV  .cP                 70.00:  Mud PV 
 RUN .                     400:  Run Number 
 ROPA.m/hr                0.00:  ROP Avg 
 ROPN.m/hr                0.00:  ROP Min 
 ROPX.m/hr                0.00:  ROP Max 
 RPMA.rpm                80.00:  RPM Surface Avg 
 RPMN.rpm                10.00:  RPM Surface Min 
 RPMX.rpm               100.00:  RPM Surface Max 
 RRUN.                    0400:  Rig Run Number 
 RTIM.hr                  3.00:  Time Reaming 
 SAZI.deg                 0.00:  Azm, Start 
 SDEP.m                3886.01:  Start Depth 
 SIDD.                      No:  Serv Intrp, DD 
 SINC.deg                 0.00:  Inc, Start 
 SPPA.psig             3270.00:  SPP Avg 
 SPPN.psig             3220.00:  SPP Min 
 SPPX.psig             4430.00:  SPP Max 
 STIM.      23.30.40 25-Mar-21:  Start Time 
 SVCS.                 DD, MWD:  Services 
 SVER.                    9.20:  Sperry Version 
 TDAT.m                   0.00:  Tot Depth Attmp 
 TDDF.                      No:  Trip for DD 
 TFF .                      No:  Trip for Fail 
 TQAA.f-kp                8.00:  Torque Abs Avg 
 TQAN.f-kp                7.00:  Torque Abs Min 
 TQAX.f-kp               11.00:  Torque Abs Max 
 TRRT.°/30m               0.00:  Turn Rotating 
 MRT .                  EWR-M5:  Maximum Recorded Temperature 
 TTMX.degC               76.47:  Max Tool Temp 
 VS01.                90640857:  Virtual Str1 SN 
 VS02.                90639246:  Virtual Str2 SN 
 VS03.                90642265:  Virtual Str3 SN 
 VS04.                11654497:  Virtual Str4 SN 
 WBMN.klb                 0.00:  WOB Min 
 WITN.      Kamran Keberlinkiy:  Customer Rep 
 WITN.           Murad Guliyev:  Customer Rep 2 
 WOBA.klb                 0.00:  WOB Avg 
 WOBX.klb                 0.00:  WOB Max 
 YP  .lhf2               36.00:  Yield Point 
~Curve Information Block
#MNEM.UNIT                 API CODE     Curve Description
#---------               -----------    ---------------------------
 TIME.HHMMSS            00 000 000 000:  GT Time & Date
 GTDEPTH.m              00 000 000 000:  GT Depth
 GTPQH.psia             00 000 000 000:  GT HR Quartz Pressure
 GTTQ.degC              00 000 000 000:  GT Quartz Temperature
 GTTN.NONE              00 000 000 000:  GT Test Number
 GTET.sec               00 000 000 000:  GT Elapsed Test Time
 GTTVD.m                00 000 000 000:  GT True Vertical Depth
#Other Information
#
#WARRANTY: Halliburton will use its best efforts to furnish customers with 
#accurate information and interpretations that are part of, and incident to, the services 
#provided.  However, Halliburton cannot and does not warrant the accuracy 
#or correctness of such information and interpretations.  Under no circumstances should any 
#such information or interpretation be relied upon as the sole basis for any drilling, 
#completion, production, or financial decision or any procedure involving any risk to the 
#safety of any drilling venture, drilling rig or its crew or any other third party.  The 
#Customer has full responsibility for all drilling, completion and production operation.  
#Halliburton makes no representations or warranties, either expressed or 
#implied, including, but not limited to, the implied warranties of merchantability or fitness 
#for a particular purpose, with respect to the services rendered.  In no event will 
#Halliburton be liable for failure to obtain any particular results or for 
#any damages, including, but not limited to, indirect, special or consequential damages, 
#resulting from the use of any information or interpretation provided by Halliburton.
#
~A           TIME           GTDEPTH  GTPQH  GTTQ  GTTN   GTET   GTTVD  
# ...
   12:23:39.194.27-Mar-2021 3369.01 7275.56 61.78 12.00 384.47 3116.52
   12:23:39.394.27-Mar-2021 3369.01 7275.88 61.78 12.00 384.67 3116.52
   12:23:39.595.27-Mar-2021 3369.01 7275.98 61.78 12.00 384.87 3116.52
   12:23:39.795.27-Mar-2021 3369.01 7275.88 61.78 12.00 385.07 3116.52
   12:23:39.995.27-Mar-2021 3369.01 7275.60 61.79 12.00 385.27 3116.52
   12:23:40.195.27-Mar-2021 3369.01 7275.60 61.79 12.00 385.47 3116.52
   12:23:40.395.27-Mar-2021 3369.01 7277.37 61.79 12.00 385.67 3116.52
   12:23:40.595.27-Mar-2021 3369.01 7276.27 61.79 12.00 385.87 3116.52
   12:23:40.795.27-Mar-2021 3369.01 7276.56 61.79 12.00 386.07 3116.52
   12:23:40.996.27-Mar-2021 3369.01 7275.73 61.79 12.00 386.27 3116.52
   12:23:41.196.27-Mar-2021 3369.01 7275.73 61.79 12.00 386.47 3116.52
   12:23:41.396.27-Mar-2021 3369.01 7275.85 61.79 12.00 386.67 3116.52
   12:23:41.596.27-Mar-2021 3369.01 7275.18 61.79 12.00 386.87 3116.52
   12:23:41.796.27-Mar-2021 3369.01 7279.31 61.79 12.00 387.07 3116.52
   12:23:41.996.27-Mar-2021 3369.01 7275.74 61.79 12.00 387.27 3116.52
   12:23:42.196.27-Mar-2021 3369.01 7275.74 61.79 12.00 387.47 3116.52
   12:23:42.397.27-Mar-2021 3369.01 7276.27 61.79 12.00 387.67 3116.52
   12:23:42.597.27-Mar-2021 3369.01 7276.37 61.79 12.00 387.87 3116.52
   12:23:42.797.27-Mar-2021 3369.01 7276.54 61.79 12.00 388.07 3116.52
   12:23:42.997.27-Mar-2021 3369.01 7275.89 61.79 12.00 388.27 3116.52
   12:23:43.197.27-Mar-2021 3369.01 7275.89 61.79 12.00 388.47 3116.52
   12:23:43.397.27-Mar-2021 3369.01 7276.78 61.79 12.00 388.67 3116.52
   12:23:43.597.27-Mar-2021 3369.01 7277.03 61.79 12.00 388.87 3116.52
   12:23:43.798.27-Mar-2021 3369.01 7276.69 61.79 12.00 389.08 3116.52
   12:23:43.998.27-Mar-2021 3369.01 7276.54 61.79 12.00 389.28 3116.52
   12:23:44.198.27-Mar-2021 3369.01 7276.54 61.79 12.00 389.48 3116.52
   12:23:44.398.27-Mar-2021 3369.01 7276.19 61.79 12.00 389.68 3116.52
   12:23:44.598.27-Mar-2021 3369.01 7280.14 61.79 12.00 389.88 3116.52
   12:23:44.798.27-Mar-2021 3369.01 7275.55 61.79 12.00 390.08 3116.52
   12:23:44.998.27-Mar-2021 3369.01 7276.67 61.79 12.00 390.28 3116.52
   12:23:45.199.27-Mar-2021 3369.01 7276.67 61.79 12.00 390.48 3116.52
   12:23:45.399.27-Mar-2021 3369.01 7276.43 61.79 12.00 390.68 3116.52
   12:23:45.599.27-Mar-2021 3369.01 7276.57 61.79 12.00 390.88 3116.52
   12:23:45.799.27-Mar-2021 3369.01 7276.47 61.79 12.00 391.08 3116.52
   12:23:45.999.27-Mar-2021 3369.01 7275.99 61.79 12.00 391.28 3116.52
   12:23:46.199.27-Mar-2021 3369.01 7275.99 61.79 12.00 391.48 3116.52
   12:23:46.399.27-Mar-2021 3369.01 7276.37 61.79 12.00 391.68 3116.52
   12:23:46.600.27-Mar-2021 3369.01 7276.33 61.79 12.00 391.88 3116.52
   12:23:46.800.27-Mar-2021 3369.01 7276.17 61.79 12.00 392.08 3116.52
   12:23:47.000.27-Mar-2021 3369.01 7276.11 61.79 12.00 392.28 3116.52
   12:23:47.200.27-Mar-2021 3369.01 7276.11 61.79 12.00 392.48 3116.52
   12:23:47.400.27-Mar-2021 3369.01 7275.75 61.79 12.00 392.68 3116.52
   12:23:47.600.27-Mar-2021 3369.01 7275.78 61.79 12.00 392.88 3116.52
   12:23:47.800.27-Mar-2021 3369.01 7275.92 61.79 12.00 393.08 3116.52
   12:23:48.001.27-Mar-2021 3369.01 7279.53 61.79 12.00 393.28 3116.52
   12:23:48.201.27-Mar-2021 3369.01 7279.53 61.79 12.00 393.48 3116.52
   12:23:48.401.27-Mar-2021 3369.01 7276.61 61.79 12.00 393.68 3116.52
   12:23:48.601.27-Mar-2021 3369.01 7276.19 61.79 12.00 393.88 3116.52
   12:23:48.801.27-Mar-2021 3369.01 7275.81 61.79 12.00 394.08 3116.52
   12:23:49.001.27-Mar-2021 3369.01 7276.25 61.78 12.00 394.28 3116.52
   12:23:49.201.27-Mar-2021 3369.01 7276.25 61.78 12.00 394.48 3116.52
   12:23:49.402.27-Mar-2021 3369.01 7275.68 61.78 12.00 394.68 3116.52
   12:23:49.602.27-Mar-2021 3369.01 7276.15 61.78 12.00 394.88 3116.52
   12:23:49.802.27-Mar-2021 3369.01 7275.77 61.78 12.00 395.08 3116.52
   12:23:50.002.27-Mar-2021 3369.01 7275.80 61.78 12.00 395.28 3116.52
   12:23:50.202.27-Mar-2021 3369.01 7275.80 61.78 12.00 395.48 3116.52
   12:23:50.402.27-Mar-2021 3369.01 7275.48 61.78 12.00 395.68 3116.52
   12:23:50.602.27-Mar-2021 3369.01 7279.99 61.78 12.00 395.88 3116.52
   12:23:50.803.27-Mar-2021 3369.01 7274.96 61.78 12.00 396.08 3116.52
   12:23:51.003.27-Mar-2021 3369.01 7275.98 61.78 12.00 396.28 3116.52
   12:23:51.203.27-Mar-2021 3369.01 7275.98 61.78 12.00 396.48 3116.52
   12:23:51.403.27-Mar-2021 3369.01 7276.05 61.78 12.00 396.68 3116.52
   12:23:51.603.27-Mar-2021 3369.01 7275.79 61.78 12.00 396.88 3116.52
   12:23:51.803.27-Mar-2021 3369.01 7278.99 61.78 12.00 397.08 3116.52
   12:23:52.003.27-Mar-2021 3369.01 7275.12 61.78 12.00 397.28 3116.52
   12:23:52.204.27-Mar-2021 3369.01 7275.12 61.78 12.00 397.48 3116.52
   12:23:52.404.27-Mar-2021 3369.01 7276.02 61.78 12.00 397.68 3116.52
   12:23:52.604.27-Mar-2021 3369.01 7275.94 61.78 12.00 397.88 3116.52
   12:23:52.804.27-Mar-2021 3369.01 7276.29 61.78 12.00 398.08 3116.52
   12:23:53.004.27-Mar-2021 3369.01 7280.05 61.78 12.00 398.28 3116.52
   12:23:53.204.27-Mar-2021 3369.01 7280.05 61.78 12.00 398.48 3116.52
   12:23:53.404.27-Mar-2021 3369.01 7277.02 61.78 12.00 398.68 3116.52
   12:23:53.605.27-Mar-2021 3369.01 7276.67 61.78 12.00 398.88 3116.52
   12:23:53.805.27-Mar-2021 3369.01 7276.51 61.78 12.00 399.08 3116.52
   12:23:54.005.27-Mar-2021 3369.01 7276.64 61.78 12.00 399.28 3116.52
   12:23:54.205.27-Mar-2021 3369.01 7276.64 61.78 12.00 399.48 3116.52
   12:23:54.405.27-Mar-2021 3369.01 7275.88 61.78 12.00 399.68 3116.52
   12:23:54.605.27-Mar-2021 3369.01 7279.95 61.78 12.00 399.88 3116.52
   12:23:54.805.27-Mar-2021 3369.01 7276.07 61.78 12.00 400.08 3116.52
   12:23:55.006.27-Mar-2021 3369.01 7276.72 61.78 12.00 400.28 3116.52
   12:23:55.206.27-Mar-2021 3369.01 7276.72 61.78 12.00 400.48 3116.52
   12:23:55.406.27-Mar-2021 3369.01 7276.05 61.78 12.00 400.68 3116.52
   12:23:55.606.27-Mar-2021 3369.01 7276.52 61.78 12.00 400.88 3116.52
   12:23:55.806.27-Mar-2021 3369.01 7275.64 61.78 12.00 401.08 3116.52
   12:23:56.006.27-Mar-2021 3369.01 7275.54 61.78 12.00 401.28 3116.52
   12:23:56.206.27-Mar-2021 3369.01 7275.54 61.78 12.00 401.48 3116.52
   12:23:56.407.27-Mar-2021 3369.01 7275.96 61.77 12.00 401.68 3116.52
   12:23:56.607.27-Mar-2021 3369.01 7276.19 61.77 12.00 401.88 3116.52
   12:23:56.807.27-Mar-2021 3369.01 7276.20 61.77 12.00 402.08 3116.52
   12:23:57.007.27-Mar-2021 3369.01 7275.95 61.77 12.00 402.28 3116.52
   12:23:57.207.27-Mar-2021 3369.01 7275.95 61.77 12.00 402.48 3116.52
   12:23:57.407.27-Mar-2021 3369.01 7275.62 61.77 12.00 402.68 3116.52
   12:23:57.607.27-Mar-2021 3369.01 7275.56 61.77 12.00 402.88 3116.52
   12:23:57.807.27-Mar-2021 3369.01 7279.85 61.77 12.00 403.08 3116.52
   12:23:58.008.27-Mar-2021 3369.01 7274.83 61.77 12.00 403.29 3116.52
   12:23:58.208.27-Mar-2021 3369.01 7274.83 61.77 12.00 403.49 3116.52
   12:23:58.408.27-Mar-2021 3369.01 7276.12 61.77 12.00 403.69 3116.52
   12:23:58.608.27-Mar-2021 3369.01 7275.86 61.77 12.00 403.89 3116.52
   12:23:58.808.27-Mar-2021 3369.01 7275.71 61.77 12.00 404.09 3116.52
   12:23:59.008.27-Mar-2021 3369.01 7275.60 61.77 12.00 404.29 3116.52
   12:23:59.208.27-Mar-2021 3369.01 7275.60 61.77 12.00 404.49 3116.52
   12:23:59.409.27-Mar-2021 3369.01 7276.07 61.77 12.00 404.69 3116.52
   12:23:59.609.27-Mar-2021 3369.01 7275.45 61.77 12.00 404.89 3116.52
   12:23:59.809.27-Mar-2021 3369.01 7275.55 61.77 12.00 405.09 3116.52
   12:24:00.009.27-Mar-2021 3369.01 7275.52 61.77 12.00 405.29 3116.52
   12:24:00.209.27-Mar-2021 3369.01 7275.52 61.77 12.00 405.49 3116.52
   12:24:00.409.27-Mar-2021 3369.01 7275.48 61.77 12.00 405.69 3116.52
   12:24:00.609.27-Mar-2021 3369.01 7279.00 61.77 12.00 405.89 3116.52
   12:24:00.810.27-Mar-2021 3369.01 7275.78 61.77 12.00 406.09 3116.52
   12:24:01.010.27-Mar-2021 3369.01 7276.07 61.77 12.00 406.29 3116.52
   12:24:01.210.27-Mar-2021 3369.01 7276.07 61.77 12.00 406.49 3116.52
   12:24:01.410.27-Mar-2021 3369.01 7275.63 61.77 12.00 406.69 3116.52
   12:24:01.610.27-Mar-2021 3369.01 7277.83 61.77 12.00 406.89 3116.52
