~Version Information
 VERS.                  2.0:   CWLS log ASCII Standard -VERSION 2.0
 WRAP.                   NO:   One line per depth step
~Well Information Block
#MNEM.UNIT     VALUE/NAME     DESCRIPTION
#---------     -----------    ---------------------------
 STRT.S             12:58:23 27-Mar-21: START TIME 12:58:23 27-Mar-21
 STOP.S             13:05:33 27-Mar-21: STOP TIME  13:05:33 27-Mar-21
 STEP.S                   0.00: STEP TIME
 NULL.                 -999.25: NULL VALUE
 DFWT.                        :  DIST FWL TEXT
 DFST.                        :  DIST FSL TEXT
 DMF .             Drill Floor:  DRILL MEAS FROM
 STIM.      20.26.40 11-Mar-21:  START TIME
 DATE.      20.26.40 30-Mar-21:  END TIME
 SPUD.               11-Mar-21:  SPUD DATE
 NREF.                    Grid:  NORTH REFERENCE
 HPTY.       Minimum Curvature:  HOLE POS TYPE
 DMOD.             Drill Model:  DRILL MOD DESC
 SVYD.                  Survey:  SURVEY DESC
 ILTD.               Lithology:  INTERP LTH DESC
 FTOP.          Formation Tops:  FORM TOPS DESC
 SON .        AZ-XX-0906805385:  JOB NUMBER
 WTYP.                Deviated:  WELL TYPE
 COMP.     BP Exploration (Caspian Sea) Ltd.:  COMPANY
 UWI .            /AZE00000198:  UNIQUE WELL IDENTIFIER
 API .            /AZE00000198:  API NUMBER
 BASE.              Azerbaijan:  LOGGING EQUIPMENT BASE LOCATION
 REGN.                   EESSA:  REGION
 PROV.                    Baku:  PROVINCE
 STAT.                    Baku:  STATE NAME
 CTRY.              Azerbaijan:  COUNTRY NAME
 FLD .                     ACG:  FIELD NAME
 SRVC.     Turan Drilling & Engineering:  CONTRACTOR
 MWDS.                    Baku:  MWD SHOP
 WELL.                    D09z:  WELL NAME
 JOBN.        AZ-XX-0906805385:  JOB TICKET NUMB
 RIG .              East Azeri:  RIG NAME
 DOE .                     N/A:  DOE NUMBER
 DCON.         Sperry Drilling:  DIRECTNL CONTR
 UNIT.                     N/A:  LOGGING EQUIPMENT ID
 PDAT.          Mean Sea Level:  PERMANENT DATUM
 MDS .        Operator Entered:  MAG DATA SOURCE
 CNTY.                        :  COUNTY
 LOC .                        :  LOCATION
 LMF .             Drill Floor:  LOG MEASURED FROM
 TVDS.m                  43.60:  TVDSS CORRECTN
 LATI.deg                40.02:  LATITUDE
 LONG.deg                51.45:  LONGITUDE
 WHNS.m                 -17.04:  WELL HEAD N/S
 WHEW.m                  -6.28:  WELL HEAD E/W
 UTMX.m              538763.98:  UTM X
 UTMY.m             4431880.20:  UTM Y
 DFWL.m                   0.00:  DISTANCE FWL
 DFSL.m                   0.00:  DISTANCE FSL
 SDEP.m                2680.01:  START DEPTH
 TDD .m                4000.01:  TOTAL DEPTH (DRILLER)
 VSDR.deg               225.71:  VERT SEC DIRECT
 GVFD.g                   1.00:  GRAVITY FIELD
 MFLD.nT              50353.00:  MAGNETIC FIELD
 MDIP.deg                59.49:  MAGNETIC DIP
 MDEC.deg                 6.46:  MAGNETIC DECL
 GRDC.deg                 0.29:  GRID CORRECTION
 AZTC.deg                 6.17:  AZM TOTAL CORR
 EPD .m                   0.00:  ELEVATION
 EGL .m                   0.00:  GROUND ELEVATION
 WDMS.m                 151.80:  WD ELEV
 APD .m                  43.60:  DEPTH ABOVE PD
 AGAP.m                  43.60:  AIR GAP
 VSEW.m                  -6.28:  VERT SEC E/W
 VSNS.m                 -17.04:  VERT SEC N/S
 DEP .m                2656.31:  DEPTH
 EKB .m                  43.60:  KB ELEVATION
 EDF .m                  43.60:  DF ELEVATION
 VSC .                       0:  VS TO CLOSURE
 MAGU.                 1851247:  MAGUTM CHECKSUM
~Parameter Information Block
#MNEM.UNIT       Value        Description
#---------     -----------    ---------------------------
 AV  .mps                 3.00:  Ann Velocity 
 AVMX.mps                 8.00:  Max Ann Veloc 
 AZIF.deg                 0.00:  Azm, Final 
 BHAT.                   Other:  BHA Type 
 BREV.rev                 0.00:  Rev Bit Total 
 BROT.°/30m               0.00:  Build Rotating 
 BS  .in                 10.25:  Bit Size 
 BTPL.psig              511.00:  Bit Press Loss 
 CABU.                      No:  Customer Abuse 
 CGEO.           Asif Pashayev:  Customer Geo 
 COMM.                     „¼n:  Run Comments 1 
 TCS .hr                 24.03:  Time Ciculation Ended 
 CV  .mps                 3.50:  Crit Velocity 
 CVMX.mps                 4.00:  Max Crit Veloc 
 DD1 .             Aziz Aliyev:  Direct Drillr 1 
 DD2 .      Fakhraddin Guliyev:  Direct Drillr 2 
 DDSV.                   Other:  DD Service 
 DEFF.%                  99.00:  % Det Eff 
 DLRX.°/30m               0.00:  Dogleg Rot Max 
 DLSO.°/30m               0.00:  Dogleg Oriented 
 DLSX.°/30m               0.00:  Dogleg Str Max 
 DRET.      23.00.40 28-Mar-21:  Drill End Time 
 DRST.      23.30.40 25-Mar-21:  Drill Start Tim 
 DTIM.hr                  0.00:  Time Drilling 
 EDEP.m                3886.01:  End Depth 
 ENG1.         Almaz Almadatov:  Engineer 1 
 ENG2.      Artemiy Matviyanov:  Engineer 2 
 ENG3.           Samir Gafarov:  Engineer 3 
 ETIM.      23.00.40 28-Mar-21:  End Time 
 FLOI.gpm               550.00:  Flow In 
 FLON.gpm               500.00:  Flow In Min 
 FLOS.cptm                0.00:  Fluid Loss 
 FLOX.gpm               590.00:  Flow In Max 
 HFLO.                      No:  High Flow 
 HPRE.                      No:  High Pressure 
 HTEM.                      No:  High Temp 
 HYDO.m                   1.80:  Hydro Offset 
 IFIN.deg                 0.00:  Inc, Final 
 IMAX.deg                 0.00:  Inc Max 
 IMIN.deg                 0.00:  Inc Min 
 IMND.m                   0.00:  Inc Min Depth 
 IMXD.m                   0.00:  Inc Max Depth 
 JARR.                      No:  Jarring 
 LETM.      03.22.40 28-Mar-21:  Log End Time 
 LOST.hr                     0:  Lost Rig Time 
 LSTM.      23.30.40 25-Mar-21:  Log Start Time 
 MDCL.ppm             34000.00:  Mud Chlorides 
 MDES.     Inversion Oil/Synthetic:  Mud Desc 
 DFD .sg                  1.51:  Mud Density 
 MDMN.sg                  1.51:  Dens Mud Min 
 MDMX.sg                  1.51:  Dens Mud Max 
 MOIL.                      70:  Run Mud Oil % 
 MOWR.                   70:30:  Run Mud OWR 
 MSND.                     0.2:  Run Mud Sand % 
 MSOL.                   21.60:  Run Mud Solids% 
 DFV .spqt               74.00:  Mud Viscosity 
 MWOD.in                  6.75:  MWD Tool OD 
 MWSI.                      No:  Serv Intrp, MWD 
 OTIM.hr                 69.09:  Time Operating 
 PCON.           Look Like New:  Pad Condition 
 PMAX.psia             3500.00:  Press Op, Max 
 PV  .cP                 70.00:  Mud PV 
 RUN .                     400:  Run Number 
 ROPA.m/hr                0.00:  ROP Avg 
 ROPN.m/hr                0.00:  ROP Min 
 ROPX.m/hr                0.00:  ROP Max 
 RPMA.rpm                80.00:  RPM Surface Avg 
 RPMN.rpm                10.00:  RPM Surface Min 
 RPMX.rpm               100.00:  RPM Surface Max 
 RRUN.                    0400:  Rig Run Number 
 RTIM.hr                  3.00:  Time Reaming 
 SAZI.deg                 0.00:  Azm, Start 
 SDEP.m                3886.01:  Start Depth 
 SIDD.                      No:  Serv Intrp, DD 
 SINC.deg                 0.00:  Inc, Start 
 SPPA.psig             3270.00:  SPP Avg 
 SPPN.psig             3220.00:  SPP Min 
 SPPX.psig             4430.00:  SPP Max 
 STIM.      23.30.40 25-Mar-21:  Start Time 
 SVCS.                 DD, MWD:  Services 
 SVER.                    9.20:  Sperry Version 
 TDAT.m                   0.00:  Tot Depth Attmp 
 TDDF.                      No:  Trip for DD 
 TFF .                      No:  Trip for Fail 
 TQAA.f-kp                8.00:  Torque Abs Avg 
 TQAN.f-kp                7.00:  Torque Abs Min 
 TQAX.f-kp               11.00:  Torque Abs Max 
 TRRT.°/30m               0.00:  Turn Rotating 
 MRT .                  EWR-M5:  Maximum Recorded Temperature 
 TTMX.degC               76.47:  Max Tool Temp 
 VS01.                90640857:  Virtual Str1 SN 
 VS02.                90639246:  Virtual Str2 SN 
 VS03.                90642265:  Virtual Str3 SN 
 VS04.                11654497:  Virtual Str4 SN 
 WBMN.klb                 0.00:  WOB Min 
 WITN.      Kamran Keberlinkiy:  Customer Rep 
 WITN.           Murad Guliyev:  Customer Rep 2 
 WOBA.klb                 0.00:  WOB Avg 
 WOBX.klb                 0.00:  WOB Max 
 YP  .lhf2               36.00:  Yield Point 
~Curve Information Block
#MNEM.UNIT                 API CODE     Curve Description
#---------               -----------    ---------------------------
 TIME.HHMMSS            00 000 000 000:  GT Time & Date
 GTDEPTH.m              00 000 000 000:  GT Depth
 GTPQH.psia             00 000 000 000:  GT HR Quartz Pressure
 GTTQ.degC              00 000 000 000:  GT Quartz Temperature
 GTTN.NONE              00 000 000 000:  GT Test Number
 GTET.sec               00 000 000 000:  GT Elapsed Test Time
 GTTVD.m                00 000 000 000:  GT True Vertical Depth
#Other Information
#
#WARRANTY: Halliburton will use its best efforts to furnish customers with 
#accurate information and interpretations that are part of, and incident to, the services 
#provided.  However, Halliburton cannot and does not warrant the accuracy 
#or correctness of such information and interpretations.  Under no circumstances should any 
#such information or interpretation be relied upon as the sole basis for any drilling, 
#completion, production, or financial decision or any procedure involving any risk to the 
#safety of any drilling venture, drilling rig or its crew or any other third party.  The 
#Customer has full responsibility for all drilling, completion and production operation.  
#Halliburton makes no representations or warranties, either expressed or 
#implied, including, but not limited to, the implied warranties of merchantability or fitness 
#for a particular purpose, with respect to the services rendered.  In no event will 
#Halliburton be liable for failure to obtain any particular results or for 
#any damages, including, but not limited to, indirect, special or consequential damages, 
#resulting from the use of any information or interpretation provided by Halliburton.
#
~A           TIME           GTDEPTH  GTPQH  GTTQ  GTTN   GTET   GTTVD  
# ...
   12:58:45.600.27-Mar-2021 3393.01 7316.04 61.83 13.00  22.60 3139.00
   12:58:45.800.27-Mar-2021 3393.01 7319.29 61.83 13.00  22.80 3139.00
   12:58:46.000.27-Mar-2021 3393.01 7316.35 61.83 13.00  23.00 3139.00
   12:58:46.200.27-Mar-2021 3393.01 7316.35 61.83 13.00  23.20 3139.00
   12:58:46.400.27-Mar-2021 3393.01 7316.95 61.83 13.00  23.40 3139.00
   12:58:46.600.27-Mar-2021 3393.01 7316.48 61.83 13.00  23.60 3139.00
   12:58:46.800.27-Mar-2021 3393.01 7316.43 61.83 13.00  23.80 3139.00
   12:58:47.000.27-Mar-2021 3393.01 7316.55 61.83 13.00  24.00 3139.00
   12:58:47.200.27-Mar-2021 3393.01 7316.55 61.83 13.00  24.20 3139.00
   12:58:47.400.27-Mar-2021 3393.01 7317.43 61.83 13.00  24.40 3139.00
   12:58:47.600.27-Mar-2021 3393.01 7317.62 61.83 13.00  24.60 3139.00
   12:58:47.800.27-Mar-2021 3393.01 7316.80 61.83 13.00  24.80 3139.00
   12:58:48.000.27-Mar-2021 3393.01 7316.81 61.83 13.00  25.00 3139.00
   12:58:48.200.27-Mar-2021 3393.01 7316.81 61.83 13.00  25.20 3139.00
   12:58:48.400.27-Mar-2021 3393.01 7316.63 61.83 13.00  25.40 3139.00
   12:58:48.600.27-Mar-2021 3393.01 7316.38 61.83 13.00  25.60 3139.00
   12:58:48.800.27-Mar-2021 3393.01 7317.27 61.83 13.00  25.80 3139.00
   12:58:49.000.27-Mar-2021 3393.01 7317.12 61.83 13.00  26.00 3139.00
   12:58:49.200.27-Mar-2021 3393.01 7317.12 61.83 13.00  26.20 3139.00
   12:58:49.400.27-Mar-2021 3393.01 7317.38 61.83 13.00  26.40 3139.00
   12:58:49.600.27-Mar-2021 3393.01 7317.53 61.83 13.00  26.60 3139.00
   12:58:49.800.27-Mar-2021 3393.01 7317.46 61.83 13.00  26.80 3139.00
   12:58:50.000.27-Mar-2021 3393.01 7317.04 61.83 13.00  27.00 3139.00
   12:58:50.200.27-Mar-2021 3393.01 7317.04 61.83 13.00  27.20 3139.00
   12:58:50.400.27-Mar-2021 3393.01 7321.65 61.83 13.00  27.40 3139.00
   12:58:50.600.27-Mar-2021 3393.01 7316.07 61.83 13.00  27.60 3139.00
   12:58:50.800.27-Mar-2021 3393.01 7317.53 61.83 13.00  27.80 3139.00
   12:58:51.000.27-Mar-2021 3393.01 7317.73 61.83 13.00  28.00 3139.00
   12:58:51.200.27-Mar-2021 3393.01 7317.73 61.83 13.00  28.20 3139.00
   12:58:51.400.27-Mar-2021 3393.01 7317.06 61.83 13.00  28.40 3139.00
   12:58:51.600.27-Mar-2021 3393.01 7317.19 61.83 13.00  28.60 3139.00
   12:58:51.800.27-Mar-2021 3393.01 7317.19 61.83 13.00  28.80 3139.00
   12:58:52.000.27-Mar-2021 3393.01 7317.93 61.83 13.00  29.00 3139.00
   12:58:52.200.27-Mar-2021 3393.01 7317.93 61.83 13.00  29.20 3139.00
   12:58:52.400.27-Mar-2021 3393.01 7317.49 61.83 13.00  29.40 3139.00
   12:58:52.600.27-Mar-2021 3393.01 7317.63 61.83 13.00  29.60 3139.00
   12:58:52.800.27-Mar-2021 3393.01 7317.33 61.83 13.00  29.80 3139.00
   12:58:53.000.27-Mar-2021 3393.01 7317.52 61.83 13.00  30.00 3139.00
   12:58:53.200.27-Mar-2021 3393.01 7317.52 61.83 13.00  30.20 3139.00
   12:58:53.400.27-Mar-2021 3393.01 7318.22 61.83 13.00  30.40 3139.00
   12:58:53.600.27-Mar-2021 3393.01 7318.61 61.82 13.00  30.60 3139.00
   12:58:53.800.27-Mar-2021 3393.01 7317.66 61.82 13.00  30.80 3139.00
   12:58:54.000.27-Mar-2021 3393.01 7317.58 61.82 13.00  31.00 3139.00
   12:58:54.200.27-Mar-2021 3393.01 7317.58 61.82 13.00  31.20 3139.00
   12:58:54.400.27-Mar-2021 3393.01 7320.73 61.82 13.00  31.40 3139.00
   12:58:54.600.27-Mar-2021 3393.01 7317.29 61.82 13.00  31.60 3139.00
   12:58:54.800.27-Mar-2021 3393.01 7318.93 61.82 13.00  31.80 3139.00
   12:58:55.000.27-Mar-2021 3393.01 7318.29 61.82 13.00  32.00 3139.00
   12:58:55.200.27-Mar-2021 3393.01 7318.29 61.82 13.00  32.20 3139.00
   12:58:55.400.27-Mar-2021 3393.01 7321.77 61.82 13.00  32.40 3139.00
   12:58:55.600.27-Mar-2021 3393.01 7318.45 61.82 13.00  32.60 3139.00
   12:58:55.800.27-Mar-2021 3393.01 7318.91 61.82 13.00  32.80 3139.00
   12:58:56.000.27-Mar-2021 3393.01 7319.42 61.82 13.00  33.00 3139.00
   12:58:56.200.27-Mar-2021 3393.01 7319.42 61.82 13.00  33.20 3139.00
   12:58:56.400.27-Mar-2021 3393.01 7318.92 61.82 13.00  33.40 3139.00
   12:58:56.600.27-Mar-2021 3393.01 7318.78 61.82 13.00  33.60 3139.00
   12:58:56.800.27-Mar-2021 3393.01 7321.22 61.82 13.00  33.80 3139.00
   12:58:57.000.27-Mar-2021 3393.01 7319.97 61.82 13.00  34.00 3139.00
   12:58:57.200.27-Mar-2021 3393.01 7319.97 61.82 13.00  34.20 3139.00
   12:58:57.400.27-Mar-2021 3393.01 7319.45 61.82 13.00  34.40 3139.00
   12:58:57.600.27-Mar-2021 3393.01 7318.86 61.82 13.00  34.60 3139.00
   12:58:57.800.27-Mar-2021 3393.01 7317.96 61.82 13.00  34.80 3139.00
   12:58:58.000.27-Mar-2021 3393.01 7318.16 61.82 13.00  35.00 3139.00
   12:58:58.200.27-Mar-2021 3393.01 7318.16 61.82 13.00  35.20 3139.00
   12:58:58.400.27-Mar-2021 3393.01 7319.15 61.82 13.00  35.40 3139.00
   12:58:58.600.27-Mar-2021 3393.01 7320.69 61.82 13.00  35.60 3139.00
   12:58:58.800.27-Mar-2021 3393.01 7320.46 61.82 13.00  35.80 3139.00
   12:58:59.000.27-Mar-2021 3393.01 7321.13 61.82 13.00  36.00 3139.00
   12:58:59.200.27-Mar-2021 3393.01 7321.13 61.82 13.00  36.20 3139.00
   12:58:59.400.27-Mar-2021 3393.01 7322.86 61.82 13.00  36.40 3139.00
   12:58:59.600.27-Mar-2021 3393.01 7323.11 61.82 13.00  36.60 3139.00
   12:58:59.800.27-Mar-2021 3393.01 7323.09 61.82 13.00  36.80 3139.00
   12:59:00.000.27-Mar-2021 3393.01 7323.56 61.82 13.00  37.00 3139.00
   12:59:00.200.27-Mar-2021 3393.01 7323.56 61.82 13.00  37.20 3139.00
   12:59:00.400.27-Mar-2021 3393.01 7323.56 61.82 13.00  37.40 3139.00
   12:59:00.600.27-Mar-2021 3393.01 7324.87 61.82 13.00  37.60 3139.00
   12:59:00.800.27-Mar-2021 3393.01 7325.01 61.82 13.00  37.80 3139.00
   12:59:01.000.27-Mar-2021 3393.01 7324.78 61.82 13.00  38.00 3139.00
   12:59:01.200.27-Mar-2021 3393.01 7324.78 61.82 13.00  38.20 3139.00
   12:59:01.400.27-Mar-2021 3393.01 7324.89 61.82 13.00  38.40 3139.00
   12:59:01.600.27-Mar-2021 3393.01 7324.81 61.82 13.00  38.60 3139.00
   12:59:01.800.27-Mar-2021 3393.01 7325.12 61.82 13.00  38.80 3139.00
   12:59:02.000.27-Mar-2021 3393.01 7324.91 61.82 13.00  39.00 3139.00
   12:59:02.200.27-Mar-2021 3393.01 7324.91 61.82 13.00  39.20 3139.00
   12:59:02.400.27-Mar-2021 3393.01 7324.23 61.82 13.00  39.40 3139.00
   12:59:02.600.27-Mar-2021 3393.01 7322.82 61.82 13.00  39.60 3139.00
   12:59:02.800.27-Mar-2021 3393.01 7321.45 61.82 13.00  39.80 3139.00
   12:59:03.000.27-Mar-2021 3393.01 7320.09 61.82 13.00  40.00 3139.00
   12:59:03.200.27-Mar-2021 3393.01 7320.09 61.82 13.00  40.20 3139.00
   12:59:03.400.27-Mar-2021 3393.01 7316.78 61.82 13.00  40.40 3139.00
   12:59:03.600.27-Mar-2021 3393.01 7317.64 61.82 13.00  40.60 3139.00
   12:59:03.800.27-Mar-2021 3393.01 7315.39 61.82 13.00  40.80 3139.00
   12:59:04.000.27-Mar-2021 3393.01 7312.05 61.82 13.00  41.00 3139.00
   12:59:04.200.27-Mar-2021 3393.01 7312.05 61.82 13.00  41.20 3139.00
   12:59:04.400.27-Mar-2021 3393.01 7305.13 61.82 13.00  41.40 3139.00
   12:59:04.600.27-Mar-2021 3393.01 7305.58 61.82 13.00  41.60 3139.00
   12:59:04.800.27-Mar-2021 3393.01 7298.23 61.82 13.00  41.80 3139.00
   12:59:05.000.27-Mar-2021 3393.01 7295.16 61.82 13.00  42.00 3139.00
   12:59:05.200.27-Mar-2021 3393.01 7295.16 61.82 13.00  42.20 3139.00
   12:59:05.400.27-Mar-2021 3393.01 7293.17 61.82 13.00  42.40 3139.00
   12:59:05.600.27-Mar-2021 3393.01 7286.64 61.82 13.00  42.60 3139.00
   12:59:05.800.27-Mar-2021 3393.01 7284.56 61.82 13.00  42.80 3139.00
   12:59:06.000.27-Mar-2021 3393.01 7272.17 61.82 13.00  43.00 3139.00
   12:59:06.200.27-Mar-2021 3393.01 7272.17 61.82 13.00  43.20 3139.00
   12:59:06.400.27-Mar-2021 3393.01 7209.23 61.82 13.00  43.40 3139.00
   12:59:06.600.27-Mar-2021 3393.01 7164.91 61.82 13.00  43.60 3139.00
   12:59:06.800.27-Mar-2021 3393.01 7116.74 61.82 13.00  43.80 3139.00
   12:59:07.000.27-Mar-2021 3393.01 7066.60 61.82 13.00  44.00 3139.00
   12:59:07.200.27-Mar-2021 3393.01 7066.60 61.82 13.00  44.20 3139.00
   12:59:07.400.27-Mar-2021 3393.01 6955.25 61.82 13.00  44.40 3139.00
   12:59:07.600.27-Mar-2021 3393.01 6895.24 61.82 13.00  44.60 3139.00
   12:59:07.800.27-Mar-2021 3393.01 6823.90 61.82 13.00  44.80 3139.00
   12:59:08.000.27-Mar-2021 3393.01 6779.24 61.82 13.00  45.00 3139.00
