~Version Information
 VERS.                  2.0:   CWLS log ASCII Standard -VERSION 2.0
 WRAP.                   NO:   One line per depth step
~Well Information Block
#MNEM.UNIT     VALUE/NAME     DESCRIPTION
#---------     -----------    ---------------------------
 STRT.S             01:51:11 27-Mar-21: START TIME 01:51:11 27-Mar-21
 STOP.S             01:58:18 27-Mar-21: STOP TIME  01:58:18 27-Mar-21
 STEP.S                   0.00: STEP TIME
 NULL.                 -999.25: NULL VALUE
 DFWT.                        :  DIST FWL TEXT
 DFST.                        :  DIST FSL TEXT
 DMF .             Drill Floor:  DRILL MEAS FROM
 STIM.      20.26.40 11-Mar-21:  START TIME
 DATE.      20.26.40 30-Mar-21:  END TIME
 SPUD.               11-Mar-21:  SPUD DATE
 NREF.                    Grid:  NORTH REFERENCE
 HPTY.       Minimum Curvature:  HOLE POS TYPE
 DMOD.             Drill Model:  DRILL MOD DESC
 SVYD.                  Survey:  SURVEY DESC
 ILTD.               Lithology:  INTERP LTH DESC
 FTOP.          Formation Tops:  FORM TOPS DESC
 SON .        AZ-XX-0906805385:  JOB NUMBER
 WTYP.                Deviated:  WELL TYPE
 COMP.     BP Exploration (Caspian Sea) Ltd.:  COMPANY
 UWI .            /AZE00000198:  UNIQUE WELL IDENTIFIER
 API .            /AZE00000198:  API NUMBER
 BASE.              Azerbaijan:  LOGGING EQUIPMENT BASE LOCATION
 REGN.                   EESSA:  REGION
 PROV.                    Baku:  PROVINCE
 STAT.                    Baku:  STATE NAME
 CTRY.              Azerbaijan:  COUNTRY NAME
 FLD .                     ACG:  FIELD NAME
 SRVC.     Turan Drilling & Engineering:  CONTRACTOR
 MWDS.                    Baku:  MWD SHOP
 WELL.                    D09z:  WELL NAME
 JOBN.        AZ-XX-0906805385:  JOB TICKET NUMB
 RIG .              East Azeri:  RIG NAME
 DOE .                     N/A:  DOE NUMBER
 DCON.         Sperry Drilling:  DIRECTNL CONTR
 UNIT.                     N/A:  LOGGING EQUIPMENT ID
 PDAT.          Mean Sea Level:  PERMANENT DATUM
 MDS .        Operator Entered:  MAG DATA SOURCE
 CNTY.                        :  COUNTY
 LOC .                        :  LOCATION
 LMF .             Drill Floor:  LOG MEASURED FROM
 TVDS.m                  43.60:  TVDSS CORRECTN
 LATI.deg                40.02:  LATITUDE
 LONG.deg                51.45:  LONGITUDE
 WHNS.m                 -17.04:  WELL HEAD N/S
 WHEW.m                  -6.28:  WELL HEAD E/W
 UTMX.m              538763.98:  UTM X
 UTMY.m             4431880.20:  UTM Y
 DFWL.m                   0.00:  DISTANCE FWL
 DFSL.m                   0.00:  DISTANCE FSL
 SDEP.m                2680.01:  START DEPTH
 TDD .m                4000.01:  TOTAL DEPTH (DRILLER)
 VSDR.deg               225.71:  VERT SEC DIRECT
 GVFD.g                   1.00:  GRAVITY FIELD
 MFLD.nT              50353.00:  MAGNETIC FIELD
 MDIP.deg                59.49:  MAGNETIC DIP
 MDEC.deg                 6.46:  MAGNETIC DECL
 GRDC.deg                 0.29:  GRID CORRECTION
 AZTC.deg                 6.17:  AZM TOTAL CORR
 EPD .m                   0.00:  ELEVATION
 EGL .m                   0.00:  GROUND ELEVATION
 WDMS.m                 151.80:  WD ELEV
 APD .m                  43.60:  DEPTH ABOVE PD
 AGAP.m                  43.60:  AIR GAP
 VSEW.m                  -6.28:  VERT SEC E/W
 VSNS.m                 -17.04:  VERT SEC N/S
 DEP .m                2656.31:  DEPTH
 EKB .m                  43.60:  KB ELEVATION
 EDF .m                  43.60:  DF ELEVATION
 VSC .                       0:  VS TO CLOSURE
 MAGU.                 1851247:  MAGUTM CHECKSUM
~Parameter Information Block
#MNEM.UNIT       Value        Description
#---------     -----------    ---------------------------
 AV  .mps                 3.00:  Ann Velocity 
 AVMX.mps                 8.00:  Max Ann Veloc 
 AZIF.deg                 0.00:  Azm, Final 
 BHAT.                   Other:  BHA Type 
 BREV.rev                 0.00:  Rev Bit Total 
 BROT.°/30m               0.00:  Build Rotating 
 BS  .in                 10.25:  Bit Size 
 BTPL.psig              511.00:  Bit Press Loss 
 CABU.                      No:  Customer Abuse 
 CGEO.           Asif Pashayev:  Customer Geo 
 COMM.                     |ºg:  Run Comments 1 
 TCS .hr                 24.03:  Time Ciculation Ended 
 CV  .mps                 3.50:  Crit Velocity 
 CVMX.mps                 4.00:  Max Crit Veloc 
 DD1 .             Aziz Aliyev:  Direct Drillr 1 
 DD2 .      Fakhraddin Guliyev:  Direct Drillr 2 
 DDSV.                   Other:  DD Service 
 DEFF.%                  99.00:  % Det Eff 
 DLRX.°/30m               0.00:  Dogleg Rot Max 
 DLSO.°/30m               0.00:  Dogleg Oriented 
 DLSX.°/30m               0.00:  Dogleg Str Max 
 DRET.      23.00.40 28-Mar-21:  Drill End Time 
 DRST.      23.30.40 25-Mar-21:  Drill Start Tim 
 DTIM.hr                  0.00:  Time Drilling 
 EDEP.m                3886.01:  End Depth 
 ENG1.         Almaz Almadatov:  Engineer 1 
 ENG2.      Artemiy Matviyanov:  Engineer 2 
 ENG3.           Samir Gafarov:  Engineer 3 
 ETIM.      23.00.40 28-Mar-21:  End Time 
 FLOI.gpm               550.00:  Flow In 
 FLON.gpm               500.00:  Flow In Min 
 FLOS.cptm                0.00:  Fluid Loss 
 FLOX.gpm               590.00:  Flow In Max 
 HFLO.                      No:  High Flow 
 HPRE.                      No:  High Pressure 
 HTEM.                      No:  High Temp 
 HYDO.m                   1.80:  Hydro Offset 
 IFIN.deg                 0.00:  Inc, Final 
 IMAX.deg                 0.00:  Inc Max 
 IMIN.deg                 0.00:  Inc Min 
 IMND.m                   0.00:  Inc Min Depth 
 IMXD.m                   0.00:  Inc Max Depth 
 JARR.                      No:  Jarring 
 LETM.      03.22.40 28-Mar-21:  Log End Time 
 LOST.hr                     0:  Lost Rig Time 
 LSTM.      23.30.40 25-Mar-21:  Log Start Time 
 MDCL.ppm             34000.00:  Mud Chlorides 
 MDES.     Inversion Oil/Synthetic:  Mud Desc 
 DFD .sg                  1.51:  Mud Density 
 MDMN.sg                  1.51:  Dens Mud Min 
 MDMX.sg                  1.51:  Dens Mud Max 
 MOIL.                      70:  Run Mud Oil % 
 MOWR.                   70:30:  Run Mud OWR 
 MSND.                     0.2:  Run Mud Sand % 
 MSOL.                   21.60:  Run Mud Solids% 
 DFV .spqt               74.00:  Mud Viscosity 
 MWOD.in                  6.75:  MWD Tool OD 
 MWSI.                      No:  Serv Intrp, MWD 
 OTIM.hr                 69.09:  Time Operating 
 PCON.           Look Like New:  Pad Condition 
 PMAX.psia             3500.00:  Press Op, Max 
 PV  .cP                 70.00:  Mud PV 
 RUN .                     400:  Run Number 
 ROPA.m/hr                0.00:  ROP Avg 
 ROPN.m/hr                0.00:  ROP Min 
 ROPX.m/hr                0.00:  ROP Max 
 RPMA.rpm                80.00:  RPM Surface Avg 
 RPMN.rpm                10.00:  RPM Surface Min 
 RPMX.rpm               100.00:  RPM Surface Max 
 RRUN.                    0400:  Rig Run Number 
 RTIM.hr                  3.00:  Time Reaming 
 SAZI.deg                 0.00:  Azm, Start 
 SDEP.m                3886.01:  Start Depth 
 SIDD.                      No:  Serv Intrp, DD 
 SINC.deg                 0.00:  Inc, Start 
 SPPA.psig             3270.00:  SPP Avg 
 SPPN.psig             3220.00:  SPP Min 
 SPPX.psig             4430.00:  SPP Max 
 STIM.      23.30.40 25-Mar-21:  Start Time 
 SVCS.                 DD, MWD:  Services 
 SVER.                    9.20:  Sperry Version 
 TDAT.m                   0.00:  Tot Depth Attmp 
 TDDF.                      No:  Trip for DD 
 TFF .                      No:  Trip for Fail 
 TQAA.f-kp                8.00:  Torque Abs Avg 
 TQAN.f-kp                7.00:  Torque Abs Min 
 TQAX.f-kp               11.00:  Torque Abs Max 
 TRRT.°/30m               0.00:  Turn Rotating 
 MRT .                  EWR-M5:  Maximum Recorded Temperature 
 TTMX.degC               76.47:  Max Tool Temp 
 VS01.                90640857:  Virtual Str1 SN 
 VS02.                90639246:  Virtual Str2 SN 
 VS03.                90642265:  Virtual Str3 SN 
 VS04.                11654497:  Virtual Str4 SN 
 WBMN.klb                 0.00:  WOB Min 
 WITN.      Kamran Keberlinkiy:  Customer Rep 
 WITN.           Murad Guliyev:  Customer Rep 2 
 WOBA.klb                 0.00:  WOB Avg 
 WOBX.klb                 0.00:  WOB Max 
 YP  .lhf2               36.00:  Yield Point 
~Curve Information Block
#MNEM.UNIT                 API CODE     Curve Description
#---------               -----------    ---------------------------
 TIME.HHMMSS            00 000 000 000:  GT Time & Date
 GTDEPTH.m              00 000 000 000:  GT Depth
 GTPQH.psia             00 000 000 000:  GT HR Quartz Pressure
 GTTQ.degC              00 000 000 000:  GT Quartz Temperature
 GTTN.NONE              00 000 000 000:  GT Test Number
 GTET.sec               00 000 000 000:  GT Elapsed Test Time
 GTTVD.m                00 000 000 000:  GT True Vertical Depth
#Other Information
#
#WARRANTY: Halliburton will use its best efforts to furnish customers with 
#accurate information and interpretations that are part of, and incident to, the services 
#provided.  However, Halliburton cannot and does not warrant the accuracy 
#or correctness of such information and interpretations.  Under no circumstances should any 
#such information or interpretation be relied upon as the sole basis for any drilling, 
#completion, production, or financial decision or any procedure involving any risk to the 
#safety of any drilling venture, drilling rig or its crew or any other third party.  The 
#Customer has full responsibility for all drilling, completion and production operation.  
#Halliburton makes no representations or warranties, either expressed or 
#implied, including, but not limited to, the implied warranties of merchantability or fitness 
#for a particular purpose, with respect to the services rendered.  In no event will 
#Halliburton be liable for failure to obtain any particular results or for 
#any damages, including, but not limited to, indirect, special or consequential damages, 
#resulting from the use of any information or interpretation provided by Halliburton.
#
~A           TIME           GTDEPTH  GTPQH  GTTQ  GTTN  GTET   GTTVD  
# ...
   01:54:15.679.27-Mar-2021 3763.51 4955.35 59.91 1.00 184.04 3487.00
   01:54:15.879.27-Mar-2021 3763.51 4955.35 59.91 1.00 184.24 3487.00
   01:54:16.079.27-Mar-2021 3763.51 4955.36 59.91 1.00 184.44 3487.00
   01:54:16.279.27-Mar-2021 3763.51 4955.34 59.91 1.00 184.64 3487.00
   01:54:16.479.27-Mar-2021 3763.51 4955.39 59.91 1.00 184.84 3487.00
   01:54:16.679.27-Mar-2021 3763.51 4955.37 59.91 1.00 185.04 3487.00
   01:54:16.879.27-Mar-2021 3763.51 4955.37 59.91 1.00 185.24 3487.00
   01:54:17.079.27-Mar-2021 3763.51 4955.39 59.91 1.00 185.44 3487.00
   01:54:17.279.27-Mar-2021 3763.51 4955.38 59.91 1.00 185.64 3487.00
   01:54:17.479.27-Mar-2021 3763.51 4955.38 59.91 1.00 185.84 3487.00
   01:54:17.679.27-Mar-2021 3763.51 4955.38 59.91 1.00 186.04 3487.00
   01:54:17.879.27-Mar-2021 3763.51 4955.38 59.91 1.00 186.24 3487.00
   01:54:18.079.27-Mar-2021 3763.51 4955.27 59.91 1.00 186.44 3487.00
   01:54:18.279.27-Mar-2021 3763.51 4955.40 59.91 1.00 186.64 3487.00
   01:54:18.479.27-Mar-2021 3763.51 4955.42 59.91 1.00 186.84 3487.00
   01:54:18.679.27-Mar-2021 3763.51 4955.38 59.91 1.00 187.04 3487.00
   01:54:18.879.27-Mar-2021 3763.51 4955.38 59.91 1.00 187.24 3487.00
   01:54:19.079.27-Mar-2021 3763.51 4955.32 59.91 1.00 187.44 3487.00
   01:54:19.279.27-Mar-2021 3763.51 4955.33 59.91 1.00 187.64 3487.00
   01:54:19.479.27-Mar-2021 3763.51 4955.43 59.91 1.00 187.84 3487.00
   01:54:19.679.27-Mar-2021 3763.51 4955.38 59.91 1.00 188.04 3487.00
   01:54:19.879.27-Mar-2021 3763.51 4955.38 59.91 1.00 188.24 3487.00
   01:54:20.079.27-Mar-2021 3763.51 4955.41 59.91 1.00 188.44 3487.00
   01:54:20.279.27-Mar-2021 3763.51 4955.50 59.91 1.00 188.64 3487.00
   01:54:20.480.27-Mar-2021 3763.51 4955.26 59.91 1.00 188.84 3487.00
   01:54:20.680.27-Mar-2021 3763.51 4955.41 59.91 1.00 189.04 3487.00
   01:54:20.880.27-Mar-2021 3763.51 4955.41 59.91 1.00 189.24 3487.00
   01:54:21.080.27-Mar-2021 3763.51 4955.33 59.91 1.00 189.44 3487.00
   01:54:21.280.27-Mar-2021 3763.51 4955.35 59.91 1.00 189.64 3487.00
   01:54:21.480.27-Mar-2021 3763.51 4955.42 59.91 1.00 189.84 3487.00
   01:54:21.680.27-Mar-2021 3763.51 4955.39 59.91 1.00 190.04 3487.00
   01:54:21.880.27-Mar-2021 3763.51 4955.39 59.91 1.00 190.24 3487.00
   01:54:22.080.27-Mar-2021 3763.51 4955.47 59.91 1.00 190.44 3487.00
   01:54:22.280.27-Mar-2021 3763.51 4955.30 59.91 1.00 190.64 3487.00
   01:54:22.480.27-Mar-2021 3763.51 4955.31 59.91 1.00 190.84 3487.00
   01:54:22.680.27-Mar-2021 3763.51 4955.43 59.91 1.00 191.04 3487.00
   01:54:22.880.27-Mar-2021 3763.51 4955.43 59.91 1.00 191.24 3487.00
   01:54:23.080.27-Mar-2021 3763.51 4955.35 59.91 1.00 191.44 3487.00
   01:54:23.280.27-Mar-2021 3763.51 4955.39 59.91 1.00 191.64 3487.00
   01:54:23.480.27-Mar-2021 3763.51 4955.40 59.91 1.00 191.84 3487.00
   01:54:23.680.27-Mar-2021 3763.51 4955.35 59.91 1.00 192.04 3487.00
   01:54:23.880.27-Mar-2021 3763.51 4955.35 59.91 1.00 192.24 3487.00
   01:54:24.080.27-Mar-2021 3763.51 4955.41 59.91 1.00 192.44 3487.00
   01:54:24.280.27-Mar-2021 3763.51 4955.40 59.91 1.00 192.64 3487.00
   01:54:24.480.27-Mar-2021 3763.51 4955.37 59.91 1.00 192.84 3487.00
   01:54:24.680.27-Mar-2021 3763.51 4955.37 59.91 1.00 193.04 3487.00
   01:54:24.880.27-Mar-2021 3763.51 4955.37 59.91 1.00 193.24 3487.00
   01:54:25.080.27-Mar-2021 3763.51 4955.48 59.91 1.00 193.44 3487.00
   01:54:25.281.27-Mar-2021 3763.51 4955.42 59.91 1.00 193.64 3487.00
   01:54:25.481.27-Mar-2021 3763.51 4955.28 59.91 1.00 193.84 3487.00
   01:54:25.681.27-Mar-2021 3763.51 4955.38 59.91 1.00 194.04 3487.00
   01:54:25.881.27-Mar-2021 3763.51 4955.38 59.91 1.00 194.24 3487.00
   01:54:26.081.27-Mar-2021 3763.51 4955.37 59.91 1.00 194.44 3487.00
   01:54:26.281.27-Mar-2021 3763.51 4955.35 59.91 1.00 194.64 3487.00
   01:54:26.481.27-Mar-2021 3763.51 4955.39 59.91 1.00 194.84 3487.00
   01:54:26.681.27-Mar-2021 3763.51 4955.39 59.91 1.00 195.04 3487.00
   01:54:26.881.27-Mar-2021 3763.51 4955.39 59.91 1.00 195.24 3487.00
   01:54:27.081.27-Mar-2021 3763.51 4955.40 59.91 1.00 195.44 3487.00
   01:54:27.281.27-Mar-2021 3763.51 4955.38 59.92 1.00 195.64 3487.00
   01:54:27.481.27-Mar-2021 3763.51 4955.45 59.92 1.00 195.84 3487.00
   01:54:27.681.27-Mar-2021 3763.51 4955.42 59.92 1.00 196.04 3487.00
   01:54:27.881.27-Mar-2021 3763.51 4955.42 59.92 1.00 196.24 3487.00
   01:54:28.081.27-Mar-2021 3763.51 4955.33 59.92 1.00 196.44 3487.00
   01:54:28.281.27-Mar-2021 3763.51 4955.45 59.92 1.00 196.64 3487.00
   01:54:28.481.27-Mar-2021 3763.51 4955.40 59.92 1.00 196.84 3487.00
   01:54:28.681.27-Mar-2021 3763.51 4955.38 59.92 1.00 197.04 3487.00
   01:54:28.881.27-Mar-2021 3763.51 4955.38 59.92 1.00 197.24 3487.00
   01:54:29.081.27-Mar-2021 3763.51 4955.38 59.92 1.00 197.44 3487.00
   01:54:29.281.27-Mar-2021 3763.51 4955.36 59.92 1.00 197.64 3487.00
   01:54:29.481.27-Mar-2021 3763.51 4955.41 59.92 1.00 197.84 3487.00
   01:54:29.681.27-Mar-2021 3763.51 4955.37 59.92 1.00 198.04 3487.00
   01:54:29.881.27-Mar-2021 3763.51 4955.37 59.92 1.00 198.24 3487.00
   01:54:30.082.27-Mar-2021 3763.51 4955.48 59.92 1.00 198.44 3487.00
   01:54:30.282.27-Mar-2021 3763.51 4955.30 59.92 1.00 198.64 3487.00
   01:54:30.482.27-Mar-2021 3763.51 4955.33 59.92 1.00 198.84 3487.00
   01:54:30.682.27-Mar-2021 3763.51 4955.46 59.92 1.00 199.04 3487.00
   01:54:30.882.27-Mar-2021 3763.51 4955.46 59.92 1.00 199.24 3487.00
   01:54:31.082.27-Mar-2021 3763.51 4955.33 59.92 1.00 199.44 3487.00
   01:54:31.282.27-Mar-2021 3763.51 4955.41 59.92 1.00 199.64 3487.00
   01:54:31.482.27-Mar-2021 3763.51 4955.49 59.92 1.00 199.84 3487.00
   01:54:31.682.27-Mar-2021 3763.51 4955.28 59.92 1.00 200.04 3487.00
   01:54:31.882.27-Mar-2021 3763.51 4955.28 59.92 1.00 200.24 3487.00
   01:54:32.082.27-Mar-2021 3763.51 4955.42 59.92 1.00 200.44 3487.00
   01:54:32.282.27-Mar-2021 3763.51 4955.33 59.92 1.00 200.64 3487.00
   01:54:32.482.27-Mar-2021 3763.51 4955.38 59.92 1.00 200.84 3487.00
   01:54:32.682.27-Mar-2021 3763.51 4955.39 59.92 1.00 201.04 3487.00
   01:54:32.882.27-Mar-2021 3763.51 4955.39 59.92 1.00 201.24 3487.00
   01:54:33.082.27-Mar-2021 3763.51 4955.35 59.92 1.00 201.44 3487.00
   01:54:33.282.27-Mar-2021 3763.51 4955.40 59.92 1.00 201.64 3487.00
   01:54:33.482.27-Mar-2021 3763.51 4955.37 59.92 1.00 201.84 3487.00
   01:54:33.682.27-Mar-2021 3763.51 4955.38 59.92 1.00 202.04 3487.00
   01:54:33.882.27-Mar-2021 3763.51 4955.38 59.92 1.00 202.24 3487.00
   01:54:34.082.27-Mar-2021 3763.51 4955.41 59.92 1.00 202.44 3487.00
   01:54:34.282.27-Mar-2021 3763.51 4955.36 59.92 1.00 202.64 3487.00
   01:54:34.482.27-Mar-2021 3763.51 4955.38 59.92 1.00 202.84 3487.00
   01:54:34.682.27-Mar-2021 3763.51 4955.40 59.92 1.00 203.04 3487.00
   01:54:34.882.27-Mar-2021 3763.51 4955.40 59.92 1.00 203.24 3487.00
   01:54:35.083.27-Mar-2021 3763.51 4955.45 59.92 1.00 203.44 3487.00
   01:54:35.283.27-Mar-2021 3763.51 4955.33 59.92 1.00 203.64 3487.00
   01:54:35.483.27-Mar-2021 3763.51 4955.31 59.92 1.00 203.84 3487.00
   01:54:35.683.27-Mar-2021 3763.51 4955.40 59.92 1.00 204.04 3487.00
   01:54:35.883.27-Mar-2021 3763.51 4955.40 59.92 1.00 204.24 3487.00
   01:54:36.083.27-Mar-2021 3763.51 4955.35 59.92 1.00 204.44 3487.00
   01:54:36.283.27-Mar-2021 3763.51 4955.36 59.92 1.00 204.64 3487.00
   01:54:36.483.27-Mar-2021 3763.51 4955.38 59.92 1.00 204.84 3487.00
   01:54:36.683.27-Mar-2021 3763.51 4955.37 59.92 1.00 205.04 3487.00
   01:54:36.883.27-Mar-2021 3763.51 4955.37 59.92 1.00 205.24 3487.00
   01:54:37.083.27-Mar-2021 3763.51 4955.40 59.92 1.00 205.44 3487.00
   01:54:37.283.27-Mar-2021 3763.51 4955.37 59.92 1.00 205.64 3487.00
   01:54:37.483.27-Mar-2021 3763.51 4955.44 59.92 1.00 205.84 3487.00
   01:54:37.683.27-Mar-2021 3763.51 4955.40 59.92 1.00 206.04 3487.00
   01:54:37.883.27-Mar-2021 3763.51 4955.40 59.92 1.00 206.24 3487.00
   01:54:38.083.27-Mar-2021 3763.51 4955.39 59.92 1.00 206.44 3487.00
   01:54:38.283.27-Mar-2021 3763.51 4955.37 59.92 1.00 206.64 3487.00
   01:54:38.483.27-Mar-2021 3763.51 4955.35 59.92 1.00 206.84 3487.00
