~Version Information
 VERS.                  2.0:   CWLS log ASCII Standard -VERSION 2.0
 WRAP.                   NO:   One line per depth step
~Well Information Block
#MNEM.UNIT     VALUE/NAME     DESCRIPTION
#---------     -----------    ---------------------------
 STRT.S             03:27:53 27-Mar-21: START TIME 03:27:53 27-Mar-21
 STOP.S             03:35:02 27-Mar-21: STOP TIME  03:35:02 27-Mar-21
 STEP.S                   0.00: STEP TIME
 NULL.                 -999.25: NULL VALUE
 DFWT.                        :  DIST FWL TEXT
 DFST.                        :  DIST FSL TEXT
 DMF .             Drill Floor:  DRILL MEAS FROM
 STIM.      20.26.40 11-Mar-21:  START TIME
 DATE.      20.26.40 30-Mar-21:  END TIME
 SPUD.               11-Mar-21:  SPUD DATE
 NREF.                    Grid:  NORTH REFERENCE
 HPTY.       Minimum Curvature:  HOLE POS TYPE
 DMOD.             Drill Model:  DRILL MOD DESC
 SVYD.                  Survey:  SURVEY DESC
 ILTD.               Lithology:  INTERP LTH DESC
 FTOP.          Formation Tops:  FORM TOPS DESC
 SON .        AZ-XX-0906805385:  JOB NUMBER
 WTYP.                Deviated:  WELL TYPE
 COMP.     BP Exploration (Caspian Sea) Ltd.:  COMPANY
 UWI .            /AZE00000198:  UNIQUE WELL IDENTIFIER
 API .            /AZE00000198:  API NUMBER
 BASE.              Azerbaijan:  LOGGING EQUIPMENT BASE LOCATION
 REGN.                   EESSA:  REGION
 PROV.                    Baku:  PROVINCE
 STAT.                    Baku:  STATE NAME
 CTRY.              Azerbaijan:  COUNTRY NAME
 FLD .                     ACG:  FIELD NAME
 SRVC.     Turan Drilling & Engineering:  CONTRACTOR
 MWDS.                    Baku:  MWD SHOP
 WELL.                    D09z:  WELL NAME
 JOBN.        AZ-XX-0906805385:  JOB TICKET NUMB
 RIG .              East Azeri:  RIG NAME
 DOE .                     N/A:  DOE NUMBER
 DCON.         Sperry Drilling:  DIRECTNL CONTR
 UNIT.                     N/A:  LOGGING EQUIPMENT ID
 PDAT.          Mean Sea Level:  PERMANENT DATUM
 MDS .        Operator Entered:  MAG DATA SOURCE
 CNTY.                        :  COUNTY
 LOC .                        :  LOCATION
 LMF .             Drill Floor:  LOG MEASURED FROM
 TVDS.m                  43.60:  TVDSS CORRECTN
 LATI.deg                40.02:  LATITUDE
 LONG.deg                51.45:  LONGITUDE
 WHNS.m                 -17.04:  WELL HEAD N/S
 WHEW.m                  -6.28:  WELL HEAD E/W
 UTMX.m              538763.98:  UTM X
 UTMY.m             4431880.20:  UTM Y
 DFWL.m                   0.00:  DISTANCE FWL
 DFSL.m                   0.00:  DISTANCE FSL
 SDEP.m                2680.01:  START DEPTH
 TDD .m                4000.01:  TOTAL DEPTH (DRILLER)
 VSDR.deg               225.71:  VERT SEC DIRECT
 GVFD.g                   1.00:  GRAVITY FIELD
 MFLD.nT              50353.00:  MAGNETIC FIELD
 MDIP.deg                59.49:  MAGNETIC DIP
 MDEC.deg                 6.46:  MAGNETIC DECL
 GRDC.deg                 0.29:  GRID CORRECTION
 AZTC.deg                 6.17:  AZM TOTAL CORR
 EPD .m                   0.00:  ELEVATION
 EGL .m                   0.00:  GROUND ELEVATION
 WDMS.m                 151.80:  WD ELEV
 APD .m                  43.60:  DEPTH ABOVE PD
 AGAP.m                  43.60:  AIR GAP
 VSEW.m                  -6.28:  VERT SEC E/W
 VSNS.m                 -17.04:  VERT SEC N/S
 DEP .m                2656.31:  DEPTH
 EKB .m                  43.60:  KB ELEVATION
 EDF .m                  43.60:  DF ELEVATION
 VSC .                       0:  VS TO CLOSURE
 MAGU.                 1851247:  MAGUTM CHECKSUM
~Parameter Information Block
#MNEM.UNIT       Value        Description
#---------     -----------    ---------------------------
 AV  .mps                 3.00:  Ann Velocity 
 AVMX.mps                 8.00:  Max Ann Veloc 
 AZIF.deg                 0.00:  Azm, Final 
 BHAT.                   Other:  BHA Type 
 BREV.rev                 0.00:  Rev Bit Total 
 BROT.°/30m               0.00:  Build Rotating 
 BS  .in                 10.25:  Bit Size 
 BTPL.psig              511.00:  Bit Press Loss 
 CABU.                      No:  Customer Abuse 
 CGEO.           Asif Pashayev:  Customer Geo 
 COMM.                     ¼Fy:  Run Comments 1 
 TCS .hr                 24.03:  Time Ciculation Ended 
 CV  .mps                 3.50:  Crit Velocity 
 CVMX.mps                 4.00:  Max Crit Veloc 
 DD1 .             Aziz Aliyev:  Direct Drillr 1 
 DD2 .      Fakhraddin Guliyev:  Direct Drillr 2 
 DDSV.                   Other:  DD Service 
 DEFF.%                  99.00:  % Det Eff 
 DLRX.°/30m               0.00:  Dogleg Rot Max 
 DLSO.°/30m               0.00:  Dogleg Oriented 
 DLSX.°/30m               0.00:  Dogleg Str Max 
 DRET.      23.00.40 28-Mar-21:  Drill End Time 
 DRST.      23.30.40 25-Mar-21:  Drill Start Tim 
 DTIM.hr                  0.00:  Time Drilling 
 EDEP.m                3886.01:  End Depth 
 ENG1.         Almaz Almadatov:  Engineer 1 
 ENG2.      Artemiy Matviyanov:  Engineer 2 
 ENG3.           Samir Gafarov:  Engineer 3 
 ETIM.      23.00.40 28-Mar-21:  End Time 
 FLOI.gpm               550.00:  Flow In 
 FLON.gpm               500.00:  Flow In Min 
 FLOS.cptm                0.00:  Fluid Loss 
 FLOX.gpm               590.00:  Flow In Max 
 HFLO.                      No:  High Flow 
 HPRE.                      No:  High Pressure 
 HTEM.                      No:  High Temp 
 HYDO.m                   1.80:  Hydro Offset 
 IFIN.deg                 0.00:  Inc, Final 
 IMAX.deg                 0.00:  Inc Max 
 IMIN.deg                 0.00:  Inc Min 
 IMND.m                   0.00:  Inc Min Depth 
 IMXD.m                   0.00:  Inc Max Depth 
 JARR.                      No:  Jarring 
 LETM.      03.22.40 28-Mar-21:  Log End Time 
 LOST.hr                     0:  Lost Rig Time 
 LSTM.      23.30.40 25-Mar-21:  Log Start Time 
 MDCL.ppm             34000.00:  Mud Chlorides 
 MDES.     Inversion Oil/Synthetic:  Mud Desc 
 DFD .sg                  1.51:  Mud Density 
 MDMN.sg                  1.51:  Dens Mud Min 
 MDMX.sg                  1.51:  Dens Mud Max 
 MOIL.                      70:  Run Mud Oil % 
 MOWR.                   70:30:  Run Mud OWR 
 MSND.                     0.2:  Run Mud Sand % 
 MSOL.                   21.60:  Run Mud Solids% 
 DFV .spqt               74.00:  Mud Viscosity 
 MWOD.in                  6.75:  MWD Tool OD 
 MWSI.                      No:  Serv Intrp, MWD 
 OTIM.hr                 69.09:  Time Operating 
 PCON.           Look Like New:  Pad Condition 
 PMAX.psia             3500.00:  Press Op, Max 
 PV  .cP                 70.00:  Mud PV 
 RUN .                     400:  Run Number 
 ROPA.m/hr                0.00:  ROP Avg 
 ROPN.m/hr                0.00:  ROP Min 
 ROPX.m/hr                0.00:  ROP Max 
 RPMA.rpm                80.00:  RPM Surface Avg 
 RPMN.rpm                10.00:  RPM Surface Min 
 RPMX.rpm               100.00:  RPM Surface Max 
 RRUN.                    0400:  Rig Run Number 
 RTIM.hr                  3.00:  Time Reaming 
 SAZI.deg                 0.00:  Azm, Start 
 SDEP.m                3886.01:  Start Depth 
 SIDD.                      No:  Serv Intrp, DD 
 SINC.deg                 0.00:  Inc, Start 
 SPPA.psig             3270.00:  SPP Avg 
 SPPN.psig             3220.00:  SPP Min 
 SPPX.psig             4430.00:  SPP Max 
 STIM.      23.30.40 25-Mar-21:  Start Time 
 SVCS.                 DD, MWD:  Services 
 SVER.                    9.20:  Sperry Version 
 TDAT.m                   0.00:  Tot Depth Attmp 
 TDDF.                      No:  Trip for DD 
 TFF .                      No:  Trip for Fail 
 TQAA.f-kp                8.00:  Torque Abs Avg 
 TQAN.f-kp                7.00:  Torque Abs Min 
 TQAX.f-kp               11.00:  Torque Abs Max 
 TRRT.°/30m               0.00:  Turn Rotating 
 MRT .                  EWR-M5:  Maximum Recorded Temperature 
 TTMX.degC               76.47:  Max Tool Temp 
 VS01.                90640857:  Virtual Str1 SN 
 VS02.                90639246:  Virtual Str2 SN 
 VS03.                90642265:  Virtual Str3 SN 
 VS04.                11654497:  Virtual Str4 SN 
 WBMN.klb                 0.00:  WOB Min 
 WITN.      Kamran Keberlinkiy:  Customer Rep 
 WITN.           Murad Guliyev:  Customer Rep 2 
 WOBA.klb                 0.00:  WOB Avg 
 WOBX.klb                 0.00:  WOB Max 
 YP  .lhf2               36.00:  Yield Point 
~Curve Information Block
#MNEM.UNIT                 API CODE     Curve Description
#---------               -----------    ---------------------------
 TIME.HHMMSS            00 000 000 000:  GT Time & Date
 GTDEPTH.m              00 000 000 000:  GT Depth
 GTPQH.psia             00 000 000 000:  GT HR Quartz Pressure
 GTTQ.degC              00 000 000 000:  GT Quartz Temperature
 GTTN.NONE              00 000 000 000:  GT Test Number
 GTET.sec               00 000 000 000:  GT Elapsed Test Time
 GTTVD.m                00 000 000 000:  GT True Vertical Depth
#Other Information
#
#WARRANTY: Halliburton will use its best efforts to furnish customers with 
#accurate information and interpretations that are part of, and incident to, the services 
#provided.  However, Halliburton cannot and does not warrant the accuracy 
#or correctness of such information and interpretations.  Under no circumstances should any 
#such information or interpretation be relied upon as the sole basis for any drilling, 
#completion, production, or financial decision or any procedure involving any risk to the 
#safety of any drilling venture, drilling rig or its crew or any other third party.  The 
#Customer has full responsibility for all drilling, completion and production operation.  
#Halliburton makes no representations or warranties, either expressed or 
#implied, including, but not limited to, the implied warranties of merchantability or fitness 
#for a particular purpose, with respect to the services rendered.  In no event will 
#Halliburton be liable for failure to obtain any particular results or for 
#any damages, including, but not limited to, indirect, special or consequential damages, 
#resulting from the use of any information or interpretation provided by Halliburton.
#
~A           TIME           GTDEPTH  GTPQH  GTTQ  GTTN  GTET   GTTVD  
# ...
   03:34:47.179.27-Mar-2021 3725.51 8020.41 61.50 3.00 414.05 3451.28
   03:34:47.379.27-Mar-2021 3725.51 8020.41 61.50 3.00 414.25 3451.28
   03:34:47.579.27-Mar-2021 3725.51 8019.07 61.50 3.00 414.45 3451.28
   03:34:47.779.27-Mar-2021 3725.51 8023.64 61.50 3.00 414.65 3451.28
   03:34:47.979.27-Mar-2021 3725.51 8018.17 61.50 3.00 414.85 3451.28
   03:34:48.179.27-Mar-2021 3725.51 8021.02 61.50 3.00 415.05 3451.28
   03:34:48.379.27-Mar-2021 3725.51 8021.02 61.50 3.00 415.25 3451.28
   03:34:48.579.27-Mar-2021 3725.51 8019.33 61.50 3.00 415.45 3451.28
   03:34:48.779.27-Mar-2021 3725.51 8018.13 61.50 3.00 415.65 3451.28
   03:34:48.979.27-Mar-2021 3725.51 8018.50 61.50 3.00 415.85 3451.28
   03:34:49.179.27-Mar-2021 3725.51 8018.35 61.50 3.00 416.05 3451.28
   03:34:49.379.27-Mar-2021 3725.51 8018.35 61.50 3.00 416.25 3451.28
   03:34:49.579.27-Mar-2021 3725.51 8018.50 61.50 3.00 416.45 3451.28
   03:34:49.779.27-Mar-2021 3725.51 8017.91 61.50 3.00 416.65 3451.28
   03:34:49.979.27-Mar-2021 3725.51 8017.99 61.50 3.00 416.85 3451.28
   03:34:50.179.27-Mar-2021 3725.51 8018.60 61.50 3.00 417.05 3451.28
   03:34:50.379.27-Mar-2021 3725.51 8018.60 61.50 3.00 417.25 3451.28
   03:34:50.579.27-Mar-2021 3725.51 8018.81 61.50 3.00 417.45 3451.28
   03:34:50.779.27-Mar-2021 3725.51 8019.00 61.50 3.00 417.65 3451.28
   03:34:50.979.27-Mar-2021 3725.51 8018.71 61.50 3.00 417.85 3451.28
   03:34:51.179.27-Mar-2021 3725.51 8022.14 61.50 3.00 418.05 3451.28
   03:34:51.379.27-Mar-2021 3725.51 8022.14 61.50 3.00 418.25 3451.28
   03:34:51.579.27-Mar-2021 3725.51 8019.90 61.50 3.00 418.45 3451.28
   03:34:51.779.27-Mar-2021 3725.51 8018.56 61.50 3.00 418.65 3451.28
   03:34:51.979.27-Mar-2021 3725.51 8019.21 61.50 3.00 418.85 3451.28
   03:34:52.180.27-Mar-2021 3725.51 8018.31 61.50 3.00 419.05 3451.28
   03:34:52.380.27-Mar-2021 3725.51 8018.31 61.50 3.00 419.25 3451.28
   03:34:52.580.27-Mar-2021 3725.51 8017.81 61.50 3.00 419.45 3451.28
   03:34:52.780.27-Mar-2021 3725.51 8017.58 61.50 3.00 419.65 3451.28
   03:34:52.980.27-Mar-2021 3725.51 8017.64 61.50 3.00 419.85 3451.28
   03:34:53.180.27-Mar-2021 3725.51 8017.33 61.50 3.00 420.05 3451.28
   03:34:53.380.27-Mar-2021 3725.51 8017.33 61.50 3.00 420.25 3451.28
   03:34:53.580.27-Mar-2021 3725.51 8017.55 61.50 3.00 420.45 3451.28
   03:34:53.780.27-Mar-2021 3725.51 8018.68 61.50 3.00 420.65 3451.28
   03:34:53.980.27-Mar-2021 3725.51 8021.72 61.50 3.00 420.85 3451.28
   03:34:54.180.27-Mar-2021 3725.51 8020.42 61.50 3.00 421.05 3451.28
   03:34:54.380.27-Mar-2021 3725.51 8020.42 61.50 3.00 421.25 3451.28
   03:34:54.580.27-Mar-2021 3725.51 8018.65 61.50 3.00 421.45 3451.28
   03:34:54.780.27-Mar-2021 3725.51 8022.19 61.50 3.00 421.65 3451.28
   03:34:54.980.27-Mar-2021 3725.51 8018.43 61.50 3.00 421.85 3451.28
   03:34:55.180.27-Mar-2021 3725.51 8019.61 61.50 3.00 422.05 3451.28
   03:34:55.380.27-Mar-2021 3725.51 8019.61 61.50 3.00 422.25 3451.28
   03:34:55.580.27-Mar-2021 3725.51 8017.98 61.50 3.00 422.45 3451.28
   03:34:55.780.27-Mar-2021 3725.51 8017.09 61.50 3.00 422.65 3451.28
   03:34:55.980.27-Mar-2021 3725.51 8017.30 61.50 3.00 422.85 3451.28
   03:34:56.180.27-Mar-2021 3725.51 8021.09 61.50 3.00 423.05 3451.28
   03:34:56.380.27-Mar-2021 3725.51 8021.09 61.50 3.00 423.25 3451.28
   03:34:56.580.27-Mar-2021 3725.51 8020.79 61.50 3.00 423.45 3451.28
   03:34:56.780.27-Mar-2021 3725.51 8018.60 61.50 3.00 423.65 3451.28
   03:34:56.980.27-Mar-2021 3725.51 8019.27 61.50 3.00 423.85 3451.28
   03:34:57.180.27-Mar-2021 3725.51 8023.27 61.50 3.00 424.05 3451.28
   03:34:57.380.27-Mar-2021 3725.51 8023.27 61.50 3.00 424.25 3451.28
   03:34:57.580.27-Mar-2021 3725.51 8021.20 61.50 3.00 424.45 3451.28
   03:34:57.780.27-Mar-2021 3725.51 8019.74 61.50 3.00 424.65 3451.28
   03:34:57.980.27-Mar-2021 3725.51 8019.72 61.50 3.00 424.85 3451.28
   03:34:58.180.27-Mar-2021 3725.51 8018.68 61.50 3.00 425.05 3451.28
   03:34:58.380.27-Mar-2021 3725.51 8018.68 61.50 3.00 425.25 3451.28
   03:34:58.580.27-Mar-2021 3725.51 8018.79 61.50 3.00 425.45 3451.28
   03:34:58.780.27-Mar-2021 3725.51 8018.81 61.50 3.00 425.65 3451.28
   03:34:58.980.27-Mar-2021 3725.51 8018.73 61.50 3.00 425.85 3451.28
   03:34:59.180.27-Mar-2021 3725.51 8018.06 61.50 3.00 426.05 3451.28
   03:34:59.380.27-Mar-2021 3725.51 8018.06 61.50 3.00 426.25 3451.28
   03:34:59.580.27-Mar-2021 3725.51 8019.08 61.50 3.00 426.45 3451.28
   03:34:59.780.27-Mar-2021 3725.51 8019.10 61.50 3.00 426.65 3451.28
   03:34:59.980.27-Mar-2021 3725.51 8019.36 61.50 3.00 426.85 3451.28
   03:35:00.181.27-Mar-2021 3725.51 8019.34 61.50 3.00 427.05 3451.28
   03:35:00.381.27-Mar-2021 3725.51 8019.34 61.50 3.00 427.25 3451.28
   03:35:00.581.27-Mar-2021 3725.51 8022.31 61.50 3.00 427.45 3451.28
   03:35:00.781.27-Mar-2021 3725.51 8020.06 61.50 3.00 427.65 3451.28
   03:35:00.981.27-Mar-2021 3725.51 8019.60 61.50 3.00 427.85 3451.28
   03:35:01.181.27-Mar-2021 3725.51 8018.86 61.50 3.00 428.05 3451.28
   03:35:01.381.27-Mar-2021 3725.51 8018.86 61.50 3.00 428.25 3451.28
   03:35:01.581.27-Mar-2021 3725.51 8018.03 61.50 3.00 428.45 3451.28
   03:35:01.781.27-Mar-2021 3725.51 8017.84 61.50 3.00 428.65 3451.28
   03:35:01.981.27-Mar-2021 3725.51 8017.77 61.50 3.00 428.85 3451.28
   03:35:02.181.27-Mar-2021 3725.51 8017.28 61.50 3.00 429.05 3451.28
   03:35:02.381.27-Mar-2021 3725.51 8017.28 61.50 3.00 429.25 3451.28
   03:35:02.581.27-Mar-2021 3725.51 8017.27 61.50 3.00 429.45 3451.28
   03:35:02.781.27-Mar-2021 3725.51 8017.72 61.50 3.00 429.65 3451.28
   03:35:02.981.27-Mar-2021 3725.51 8018.47 61.50 3.00 429.85 3451.28
