~Version Information
 VERS.                  2.0:   CWLS log ASCII Standard -VERSION 2.0
 WRAP.                   NO:   One line per depth step
~Well Information Block
#MNEM.UNIT     VALUE/NAME     DESCRIPTION
#---------     -----------    ---------------------------
 STRT.S             07:02:33 27-Mar-21: START TIME 07:02:33 27-Mar-21
 STOP.S             07:09:44 27-Mar-21: STOP TIME  07:09:44 27-Mar-21
 STEP.S                   0.00: STEP TIME
 NULL.                 -999.25: NULL VALUE
 DFWT.                        :  DIST FWL TEXT
 DFST.                        :  DIST FSL TEXT
 DMF .             Drill Floor:  DRILL MEAS FROM
 STIM.      20.26.40 11-Mar-21:  START TIME
 DATE.      20.26.40 30-Mar-21:  END TIME
 SPUD.               11-Mar-21:  SPUD DATE
 NREF.                    Grid:  NORTH REFERENCE
 HPTY.       Minimum Curvature:  HOLE POS TYPE
 DMOD.             Drill Model:  DRILL MOD DESC
 SVYD.                  Survey:  SURVEY DESC
 ILTD.               Lithology:  INTERP LTH DESC
 FTOP.          Formation Tops:  FORM TOPS DESC
 SON .        AZ-XX-0906805385:  JOB NUMBER
 WTYP.                Deviated:  WELL TYPE
 COMP.     BP Exploration (Caspian Sea) Ltd.:  COMPANY
 UWI .            /AZE00000198:  UNIQUE WELL IDENTIFIER
 API .            /AZE00000198:  API NUMBER
 BASE.              Azerbaijan:  LOGGING EQUIPMENT BASE LOCATION
 REGN.                   EESSA:  REGION
 PROV.                    Baku:  PROVINCE
 STAT.                    Baku:  STATE NAME
 CTRY.              Azerbaijan:  COUNTRY NAME
 FLD .                     ACG:  FIELD NAME
 SRVC.     Turan Drilling & Engineering:  CONTRACTOR
 MWDS.                    Baku:  MWD SHOP
 WELL.                    D09z:  WELL NAME
 JOBN.        AZ-XX-0906805385:  JOB TICKET NUMB
 RIG .              East Azeri:  RIG NAME
 DOE .                     N/A:  DOE NUMBER
 DCON.         Sperry Drilling:  DIRECTNL CONTR
 UNIT.                     N/A:  LOGGING EQUIPMENT ID
 PDAT.          Mean Sea Level:  PERMANENT DATUM
 MDS .        Operator Entered:  MAG DATA SOURCE
 CNTY.                        :  COUNTY
 LOC .                        :  LOCATION
 LMF .             Drill Floor:  LOG MEASURED FROM
 TVDS.m                  43.60:  TVDSS CORRECTN
 LATI.deg                40.02:  LATITUDE
 LONG.deg                51.45:  LONGITUDE
 WHNS.m                 -17.04:  WELL HEAD N/S
 WHEW.m                  -6.28:  WELL HEAD E/W
 UTMX.m              538763.98:  UTM X
 UTMY.m             4431880.20:  UTM Y
 DFWL.m                   0.00:  DISTANCE FWL
 DFSL.m                   0.00:  DISTANCE FSL
 SDEP.m                2680.01:  START DEPTH
 TDD .m                4000.01:  TOTAL DEPTH (DRILLER)
 VSDR.deg               225.71:  VERT SEC DIRECT
 GVFD.g                   1.00:  GRAVITY FIELD
 MFLD.nT              50353.00:  MAGNETIC FIELD
 MDIP.deg                59.49:  MAGNETIC DIP
 MDEC.deg                 6.46:  MAGNETIC DECL
 GRDC.deg                 0.29:  GRID CORRECTION
 AZTC.deg                 6.17:  AZM TOTAL CORR
 EPD .m                   0.00:  ELEVATION
 EGL .m                   0.00:  GROUND ELEVATION
 WDMS.m                 151.80:  WD ELEV
 APD .m                  43.60:  DEPTH ABOVE PD
 AGAP.m                  43.60:  AIR GAP
 VSEW.m                  -6.28:  VERT SEC E/W
 VSNS.m                 -17.04:  VERT SEC N/S
 DEP .m                2656.31:  DEPTH
 EKB .m                  43.60:  KB ELEVATION
 EDF .m                  43.60:  DF ELEVATION
 VSC .                       0:  VS TO CLOSURE
 MAGU.                 1851247:  MAGUTM CHECKSUM
~Parameter Information Block
#MNEM.UNIT       Value        Description
#---------     -----------    ---------------------------
 AV  .mps                 3.00:  Ann Velocity 
 AVMX.mps                 8.00:  Max Ann Veloc 
 AZIF.deg                 0.00:  Azm, Final 
 BHAT.                   Other:  BHA Type 
 BREV.rev                 0.00:  Rev Bit Total 
 BROT.°/30m               0.00:  Build Rotating 
 BS  .in                 10.25:  Bit Size 
 BTPL.psig              511.00:  Bit Press Loss 
 CABU.                      No:  Customer Abuse 
 CGEO.           Asif Pashayev:  Customer Geo 
 COMM.                     ¬\q:  Run Comments 1 
 TCS .hr                 24.03:  Time Ciculation Ended 
 CV  .mps                 3.50:  Crit Velocity 
 CVMX.mps                 4.00:  Max Crit Veloc 
 DD1 .             Aziz Aliyev:  Direct Drillr 1 
 DD2 .      Fakhraddin Guliyev:  Direct Drillr 2 
 DDSV.                   Other:  DD Service 
 DEFF.%                  99.00:  % Det Eff 
 DLRX.°/30m               0.00:  Dogleg Rot Max 
 DLSO.°/30m               0.00:  Dogleg Oriented 
 DLSX.°/30m               0.00:  Dogleg Str Max 
 DRET.      23.00.40 28-Mar-21:  Drill End Time 
 DRST.      23.30.40 25-Mar-21:  Drill Start Tim 
 DTIM.hr                  0.00:  Time Drilling 
 EDEP.m                3886.01:  End Depth 
 ENG1.         Almaz Almadatov:  Engineer 1 
 ENG2.      Artemiy Matviyanov:  Engineer 2 
 ENG3.           Samir Gafarov:  Engineer 3 
 ETIM.      23.00.40 28-Mar-21:  End Time 
 FLOI.gpm               550.00:  Flow In 
 FLON.gpm               500.00:  Flow In Min 
 FLOS.cptm                0.00:  Fluid Loss 
 FLOX.gpm               590.00:  Flow In Max 
 HFLO.                      No:  High Flow 
 HPRE.                      No:  High Pressure 
 HTEM.                      No:  High Temp 
 HYDO.m                   1.80:  Hydro Offset 
 IFIN.deg                 0.00:  Inc, Final 
 IMAX.deg                 0.00:  Inc Max 
 IMIN.deg                 0.00:  Inc Min 
 IMND.m                   0.00:  Inc Min Depth 
 IMXD.m                   0.00:  Inc Max Depth 
 JARR.                      No:  Jarring 
 LETM.      03.22.40 28-Mar-21:  Log End Time 
 LOST.hr                     0:  Lost Rig Time 
 LSTM.      23.30.40 25-Mar-21:  Log Start Time 
 MDCL.ppm             34000.00:  Mud Chlorides 
 MDES.     Inversion Oil/Synthetic:  Mud Desc 
 DFD .sg                  1.51:  Mud Density 
 MDMN.sg                  1.51:  Dens Mud Min 
 MDMX.sg                  1.51:  Dens Mud Max 
 MOIL.                      70:  Run Mud Oil % 
 MOWR.                   70:30:  Run Mud OWR 
 MSND.                     0.2:  Run Mud Sand % 
 MSOL.                   21.60:  Run Mud Solids% 
 DFV .spqt               74.00:  Mud Viscosity 
 MWOD.in                  6.75:  MWD Tool OD 
 MWSI.                      No:  Serv Intrp, MWD 
 OTIM.hr                 69.09:  Time Operating 
 PCON.           Look Like New:  Pad Condition 
 PMAX.psia             3500.00:  Press Op, Max 
 PV  .cP                 70.00:  Mud PV 
 RUN .                     400:  Run Number 
 ROPA.m/hr                0.00:  ROP Avg 
 ROPN.m/hr                0.00:  ROP Min 
 ROPX.m/hr                0.00:  ROP Max 
 RPMA.rpm                80.00:  RPM Surface Avg 
 RPMN.rpm                10.00:  RPM Surface Min 
 RPMX.rpm               100.00:  RPM Surface Max 
 RRUN.                    0400:  Rig Run Number 
 RTIM.hr                  3.00:  Time Reaming 
 SAZI.deg                 0.00:  Azm, Start 
 SDEP.m                3886.01:  Start Depth 
 SIDD.                      No:  Serv Intrp, DD 
 SINC.deg                 0.00:  Inc, Start 
 SPPA.psig             3270.00:  SPP Avg 
 SPPN.psig             3220.00:  SPP Min 
 SPPX.psig             4430.00:  SPP Max 
 STIM.      23.30.40 25-Mar-21:  Start Time 
 SVCS.                 DD, MWD:  Services 
 SVER.                    9.20:  Sperry Version 
 TDAT.m                   0.00:  Tot Depth Attmp 
 TDDF.                      No:  Trip for DD 
 TFF .                      No:  Trip for Fail 
 TQAA.f-kp                8.00:  Torque Abs Avg 
 TQAN.f-kp                7.00:  Torque Abs Min 
 TQAX.f-kp               11.00:  Torque Abs Max 
 TRRT.°/30m               0.00:  Turn Rotating 
 MRT .                  EWR-M5:  Maximum Recorded Temperature 
 TTMX.degC               76.47:  Max Tool Temp 
 VS01.                90640857:  Virtual Str1 SN 
 VS02.                90639246:  Virtual Str2 SN 
 VS03.                90642265:  Virtual Str3 SN 
 VS04.                11654497:  Virtual Str4 SN 
 WBMN.klb                 0.00:  WOB Min 
 WITN.      Kamran Keberlinkiy:  Customer Rep 
 WITN.           Murad Guliyev:  Customer Rep 2 
 WOBA.klb                 0.00:  WOB Avg 
 WOBX.klb                 0.00:  WOB Max 
 YP  .lhf2               36.00:  Yield Point 
~Curve Information Block
#MNEM.UNIT                 API CODE     Curve Description
#---------               -----------    ---------------------------
 TIME.HHMMSS            00 000 000 000:  GT Time & Date
 GTDEPTH.m              00 000 000 000:  GT Depth
 GTPQH.psia             00 000 000 000:  GT HR Quartz Pressure
 GTTQ.degC              00 000 000 000:  GT Quartz Temperature
 GTTN.NONE              00 000 000 000:  GT Test Number
 GTET.sec               00 000 000 000:  GT Elapsed Test Time
 GTTVD.m                00 000 000 000:  GT True Vertical Depth
#Other Information
#
#WARRANTY: Halliburton will use its best efforts to furnish customers with 
#accurate information and interpretations that are part of, and incident to, the services 
#provided.  However, Halliburton cannot and does not warrant the accuracy 
#or correctness of such information and interpretations.  Under no circumstances should any 
#such information or interpretation be relied upon as the sole basis for any drilling, 
#completion, production, or financial decision or any procedure involving any risk to the 
#safety of any drilling venture, drilling rig or its crew or any other third party.  The 
#Customer has full responsibility for all drilling, completion and production operation.  
#Halliburton makes no representations or warranties, either expressed or 
#implied, including, but not limited to, the implied warranties of merchantability or fitness 
#for a particular purpose, with respect to the services rendered.  In no event will 
#Halliburton be liable for failure to obtain any particular results or for 
#any damages, including, but not limited to, indirect, special or consequential damages, 
#resulting from the use of any information or interpretation provided by Halliburton.
#
~A           TIME           GTDEPTH  GTPQH  GTTQ  GTTN  GTET   GTTVD  
# ...
   07:06:46.589.27-Mar-2021 3426.01 4772.29 60.37 6.00 253.06 3169.91
   07:06:46.789.27-Mar-2021 3426.01 4772.29 60.37 6.00 253.26 3169.91
   07:06:46.989.27-Mar-2021 3426.01 4772.31 60.37 6.00 253.46 3169.91
   07:06:47.189.27-Mar-2021 3426.01 4772.33 60.37 6.00 253.66 3169.91
   07:06:47.389.27-Mar-2021 3426.01 4772.14 60.37 6.00 253.86 3169.91
   07:06:47.589.27-Mar-2021 3426.01 4772.43 60.37 6.00 254.06 3169.91
   07:06:47.789.27-Mar-2021 3426.01 4772.43 60.37 6.00 254.26 3169.91
   07:06:47.989.27-Mar-2021 3426.01 4772.31 60.37 6.00 254.46 3169.91
   07:06:48.189.27-Mar-2021 3426.01 4772.31 60.37 6.00 254.66 3169.91
   07:06:48.389.27-Mar-2021 3426.01 4772.30 60.37 6.00 254.86 3169.91
   07:06:48.590.27-Mar-2021 3426.01 4772.29 60.37 6.00 255.06 3169.91
   07:06:48.790.27-Mar-2021 3426.01 4772.29 60.37 6.00 255.26 3169.91
   07:06:48.990.27-Mar-2021 3426.01 4772.29 60.37 6.00 255.46 3169.91
   07:06:49.190.27-Mar-2021 3426.01 4772.30 60.37 6.00 255.66 3169.91
   07:06:49.390.27-Mar-2021 3426.01 4772.32 60.37 6.00 255.86 3169.91
   07:06:49.590.27-Mar-2021 3426.01 4772.28 60.37 6.00 256.06 3169.91
   07:06:49.790.27-Mar-2021 3426.01 4772.28 60.37 6.00 256.26 3169.91
   07:06:49.990.27-Mar-2021 3426.01 4772.16 60.37 6.00 256.46 3169.91
   07:06:50.190.27-Mar-2021 3426.01 4772.45 60.37 6.00 256.66 3169.91
   07:06:50.390.27-Mar-2021 3426.01 4772.27 60.37 6.00 256.86 3169.91
   07:06:50.590.27-Mar-2021 3426.01 4772.32 60.37 6.00 257.06 3169.91
   07:06:50.790.27-Mar-2021 3426.01 4772.32 60.37 6.00 257.26 3169.91
   07:06:50.990.27-Mar-2021 3426.01 4772.29 60.37 6.00 257.46 3169.91
   07:06:51.190.27-Mar-2021 3426.01 4772.29 60.37 6.00 257.66 3169.91
   07:06:51.390.27-Mar-2021 3426.01 4772.14 60.37 6.00 257.86 3169.91
   07:06:51.590.27-Mar-2021 3426.01 4772.39 60.37 6.00 258.06 3169.91
   07:06:51.790.27-Mar-2021 3426.01 4772.39 60.37 6.00 258.26 3169.91
   07:06:51.990.27-Mar-2021 3426.01 4772.29 60.37 6.00 258.46 3169.91
   07:06:52.190.27-Mar-2021 3426.01 4772.29 60.37 6.00 258.66 3169.91
   07:06:52.390.27-Mar-2021 3426.01 4772.33 60.37 6.00 258.86 3169.91
   07:06:52.591.27-Mar-2021 3426.01 4772.27 60.37 6.00 259.06 3169.91
   07:06:52.791.27-Mar-2021 3426.01 4772.27 60.37 6.00 259.26 3169.91
   07:06:52.991.27-Mar-2021 3426.01 4772.24 60.37 6.00 259.46 3169.91
   07:06:53.191.27-Mar-2021 3426.01 4772.30 60.37 6.00 259.66 3169.91
   07:06:53.391.27-Mar-2021 3426.01 4772.11 60.37 6.00 259.86 3169.91
   07:06:53.591.27-Mar-2021 3426.01 4772.46 60.37 6.00 260.06 3169.91
   07:06:53.791.27-Mar-2021 3426.01 4772.46 60.37 6.00 260.26 3169.91
   07:06:53.991.27-Mar-2021 3426.01 4772.27 60.37 6.00 260.46 3169.91
   07:06:54.191.27-Mar-2021 3426.01 4772.36 60.37 6.00 260.66 3169.91
   07:06:54.391.27-Mar-2021 3426.01 4772.27 60.37 6.00 260.86 3169.91
   07:06:54.591.27-Mar-2021 3426.01 4772.27 60.37 6.00 261.07 3169.91
   07:06:54.791.27-Mar-2021 3426.01 4772.27 60.37 6.00 261.27 3169.91
   07:06:54.991.27-Mar-2021 3426.01 4772.29 60.37 6.00 261.47 3169.91
   07:06:55.191.27-Mar-2021 3426.01 4772.32 60.37 6.00 261.67 3169.91
   07:06:55.391.27-Mar-2021 3426.01 4772.29 60.37 6.00 261.87 3169.91
   07:06:55.591.27-Mar-2021 3426.01 4772.30 60.37 6.00 262.07 3169.91
   07:06:55.791.27-Mar-2021 3426.01 4772.30 60.37 6.00 262.27 3169.91
   07:06:55.991.27-Mar-2021 3426.01 4772.30 60.37 6.00 262.47 3169.91
   07:06:56.191.27-Mar-2021 3426.01 4772.27 60.37 6.00 262.67 3169.91
   07:06:56.391.27-Mar-2021 3426.01 4772.30 60.37 6.00 262.87 3169.91
   07:06:56.592.27-Mar-2021 3426.01 4772.19 60.37 6.00 263.07 3169.91
   07:06:56.792.27-Mar-2021 3426.01 4772.19 60.37 6.00 263.27 3169.91
   07:06:56.992.27-Mar-2021 3426.01 4772.29 60.37 6.00 263.47 3169.91
   07:06:57.192.27-Mar-2021 3426.01 4772.28 60.37 6.00 263.67 3169.91
   07:06:57.392.27-Mar-2021 3426.01 4772.29 60.37 6.00 263.87 3169.91
   07:06:57.592.27-Mar-2021 3426.01 4772.32 60.37 6.00 264.07 3169.91
   07:06:57.792.27-Mar-2021 3426.01 4772.32 60.37 6.00 264.27 3169.91
   07:06:57.992.27-Mar-2021 3426.01 4772.31 60.37 6.00 264.47 3169.91
   07:06:58.192.27-Mar-2021 3426.01 4772.29 60.37 6.00 264.67 3169.91
   07:06:58.392.27-Mar-2021 3426.01 4772.30 60.37 6.00 264.87 3169.91
   07:06:58.592.27-Mar-2021 3426.01 4772.31 60.37 6.00 265.07 3169.91
   07:06:58.792.27-Mar-2021 3426.01 4772.31 60.37 6.00 265.27 3169.91
   07:06:58.992.27-Mar-2021 3426.01 4772.28 60.37 6.00 265.47 3169.91
   07:06:59.192.27-Mar-2021 3426.01 4772.16 60.37 6.00 265.67 3169.91
   07:06:59.392.27-Mar-2021 3426.01 4772.42 60.37 6.00 265.87 3169.91
   07:06:59.592.27-Mar-2021 3426.01 4772.29 60.37 6.00 266.07 3169.91
   07:06:59.792.27-Mar-2021 3426.01 4772.29 60.37 6.00 266.27 3169.91
   07:06:59.992.27-Mar-2021 3426.01 4772.31 60.37 6.00 266.47 3169.91
   07:07:00.192.27-Mar-2021 3426.01 4772.27 60.37 6.00 266.67 3169.91
   07:07:00.392.27-Mar-2021 3426.01 4772.28 60.37 6.00 266.87 3169.91
   07:07:00.593.27-Mar-2021 3426.01 4772.19 60.37 6.00 267.07 3169.91
   07:07:00.793.27-Mar-2021 3426.01 4772.19 60.37 6.00 267.27 3169.91
   07:07:00.993.27-Mar-2021 3426.01 4725.10 60.37 6.00 267.47 3169.91
   07:07:01.193.27-Mar-2021 3426.01 4627.11 60.37 6.00 267.67 3169.91
   07:07:01.393.27-Mar-2021 3426.01 4617.48 60.38 6.00 267.87 3169.91
   07:07:01.593.27-Mar-2021 3426.01 4618.03 60.38 6.00 268.07 3169.91
   07:07:01.793.27-Mar-2021 3426.01 4618.03 60.38 6.00 268.27 3169.91
   07:07:01.993.27-Mar-2021 3426.01 4619.69 60.38 6.00 268.47 3169.91
   07:07:02.193.27-Mar-2021 3426.01 4617.62 60.38 6.00 268.67 3169.91
   07:07:02.393.27-Mar-2021 3426.01 4618.85 60.38 6.00 268.87 3169.91
   07:07:02.593.27-Mar-2021 3426.01 4617.69 60.38 6.00 269.07 3169.91
   07:07:02.793.27-Mar-2021 3426.01 4617.69 60.38 6.00 269.27 3169.91
   07:07:02.993.27-Mar-2021 3426.01 4616.84 60.38 6.00 269.47 3169.91
   07:07:03.193.27-Mar-2021 3426.01 4616.32 60.38 6.00 269.67 3169.91
   07:07:03.393.27-Mar-2021 3426.01 4616.86 60.38 6.00 269.87 3169.91
   07:07:03.593.27-Mar-2021 3426.01 4617.47 60.38 6.00 270.07 3169.91
   07:07:03.793.27-Mar-2021 3426.01 4617.47 60.38 6.00 270.27 3169.91
   07:07:03.993.27-Mar-2021 3426.01 4617.39 60.38 6.00 270.47 3169.91
   07:07:04.193.27-Mar-2021 3426.01 4617.36 60.38 6.00 270.67 3169.91
   07:07:04.393.27-Mar-2021 3426.01 4616.67 60.38 6.00 270.87 3169.91
   07:07:04.594.27-Mar-2021 3426.01 4615.84 60.37 6.00 271.07 3169.91
   07:07:04.794.27-Mar-2021 3426.01 4615.84 60.37 6.00 271.27 3169.91
   07:07:04.994.27-Mar-2021 3426.01 4616.76 60.37 6.00 271.47 3169.91
   07:07:05.194.27-Mar-2021 3426.01 4617.75 60.38 6.00 271.67 3169.91
   07:07:05.394.27-Mar-2021 3426.01 4616.30 60.37 6.00 271.87 3169.91
   07:07:05.594.27-Mar-2021 3426.01 4617.28 60.37 6.00 272.07 3169.91
   07:07:05.794.27-Mar-2021 3426.01 4617.28 60.37 6.00 272.27 3169.91
   07:07:05.994.27-Mar-2021 3426.01 4616.69 60.37 6.00 272.47 3169.91
   07:07:06.194.27-Mar-2021 3426.01 4615.20 60.37 6.00 272.67 3169.91
   07:07:06.394.27-Mar-2021 3426.01 4617.84 60.37 6.00 272.87 3169.91
   07:07:06.594.27-Mar-2021 3426.01 4617.37 60.37 6.00 273.07 3169.91
   07:07:06.794.27-Mar-2021 3426.01 4617.37 60.37 6.00 273.27 3169.91
   07:07:06.994.27-Mar-2021 3426.01 4617.28 60.37 6.00 273.47 3169.91
   07:07:07.194.27-Mar-2021 3426.01 4618.29 60.37 6.00 273.67 3169.91
   07:07:07.394.27-Mar-2021 3426.01 4618.48 60.37 6.00 273.87 3169.91
   07:07:07.594.27-Mar-2021 3426.01 4619.18 60.37 6.00 274.07 3169.91
   07:07:07.794.27-Mar-2021 3426.01 4619.18 60.37 6.00 274.27 3169.91
   07:07:07.994.27-Mar-2021 3426.01 4618.40 60.37 6.00 274.47 3169.91
   07:07:08.194.27-Mar-2021 3426.01 4618.71 60.37 6.00 274.67 3169.91
   07:07:08.394.27-Mar-2021 3426.01 4618.49 60.37 6.00 274.87 3169.91
   07:07:08.595.27-Mar-2021 3426.01 4618.30 60.37 6.00 275.07 3169.91
   07:07:08.795.27-Mar-2021 3426.01 4618.30 60.37 6.00 275.27 3169.91
   07:07:08.995.27-Mar-2021 3426.01 4618.10 60.37 6.00 275.47 3169.91
   07:07:09.195.27-Mar-2021 3426.01 4617.57 60.37 6.00 275.67 3169.91
   07:07:09.395.27-Mar-2021 3426.01 4617.12 60.37 6.00 275.87 3169.91
