~Version Information
 VERS.                  2.0:   CWLS log ASCII Standard -VERSION 2.0
 WRAP.                   NO:   One line per depth step
~Well Information Block
#MNEM.UNIT     VALUE/NAME     DESCRIPTION
#---------     -----------    ---------------------------
 STRT.S             11:05:10 27-Mar-21: START TIME 11:05:10 27-Mar-21
 STOP.S             11:12:21 27-Mar-21: STOP TIME  11:12:21 27-Mar-21
 STEP.S                   0.00: STEP TIME
 NULL.                 -999.25: NULL VALUE
 DFWT.                        :  DIST FWL TEXT
 DFST.                        :  DIST FSL TEXT
 DMF .             Drill Floor:  DRILL MEAS FROM
 STIM.      20.26.40 11-Mar-21:  START TIME
 DATE.      20.26.40 30-Mar-21:  END TIME
 SPUD.               11-Mar-21:  SPUD DATE
 NREF.                    Grid:  NORTH REFERENCE
 HPTY.       Minimum Curvature:  HOLE POS TYPE
 DMOD.             Drill Model:  DRILL MOD DESC
 SVYD.                  Survey:  SURVEY DESC
 ILTD.               Lithology:  INTERP LTH DESC
 FTOP.          Formation Tops:  FORM TOPS DESC
 SON .        AZ-XX-0906805385:  JOB NUMBER
 WTYP.                Deviated:  WELL TYPE
 COMP.     BP Exploration (Caspian Sea) Ltd.:  COMPANY
 UWI .            /AZE00000198:  UNIQUE WELL IDENTIFIER
 API .            /AZE00000198:  API NUMBER
 BASE.              Azerbaijan:  LOGGING EQUIPMENT BASE LOCATION
 REGN.                   EESSA:  REGION
 PROV.                    Baku:  PROVINCE
 STAT.                    Baku:  STATE NAME
 CTRY.              Azerbaijan:  COUNTRY NAME
 FLD .                     ACG:  FIELD NAME
 SRVC.     Turan Drilling & Engineering:  CONTRACTOR
 MWDS.                    Baku:  MWD SHOP
 WELL.                    D09z:  WELL NAME
 JOBN.        AZ-XX-0906805385:  JOB TICKET NUMB
 RIG .              East Azeri:  RIG NAME
 DOE .                     N/A:  DOE NUMBER
 DCON.         Sperry Drilling:  DIRECTNL CONTR
 UNIT.                     N/A:  LOGGING EQUIPMENT ID
 PDAT.          Mean Sea Level:  PERMANENT DATUM
 MDS .        Operator Entered:  MAG DATA SOURCE
 CNTY.                        :  COUNTY
 LOC .                        :  LOCATION
 LMF .             Drill Floor:  LOG MEASURED FROM
 TVDS.m                  43.60:  TVDSS CORRECTN
 LATI.deg                40.02:  LATITUDE
 LONG.deg                51.45:  LONGITUDE
 WHNS.m                 -17.04:  WELL HEAD N/S
 WHEW.m                  -6.28:  WELL HEAD E/W
 UTMX.m              538763.98:  UTM X
 UTMY.m             4431880.20:  UTM Y
 DFWL.m                   0.00:  DISTANCE FWL
 DFSL.m                   0.00:  DISTANCE FSL
 SDEP.m                2680.01:  START DEPTH
 TDD .m                4000.01:  TOTAL DEPTH (DRILLER)
 VSDR.deg               225.71:  VERT SEC DIRECT
 GVFD.g                   1.00:  GRAVITY FIELD
 MFLD.nT              50353.00:  MAGNETIC FIELD
 MDIP.deg                59.49:  MAGNETIC DIP
 MDEC.deg                 6.46:  MAGNETIC DECL
 GRDC.deg                 0.29:  GRID CORRECTION
 AZTC.deg                 6.17:  AZM TOTAL CORR
 EPD .m                   0.00:  ELEVATION
 EGL .m                   0.00:  GROUND ELEVATION
 WDMS.m                 151.80:  WD ELEV
 APD .m                  43.60:  DEPTH ABOVE PD
 AGAP.m                  43.60:  AIR GAP
 VSEW.m                  -6.28:  VERT SEC E/W
 VSNS.m                 -17.04:  VERT SEC N/S
 DEP .m                2656.31:  DEPTH
 EKB .m                  43.60:  KB ELEVATION
 EDF .m                  43.60:  DF ELEVATION
 VSC .                       0:  VS TO CLOSURE
 MAGU.                 1851247:  MAGUTM CHECKSUM
~Parameter Information Block
#MNEM.UNIT       Value        Description
#---------     -----------    ---------------------------
 AV  .mps                 3.00:  Ann Velocity 
 AVMX.mps                 8.00:  Max Ann Veloc 
 AZIF.deg                 0.00:  Azm, Final 
 BHAT.                   Other:  BHA Type 
 BREV.rev                 0.00:  Rev Bit Total 
 BROT.°/30m               0.00:  Build Rotating 
 BS  .in                 10.25:  Bit Size 
 BTPL.psig              511.00:  Bit Press Loss 
 CABU.                      No:  Customer Abuse 
 CGEO.           Asif Pashayev:  Customer Geo 
 COMM.                     $Ml:  Run Comments 1 
 TCS .hr                 24.03:  Time Ciculation Ended 
 CV  .mps                 3.50:  Crit Velocity 
 CVMX.mps                 4.00:  Max Crit Veloc 
 DD1 .             Aziz Aliyev:  Direct Drillr 1 
 DD2 .      Fakhraddin Guliyev:  Direct Drillr 2 
 DDSV.                   Other:  DD Service 
 DEFF.%                  99.00:  % Det Eff 
 DLRX.°/30m               0.00:  Dogleg Rot Max 
 DLSO.°/30m               0.00:  Dogleg Oriented 
 DLSX.°/30m               0.00:  Dogleg Str Max 
 DRET.      23.00.40 28-Mar-21:  Drill End Time 
 DRST.      23.30.40 25-Mar-21:  Drill Start Tim 
 DTIM.hr                  0.00:  Time Drilling 
 EDEP.m                3886.01:  End Depth 
 ENG1.         Almaz Almadatov:  Engineer 1 
 ENG2.      Artemiy Matviyanov:  Engineer 2 
 ENG3.           Samir Gafarov:  Engineer 3 
 ETIM.      23.00.40 28-Mar-21:  End Time 
 FLOI.gpm               550.00:  Flow In 
 FLON.gpm               500.00:  Flow In Min 
 FLOS.cptm                0.00:  Fluid Loss 
 FLOX.gpm               590.00:  Flow In Max 
 HFLO.                      No:  High Flow 
 HPRE.                      No:  High Pressure 
 HTEM.                      No:  High Temp 
 HYDO.m                   1.80:  Hydro Offset 
 IFIN.deg                 0.00:  Inc, Final 
 IMAX.deg                 0.00:  Inc Max 
 IMIN.deg                 0.00:  Inc Min 
 IMND.m                   0.00:  Inc Min Depth 
 IMXD.m                   0.00:  Inc Max Depth 
 JARR.                      No:  Jarring 
 LETM.      03.22.40 28-Mar-21:  Log End Time 
 LOST.hr                     0:  Lost Rig Time 
 LSTM.      23.30.40 25-Mar-21:  Log Start Time 
 MDCL.ppm             34000.00:  Mud Chlorides 
 MDES.     Inversion Oil/Synthetic:  Mud Desc 
 DFD .sg                  1.51:  Mud Density 
 MDMN.sg                  1.51:  Dens Mud Min 
 MDMX.sg                  1.51:  Dens Mud Max 
 MOIL.                      70:  Run Mud Oil % 
 MOWR.                   70:30:  Run Mud OWR 
 MSND.                     0.2:  Run Mud Sand % 
 MSOL.                   21.60:  Run Mud Solids% 
 DFV .spqt               74.00:  Mud Viscosity 
 MWOD.in                  6.75:  MWD Tool OD 
 MWSI.                      No:  Serv Intrp, MWD 
 OTIM.hr                 69.09:  Time Operating 
 PCON.           Look Like New:  Pad Condition 
 PMAX.psia             3500.00:  Press Op, Max 
 PV  .cP                 70.00:  Mud PV 
 RUN .                     400:  Run Number 
 ROPA.m/hr                0.00:  ROP Avg 
 ROPN.m/hr                0.00:  ROP Min 
 ROPX.m/hr                0.00:  ROP Max 
 RPMA.rpm                80.00:  RPM Surface Avg 
 RPMN.rpm                10.00:  RPM Surface Min 
 RPMX.rpm               100.00:  RPM Surface Max 
 RRUN.                    0400:  Rig Run Number 
 RTIM.hr                  3.00:  Time Reaming 
 SAZI.deg                 0.00:  Azm, Start 
 SDEP.m                3886.01:  Start Depth 
 SIDD.                      No:  Serv Intrp, DD 
 SINC.deg                 0.00:  Inc, Start 
 SPPA.psig             3270.00:  SPP Avg 
 SPPN.psig             3220.00:  SPP Min 
 SPPX.psig             4430.00:  SPP Max 
 STIM.      23.30.40 25-Mar-21:  Start Time 
 SVCS.                 DD, MWD:  Services 
 SVER.                    9.20:  Sperry Version 
 TDAT.m                   0.00:  Tot Depth Attmp 
 TDDF.                      No:  Trip for DD 
 TFF .                      No:  Trip for Fail 
 TQAA.f-kp                8.00:  Torque Abs Avg 
 TQAN.f-kp                7.00:  Torque Abs Min 
 TQAX.f-kp               11.00:  Torque Abs Max 
 TRRT.°/30m               0.00:  Turn Rotating 
 MRT .                  EWR-M5:  Maximum Recorded Temperature 
 TTMX.degC               76.47:  Max Tool Temp 
 VS01.                90640857:  Virtual Str1 SN 
 VS02.                90639246:  Virtual Str2 SN 
 VS03.                90642265:  Virtual Str3 SN 
 VS04.                11654497:  Virtual Str4 SN 
 WBMN.klb                 0.00:  WOB Min 
 WITN.      Kamran Keberlinkiy:  Customer Rep 
 WITN.           Murad Guliyev:  Customer Rep 2 
 WOBA.klb                 0.00:  WOB Avg 
 WOBX.klb                 0.00:  WOB Max 
 YP  .lhf2               36.00:  Yield Point 
~Curve Information Block
#MNEM.UNIT                 API CODE     Curve Description
#---------               -----------    ---------------------------
 TIME.HHMMSS            00 000 000 000:  GT Time & Date
 GTDEPTH.m              00 000 000 000:  GT Depth
 GTPQH.psia             00 000 000 000:  GT HR Quartz Pressure
 GTTQ.degC              00 000 000 000:  GT Quartz Temperature
 GTTN.NONE              00 000 000 000:  GT Test Number
 GTET.sec               00 000 000 000:  GT Elapsed Test Time
 GTTVD.m                00 000 000 000:  GT True Vertical Depth
#Other Information
#
#WARRANTY: Halliburton will use its best efforts to furnish customers with 
#accurate information and interpretations that are part of, and incident to, the services 
#provided.  However, Halliburton cannot and does not warrant the accuracy 
#or correctness of such information and interpretations.  Under no circumstances should any 
#such information or interpretation be relied upon as the sole basis for any drilling, 
#completion, production, or financial decision or any procedure involving any risk to the 
#safety of any drilling venture, drilling rig or its crew or any other third party.  The 
#Customer has full responsibility for all drilling, completion and production operation.  
#Halliburton makes no representations or warranties, either expressed or 
#implied, including, but not limited to, the implied warranties of merchantability or fitness 
#for a particular purpose, with respect to the services rendered.  In no event will 
#Halliburton be liable for failure to obtain any particular results or for 
#any damages, including, but not limited to, indirect, special or consequential damages, 
#resulting from the use of any information or interpretation provided by Halliburton.
#
~A           TIME           GTDEPTH  GTPQH  GTTQ  GTTN   GTET   GTTVD  
# ...
   11:07:25.859.27-Mar-2021 3279.01 4782.82 61.27 11.00 135.63 3032.17
   11:07:26.059.27-Mar-2021 3279.01 4782.84 61.27 11.00 135.83 3032.17
   11:07:26.259.27-Mar-2021 3279.01 4782.97 61.27 11.00 136.03 3032.17
   11:07:26.459.27-Mar-2021 3279.01 4782.97 61.27 11.00 136.23 3032.17
   11:07:26.659.27-Mar-2021 3279.01 4782.83 61.27 11.00 136.43 3032.17
   11:07:26.859.27-Mar-2021 3279.01 4782.83 61.27 11.00 136.63 3032.17
   11:07:27.059.27-Mar-2021 3279.01 4782.55 61.27 11.00 136.83 3032.17
   11:07:27.259.27-Mar-2021 3279.01 4782.20 61.27 11.00 137.03 3032.17
   11:07:27.459.27-Mar-2021 3279.01 4782.20 61.27 11.00 137.23 3032.17
   11:07:27.659.27-Mar-2021 3279.01 4782.38 61.27 11.00 137.43 3032.17
   11:07:27.859.27-Mar-2021 3279.01 4782.96 61.27 11.00 137.63 3032.17
   11:07:28.059.27-Mar-2021 3279.01 4783.14 61.27 11.00 137.83 3032.17
   11:07:28.259.27-Mar-2021 3279.01 4783.13 61.27 11.00 138.03 3032.17
   11:07:28.459.27-Mar-2021 3279.01 4783.13 61.27 11.00 138.23 3032.17
   11:07:28.659.27-Mar-2021 3279.01 4782.95 61.27 11.00 138.43 3032.17
   11:07:28.859.27-Mar-2021 3279.01 4782.84 61.27 11.00 138.63 3032.17
   11:07:29.059.27-Mar-2021 3279.01 4782.88 61.27 11.00 138.83 3032.17
   11:07:29.259.27-Mar-2021 3279.01 4782.85 61.27 11.00 139.03 3032.17
   11:07:29.459.27-Mar-2021 3279.01 4782.85 61.27 11.00 139.23 3032.17
   11:07:29.659.27-Mar-2021 3279.01 4782.47 61.27 11.00 139.43 3032.17
   11:07:29.859.27-Mar-2021 3279.01 4781.91 61.27 11.00 139.63 3032.17
   11:07:30.060.27-Mar-2021 3279.01 4782.66 61.27 11.00 139.83 3032.17
   11:07:30.260.27-Mar-2021 3279.01 4782.84 61.27 11.00 140.03 3032.17
   11:07:30.460.27-Mar-2021 3279.01 4782.84 61.27 11.00 140.23 3032.17
   11:07:30.660.27-Mar-2021 3279.01 4782.80 61.27 11.00 140.43 3032.17
   11:07:30.860.27-Mar-2021 3279.01 4782.73 61.27 11.00 140.63 3032.17
   11:07:31.060.27-Mar-2021 3279.01 4782.79 61.27 11.00 140.83 3032.17
   11:07:31.260.27-Mar-2021 3279.01 4782.18 61.27 11.00 141.03 3032.17
   11:07:31.460.27-Mar-2021 3279.01 4782.18 61.27 11.00 141.23 3032.17
   11:07:31.660.27-Mar-2021 3279.01 4782.97 61.27 11.00 141.43 3032.17
   11:07:31.860.27-Mar-2021 3279.01 4782.76 61.27 11.00 141.63 3032.17
   11:07:32.060.27-Mar-2021 3279.01 4782.66 61.27 11.00 141.83 3032.17
   11:07:32.260.27-Mar-2021 3279.01 4781.90 61.27 11.00 142.03 3032.17
   11:07:32.460.27-Mar-2021 3279.01 4781.90 61.27 11.00 142.23 3032.17
   11:07:32.660.27-Mar-2021 3279.01 4782.98 61.27 11.00 142.43 3032.17
   11:07:32.860.27-Mar-2021 3279.01 4782.85 61.27 11.00 142.63 3032.17
   11:07:33.060.27-Mar-2021 3279.01 4782.56 61.27 11.00 142.83 3032.17
   11:07:33.260.27-Mar-2021 3279.01 4782.75 61.27 11.00 143.03 3032.17
   11:07:33.460.27-Mar-2021 3279.01 4782.75 61.27 11.00 143.23 3032.17
   11:07:33.660.27-Mar-2021 3279.01 4783.61 61.27 11.00 143.43 3032.17
   11:07:33.860.27-Mar-2021 3279.01 4783.20 61.27 11.00 143.63 3032.17
   11:07:34.060.27-Mar-2021 3279.01 4782.84 61.27 11.00 143.83 3032.17
   11:07:34.261.27-Mar-2021 3279.01 4782.92 61.27 11.00 144.03 3032.17
   11:07:34.461.27-Mar-2021 3279.01 4782.92 61.27 11.00 144.23 3032.17
   11:07:34.661.27-Mar-2021 3279.01 4782.84 61.27 11.00 144.43 3032.17
   11:07:34.861.27-Mar-2021 3279.01 4782.83 61.27 11.00 144.63 3032.17
   11:07:35.061.27-Mar-2021 3279.01 4782.92 61.27 11.00 144.83 3032.17
   11:07:35.261.27-Mar-2021 3279.01 4782.84 61.27 11.00 145.03 3032.17
   11:07:35.461.27-Mar-2021 3279.01 4782.84 61.27 11.00 145.23 3032.17
   11:07:35.661.27-Mar-2021 3279.01 4782.85 61.27 11.00 145.43 3032.17
   11:07:35.861.27-Mar-2021 3279.01 4782.87 61.27 11.00 145.63 3032.17
   11:07:36.061.27-Mar-2021 3279.01 4782.75 61.27 11.00 145.83 3032.17
   11:07:36.261.27-Mar-2021 3279.01 4782.88 61.27 11.00 146.03 3032.17
   11:07:36.461.27-Mar-2021 3279.01 4782.88 61.27 11.00 146.23 3032.17
   11:07:36.661.27-Mar-2021 3279.01 4782.32 61.27 11.00 146.43 3032.17
   11:07:36.861.27-Mar-2021 3279.01 4782.76 61.27 11.00 146.63 3032.17
   11:07:37.061.27-Mar-2021 3279.01 4782.62 61.27 11.00 146.83 3032.17
   11:07:37.261.27-Mar-2021 3279.01 4782.40 61.27 11.00 147.03 3032.17
   11:07:37.461.27-Mar-2021 3279.01 4782.40 61.27 11.00 147.23 3032.17
   11:07:37.661.27-Mar-2021 3279.01 4783.00 61.27 11.00 147.43 3032.17
   11:07:37.861.27-Mar-2021 3279.01 4782.80 61.27 11.00 147.63 3032.17
   11:07:38.061.27-Mar-2021 3279.01 4782.87 61.27 11.00 147.83 3032.17
   11:07:38.261.27-Mar-2021 3279.01 4783.01 61.27 11.00 148.03 3032.17
   11:07:38.461.27-Mar-2021 3279.01 4783.01 61.27 11.00 148.23 3032.17
   11:07:38.662.27-Mar-2021 3279.01 4782.86 61.27 11.00 148.43 3032.17
   11:07:38.862.27-Mar-2021 3279.01 4782.83 61.27 11.00 148.63 3032.17
   11:07:39.062.27-Mar-2021 3279.01 4783.02 61.27 11.00 148.83 3032.17
   11:07:39.262.27-Mar-2021 3279.01 4781.87 61.27 11.00 149.03 3032.17
   11:07:39.462.27-Mar-2021 3279.01 4781.87 61.27 11.00 149.23 3032.17
   11:07:39.662.27-Mar-2021 3279.01 4782.73 61.27 11.00 149.43 3032.17
   11:07:39.862.27-Mar-2021 3279.01 4782.59 61.27 11.00 149.64 3032.17
   11:07:40.062.27-Mar-2021 3279.01 4782.70 61.27 11.00 149.84 3032.17
   11:07:40.262.27-Mar-2021 3279.01 4782.93 61.27 11.00 150.04 3032.17
   11:07:40.462.27-Mar-2021 3279.01 4782.93 61.27 11.00 150.24 3032.17
   11:07:40.662.27-Mar-2021 3279.01 4782.82 61.27 11.00 150.44 3032.17
   11:07:40.862.27-Mar-2021 3279.01 4781.44 61.27 11.00 150.64 3032.17
   11:07:41.062.27-Mar-2021 3279.01 4782.60 61.27 11.00 150.84 3032.17
   11:07:41.262.27-Mar-2021 3279.01 4783.05 61.27 11.00 151.04 3032.17
   11:07:41.462.27-Mar-2021 3279.01 4783.05 61.27 11.00 151.24 3032.17
   11:07:41.662.27-Mar-2021 3279.01 4782.57 61.27 11.00 151.44 3032.17
   11:07:41.862.27-Mar-2021 3279.01 4781.96 61.27 11.00 151.64 3032.17
   11:07:42.062.27-Mar-2021 3279.01 4782.07 61.27 11.00 151.84 3032.17
   11:07:42.262.27-Mar-2021 3279.01 4782.63 61.27 11.00 152.04 3032.17
   11:07:42.462.27-Mar-2021 3279.01 4782.63 61.27 11.00 152.24 3032.17
   11:07:42.662.27-Mar-2021 3279.01 4782.94 61.27 11.00 152.44 3032.17
   11:07:42.863.27-Mar-2021 3279.01 4782.75 61.27 11.00 152.64 3032.17
   11:07:43.063.27-Mar-2021 3279.01 4781.98 61.27 11.00 152.84 3032.17
   11:07:43.263.27-Mar-2021 3279.01 4782.92 61.27 11.00 153.04 3032.17
   11:07:43.463.27-Mar-2021 3279.01 4782.92 61.27 11.00 153.24 3032.17
   11:07:43.663.27-Mar-2021 3279.01 4782.46 61.27 11.00 153.44 3032.17
   11:07:43.863.27-Mar-2021 3279.01 4782.45 61.27 11.00 153.64 3032.17
   11:07:44.063.27-Mar-2021 3279.01 4782.78 61.27 11.00 153.84 3032.17
   11:07:44.263.27-Mar-2021 3279.01 4783.01 61.27 11.00 154.04 3032.17
   11:07:44.463.27-Mar-2021 3279.01 4783.01 61.27 11.00 154.24 3032.17
   11:07:44.663.27-Mar-2021 3279.01 4782.84 61.27 11.00 154.44 3032.17
   11:07:44.863.27-Mar-2021 3279.01 4782.65 61.27 11.00 154.64 3032.17
   11:07:45.063.27-Mar-2021 3279.01 4782.88 61.27 11.00 154.84 3032.17
   11:07:45.263.27-Mar-2021 3279.01 4782.74 61.27 11.00 155.04 3032.17
   11:07:45.463.27-Mar-2021 3279.01 4782.74 61.27 11.00 155.24 3032.17
   11:07:45.663.27-Mar-2021 3279.01 4782.85 61.27 11.00 155.44 3032.17
   11:07:45.863.27-Mar-2021 3279.01 4782.86 61.27 11.00 155.64 3032.17
   11:07:46.063.27-Mar-2021 3279.01 4782.84 61.27 11.00 155.84 3032.17
   11:07:46.263.27-Mar-2021 3279.01 4781.58 61.27 11.00 156.04 3032.17
   11:07:46.463.27-Mar-2021 3279.01 4781.58 61.27 11.00 156.24 3032.17
   11:07:46.663.27-Mar-2021 3279.01 4783.16 61.27 11.00 156.44 3032.17
   11:07:46.863.27-Mar-2021 3279.01 4782.44 61.27 11.00 156.64 3032.17
   11:07:47.063.27-Mar-2021 3279.01 4782.81 61.27 11.00 156.84 3032.17
   11:07:47.264.27-Mar-2021 3279.01 4782.77 61.27 11.00 157.04 3032.17
   11:07:47.464.27-Mar-2021 3279.01 4782.77 61.27 11.00 157.24 3032.17
   11:07:47.664.27-Mar-2021 3279.01 4782.85 61.27 11.00 157.44 3032.17
   11:07:47.864.27-Mar-2021 3279.01 4782.86 61.27 11.00 157.64 3032.17
   11:07:48.064.27-Mar-2021 3279.01 4782.87 61.27 11.00 157.84 3032.17
   11:07:48.264.27-Mar-2021 3279.01 4783.04 61.27 11.00 158.04 3032.17
