~Version Information
 VERS.                  2.0:   CWLS log ASCII Standard -VERSION 2.0
 WRAP.                   NO:   One line per depth step
~Well Information Block
#MNEM.UNIT     VALUE/NAME     DESCRIPTION
#---------     -----------    ---------------------------
 STRT.S             12:17:14 27-Mar-21: START TIME 12:17:14 27-Mar-21
 STOP.S             12:24:16 27-Mar-21: STOP TIME  12:24:16 27-Mar-21
 STEP.S                   0.00: STEP TIME
 NULL.                 -999.25: NULL VALUE
 DFWT.                        :  DIST FWL TEXT
 DFST.                        :  DIST FSL TEXT
 DMF .             Drill Floor:  DRILL MEAS FROM
 STIM.      20.26.40 11-Mar-21:  START TIME
 DATE.      20.26.40 30-Mar-21:  END TIME
 SPUD.               11-Mar-21:  SPUD DATE
 NREF.                    Grid:  NORTH REFERENCE
 HPTY.       Minimum Curvature:  HOLE POS TYPE
 DMOD.             Drill Model:  DRILL MOD DESC
 SVYD.                  Survey:  SURVEY DESC
 ILTD.               Lithology:  INTERP LTH DESC
 FTOP.          Formation Tops:  FORM TOPS DESC
 SON .        AZ-XX-0906805385:  JOB NUMBER
 WTYP.                Deviated:  WELL TYPE
 COMP.     BP Exploration (Caspian Sea) Ltd.:  COMPANY
 UWI .            /AZE00000198:  UNIQUE WELL IDENTIFIER
 API .            /AZE00000198:  API NUMBER
 BASE.              Azerbaijan:  LOGGING EQUIPMENT BASE LOCATION
 REGN.                   EESSA:  REGION
 PROV.                    Baku:  PROVINCE
 STAT.                    Baku:  STATE NAME
 CTRY.              Azerbaijan:  COUNTRY NAME
 FLD .                     ACG:  FIELD NAME
 SRVC.     Turan Drilling & Engineering:  CONTRACTOR
 MWDS.                    Baku:  MWD SHOP
 WELL.                    D09z:  WELL NAME
 JOBN.        AZ-XX-0906805385:  JOB TICKET NUMB
 RIG .              East Azeri:  RIG NAME
 DOE .                     N/A:  DOE NUMBER
 DCON.         Sperry Drilling:  DIRECTNL CONTR
 UNIT.                     N/A:  LOGGING EQUIPMENT ID
 PDAT.          Mean Sea Level:  PERMANENT DATUM
 MDS .        Operator Entered:  MAG DATA SOURCE
 CNTY.                        :  COUNTY
 LOC .                        :  LOCATION
 LMF .             Drill Floor:  LOG MEASURED FROM
 TVDS.m                  43.60:  TVDSS CORRECTN
 LATI.deg                40.02:  LATITUDE
 LONG.deg                51.45:  LONGITUDE
 WHNS.m                 -17.04:  WELL HEAD N/S
 WHEW.m                  -6.28:  WELL HEAD E/W
 UTMX.m              538763.98:  UTM X
 UTMY.m             4431880.20:  UTM Y
 DFWL.m                   0.00:  DISTANCE FWL
 DFSL.m                   0.00:  DISTANCE FSL
 SDEP.m                2680.01:  START DEPTH
 TDD .m                4000.01:  TOTAL DEPTH (DRILLER)
 VSDR.deg               225.71:  VERT SEC DIRECT
 GVFD.g                   1.00:  GRAVITY FIELD
 MFLD.nT              50353.00:  MAGNETIC FIELD
 MDIP.deg                59.49:  MAGNETIC DIP
 MDEC.deg                 6.46:  MAGNETIC DECL
 GRDC.deg                 0.29:  GRID CORRECTION
 AZTC.deg                 6.17:  AZM TOTAL CORR
 EPD .m                   0.00:  ELEVATION
 EGL .m                   0.00:  GROUND ELEVATION
 WDMS.m                 151.80:  WD ELEV
 APD .m                  43.60:  DEPTH ABOVE PD
 AGAP.m                  43.60:  AIR GAP
 VSEW.m                  -6.28:  VERT SEC E/W
 VSNS.m                 -17.04:  VERT SEC N/S
 DEP .m                2656.31:  DEPTH
 EKB .m                  43.60:  KB ELEVATION
 EDF .m                  43.60:  DF ELEVATION
 VSC .                       0:  VS TO CLOSURE
 MAGU.                 1851247:  MAGUTM CHECKSUM
~Parameter Information Block
#MNEM.UNIT       Value        Description
#---------     -----------    ---------------------------
 AV  .mps                 3.00:  Ann Velocity 
 AVMX.mps                 8.00:  Max Ann Veloc 
 AZIF.deg                 0.00:  Azm, Final 
 BHAT.                   Other:  BHA Type 
 BREV.rev                 0.00:  Rev Bit Total 
 BROT.°/30m               0.00:  Build Rotating 
 BS  .in                 10.25:  Bit Size 
 BTPL.psig              511.00:  Bit Press Loss 
 CABU.                      No:  Customer Abuse 
 CGEO.           Asif Pashayev:  Customer Geo 
 COMM.                     4'd:  Run Comments 1 
 TCS .hr                 24.03:  Time Ciculation Ended 
 CV  .mps                 3.50:  Crit Velocity 
 CVMX.mps                 4.00:  Max Crit Veloc 
 DD1 .             Aziz Aliyev:  Direct Drillr 1 
 DD2 .      Fakhraddin Guliyev:  Direct Drillr 2 
 DDSV.                   Other:  DD Service 
 DEFF.%                  99.00:  % Det Eff 
 DLRX.°/30m               0.00:  Dogleg Rot Max 
 DLSO.°/30m               0.00:  Dogleg Oriented 
 DLSX.°/30m               0.00:  Dogleg Str Max 
 DRET.      23.00.40 28-Mar-21:  Drill End Time 
 DRST.      23.30.40 25-Mar-21:  Drill Start Tim 
 DTIM.hr                  0.00:  Time Drilling 
 EDEP.m                3886.01:  End Depth 
 ENG1.         Almaz Almadatov:  Engineer 1 
 ENG2.      Artemiy Matviyanov:  Engineer 2 
 ENG3.           Samir Gafarov:  Engineer 3 
 ETIM.      23.00.40 28-Mar-21:  End Time 
 FLOI.gpm               550.00:  Flow In 
 FLON.gpm               500.00:  Flow In Min 
 FLOS.cptm                0.00:  Fluid Loss 
 FLOX.gpm               590.00:  Flow In Max 
 HFLO.                      No:  High Flow 
 HPRE.                      No:  High Pressure 
 HTEM.                      No:  High Temp 
 HYDO.m                   1.80:  Hydro Offset 
 IFIN.deg                 0.00:  Inc, Final 
 IMAX.deg                 0.00:  Inc Max 
 IMIN.deg                 0.00:  Inc Min 
 IMND.m                   0.00:  Inc Min Depth 
 IMXD.m                   0.00:  Inc Max Depth 
 JARR.                      No:  Jarring 
 LETM.      03.22.40 28-Mar-21:  Log End Time 
 LOST.hr                     0:  Lost Rig Time 
 LSTM.      23.30.40 25-Mar-21:  Log Start Time 
 MDCL.ppm             34000.00:  Mud Chlorides 
 MDES.     Inversion Oil/Synthetic:  Mud Desc 
 DFD .sg                  1.51:  Mud Density 
 MDMN.sg                  1.51:  Dens Mud Min 
 MDMX.sg                  1.51:  Dens Mud Max 
 MOIL.                      70:  Run Mud Oil % 
 MOWR.                   70:30:  Run Mud OWR 
 MSND.                     0.2:  Run Mud Sand % 
 MSOL.                   21.60:  Run Mud Solids% 
 DFV .spqt               74.00:  Mud Viscosity 
 MWOD.in                  6.75:  MWD Tool OD 
 MWSI.                      No:  Serv Intrp, MWD 
 OTIM.hr                 69.09:  Time Operating 
 PCON.           Look Like New:  Pad Condition 
 PMAX.psia             3500.00:  Press Op, Max 
 PV  .cP                 70.00:  Mud PV 
 RUN .                     400:  Run Number 
 ROPA.m/hr                0.00:  ROP Avg 
 ROPN.m/hr                0.00:  ROP Min 
 ROPX.m/hr                0.00:  ROP Max 
 RPMA.rpm                80.00:  RPM Surface Avg 
 RPMN.rpm                10.00:  RPM Surface Min 
 RPMX.rpm               100.00:  RPM Surface Max 
 RRUN.                    0400:  Rig Run Number 
 RTIM.hr                  3.00:  Time Reaming 
 SAZI.deg                 0.00:  Azm, Start 
 SDEP.m                3886.01:  Start Depth 
 SIDD.                      No:  Serv Intrp, DD 
 SINC.deg                 0.00:  Inc, Start 
 SPPA.psig             3270.00:  SPP Avg 
 SPPN.psig             3220.00:  SPP Min 
 SPPX.psig             4430.00:  SPP Max 
 STIM.      23.30.40 25-Mar-21:  Start Time 
 SVCS.                 DD, MWD:  Services 
 SVER.                    9.20:  Sperry Version 
 TDAT.m                   0.00:  Tot Depth Attmp 
 TDDF.                      No:  Trip for DD 
 TFF .                      No:  Trip for Fail 
 TQAA.f-kp                8.00:  Torque Abs Avg 
 TQAN.f-kp                7.00:  Torque Abs Min 
 TQAX.f-kp               11.00:  Torque Abs Max 
 TRRT.°/30m               0.00:  Turn Rotating 
 MRT .                  EWR-M5:  Maximum Recorded Temperature 
 TTMX.degC               76.47:  Max Tool Temp 
 VS01.                90640857:  Virtual Str1 SN 
 VS02.                90639246:  Virtual Str2 SN 
 VS03.                90642265:  Virtual Str3 SN 
 VS04.                11654497:  Virtual Str4 SN 
 WBMN.klb                 0.00:  WOB Min 
 WITN.      Kamran Keberlinkiy:  Customer Rep 
 WITN.           Murad Guliyev:  Customer Rep 2 
 WOBA.klb                 0.00:  WOB Avg 
 WOBX.klb                 0.00:  WOB Max 
 YP  .lhf2               36.00:  Yield Point 
~Curve Information Block
#MNEM.UNIT                 API CODE     Curve Description
#---------               -----------    ---------------------------
 TIME.HHMMSS            00 000 000 000:  GT Time & Date
 GTDEPTH.m              00 000 000 000:  GT Depth
 GTPQH.psia             00 000 000 000:  GT HR Quartz Pressure
 GTTQ.degC              00 000 000 000:  GT Quartz Temperature
 GTTN.NONE              00 000 000 000:  GT Test Number
 GTET.sec               00 000 000 000:  GT Elapsed Test Time
 GTTVD.m                00 000 000 000:  GT True Vertical Depth
#Other Information
#
#WARRANTY: Halliburton will use its best efforts to furnish customers with 
#accurate information and interpretations that are part of, and incident to, the services 
#provided.  However, Halliburton cannot and does not warrant the accuracy 
#or correctness of such information and interpretations.  Under no circumstances should any 
#such information or interpretation be relied upon as the sole basis for any drilling, 
#completion, production, or financial decision or any procedure involving any risk to the 
#safety of any drilling venture, drilling rig or its crew or any other third party.  The 
#Customer has full responsibility for all drilling, completion and production operation.  
#Halliburton makes no representations or warranties, either expressed or 
#implied, including, but not limited to, the implied warranties of merchantability or fitness 
#for a particular purpose, with respect to the services rendered.  In no event will 
#Halliburton be liable for failure to obtain any particular results or for 
#any damages, including, but not limited to, indirect, special or consequential damages, 
#resulting from the use of any information or interpretation provided by Halliburton.
#
~A           TIME           GTDEPTH  GTPQH  GTTQ  GTTN   GTET   GTTVD  
   12:17:14.723.27-Mar-2021 3369.01 7258.82 62.08 12.00   0.00 3116.52
   12:17:14.923.27-Mar-2021 3369.01 7258.82 62.08 12.00   0.20 3116.52
   12:17:15.123.27-Mar-2021 3369.01 7260.22 62.08 12.00   0.40 3116.52
   12:17:15.323.27-Mar-2021 3369.01 7260.26 62.07 12.00   0.60 3116.52
   12:17:15.523.27-Mar-2021 3369.01 7260.77 62.07 12.00   0.80 3116.52
   12:17:15.723.27-Mar-2021 3369.01 7262.26 62.07 12.00   1.00 3116.52
   12:17:15.923.27-Mar-2021 3369.01 7262.26 62.07 12.00   1.20 3116.52
   12:17:16.124.27-Mar-2021 3369.01 7261.54 62.07 12.00   1.40 3116.52
   12:17:16.324.27-Mar-2021 3369.01 7261.97 62.07 12.00   1.60 3116.52
   12:17:16.524.27-Mar-2021 3369.01 7261.57 62.07 12.00   1.80 3116.52
   12:17:16.724.27-Mar-2021 3369.01 7261.52 62.07 12.00   2.00 3116.52
   12:17:16.924.27-Mar-2021 3369.01 7261.52 62.07 12.00   2.20 3116.52
   12:17:17.124.27-Mar-2021 3369.01 7261.72 62.07 12.00   2.40 3116.52
   12:17:17.324.27-Mar-2021 3369.01 7262.44 62.07 12.00   2.60 3116.52
   12:17:17.525.27-Mar-2021 3369.01 7262.60 62.07 12.00   2.80 3116.52
   12:17:17.725.27-Mar-2021 3369.01 7262.75 62.07 12.00   3.00 3116.52
   12:17:17.925.27-Mar-2021 3369.01 7262.75 62.07 12.00   3.20 3116.52
   12:17:18.125.27-Mar-2021 3369.01 7262.91 62.07 12.00   3.40 3116.52
   12:17:18.325.27-Mar-2021 3369.01 7263.41 62.07 12.00   3.60 3116.52
   12:17:18.525.27-Mar-2021 3369.01 7263.41 62.07 12.00   3.80 3116.52
   12:17:18.725.27-Mar-2021 3369.01 7263.31 62.07 12.00   4.00 3116.52
   12:17:18.925.27-Mar-2021 3369.01 7263.31 62.07 12.00   4.20 3116.52
   12:17:19.126.27-Mar-2021 3369.01 7266.75 62.07 12.00   4.40 3116.52
   12:17:19.326.27-Mar-2021 3369.01 7263.19 62.07 12.00   4.60 3116.52
   12:17:19.526.27-Mar-2021 3369.01 7264.37 62.07 12.00   4.80 3116.52
   12:17:19.726.27-Mar-2021 3369.01 7264.01 62.07 12.00   5.00 3116.52
   12:17:19.926.27-Mar-2021 3369.01 7264.01 62.07 12.00   5.20 3116.52
   12:17:20.126.27-Mar-2021 3369.01 7264.12 62.07 12.00   5.40 3116.52
   12:17:20.326.27-Mar-2021 3369.01 7264.06 62.07 12.00   5.60 3116.52
   12:17:20.527.27-Mar-2021 3369.01 7264.27 62.07 12.00   5.80 3116.52
   12:17:20.727.27-Mar-2021 3369.01 7265.51 62.07 12.00   6.00 3116.52
   12:17:20.927.27-Mar-2021 3369.01 7265.51 62.07 12.00   6.20 3116.52
   12:17:21.127.27-Mar-2021 3369.01 7266.43 62.07 12.00   6.40 3116.52
   12:17:21.327.27-Mar-2021 3369.01 7265.34 62.07 12.00   6.60 3116.52
   12:17:21.527.27-Mar-2021 3369.01 7265.77 62.07 12.00   6.80 3116.52
   12:17:21.727.27-Mar-2021 3369.01 7265.45 62.07 12.00   7.00 3116.52
   12:17:21.928.27-Mar-2021 3369.01 7265.45 62.07 12.00   7.21 3116.52
   12:17:22.128.27-Mar-2021 3369.01 7265.78 62.07 12.00   7.41 3116.52
   12:17:22.328.27-Mar-2021 3369.01 7266.22 62.06 12.00   7.61 3116.52
   12:17:22.528.27-Mar-2021 3369.01 7266.84 62.06 12.00   7.81 3116.52
   12:17:22.728.27-Mar-2021 3369.01 7266.79 62.06 12.00   8.01 3116.52
   12:17:22.928.27-Mar-2021 3369.01 7266.79 62.06 12.00   8.21 3116.52
   12:17:23.128.27-Mar-2021 3369.01 7266.66 62.06 12.00   8.41 3116.52
   12:17:23.329.27-Mar-2021 3369.01 7266.62 62.06 12.00   8.61 3116.52
   12:17:23.529.27-Mar-2021 3369.01 7270.92 62.06 12.00   8.81 3116.52
   12:17:23.729.27-Mar-2021 3369.01 7267.41 62.06 12.00   9.01 3116.52
   12:17:23.929.27-Mar-2021 3369.01 7267.41 62.06 12.00   9.21 3116.52
   12:17:24.129.27-Mar-2021 3369.01 7267.84 62.06 12.00   9.41 3116.52
   12:17:24.329.27-Mar-2021 3369.01 7269.26 62.06 12.00   9.61 3116.52
   12:17:24.529.27-Mar-2021 3369.01 7269.87 62.06 12.00   9.81 3116.52
   12:17:24.730.27-Mar-2021 3369.01 7268.02 62.06 12.00  10.01 3116.52
   12:17:24.930.27-Mar-2021 3369.01 7268.02 62.06 12.00  10.21 3116.52
   12:17:25.130.27-Mar-2021 3369.01 7269.28 62.06 12.00  10.41 3116.52
   12:17:25.330.27-Mar-2021 3369.01 7268.88 62.06 12.00  10.61 3116.52
   12:17:25.530.27-Mar-2021 3369.01 7270.46 62.06 12.00  10.81 3116.52
   12:17:25.730.27-Mar-2021 3369.01 7270.16 62.06 12.00  11.01 3116.52
   12:17:25.930.27-Mar-2021 3369.01 7270.16 62.06 12.00  11.21 3116.52
   12:17:26.131.27-Mar-2021 3369.01 7269.74 62.06 12.00  11.41 3116.52
   12:17:26.331.27-Mar-2021 3369.01 7269.10 62.06 12.00  11.61 3116.52
   12:17:26.531.27-Mar-2021 3369.01 7269.19 62.06 12.00  11.81 3116.52
   12:17:26.731.27-Mar-2021 3369.01 7272.78 62.06 12.00  12.01 3116.52
   12:17:26.931.27-Mar-2021 3369.01 7272.78 62.06 12.00  12.21 3116.52
   12:17:27.131.27-Mar-2021 3369.01 7270.79 62.06 12.00  12.41 3116.52
   12:17:27.331.27-Mar-2021 3369.01 7270.57 62.06 12.00  12.61 3116.52
   12:17:27.532.27-Mar-2021 3369.01 7271.55 62.06 12.00  12.81 3116.52
   12:17:27.732.27-Mar-2021 3369.01 7272.12 62.06 12.00  13.01 3116.52
   12:17:27.932.27-Mar-2021 3369.01 7272.12 62.06 12.00  13.21 3116.52
   12:17:28.132.27-Mar-2021 3369.01 7270.97 62.06 12.00  13.41 3116.52
   12:17:28.332.27-Mar-2021 3369.01 7270.96 62.06 12.00  13.61 3116.52
   12:17:28.532.27-Mar-2021 3369.01 7270.38 62.06 12.00  13.81 3116.52
   12:17:28.732.27-Mar-2021 3369.01 7270.78 62.06 12.00  14.01 3116.52
   12:17:28.933.27-Mar-2021 3369.01 7270.78 62.06 12.00  14.21 3116.52
   12:17:29.133.27-Mar-2021 3369.01 7270.52 62.05 12.00  14.41 3116.52
   12:17:29.333.27-Mar-2021 3369.01 7272.05 62.05 12.00  14.61 3116.52
   12:17:29.533.27-Mar-2021 3369.01 7272.41 62.05 12.00  14.81 3116.52
   12:17:29.733.27-Mar-2021 3369.01 7272.05 62.05 12.00  15.01 3116.52
   12:17:29.933.27-Mar-2021 3369.01 7272.05 62.05 12.00  15.21 3116.52
   12:17:30.133.27-Mar-2021 3369.01 7272.05 62.05 12.00  15.41 3116.52
   12:17:30.334.27-Mar-2021 3369.01 7271.60 62.05 12.00  15.61 3116.52
   12:17:30.534.27-Mar-2021 3369.01 7272.23 62.05 12.00  15.81 3116.52
   12:17:30.734.27-Mar-2021 3369.01 7271.68 62.05 12.00  16.01 3116.52
   12:17:30.934.27-Mar-2021 3369.01 7271.68 62.05 12.00  16.21 3116.52
   12:17:31.134.27-Mar-2021 3369.01 7271.81 62.05 12.00  16.41 3116.52
   12:17:31.334.27-Mar-2021 3369.01 7271.73 62.05 12.00  16.61 3116.52
   12:17:31.534.27-Mar-2021 3369.01 7271.80 62.05 12.00  16.81 3116.52
   12:17:31.735.27-Mar-2021 3369.01 7271.93 62.05 12.00  17.01 3116.52
   12:17:31.935.27-Mar-2021 3369.01 7271.93 62.05 12.00  17.21 3116.52
   12:17:32.135.27-Mar-2021 3369.01 7271.60 62.05 12.00  17.41 3116.52
   12:17:32.335.27-Mar-2021 3369.01 7275.31 62.05 12.00  17.61 3116.52
   12:17:32.535.27-Mar-2021 3369.01 7271.61 62.05 12.00  17.81 3116.52
   12:17:32.735.27-Mar-2021 3369.01 7272.66 62.05 12.00  18.01 3116.52
   12:17:32.935.27-Mar-2021 3369.01 7272.66 62.05 12.00  18.21 3116.52
   12:17:33.136.27-Mar-2021 3369.01 7272.04 62.05 12.00  18.41 3116.52
   12:17:33.336.27-Mar-2021 3369.01 7271.92 62.05 12.00  18.61 3116.52
   12:17:33.536.27-Mar-2021 3369.01 7272.05 62.05 12.00  18.81 3116.52
   12:17:33.736.27-Mar-2021 3369.01 7271.89 62.05 12.00  19.01 3116.52
   12:17:33.936.27-Mar-2021 3369.01 7271.89 62.05 12.00  19.21 3116.52
   12:17:34.136.27-Mar-2021 3369.01 7272.44 62.05 12.00  19.41 3116.52
   12:17:34.336.27-Mar-2021 3369.01 7272.69 62.05 12.00  19.61 3116.52
   12:17:34.537.27-Mar-2021 3369.01 7272.78 62.05 12.00  19.81 3116.52
   12:17:34.737.27-Mar-2021 3369.01 7272.79 62.05 12.00  20.01 3116.52
   12:17:34.937.27-Mar-2021 3369.01 7272.79 62.05 12.00  20.21 3116.52
   12:17:35.137.27-Mar-2021 3369.01 7273.28 62.05 12.00  20.41 3116.52
   12:17:35.337.27-Mar-2021 3369.01 7273.13 62.05 12.00  20.61 3116.52
   12:17:35.537.27-Mar-2021 3369.01 7272.94 62.05 12.00  20.81 3116.52
   12:17:35.737.27-Mar-2021 3369.01 7276.72 62.05 12.00  21.01 3116.52
   12:17:35.938.27-Mar-2021 3369.01 7276.72 62.05 12.00  21.21 3116.52
   12:17:36.138.27-Mar-2021 3369.01 7273.34 62.04 12.00  21.42 3116.52
   12:17:36.338.27-Mar-2021 3369.01 7273.53 62.04 12.00  21.62 3116.52
   12:17:36.538.27-Mar-2021 3369.01 7273.15 62.04 12.00  21.82 3116.52
   12:17:36.738.27-Mar-2021 3369.01 7276.78 62.04 12.00  22.02 3116.52
   12:17:36.938.27-Mar-2021 3369.01 7276.78 62.04 12.00  22.22 3116.52
   12:17:37.138.27-Mar-2021 3369.01 7273.68 62.04 12.00  22.42 3116.52
