~Version Information
 VERS.                  2.0:   CWLS log ASCII Standard -VERSION 2.0
 WRAP.                   NO:   One line per depth step
~Well Information Block
#MNEM.UNIT     VALUE/NAME     DESCRIPTION
#---------     -----------    ---------------------------
 STRT.S             06:42:15 27-Mar-21: START TIME 06:42:15 27-Mar-21
 STOP.S             06:49:25 27-Mar-21: STOP TIME  06:49:25 27-Mar-21
 STEP.S                   0.00: STEP TIME
 NULL.                 -999.25: NULL VALUE
 DFWT.                        :  DIST FWL TEXT
 DFST.                        :  DIST FSL TEXT
 DMF .             Drill Floor:  DRILL MEAS FROM
 STIM.      20.26.40 11-Mar-21:  START TIME
 DATE.      20.26.40 30-Mar-21:  END TIME
 SPUD.               11-Mar-21:  SPUD DATE
 NREF.                    Grid:  NORTH REFERENCE
 HPTY.       Minimum Curvature:  HOLE POS TYPE
 DMOD.             Drill Model:  DRILL MOD DESC
 SVYD.                  Survey:  SURVEY DESC
 ILTD.               Lithology:  INTERP LTH DESC
 FTOP.          Formation Tops:  FORM TOPS DESC
 SON .        AZ-XX-0906805385:  JOB NUMBER
 WTYP.                Deviated:  WELL TYPE
 COMP.     BP Exploration (Caspian Sea) Ltd.:  COMPANY
 UWI .            /AZE00000198:  UNIQUE WELL IDENTIFIER
 API .            /AZE00000198:  API NUMBER
 BASE.              Azerbaijan:  LOGGING EQUIPMENT BASE LOCATION
 REGN.                   EESSA:  REGION
 PROV.                    Baku:  PROVINCE
 STAT.                    Baku:  STATE NAME
 CTRY.              Azerbaijan:  COUNTRY NAME
 FLD .                     ACG:  FIELD NAME
 SRVC.     Turan Drilling & Engineering:  CONTRACTOR
 MWDS.                    Baku:  MWD SHOP
 WELL.                    D09z:  WELL NAME
 JOBN.        AZ-XX-0906805385:  JOB TICKET NUMB
 RIG .              East Azeri:  RIG NAME
 DOE .                     N/A:  DOE NUMBER
 DCON.         Sperry Drilling:  DIRECTNL CONTR
 UNIT.                     N/A:  LOGGING EQUIPMENT ID
 PDAT.          Mean Sea Level:  PERMANENT DATUM
 MDS .        Operator Entered:  MAG DATA SOURCE
 CNTY.                        :  COUNTY
 LOC .                        :  LOCATION
 LMF .             Drill Floor:  LOG MEASURED FROM
 TVDS.m                  43.60:  TVDSS CORRECTN
 LATI.deg                40.02:  LATITUDE
 LONG.deg                51.45:  LONGITUDE
 WHNS.m                 -17.04:  WELL HEAD N/S
 WHEW.m                  -6.28:  WELL HEAD E/W
 UTMX.m              538763.98:  UTM X
 UTMY.m             4431880.20:  UTM Y
 DFWL.m                   0.00:  DISTANCE FWL
 DFSL.m                   0.00:  DISTANCE FSL
 SDEP.m                2680.01:  START DEPTH
 TDD .m                4000.01:  TOTAL DEPTH (DRILLER)
 VSDR.deg               225.71:  VERT SEC DIRECT
 GVFD.g                   1.00:  GRAVITY FIELD
 MFLD.nT              50353.00:  MAGNETIC FIELD
 MDIP.deg                59.49:  MAGNETIC DIP
 MDEC.deg                 6.46:  MAGNETIC DECL
 GRDC.deg                 0.29:  GRID CORRECTION
 AZTC.deg                 6.17:  AZM TOTAL CORR
 EPD .m                   0.00:  ELEVATION
 EGL .m                   0.00:  GROUND ELEVATION
 WDMS.m                 151.80:  WD ELEV
 APD .m                  43.60:  DEPTH ABOVE PD
 AGAP.m                  43.60:  AIR GAP
 VSEW.m                  -6.28:  VERT SEC E/W
 VSNS.m                 -17.04:  VERT SEC N/S
 DEP .m                2656.31:  DEPTH
 EKB .m                  43.60:  KB ELEVATION
 EDF .m                  43.60:  DF ELEVATION
 VSC .                       0:  VS TO CLOSURE
 MAGU.                 1851247:  MAGUTM CHECKSUM
~Parameter Information Block
#MNEM.UNIT       Value        Description
#---------     -----------    ---------------------------
 AV  .mps                 3.00:  Ann Velocity 
 AVMX.mps                 8.00:  Max Ann Veloc 
 AZIF.deg                 0.00:  Azm, Final 
 BHAT.                   Other:  BHA Type 
 BREV.rev                 0.00:  Rev Bit Total 
 BROT.°/30m               0.00:  Build Rotating 
 BS  .in                 10.25:  Bit Size 
 BTPL.psig              511.00:  Bit Press Loss 
 CABU.                      No:  Customer Abuse 
 CGEO.           Asif Pashayev:  Customer Geo 
 COMM.                     lÇi:  Run Comments 1 
 TCS .hr                 24.03:  Time Ciculation Ended 
 CV  .mps                 3.50:  Crit Velocity 
 CVMX.mps                 4.00:  Max Crit Veloc 
 DD1 .             Aziz Aliyev:  Direct Drillr 1 
 DD2 .      Fakhraddin Guliyev:  Direct Drillr 2 
 DDSV.                   Other:  DD Service 
 DEFF.%                  99.00:  % Det Eff 
 DLRX.°/30m               0.00:  Dogleg Rot Max 
 DLSO.°/30m               0.00:  Dogleg Oriented 
 DLSX.°/30m               0.00:  Dogleg Str Max 
 DRET.      23.00.40 28-Mar-21:  Drill End Time 
 DRST.      23.30.40 25-Mar-21:  Drill Start Tim 
 DTIM.hr                  0.00:  Time Drilling 
 EDEP.m                3886.01:  End Depth 
 ENG1.         Almaz Almadatov:  Engineer 1 
 ENG2.      Artemiy Matviyanov:  Engineer 2 
 ENG3.           Samir Gafarov:  Engineer 3 
 ETIM.      23.00.40 28-Mar-21:  End Time 
 FLOI.gpm               550.00:  Flow In 
 FLON.gpm               500.00:  Flow In Min 
 FLOS.cptm                0.00:  Fluid Loss 
 FLOX.gpm               590.00:  Flow In Max 
 HFLO.                      No:  High Flow 
 HPRE.                      No:  High Pressure 
 HTEM.                      No:  High Temp 
 HYDO.m                   1.80:  Hydro Offset 
 IFIN.deg                 0.00:  Inc, Final 
 IMAX.deg                 0.00:  Inc Max 
 IMIN.deg                 0.00:  Inc Min 
 IMND.m                   0.00:  Inc Min Depth 
 IMXD.m                   0.00:  Inc Max Depth 
 JARR.                      No:  Jarring 
 LETM.      03.22.40 28-Mar-21:  Log End Time 
 LOST.hr                     0:  Lost Rig Time 
 LSTM.      23.30.40 25-Mar-21:  Log Start Time 
 MDCL.ppm             34000.00:  Mud Chlorides 
 MDES.     Inversion Oil/Synthetic:  Mud Desc 
 DFD .sg                  1.51:  Mud Density 
 MDMN.sg                  1.51:  Dens Mud Min 
 MDMX.sg                  1.51:  Dens Mud Max 
 MOIL.                      70:  Run Mud Oil % 
 MOWR.                   70:30:  Run Mud OWR 
 MSND.                     0.2:  Run Mud Sand % 
 MSOL.                   21.60:  Run Mud Solids% 
 DFV .spqt               74.00:  Mud Viscosity 
 MWOD.in                  6.75:  MWD Tool OD 
 MWSI.                      No:  Serv Intrp, MWD 
 OTIM.hr                 69.09:  Time Operating 
 PCON.           Look Like New:  Pad Condition 
 PMAX.psia             3500.00:  Press Op, Max 
 PV  .cP                 70.00:  Mud PV 
 RUN .                     400:  Run Number 
 ROPA.m/hr                0.00:  ROP Avg 
 ROPN.m/hr                0.00:  ROP Min 
 ROPX.m/hr                0.00:  ROP Max 
 RPMA.rpm                80.00:  RPM Surface Avg 
 RPMN.rpm                10.00:  RPM Surface Min 
 RPMX.rpm               100.00:  RPM Surface Max 
 RRUN.                    0400:  Rig Run Number 
 RTIM.hr                  3.00:  Time Reaming 
 SAZI.deg                 0.00:  Azm, Start 
 SDEP.m                3886.01:  Start Depth 
 SIDD.                      No:  Serv Intrp, DD 
 SINC.deg                 0.00:  Inc, Start 
 SPPA.psig             3270.00:  SPP Avg 
 SPPN.psig             3220.00:  SPP Min 
 SPPX.psig             4430.00:  SPP Max 
 STIM.      23.30.40 25-Mar-21:  Start Time 
 SVCS.                 DD, MWD:  Services 
 SVER.                    9.20:  Sperry Version 
 TDAT.m                   0.00:  Tot Depth Attmp 
 TDDF.                      No:  Trip for DD 
 TFF .                      No:  Trip for Fail 
 TQAA.f-kp                8.00:  Torque Abs Avg 
 TQAN.f-kp                7.00:  Torque Abs Min 
 TQAX.f-kp               11.00:  Torque Abs Max 
 TRRT.°/30m               0.00:  Turn Rotating 
 MRT .                  EWR-M5:  Maximum Recorded Temperature 
 TTMX.degC               76.47:  Max Tool Temp 
 VS01.                90640857:  Virtual Str1 SN 
 VS02.                90639246:  Virtual Str2 SN 
 VS03.                90642265:  Virtual Str3 SN 
 VS04.                11654497:  Virtual Str4 SN 
 WBMN.klb                 0.00:  WOB Min 
 WITN.      Kamran Keberlinkiy:  Customer Rep 
 WITN.           Murad Guliyev:  Customer Rep 2 
 WOBA.klb                 0.00:  WOB Avg 
 WOBX.klb                 0.00:  WOB Max 
 YP  .lhf2               36.00:  Yield Point 
~Curve Information Block
#MNEM.UNIT                 API CODE     Curve Description
#---------               -----------    ---------------------------
 TIME.HHMMSS            00 000 000 000:  GT Time & Date
 GTDEPTH.m              00 000 000 000:  GT Depth
 GTPQH.psia             00 000 000 000:  GT HR Quartz Pressure
 GTTQ.degC              00 000 000 000:  GT Quartz Temperature
 GTTN.NONE              00 000 000 000:  GT Test Number
 GTET.sec               00 000 000 000:  GT Elapsed Test Time
 GTTVD.m                00 000 000 000:  GT True Vertical Depth
#Other Information
#
#WARRANTY: Halliburton will use its best efforts to furnish customers with 
#accurate information and interpretations that are part of, and incident to, the services 
#provided.  However, Halliburton cannot and does not warrant the accuracy 
#or correctness of such information and interpretations.  Under no circumstances should any 
#such information or interpretation be relied upon as the sole basis for any drilling, 
#completion, production, or financial decision or any procedure involving any risk to the 
#safety of any drilling venture, drilling rig or its crew or any other third party.  The 
#Customer has full responsibility for all drilling, completion and production operation.  
#Halliburton makes no representations or warranties, either expressed or 
#implied, including, but not limited to, the implied warranties of merchantability or fitness 
#for a particular purpose, with respect to the services rendered.  In no event will 
#Halliburton be liable for failure to obtain any particular results or for 
#any damages, including, but not limited to, indirect, special or consequential damages, 
#resulting from the use of any information or interpretation provided by Halliburton.
#
~A           TIME           GTDEPTH  GTPQH  GTTQ  GTTN  GTET   GTTVD  
# ...
   06:48:23.314.27-Mar-2021 3443.51 5070.84 60.35 5.00 368.09 3186.30
   06:48:23.514.27-Mar-2021 3443.51 5070.84 60.35 5.00 368.29 3186.30
   06:48:23.714.27-Mar-2021 3443.51 5070.79 60.35 5.00 368.49 3186.30
   06:48:23.914.27-Mar-2021 3443.51 5071.22 60.35 5.00 368.69 3186.30
   06:48:24.115.27-Mar-2021 3443.51 5071.33 60.35 5.00 368.89 3186.30
   06:48:24.315.27-Mar-2021 3443.51 5071.12 60.35 5.00 369.09 3186.30
   06:48:24.515.27-Mar-2021 3443.51 5071.12 60.35 5.00 369.29 3186.30
   06:48:24.715.27-Mar-2021 3443.51 5071.02 60.35 5.00 369.49 3186.30
   06:48:24.915.27-Mar-2021 3443.51 5071.18 60.35 5.00 369.69 3186.30
   06:48:25.115.27-Mar-2021 3443.51 5070.97 60.35 5.00 369.89 3186.30
   06:48:25.315.27-Mar-2021 3443.51 5070.98 60.35 5.00 370.09 3186.30
   06:48:25.515.27-Mar-2021 3443.51 5070.98 60.35 5.00 370.29 3186.30
   06:48:25.715.27-Mar-2021 3443.51 5071.10 60.35 5.00 370.49 3186.30
   06:48:25.915.27-Mar-2021 3443.51 5071.26 60.35 5.00 370.69 3186.30
   06:48:26.115.27-Mar-2021 3443.51 5071.14 60.35 5.00 370.89 3186.30
   06:48:26.315.27-Mar-2021 3443.51 5070.99 60.35 5.00 371.09 3186.30
   06:48:26.515.27-Mar-2021 3443.51 5070.99 60.35 5.00 371.29 3186.30
   06:48:26.715.27-Mar-2021 3443.51 5071.22 60.35 5.00 371.49 3186.30
   06:48:26.915.27-Mar-2021 3443.51 5070.98 60.35 5.00 371.69 3186.30
   06:48:27.115.27-Mar-2021 3443.51 5071.24 60.35 5.00 371.89 3186.30
   06:48:27.315.27-Mar-2021 3443.51 5070.84 60.35 5.00 372.09 3186.30
   06:48:27.515.27-Mar-2021 3443.51 5070.84 60.35 5.00 372.29 3186.30
   06:48:27.715.27-Mar-2021 3443.51 5070.90 60.35 5.00 372.49 3186.30
   06:48:27.915.27-Mar-2021 3443.51 5071.05 60.35 5.00 372.69 3186.30
   06:48:28.116.27-Mar-2021 3443.51 5071.18 60.35 5.00 372.89 3186.30
   06:48:28.316.27-Mar-2021 3443.51 5071.03 60.35 5.00 373.09 3186.30
   06:48:28.516.27-Mar-2021 3443.51 5071.03 60.35 5.00 373.29 3186.30
   06:48:28.716.27-Mar-2021 3443.51 5083.80 60.35 5.00 373.49 3186.30
   06:48:28.916.27-Mar-2021 3443.51 5099.96 60.35 5.00 373.69 3186.30
   06:48:29.116.27-Mar-2021 3443.51 6183.54 60.35 5.00 373.89 3186.30
   06:48:29.316.27-Mar-2021 3443.51 7422.54 60.35 5.00 374.09 3186.30
   06:48:29.516.27-Mar-2021 3443.51 7422.54 60.35 5.00 374.29 3186.30
   06:48:29.716.27-Mar-2021 3443.51 7421.23 60.36 5.00 374.49 3186.30
   06:48:29.916.27-Mar-2021 3443.51 7421.86 60.36 5.00 374.69 3186.30
   06:48:30.116.27-Mar-2021 3443.51 7423.15 60.36 5.00 374.89 3186.30
   06:48:30.316.27-Mar-2021 3443.51 7423.30 60.36 5.00 375.09 3186.30
   06:48:30.516.27-Mar-2021 3443.51 7423.30 60.36 5.00 375.29 3186.30
   06:48:30.716.27-Mar-2021 3443.51 7423.27 60.36 5.00 375.49 3186.30
   06:48:30.916.27-Mar-2021 3443.51 7424.25 60.36 5.00 375.69 3186.30
   06:48:31.116.27-Mar-2021 3443.51 7424.17 60.36 5.00 375.89 3186.30
   06:48:31.316.27-Mar-2021 3443.51 7425.18 60.36 5.00 376.09 3186.30
   06:48:31.516.27-Mar-2021 3443.51 7425.18 60.36 5.00 376.29 3186.30
   06:48:31.716.27-Mar-2021 3443.51 7425.54 60.37 5.00 376.49 3186.30
   06:48:31.916.27-Mar-2021 3443.51 7425.69 60.37 5.00 376.69 3186.30
   06:48:32.117.27-Mar-2021 3443.51 7427.88 60.37 5.00 376.89 3186.30
   06:48:32.317.27-Mar-2021 3443.51 7427.90 60.37 5.00 377.09 3186.30
   06:48:32.517.27-Mar-2021 3443.51 7427.90 60.37 5.00 377.29 3186.30
   06:48:32.717.27-Mar-2021 3443.51 7427.21 60.37 5.00 377.49 3186.30
   06:48:32.917.27-Mar-2021 3443.51 7426.63 60.37 5.00 377.69 3186.30
   06:48:33.117.27-Mar-2021 3443.51 7427.03 60.38 5.00 377.89 3186.30
   06:48:33.317.27-Mar-2021 3443.51 7425.68 60.38 5.00 378.09 3186.30
   06:48:33.517.27-Mar-2021 3443.51 7425.68 60.38 5.00 378.29 3186.30
   06:48:33.717.27-Mar-2021 3443.51 7425.25 60.38 5.00 378.49 3186.30
   06:48:33.917.27-Mar-2021 3443.51 7427.06 60.38 5.00 378.69 3186.30
   06:48:34.117.27-Mar-2021 3443.51 7427.49 60.38 5.00 378.89 3186.30
   06:48:34.317.27-Mar-2021 3443.51 7427.02 60.39 5.00 379.09 3186.30
   06:48:34.517.27-Mar-2021 3443.51 7427.02 60.39 5.00 379.29 3186.30
   06:48:34.717.27-Mar-2021 3443.51 7426.83 60.39 5.00 379.49 3186.30
   06:48:34.917.27-Mar-2021 3443.51 7430.89 60.39 5.00 379.69 3186.30
   06:48:35.117.27-Mar-2021 3443.51 7426.46 60.39 5.00 379.89 3186.30
   06:48:35.317.27-Mar-2021 3443.51 7428.29 60.39 5.00 380.09 3186.30
   06:48:35.517.27-Mar-2021 3443.51 7428.29 60.39 5.00 380.29 3186.30
   06:48:35.717.27-Mar-2021 3443.51 7428.26 60.40 5.00 380.49 3186.30
   06:48:35.917.27-Mar-2021 3443.51 7431.04 60.40 5.00 380.69 3186.30
   06:48:36.118.27-Mar-2021 3443.51 7427.49 60.40 5.00 380.89 3186.30
   06:48:36.318.27-Mar-2021 3443.51 7428.39 60.40 5.00 381.09 3186.30
   06:48:36.518.27-Mar-2021 3443.51 7428.39 60.40 5.00 381.29 3186.30
   06:48:36.718.27-Mar-2021 3443.51 7428.49 60.40 5.00 381.49 3186.30
   06:48:36.918.27-Mar-2021 3443.51 7427.18 60.40 5.00 381.70 3186.30
   06:48:37.118.27-Mar-2021 3443.51 7427.36 60.40 5.00 381.90 3186.30
   06:48:37.318.27-Mar-2021 3443.51 7427.23 60.40 5.00 382.10 3186.30
   06:48:37.518.27-Mar-2021 3443.51 7427.23 60.40 5.00 382.30 3186.30
   06:48:37.718.27-Mar-2021 3443.51 7427.74 60.40 5.00 382.50 3186.30
   06:48:37.918.27-Mar-2021 3443.51 7427.63 60.41 5.00 382.70 3186.30
   06:48:38.118.27-Mar-2021 3443.51 7427.95 60.41 5.00 382.90 3186.30
   06:48:38.318.27-Mar-2021 3443.51 7427.94 60.41 5.00 383.10 3186.30
   06:48:38.518.27-Mar-2021 3443.51 7427.94 60.41 5.00 383.30 3186.30
   06:48:38.718.27-Mar-2021 3443.51 7427.68 60.41 5.00 383.50 3186.30
   06:48:38.918.27-Mar-2021 3443.51 7427.52 60.41 5.00 383.70 3186.30
   06:48:39.118.27-Mar-2021 3443.51 7431.60 60.41 5.00 383.90 3186.30
   06:48:39.318.27-Mar-2021 3443.51 7426.64 60.41 5.00 384.10 3186.30
   06:48:39.518.27-Mar-2021 3443.51 7426.64 60.41 5.00 384.30 3186.30
   06:48:39.718.27-Mar-2021 3443.51 7428.31 60.41 5.00 384.50 3186.30
   06:48:39.918.27-Mar-2021 3443.51 7428.02 60.41 5.00 384.70 3186.30
   06:48:40.119.27-Mar-2021 3443.51 7427.55 60.41 5.00 384.90 3186.30
   06:48:40.319.27-Mar-2021 3443.51 7426.80 60.41 5.00 385.10 3186.30
   06:48:40.519.27-Mar-2021 3443.51 7426.80 60.41 5.00 385.30 3186.30
   06:48:40.719.27-Mar-2021 3443.51 7426.54 60.41 5.00 385.50 3186.30
   06:48:40.919.27-Mar-2021 3443.51 7427.60 60.41 5.00 385.70 3186.30
   06:48:41.119.27-Mar-2021 3443.51 7427.40 60.41 5.00 385.90 3186.30
   06:48:41.319.27-Mar-2021 3443.51 7427.46 60.41 5.00 386.10 3186.30
   06:48:41.519.27-Mar-2021 3443.51 7427.46 60.41 5.00 386.30 3186.30
   06:48:41.719.27-Mar-2021 3443.51 7427.63 60.41 5.00 386.50 3186.30
   06:48:41.919.27-Mar-2021 3443.51 7431.37 60.41 5.00 386.70 3186.30
   06:48:42.119.27-Mar-2021 3443.51 7427.22 60.41 5.00 386.90 3186.30
   06:48:42.319.27-Mar-2021 3443.51 7427.83 60.41 5.00 387.10 3186.30
   06:48:42.519.27-Mar-2021 3443.51 7427.83 60.41 5.00 387.30 3186.30
   06:48:42.719.27-Mar-2021 3443.51 7431.64 60.41 5.00 387.50 3186.30
   06:48:42.919.27-Mar-2021 3443.51 7426.85 60.41 5.00 387.70 3186.30
   06:48:43.119.27-Mar-2021 3443.51 7427.22 60.41 5.00 387.90 3186.30
   06:48:43.319.27-Mar-2021 3443.51 7427.74 60.41 5.00 388.10 3186.30
   06:48:43.519.27-Mar-2021 3443.51 7427.74 60.41 5.00 388.30 3186.30
   06:48:43.719.27-Mar-2021 3443.51 7427.35 60.41 5.00 388.50 3186.30
   06:48:43.919.27-Mar-2021 3443.51 7427.72 60.41 5.00 388.70 3186.30
   06:48:44.120.27-Mar-2021 3443.51 7428.02 60.41 5.00 388.90 3186.30
   06:48:44.320.27-Mar-2021 3443.51 7427.99 60.41 5.00 389.10 3186.30
   06:48:44.520.27-Mar-2021 3443.51 7427.99 60.41 5.00 389.30 3186.30
   06:48:44.720.27-Mar-2021 3443.51 7431.34 60.41 5.00 389.50 3186.30
   06:48:44.920.27-Mar-2021 3443.51 7427.46 60.41 5.00 389.70 3186.30
   06:48:45.120.27-Mar-2021 3443.51 7428.47 60.41 5.00 389.90 3186.30
   06:48:45.320.27-Mar-2021 3443.51 7429.09 60.41 5.00 390.10 3186.30
   06:48:45.520.27-Mar-2021 3443.51 7429.09 60.41 5.00 390.30 3186.30
   06:48:45.720.27-Mar-2021 3443.51 7428.23 60.41 5.00 390.50 3186.30
   06:48:45.920.27-Mar-2021 3443.51 7427.96 60.41 5.00 390.70 3186.30
   06:48:46.120.27-Mar-2021 3443.51 7427.98 60.41 5.00 390.90 3186.30
