~Version Information
 VERS.                  2.0:   CWLS log ASCII Standard -VERSION 2.0
 WRAP.                   NO:   One line per depth step
~Well Information Block
#MNEM.UNIT     VALUE/NAME     DESCRIPTION
#---------     -----------    ---------------------------
 STRT.S             03:27:53 27-Mar-21: START TIME 03:27:53 27-Mar-21
 STOP.S             03:35:02 27-Mar-21: STOP TIME  03:35:02 27-Mar-21
 STEP.S                   0.00: STEP TIME
 NULL.                 -999.25: NULL VALUE
 DFWT.                        :  DIST FWL TEXT
 DFST.                        :  DIST FSL TEXT
 DMF .             Drill Floor:  DRILL MEAS FROM
 STIM.      20.26.40 11-Mar-21:  START TIME
 DATE.      20.26.40 30-Mar-21:  END TIME
 SPUD.               11-Mar-21:  SPUD DATE
 NREF.                    Grid:  NORTH REFERENCE
 HPTY.       Minimum Curvature:  HOLE POS TYPE
 DMOD.             Drill Model:  DRILL MOD DESC
 SVYD.                  Survey:  SURVEY DESC
 ILTD.               Lithology:  INTERP LTH DESC
 FTOP.          Formation Tops:  FORM TOPS DESC
 SON .        AZ-XX-0906805385:  JOB NUMBER
 WTYP.                Deviated:  WELL TYPE
 COMP.     BP Exploration (Caspian Sea) Ltd.:  COMPANY
 UWI .            /AZE00000198:  UNIQUE WELL IDENTIFIER
 API .            /AZE00000198:  API NUMBER
 BASE.              Azerbaijan:  LOGGING EQUIPMENT BASE LOCATION
 REGN.                   EESSA:  REGION
 PROV.                    Baku:  PROVINCE
 STAT.                    Baku:  STATE NAME
 CTRY.              Azerbaijan:  COUNTRY NAME
 FLD .                     ACG:  FIELD NAME
 SRVC.     Turan Drilling & Engineering:  CONTRACTOR
 MWDS.                    Baku:  MWD SHOP
 WELL.                    D09z:  WELL NAME
 JOBN.        AZ-XX-0906805385:  JOB TICKET NUMB
 RIG .              East Azeri:  RIG NAME
 DOE .                     N/A:  DOE NUMBER
 DCON.         Sperry Drilling:  DIRECTNL CONTR
 UNIT.                     N/A:  LOGGING EQUIPMENT ID
 PDAT.          Mean Sea Level:  PERMANENT DATUM
 MDS .        Operator Entered:  MAG DATA SOURCE
 CNTY.                        :  COUNTY
 LOC .                        :  LOCATION
 LMF .             Drill Floor:  LOG MEASURED FROM
 TVDS.m                  43.60:  TVDSS CORRECTN
 LATI.deg                40.02:  LATITUDE
 LONG.deg                51.45:  LONGITUDE
 WHNS.m                 -17.04:  WELL HEAD N/S
 WHEW.m                  -6.28:  WELL HEAD E/W
 UTMX.m              538763.98:  UTM X
 UTMY.m             4431880.20:  UTM Y
 DFWL.m                   0.00:  DISTANCE FWL
 DFSL.m                   0.00:  DISTANCE FSL
 SDEP.m                2680.01:  START DEPTH
 TDD .m                4000.01:  TOTAL DEPTH (DRILLER)
 VSDR.deg               225.71:  VERT SEC DIRECT
 GVFD.g                   1.00:  GRAVITY FIELD
 MFLD.nT              50353.00:  MAGNETIC FIELD
 MDIP.deg                59.49:  MAGNETIC DIP
 MDEC.deg                 6.46:  MAGNETIC DECL
 GRDC.deg                 0.29:  GRID CORRECTION
 AZTC.deg                 6.17:  AZM TOTAL CORR
 EPD .m                   0.00:  ELEVATION
 EGL .m                   0.00:  GROUND ELEVATION
 WDMS.m                 151.80:  WD ELEV
 APD .m                  43.60:  DEPTH ABOVE PD
 AGAP.m                  43.60:  AIR GAP
 VSEW.m                  -6.28:  VERT SEC E/W
 VSNS.m                 -17.04:  VERT SEC N/S
 DEP .m                2656.31:  DEPTH
 EKB .m                  43.60:  KB ELEVATION
 EDF .m                  43.60:  DF ELEVATION
 VSC .                       0:  VS TO CLOSURE
 MAGU.                 1851247:  MAGUTM CHECKSUM
~Parameter Information Block
#MNEM.UNIT       Value        Description
#---------     -----------    ---------------------------
 AV  .mps                 3.00:  Ann Velocity 
 AVMX.mps                 8.00:  Max Ann Veloc 
 AZIF.deg                 0.00:  Azm, Final 
 BHAT.                   Other:  BHA Type 
 BREV.rev                 0.00:  Rev Bit Total 
 BROT.°/30m               0.00:  Build Rotating 
 BS  .in                 10.25:  Bit Size 
 BTPL.psig              511.00:  Bit Press Loss 
 CABU.                      No:  Customer Abuse 
 CGEO.           Asif Pashayev:  Customer Geo 
 COMM.                     ¼Fy:  Run Comments 1 
 TCS .hr                 24.03:  Time Ciculation Ended 
 CV  .mps                 3.50:  Crit Velocity 
 CVMX.mps                 4.00:  Max Crit Veloc 
 DD1 .             Aziz Aliyev:  Direct Drillr 1 
 DD2 .      Fakhraddin Guliyev:  Direct Drillr 2 
 DDSV.                   Other:  DD Service 
 DEFF.%                  99.00:  % Det Eff 
 DLRX.°/30m               0.00:  Dogleg Rot Max 
 DLSO.°/30m               0.00:  Dogleg Oriented 
 DLSX.°/30m               0.00:  Dogleg Str Max 
 DRET.      23.00.40 28-Mar-21:  Drill End Time 
 DRST.      23.30.40 25-Mar-21:  Drill Start Tim 
 DTIM.hr                  0.00:  Time Drilling 
 EDEP.m                3886.01:  End Depth 
 ENG1.         Almaz Almadatov:  Engineer 1 
 ENG2.      Artemiy Matviyanov:  Engineer 2 
 ENG3.           Samir Gafarov:  Engineer 3 
 ETIM.      23.00.40 28-Mar-21:  End Time 
 FLOI.gpm               550.00:  Flow In 
 FLON.gpm               500.00:  Flow In Min 
 FLOS.cptm                0.00:  Fluid Loss 
 FLOX.gpm               590.00:  Flow In Max 
 HFLO.                      No:  High Flow 
 HPRE.                      No:  High Pressure 
 HTEM.                      No:  High Temp 
 HYDO.m                   1.80:  Hydro Offset 
 IFIN.deg                 0.00:  Inc, Final 
 IMAX.deg                 0.00:  Inc Max 
 IMIN.deg                 0.00:  Inc Min 
 IMND.m                   0.00:  Inc Min Depth 
 IMXD.m                   0.00:  Inc Max Depth 
 JARR.                      No:  Jarring 
 LETM.      03.22.40 28-Mar-21:  Log End Time 
 LOST.hr                     0:  Lost Rig Time 
 LSTM.      23.30.40 25-Mar-21:  Log Start Time 
 MDCL.ppm             34000.00:  Mud Chlorides 
 MDES.     Inversion Oil/Synthetic:  Mud Desc 
 DFD .sg                  1.51:  Mud Density 
 MDMN.sg                  1.51:  Dens Mud Min 
 MDMX.sg                  1.51:  Dens Mud Max 
 MOIL.                      70:  Run Mud Oil % 
 MOWR.                   70:30:  Run Mud OWR 
 MSND.                     0.2:  Run Mud Sand % 
 MSOL.                   21.60:  Run Mud Solids% 
 DFV .spqt               74.00:  Mud Viscosity 
 MWOD.in                  6.75:  MWD Tool OD 
 MWSI.                      No:  Serv Intrp, MWD 
 OTIM.hr                 69.09:  Time Operating 
 PCON.           Look Like New:  Pad Condition 
 PMAX.psia             3500.00:  Press Op, Max 
 PV  .cP                 70.00:  Mud PV 
 RUN .                     400:  Run Number 
 ROPA.m/hr                0.00:  ROP Avg 
 ROPN.m/hr                0.00:  ROP Min 
 ROPX.m/hr                0.00:  ROP Max 
 RPMA.rpm                80.00:  RPM Surface Avg 
 RPMN.rpm                10.00:  RPM Surface Min 
 RPMX.rpm               100.00:  RPM Surface Max 
 RRUN.                    0400:  Rig Run Number 
 RTIM.hr                  3.00:  Time Reaming 
 SAZI.deg                 0.00:  Azm, Start 
 SDEP.m                3886.01:  Start Depth 
 SIDD.                      No:  Serv Intrp, DD 
 SINC.deg                 0.00:  Inc, Start 
 SPPA.psig             3270.00:  SPP Avg 
 SPPN.psig             3220.00:  SPP Min 
 SPPX.psig             4430.00:  SPP Max 
 STIM.      23.30.40 25-Mar-21:  Start Time 
 SVCS.                 DD, MWD:  Services 
 SVER.                    9.20:  Sperry Version 
 TDAT.m                   0.00:  Tot Depth Attmp 
 TDDF.                      No:  Trip for DD 
 TFF .                      No:  Trip for Fail 
 TQAA.f-kp                8.00:  Torque Abs Avg 
 TQAN.f-kp                7.00:  Torque Abs Min 
 TQAX.f-kp               11.00:  Torque Abs Max 
 TRRT.°/30m               0.00:  Turn Rotating 
 MRT .                  EWR-M5:  Maximum Recorded Temperature 
 TTMX.degC               76.47:  Max Tool Temp 
 VS01.                90640857:  Virtual Str1 SN 
 VS02.                90639246:  Virtual Str2 SN 
 VS03.                90642265:  Virtual Str3 SN 
 VS04.                11654497:  Virtual Str4 SN 
 WBMN.klb                 0.00:  WOB Min 
 WITN.      Kamran Keberlinkiy:  Customer Rep 
 WITN.           Murad Guliyev:  Customer Rep 2 
 WOBA.klb                 0.00:  WOB Avg 
 WOBX.klb                 0.00:  WOB Max 
 YP  .lhf2               36.00:  Yield Point 
~Curve Information Block
#MNEM.UNIT                 API CODE     Curve Description
#---------               -----------    ---------------------------
 TIME.HHMMSS            00 000 000 000:  GT Time & Date
 GTDEPTH.m              00 000 000 000:  GT Depth
 GTPQH.psia             00 000 000 000:  GT HR Quartz Pressure
 GTTQ.degC              00 000 000 000:  GT Quartz Temperature
 GTTN.NONE              00 000 000 000:  GT Test Number
 GTET.sec               00 000 000 000:  GT Elapsed Test Time
 GTTVD.m                00 000 000 000:  GT True Vertical Depth
#Other Information
#
#WARRANTY: Halliburton will use its best efforts to furnish customers with 
#accurate information and interpretations that are part of, and incident to, the services 
#provided.  However, Halliburton cannot and does not warrant the accuracy 
#or correctness of such information and interpretations.  Under no circumstances should any 
#such information or interpretation be relied upon as the sole basis for any drilling, 
#completion, production, or financial decision or any procedure involving any risk to the 
#safety of any drilling venture, drilling rig or its crew or any other third party.  The 
#Customer has full responsibility for all drilling, completion and production operation.  
#Halliburton makes no representations or warranties, either expressed or 
#implied, including, but not limited to, the implied warranties of merchantability or fitness 
#for a particular purpose, with respect to the services rendered.  In no event will 
#Halliburton be liable for failure to obtain any particular results or for 
#any damages, including, but not limited to, indirect, special or consequential damages, 
#resulting from the use of any information or interpretation provided by Halliburton.
#
~A           TIME           GTDEPTH  GTPQH  GTTQ  GTTN  GTET   GTTVD  
# ...
   03:34:24.176.27-Mar-2021 3725.51 8018.47 61.52 3.00 391.05 3451.28
   03:34:24.376.27-Mar-2021 3725.51 8018.47 61.52 3.00 391.25 3451.28
   03:34:24.576.27-Mar-2021 3725.51 8017.86 61.52 3.00 391.45 3451.28
   03:34:24.776.27-Mar-2021 3725.51 8018.06 61.52 3.00 391.65 3451.28
   03:34:24.976.27-Mar-2021 3725.51 8018.13 61.52 3.00 391.85 3451.28
   03:34:25.176.27-Mar-2021 3725.51 8017.89 61.52 3.00 392.05 3451.28
   03:34:25.376.27-Mar-2021 3725.51 8017.89 61.52 3.00 392.25 3451.28
   03:34:25.576.27-Mar-2021 3725.51 8018.75 61.52 3.00 392.45 3451.28
   03:34:25.776.27-Mar-2021 3725.51 8018.51 61.52 3.00 392.65 3451.28
   03:34:25.976.27-Mar-2021 3725.51 8022.84 61.52 3.00 392.85 3451.28
   03:34:26.176.27-Mar-2021 3725.51 8019.69 61.52 3.00 393.05 3451.28
   03:34:26.376.27-Mar-2021 3725.51 8019.69 61.52 3.00 393.25 3451.28
   03:34:26.576.27-Mar-2021 3725.51 8020.80 61.52 3.00 393.45 3451.28
   03:34:26.776.27-Mar-2021 3725.51 8022.50 61.52 3.00 393.65 3451.28
   03:34:26.976.27-Mar-2021 3725.51 8019.00 61.52 3.00 393.85 3451.28
   03:34:27.176.27-Mar-2021 3725.51 8020.51 61.52 3.00 394.05 3451.28
   03:34:27.376.27-Mar-2021 3725.51 8020.51 61.52 3.00 394.25 3451.28
   03:34:27.576.27-Mar-2021 3725.51 8018.44 61.52 3.00 394.45 3451.28
   03:34:27.776.27-Mar-2021 3725.51 8018.08 61.52 3.00 394.65 3451.28
   03:34:27.976.27-Mar-2021 3725.51 8017.40 61.52 3.00 394.85 3451.28
   03:34:28.177.27-Mar-2021 3725.51 8022.20 61.52 3.00 395.05 3451.28
   03:34:28.377.27-Mar-2021 3725.51 8022.20 61.52 3.00 395.25 3451.28
   03:34:28.577.27-Mar-2021 3725.51 8020.45 61.52 3.00 395.45 3451.28
   03:34:28.777.27-Mar-2021 3725.51 8019.29 61.52 3.00 395.65 3451.28
   03:34:28.977.27-Mar-2021 3725.51 8019.95 61.52 3.00 395.85 3451.28
   03:34:29.177.27-Mar-2021 3725.51 8022.51 61.52 3.00 396.05 3451.28
   03:34:29.377.27-Mar-2021 3725.51 8022.51 61.52 3.00 396.25 3451.28
   03:34:29.577.27-Mar-2021 3725.51 8020.90 61.52 3.00 396.45 3451.28
   03:34:29.777.27-Mar-2021 3725.51 8019.02 61.52 3.00 396.65 3451.28
   03:34:29.977.27-Mar-2021 3725.51 8019.43 61.52 3.00 396.85 3451.28
   03:34:30.177.27-Mar-2021 3725.51 8018.69 61.52 3.00 397.05 3451.28
   03:34:30.377.27-Mar-2021 3725.51 8018.69 61.52 3.00 397.25 3451.28
   03:34:30.577.27-Mar-2021 3725.51 8018.93 61.52 3.00 397.45 3451.28
   03:34:30.777.27-Mar-2021 3725.51 8018.75 61.52 3.00 397.65 3451.28
   03:34:30.977.27-Mar-2021 3725.51 8018.45 61.52 3.00 397.85 3451.28
   03:34:31.177.27-Mar-2021 3725.51 8018.29 61.52 3.00 398.05 3451.28
   03:34:31.377.27-Mar-2021 3725.51 8018.29 61.52 3.00 398.25 3451.28
   03:34:31.577.27-Mar-2021 3725.51 8018.71 61.52 3.00 398.45 3451.28
   03:34:31.777.27-Mar-2021 3725.51 8019.48 61.52 3.00 398.65 3451.28
   03:34:31.977.27-Mar-2021 3725.51 8019.33 61.52 3.00 398.85 3451.28
   03:34:32.177.27-Mar-2021 3725.51 8019.00 61.52 3.00 399.05 3451.28
   03:34:32.377.27-Mar-2021 3725.51 8019.00 61.52 3.00 399.25 3451.28
   03:34:32.577.27-Mar-2021 3725.51 8020.05 61.52 3.00 399.45 3451.28
   03:34:32.777.27-Mar-2021 3725.51 8020.67 61.52 3.00 399.65 3451.28
   03:34:32.977.27-Mar-2021 3725.51 8019.50 61.52 3.00 399.85 3451.28
   03:34:33.177.27-Mar-2021 3725.51 8019.48 61.51 3.00 400.05 3451.28
   03:34:33.377.27-Mar-2021 3725.51 8019.48 61.51 3.00 400.25 3451.28
   03:34:33.577.27-Mar-2021 3725.51 8018.40 61.51 3.00 400.45 3451.28
   03:34:33.777.27-Mar-2021 3725.51 8018.09 61.51 3.00 400.65 3451.28
   03:34:33.977.27-Mar-2021 3725.51 8017.72 61.51 3.00 400.85 3451.28
   03:34:34.177.27-Mar-2021 3725.51 8017.81 61.51 3.00 401.05 3451.28
   03:34:34.377.27-Mar-2021 3725.51 8017.81 61.51 3.00 401.25 3451.28
   03:34:34.577.27-Mar-2021 3725.51 8017.27 61.51 3.00 401.45 3451.28
   03:34:34.777.27-Mar-2021 3725.51 8018.38 61.51 3.00 401.65 3451.28
   03:34:34.977.27-Mar-2021 3725.51 8018.47 61.51 3.00 401.85 3451.28
   03:34:35.177.27-Mar-2021 3725.51 8022.90 61.51 3.00 402.05 3451.28
   03:34:35.377.27-Mar-2021 3725.51 8022.90 61.51 3.00 402.25 3451.28
   03:34:35.577.27-Mar-2021 3725.51 8020.58 61.51 3.00 402.45 3451.28
   03:34:35.777.27-Mar-2021 3725.51 8019.19 61.51 3.00 402.65 3451.28
   03:34:35.977.27-Mar-2021 3725.51 8021.63 61.51 3.00 402.85 3451.28
   03:34:36.178.27-Mar-2021 3725.51 8019.19 61.51 3.00 403.05 3451.28
   03:34:36.378.27-Mar-2021 3725.51 8019.19 61.51 3.00 403.25 3451.28
   03:34:36.578.27-Mar-2021 3725.51 8018.91 61.51 3.00 403.45 3451.28
   03:34:36.778.27-Mar-2021 3725.51 8018.28 61.51 3.00 403.65 3451.28
   03:34:36.978.27-Mar-2021 3725.51 8017.15 61.51 3.00 403.85 3451.28
   03:34:37.178.27-Mar-2021 3725.51 8017.67 61.51 3.00 404.05 3451.28
   03:34:37.378.27-Mar-2021 3725.51 8017.67 61.51 3.00 404.25 3451.28
   03:34:37.578.27-Mar-2021 3725.51 8019.01 61.51 3.00 404.45 3451.28
   03:34:37.778.27-Mar-2021 3725.51 8020.72 61.51 3.00 404.65 3451.28
   03:34:37.978.27-Mar-2021 3725.51 8019.33 61.51 3.00 404.85 3451.28
   03:34:38.178.27-Mar-2021 3725.51 8019.04 61.51 3.00 405.05 3451.28
   03:34:38.378.27-Mar-2021 3725.51 8019.04 61.51 3.00 405.25 3451.28
   03:34:38.578.27-Mar-2021 3725.51 8019.82 61.51 3.00 405.45 3451.28
   03:34:38.778.27-Mar-2021 3725.51 8021.32 61.51 3.00 405.65 3451.28
   03:34:38.978.27-Mar-2021 3725.51 8020.18 61.51 3.00 405.85 3451.28
   03:34:39.178.27-Mar-2021 3725.51 8019.51 61.51 3.00 406.05 3451.28
   03:34:39.378.27-Mar-2021 3725.51 8019.51 61.51 3.00 406.25 3451.28
   03:34:39.578.27-Mar-2021 3725.51 8018.58 61.51 3.00 406.45 3451.28
   03:34:39.778.27-Mar-2021 3725.51 8018.58 61.51 3.00 406.65 3451.28
   03:34:39.978.27-Mar-2021 3725.51 8018.45 61.51 3.00 406.85 3451.28
   03:34:40.178.27-Mar-2021 3725.51 8018.77 61.51 3.00 407.05 3451.28
   03:34:40.378.27-Mar-2021 3725.51 8018.77 61.51 3.00 407.25 3451.28
   03:34:40.578.27-Mar-2021 3725.51 8018.12 61.51 3.00 407.45 3451.28
   03:34:40.778.27-Mar-2021 3725.51 8018.85 61.51 3.00 407.65 3451.28
   03:34:40.978.27-Mar-2021 3725.51 8018.36 61.51 3.00 407.85 3451.28
   03:34:41.178.27-Mar-2021 3725.51 8019.09 61.51 3.00 408.05 3451.28
   03:34:41.378.27-Mar-2021 3725.51 8019.09 61.51 3.00 408.25 3451.28
   03:34:41.578.27-Mar-2021 3725.51 8018.93 61.51 3.00 408.45 3451.28
   03:34:41.778.27-Mar-2021 3725.51 8023.71 61.51 3.00 408.65 3451.28
   03:34:41.978.27-Mar-2021 3725.51 8018.53 61.51 3.00 408.85 3451.28
   03:34:42.178.27-Mar-2021 3725.51 8020.29 61.51 3.00 409.05 3451.28
   03:34:42.378.27-Mar-2021 3725.51 8020.29 61.51 3.00 409.25 3451.28
   03:34:42.578.27-Mar-2021 3725.51 8019.66 61.51 3.00 409.45 3451.28
   03:34:42.778.27-Mar-2021 3725.51 8018.31 61.51 3.00 409.65 3451.28
   03:34:42.978.27-Mar-2021 3725.51 8018.24 61.51 3.00 409.85 3451.28
   03:34:43.178.27-Mar-2021 3725.51 8018.30 61.51 3.00 410.05 3451.28
   03:34:43.378.27-Mar-2021 3725.51 8018.30 61.51 3.00 410.25 3451.28
   03:34:43.578.27-Mar-2021 3725.51 8017.97 61.51 3.00 410.45 3451.28
   03:34:43.778.27-Mar-2021 3725.51 8017.74 61.51 3.00 410.65 3451.28
   03:34:43.978.27-Mar-2021 3725.51 8017.54 61.51 3.00 410.85 3451.28
   03:34:44.179.27-Mar-2021 3725.51 8018.61 61.51 3.00 411.05 3451.28
   03:34:44.379.27-Mar-2021 3725.51 8018.61 61.51 3.00 411.25 3451.28
   03:34:44.579.27-Mar-2021 3725.51 8022.16 61.51 3.00 411.45 3451.28
   03:34:44.779.27-Mar-2021 3725.51 8019.50 61.51 3.00 411.65 3451.28
   03:34:44.979.27-Mar-2021 3725.51 8020.92 61.51 3.00 411.85 3451.28
   03:34:45.179.27-Mar-2021 3725.51 8018.78 61.51 3.00 412.05 3451.28
   03:34:45.379.27-Mar-2021 3725.51 8018.78 61.51 3.00 412.25 3451.28
   03:34:45.579.27-Mar-2021 3725.51 8017.73 61.50 3.00 412.45 3451.28
   03:34:45.779.27-Mar-2021 3725.51 8019.42 61.50 3.00 412.65 3451.28
   03:34:45.979.27-Mar-2021 3725.51 8018.56 61.50 3.00 412.85 3451.28
   03:34:46.179.27-Mar-2021 3725.51 8018.03 61.50 3.00 413.05 3451.28
   03:34:46.379.27-Mar-2021 3725.51 8018.03 61.50 3.00 413.25 3451.28
   03:34:46.579.27-Mar-2021 3725.51 8017.25 61.50 3.00 413.45 3451.28
   03:34:46.779.27-Mar-2021 3725.51 8021.66 61.50 3.00 413.65 3451.28
   03:34:46.979.27-Mar-2021 3725.51 8017.12 61.50 3.00 413.85 3451.28
