~Version Information
 VERS.                  2.0:   CWLS log ASCII Standard -VERSION 2.0
 WRAP.                   NO:   One line per depth step
~Well Information Block
#MNEM.UNIT     VALUE/NAME     DESCRIPTION
#---------     -----------    ---------------------------
 STRT.S             13:20:27 21-Mar-20: START TIME 13:20:27 21-Mar-20
 STOP.S             13:26:37 21-Mar-20: STOP TIME  13:26:37 21-Mar-20
 STEP.S                   0.00: STEP TIME
 NULL.                 -999.25: NULL VALUE
 DFWT.                        :  DIST FWL TEXT
 DFST.                        :  DIST FSL TEXT
 DMF .             Drill Floor:  DRILL MEAS FROM
 STIM.      22.38.56 15-Feb-20:  START TIME
 DATE.      22.38.56 15-Feb-20:  END TIME
 SPUD.               15-Feb-20:  SPUD DATE
 NREF.                    Grid:  NORTH REFERENCE
 HPTY.       Minimum Curvature:  HOLE POS TYPE
 DMOD.             Drill Model:  DRILL MOD DESC
 SVYD.                  Survey:  SURVEY DESC
 ILTD.               Lithology:  INTERP LTH DESC
 FTOP.          Formation Tops:  FORM TOPS DESC
 SON .        AZ-XX-0906019077:  JOB NUMBER
 PDAT.          Mean Sea Level:  PERMANENT DATUM
 WTYP.                Deviated:  WELL TYPE
 MDS .        Operator Entered:  MAG DATA SOURCE
 COMP.     BP Exploration (Caspian sea) Ltd.:  COMPANY
 UWI .                     N/A:  UNIQUE WELL IDENTIFIER
 API .                     N/A:  API NUMBER
 BASE.              Azerbaijan:  LOGGING EQUIPMENT BASE LOCATION
 REGN.                   EESSA:  REGION
 PROV.                     N/A:  PROVINCE
 STAT.                     N/A:  STATE NAME
 CTRY.              Azerbaijan:  COUNTRY NAME
 FLD .                     ACG:  FIELD NAME
 SRVC.          Turan Drilling:  CONTRACTOR
 MWDS.                    Baku:  MWD SHOP
 WELL.                    E16W:  WELL NAME
 JOBN.        AZ-XX-0906019077:  JOB TICKET NUMB
 RIG .                     DWG:  RIG NAME
 CNTY.                     N/A:  COUNTY NAME
 DCON.         Sperry Drilling:  DIRECTNL CONTR
 UNIT.                     N/A:  LOGGING EQUIPMENT ID
 LOC .                        :  LOCATION
 LMF .             Drill Floor:  LOG MEASURED FROM
 TVDS.m                  43.16:  TVDSS CORRECTN
 LATI.deg                40.17:  LATITUDE
 LONG.deg                51.17:  LONGITUDE
 WHNS.m                 -15.30:  WELL HEAD N/S
 WHEW.m                  -1.29:  WELL HEAD E/W
 UTMX.m              514337.95:  UTM X
 UTMY.m             4448627.46:  UTM Y
 DFWL.m                   0.00:  DISTANCE FWL
 DFSL.m                   0.00:  DISTANCE FSL
 SDEP.m                3499.01:  START DEPTH
 TDD .m                4422.01:  TOTAL DEPTH (DRILLER)
 VSDR.deg               151.14:  VERT SEC DIRECT
 GVFD.g                   1.00:  GRAVITY FIELD
 MFLD.nT              50334.00:  MAGNETIC FIELD
 MDIP.deg                59.62:  MAGNETIC DIP
 MDEC.deg                 6.46:  MAGNETIC DECL
 GRDC.deg                 0.12:  GRID CORRECTION
 AZTC.deg                 6.34:  AZM TOTAL CORR
 EPD .m                   0.00:  ELEVATION
 EGL .m                   0.00:  GROUND ELEVATION
 WDMS.m                 176.20:  WD ELEV
 APD .m                  43.16:  DEPTH ABOVE PD
 VSEW.m                  -1.29:  VERT SEC E/W
 VSNS.m                 -15.30:  VERT SEC N/S
 AGAP.m                  43.16:  AIR GAP
 EKB .m                   0.00:  KB ELEVATION
 EDF .m                  43.16:  DF ELEVATION
 TDL .m                  81.00:  TOTAL DEPTH (LOGGER)
 VSC .                       0:  VS TO CLOSURE
 MAGU.                 1852525:  MAGUTM CHECKSUM
~Parameter Information Block
#MNEM.UNIT       Value        Description
#---------     -----------    ---------------------------
 AV  .mps                 1.00:  Ann Velocity 
 AVMX.mps                 1.32:  Max Ann Veloc 
 AZIF.deg               141.43:  Azm, Final 
 BHAT.        Rotary Steerable:  BHA Type 
 BREV.rev            107699.99:  Rev Bit Total 
 BROT.°/30m              -0.88:  Build Rotating 
 BS  .in                  6.50:  Bit Size 
 BSZ .in                  6.50:  Bit Size 
 BTPL.psig              222.00:  Bit Press Loss 
 CABU.                     Yes:  Customer Abuse 
 CGEO.        Ali Isfandiyarov:  Customer Geo 
 TCS .hr                 23.12:  Time Ciculation Ended 
 CV  .mps                 2.20:  Crit Velocity 
 CVMX.mps                 3.01:  Max Crit Veloc 
 DD1 .         Intigam Rahimov:  Direct Drillr 1 
 DDSV.               Geo-Pilot:  DD Service 
 DEFF.%                 100.00:  % Det Eff 
 DLRX.°/30m               0.90:  Dogleg Rot Max 
 DLSO.°/30m               0.00:  Dogleg Oriented 
 DLSX.°/30m               0.00:  Dogleg Str Max 
 DRET.      20.00.00 21-Mar-20:  Drill End Time 
 DRST.      04.30.00 20-Mar-20:  Drill Start Tim 
 DTIM.hr                  8.99:  Time Drilling 
 EDEP.m                4503.01:  End Depth 
 ENG1.          Rasim Hashimov:  Engineer 1 
 ENG2.         Yevgeniy Ulikov:  Engineer 2 
 ETIM.      14.43.10 22-Mar-20:  End Time 
 FLOI.gpm               350.00:  Flow In 
 FLON.gpm               300.00:  Flow In Min 
 FLOS.cptm                0.00:  Fluid Loss 
 FLOX.gpm               400.00:  Flow In Max 
 FTRO.       Formation Presure:  FTWD Run Obj 
 HFLO.                      No:  High Flow 
 HPRE.                      No:  High Pressure 
 HTEM.                      No:  High Temp 
 HYDO.m                   1.80:  Hydro Offset 
 IFIN.deg                78.17:  Inc, Final 
 IMAX.deg                79.31:  Inc Max 
 IMIN.deg                78.75:  Inc Min 
 IMND.m                4474.16:  Inc Min Depth 
 IMXD.m                4445.88:  Inc Max Depth 
 JARR.                      No:  Jarring 
 LETM.      20.00.00 21-Mar-20:  Log End Time 
 LOST.hr                     0:  Lost Rig Time 
 LSTM.      04.30.00 19-Mar-20:  Log Start Time 
 MDCL.ppm             39500.00:  Mud Chlorides 
 MDES.     Inversion Oil/Synthetic:  Mud Desc 
 DFD .sg                  1.40:  Mud Density 
 MDMN.sg                  1.40:  Dens Mud Min 
 MDMX.sg                  1.40:  Dens Mud Max 
 MOIL.                      55:  Run Mud Oil % 
 MOWR.                   68:32:  Run Mud OWR 
 MSND.                     0.1:  Run Mud Sand % 
 MSOL.                       1:  Run Mud Solids% 
 DFV .spqt               78.00:  Mud Viscosity 
 MWOD.in                  4.75:  MWD Tool OD 
 MWSI.                      No:  Serv Intrp, MWD 
 OTIM.hr                 61.28:  Time Operating 
 PCON.           Look Like New:  Pad Condition 
 PMAX.psia             9103.94:  Press Op, Max 
 PV  .cP                 25.00:  Mud PV 
 RUN .                     800:  Run Number 
 ROPA.m/hr                7.10:  ROP Avg 
 ROPN.m/hr                2.40:  ROP Min 
 ROPX.m/hr               12.00:  ROP Max 
 RPMA.rpm               120.00:  RPM Surface Avg 
 RPMN.rpm                80.00:  RPM Surface Min 
 RPMX.rpm               140.00:  RPM Surface Max 
 RRUN.                    L203:  Rig Run Number 
 RTIM.hr                  6.50:  Time Reaming 
 SAZI.deg               140.14:  Azm, Start 
 SDEP.m                4422.01:  Start Depth 
 SIDD.                     Yes:  Serv Intrp, DD 
 SINC.deg                80.07:  Inc, Start 
 SPPA.psig             4619.00:  SPP Avg 
 SPPN.psig             3980.00:  SPP Min 
 SPPX.psig             5100.00:  SPP Max 
 STIM.      22.30.00 19-Mar-20:  Start Time 
 SVCS.                 DD, MWD:  Services 
 SVER.                    9.20:  Sperry Version 
 TDAT.m                  81.00:  Tot Depth Attmp 
 TDDF.                     Yes:  Trip for DD 
 TDLG.m                  81.00:  Tot Depth Loggd 
 TFF .                      No:  Trip for Fail 
 TQAA.f-kp               12.50:  Torque Abs Avg 
 TQAN.f-kp               12.00:  Torque Abs Min 
 TQAX.f-kp               14.00:  Torque Abs Max 
 TRRT.°/30m               0.25:  Turn Rotating 
 MRT .                    HCIM:  Maximum Recorded Temperature 
 TTMX.degC               86.27:  Max Tool Temp 
 VS01.         90595989G12V7D4:  Virtual Str1 SN 
 VS02.            90519330D5C4:  Virtual Str2 SN 
 VS03.             90522014R12:  Virtual Str3 SN 
 VS04.          90522272N2L2C4:  Virtual Str4 SN 
 VS05.      90512713X1Z1W1X1C4:  Virtual Str5 SN 
 WBMN.klb                 3.00:  WOB Min 
 WITN.        Elmaddin Rahimov:  Customer Rep 
 WOBA.klb                 5.60:  WOB Avg 
 WOBX.klb                 7.00:  WOB Max 
 YP  .lhf2               28.00:  Yield Point 
~Curve Information Block
#MNEM.UNIT                 API CODE     Curve Description
#---------               -----------    ---------------------------
 TIME.HHMMSS            00 000 000 000:  GT Time & Date
 GTDEPTH.m              00 000 000 000:  GT Depth
 GTPQH.psia             00 000 000 000:  GT HR Quartz Pressure
 GTTQ.degC              00 000 000 000:  GT Quartz Temperature
 GTTN.NONE              00 000 000 000:  GT Test Number
 GTET.sec               00 000 000 000:  GT Elapsed Test Time
 GTTVD.m                00 000 000 000:  GT True Vertical Depth
#Other Information
#
#WARRANTY: Halliburton will use its best efforts to furnish customers with 
#accurate information and interpretations that are part of, and incident to, the services 
#provided.  However, Halliburton cannot and does not warrant the accuracy 
#or correctness of such information and interpretations.  Under no circumstances should any 
#such information or interpretation be relied upon as the sole basis for any drilling, 
#completion, production, or financial decision or any procedure involving any risk to the 
#safety of any drilling venture, drilling rig or its crew or any other third party.  The 
#Customer has full responsibility for all drilling, completion and production operation.  
#Halliburton makes no representations or warranties, either expressed or 
#implied, including, but not limited to, the implied warranties of merchantability or fitness 
#for a particular purpose, with respect to the services rendered.  In no event will 
#Halliburton be liable for failure to obtain any particular results or for 
#any damages, including, but not limited to, indirect, special or consequential damages, 
#resulting from the use of any information or interpretation provided by Halliburton.
#
~A           TIME           GTDEPTH  GTPQH  GTTQ  GTTN  GTET   GTTVD  
# ...
   13:24:40.430.21-Mar-2020 4435.61 4647.12 73.15 1.00 253.04 3146.67
   13:24:40.630.21-Mar-2020 4435.61 4647.12 73.15 1.00 253.24 3146.67
   13:24:40.830.21-Mar-2020 4435.61 4647.08 73.15 1.00 253.44 3146.67
   13:24:41.030.21-Mar-2020 4435.61 4647.11 73.15 1.00 253.64 3146.67
   13:24:41.230.21-Mar-2020 4435.61 4647.15 73.15 1.00 253.84 3146.67
   13:24:41.430.21-Mar-2020 4435.61 4647.10 73.15 1.00 254.04 3146.67
   13:24:41.630.21-Mar-2020 4435.61 4647.10 73.15 1.00 254.24 3146.67
   13:24:41.830.21-Mar-2020 4435.61 4647.20 73.14 1.00 254.44 3146.67
   13:24:42.030.21-Mar-2020 4435.61 4647.13 73.14 1.00 254.64 3146.67
   13:24:42.230.21-Mar-2020 4435.61 4647.13 73.14 1.00 254.84 3146.67
   13:24:42.430.21-Mar-2020 4435.61 4646.75 73.14 1.00 255.04 3146.67
   13:24:42.631.21-Mar-2020 4435.61 4646.75 73.14 1.00 255.24 3146.67
   13:24:42.831.21-Mar-2020 4435.61 4647.16 73.14 1.00 255.44 3146.67
   13:24:43.031.21-Mar-2020 4435.61 4647.12 73.14 1.00 255.64 3146.67
   13:24:43.231.21-Mar-2020 4435.61 4646.98 73.14 1.00 255.84 3146.67
   13:24:43.431.21-Mar-2020 4435.61 4647.21 73.14 1.00 256.04 3146.67
   13:24:43.631.21-Mar-2020 4435.61 4647.21 73.14 1.00 256.24 3146.67
   13:24:43.831.21-Mar-2020 4435.61 4646.89 73.14 1.00 256.44 3146.67
   13:24:44.031.21-Mar-2020 4435.61 4647.23 73.14 1.00 256.64 3146.67
   13:24:44.231.21-Mar-2020 4435.61 4647.32 73.14 1.00 256.84 3146.67
   13:24:44.431.21-Mar-2020 4435.61 4647.33 73.14 1.00 257.04 3146.67
   13:24:44.631.21-Mar-2020 4435.61 4647.33 73.14 1.00 257.24 3146.67
   13:24:44.831.21-Mar-2020 4435.61 4646.89 73.14 1.00 257.44 3146.67
   13:24:45.031.21-Mar-2020 4435.61 4647.27 73.14 1.00 257.64 3146.67
   13:24:45.231.21-Mar-2020 4435.61 4647.33 73.14 1.00 257.84 3146.67
   13:24:45.431.21-Mar-2020 4435.61 4647.26 73.14 1.00 258.04 3146.67
   13:24:45.631.21-Mar-2020 4435.61 4647.26 73.14 1.00 258.24 3146.67
   13:24:45.831.21-Mar-2020 4435.61 4647.34 73.14 1.00 258.44 3146.67
   13:24:46.031.21-Mar-2020 4435.61 4647.26 73.14 1.00 258.64 3146.67
   13:24:46.231.21-Mar-2020 4435.61 4647.20 73.14 1.00 258.84 3146.67
   13:24:46.431.21-Mar-2020 4435.61 4647.22 73.14 1.00 259.04 3146.67
   13:24:46.631.21-Mar-2020 4435.61 4647.22 73.14 1.00 259.24 3146.67
   13:24:46.831.21-Mar-2020 4435.61 4646.89 73.14 1.00 259.44 3146.67
   13:24:47.031.21-Mar-2020 4435.61 4647.17 73.14 1.00 259.64 3146.67
   13:24:47.231.21-Mar-2020 4435.61 4647.19 73.14 1.00 259.84 3146.67
   13:24:47.431.21-Mar-2020 4435.61 4647.24 73.14 1.00 260.04 3146.67
   13:24:47.631.21-Mar-2020 4435.61 4647.24 73.14 1.00 260.24 3146.67
   13:24:47.831.21-Mar-2020 4435.61 4647.20 73.14 1.00 260.44 3146.67
   13:24:48.031.21-Mar-2020 4435.61 4647.15 73.14 1.00 260.64 3146.67
   13:24:48.231.21-Mar-2020 4435.61 4647.19 73.14 1.00 260.84 3146.67
   13:24:48.431.21-Mar-2020 4435.61 4647.22 73.14 1.00 261.04 3146.67
   13:24:48.631.21-Mar-2020 4435.61 4647.22 73.14 1.00 261.24 3146.67
   13:24:48.831.21-Mar-2020 4435.61 4647.27 73.14 1.00 261.44 3146.67
   13:24:49.031.21-Mar-2020 4435.61 4647.23 73.14 1.00 261.64 3146.67
   13:24:49.231.21-Mar-2020 4435.61 4647.23 73.14 1.00 261.84 3146.67
   13:24:49.431.21-Mar-2020 4435.61 4646.86 73.14 1.00 262.04 3146.67
   13:24:49.632.21-Mar-2020 4435.61 4646.86 73.14 1.00 262.24 3146.67
   13:24:49.832.21-Mar-2020 4435.61 4647.26 73.14 1.00 262.44 3146.67
   13:24:50.032.21-Mar-2020 4435.61 4647.23 73.14 1.00 262.64 3146.67
   13:24:50.232.21-Mar-2020 4435.61 4646.89 73.14 1.00 262.84 3146.67
   13:24:50.432.21-Mar-2020 4435.61 4647.32 73.14 1.00 263.04 3146.67
   13:24:50.632.21-Mar-2020 4435.61 4647.32 73.14 1.00 263.24 3146.67
   13:24:50.832.21-Mar-2020 4435.61 4647.20 73.14 1.00 263.44 3146.67
   13:24:51.032.21-Mar-2020 4435.61 4647.07 73.14 1.00 263.64 3146.67
   13:24:51.232.21-Mar-2020 4435.61 4647.29 73.14 1.00 263.84 3146.67
   13:24:51.432.21-Mar-2020 4435.61 4647.45 73.14 1.00 264.04 3146.67
   13:24:51.632.21-Mar-2020 4435.61 4647.45 73.14 1.00 264.24 3146.67
   13:24:51.832.21-Mar-2020 4435.61 4646.94 73.14 1.00 264.44 3146.67
   13:24:52.032.21-Mar-2020 4435.61 4647.37 73.14 1.00 264.64 3146.67
   13:24:52.232.21-Mar-2020 4435.61 4647.42 73.14 1.00 264.84 3146.67
   13:24:52.432.21-Mar-2020 4435.61 4647.36 73.14 1.00 265.04 3146.67
   13:24:52.632.21-Mar-2020 4435.61 4647.36 73.14 1.00 265.24 3146.67
   13:24:52.832.21-Mar-2020 4435.61 4647.36 73.14 1.00 265.44 3146.67
   13:24:53.032.21-Mar-2020 4435.61 4647.38 73.14 1.00 265.64 3146.67
   13:24:53.232.21-Mar-2020 4435.61 4647.26 73.14 1.00 265.84 3146.67
   13:24:53.432.21-Mar-2020 4435.61 4647.32 73.14 1.00 266.04 3146.67
   13:24:53.632.21-Mar-2020 4435.61 4647.32 73.14 1.00 266.24 3146.67
   13:24:53.832.21-Mar-2020 4435.61 4646.84 73.14 1.00 266.44 3146.67
   13:24:54.032.21-Mar-2020 4435.61 4647.27 73.14 1.00 266.64 3146.67
   13:24:54.232.21-Mar-2020 4435.61 4647.25 73.14 1.00 266.84 3146.67
   13:24:54.432.21-Mar-2020 4435.61 4647.29 73.14 1.00 267.04 3146.67
   13:24:54.632.21-Mar-2020 4435.61 4647.29 73.14 1.00 267.24 3146.67
   13:24:54.832.21-Mar-2020 4435.61 4647.29 73.14 1.00 267.44 3146.67
   13:24:55.032.21-Mar-2020 4435.61 4647.29 73.14 1.00 267.64 3146.67
   13:24:55.232.21-Mar-2020 4435.61 4647.25 73.14 1.00 267.84 3146.67
   13:24:55.432.21-Mar-2020 4435.61 4647.29 73.14 1.00 268.04 3146.67
   13:24:55.632.21-Mar-2020 4435.61 4647.29 73.14 1.00 268.24 3146.67
   13:24:55.832.21-Mar-2020 4435.61 4647.32 73.14 1.00 268.44 3146.67
   13:24:56.032.21-Mar-2020 4435.61 4647.36 73.14 1.00 268.64 3146.67
   13:24:56.232.21-Mar-2020 4435.61 4647.27 73.14 1.00 268.84 3146.67
   13:24:56.432.21-Mar-2020 4435.61 4646.96 73.14 1.00 269.04 3146.67
   13:24:56.633.21-Mar-2020 4435.61 4646.96 73.14 1.00 269.24 3146.67
   13:24:56.833.21-Mar-2020 4435.61 4647.28 73.14 1.00 269.44 3146.67
   13:24:57.033.21-Mar-2020 4435.61 4647.30 73.14 1.00 269.64 3146.67
   13:24:57.233.21-Mar-2020 4435.61 4647.01 73.14 1.00 269.84 3146.67
   13:24:57.433.21-Mar-2020 4435.61 4647.35 73.13 1.00 270.04 3146.67
   13:24:57.633.21-Mar-2020 4435.61 4647.35 73.13 1.00 270.24 3146.67
   13:24:57.833.21-Mar-2020 4435.61 4647.32 73.13 1.00 270.44 3146.67
   13:24:58.033.21-Mar-2020 4435.61 4647.07 73.13 1.00 270.64 3146.67
   13:24:58.233.21-Mar-2020 4435.61 4647.39 73.13 1.00 270.84 3146.67
   13:24:58.433.21-Mar-2020 4435.61 4647.42 73.13 1.00 271.04 3146.67
   13:24:58.633.21-Mar-2020 4435.61 4647.42 73.13 1.00 271.24 3146.67
   13:24:58.833.21-Mar-2020 4435.61 4647.17 73.13 1.00 271.44 3146.67
   13:24:59.033.21-Mar-2020 4435.61 4647.27 73.13 1.00 271.64 3146.67
   13:24:59.233.21-Mar-2020 4435.61 4647.47 73.13 1.00 271.84 3146.67
   13:24:59.433.21-Mar-2020 4435.61 4647.41 73.13 1.00 272.04 3146.67
   13:24:59.633.21-Mar-2020 4435.61 4647.41 73.13 1.00 272.24 3146.67
   13:24:59.833.21-Mar-2020 4435.61 4647.37 73.13 1.00 272.44 3146.67
   13:25:00.033.21-Mar-2020 4435.61 4647.44 73.13 1.00 272.64 3146.67
   13:25:00.233.21-Mar-2020 4435.61 4647.37 73.13 1.00 272.84 3146.67
   13:25:00.433.21-Mar-2020 4435.61 4647.30 73.13 1.00 273.04 3146.67
   13:25:00.633.21-Mar-2020 4435.61 4647.30 73.13 1.00 273.24 3146.67
   13:25:00.833.21-Mar-2020 4435.61 4646.91 73.13 1.00 273.44 3146.67
   13:25:01.033.21-Mar-2020 4435.61 4647.39 73.13 1.00 273.64 3146.67
   13:25:01.233.21-Mar-2020 4435.61 4647.38 73.13 1.00 273.84 3146.67
   13:25:01.433.21-Mar-2020 4435.61 4647.31 73.13 1.00 274.04 3146.67
   13:25:01.633.21-Mar-2020 4435.61 4647.31 73.13 1.00 274.24 3146.67
   13:25:01.833.21-Mar-2020 4435.61 4647.30 73.13 1.00 274.44 3146.67
   13:25:02.033.21-Mar-2020 4435.61 4647.31 73.13 1.00 274.64 3146.67
   13:25:02.233.21-Mar-2020 4435.61 4647.33 73.13 1.00 274.84 3146.67
   13:25:02.433.21-Mar-2020 4435.61 4647.29 73.13 1.00 275.04 3146.67
   13:25:02.633.21-Mar-2020 4435.61 4647.29 73.13 1.00 275.24 3146.67
   13:25:02.833.21-Mar-2020 4435.61 4647.41 73.13 1.00 275.44 3146.67
   13:25:03.033.21-Mar-2020 4435.61 4647.37 73.13 1.00 275.64 3146.67
   13:25:03.233.21-Mar-2020 4435.61 4647.38 73.13 1.00 275.84 3146.67
