~Version Information
 VERS.                  2.0:   CWLS log ASCII Standard -VERSION 2.0
 WRAP.                   NO:   One line per depth step
~Well Information Block
#MNEM.UNIT     VALUE/NAME     DESCRIPTION
#---------     -----------    ---------------------------
 STRT.S             13:20:27 21-Mar-20: START TIME 13:20:27 21-Mar-20
 STOP.S             13:26:37 21-Mar-20: STOP TIME  13:26:37 21-Mar-20
 STEP.S                   0.00: STEP TIME
 NULL.                 -999.25: NULL VALUE
 DFWT.                        :  DIST FWL TEXT
 DFST.                        :  DIST FSL TEXT
 DMF .             Drill Floor:  DRILL MEAS FROM
 STIM.      22.38.56 15-Feb-20:  START TIME
 DATE.      22.38.56 15-Feb-20:  END TIME
 SPUD.               15-Feb-20:  SPUD DATE
 NREF.                    Grid:  NORTH REFERENCE
 HPTY.       Minimum Curvature:  HOLE POS TYPE
 DMOD.             Drill Model:  DRILL MOD DESC
 SVYD.                  Survey:  SURVEY DESC
 ILTD.               Lithology:  INTERP LTH DESC
 FTOP.          Formation Tops:  FORM TOPS DESC
 SON .        AZ-XX-0906019077:  JOB NUMBER
 PDAT.          Mean Sea Level:  PERMANENT DATUM
 WTYP.                Deviated:  WELL TYPE
 MDS .        Operator Entered:  MAG DATA SOURCE
 COMP.     BP Exploration (Caspian sea) Ltd.:  COMPANY
 UWI .                     N/A:  UNIQUE WELL IDENTIFIER
 API .                     N/A:  API NUMBER
 BASE.              Azerbaijan:  LOGGING EQUIPMENT BASE LOCATION
 REGN.                   EESSA:  REGION
 PROV.                     N/A:  PROVINCE
 STAT.                     N/A:  STATE NAME
 CTRY.              Azerbaijan:  COUNTRY NAME
 FLD .                     ACG:  FIELD NAME
 SRVC.          Turan Drilling:  CONTRACTOR
 MWDS.                    Baku:  MWD SHOP
 WELL.                    E16W:  WELL NAME
 JOBN.        AZ-XX-0906019077:  JOB TICKET NUMB
 RIG .                     DWG:  RIG NAME
 CNTY.                     N/A:  COUNTY NAME
 DCON.         Sperry Drilling:  DIRECTNL CONTR
 UNIT.                     N/A:  LOGGING EQUIPMENT ID
 LOC .                        :  LOCATION
 LMF .             Drill Floor:  LOG MEASURED FROM
 TVDS.m                  43.16:  TVDSS CORRECTN
 LATI.deg                40.17:  LATITUDE
 LONG.deg                51.17:  LONGITUDE
 WHNS.m                 -15.30:  WELL HEAD N/S
 WHEW.m                  -1.29:  WELL HEAD E/W
 UTMX.m              514337.95:  UTM X
 UTMY.m             4448627.46:  UTM Y
 DFWL.m                   0.00:  DISTANCE FWL
 DFSL.m                   0.00:  DISTANCE FSL
 SDEP.m                3499.01:  START DEPTH
 TDD .m                4422.01:  TOTAL DEPTH (DRILLER)
 VSDR.deg               151.14:  VERT SEC DIRECT
 GVFD.g                   1.00:  GRAVITY FIELD
 MFLD.nT              50334.00:  MAGNETIC FIELD
 MDIP.deg                59.62:  MAGNETIC DIP
 MDEC.deg                 6.46:  MAGNETIC DECL
 GRDC.deg                 0.12:  GRID CORRECTION
 AZTC.deg                 6.34:  AZM TOTAL CORR
 EPD .m                   0.00:  ELEVATION
 EGL .m                   0.00:  GROUND ELEVATION
 WDMS.m                 176.20:  WD ELEV
 APD .m                  43.16:  DEPTH ABOVE PD
 VSEW.m                  -1.29:  VERT SEC E/W
 VSNS.m                 -15.30:  VERT SEC N/S
 AGAP.m                  43.16:  AIR GAP
 EKB .m                   0.00:  KB ELEVATION
 EDF .m                  43.16:  DF ELEVATION
 TDL .m                  81.00:  TOTAL DEPTH (LOGGER)
 VSC .                       0:  VS TO CLOSURE
 MAGU.                 1852525:  MAGUTM CHECKSUM
~Parameter Information Block
#MNEM.UNIT       Value        Description
#---------     -----------    ---------------------------
 AV  .mps                 1.00:  Ann Velocity 
 AVMX.mps                 1.32:  Max Ann Veloc 
 AZIF.deg               141.43:  Azm, Final 
 BHAT.        Rotary Steerable:  BHA Type 
 BREV.rev            107699.99:  Rev Bit Total 
 BROT.°/30m              -0.88:  Build Rotating 
 BS  .in                  6.50:  Bit Size 
 BSZ .in                  6.50:  Bit Size 
 BTPL.psig              222.00:  Bit Press Loss 
 CABU.                     Yes:  Customer Abuse 
 CGEO.        Ali Isfandiyarov:  Customer Geo 
 TCS .hr                 23.12:  Time Ciculation Ended 
 CV  .mps                 2.20:  Crit Velocity 
 CVMX.mps                 3.01:  Max Crit Veloc 
 DD1 .         Intigam Rahimov:  Direct Drillr 1 
 DDSV.               Geo-Pilot:  DD Service 
 DEFF.%                 100.00:  % Det Eff 
 DLRX.°/30m               0.90:  Dogleg Rot Max 
 DLSO.°/30m               0.00:  Dogleg Oriented 
 DLSX.°/30m               0.00:  Dogleg Str Max 
 DRET.      20.00.00 21-Mar-20:  Drill End Time 
 DRST.      04.30.00 20-Mar-20:  Drill Start Tim 
 DTIM.hr                  8.99:  Time Drilling 
 EDEP.m                4503.01:  End Depth 
 ENG1.          Rasim Hashimov:  Engineer 1 
 ENG2.         Yevgeniy Ulikov:  Engineer 2 
 ETIM.      14.43.10 22-Mar-20:  End Time 
 FLOI.gpm               350.00:  Flow In 
 FLON.gpm               300.00:  Flow In Min 
 FLOS.cptm                0.00:  Fluid Loss 
 FLOX.gpm               400.00:  Flow In Max 
 FTRO.       Formation Presure:  FTWD Run Obj 
 HFLO.                      No:  High Flow 
 HPRE.                      No:  High Pressure 
 HTEM.                      No:  High Temp 
 HYDO.m                   1.80:  Hydro Offset 
 IFIN.deg                78.17:  Inc, Final 
 IMAX.deg                79.31:  Inc Max 
 IMIN.deg                78.75:  Inc Min 
 IMND.m                4474.16:  Inc Min Depth 
 IMXD.m                4445.88:  Inc Max Depth 
 JARR.                      No:  Jarring 
 LETM.      20.00.00 21-Mar-20:  Log End Time 
 LOST.hr                     0:  Lost Rig Time 
 LSTM.      04.30.00 19-Mar-20:  Log Start Time 
 MDCL.ppm             39500.00:  Mud Chlorides 
 MDES.     Inversion Oil/Synthetic:  Mud Desc 
 DFD .sg                  1.40:  Mud Density 
 MDMN.sg                  1.40:  Dens Mud Min 
 MDMX.sg                  1.40:  Dens Mud Max 
 MOIL.                      55:  Run Mud Oil % 
 MOWR.                   68:32:  Run Mud OWR 
 MSND.                     0.1:  Run Mud Sand % 
 MSOL.                       1:  Run Mud Solids% 
 DFV .spqt               78.00:  Mud Viscosity 
 MWOD.in                  4.75:  MWD Tool OD 
 MWSI.                      No:  Serv Intrp, MWD 
 OTIM.hr                 61.28:  Time Operating 
 PCON.           Look Like New:  Pad Condition 
 PMAX.psia             9103.94:  Press Op, Max 
 PV  .cP                 25.00:  Mud PV 
 RUN .                     800:  Run Number 
 ROPA.m/hr                7.10:  ROP Avg 
 ROPN.m/hr                2.40:  ROP Min 
 ROPX.m/hr               12.00:  ROP Max 
 RPMA.rpm               120.00:  RPM Surface Avg 
 RPMN.rpm                80.00:  RPM Surface Min 
 RPMX.rpm               140.00:  RPM Surface Max 
 RRUN.                    L203:  Rig Run Number 
 RTIM.hr                  6.50:  Time Reaming 
 SAZI.deg               140.14:  Azm, Start 
 SDEP.m                4422.01:  Start Depth 
 SIDD.                     Yes:  Serv Intrp, DD 
 SINC.deg                80.07:  Inc, Start 
 SPPA.psig             4619.00:  SPP Avg 
 SPPN.psig             3980.00:  SPP Min 
 SPPX.psig             5100.00:  SPP Max 
 STIM.      22.30.00 19-Mar-20:  Start Time 
 SVCS.                 DD, MWD:  Services 
 SVER.                    9.20:  Sperry Version 
 TDAT.m                  81.00:  Tot Depth Attmp 
 TDDF.                     Yes:  Trip for DD 
 TDLG.m                  81.00:  Tot Depth Loggd 
 TFF .                      No:  Trip for Fail 
 TQAA.f-kp               12.50:  Torque Abs Avg 
 TQAN.f-kp               12.00:  Torque Abs Min 
 TQAX.f-kp               14.00:  Torque Abs Max 
 TRRT.°/30m               0.25:  Turn Rotating 
 MRT .                    HCIM:  Maximum Recorded Temperature 
 TTMX.degC               86.27:  Max Tool Temp 
 VS01.         90595989G12V7D4:  Virtual Str1 SN 
 VS02.            90519330D5C4:  Virtual Str2 SN 
 VS03.             90522014R12:  Virtual Str3 SN 
 VS04.          90522272N2L2C4:  Virtual Str4 SN 
 VS05.      90512713X1Z1W1X1C4:  Virtual Str5 SN 
 WBMN.klb                 3.00:  WOB Min 
 WITN.        Elmaddin Rahimov:  Customer Rep 
 WOBA.klb                 5.60:  WOB Avg 
 WOBX.klb                 7.00:  WOB Max 
 YP  .lhf2               28.00:  Yield Point 
~Curve Information Block
#MNEM.UNIT                 API CODE     Curve Description
#---------               -----------    ---------------------------
 TIME.HHMMSS            00 000 000 000:  GT Time & Date
 GTDEPTH.m              00 000 000 000:  GT Depth
 GTPQH.psia             00 000 000 000:  GT HR Quartz Pressure
 GTTQ.degC              00 000 000 000:  GT Quartz Temperature
 GTTN.NONE              00 000 000 000:  GT Test Number
 GTET.sec               00 000 000 000:  GT Elapsed Test Time
 GTTVD.m                00 000 000 000:  GT True Vertical Depth
#Other Information
#
#WARRANTY: Halliburton will use its best efforts to furnish customers with 
#accurate information and interpretations that are part of, and incident to, the services 
#provided.  However, Halliburton cannot and does not warrant the accuracy 
#or correctness of such information and interpretations.  Under no circumstances should any 
#such information or interpretation be relied upon as the sole basis for any drilling, 
#completion, production, or financial decision or any procedure involving any risk to the 
#safety of any drilling venture, drilling rig or its crew or any other third party.  The 
#Customer has full responsibility for all drilling, completion and production operation.  
#Halliburton makes no representations or warranties, either expressed or 
#implied, including, but not limited to, the implied warranties of merchantability or fitness 
#for a particular purpose, with respect to the services rendered.  In no event will 
#Halliburton be liable for failure to obtain any particular results or for 
#any damages, including, but not limited to, indirect, special or consequential damages, 
#resulting from the use of any information or interpretation provided by Halliburton.
#
~A           TIME           GTDEPTH  GTPQH  GTTQ  GTTN  GTET   GTTVD  
# ...
   13:25:49.440.21-Mar-2020 4435.61 4647.58 73.10 1.00 322.05 3146.67
   13:25:49.640.21-Mar-2020 4435.61 4647.58 73.10 1.00 322.25 3146.67
   13:25:49.840.21-Mar-2020 4435.61 4647.53 73.10 1.00 322.45 3146.67
   13:25:50.040.21-Mar-2020 4435.61 4647.26 73.10 1.00 322.65 3146.67
   13:25:50.240.21-Mar-2020 4435.61 4647.39 73.10 1.00 322.85 3146.67
   13:25:50.440.21-Mar-2020 4435.61 4647.58 73.10 1.00 323.05 3146.67
   13:25:50.640.21-Mar-2020 4435.61 4647.58 73.10 1.00 323.25 3146.67
   13:25:50.840.21-Mar-2020 4435.61 4647.56 73.10 1.00 323.45 3146.67
   13:25:51.040.21-Mar-2020 4435.61 4647.48 73.10 1.00 323.65 3146.67
   13:25:51.240.21-Mar-2020 4435.61 4647.42 73.10 1.00 323.85 3146.67
   13:25:51.440.21-Mar-2020 4435.61 4647.50 73.10 1.00 324.05 3146.67
   13:25:51.640.21-Mar-2020 4435.61 4647.50 73.10 1.00 324.25 3146.67
   13:25:51.840.21-Mar-2020 4435.61 4647.50 73.10 1.00 324.45 3146.67
   13:25:52.040.21-Mar-2020 4435.61 4647.52 73.10 1.00 324.65 3146.67
   13:25:52.240.21-Mar-2020 4435.61 4647.56 73.10 1.00 324.85 3146.67
   13:25:52.440.21-Mar-2020 4435.61 4647.53 73.10 1.00 325.05 3146.67
   13:25:52.641.21-Mar-2020 4435.61 4647.53 73.10 1.00 325.25 3146.67
   13:25:52.841.21-Mar-2020 4435.61 4647.13 73.10 1.00 325.45 3146.67
   13:25:53.041.21-Mar-2020 4435.61 4647.45 73.10 1.00 325.65 3146.67
   13:25:53.241.21-Mar-2020 4435.61 4647.45 73.10 1.00 325.85 3146.67
   13:25:53.441.21-Mar-2020 4435.61 4647.56 73.10 1.00 326.05 3146.67
   13:25:53.641.21-Mar-2020 4435.61 4647.12 73.10 1.00 326.25 3146.67
   13:25:53.841.21-Mar-2020 4435.61 4647.55 73.10 1.00 326.45 3146.67
   13:25:54.041.21-Mar-2020 4435.61 4647.57 73.10 1.00 326.65 3146.67
   13:25:54.241.21-Mar-2020 4435.61 4647.28 73.10 1.00 326.85 3146.67
   13:25:54.441.21-Mar-2020 4435.61 4647.46 73.10 1.00 327.05 3146.67
   13:25:54.641.21-Mar-2020 4435.61 4647.46 73.10 1.00 327.25 3146.67
   13:25:54.841.21-Mar-2020 4435.61 4647.61 73.10 1.00 327.45 3146.67
   13:25:55.041.21-Mar-2020 4435.61 4649.96 73.10 1.00 327.65 3146.67
   13:25:55.241.21-Mar-2020 4435.61 4677.33 73.10 1.00 327.85 3146.67
   13:25:55.441.21-Mar-2020 4435.61 4895.05 73.10 1.00 328.05 3146.67
   13:25:55.641.21-Mar-2020 4435.61 4895.05 73.10 1.00 328.25 3146.67
   13:25:55.841.21-Mar-2020 4435.61 6767.27 73.10 1.00 328.45 3146.67
   13:25:56.041.21-Mar-2020 4435.61 6767.46 73.10 1.00 328.65 3146.67
   13:25:56.241.21-Mar-2020 4435.61 6767.69 73.10 1.00 328.85 3146.67
   13:25:56.441.21-Mar-2020 4435.61 6770.77 73.10 1.00 329.05 3146.67
   13:25:56.641.21-Mar-2020 4435.61 6770.77 73.10 1.00 329.25 3146.67
   13:25:56.841.21-Mar-2020 4435.61 6768.48 73.10 1.00 329.45 3146.67
   13:25:57.041.21-Mar-2020 4435.61 6767.68 73.10 1.00 329.65 3146.67
   13:25:57.241.21-Mar-2020 4435.61 6760.18 73.10 1.00 329.85 3146.67
   13:25:57.441.21-Mar-2020 4435.61 6770.20 73.10 1.00 330.05 3146.67
   13:25:57.641.21-Mar-2020 4435.61 6770.20 73.10 1.00 330.25 3146.67
   13:25:57.841.21-Mar-2020 4435.61 6769.81 73.10 1.00 330.45 3146.67
   13:25:58.041.21-Mar-2020 4435.61 6771.67 73.10 1.00 330.65 3146.67
   13:25:58.241.21-Mar-2020 4435.61 6768.78 73.10 1.00 330.85 3146.67
   13:25:58.441.21-Mar-2020 4435.61 6768.97 73.10 1.00 331.05 3146.67
   13:25:58.641.21-Mar-2020 4435.61 6768.97 73.10 1.00 331.25 3146.67
   13:25:58.841.21-Mar-2020 4435.61 6768.41 73.10 1.00 331.45 3146.67
   13:25:59.041.21-Mar-2020 4435.61 6770.77 73.10 1.00 331.65 3146.67
   13:25:59.241.21-Mar-2020 4435.61 6773.00 73.10 1.00 331.85 3146.67
   13:25:59.441.21-Mar-2020 4435.61 6771.61 73.11 1.00 332.05 3146.67
   13:25:59.642.21-Mar-2020 4435.61 6771.61 73.11 1.00 332.25 3146.67
   13:25:59.842.21-Mar-2020 4435.61 6759.58 73.11 1.00 332.45 3146.67
   13:26:00.042.21-Mar-2020 4435.61 6769.74 73.11 1.00 332.65 3146.67
   13:26:00.242.21-Mar-2020 4435.61 6770.27 73.11 1.00 332.85 3146.67
   13:26:00.442.21-Mar-2020 4435.61 6769.96 73.11 1.00 333.05 3146.67
   13:26:00.642.21-Mar-2020 4435.61 6769.96 73.11 1.00 333.25 3146.67
   13:26:00.842.21-Mar-2020 4435.61 6769.38 73.11 1.00 333.45 3146.67
   13:26:01.042.21-Mar-2020 4435.61 6771.22 73.11 1.00 333.65 3146.67
   13:26:01.242.21-Mar-2020 4435.61 6768.43 73.11 1.00 333.85 3146.67
   13:26:01.442.21-Mar-2020 4435.61 6760.45 73.11 1.00 334.05 3146.67
   13:26:01.642.21-Mar-2020 4435.61 6760.45 73.11 1.00 334.25 3146.67
   13:26:01.842.21-Mar-2020 4435.61 6772.25 73.11 1.00 334.45 3146.67
   13:26:02.042.21-Mar-2020 4435.61 6774.62 73.11 1.00 334.65 3146.67
   13:26:02.242.21-Mar-2020 4435.61 6762.78 73.11 1.00 334.85 3146.67
   13:26:02.442.21-Mar-2020 4435.61 6770.64 73.11 1.00 335.05 3146.67
   13:26:02.642.21-Mar-2020 4435.61 6770.64 73.11 1.00 335.25 3146.67
   13:26:02.842.21-Mar-2020 4435.61 6774.17 73.11 1.00 335.45 3146.67
   13:26:03.042.21-Mar-2020 4435.61 6772.85 73.11 1.00 335.65 3146.67
   13:26:03.242.21-Mar-2020 4435.61 6775.78 73.11 1.00 335.85 3146.67
   13:26:03.442.21-Mar-2020 4435.61 6775.22 73.11 1.00 336.05 3146.67
   13:26:03.642.21-Mar-2020 4435.61 6775.22 73.11 1.00 336.25 3146.67
   13:26:03.842.21-Mar-2020 4435.61 6773.81 73.11 1.00 336.45 3146.67
   13:26:04.042.21-Mar-2020 4435.61 6772.62 73.11 1.00 336.65 3146.67
   13:26:04.242.21-Mar-2020 4435.61 6763.33 73.11 1.00 336.85 3146.67
   13:26:04.442.21-Mar-2020 4435.61 6770.95 73.11 1.00 337.05 3146.67
   13:26:04.642.21-Mar-2020 4435.61 6770.95 73.11 1.00 337.25 3146.67
   13:26:04.842.21-Mar-2020 4435.61 6772.57 73.12 1.00 337.45 3146.67
   13:26:05.042.21-Mar-2020 4435.61 6771.08 73.12 1.00 337.65 3146.67
   13:26:05.242.21-Mar-2020 4435.61 6771.62 73.12 1.00 337.85 3146.67
   13:26:05.442.21-Mar-2020 4435.61 6769.26 73.12 1.00 338.05 3146.67
   13:26:05.642.21-Mar-2020 4435.61 6769.26 73.12 1.00 338.25 3146.67
   13:26:05.842.21-Mar-2020 4435.61 6770.76 73.12 1.00 338.45 3146.67
   13:26:06.042.21-Mar-2020 4435.61 6768.51 73.12 1.00 338.65 3146.67
   13:26:06.242.21-Mar-2020 4435.61 6772.66 73.12 1.00 338.85 3146.67
   13:26:06.442.21-Mar-2020 4435.61 6772.92 73.12 1.00 339.05 3146.67
   13:26:06.643.21-Mar-2020 4435.61 6772.92 73.12 1.00 339.25 3146.67
   13:26:06.843.21-Mar-2020 4435.61 6770.78 73.12 1.00 339.45 3146.67
   13:26:07.043.21-Mar-2020 4435.61 6760.42 73.12 1.00 339.65 3146.67
   13:26:07.243.21-Mar-2020 4435.61 6769.94 73.12 1.00 339.85 3146.67
   13:26:07.443.21-Mar-2020 4435.61 6770.54 73.12 1.00 340.05 3146.67
   13:26:07.643.21-Mar-2020 4435.61 6770.54 73.12 1.00 340.25 3146.67
   13:26:07.843.21-Mar-2020 4435.61 6761.25 73.12 1.00 340.45 3146.67
   13:26:08.043.21-Mar-2020 4435.61 6768.11 73.12 1.00 340.65 3146.67
   13:26:08.243.21-Mar-2020 4435.61 6771.42 73.12 1.00 340.85 3146.67
   13:26:08.443.21-Mar-2020 4435.61 6771.37 73.12 1.00 341.05 3146.67
   13:26:08.643.21-Mar-2020 4435.61 6771.37 73.12 1.00 341.25 3146.67
   13:26:08.843.21-Mar-2020 4435.61 6760.61 73.12 1.00 341.45 3146.67
   13:26:09.043.21-Mar-2020 4435.61 6771.59 73.12 1.00 341.65 3146.67
   13:26:09.243.21-Mar-2020 4435.61 6775.05 73.12 1.00 341.85 3146.67
   13:26:09.443.21-Mar-2020 4435.61 6773.41 73.12 1.00 342.05 3146.67
   13:26:09.643.21-Mar-2020 4435.61 6773.41 73.12 1.00 342.25 3146.67
   13:26:09.843.21-Mar-2020 4435.61 6774.38 73.12 1.00 342.45 3146.67
   13:26:10.043.21-Mar-2020 4435.61 6774.75 73.12 1.00 342.65 3146.67
   13:26:10.243.21-Mar-2020 4435.61 6773.85 73.12 1.00 342.85 3146.67
   13:26:10.443.21-Mar-2020 4435.61 6775.57 73.12 1.00 343.05 3146.67
   13:26:10.643.21-Mar-2020 4435.61 6775.57 73.12 1.00 343.25 3146.67
   13:26:10.843.21-Mar-2020 4435.61 6775.52 73.12 1.00 343.45 3146.67
   13:26:11.043.21-Mar-2020 4435.61 6775.23 73.12 1.00 343.65 3146.67
   13:26:11.243.21-Mar-2020 4435.61 6772.16 73.12 1.00 343.85 3146.67
   13:26:11.443.21-Mar-2020 4435.61 6773.50 73.12 1.00 344.05 3146.67
   13:26:11.643.21-Mar-2020 4435.61 6773.50 73.12 1.00 344.25 3146.67
   13:26:11.843.21-Mar-2020 4435.61 6772.18 73.12 1.00 344.45 3146.67
   13:26:12.043.21-Mar-2020 4435.61 6771.45 73.12 1.00 344.65 3146.67
   13:26:12.243.21-Mar-2020 4435.61 6771.11 73.12 1.00 344.85 3146.67
