~Version Information
 VERS.                  2.0:   CWLS log ASCII Standard -VERSION 2.0
 WRAP.                   NO:   One line per depth step
~Well Information Block
#MNEM.UNIT     VALUE/NAME     DESCRIPTION
#---------     -----------    ---------------------------
 STRT.S             13:20:27 21-Mar-20: START TIME 13:20:27 21-Mar-20
 STOP.S             13:26:37 21-Mar-20: STOP TIME  13:26:37 21-Mar-20
 STEP.S                   0.00: STEP TIME
 NULL.                 -999.25: NULL VALUE
 DFWT.                        :  DIST FWL TEXT
 DFST.                        :  DIST FSL TEXT
 DMF .             Drill Floor:  DRILL MEAS FROM
 STIM.      22.38.56 15-Feb-20:  START TIME
 DATE.      22.38.56 15-Feb-20:  END TIME
 SPUD.               15-Feb-20:  SPUD DATE
 NREF.                    Grid:  NORTH REFERENCE
 HPTY.       Minimum Curvature:  HOLE POS TYPE
 DMOD.             Drill Model:  DRILL MOD DESC
 SVYD.                  Survey:  SURVEY DESC
 ILTD.               Lithology:  INTERP LTH DESC
 FTOP.          Formation Tops:  FORM TOPS DESC
 SON .        AZ-XX-0906019077:  JOB NUMBER
 PDAT.          Mean Sea Level:  PERMANENT DATUM
 WTYP.                Deviated:  WELL TYPE
 MDS .        Operator Entered:  MAG DATA SOURCE
 COMP.     BP Exploration (Caspian sea) Ltd.:  COMPANY
 UWI .                     N/A:  UNIQUE WELL IDENTIFIER
 API .                     N/A:  API NUMBER
 BASE.              Azerbaijan:  LOGGING EQUIPMENT BASE LOCATION
 REGN.                   EESSA:  REGION
 PROV.                     N/A:  PROVINCE
 STAT.                     N/A:  STATE NAME
 CTRY.              Azerbaijan:  COUNTRY NAME
 FLD .                     ACG:  FIELD NAME
 SRVC.          Turan Drilling:  CONTRACTOR
 MWDS.                    Baku:  MWD SHOP
 WELL.                    E16W:  WELL NAME
 JOBN.        AZ-XX-0906019077:  JOB TICKET NUMB
 RIG .                     DWG:  RIG NAME
 CNTY.                     N/A:  COUNTY NAME
 DCON.         Sperry Drilling:  DIRECTNL CONTR
 UNIT.                     N/A:  LOGGING EQUIPMENT ID
 LOC .                        :  LOCATION
 LMF .             Drill Floor:  LOG MEASURED FROM
 TVDS.m                  43.16:  TVDSS CORRECTN
 LATI.deg                40.17:  LATITUDE
 LONG.deg                51.17:  LONGITUDE
 WHNS.m                 -15.30:  WELL HEAD N/S
 WHEW.m                  -1.29:  WELL HEAD E/W
 UTMX.m              514337.95:  UTM X
 UTMY.m             4448627.46:  UTM Y
 DFWL.m                   0.00:  DISTANCE FWL
 DFSL.m                   0.00:  DISTANCE FSL
 SDEP.m                3499.01:  START DEPTH
 TDD .m                4422.01:  TOTAL DEPTH (DRILLER)
 VSDR.deg               151.14:  VERT SEC DIRECT
 GVFD.g                   1.00:  GRAVITY FIELD
 MFLD.nT              50334.00:  MAGNETIC FIELD
 MDIP.deg                59.62:  MAGNETIC DIP
 MDEC.deg                 6.46:  MAGNETIC DECL
 GRDC.deg                 0.12:  GRID CORRECTION
 AZTC.deg                 6.34:  AZM TOTAL CORR
 EPD .m                   0.00:  ELEVATION
 EGL .m                   0.00:  GROUND ELEVATION
 WDMS.m                 176.20:  WD ELEV
 APD .m                  43.16:  DEPTH ABOVE PD
 VSEW.m                  -1.29:  VERT SEC E/W
 VSNS.m                 -15.30:  VERT SEC N/S
 AGAP.m                  43.16:  AIR GAP
 EKB .m                   0.00:  KB ELEVATION
 EDF .m                  43.16:  DF ELEVATION
 TDL .m                  81.00:  TOTAL DEPTH (LOGGER)
 VSC .                       0:  VS TO CLOSURE
 MAGU.                 1852525:  MAGUTM CHECKSUM
~Parameter Information Block
#MNEM.UNIT       Value        Description
#---------     -----------    ---------------------------
 AV  .mps                 1.00:  Ann Velocity 
 AVMX.mps                 1.32:  Max Ann Veloc 
 AZIF.deg               141.43:  Azm, Final 
 BHAT.        Rotary Steerable:  BHA Type 
 BREV.rev            107699.99:  Rev Bit Total 
 BROT.°/30m              -0.88:  Build Rotating 
 BS  .in                  6.50:  Bit Size 
 BSZ .in                  6.50:  Bit Size 
 BTPL.psig              222.00:  Bit Press Loss 
 CABU.                     Yes:  Customer Abuse 
 CGEO.        Ali Isfandiyarov:  Customer Geo 
 TCS .hr                 23.12:  Time Ciculation Ended 
 CV  .mps                 2.20:  Crit Velocity 
 CVMX.mps                 3.01:  Max Crit Veloc 
 DD1 .         Intigam Rahimov:  Direct Drillr 1 
 DDSV.               Geo-Pilot:  DD Service 
 DEFF.%                 100.00:  % Det Eff 
 DLRX.°/30m               0.90:  Dogleg Rot Max 
 DLSO.°/30m               0.00:  Dogleg Oriented 
 DLSX.°/30m               0.00:  Dogleg Str Max 
 DRET.      20.00.00 21-Mar-20:  Drill End Time 
 DRST.      04.30.00 20-Mar-20:  Drill Start Tim 
 DTIM.hr                  8.99:  Time Drilling 
 EDEP.m                4503.01:  End Depth 
 ENG1.          Rasim Hashimov:  Engineer 1 
 ENG2.         Yevgeniy Ulikov:  Engineer 2 
 ETIM.      14.43.10 22-Mar-20:  End Time 
 FLOI.gpm               350.00:  Flow In 
 FLON.gpm               300.00:  Flow In Min 
 FLOS.cptm                0.00:  Fluid Loss 
 FLOX.gpm               400.00:  Flow In Max 
 FTRO.       Formation Presure:  FTWD Run Obj 
 HFLO.                      No:  High Flow 
 HPRE.                      No:  High Pressure 
 HTEM.                      No:  High Temp 
 HYDO.m                   1.80:  Hydro Offset 
 IFIN.deg                78.17:  Inc, Final 
 IMAX.deg                79.31:  Inc Max 
 IMIN.deg                78.75:  Inc Min 
 IMND.m                4474.16:  Inc Min Depth 
 IMXD.m                4445.88:  Inc Max Depth 
 JARR.                      No:  Jarring 
 LETM.      20.00.00 21-Mar-20:  Log End Time 
 LOST.hr                     0:  Lost Rig Time 
 LSTM.      04.30.00 19-Mar-20:  Log Start Time 
 MDCL.ppm             39500.00:  Mud Chlorides 
 MDES.     Inversion Oil/Synthetic:  Mud Desc 
 DFD .sg                  1.40:  Mud Density 
 MDMN.sg                  1.40:  Dens Mud Min 
 MDMX.sg                  1.40:  Dens Mud Max 
 MOIL.                      55:  Run Mud Oil % 
 MOWR.                   68:32:  Run Mud OWR 
 MSND.                     0.1:  Run Mud Sand % 
 MSOL.                       1:  Run Mud Solids% 
 DFV .spqt               78.00:  Mud Viscosity 
 MWOD.in                  4.75:  MWD Tool OD 
 MWSI.                      No:  Serv Intrp, MWD 
 OTIM.hr                 61.28:  Time Operating 
 PCON.           Look Like New:  Pad Condition 
 PMAX.psia             9103.94:  Press Op, Max 
 PV  .cP                 25.00:  Mud PV 
 RUN .                     800:  Run Number 
 ROPA.m/hr                7.10:  ROP Avg 
 ROPN.m/hr                2.40:  ROP Min 
 ROPX.m/hr               12.00:  ROP Max 
 RPMA.rpm               120.00:  RPM Surface Avg 
 RPMN.rpm                80.00:  RPM Surface Min 
 RPMX.rpm               140.00:  RPM Surface Max 
 RRUN.                    L203:  Rig Run Number 
 RTIM.hr                  6.50:  Time Reaming 
 SAZI.deg               140.14:  Azm, Start 
 SDEP.m                4422.01:  Start Depth 
 SIDD.                     Yes:  Serv Intrp, DD 
 SINC.deg                80.07:  Inc, Start 
 SPPA.psig             4619.00:  SPP Avg 
 SPPN.psig             3980.00:  SPP Min 
 SPPX.psig             5100.00:  SPP Max 
 STIM.      22.30.00 19-Mar-20:  Start Time 
 SVCS.                 DD, MWD:  Services 
 SVER.                    9.20:  Sperry Version 
 TDAT.m                  81.00:  Tot Depth Attmp 
 TDDF.                     Yes:  Trip for DD 
 TDLG.m                  81.00:  Tot Depth Loggd 
 TFF .                      No:  Trip for Fail 
 TQAA.f-kp               12.50:  Torque Abs Avg 
 TQAN.f-kp               12.00:  Torque Abs Min 
 TQAX.f-kp               14.00:  Torque Abs Max 
 TRRT.°/30m               0.25:  Turn Rotating 
 MRT .                    HCIM:  Maximum Recorded Temperature 
 TTMX.degC               86.27:  Max Tool Temp 
 VS01.         90595989G12V7D4:  Virtual Str1 SN 
 VS02.            90519330D5C4:  Virtual Str2 SN 
 VS03.             90522014R12:  Virtual Str3 SN 
 VS04.          90522272N2L2C4:  Virtual Str4 SN 
 VS05.      90512713X1Z1W1X1C4:  Virtual Str5 SN 
 WBMN.klb                 3.00:  WOB Min 
 WITN.        Elmaddin Rahimov:  Customer Rep 
 WOBA.klb                 5.60:  WOB Avg 
 WOBX.klb                 7.00:  WOB Max 
 YP  .lhf2               28.00:  Yield Point 
~Curve Information Block
#MNEM.UNIT                 API CODE     Curve Description
#---------               -----------    ---------------------------
 TIME.HHMMSS            00 000 000 000:  GT Time & Date
 GTDEPTH.m              00 000 000 000:  GT Depth
 GTPQH.psia             00 000 000 000:  GT HR Quartz Pressure
 GTTQ.degC              00 000 000 000:  GT Quartz Temperature
 GTTN.NONE              00 000 000 000:  GT Test Number
 GTET.sec               00 000 000 000:  GT Elapsed Test Time
 GTTVD.m                00 000 000 000:  GT True Vertical Depth
#Other Information
#
#WARRANTY: Halliburton will use its best efforts to furnish customers with 
#accurate information and interpretations that are part of, and incident to, the services 
#provided.  However, Halliburton cannot and does not warrant the accuracy 
#or correctness of such information and interpretations.  Under no circumstances should any 
#such information or interpretation be relied upon as the sole basis for any drilling, 
#completion, production, or financial decision or any procedure involving any risk to the 
#safety of any drilling venture, drilling rig or its crew or any other third party.  The 
#Customer has full responsibility for all drilling, completion and production operation.  
#Halliburton makes no representations or warranties, either expressed or 
#implied, including, but not limited to, the implied warranties of merchantability or fitness 
#for a particular purpose, with respect to the services rendered.  In no event will 
#Halliburton be liable for failure to obtain any particular results or for 
#any damages, including, but not limited to, indirect, special or consequential damages, 
#resulting from the use of any information or interpretation provided by Halliburton.
#
~A           TIME           GTDEPTH  GTPQH  GTTQ  GTTN  GTET   GTTVD  
# ...
   13:25:26.437.21-Mar-2020 4435.61 4647.48 73.12 1.00 299.04 3146.67
   13:25:26.637.21-Mar-2020 4435.61 4647.48 73.12 1.00 299.24 3146.67
   13:25:26.837.21-Mar-2020 4435.61 4647.60 73.12 1.00 299.44 3146.67
   13:25:27.037.21-Mar-2020 4435.61 4647.13 73.12 1.00 299.64 3146.67
   13:25:27.237.21-Mar-2020 4435.61 4647.55 73.12 1.00 299.84 3146.67
   13:25:27.437.21-Mar-2020 4435.61 4647.65 73.12 1.00 300.04 3146.67
   13:25:27.637.21-Mar-2020 4435.61 4647.65 73.12 1.00 300.24 3146.67
   13:25:27.837.21-Mar-2020 4435.61 4647.52 73.12 1.00 300.44 3146.67
   13:25:28.037.21-Mar-2020 4435.61 4647.50 73.12 1.00 300.64 3146.67
   13:25:28.237.21-Mar-2020 4435.61 4647.56 73.11 1.00 300.84 3146.67
   13:25:28.437.21-Mar-2020 4435.61 4647.49 73.11 1.00 301.04 3146.67
   13:25:28.637.21-Mar-2020 4435.61 4647.49 73.11 1.00 301.24 3146.67
   13:25:28.837.21-Mar-2020 4435.61 4647.52 73.11 1.00 301.44 3146.67
   13:25:29.037.21-Mar-2020 4435.61 4647.05 73.11 1.00 301.64 3146.67
   13:25:29.237.21-Mar-2020 4435.61 4647.51 73.11 1.00 301.84 3146.67
   13:25:29.437.21-Mar-2020 4435.61 4647.51 73.11 1.00 302.04 3146.67
   13:25:29.637.21-Mar-2020 4435.61 4647.51 73.11 1.00 302.24 3146.67
   13:25:29.837.21-Mar-2020 4435.61 4647.51 73.11 1.00 302.44 3146.67
   13:25:30.037.21-Mar-2020 4435.61 4647.42 73.11 1.00 302.64 3146.67
   13:25:30.237.21-Mar-2020 4435.61 4647.42 73.11 1.00 302.84 3146.67
   13:25:30.437.21-Mar-2020 4435.61 4647.47 73.11 1.00 303.04 3146.67
   13:25:30.637.21-Mar-2020 4435.61 4647.47 73.11 1.00 303.24 3146.67
   13:25:30.837.21-Mar-2020 4435.61 4647.49 73.11 1.00 303.44 3146.67
   13:25:31.037.21-Mar-2020 4435.61 4647.53 73.11 1.00 303.64 3146.67
   13:25:31.237.21-Mar-2020 4435.61 4647.48 73.11 1.00 303.84 3146.67
   13:25:31.437.21-Mar-2020 4435.61 4647.51 73.11 1.00 304.04 3146.67
   13:25:31.638.21-Mar-2020 4435.61 4647.51 73.11 1.00 304.24 3146.67
   13:25:31.838.21-Mar-2020 4435.61 4647.35 73.11 1.00 304.44 3146.67
   13:25:32.038.21-Mar-2020 4435.61 4647.44 73.11 1.00 304.64 3146.67
   13:25:32.238.21-Mar-2020 4435.61 4647.43 73.11 1.00 304.84 3146.67
   13:25:32.438.21-Mar-2020 4435.61 4647.21 73.11 1.00 305.04 3146.67
   13:25:32.638.21-Mar-2020 4435.61 4647.21 73.11 1.00 305.24 3146.67
   13:25:32.838.21-Mar-2020 4435.61 4647.56 73.11 1.00 305.44 3146.67
   13:25:33.038.21-Mar-2020 4435.61 4647.57 73.11 1.00 305.64 3146.67
   13:25:33.238.21-Mar-2020 4435.61 4647.10 73.11 1.00 305.84 3146.67
   13:25:33.438.21-Mar-2020 4435.61 4647.58 73.11 1.00 306.04 3146.67
   13:25:33.638.21-Mar-2020 4435.61 4647.59 73.11 1.00 306.24 3146.67
   13:25:33.838.21-Mar-2020 4435.61 4647.59 73.11 1.00 306.44 3146.67
   13:25:34.038.21-Mar-2020 4435.61 4647.39 73.11 1.00 306.64 3146.67
   13:25:34.238.21-Mar-2020 4435.61 4647.36 73.11 1.00 306.84 3146.67
   13:25:34.438.21-Mar-2020 4435.61 4647.68 73.11 1.00 307.04 3146.67
   13:25:34.638.21-Mar-2020 4435.61 4647.68 73.11 1.00 307.24 3146.67
   13:25:34.838.21-Mar-2020 4435.61 4647.54 73.11 1.00 307.44 3146.67
   13:25:35.038.21-Mar-2020 4435.61 4647.57 73.11 1.00 307.64 3146.67
   13:25:35.238.21-Mar-2020 4435.61 4647.55 73.11 1.00 307.84 3146.67
   13:25:35.438.21-Mar-2020 4435.61 4647.56 73.11 1.00 308.04 3146.67
   13:25:35.638.21-Mar-2020 4435.61 4647.56 73.11 1.00 308.24 3146.67
   13:25:35.838.21-Mar-2020 4435.61 4647.47 73.11 1.00 308.44 3146.67
   13:25:36.038.21-Mar-2020 4435.61 4647.17 73.11 1.00 308.64 3146.67
   13:25:36.238.21-Mar-2020 4435.61 4647.59 73.11 1.00 308.84 3146.67
   13:25:36.438.21-Mar-2020 4435.61 4647.57 73.11 1.00 309.04 3146.67
   13:25:36.638.21-Mar-2020 4435.61 4647.57 73.11 1.00 309.24 3146.67
   13:25:36.838.21-Mar-2020 4435.61 4647.49 73.11 1.00 309.44 3146.67
   13:25:37.038.21-Mar-2020 4435.61 4647.48 73.11 1.00 309.64 3146.67
   13:25:37.238.21-Mar-2020 4435.61 4647.46 73.11 1.00 309.84 3146.67
   13:25:37.438.21-Mar-2020 4435.61 4647.48 73.11 1.00 310.04 3146.67
   13:25:37.638.21-Mar-2020 4435.61 4647.48 73.11 1.00 310.24 3146.67
   13:25:37.838.21-Mar-2020 4435.61 4647.44 73.11 1.00 310.44 3146.67
   13:25:38.038.21-Mar-2020 4435.61 4647.59 73.11 1.00 310.64 3146.67
   13:25:38.238.21-Mar-2020 4435.61 4647.54 73.11 1.00 310.84 3146.67
   13:25:38.438.21-Mar-2020 4435.61 4647.50 73.11 1.00 311.04 3146.67
   13:25:38.639.21-Mar-2020 4435.61 4647.50 73.11 1.00 311.24 3146.67
   13:25:38.839.21-Mar-2020 4435.61 4647.17 73.11 1.00 311.44 3146.67
   13:25:39.039.21-Mar-2020 4435.61 4647.49 73.11 1.00 311.64 3146.67
   13:25:39.239.21-Mar-2020 4435.61 4647.46 73.11 1.00 311.84 3146.67
   13:25:39.439.21-Mar-2020 4435.61 4647.26 73.11 1.00 312.04 3146.67
   13:25:39.639.21-Mar-2020 4435.61 4647.26 73.11 1.00 312.24 3146.67
   13:25:39.839.21-Mar-2020 4435.61 4647.53 73.11 1.00 312.44 3146.67
   13:25:40.039.21-Mar-2020 4435.61 4647.55 73.11 1.00 312.64 3146.67
   13:25:40.239.21-Mar-2020 4435.61 4647.18 73.11 1.00 312.84 3146.67
   13:25:40.439.21-Mar-2020 4435.61 4647.55 73.11 1.00 313.04 3146.67
   13:25:40.639.21-Mar-2020 4435.61 4647.55 73.11 1.00 313.24 3146.67
   13:25:40.839.21-Mar-2020 4435.61 4647.59 73.11 1.00 313.44 3146.67
   13:25:41.039.21-Mar-2020 4435.61 4647.58 73.11 1.00 313.64 3146.67
   13:25:41.239.21-Mar-2020 4435.61 4647.26 73.11 1.00 313.84 3146.67
   13:25:41.439.21-Mar-2020 4435.61 4647.61 73.11 1.00 314.04 3146.67
   13:25:41.639.21-Mar-2020 4435.61 4647.61 73.11 1.00 314.24 3146.67
   13:25:41.839.21-Mar-2020 4435.61 4647.52 73.11 1.00 314.44 3146.67
   13:25:42.039.21-Mar-2020 4435.61 4647.55 73.11 1.00 314.64 3146.67
   13:25:42.239.21-Mar-2020 4435.61 4647.62 73.11 1.00 314.84 3146.67
   13:25:42.439.21-Mar-2020 4435.61 4647.51 73.11 1.00 315.04 3146.67
   13:25:42.639.21-Mar-2020 4435.61 4647.51 73.11 1.00 315.24 3146.67
   13:25:42.839.21-Mar-2020 4435.61 4647.50 73.11 1.00 315.45 3146.67
   13:25:43.039.21-Mar-2020 4435.61 4647.15 73.11 1.00 315.65 3146.67
   13:25:43.239.21-Mar-2020 4435.61 4647.59 73.11 1.00 315.85 3146.67
   13:25:43.439.21-Mar-2020 4435.61 4647.53 73.11 1.00 316.05 3146.67
   13:25:43.639.21-Mar-2020 4435.61 4647.53 73.11 1.00 316.25 3146.67
   13:25:43.839.21-Mar-2020 4435.61 4647.53 73.10 1.00 316.45 3146.67
   13:25:44.039.21-Mar-2020 4435.61 4647.46 73.10 1.00 316.65 3146.67
   13:25:44.239.21-Mar-2020 4435.61 4647.49 73.10 1.00 316.85 3146.67
   13:25:44.439.21-Mar-2020 4435.61 4647.41 73.10 1.00 317.05 3146.67
   13:25:44.639.21-Mar-2020 4435.61 4647.41 73.10 1.00 317.25 3146.67
   13:25:44.839.21-Mar-2020 4435.61 4647.49 73.10 1.00 317.45 3146.67
   13:25:45.039.21-Mar-2020 4435.61 4647.52 73.10 1.00 317.65 3146.67
   13:25:45.239.21-Mar-2020 4435.61 4647.61 73.10 1.00 317.85 3146.67
   13:25:45.439.21-Mar-2020 4435.61 4647.46 73.10 1.00 318.05 3146.67
   13:25:45.640.21-Mar-2020 4435.61 4647.46 73.10 1.00 318.25 3146.67
   13:25:45.840.21-Mar-2020 4435.61 4647.14 73.10 1.00 318.45 3146.67
   13:25:46.040.21-Mar-2020 4435.61 4647.43 73.10 1.00 318.65 3146.67
   13:25:46.240.21-Mar-2020 4435.61 4647.53 73.10 1.00 318.85 3146.67
   13:25:46.440.21-Mar-2020 4435.61 4647.46 73.10 1.00 319.05 3146.67
   13:25:46.640.21-Mar-2020 4435.61 4647.46 73.10 1.00 319.25 3146.67
   13:25:46.840.21-Mar-2020 4435.61 4647.57 73.10 1.00 319.45 3146.67
   13:25:47.040.21-Mar-2020 4435.61 4647.48 73.10 1.00 319.65 3146.67
   13:25:47.240.21-Mar-2020 4435.61 4647.20 73.10 1.00 319.85 3146.67
   13:25:47.440.21-Mar-2020 4435.61 4647.55 73.10 1.00 320.05 3146.67
   13:25:47.640.21-Mar-2020 4435.61 4647.55 73.10 1.00 320.25 3146.67
   13:25:47.840.21-Mar-2020 4435.61 4647.67 73.10 1.00 320.45 3146.67
   13:25:48.040.21-Mar-2020 4435.61 4647.60 73.10 1.00 320.65 3146.67
   13:25:48.240.21-Mar-2020 4435.61 4647.18 73.10 1.00 320.85 3146.67
   13:25:48.440.21-Mar-2020 4435.61 4647.60 73.10 1.00 321.05 3146.67
   13:25:48.640.21-Mar-2020 4435.61 4647.60 73.10 1.00 321.25 3146.67
   13:25:48.840.21-Mar-2020 4435.61 4647.57 73.10 1.00 321.45 3146.67
   13:25:49.040.21-Mar-2020 4435.61 4647.51 73.10 1.00 321.65 3146.67
   13:25:49.240.21-Mar-2020 4435.61 4647.58 73.10 1.00 321.85 3146.67
