~Version Information
 VERS.                  2.0:   CWLS log ASCII Standard -VERSION 2.0
 WRAP.                   NO:   One line per depth step
~Well Information Block
#MNEM.UNIT     VALUE/NAME     DESCRIPTION
#---------     -----------    ---------------------------
 STRT.S             13:20:27 21-Mar-20: START TIME 13:20:27 21-Mar-20
 STOP.S             13:26:37 21-Mar-20: STOP TIME  13:26:37 21-Mar-20
 STEP.S                   0.00: STEP TIME
 NULL.                 -999.25: NULL VALUE
 DFWT.                        :  DIST FWL TEXT
 DFST.                        :  DIST FSL TEXT
 DMF .             Drill Floor:  DRILL MEAS FROM
 STIM.      22.38.56 15-Feb-20:  START TIME
 DATE.      22.38.56 15-Feb-20:  END TIME
 SPUD.               15-Feb-20:  SPUD DATE
 NREF.                    Grid:  NORTH REFERENCE
 HPTY.       Minimum Curvature:  HOLE POS TYPE
 DMOD.             Drill Model:  DRILL MOD DESC
 SVYD.                  Survey:  SURVEY DESC
 ILTD.               Lithology:  INTERP LTH DESC
 FTOP.          Formation Tops:  FORM TOPS DESC
 SON .        AZ-XX-0906019077:  JOB NUMBER
 PDAT.          Mean Sea Level:  PERMANENT DATUM
 WTYP.                Deviated:  WELL TYPE
 MDS .        Operator Entered:  MAG DATA SOURCE
 COMP.     BP Exploration (Caspian sea) Ltd.:  COMPANY
 UWI .                     N/A:  UNIQUE WELL IDENTIFIER
 API .                     N/A:  API NUMBER
 BASE.              Azerbaijan:  LOGGING EQUIPMENT BASE LOCATION
 REGN.                   EESSA:  REGION
 PROV.                     N/A:  PROVINCE
 STAT.                     N/A:  STATE NAME
 CTRY.              Azerbaijan:  COUNTRY NAME
 FLD .                     ACG:  FIELD NAME
 SRVC.          Turan Drilling:  CONTRACTOR
 MWDS.                    Baku:  MWD SHOP
 WELL.                    E16W:  WELL NAME
 JOBN.        AZ-XX-0906019077:  JOB TICKET NUMB
 RIG .                     DWG:  RIG NAME
 CNTY.                     N/A:  COUNTY NAME
 DCON.         Sperry Drilling:  DIRECTNL CONTR
 UNIT.                     N/A:  LOGGING EQUIPMENT ID
 LOC .                        :  LOCATION
 LMF .             Drill Floor:  LOG MEASURED FROM
 TVDS.m                  43.16:  TVDSS CORRECTN
 LATI.deg                40.17:  LATITUDE
 LONG.deg                51.17:  LONGITUDE
 WHNS.m                 -15.30:  WELL HEAD N/S
 WHEW.m                  -1.29:  WELL HEAD E/W
 UTMX.m              514337.95:  UTM X
 UTMY.m             4448627.46:  UTM Y
 DFWL.m                   0.00:  DISTANCE FWL
 DFSL.m                   0.00:  DISTANCE FSL
 SDEP.m                3499.01:  START DEPTH
 TDD .m                4422.01:  TOTAL DEPTH (DRILLER)
 VSDR.deg               151.14:  VERT SEC DIRECT
 GVFD.g                   1.00:  GRAVITY FIELD
 MFLD.nT              50334.00:  MAGNETIC FIELD
 MDIP.deg                59.62:  MAGNETIC DIP
 MDEC.deg                 6.46:  MAGNETIC DECL
 GRDC.deg                 0.12:  GRID CORRECTION
 AZTC.deg                 6.34:  AZM TOTAL CORR
 EPD .m                   0.00:  ELEVATION
 EGL .m                   0.00:  GROUND ELEVATION
 WDMS.m                 176.20:  WD ELEV
 APD .m                  43.16:  DEPTH ABOVE PD
 VSEW.m                  -1.29:  VERT SEC E/W
 VSNS.m                 -15.30:  VERT SEC N/S
 AGAP.m                  43.16:  AIR GAP
 EKB .m                   0.00:  KB ELEVATION
 EDF .m                  43.16:  DF ELEVATION
 TDL .m                  81.00:  TOTAL DEPTH (LOGGER)
 VSC .                       0:  VS TO CLOSURE
 MAGU.                 1852525:  MAGUTM CHECKSUM
~Parameter Information Block
#MNEM.UNIT       Value        Description
#---------     -----------    ---------------------------
 AV  .mps                 1.00:  Ann Velocity 
 AVMX.mps                 1.32:  Max Ann Veloc 
 AZIF.deg               141.43:  Azm, Final 
 BHAT.        Rotary Steerable:  BHA Type 
 BREV.rev            107699.99:  Rev Bit Total 
 BROT.°/30m              -0.88:  Build Rotating 
 BS  .in                  6.50:  Bit Size 
 BSZ .in                  6.50:  Bit Size 
 BTPL.psig              222.00:  Bit Press Loss 
 CABU.                     Yes:  Customer Abuse 
 CGEO.        Ali Isfandiyarov:  Customer Geo 
 TCS .hr                 23.12:  Time Ciculation Ended 
 CV  .mps                 2.20:  Crit Velocity 
 CVMX.mps                 3.01:  Max Crit Veloc 
 DD1 .         Intigam Rahimov:  Direct Drillr 1 
 DDSV.               Geo-Pilot:  DD Service 
 DEFF.%                 100.00:  % Det Eff 
 DLRX.°/30m               0.90:  Dogleg Rot Max 
 DLSO.°/30m               0.00:  Dogleg Oriented 
 DLSX.°/30m               0.00:  Dogleg Str Max 
 DRET.      20.00.00 21-Mar-20:  Drill End Time 
 DRST.      04.30.00 20-Mar-20:  Drill Start Tim 
 DTIM.hr                  8.99:  Time Drilling 
 EDEP.m                4503.01:  End Depth 
 ENG1.          Rasim Hashimov:  Engineer 1 
 ENG2.         Yevgeniy Ulikov:  Engineer 2 
 ETIM.      14.43.10 22-Mar-20:  End Time 
 FLOI.gpm               350.00:  Flow In 
 FLON.gpm               300.00:  Flow In Min 
 FLOS.cptm                0.00:  Fluid Loss 
 FLOX.gpm               400.00:  Flow In Max 
 FTRO.       Formation Presure:  FTWD Run Obj 
 HFLO.                      No:  High Flow 
 HPRE.                      No:  High Pressure 
 HTEM.                      No:  High Temp 
 HYDO.m                   1.80:  Hydro Offset 
 IFIN.deg                78.17:  Inc, Final 
 IMAX.deg                79.31:  Inc Max 
 IMIN.deg                78.75:  Inc Min 
 IMND.m                4474.16:  Inc Min Depth 
 IMXD.m                4445.88:  Inc Max Depth 
 JARR.                      No:  Jarring 
 LETM.      20.00.00 21-Mar-20:  Log End Time 
 LOST.hr                     0:  Lost Rig Time 
 LSTM.      04.30.00 19-Mar-20:  Log Start Time 
 MDCL.ppm             39500.00:  Mud Chlorides 
 MDES.     Inversion Oil/Synthetic:  Mud Desc 
 DFD .sg                  1.40:  Mud Density 
 MDMN.sg                  1.40:  Dens Mud Min 
 MDMX.sg                  1.40:  Dens Mud Max 
 MOIL.                      55:  Run Mud Oil % 
 MOWR.                   68:32:  Run Mud OWR 
 MSND.                     0.1:  Run Mud Sand % 
 MSOL.                       1:  Run Mud Solids% 
 DFV .spqt               78.00:  Mud Viscosity 
 MWOD.in                  4.75:  MWD Tool OD 
 MWSI.                      No:  Serv Intrp, MWD 
 OTIM.hr                 61.28:  Time Operating 
 PCON.           Look Like New:  Pad Condition 
 PMAX.psia             9103.94:  Press Op, Max 
 PV  .cP                 25.00:  Mud PV 
 RUN .                     800:  Run Number 
 ROPA.m/hr                7.10:  ROP Avg 
 ROPN.m/hr                2.40:  ROP Min 
 ROPX.m/hr               12.00:  ROP Max 
 RPMA.rpm               120.00:  RPM Surface Avg 
 RPMN.rpm                80.00:  RPM Surface Min 
 RPMX.rpm               140.00:  RPM Surface Max 
 RRUN.                    L203:  Rig Run Number 
 RTIM.hr                  6.50:  Time Reaming 
 SAZI.deg               140.14:  Azm, Start 
 SDEP.m                4422.01:  Start Depth 
 SIDD.                     Yes:  Serv Intrp, DD 
 SINC.deg                80.07:  Inc, Start 
 SPPA.psig             4619.00:  SPP Avg 
 SPPN.psig             3980.00:  SPP Min 
 SPPX.psig             5100.00:  SPP Max 
 STIM.      22.30.00 19-Mar-20:  Start Time 
 SVCS.                 DD, MWD:  Services 
 SVER.                    9.20:  Sperry Version 
 TDAT.m                  81.00:  Tot Depth Attmp 
 TDDF.                     Yes:  Trip for DD 
 TDLG.m                  81.00:  Tot Depth Loggd 
 TFF .                      No:  Trip for Fail 
 TQAA.f-kp               12.50:  Torque Abs Avg 
 TQAN.f-kp               12.00:  Torque Abs Min 
 TQAX.f-kp               14.00:  Torque Abs Max 
 TRRT.°/30m               0.25:  Turn Rotating 
 MRT .                    HCIM:  Maximum Recorded Temperature 
 TTMX.degC               86.27:  Max Tool Temp 
 VS01.         90595989G12V7D4:  Virtual Str1 SN 
 VS02.            90519330D5C4:  Virtual Str2 SN 
 VS03.             90522014R12:  Virtual Str3 SN 
 VS04.          90522272N2L2C4:  Virtual Str4 SN 
 VS05.      90512713X1Z1W1X1C4:  Virtual Str5 SN 
 WBMN.klb                 3.00:  WOB Min 
 WITN.        Elmaddin Rahimov:  Customer Rep 
 WOBA.klb                 5.60:  WOB Avg 
 WOBX.klb                 7.00:  WOB Max 
 YP  .lhf2               28.00:  Yield Point 
~Curve Information Block
#MNEM.UNIT                 API CODE     Curve Description
#---------               -----------    ---------------------------
 TIME.HHMMSS            00 000 000 000:  GT Time & Date
 GTDEPTH.m              00 000 000 000:  GT Depth
 GTPQH.psia             00 000 000 000:  GT HR Quartz Pressure
 GTTQ.degC              00 000 000 000:  GT Quartz Temperature
 GTTN.NONE              00 000 000 000:  GT Test Number
 GTET.sec               00 000 000 000:  GT Elapsed Test Time
 GTTVD.m                00 000 000 000:  GT True Vertical Depth
#Other Information
#
#WARRANTY: Halliburton will use its best efforts to furnish customers with 
#accurate information and interpretations that are part of, and incident to, the services 
#provided.  However, Halliburton cannot and does not warrant the accuracy 
#or correctness of such information and interpretations.  Under no circumstances should any 
#such information or interpretation be relied upon as the sole basis for any drilling, 
#completion, production, or financial decision or any procedure involving any risk to the 
#safety of any drilling venture, drilling rig or its crew or any other third party.  The 
#Customer has full responsibility for all drilling, completion and production operation.  
#Halliburton makes no representations or warranties, either expressed or 
#implied, including, but not limited to, the implied warranties of merchantability or fitness 
#for a particular purpose, with respect to the services rendered.  In no event will 
#Halliburton be liable for failure to obtain any particular results or for 
#any damages, including, but not limited to, indirect, special or consequential damages, 
#resulting from the use of any information or interpretation provided by Halliburton.
#
~A           TIME           GTDEPTH  GTPQH  GTTQ  GTTN  GTET   GTTVD  
# ...
   13:21:59.407.21-Mar-2020 4435.61 4647.79 73.29 1.00  92.01 3146.67
   13:21:59.607.21-Mar-2020 4435.61 4647.79 73.29 1.00  92.21 3146.67
   13:21:59.807.21-Mar-2020 4435.61 4647.67 73.29 1.00  92.41 3146.67
   13:22:00.007.21-Mar-2020 4435.61 4647.86 73.29 1.00  92.61 3146.67
   13:22:00.207.21-Mar-2020 4435.61 4647.80 73.29 1.00  92.81 3146.67
   13:22:00.407.21-Mar-2020 4435.61 4647.64 73.29 1.00  93.01 3146.67
   13:22:00.607.21-Mar-2020 4435.61 4647.64 73.29 1.00  93.21 3146.67
   13:22:00.807.21-Mar-2020 4435.61 4647.82 73.29 1.00  93.41 3146.67
   13:22:01.007.21-Mar-2020 4435.61 4647.85 73.29 1.00  93.61 3146.67
   13:22:01.207.21-Mar-2020 4435.61 4647.44 73.29 1.00  93.81 3146.67
   13:22:01.408.21-Mar-2020 4435.61 4647.85 73.29 1.00  94.01 3146.67
   13:22:01.608.21-Mar-2020 4435.61 4647.85 73.29 1.00  94.21 3146.67
   13:22:01.808.21-Mar-2020 4435.61 4647.91 73.29 1.00  94.41 3146.67
   13:22:02.008.21-Mar-2020 4435.61 4647.90 73.29 1.00  94.61 3146.67
   13:22:02.208.21-Mar-2020 4435.61 4647.49 73.29 1.00  94.81 3146.67
   13:22:02.408.21-Mar-2020 4435.61 4647.87 73.29 1.00  95.01 3146.67
   13:22:02.608.21-Mar-2020 4435.61 4647.87 73.29 1.00  95.21 3146.67
   13:22:02.808.21-Mar-2020 4435.61 4647.81 73.29 1.00  95.41 3146.67
   13:22:03.008.21-Mar-2020 4435.61 4647.85 73.29 1.00  95.61 3146.67
   13:22:03.208.21-Mar-2020 4435.61 4647.85 73.29 1.00  95.81 3146.67
   13:22:03.408.21-Mar-2020 4435.61 4647.81 73.29 1.00  96.01 3146.67
   13:22:03.608.21-Mar-2020 4435.61 4647.81 73.29 1.00  96.21 3146.67
   13:22:03.808.21-Mar-2020 4435.61 4647.79 73.29 1.00  96.41 3146.67
   13:22:04.008.21-Mar-2020 4435.61 4647.47 73.29 1.00  96.61 3146.67
   13:22:04.208.21-Mar-2020 4435.61 4647.88 73.29 1.00  96.81 3146.67
   13:22:04.408.21-Mar-2020 4435.61 4647.83 73.29 1.00  97.01 3146.67
   13:22:04.608.21-Mar-2020 4435.61 4647.83 73.29 1.00  97.21 3146.67
   13:22:04.808.21-Mar-2020 4435.61 4647.81 73.29 1.00  97.41 3146.67
   13:22:05.008.21-Mar-2020 4435.61 4647.77 73.29 1.00  97.61 3146.67
   13:22:05.208.21-Mar-2020 4435.61 4647.77 73.29 1.00  97.81 3146.67
   13:22:05.408.21-Mar-2020 4435.61 4647.76 73.29 1.00  98.01 3146.67
   13:22:05.608.21-Mar-2020 4435.61 4647.76 73.29 1.00  98.21 3146.67
   13:22:05.808.21-Mar-2020 4435.61 4647.78 73.29 1.00  98.41 3146.67
   13:22:06.008.21-Mar-2020 4435.61 4647.87 73.29 1.00  98.61 3146.67
   13:22:06.208.21-Mar-2020 4435.61 4647.88 73.29 1.00  98.81 3146.67
   13:22:06.408.21-Mar-2020 4435.61 4647.79 73.29 1.00  99.01 3146.67
   13:22:06.608.21-Mar-2020 4435.61 4647.79 73.29 1.00  99.21 3146.67
   13:22:06.808.21-Mar-2020 4435.61 4647.48 73.29 1.00  99.41 3146.67
   13:22:07.008.21-Mar-2020 4435.61 4647.82 73.28 1.00  99.61 3146.67
   13:22:07.208.21-Mar-2020 4435.61 4647.86 73.28 1.00  99.81 3146.67
   13:22:07.408.21-Mar-2020 4435.61 4647.82 73.28 1.00 100.01 3146.67
   13:22:07.608.21-Mar-2020 4435.61 4647.82 73.28 1.00 100.21 3146.67
   13:22:07.808.21-Mar-2020 4435.61 4647.86 73.28 1.00 100.41 3146.67
   13:22:08.008.21-Mar-2020 4435.61 4647.84 73.28 1.00 100.61 3146.67
   13:22:08.208.21-Mar-2020 4435.61 4647.49 73.28 1.00 100.81 3146.67
   13:22:08.409.21-Mar-2020 4435.61 4647.88 73.28 1.00 101.01 3146.67
   13:22:08.609.21-Mar-2020 4435.61 4647.88 73.28 1.00 101.21 3146.67
   13:22:08.809.21-Mar-2020 4435.61 4647.92 73.28 1.00 101.41 3146.67
   13:22:09.009.21-Mar-2020 4435.61 4647.91 73.28 1.00 101.61 3146.67
   13:22:09.209.21-Mar-2020 4435.61 4647.45 73.28 1.00 101.81 3146.67
   13:22:09.409.21-Mar-2020 4435.61 4647.90 73.28 1.00 102.01 3146.67
   13:22:09.609.21-Mar-2020 4435.61 4647.90 73.28 1.00 102.21 3146.67
   13:22:09.809.21-Mar-2020 4435.61 4647.82 73.28 1.00 102.41 3146.67
   13:22:10.009.21-Mar-2020 4435.61 4647.80 73.28 1.00 102.61 3146.67
   13:22:10.209.21-Mar-2020 4435.61 4647.88 73.28 1.00 102.81 3146.67
   13:22:10.409.21-Mar-2020 4435.61 4647.88 73.28 1.00 103.01 3146.67
   13:22:10.609.21-Mar-2020 4435.61 4647.88 73.28 1.00 103.21 3146.67
   13:22:10.809.21-Mar-2020 4435.61 4647.81 73.28 1.00 103.41 3146.67
   13:22:11.009.21-Mar-2020 4435.61 4647.60 73.28 1.00 103.61 3146.67
   13:22:11.209.21-Mar-2020 4435.61 4647.73 73.28 1.00 103.81 3146.67
   13:22:11.409.21-Mar-2020 4435.61 4647.87 73.28 1.00 104.01 3146.67
   13:22:11.609.21-Mar-2020 4435.61 4647.87 73.28 1.00 104.21 3146.67
   13:22:11.809.21-Mar-2020 4435.61 4647.84 73.28 1.00 104.41 3146.67
   13:22:12.009.21-Mar-2020 4435.61 4647.79 73.28 1.00 104.61 3146.67
   13:22:12.209.21-Mar-2020 4435.61 4647.75 73.28 1.00 104.81 3146.67
   13:22:12.409.21-Mar-2020 4435.61 4647.76 73.28 1.00 105.01 3146.67
   13:22:12.609.21-Mar-2020 4435.61 4647.76 73.28 1.00 105.22 3146.67
   13:22:12.809.21-Mar-2020 4435.61 4647.78 73.28 1.00 105.42 3146.67
   13:22:13.009.21-Mar-2020 4435.61 4647.80 73.28 1.00 105.62 3146.67
   13:22:13.209.21-Mar-2020 4435.61 4647.88 73.28 1.00 105.82 3146.67
   13:22:13.409.21-Mar-2020 4435.61 4647.82 73.28 1.00 106.02 3146.67
   13:22:13.609.21-Mar-2020 4435.61 4647.82 73.28 1.00 106.22 3146.67
   13:22:13.809.21-Mar-2020 4435.61 4647.46 73.28 1.00 106.42 3146.67
   13:22:14.009.21-Mar-2020 4435.61 4647.82 73.28 1.00 106.62 3146.67
   13:22:14.209.21-Mar-2020 4435.61 4647.84 73.28 1.00 106.82 3146.67
   13:22:14.409.21-Mar-2020 4435.61 4647.88 73.28 1.00 107.02 3146.67
   13:22:14.609.21-Mar-2020 4435.61 4647.88 73.28 1.00 107.22 3146.67
   13:22:14.809.21-Mar-2020 4435.61 4647.88 73.27 1.00 107.42 3146.67
   13:22:15.009.21-Mar-2020 4435.61 4647.81 73.27 1.00 107.62 3146.67
   13:22:15.209.21-Mar-2020 4435.61 4647.64 73.27 1.00 107.82 3146.67
   13:22:15.410.21-Mar-2020 4435.61 4647.75 73.27 1.00 108.02 3146.67
   13:22:15.610.21-Mar-2020 4435.61 4647.75 73.27 1.00 108.22 3146.67
   13:22:15.810.21-Mar-2020 4435.61 4647.91 73.27 1.00 108.42 3146.67
   13:22:16.010.21-Mar-2020 4435.61 4647.90 73.27 1.00 108.62 3146.67
   13:22:16.210.21-Mar-2020 4435.61 4647.48 73.27 1.00 108.82 3146.67
   13:22:16.410.21-Mar-2020 4435.61 4647.91 73.27 1.00 109.02 3146.67
   13:22:16.610.21-Mar-2020 4435.61 4647.91 73.27 1.00 109.22 3146.67
   13:22:16.810.21-Mar-2020 4435.61 4647.82 73.27 1.00 109.42 3146.67
   13:22:17.010.21-Mar-2020 4435.61 4647.80 73.27 1.00 109.62 3146.67
   13:22:17.210.21-Mar-2020 4435.61 4647.84 73.27 1.00 109.82 3146.67
   13:22:17.410.21-Mar-2020 4435.61 4647.90 73.27 1.00 110.02 3146.67
   13:22:17.610.21-Mar-2020 4435.61 4647.90 73.27 1.00 110.22 3146.67
   13:22:17.810.21-Mar-2020 4435.61 4647.80 73.27 1.00 110.42 3146.67
   13:22:18.010.21-Mar-2020 4435.61 4647.79 73.27 1.00 110.62 3146.67
   13:22:18.210.21-Mar-2020 4435.61 4647.54 73.27 1.00 110.82 3146.67
   13:22:18.410.21-Mar-2020 4435.61 4647.87 73.27 1.00 111.02 3146.67
   13:22:18.610.21-Mar-2020 4435.61 4647.87 73.27 1.00 111.22 3146.67
   13:22:18.810.21-Mar-2020 4435.61 4647.79 73.27 1.00 111.42 3146.67
   13:22:19.010.21-Mar-2020 4435.61 4647.79 73.27 1.00 111.62 3146.67
   13:22:19.210.21-Mar-2020 4435.61 4647.74 73.27 1.00 111.82 3146.67
   13:22:19.410.21-Mar-2020 4435.61 4647.76 73.27 1.00 112.02 3146.67
   13:22:19.610.21-Mar-2020 4435.61 4647.76 73.27 1.00 112.22 3146.67
   13:22:19.810.21-Mar-2020 4435.61 4647.80 73.27 1.00 112.42 3146.67
   13:22:20.010.21-Mar-2020 4435.61 4647.83 73.27 1.00 112.62 3146.67
   13:22:20.210.21-Mar-2020 4435.61 4647.86 73.27 1.00 112.82 3146.67
   13:22:20.410.21-Mar-2020 4435.61 4647.83 73.27 1.00 113.02 3146.67
   13:22:20.610.21-Mar-2020 4435.61 4647.83 73.27 1.00 113.22 3146.67
   13:22:20.810.21-Mar-2020 4435.61 4646.19 73.27 1.00 113.42 3146.67
   13:22:21.010.21-Mar-2020 4435.61 4483.16 73.27 1.00 113.62 3146.67
   13:22:21.210.21-Mar-2020 4435.61 4144.25 73.27 1.00 113.82 3146.67
   13:22:21.410.21-Mar-2020 4435.61 4016.07 73.27 1.00 114.02 3146.67
   13:22:21.610.21-Mar-2020 4435.61 4016.07 73.27 1.00 114.22 3146.67
   13:22:21.810.21-Mar-2020 4435.61 3947.89 73.27 1.00 114.42 3146.67
   13:22:22.010.21-Mar-2020 4435.61 3940.11 73.27 1.00 114.62 3146.67
   13:22:22.210.21-Mar-2020 4435.61 3935.74 73.27 1.00 114.82 3146.67
