~Version Information
 VERS.                  2.0:   CWLS log ASCII Standard -VERSION 2.0
 WRAP.                   NO:   One line per depth step
~Well Information Block
#MNEM.UNIT     VALUE/NAME     DESCRIPTION
#---------     -----------    ---------------------------
 STRT.S             13:20:27 21-Mar-20: START TIME 13:20:27 21-Mar-20
 STOP.S             13:26:37 21-Mar-20: STOP TIME  13:26:37 21-Mar-20
 STEP.S                   0.00: STEP TIME
 NULL.                 -999.25: NULL VALUE
 DFWT.                        :  DIST FWL TEXT
 DFST.                        :  DIST FSL TEXT
 DMF .             Drill Floor:  DRILL MEAS FROM
 STIM.      22.38.56 15-Feb-20:  START TIME
 DATE.      22.38.56 15-Feb-20:  END TIME
 SPUD.               15-Feb-20:  SPUD DATE
 NREF.                    Grid:  NORTH REFERENCE
 HPTY.       Minimum Curvature:  HOLE POS TYPE
 DMOD.             Drill Model:  DRILL MOD DESC
 SVYD.                  Survey:  SURVEY DESC
 ILTD.               Lithology:  INTERP LTH DESC
 FTOP.          Formation Tops:  FORM TOPS DESC
 SON .        AZ-XX-0906019077:  JOB NUMBER
 PDAT.          Mean Sea Level:  PERMANENT DATUM
 WTYP.                Deviated:  WELL TYPE
 MDS .        Operator Entered:  MAG DATA SOURCE
 COMP.     BP Exploration (Caspian sea) Ltd.:  COMPANY
 UWI .                     N/A:  UNIQUE WELL IDENTIFIER
 API .                     N/A:  API NUMBER
 BASE.              Azerbaijan:  LOGGING EQUIPMENT BASE LOCATION
 REGN.                   EESSA:  REGION
 PROV.                     N/A:  PROVINCE
 STAT.                     N/A:  STATE NAME
 CTRY.              Azerbaijan:  COUNTRY NAME
 FLD .                     ACG:  FIELD NAME
 SRVC.          Turan Drilling:  CONTRACTOR
 MWDS.                    Baku:  MWD SHOP
 WELL.                    E16W:  WELL NAME
 JOBN.        AZ-XX-0906019077:  JOB TICKET NUMB
 RIG .                     DWG:  RIG NAME
 CNTY.                     N/A:  COUNTY NAME
 DCON.         Sperry Drilling:  DIRECTNL CONTR
 UNIT.                     N/A:  LOGGING EQUIPMENT ID
 LOC .                        :  LOCATION
 LMF .             Drill Floor:  LOG MEASURED FROM
 TVDS.m                  43.16:  TVDSS CORRECTN
 LATI.deg                40.17:  LATITUDE
 LONG.deg                51.17:  LONGITUDE
 WHNS.m                 -15.30:  WELL HEAD N/S
 WHEW.m                  -1.29:  WELL HEAD E/W
 UTMX.m              514337.95:  UTM X
 UTMY.m             4448627.46:  UTM Y
 DFWL.m                   0.00:  DISTANCE FWL
 DFSL.m                   0.00:  DISTANCE FSL
 SDEP.m                3499.01:  START DEPTH
 TDD .m                4422.01:  TOTAL DEPTH (DRILLER)
 VSDR.deg               151.14:  VERT SEC DIRECT
 GVFD.g                   1.00:  GRAVITY FIELD
 MFLD.nT              50334.00:  MAGNETIC FIELD
 MDIP.deg                59.62:  MAGNETIC DIP
 MDEC.deg                 6.46:  MAGNETIC DECL
 GRDC.deg                 0.12:  GRID CORRECTION
 AZTC.deg                 6.34:  AZM TOTAL CORR
 EPD .m                   0.00:  ELEVATION
 EGL .m                   0.00:  GROUND ELEVATION
 WDMS.m                 176.20:  WD ELEV
 APD .m                  43.16:  DEPTH ABOVE PD
 VSEW.m                  -1.29:  VERT SEC E/W
 VSNS.m                 -15.30:  VERT SEC N/S
 AGAP.m                  43.16:  AIR GAP
 EKB .m                   0.00:  KB ELEVATION
 EDF .m                  43.16:  DF ELEVATION
 TDL .m                  81.00:  TOTAL DEPTH (LOGGER)
 VSC .                       0:  VS TO CLOSURE
 MAGU.                 1852525:  MAGUTM CHECKSUM
~Parameter Information Block
#MNEM.UNIT       Value        Description
#---------     -----------    ---------------------------
 AV  .mps                 1.00:  Ann Velocity 
 AVMX.mps                 1.32:  Max Ann Veloc 
 AZIF.deg               141.43:  Azm, Final 
 BHAT.        Rotary Steerable:  BHA Type 
 BREV.rev            107699.99:  Rev Bit Total 
 BROT.°/30m              -0.88:  Build Rotating 
 BS  .in                  6.50:  Bit Size 
 BSZ .in                  6.50:  Bit Size 
 BTPL.psig              222.00:  Bit Press Loss 
 CABU.                     Yes:  Customer Abuse 
 CGEO.        Ali Isfandiyarov:  Customer Geo 
 TCS .hr                 23.12:  Time Ciculation Ended 
 CV  .mps                 2.20:  Crit Velocity 
 CVMX.mps                 3.01:  Max Crit Veloc 
 DD1 .         Intigam Rahimov:  Direct Drillr 1 
 DDSV.               Geo-Pilot:  DD Service 
 DEFF.%                 100.00:  % Det Eff 
 DLRX.°/30m               0.90:  Dogleg Rot Max 
 DLSO.°/30m               0.00:  Dogleg Oriented 
 DLSX.°/30m               0.00:  Dogleg Str Max 
 DRET.      20.00.00 21-Mar-20:  Drill End Time 
 DRST.      04.30.00 20-Mar-20:  Drill Start Tim 
 DTIM.hr                  8.99:  Time Drilling 
 EDEP.m                4503.01:  End Depth 
 ENG1.          Rasim Hashimov:  Engineer 1 
 ENG2.         Yevgeniy Ulikov:  Engineer 2 
 ETIM.      14.43.10 22-Mar-20:  End Time 
 FLOI.gpm               350.00:  Flow In 
 FLON.gpm               300.00:  Flow In Min 
 FLOS.cptm                0.00:  Fluid Loss 
 FLOX.gpm               400.00:  Flow In Max 
 FTRO.       Formation Presure:  FTWD Run Obj 
 HFLO.                      No:  High Flow 
 HPRE.                      No:  High Pressure 
 HTEM.                      No:  High Temp 
 HYDO.m                   1.80:  Hydro Offset 
 IFIN.deg                78.17:  Inc, Final 
 IMAX.deg                79.31:  Inc Max 
 IMIN.deg                78.75:  Inc Min 
 IMND.m                4474.16:  Inc Min Depth 
 IMXD.m                4445.88:  Inc Max Depth 
 JARR.                      No:  Jarring 
 LETM.      20.00.00 21-Mar-20:  Log End Time 
 LOST.hr                     0:  Lost Rig Time 
 LSTM.      04.30.00 19-Mar-20:  Log Start Time 
 MDCL.ppm             39500.00:  Mud Chlorides 
 MDES.     Inversion Oil/Synthetic:  Mud Desc 
 DFD .sg                  1.40:  Mud Density 
 MDMN.sg                  1.40:  Dens Mud Min 
 MDMX.sg                  1.40:  Dens Mud Max 
 MOIL.                      55:  Run Mud Oil % 
 MOWR.                   68:32:  Run Mud OWR 
 MSND.                     0.1:  Run Mud Sand % 
 MSOL.                       1:  Run Mud Solids% 
 DFV .spqt               78.00:  Mud Viscosity 
 MWOD.in                  4.75:  MWD Tool OD 
 MWSI.                      No:  Serv Intrp, MWD 
 OTIM.hr                 61.28:  Time Operating 
 PCON.           Look Like New:  Pad Condition 
 PMAX.psia             9103.94:  Press Op, Max 
 PV  .cP                 25.00:  Mud PV 
 RUN .                     800:  Run Number 
 ROPA.m/hr                7.10:  ROP Avg 
 ROPN.m/hr                2.40:  ROP Min 
 ROPX.m/hr               12.00:  ROP Max 
 RPMA.rpm               120.00:  RPM Surface Avg 
 RPMN.rpm                80.00:  RPM Surface Min 
 RPMX.rpm               140.00:  RPM Surface Max 
 RRUN.                    L203:  Rig Run Number 
 RTIM.hr                  6.50:  Time Reaming 
 SAZI.deg               140.14:  Azm, Start 
 SDEP.m                4422.01:  Start Depth 
 SIDD.                     Yes:  Serv Intrp, DD 
 SINC.deg                80.07:  Inc, Start 
 SPPA.psig             4619.00:  SPP Avg 
 SPPN.psig             3980.00:  SPP Min 
 SPPX.psig             5100.00:  SPP Max 
 STIM.      22.30.00 19-Mar-20:  Start Time 
 SVCS.                 DD, MWD:  Services 
 SVER.                    9.20:  Sperry Version 
 TDAT.m                  81.00:  Tot Depth Attmp 
 TDDF.                     Yes:  Trip for DD 
 TDLG.m                  81.00:  Tot Depth Loggd 
 TFF .                      No:  Trip for Fail 
 TQAA.f-kp               12.50:  Torque Abs Avg 
 TQAN.f-kp               12.00:  Torque Abs Min 
 TQAX.f-kp               14.00:  Torque Abs Max 
 TRRT.°/30m               0.25:  Turn Rotating 
 MRT .                    HCIM:  Maximum Recorded Temperature 
 TTMX.degC               86.27:  Max Tool Temp 
 VS01.         90595989G12V7D4:  Virtual Str1 SN 
 VS02.            90519330D5C4:  Virtual Str2 SN 
 VS03.             90522014R12:  Virtual Str3 SN 
 VS04.          90522272N2L2C4:  Virtual Str4 SN 
 VS05.      90512713X1Z1W1X1C4:  Virtual Str5 SN 
 WBMN.klb                 3.00:  WOB Min 
 WITN.        Elmaddin Rahimov:  Customer Rep 
 WOBA.klb                 5.60:  WOB Avg 
 WOBX.klb                 7.00:  WOB Max 
 YP  .lhf2               28.00:  Yield Point 
~Curve Information Block
#MNEM.UNIT                 API CODE     Curve Description
#---------               -----------    ---------------------------
 TIME.HHMMSS            00 000 000 000:  GT Time & Date
 GTDEPTH.m              00 000 000 000:  GT Depth
 GTPQH.psia             00 000 000 000:  GT HR Quartz Pressure
 GTTQ.degC              00 000 000 000:  GT Quartz Temperature
 GTTN.NONE              00 000 000 000:  GT Test Number
 GTET.sec               00 000 000 000:  GT Elapsed Test Time
 GTTVD.m                00 000 000 000:  GT True Vertical Depth
#Other Information
#
#WARRANTY: Halliburton will use its best efforts to furnish customers with 
#accurate information and interpretations that are part of, and incident to, the services 
#provided.  However, Halliburton cannot and does not warrant the accuracy 
#or correctness of such information and interpretations.  Under no circumstances should any 
#such information or interpretation be relied upon as the sole basis for any drilling, 
#completion, production, or financial decision or any procedure involving any risk to the 
#safety of any drilling venture, drilling rig or its crew or any other third party.  The 
#Customer has full responsibility for all drilling, completion and production operation.  
#Halliburton makes no representations or warranties, either expressed or 
#implied, including, but not limited to, the implied warranties of merchantability or fitness 
#for a particular purpose, with respect to the services rendered.  In no event will 
#Halliburton be liable for failure to obtain any particular results or for 
#any damages, including, but not limited to, indirect, special or consequential damages, 
#resulting from the use of any information or interpretation provided by Halliburton.
#
~A           TIME           GTDEPTH  GTPQH  GTTQ  GTTN  GTET   GTTVD  
# ...
   13:21:13.401.21-Mar-2020 4435.61 4647.63 73.37 1.00  46.01 3146.67
   13:21:13.601.21-Mar-2020 4435.61 4647.63 73.37 1.00  46.21 3146.67
   13:21:13.801.21-Mar-2020 4435.61 4647.64 73.36 1.00  46.41 3146.67
   13:21:14.001.21-Mar-2020 4435.61 4647.68 73.36 1.00  46.61 3146.67
   13:21:14.201.21-Mar-2020 4435.61 4647.58 73.36 1.00  46.81 3146.67
   13:21:14.401.21-Mar-2020 4435.61 4647.58 73.36 1.00  47.01 3146.67
   13:21:14.601.21-Mar-2020 4435.61 4647.58 73.36 1.00  47.21 3146.67
   13:21:14.801.21-Mar-2020 4435.61 4647.58 73.36 1.00  47.41 3146.67
   13:21:15.001.21-Mar-2020 4435.61 4647.69 73.36 1.00  47.61 3146.67
   13:21:15.201.21-Mar-2020 4435.61 4647.58 73.36 1.00  47.81 3146.67
   13:21:15.401.21-Mar-2020 4435.61 4647.64 73.36 1.00  48.01 3146.67
   13:21:15.601.21-Mar-2020 4435.61 4647.64 73.36 1.00  48.21 3146.67
   13:21:15.801.21-Mar-2020 4435.61 4647.56 73.36 1.00  48.41 3146.67
   13:21:16.001.21-Mar-2020 4435.61 4647.58 73.36 1.00  48.61 3146.67
   13:21:16.201.21-Mar-2020 4435.61 4647.57 73.36 1.00  48.81 3146.67
   13:21:16.401.21-Mar-2020 4435.61 4647.65 73.36 1.00  49.01 3146.67
   13:21:16.601.21-Mar-2020 4435.61 4647.65 73.36 1.00  49.21 3146.67
   13:21:16.801.21-Mar-2020 4435.61 4647.69 73.36 1.00  49.41 3146.67
   13:21:17.001.21-Mar-2020 4435.61 4647.71 73.36 1.00  49.61 3146.67
   13:21:17.201.21-Mar-2020 4435.61 4647.62 73.36 1.00  49.81 3146.67
   13:21:17.401.21-Mar-2020 4435.61 4647.33 73.36 1.00  50.01 3146.67
   13:21:17.601.21-Mar-2020 4435.61 4647.33 73.36 1.00  50.21 3146.67
   13:21:17.801.21-Mar-2020 4435.61 4647.63 73.36 1.00  50.41 3146.67
   13:21:18.001.21-Mar-2020 4435.61 4647.67 73.36 1.00  50.61 3146.67
   13:21:18.201.21-Mar-2020 4435.61 4647.32 73.36 1.00  50.81 3146.67
   13:21:18.401.21-Mar-2020 4435.61 4647.66 73.36 1.00  51.01 3146.67
   13:21:18.601.21-Mar-2020 4435.61 4647.66 73.36 1.00  51.21 3146.67
   13:21:18.801.21-Mar-2020 4435.61 4647.67 73.36 1.00  51.41 3146.67
   13:21:19.001.21-Mar-2020 4435.61 4647.27 73.36 1.00  51.61 3146.67
   13:21:19.201.21-Mar-2020 4435.61 4647.65 73.36 1.00  51.81 3146.67
   13:21:19.402.21-Mar-2020 4435.61 4647.74 73.36 1.00  52.01 3146.67
   13:21:19.602.21-Mar-2020 4435.61 4647.74 73.36 1.00  52.21 3146.67
   13:21:19.802.21-Mar-2020 4435.61 4647.47 73.35 1.00  52.41 3146.67
   13:21:20.002.21-Mar-2020 4435.61 4647.54 73.35 1.00  52.61 3146.67
   13:21:20.202.21-Mar-2020 4435.61 4647.73 73.35 1.00  52.81 3146.67
   13:21:20.402.21-Mar-2020 4435.61 4647.69 73.35 1.00  53.01 3146.67
   13:21:20.602.21-Mar-2020 4435.61 4647.69 73.35 1.00  53.21 3146.67
   13:21:20.802.21-Mar-2020 4435.61 4647.65 73.35 1.00  53.41 3146.67
   13:21:21.002.21-Mar-2020 4435.61 4647.74 73.35 1.00  53.61 3146.67
   13:21:21.202.21-Mar-2020 4435.61 4647.68 73.35 1.00  53.81 3146.67
   13:21:21.402.21-Mar-2020 4435.61 4647.62 73.35 1.00  54.01 3146.67
   13:21:21.602.21-Mar-2020 4435.61 4647.62 73.35 1.00  54.21 3146.67
   13:21:21.802.21-Mar-2020 4435.61 4647.69 73.35 1.00  54.41 3146.67
   13:21:22.002.21-Mar-2020 4435.61 4647.73 73.35 1.00  54.61 3146.67
   13:21:22.202.21-Mar-2020 4435.61 4647.67 73.35 1.00  54.81 3146.67
   13:21:22.402.21-Mar-2020 4435.61 4647.64 73.35 1.00  55.01 3146.67
   13:21:22.602.21-Mar-2020 4435.61 4647.64 73.35 1.00  55.21 3146.67
   13:21:22.802.21-Mar-2020 4435.61 4647.62 73.35 1.00  55.41 3146.67
   13:21:23.002.21-Mar-2020 4435.61 4647.62 73.35 1.00  55.61 3146.67
   13:21:23.202.21-Mar-2020 4435.61 4647.64 73.35 1.00  55.81 3146.67
   13:21:23.402.21-Mar-2020 4435.61 4647.65 73.35 1.00  56.01 3146.67
   13:21:23.602.21-Mar-2020 4435.61 4647.65 73.35 1.00  56.21 3146.67
   13:21:23.802.21-Mar-2020 4435.61 4647.70 73.35 1.00  56.41 3146.67
   13:21:24.002.21-Mar-2020 4435.61 4647.70 73.35 1.00  56.61 3146.67
   13:21:24.202.21-Mar-2020 4435.61 4647.69 73.35 1.00  56.81 3146.67
   13:21:24.402.21-Mar-2020 4435.61 4647.51 73.35 1.00  57.01 3146.67
   13:21:24.602.21-Mar-2020 4435.61 4647.51 73.35 1.00  57.21 3146.67
   13:21:24.802.21-Mar-2020 4435.61 4647.70 73.35 1.00  57.41 3146.67
   13:21:25.002.21-Mar-2020 4435.61 4647.67 73.35 1.00  57.61 3146.67
   13:21:25.202.21-Mar-2020 4435.61 4647.55 73.35 1.00  57.81 3146.67
   13:21:25.402.21-Mar-2020 4435.61 4647.53 73.35 1.00  58.01 3146.67
   13:21:25.602.21-Mar-2020 4435.61 4647.53 73.35 1.00  58.21 3146.67
   13:21:25.802.21-Mar-2020 4435.61 4647.72 73.34 1.00  58.41 3146.67
   13:21:26.002.21-Mar-2020 4435.61 4647.32 73.34 1.00  58.61 3146.67
   13:21:26.202.21-Mar-2020 4435.61 4647.81 73.34 1.00  58.81 3146.67
   13:21:26.403.21-Mar-2020 4435.61 4647.77 73.34 1.00  59.01 3146.67
   13:21:26.603.21-Mar-2020 4435.61 4647.77 73.34 1.00  59.21 3146.67
   13:21:26.803.21-Mar-2020 4435.61 4647.76 73.34 1.00  59.41 3146.67
   13:21:27.003.21-Mar-2020 4435.61 4647.37 73.34 1.00  59.61 3146.67
   13:21:27.203.21-Mar-2020 4435.61 4647.81 73.34 1.00  59.81 3146.67
   13:21:27.403.21-Mar-2020 4435.61 4647.76 73.34 1.00  60.01 3146.67
   13:21:27.603.21-Mar-2020 4435.61 4647.76 73.34 1.00  60.21 3146.67
   13:21:27.803.21-Mar-2020 4435.61 4647.71 73.34 1.00  60.41 3146.67
   13:21:28.003.21-Mar-2020 4435.61 4647.73 73.34 1.00  60.61 3146.67
   13:21:28.203.21-Mar-2020 4435.61 4647.75 73.34 1.00  60.81 3146.67
   13:21:28.403.21-Mar-2020 4435.61 4647.63 73.34 1.00  61.01 3146.67
   13:21:28.603.21-Mar-2020 4435.61 4647.63 73.34 1.00  61.21 3146.67
   13:21:28.803.21-Mar-2020 4435.61 4647.36 73.34 1.00  61.41 3146.67
   13:21:29.003.21-Mar-2020 4435.61 4647.73 73.34 1.00  61.61 3146.67
   13:21:29.203.21-Mar-2020 4435.61 4647.76 73.34 1.00  61.81 3146.67
   13:21:29.403.21-Mar-2020 4435.61 4647.68 73.34 1.00  62.01 3146.67
   13:21:29.603.21-Mar-2020 4435.61 4647.68 73.34 1.00  62.21 3146.67
   13:21:29.803.21-Mar-2020 4435.61 4647.71 73.34 1.00  62.41 3146.67
   13:21:30.003.21-Mar-2020 4435.61 4647.65 73.34 1.00  62.61 3146.67
   13:21:30.203.21-Mar-2020 4435.61 4647.69 73.34 1.00  62.81 3146.67
   13:21:30.403.21-Mar-2020 4435.61 4647.71 73.34 1.00  63.01 3146.67
   13:21:30.603.21-Mar-2020 4435.61 4647.71 73.34 1.00  63.21 3146.67
   13:21:30.803.21-Mar-2020 4435.61 4647.80 73.34 1.00  63.41 3146.67
   13:21:31.003.21-Mar-2020 4435.61 4647.77 73.34 1.00  63.61 3146.67
   13:21:31.203.21-Mar-2020 4435.61 4647.69 73.34 1.00  63.81 3146.67
   13:21:31.403.21-Mar-2020 4435.61 4647.77 73.34 1.00  64.01 3146.67
   13:21:31.603.21-Mar-2020 4435.61 4647.77 73.34 1.00  64.21 3146.67
   13:21:31.803.21-Mar-2020 4435.61 4647.77 73.34 1.00  64.41 3146.67
   13:21:32.003.21-Mar-2020 4435.61 4647.72 73.33 1.00  64.61 3146.67
   13:21:32.203.21-Mar-2020 4435.61 4647.76 73.33 1.00  64.81 3146.67
   13:21:32.403.21-Mar-2020 4435.61 4647.48 73.33 1.00  65.01 3146.67
   13:21:32.603.21-Mar-2020 4435.61 4647.48 73.33 1.00  65.21 3146.67
   13:21:32.803.21-Mar-2020 4435.61 4647.77 73.33 1.00  65.41 3146.67
   13:21:33.003.21-Mar-2020 4435.61 4647.38 73.33 1.00  65.61 3146.67
   13:21:33.203.21-Mar-2020 4435.61 4647.75 73.33 1.00  65.81 3146.67
   13:21:33.404.21-Mar-2020 4435.61 4647.85 73.33 1.00  66.01 3146.67
   13:21:33.604.21-Mar-2020 4435.61 4647.85 73.33 1.00  66.21 3146.67
   13:21:33.804.21-Mar-2020 4435.61 4647.88 73.33 1.00  66.41 3146.67
   13:21:34.004.21-Mar-2020 4435.61 4647.40 73.33 1.00  66.61 3146.67
   13:21:34.204.21-Mar-2020 4435.61 4647.81 73.33 1.00  66.81 3146.67
   13:21:34.404.21-Mar-2020 4435.61 4647.84 73.33 1.00  67.01 3146.67
   13:21:34.604.21-Mar-2020 4435.61 4647.84 73.33 1.00  67.21 3146.67
   13:21:34.804.21-Mar-2020 4435.61 4647.76 73.33 1.00  67.41 3146.67
   13:21:35.004.21-Mar-2020 4435.61 4647.84 73.33 1.00  67.61 3146.67
   13:21:35.204.21-Mar-2020 4435.61 4647.76 73.33 1.00  67.81 3146.67
   13:21:35.404.21-Mar-2020 4435.61 4647.74 73.33 1.00  68.01 3146.67
   13:21:35.604.21-Mar-2020 4435.61 4647.74 73.33 1.00  68.21 3146.67
   13:21:35.804.21-Mar-2020 4435.61 4647.57 73.33 1.00  68.41 3146.67
   13:21:36.004.21-Mar-2020 4435.61 4647.66 73.33 1.00  68.61 3146.67
   13:21:36.204.21-Mar-2020 4435.61 4647.80 73.33 1.00  68.81 3146.67
