~Version Information
 VERS.                  2.0:   CWLS log ASCII Standard -VERSION 2.0
 WRAP.                   NO:   One line per depth step
~Well Information Block
#MNEM.UNIT     VALUE/NAME     DESCRIPTION
#---------     -----------    ---------------------------
 STRT.S             13:20:27 21-Mar-20: START TIME 13:20:27 21-Mar-20
 STOP.S             13:26:37 21-Mar-20: STOP TIME  13:26:37 21-Mar-20
 STEP.S                   0.00: STEP TIME
 NULL.                 -999.25: NULL VALUE
 DFWT.                        :  DIST FWL TEXT
 DFST.                        :  DIST FSL TEXT
 DMF .             Drill Floor:  DRILL MEAS FROM
 STIM.      22.38.56 15-Feb-20:  START TIME
 DATE.      22.38.56 15-Feb-20:  END TIME
 SPUD.               15-Feb-20:  SPUD DATE
 NREF.                    Grid:  NORTH REFERENCE
 HPTY.       Minimum Curvature:  HOLE POS TYPE
 DMOD.             Drill Model:  DRILL MOD DESC
 SVYD.                  Survey:  SURVEY DESC
 ILTD.               Lithology:  INTERP LTH DESC
 FTOP.          Formation Tops:  FORM TOPS DESC
 SON .        AZ-XX-0906019077:  JOB NUMBER
 PDAT.          Mean Sea Level:  PERMANENT DATUM
 WTYP.                Deviated:  WELL TYPE
 MDS .        Operator Entered:  MAG DATA SOURCE
 COMP.     BP Exploration (Caspian sea) Ltd.:  COMPANY
 UWI .                     N/A:  UNIQUE WELL IDENTIFIER
 API .                     N/A:  API NUMBER
 BASE.              Azerbaijan:  LOGGING EQUIPMENT BASE LOCATION
 REGN.                   EESSA:  REGION
 PROV.                     N/A:  PROVINCE
 STAT.                     N/A:  STATE NAME
 CTRY.              Azerbaijan:  COUNTRY NAME
 FLD .                     ACG:  FIELD NAME
 SRVC.          Turan Drilling:  CONTRACTOR
 MWDS.                    Baku:  MWD SHOP
 WELL.                    E16W:  WELL NAME
 JOBN.        AZ-XX-0906019077:  JOB TICKET NUMB
 RIG .                     DWG:  RIG NAME
 CNTY.                     N/A:  COUNTY NAME
 DCON.         Sperry Drilling:  DIRECTNL CONTR
 UNIT.                     N/A:  LOGGING EQUIPMENT ID
 LOC .                        :  LOCATION
 LMF .             Drill Floor:  LOG MEASURED FROM
 TVDS.m                  43.16:  TVDSS CORRECTN
 LATI.deg                40.17:  LATITUDE
 LONG.deg                51.17:  LONGITUDE
 WHNS.m                 -15.30:  WELL HEAD N/S
 WHEW.m                  -1.29:  WELL HEAD E/W
 UTMX.m              514337.95:  UTM X
 UTMY.m             4448627.46:  UTM Y
 DFWL.m                   0.00:  DISTANCE FWL
 DFSL.m                   0.00:  DISTANCE FSL
 SDEP.m                3499.01:  START DEPTH
 TDD .m                4422.01:  TOTAL DEPTH (DRILLER)
 VSDR.deg               151.14:  VERT SEC DIRECT
 GVFD.g                   1.00:  GRAVITY FIELD
 MFLD.nT              50334.00:  MAGNETIC FIELD
 MDIP.deg                59.62:  MAGNETIC DIP
 MDEC.deg                 6.46:  MAGNETIC DECL
 GRDC.deg                 0.12:  GRID CORRECTION
 AZTC.deg                 6.34:  AZM TOTAL CORR
 EPD .m                   0.00:  ELEVATION
 EGL .m                   0.00:  GROUND ELEVATION
 WDMS.m                 176.20:  WD ELEV
 APD .m                  43.16:  DEPTH ABOVE PD
 VSEW.m                  -1.29:  VERT SEC E/W
 VSNS.m                 -15.30:  VERT SEC N/S
 AGAP.m                  43.16:  AIR GAP
 EKB .m                   0.00:  KB ELEVATION
 EDF .m                  43.16:  DF ELEVATION
 TDL .m                  81.00:  TOTAL DEPTH (LOGGER)
 VSC .                       0:  VS TO CLOSURE
 MAGU.                 1852525:  MAGUTM CHECKSUM
~Parameter Information Block
#MNEM.UNIT       Value        Description
#---------     -----------    ---------------------------
 AV  .mps                 1.00:  Ann Velocity 
 AVMX.mps                 1.32:  Max Ann Veloc 
 AZIF.deg               141.43:  Azm, Final 
 BHAT.        Rotary Steerable:  BHA Type 
 BREV.rev            107699.99:  Rev Bit Total 
 BROT.°/30m              -0.88:  Build Rotating 
 BS  .in                  6.50:  Bit Size 
 BSZ .in                  6.50:  Bit Size 
 BTPL.psig              222.00:  Bit Press Loss 
 CABU.                     Yes:  Customer Abuse 
 CGEO.        Ali Isfandiyarov:  Customer Geo 
 TCS .hr                 23.12:  Time Ciculation Ended 
 CV  .mps                 2.20:  Crit Velocity 
 CVMX.mps                 3.01:  Max Crit Veloc 
 DD1 .         Intigam Rahimov:  Direct Drillr 1 
 DDSV.               Geo-Pilot:  DD Service 
 DEFF.%                 100.00:  % Det Eff 
 DLRX.°/30m               0.90:  Dogleg Rot Max 
 DLSO.°/30m               0.00:  Dogleg Oriented 
 DLSX.°/30m               0.00:  Dogleg Str Max 
 DRET.      20.00.00 21-Mar-20:  Drill End Time 
 DRST.      04.30.00 20-Mar-20:  Drill Start Tim 
 DTIM.hr                  8.99:  Time Drilling 
 EDEP.m                4503.01:  End Depth 
 ENG1.          Rasim Hashimov:  Engineer 1 
 ENG2.         Yevgeniy Ulikov:  Engineer 2 
 ETIM.      14.43.10 22-Mar-20:  End Time 
 FLOI.gpm               350.00:  Flow In 
 FLON.gpm               300.00:  Flow In Min 
 FLOS.cptm                0.00:  Fluid Loss 
 FLOX.gpm               400.00:  Flow In Max 
 FTRO.       Formation Presure:  FTWD Run Obj 
 HFLO.                      No:  High Flow 
 HPRE.                      No:  High Pressure 
 HTEM.                      No:  High Temp 
 HYDO.m                   1.80:  Hydro Offset 
 IFIN.deg                78.17:  Inc, Final 
 IMAX.deg                79.31:  Inc Max 
 IMIN.deg                78.75:  Inc Min 
 IMND.m                4474.16:  Inc Min Depth 
 IMXD.m                4445.88:  Inc Max Depth 
 JARR.                      No:  Jarring 
 LETM.      20.00.00 21-Mar-20:  Log End Time 
 LOST.hr                     0:  Lost Rig Time 
 LSTM.      04.30.00 19-Mar-20:  Log Start Time 
 MDCL.ppm             39500.00:  Mud Chlorides 
 MDES.     Inversion Oil/Synthetic:  Mud Desc 
 DFD .sg                  1.40:  Mud Density 
 MDMN.sg                  1.40:  Dens Mud Min 
 MDMX.sg                  1.40:  Dens Mud Max 
 MOIL.                      55:  Run Mud Oil % 
 MOWR.                   68:32:  Run Mud OWR 
 MSND.                     0.1:  Run Mud Sand % 
 MSOL.                       1:  Run Mud Solids% 
 DFV .spqt               78.00:  Mud Viscosity 
 MWOD.in                  4.75:  MWD Tool OD 
 MWSI.                      No:  Serv Intrp, MWD 
 OTIM.hr                 61.28:  Time Operating 
 PCON.           Look Like New:  Pad Condition 
 PMAX.psia             9103.94:  Press Op, Max 
 PV  .cP                 25.00:  Mud PV 
 RUN .                     800:  Run Number 
 ROPA.m/hr                7.10:  ROP Avg 
 ROPN.m/hr                2.40:  ROP Min 
 ROPX.m/hr               12.00:  ROP Max 
 RPMA.rpm               120.00:  RPM Surface Avg 
 RPMN.rpm                80.00:  RPM Surface Min 
 RPMX.rpm               140.00:  RPM Surface Max 
 RRUN.                    L203:  Rig Run Number 
 RTIM.hr                  6.50:  Time Reaming 
 SAZI.deg               140.14:  Azm, Start 
 SDEP.m                4422.01:  Start Depth 
 SIDD.                     Yes:  Serv Intrp, DD 
 SINC.deg                80.07:  Inc, Start 
 SPPA.psig             4619.00:  SPP Avg 
 SPPN.psig             3980.00:  SPP Min 
 SPPX.psig             5100.00:  SPP Max 
 STIM.      22.30.00 19-Mar-20:  Start Time 
 SVCS.                 DD, MWD:  Services 
 SVER.                    9.20:  Sperry Version 
 TDAT.m                  81.00:  Tot Depth Attmp 
 TDDF.                     Yes:  Trip for DD 
 TDLG.m                  81.00:  Tot Depth Loggd 
 TFF .                      No:  Trip for Fail 
 TQAA.f-kp               12.50:  Torque Abs Avg 
 TQAN.f-kp               12.00:  Torque Abs Min 
 TQAX.f-kp               14.00:  Torque Abs Max 
 TRRT.°/30m               0.25:  Turn Rotating 
 MRT .                    HCIM:  Maximum Recorded Temperature 
 TTMX.degC               86.27:  Max Tool Temp 
 VS01.         90595989G12V7D4:  Virtual Str1 SN 
 VS02.            90519330D5C4:  Virtual Str2 SN 
 VS03.             90522014R12:  Virtual Str3 SN 
 VS04.          90522272N2L2C4:  Virtual Str4 SN 
 VS05.      90512713X1Z1W1X1C4:  Virtual Str5 SN 
 WBMN.klb                 3.00:  WOB Min 
 WITN.        Elmaddin Rahimov:  Customer Rep 
 WOBA.klb                 5.60:  WOB Avg 
 WOBX.klb                 7.00:  WOB Max 
 YP  .lhf2               28.00:  Yield Point 
~Curve Information Block
#MNEM.UNIT                 API CODE     Curve Description
#---------               -----------    ---------------------------
 TIME.HHMMSS            00 000 000 000:  GT Time & Date
 GTDEPTH.m              00 000 000 000:  GT Depth
 GTPQH.psia             00 000 000 000:  GT HR Quartz Pressure
 GTTQ.degC              00 000 000 000:  GT Quartz Temperature
 GTTN.NONE              00 000 000 000:  GT Test Number
 GTET.sec               00 000 000 000:  GT Elapsed Test Time
 GTTVD.m                00 000 000 000:  GT True Vertical Depth
#Other Information
#
#WARRANTY: Halliburton will use its best efforts to furnish customers with 
#accurate information and interpretations that are part of, and incident to, the services 
#provided.  However, Halliburton cannot and does not warrant the accuracy 
#or correctness of such information and interpretations.  Under no circumstances should any 
#such information or interpretation be relied upon as the sole basis for any drilling, 
#completion, production, or financial decision or any procedure involving any risk to the 
#safety of any drilling venture, drilling rig or its crew or any other third party.  The 
#Customer has full responsibility for all drilling, completion and production operation.  
#Halliburton makes no representations or warranties, either expressed or 
#implied, including, but not limited to, the implied warranties of merchantability or fitness 
#for a particular purpose, with respect to the services rendered.  In no event will 
#Halliburton be liable for failure to obtain any particular results or for 
#any damages, including, but not limited to, indirect, special or consequential damages, 
#resulting from the use of any information or interpretation provided by Halliburton.
#
~A           TIME           GTDEPTH  GTPQH  GTTQ  GTTN  GTET   GTTVD  
# ...
   13:26:12.443.21-Mar-2020 4435.61 6771.58 73.12 1.00 345.05 3146.67
   13:26:12.643.21-Mar-2020 4435.61 6771.58 73.12 1.00 345.25 3146.67
   13:26:12.843.21-Mar-2020 4435.61 6770.20 73.12 1.00 345.45 3146.67
   13:26:13.043.21-Mar-2020 4435.61 6770.29 73.12 1.00 345.65 3146.67
   13:26:13.243.21-Mar-2020 4435.61 6768.76 73.12 1.00 345.85 3146.67
   13:26:13.443.21-Mar-2020 4435.61 6771.27 73.12 1.00 346.05 3146.67
   13:26:13.644.21-Mar-2020 4435.61 6772.28 73.12 1.00 346.25 3146.67
   13:26:13.844.21-Mar-2020 4435.61 6772.94 73.12 1.00 346.45 3146.67
   13:26:14.044.21-Mar-2020 4435.61 6772.06 73.12 1.00 346.65 3146.67
   13:26:14.244.21-Mar-2020 4435.61 6759.38 73.12 1.00 346.85 3146.67
   13:26:14.444.21-Mar-2020 4435.61 6769.78 73.12 1.00 347.05 3146.67
   13:26:14.644.21-Mar-2020 4435.61 6769.78 73.12 1.00 347.25 3146.67
   13:26:14.844.21-Mar-2020 4435.61 6771.28 73.12 1.00 347.45 3146.67
   13:26:15.044.21-Mar-2020 4435.61 6760.48 73.12 1.00 347.65 3146.67
   13:26:15.244.21-Mar-2020 4435.61 6767.43 73.12 1.00 347.85 3146.67
   13:26:15.444.21-Mar-2020 4435.61 6771.94 73.12 1.00 348.05 3146.67
   13:26:15.644.21-Mar-2020 4435.61 6771.94 73.12 1.00 348.25 3146.67
   13:26:15.844.21-Mar-2020 4435.61 6770.46 73.11 1.00 348.45 3146.67
   13:26:16.044.21-Mar-2020 4435.61 6768.94 73.11 1.00 348.65 3146.67
   13:26:16.244.21-Mar-2020 4435.61 6761.93 73.11 1.00 348.85 3146.67
   13:26:16.444.21-Mar-2020 4435.61 6774.33 73.11 1.00 349.05 3146.67
   13:26:16.644.21-Mar-2020 4435.61 6774.33 73.11 1.00 349.25 3146.67
   13:26:16.844.21-Mar-2020 4435.61 6770.26 73.11 1.00 349.45 3146.67
   13:26:17.044.21-Mar-2020 4435.61 6766.55 73.11 1.00 349.65 3146.67
   13:26:17.244.21-Mar-2020 4435.61 6773.76 73.11 1.00 349.85 3146.67
   13:26:17.444.21-Mar-2020 4435.61 6774.66 73.11 1.00 350.05 3146.67
   13:26:17.644.21-Mar-2020 4435.61 6774.66 73.11 1.00 350.25 3146.67
   13:26:17.844.21-Mar-2020 4435.61 6771.88 73.11 1.00 350.45 3146.67
   13:26:18.044.21-Mar-2020 4435.61 6774.14 73.11 1.00 350.65 3146.67
   13:26:18.244.21-Mar-2020 4435.61 6774.81 73.11 1.00 350.85 3146.67
   13:26:18.444.21-Mar-2020 4435.61 6774.10 73.11 1.00 351.05 3146.67
   13:26:18.644.21-Mar-2020 4435.61 6774.10 73.11 1.00 351.25 3146.67
   13:26:18.844.21-Mar-2020 4435.61 6768.69 73.11 1.00 351.45 3146.67
   13:26:19.044.21-Mar-2020 4435.61 6765.12 73.11 1.00 351.65 3146.67
   13:26:19.244.21-Mar-2020 4435.61 6770.42 73.11 1.00 351.85 3146.67
   13:26:19.444.21-Mar-2020 4435.61 6771.09 73.11 1.00 352.05 3146.67
   13:26:19.644.21-Mar-2020 4435.61 6771.09 73.11 1.00 352.25 3146.67
   13:26:19.844.21-Mar-2020 4435.61 6768.74 73.11 1.00 352.45 3146.67
   13:26:20.044.21-Mar-2020 4435.61 6770.71 73.11 1.00 352.65 3146.67
   13:26:20.244.21-Mar-2020 4435.61 6769.78 73.11 1.00 352.85 3146.67
   13:26:20.444.21-Mar-2020 4435.61 6768.98 73.11 1.00 353.05 3146.67
   13:26:20.645.21-Mar-2020 4435.61 6768.98 73.11 1.00 353.25 3146.67
   13:26:20.845.21-Mar-2020 4435.61 6769.15 73.11 1.00 353.45 3146.67
   13:26:21.045.21-Mar-2020 4435.61 6773.72 73.11 1.00 353.65 3146.67
   13:26:21.245.21-Mar-2020 4435.61 6772.55 73.11 1.00 353.85 3146.67
   13:26:21.445.21-Mar-2020 4435.61 6770.14 73.11 1.00 354.05 3146.67
   13:26:21.645.21-Mar-2020 4435.61 6770.14 73.11 1.00 354.25 3146.67
   13:26:21.845.21-Mar-2020 4435.61 6767.90 73.11 1.00 354.45 3146.67
   13:26:22.045.21-Mar-2020 4435.61 6771.08 73.11 1.00 354.65 3146.67
   13:26:22.245.21-Mar-2020 4435.61 6771.81 73.11 1.00 354.85 3146.67
   13:26:22.445.21-Mar-2020 4435.61 6757.40 73.11 1.00 355.05 3146.67
   13:26:22.645.21-Mar-2020 4435.61 6757.40 73.11 1.00 355.25 3146.67
   13:26:22.845.21-Mar-2020 4435.61 6770.34 73.11 1.00 355.45 3146.67
   13:26:23.045.21-Mar-2020 4435.61 6770.88 73.11 1.00 355.65 3146.67
   13:26:23.245.21-Mar-2020 4435.61 6771.46 73.11 1.00 355.85 3146.67
   13:26:23.445.21-Mar-2020 4435.61 6766.25 73.11 1.00 356.05 3146.67
   13:26:23.645.21-Mar-2020 4435.61 6766.25 73.11 1.00 356.25 3146.67
   13:26:23.845.21-Mar-2020 4435.61 6773.29 73.11 1.00 356.45 3146.67
   13:26:24.045.21-Mar-2020 4435.61 6772.44 73.11 1.00 356.65 3146.67
   13:26:24.245.21-Mar-2020 4435.61 6773.83 73.11 1.00 356.85 3146.67
   13:26:24.445.21-Mar-2020 4435.61 6761.09 73.11 1.00 357.05 3146.67
   13:26:24.645.21-Mar-2020 4435.61 6761.09 73.11 1.00 357.25 3146.67
   13:26:24.845.21-Mar-2020 4435.61 6772.94 73.11 1.00 357.45 3146.67
   13:26:25.045.21-Mar-2020 4435.61 6772.17 73.11 1.00 357.65 3146.67
   13:26:25.245.21-Mar-2020 4435.61 6773.38 73.11 1.00 357.85 3146.67
   13:26:25.445.21-Mar-2020 4435.61 6770.96 73.11 1.00 358.05 3146.67
   13:26:25.645.21-Mar-2020 4435.61 6770.96 73.11 1.00 358.25 3146.67
   13:26:25.845.21-Mar-2020 4435.61 6773.55 73.11 1.00 358.45 3146.67
   13:26:26.045.21-Mar-2020 4435.61 6770.56 73.11 1.00 358.65 3146.67
   13:26:26.245.21-Mar-2020 4435.61 6773.07 73.11 1.00 358.85 3146.67
   13:26:26.445.21-Mar-2020 4435.61 6760.10 73.11 1.00 359.05 3146.67
   13:26:26.645.21-Mar-2020 4435.61 6760.10 73.11 1.00 359.25 3146.67
   13:26:26.845.21-Mar-2020 4435.61 6771.97 73.11 1.00 359.45 3146.67
   13:26:27.045.21-Mar-2020 4435.61 6770.08 73.11 1.00 359.65 3146.67
   13:26:27.245.21-Mar-2020 4435.61 6771.72 73.11 1.00 359.85 3146.67
   13:26:27.445.21-Mar-2020 4435.61 6769.15 73.11 1.00 360.05 3146.67
   13:26:27.646.21-Mar-2020 4435.61 6769.15 73.11 1.00 360.25 3146.67
   13:26:27.846.21-Mar-2020 4435.61 6770.57 73.11 1.00 360.45 3146.67
   13:26:28.046.21-Mar-2020 4435.61 6768.62 73.11 1.00 360.65 3146.67
   13:26:28.246.21-Mar-2020 4435.61 6770.97 73.11 1.00 360.85 3146.67
   13:26:28.446.21-Mar-2020 4435.61 6772.80 73.11 1.00 361.05 3146.67
   13:26:28.646.21-Mar-2020 4435.61 6772.80 73.11 1.00 361.25 3146.67
   13:26:28.846.21-Mar-2020 4435.61 6772.36 73.11 1.00 361.45 3146.67
   13:26:29.046.21-Mar-2020 4435.61 6762.50 73.11 1.00 361.65 3146.67
   13:26:29.246.21-Mar-2020 4435.61 6766.17 73.11 1.00 361.85 3146.67
   13:26:29.446.21-Mar-2020 4435.61 6770.84 73.11 1.00 362.05 3146.67
   13:26:29.646.21-Mar-2020 4435.61 6770.84 73.11 1.00 362.25 3146.67
   13:26:29.846.21-Mar-2020 4435.61 6768.39 73.11 1.00 362.45 3146.67
   13:26:30.046.21-Mar-2020 4435.61 6759.73 73.11 1.00 362.65 3146.67
   13:26:30.246.21-Mar-2020 4435.61 6770.42 73.10 1.00 362.85 3146.67
   13:26:30.446.21-Mar-2020 4435.61 6771.73 73.10 1.00 363.05 3146.67
   13:26:30.646.21-Mar-2020 4435.61 6771.73 73.10 1.00 363.25 3146.67
   13:26:30.846.21-Mar-2020 4435.61 6771.31 73.10 1.00 363.45 3146.67
   13:26:31.046.21-Mar-2020 4435.61 6759.48 73.10 1.00 363.65 3146.67
   13:26:31.246.21-Mar-2020 4435.61 6773.12 73.10 1.00 363.85 3146.67
   13:26:31.446.21-Mar-2020 4435.61 6774.31 73.10 1.00 364.05 3146.67
   13:26:31.646.21-Mar-2020 4435.61 6774.31 73.10 1.00 364.25 3146.67
   13:26:31.846.21-Mar-2020 4435.61 6762.29 73.10 1.00 364.45 3146.67
   13:26:32.046.21-Mar-2020 4435.61 6772.49 73.10 1.00 364.65 3146.67
   13:26:32.246.21-Mar-2020 4435.61 6773.22 73.10 1.00 364.85 3146.67
   13:26:32.446.21-Mar-2020 4435.61 6773.74 73.10 1.00 365.05 3146.67
   13:26:32.646.21-Mar-2020 4435.61 6773.74 73.10 1.00 365.25 3146.67
   13:26:32.846.21-Mar-2020 4435.61 6772.61 73.10 1.00 365.45 3146.67
   13:26:33.046.21-Mar-2020 4435.61 6774.60 73.10 1.00 365.65 3146.67
   13:26:33.246.21-Mar-2020 4435.61 6772.56 73.10 1.00 365.85 3146.67
   13:26:33.446.21-Mar-2020 4435.61 6772.93 73.10 1.00 366.05 3146.67
   13:26:33.646.21-Mar-2020 4435.61 6770.80 73.10 1.00 366.25 3146.67
   13:26:33.846.21-Mar-2020 4435.61 6761.05 73.10 1.00 366.45 3146.67
   13:26:34.046.21-Mar-2020 4435.61 6771.63 73.10 1.00 366.65 3146.67
   13:26:34.246.21-Mar-2020 4435.61 6770.07 73.10 1.00 366.85 3146.67
   13:26:34.446.21-Mar-2020 4435.61 6772.84 73.10 1.00 367.05 3146.67
   13:26:34.647.21-Mar-2020 4435.61 6772.84 73.10 1.00 367.25 3146.67
   13:26:34.847.21-Mar-2020 4435.61 6770.16 73.10 1.00 367.45 3146.67
   13:26:35.047.21-Mar-2020 4435.61 6770.98 73.10 1.00 367.65 3146.67
   13:26:35.247.21-Mar-2020 4435.61 6768.64 73.10 1.00 367.85 3146.67
