~Version Information
 VERS.                  2.0:   CWLS log ASCII Standard -VERSION 2.0
 WRAP.                   NO:   One line per depth step
~Well Information Block
#MNEM.UNIT     VALUE/NAME     DESCRIPTION
#---------     -----------    ---------------------------
 STRT.S             13:20:27 21-Mar-20: START TIME 13:20:27 21-Mar-20
 STOP.S             13:26:37 21-Mar-20: STOP TIME  13:26:37 21-Mar-20
 STEP.S                   0.00: STEP TIME
 NULL.                 -999.25: NULL VALUE
 DFWT.                        :  DIST FWL TEXT
 DFST.                        :  DIST FSL TEXT
 DMF .             Drill Floor:  DRILL MEAS FROM
 STIM.      22.38.56 15-Feb-20:  START TIME
 DATE.      22.38.56 15-Feb-20:  END TIME
 SPUD.               15-Feb-20:  SPUD DATE
 NREF.                    Grid:  NORTH REFERENCE
 HPTY.       Minimum Curvature:  HOLE POS TYPE
 DMOD.             Drill Model:  DRILL MOD DESC
 SVYD.                  Survey:  SURVEY DESC
 ILTD.               Lithology:  INTERP LTH DESC
 FTOP.          Formation Tops:  FORM TOPS DESC
 SON .        AZ-XX-0906019077:  JOB NUMBER
 PDAT.          Mean Sea Level:  PERMANENT DATUM
 WTYP.                Deviated:  WELL TYPE
 MDS .        Operator Entered:  MAG DATA SOURCE
 COMP.     BP Exploration (Caspian sea) Ltd.:  COMPANY
 UWI .                     N/A:  UNIQUE WELL IDENTIFIER
 API .                     N/A:  API NUMBER
 BASE.              Azerbaijan:  LOGGING EQUIPMENT BASE LOCATION
 REGN.                   EESSA:  REGION
 PROV.                     N/A:  PROVINCE
 STAT.                     N/A:  STATE NAME
 CTRY.              Azerbaijan:  COUNTRY NAME
 FLD .                     ACG:  FIELD NAME
 SRVC.          Turan Drilling:  CONTRACTOR
 MWDS.                    Baku:  MWD SHOP
 WELL.                    E16W:  WELL NAME
 JOBN.        AZ-XX-0906019077:  JOB TICKET NUMB
 RIG .                     DWG:  RIG NAME
 CNTY.                     N/A:  COUNTY NAME
 DCON.         Sperry Drilling:  DIRECTNL CONTR
 UNIT.                     N/A:  LOGGING EQUIPMENT ID
 LOC .                        :  LOCATION
 LMF .             Drill Floor:  LOG MEASURED FROM
 TVDS.m                  43.16:  TVDSS CORRECTN
 LATI.deg                40.17:  LATITUDE
 LONG.deg                51.17:  LONGITUDE
 WHNS.m                 -15.30:  WELL HEAD N/S
 WHEW.m                  -1.29:  WELL HEAD E/W
 UTMX.m              514337.95:  UTM X
 UTMY.m             4448627.46:  UTM Y
 DFWL.m                   0.00:  DISTANCE FWL
 DFSL.m                   0.00:  DISTANCE FSL
 SDEP.m                3499.01:  START DEPTH
 TDD .m                4422.01:  TOTAL DEPTH (DRILLER)
 VSDR.deg               151.14:  VERT SEC DIRECT
 GVFD.g                   1.00:  GRAVITY FIELD
 MFLD.nT              50334.00:  MAGNETIC FIELD
 MDIP.deg                59.62:  MAGNETIC DIP
 MDEC.deg                 6.46:  MAGNETIC DECL
 GRDC.deg                 0.12:  GRID CORRECTION
 AZTC.deg                 6.34:  AZM TOTAL CORR
 EPD .m                   0.00:  ELEVATION
 EGL .m                   0.00:  GROUND ELEVATION
 WDMS.m                 176.20:  WD ELEV
 APD .m                  43.16:  DEPTH ABOVE PD
 VSEW.m                  -1.29:  VERT SEC E/W
 VSNS.m                 -15.30:  VERT SEC N/S
 AGAP.m                  43.16:  AIR GAP
 EKB .m                   0.00:  KB ELEVATION
 EDF .m                  43.16:  DF ELEVATION
 TDL .m                  81.00:  TOTAL DEPTH (LOGGER)
 VSC .                       0:  VS TO CLOSURE
 MAGU.                 1852525:  MAGUTM CHECKSUM
~Parameter Information Block
#MNEM.UNIT       Value        Description
#---------     -----------    ---------------------------
 AV  .mps                 1.00:  Ann Velocity 
 AVMX.mps                 1.32:  Max Ann Veloc 
 AZIF.deg               141.43:  Azm, Final 
 BHAT.        Rotary Steerable:  BHA Type 
 BREV.rev            107699.99:  Rev Bit Total 
 BROT.°/30m              -0.88:  Build Rotating 
 BS  .in                  6.50:  Bit Size 
 BSZ .in                  6.50:  Bit Size 
 BTPL.psig              222.00:  Bit Press Loss 
 CABU.                     Yes:  Customer Abuse 
 CGEO.        Ali Isfandiyarov:  Customer Geo 
 TCS .hr                 23.12:  Time Ciculation Ended 
 CV  .mps                 2.20:  Crit Velocity 
 CVMX.mps                 3.01:  Max Crit Veloc 
 DD1 .         Intigam Rahimov:  Direct Drillr 1 
 DDSV.               Geo-Pilot:  DD Service 
 DEFF.%                 100.00:  % Det Eff 
 DLRX.°/30m               0.90:  Dogleg Rot Max 
 DLSO.°/30m               0.00:  Dogleg Oriented 
 DLSX.°/30m               0.00:  Dogleg Str Max 
 DRET.      20.00.00 21-Mar-20:  Drill End Time 
 DRST.      04.30.00 20-Mar-20:  Drill Start Tim 
 DTIM.hr                  8.99:  Time Drilling 
 EDEP.m                4503.01:  End Depth 
 ENG1.          Rasim Hashimov:  Engineer 1 
 ENG2.         Yevgeniy Ulikov:  Engineer 2 
 ETIM.      14.43.10 22-Mar-20:  End Time 
 FLOI.gpm               350.00:  Flow In 
 FLON.gpm               300.00:  Flow In Min 
 FLOS.cptm                0.00:  Fluid Loss 
 FLOX.gpm               400.00:  Flow In Max 
 FTRO.       Formation Presure:  FTWD Run Obj 
 HFLO.                      No:  High Flow 
 HPRE.                      No:  High Pressure 
 HTEM.                      No:  High Temp 
 HYDO.m                   1.80:  Hydro Offset 
 IFIN.deg                78.17:  Inc, Final 
 IMAX.deg                79.31:  Inc Max 
 IMIN.deg                78.75:  Inc Min 
 IMND.m                4474.16:  Inc Min Depth 
 IMXD.m                4445.88:  Inc Max Depth 
 JARR.                      No:  Jarring 
 LETM.      20.00.00 21-Mar-20:  Log End Time 
 LOST.hr                     0:  Lost Rig Time 
 LSTM.      04.30.00 19-Mar-20:  Log Start Time 
 MDCL.ppm             39500.00:  Mud Chlorides 
 MDES.     Inversion Oil/Synthetic:  Mud Desc 
 DFD .sg                  1.40:  Mud Density 
 MDMN.sg                  1.40:  Dens Mud Min 
 MDMX.sg                  1.40:  Dens Mud Max 
 MOIL.                      55:  Run Mud Oil % 
 MOWR.                   68:32:  Run Mud OWR 
 MSND.                     0.1:  Run Mud Sand % 
 MSOL.                       1:  Run Mud Solids% 
 DFV .spqt               78.00:  Mud Viscosity 
 MWOD.in                  4.75:  MWD Tool OD 
 MWSI.                      No:  Serv Intrp, MWD 
 OTIM.hr                 61.28:  Time Operating 
 PCON.           Look Like New:  Pad Condition 
 PMAX.psia             9103.94:  Press Op, Max 
 PV  .cP                 25.00:  Mud PV 
 RUN .                     800:  Run Number 
 ROPA.m/hr                7.10:  ROP Avg 
 ROPN.m/hr                2.40:  ROP Min 
 ROPX.m/hr               12.00:  ROP Max 
 RPMA.rpm               120.00:  RPM Surface Avg 
 RPMN.rpm                80.00:  RPM Surface Min 
 RPMX.rpm               140.00:  RPM Surface Max 
 RRUN.                    L203:  Rig Run Number 
 RTIM.hr                  6.50:  Time Reaming 
 SAZI.deg               140.14:  Azm, Start 
 SDEP.m                4422.01:  Start Depth 
 SIDD.                     Yes:  Serv Intrp, DD 
 SINC.deg                80.07:  Inc, Start 
 SPPA.psig             4619.00:  SPP Avg 
 SPPN.psig             3980.00:  SPP Min 
 SPPX.psig             5100.00:  SPP Max 
 STIM.      22.30.00 19-Mar-20:  Start Time 
 SVCS.                 DD, MWD:  Services 
 SVER.                    9.20:  Sperry Version 
 TDAT.m                  81.00:  Tot Depth Attmp 
 TDDF.                     Yes:  Trip for DD 
 TDLG.m                  81.00:  Tot Depth Loggd 
 TFF .                      No:  Trip for Fail 
 TQAA.f-kp               12.50:  Torque Abs Avg 
 TQAN.f-kp               12.00:  Torque Abs Min 
 TQAX.f-kp               14.00:  Torque Abs Max 
 TRRT.°/30m               0.25:  Turn Rotating 
 MRT .                    HCIM:  Maximum Recorded Temperature 
 TTMX.degC               86.27:  Max Tool Temp 
 VS01.         90595989G12V7D4:  Virtual Str1 SN 
 VS02.            90519330D5C4:  Virtual Str2 SN 
 VS03.             90522014R12:  Virtual Str3 SN 
 VS04.          90522272N2L2C4:  Virtual Str4 SN 
 VS05.      90512713X1Z1W1X1C4:  Virtual Str5 SN 
 WBMN.klb                 3.00:  WOB Min 
 WITN.        Elmaddin Rahimov:  Customer Rep 
 WOBA.klb                 5.60:  WOB Avg 
 WOBX.klb                 7.00:  WOB Max 
 YP  .lhf2               28.00:  Yield Point 
~Curve Information Block
#MNEM.UNIT                 API CODE     Curve Description
#---------               -----------    ---------------------------
 TIME.HHMMSS            00 000 000 000:  GT Time & Date
 GTDEPTH.m              00 000 000 000:  GT Depth
 GTPQH.psia             00 000 000 000:  GT HR Quartz Pressure
 GTTQ.degC              00 000 000 000:  GT Quartz Temperature
 GTTN.NONE              00 000 000 000:  GT Test Number
 GTET.sec               00 000 000 000:  GT Elapsed Test Time
 GTTVD.m                00 000 000 000:  GT True Vertical Depth
#Other Information
#
#WARRANTY: Halliburton will use its best efforts to furnish customers with 
#accurate information and interpretations that are part of, and incident to, the services 
#provided.  However, Halliburton cannot and does not warrant the accuracy 
#or correctness of such information and interpretations.  Under no circumstances should any 
#such information or interpretation be relied upon as the sole basis for any drilling, 
#completion, production, or financial decision or any procedure involving any risk to the 
#safety of any drilling venture, drilling rig or its crew or any other third party.  The 
#Customer has full responsibility for all drilling, completion and production operation.  
#Halliburton makes no representations or warranties, either expressed or 
#implied, including, but not limited to, the implied warranties of merchantability or fitness 
#for a particular purpose, with respect to the services rendered.  In no event will 
#Halliburton be liable for failure to obtain any particular results or for 
#any damages, including, but not limited to, indirect, special or consequential damages, 
#resulting from the use of any information or interpretation provided by Halliburton.
#
~A           TIME           GTDEPTH  GTPQH  GTTQ  GTTN  GTET   GTTVD  
# ...
   13:20:50.397.21-Mar-2020 4435.61 4646.39 73.41 1.00  23.00 3146.67
   13:20:50.597.21-Mar-2020 4435.61 4646.39 73.41 1.00  23.20 3146.67
   13:20:50.797.21-Mar-2020 4435.61 4646.56 73.41 1.00  23.40 3146.67
   13:20:50.997.21-Mar-2020 4435.61 4646.48 73.41 1.00  23.60 3146.67
   13:20:51.198.21-Mar-2020 4435.61 4646.52 73.40 1.00  23.80 3146.67
   13:20:51.398.21-Mar-2020 4435.61 4646.65 73.40 1.00  24.00 3146.67
   13:20:51.598.21-Mar-2020 4435.61 4646.65 73.40 1.00  24.20 3146.67
   13:20:51.798.21-Mar-2020 4435.61 4646.60 73.40 1.00  24.40 3146.67
   13:20:51.998.21-Mar-2020 4435.61 4646.70 73.40 1.00  24.60 3146.67
   13:20:52.198.21-Mar-2020 4435.61 4646.65 73.40 1.00  24.80 3146.67
   13:20:52.398.21-Mar-2020 4435.61 4646.67 73.40 1.00  25.00 3146.67
   13:20:52.598.21-Mar-2020 4435.61 4646.67 73.40 1.00  25.20 3146.67
   13:20:52.798.21-Mar-2020 4435.61 4646.81 73.40 1.00  25.40 3146.67
   13:20:52.998.21-Mar-2020 4435.61 4646.74 73.40 1.00  25.60 3146.67
   13:20:53.198.21-Mar-2020 4435.61 4646.77 73.40 1.00  25.80 3146.67
   13:20:53.398.21-Mar-2020 4435.61 4646.83 73.40 1.00  26.00 3146.67
   13:20:53.598.21-Mar-2020 4435.61 4646.83 73.40 1.00  26.20 3146.67
   13:20:53.798.21-Mar-2020 4435.61 4646.99 73.40 1.00  26.40 3146.67
   13:20:53.998.21-Mar-2020 4435.61 4646.95 73.40 1.00  26.60 3146.67
   13:20:54.198.21-Mar-2020 4435.61 4646.93 73.40 1.00  26.80 3146.67
   13:20:54.398.21-Mar-2020 4435.61 4646.99 73.40 1.00  27.00 3146.67
   13:20:54.598.21-Mar-2020 4435.61 4646.99 73.40 1.00  27.20 3146.67
   13:20:54.798.21-Mar-2020 4435.61 4646.99 73.40 1.00  27.40 3146.67
   13:20:54.998.21-Mar-2020 4435.61 4646.99 73.40 1.00  27.60 3146.67
   13:20:55.198.21-Mar-2020 4435.61 4646.97 73.40 1.00  27.80 3146.67
   13:20:55.398.21-Mar-2020 4435.61 4647.09 73.40 1.00  28.00 3146.67
   13:20:55.598.21-Mar-2020 4435.61 4647.09 73.40 1.00  28.20 3146.67
   13:20:55.798.21-Mar-2020 4435.61 4647.07 73.40 1.00  28.40 3146.67
   13:20:55.998.21-Mar-2020 4435.61 4647.10 73.40 1.00  28.60 3146.67
   13:20:56.198.21-Mar-2020 4435.61 4646.66 73.40 1.00  28.80 3146.67
   13:20:56.398.21-Mar-2020 4435.61 4647.17 73.40 1.00  29.00 3146.67
   13:20:56.598.21-Mar-2020 4435.61 4647.17 73.40 1.00  29.20 3146.67
   13:20:56.798.21-Mar-2020 4435.61 4647.14 73.40 1.00  29.40 3146.67
   13:20:56.998.21-Mar-2020 4435.61 4646.83 73.39 1.00  29.60 3146.67
   13:20:57.198.21-Mar-2020 4435.61 4647.20 73.39 1.00  29.80 3146.67
   13:20:57.398.21-Mar-2020 4435.61 4647.25 73.39 1.00  30.00 3146.67
   13:20:57.598.21-Mar-2020 4435.61 4647.25 73.39 1.00  30.20 3146.67
   13:20:57.798.21-Mar-2020 4435.61 4647.22 73.39 1.00  30.40 3146.67
   13:20:57.998.21-Mar-2020 4435.61 4647.30 73.39 1.00  30.60 3146.67
   13:20:58.199.21-Mar-2020 4435.61 4647.28 73.39 1.00  30.80 3146.67
   13:20:58.399.21-Mar-2020 4435.61 4647.33 73.39 1.00  31.00 3146.67
   13:20:58.599.21-Mar-2020 4435.61 4647.33 73.39 1.00  31.20 3146.67
   13:20:58.799.21-Mar-2020 4435.61 4646.87 73.39 1.00  31.40 3146.67
   13:20:58.999.21-Mar-2020 4435.61 4647.36 73.39 1.00  31.60 3146.67
   13:20:59.199.21-Mar-2020 4435.61 4647.29 73.39 1.00  31.80 3146.67
   13:20:59.399.21-Mar-2020 4435.61 4647.23 73.39 1.00  32.00 3146.67
   13:20:59.599.21-Mar-2020 4435.61 4647.23 73.39 1.00  32.20 3146.67
   13:20:59.799.21-Mar-2020 4435.61 4647.31 73.39 1.00  32.40 3146.67
   13:20:59.999.21-Mar-2020 4435.61 4647.29 73.39 1.00  32.60 3146.67
   13:21:00.199.21-Mar-2020 4435.61 4647.29 73.39 1.00  32.80 3146.67
   13:21:00.399.21-Mar-2020 4435.61 4647.29 73.39 1.00  33.00 3146.67
   13:21:00.599.21-Mar-2020 4435.61 4647.29 73.39 1.00  33.20 3146.67
   13:21:00.799.21-Mar-2020 4435.61 4647.34 73.39 1.00  33.40 3146.67
   13:21:00.999.21-Mar-2020 4435.61 4647.41 73.39 1.00  33.60 3146.67
   13:21:01.199.21-Mar-2020 4435.61 4647.36 73.39 1.00  33.80 3146.67
   13:21:01.399.21-Mar-2020 4435.61 4647.36 73.39 1.00  34.00 3146.67
   13:21:01.599.21-Mar-2020 4435.61 4647.36 73.39 1.00  34.20 3146.67
   13:21:01.799.21-Mar-2020 4435.61 4647.34 73.39 1.00  34.40 3146.67
   13:21:01.999.21-Mar-2020 4435.61 4647.36 73.39 1.00  34.60 3146.67
   13:21:02.199.21-Mar-2020 4435.61 4647.40 73.39 1.00  34.80 3146.67
   13:21:02.399.21-Mar-2020 4435.61 4647.36 73.38 1.00  35.00 3146.67
   13:21:02.599.21-Mar-2020 4435.61 4647.36 73.38 1.00  35.21 3146.67
   13:21:02.799.21-Mar-2020 4435.61 4647.46 73.38 1.00  35.41 3146.67
   13:21:02.999.21-Mar-2020 4435.61 4647.41 73.38 1.00  35.61 3146.67
   13:21:03.199.21-Mar-2020 4435.61 4647.47 73.38 1.00  35.81 3146.67
   13:21:03.399.21-Mar-2020 4435.61 4647.01 73.38 1.00  36.01 3146.67
   13:21:03.599.21-Mar-2020 4435.61 4647.01 73.38 1.00  36.21 3146.67
   13:21:03.799.21-Mar-2020 4435.61 4647.42 73.38 1.00  36.41 3146.67
   13:21:03.999.21-Mar-2020 4435.61 4647.46 73.38 1.00  36.61 3146.67
   13:21:04.199.21-Mar-2020 4435.61 4647.09 73.38 1.00  36.81 3146.67
   13:21:04.399.21-Mar-2020 4435.61 4647.32 73.38 1.00  37.01 3146.67
   13:21:04.599.21-Mar-2020 4435.61 4647.32 73.38 1.00  37.21 3146.67
   13:21:04.799.21-Mar-2020 4435.61 4646.90 73.38 1.00  37.41 3146.67
   13:21:04.999.21-Mar-2020 4435.61 4647.31 73.38 1.00  37.61 3146.67
   13:21:05.200.21-Mar-2020 4435.61 4647.48 73.38 1.00  37.81 3146.67
   13:21:05.400.21-Mar-2020 4435.61 4647.51 73.38 1.00  38.01 3146.67
   13:21:05.600.21-Mar-2020 4435.61 4647.51 73.38 1.00  38.21 3146.67
   13:21:05.800.21-Mar-2020 4435.61 4647.10 73.38 1.00  38.41 3146.67
   13:21:06.000.21-Mar-2020 4435.61 4647.50 73.38 1.00  38.61 3146.67
   13:21:06.200.21-Mar-2020 4435.61 4647.58 73.38 1.00  38.81 3146.67
   13:21:06.400.21-Mar-2020 4435.61 4647.42 73.38 1.00  39.01 3146.67
   13:21:06.600.21-Mar-2020 4435.61 4647.42 73.38 1.00  39.21 3146.67
   13:21:06.800.21-Mar-2020 4435.61 4647.57 73.38 1.00  39.41 3146.67
   13:21:07.000.21-Mar-2020 4435.61 4647.51 73.38 1.00  39.61 3146.67
   13:21:07.200.21-Mar-2020 4435.61 4647.49 73.38 1.00  39.81 3146.67
   13:21:07.400.21-Mar-2020 4435.61 4647.47 73.38 1.00  40.01 3146.67
   13:21:07.600.21-Mar-2020 4435.61 4647.47 73.38 1.00  40.21 3146.67
   13:21:07.800.21-Mar-2020 4435.61 4647.20 73.38 1.00  40.41 3146.67
   13:21:08.000.21-Mar-2020 4435.61 4647.55 73.37 1.00  40.61 3146.67
   13:21:08.200.21-Mar-2020 4435.61 4647.52 73.37 1.00  40.81 3146.67
   13:21:08.400.21-Mar-2020 4435.61 4647.50 73.37 1.00  41.01 3146.67
   13:21:08.600.21-Mar-2020 4435.61 4647.50 73.37 1.00  41.21 3146.67
   13:21:08.800.21-Mar-2020 4435.61 4647.51 73.37 1.00  41.41 3146.67
   13:21:09.000.21-Mar-2020 4435.61 4647.48 73.37 1.00  41.61 3146.67
   13:21:09.200.21-Mar-2020 4435.61 4647.56 73.37 1.00  41.81 3146.67
   13:21:09.400.21-Mar-2020 4435.61 4647.53 73.37 1.00  42.01 3146.67
   13:21:09.600.21-Mar-2020 4435.61 4647.53 73.37 1.00  42.21 3146.67
   13:21:09.800.21-Mar-2020 4435.61 4647.65 73.37 1.00  42.41 3146.67
   13:21:10.000.21-Mar-2020 4435.61 4647.53 73.37 1.00  42.61 3146.67
   13:21:10.200.21-Mar-2020 4435.61 4647.59 73.37 1.00  42.81 3146.67
   13:21:10.400.21-Mar-2020 4435.61 4647.22 73.37 1.00  43.01 3146.67
   13:21:10.600.21-Mar-2020 4435.61 4647.22 73.37 1.00  43.21 3146.67
   13:21:10.800.21-Mar-2020 4435.61 4647.59 73.37 1.00  43.41 3146.67
   13:21:11.000.21-Mar-2020 4435.61 4647.56 73.37 1.00  43.61 3146.67
   13:21:11.200.21-Mar-2020 4435.61 4647.23 73.37 1.00  43.81 3146.67
   13:21:11.400.21-Mar-2020 4435.61 4647.62 73.37 1.00  44.01 3146.67
   13:21:11.600.21-Mar-2020 4435.61 4647.62 73.37 1.00  44.21 3146.67
   13:21:11.800.21-Mar-2020 4435.61 4647.60 73.37 1.00  44.41 3146.67
   13:21:12.000.21-Mar-2020 4435.61 4647.22 73.37 1.00  44.61 3146.67
   13:21:12.200.21-Mar-2020 4435.61 4647.58 73.37 1.00  44.81 3146.67
   13:21:12.401.21-Mar-2020 4435.61 4647.71 73.37 1.00  45.01 3146.67
   13:21:12.601.21-Mar-2020 4435.61 4647.71 73.37 1.00  45.21 3146.67
   13:21:12.801.21-Mar-2020 4435.61 4647.29 73.37 1.00  45.41 3146.67
   13:21:13.001.21-Mar-2020 4435.61 4647.60 73.37 1.00  45.61 3146.67
   13:21:13.201.21-Mar-2020 4435.61 4647.67 73.37 1.00  45.81 3146.67
