~Version Information
 VERS.                  2.0:   CWLS log ASCII Standard -VERSION 2.0
 WRAP.                   NO:   One line per depth step
~Well Information Block
#MNEM.UNIT     VALUE/NAME     DESCRIPTION
#---------     -----------    ---------------------------
 STRT.S             13:20:27 21-Mar-20: START TIME 13:20:27 21-Mar-20
 STOP.S             13:26:37 21-Mar-20: STOP TIME  13:26:37 21-Mar-20
 STEP.S                   0.00: STEP TIME
 NULL.                 -999.25: NULL VALUE
 DFWT.                        :  DIST FWL TEXT
 DFST.                        :  DIST FSL TEXT
 DMF .             Drill Floor:  DRILL MEAS FROM
 STIM.      22.38.56 15-Feb-20:  START TIME
 DATE.      22.38.56 15-Feb-20:  END TIME
 SPUD.               15-Feb-20:  SPUD DATE
 NREF.                    Grid:  NORTH REFERENCE
 HPTY.       Minimum Curvature:  HOLE POS TYPE
 DMOD.             Drill Model:  DRILL MOD DESC
 SVYD.                  Survey:  SURVEY DESC
 ILTD.               Lithology:  INTERP LTH DESC
 FTOP.          Formation Tops:  FORM TOPS DESC
 SON .        AZ-XX-0906019077:  JOB NUMBER
 PDAT.          Mean Sea Level:  PERMANENT DATUM
 WTYP.                Deviated:  WELL TYPE
 MDS .        Operator Entered:  MAG DATA SOURCE
 COMP.     BP Exploration (Caspian sea) Ltd.:  COMPANY
 UWI .                     N/A:  UNIQUE WELL IDENTIFIER
 API .                     N/A:  API NUMBER
 BASE.              Azerbaijan:  LOGGING EQUIPMENT BASE LOCATION
 REGN.                   EESSA:  REGION
 PROV.                     N/A:  PROVINCE
 STAT.                     N/A:  STATE NAME
 CTRY.              Azerbaijan:  COUNTRY NAME
 FLD .                     ACG:  FIELD NAME
 SRVC.          Turan Drilling:  CONTRACTOR
 MWDS.                    Baku:  MWD SHOP
 WELL.                    E16W:  WELL NAME
 JOBN.        AZ-XX-0906019077:  JOB TICKET NUMB
 RIG .                     DWG:  RIG NAME
 CNTY.                     N/A:  COUNTY NAME
 DCON.         Sperry Drilling:  DIRECTNL CONTR
 UNIT.                     N/A:  LOGGING EQUIPMENT ID
 LOC .                        :  LOCATION
 LMF .             Drill Floor:  LOG MEASURED FROM
 TVDS.m                  43.16:  TVDSS CORRECTN
 LATI.deg                40.17:  LATITUDE
 LONG.deg                51.17:  LONGITUDE
 WHNS.m                 -15.30:  WELL HEAD N/S
 WHEW.m                  -1.29:  WELL HEAD E/W
 UTMX.m              514337.95:  UTM X
 UTMY.m             4448627.46:  UTM Y
 DFWL.m                   0.00:  DISTANCE FWL
 DFSL.m                   0.00:  DISTANCE FSL
 SDEP.m                3499.01:  START DEPTH
 TDD .m                4422.01:  TOTAL DEPTH (DRILLER)
 VSDR.deg               151.14:  VERT SEC DIRECT
 GVFD.g                   1.00:  GRAVITY FIELD
 MFLD.nT              50334.00:  MAGNETIC FIELD
 MDIP.deg                59.62:  MAGNETIC DIP
 MDEC.deg                 6.46:  MAGNETIC DECL
 GRDC.deg                 0.12:  GRID CORRECTION
 AZTC.deg                 6.34:  AZM TOTAL CORR
 EPD .m                   0.00:  ELEVATION
 EGL .m                   0.00:  GROUND ELEVATION
 WDMS.m                 176.20:  WD ELEV
 APD .m                  43.16:  DEPTH ABOVE PD
 VSEW.m                  -1.29:  VERT SEC E/W
 VSNS.m                 -15.30:  VERT SEC N/S
 AGAP.m                  43.16:  AIR GAP
 EKB .m                   0.00:  KB ELEVATION
 EDF .m                  43.16:  DF ELEVATION
 TDL .m                  81.00:  TOTAL DEPTH (LOGGER)
 VSC .                       0:  VS TO CLOSURE
 MAGU.                 1852525:  MAGUTM CHECKSUM
~Parameter Information Block
#MNEM.UNIT       Value        Description
#---------     -----------    ---------------------------
 AV  .mps                 1.00:  Ann Velocity 
 AVMX.mps                 1.32:  Max Ann Veloc 
 AZIF.deg               141.43:  Azm, Final 
 BHAT.        Rotary Steerable:  BHA Type 
 BREV.rev            107699.99:  Rev Bit Total 
 BROT.°/30m              -0.88:  Build Rotating 
 BS  .in                  6.50:  Bit Size 
 BSZ .in                  6.50:  Bit Size 
 BTPL.psig              222.00:  Bit Press Loss 
 CABU.                     Yes:  Customer Abuse 
 CGEO.        Ali Isfandiyarov:  Customer Geo 
 TCS .hr                 23.12:  Time Ciculation Ended 
 CV  .mps                 2.20:  Crit Velocity 
 CVMX.mps                 3.01:  Max Crit Veloc 
 DD1 .         Intigam Rahimov:  Direct Drillr 1 
 DDSV.               Geo-Pilot:  DD Service 
 DEFF.%                 100.00:  % Det Eff 
 DLRX.°/30m               0.90:  Dogleg Rot Max 
 DLSO.°/30m               0.00:  Dogleg Oriented 
 DLSX.°/30m               0.00:  Dogleg Str Max 
 DRET.      20.00.00 21-Mar-20:  Drill End Time 
 DRST.      04.30.00 20-Mar-20:  Drill Start Tim 
 DTIM.hr                  8.99:  Time Drilling 
 EDEP.m                4503.01:  End Depth 
 ENG1.          Rasim Hashimov:  Engineer 1 
 ENG2.         Yevgeniy Ulikov:  Engineer 2 
 ETIM.      14.43.10 22-Mar-20:  End Time 
 FLOI.gpm               350.00:  Flow In 
 FLON.gpm               300.00:  Flow In Min 
 FLOS.cptm                0.00:  Fluid Loss 
 FLOX.gpm               400.00:  Flow In Max 
 FTRO.       Formation Presure:  FTWD Run Obj 
 HFLO.                      No:  High Flow 
 HPRE.                      No:  High Pressure 
 HTEM.                      No:  High Temp 
 HYDO.m                   1.80:  Hydro Offset 
 IFIN.deg                78.17:  Inc, Final 
 IMAX.deg                79.31:  Inc Max 
 IMIN.deg                78.75:  Inc Min 
 IMND.m                4474.16:  Inc Min Depth 
 IMXD.m                4445.88:  Inc Max Depth 
 JARR.                      No:  Jarring 
 LETM.      20.00.00 21-Mar-20:  Log End Time 
 LOST.hr                     0:  Lost Rig Time 
 LSTM.      04.30.00 19-Mar-20:  Log Start Time 
 MDCL.ppm             39500.00:  Mud Chlorides 
 MDES.     Inversion Oil/Synthetic:  Mud Desc 
 DFD .sg                  1.40:  Mud Density 
 MDMN.sg                  1.40:  Dens Mud Min 
 MDMX.sg                  1.40:  Dens Mud Max 
 MOIL.                      55:  Run Mud Oil % 
 MOWR.                   68:32:  Run Mud OWR 
 MSND.                     0.1:  Run Mud Sand % 
 MSOL.                       1:  Run Mud Solids% 
 DFV .spqt               78.00:  Mud Viscosity 
 MWOD.in                  4.75:  MWD Tool OD 
 MWSI.                      No:  Serv Intrp, MWD 
 OTIM.hr                 61.28:  Time Operating 
 PCON.           Look Like New:  Pad Condition 
 PMAX.psia             9103.94:  Press Op, Max 
 PV  .cP                 25.00:  Mud PV 
 RUN .                     800:  Run Number 
 ROPA.m/hr                7.10:  ROP Avg 
 ROPN.m/hr                2.40:  ROP Min 
 ROPX.m/hr               12.00:  ROP Max 
 RPMA.rpm               120.00:  RPM Surface Avg 
 RPMN.rpm                80.00:  RPM Surface Min 
 RPMX.rpm               140.00:  RPM Surface Max 
 RRUN.                    L203:  Rig Run Number 
 RTIM.hr                  6.50:  Time Reaming 
 SAZI.deg               140.14:  Azm, Start 
 SDEP.m                4422.01:  Start Depth 
 SIDD.                     Yes:  Serv Intrp, DD 
 SINC.deg                80.07:  Inc, Start 
 SPPA.psig             4619.00:  SPP Avg 
 SPPN.psig             3980.00:  SPP Min 
 SPPX.psig             5100.00:  SPP Max 
 STIM.      22.30.00 19-Mar-20:  Start Time 
 SVCS.                 DD, MWD:  Services 
 SVER.                    9.20:  Sperry Version 
 TDAT.m                  81.00:  Tot Depth Attmp 
 TDDF.                     Yes:  Trip for DD 
 TDLG.m                  81.00:  Tot Depth Loggd 
 TFF .                      No:  Trip for Fail 
 TQAA.f-kp               12.50:  Torque Abs Avg 
 TQAN.f-kp               12.00:  Torque Abs Min 
 TQAX.f-kp               14.00:  Torque Abs Max 
 TRRT.°/30m               0.25:  Turn Rotating 
 MRT .                    HCIM:  Maximum Recorded Temperature 
 TTMX.degC               86.27:  Max Tool Temp 
 VS01.         90595989G12V7D4:  Virtual Str1 SN 
 VS02.            90519330D5C4:  Virtual Str2 SN 
 VS03.             90522014R12:  Virtual Str3 SN 
 VS04.          90522272N2L2C4:  Virtual Str4 SN 
 VS05.      90512713X1Z1W1X1C4:  Virtual Str5 SN 
 WBMN.klb                 3.00:  WOB Min 
 WITN.        Elmaddin Rahimov:  Customer Rep 
 WOBA.klb                 5.60:  WOB Avg 
 WOBX.klb                 7.00:  WOB Max 
 YP  .lhf2               28.00:  Yield Point 
~Curve Information Block
#MNEM.UNIT                 API CODE     Curve Description
#---------               -----------    ---------------------------
 TIME.HHMMSS            00 000 000 000:  GT Time & Date
 GTDEPTH.m              00 000 000 000:  GT Depth
 GTPQH.psia             00 000 000 000:  GT HR Quartz Pressure
 GTTQ.degC              00 000 000 000:  GT Quartz Temperature
 GTTN.NONE              00 000 000 000:  GT Test Number
 GTET.sec               00 000 000 000:  GT Elapsed Test Time
 GTTVD.m                00 000 000 000:  GT True Vertical Depth
#Other Information
#
#WARRANTY: Halliburton will use its best efforts to furnish customers with 
#accurate information and interpretations that are part of, and incident to, the services 
#provided.  However, Halliburton cannot and does not warrant the accuracy 
#or correctness of such information and interpretations.  Under no circumstances should any 
#such information or interpretation be relied upon as the sole basis for any drilling, 
#completion, production, or financial decision or any procedure involving any risk to the 
#safety of any drilling venture, drilling rig or its crew or any other third party.  The 
#Customer has full responsibility for all drilling, completion and production operation.  
#Halliburton makes no representations or warranties, either expressed or 
#implied, including, but not limited to, the implied warranties of merchantability or fitness 
#for a particular purpose, with respect to the services rendered.  In no event will 
#Halliburton be liable for failure to obtain any particular results or for 
#any damages, including, but not limited to, indirect, special or consequential damages, 
#resulting from the use of any information or interpretation provided by Halliburton.
#
~A           TIME           GTDEPTH  GTPQH  GTTQ  GTTN  GTET   GTTVD  
# ...
   13:21:36.404.21-Mar-2020 4435.61 4647.74 73.33 1.00  69.01 3146.67
   13:21:36.604.21-Mar-2020 4435.61 4647.74 73.33 1.00  69.21 3146.67
   13:21:36.804.21-Mar-2020 4435.61 4647.75 73.33 1.00  69.41 3146.67
   13:21:37.004.21-Mar-2020 4435.61 4647.74 73.33 1.00  69.61 3146.67
   13:21:37.204.21-Mar-2020 4435.61 4647.70 73.33 1.00  69.81 3146.67
   13:21:37.404.21-Mar-2020 4435.61 4647.77 73.33 1.00  70.01 3146.67
   13:21:37.604.21-Mar-2020 4435.61 4647.77 73.33 1.00  70.21 3146.67
   13:21:37.804.21-Mar-2020 4435.61 4647.80 73.33 1.00  70.41 3146.67
   13:21:38.004.21-Mar-2020 4435.61 4647.85 73.33 1.00  70.61 3146.67
   13:21:38.204.21-Mar-2020 4435.61 4647.75 73.33 1.00  70.81 3146.67
   13:21:38.404.21-Mar-2020 4435.61 4647.85 73.32 1.00  71.01 3146.67
   13:21:38.604.21-Mar-2020 4435.61 4647.85 73.32 1.00  71.21 3146.67
   13:21:38.804.21-Mar-2020 4435.61 4647.74 73.32 1.00  71.41 3146.67
   13:21:39.004.21-Mar-2020 4435.61 4647.81 73.32 1.00  71.61 3146.67
   13:21:39.204.21-Mar-2020 4435.61 4647.85 73.32 1.00  71.81 3146.67
   13:21:39.404.21-Mar-2020 4435.61 4647.45 73.32 1.00  72.01 3146.67
   13:21:39.604.21-Mar-2020 4435.61 4647.45 73.32 1.00  72.21 3146.67
   13:21:39.804.21-Mar-2020 4435.61 4647.82 73.32 1.00  72.41 3146.67
   13:21:40.004.21-Mar-2020 4435.61 4647.62 73.32 1.00  72.61 3146.67
   13:21:40.204.21-Mar-2020 4435.61 4647.66 73.32 1.00  72.81 3146.67
   13:21:40.405.21-Mar-2020 4435.61 4647.83 73.32 1.00  73.01 3146.67
   13:21:40.605.21-Mar-2020 4435.61 4647.83 73.32 1.00  73.21 3146.67
   13:21:40.805.21-Mar-2020 4435.61 4647.86 73.32 1.00  73.41 3146.67
   13:21:41.005.21-Mar-2020 4435.61 4647.48 73.32 1.00  73.61 3146.67
   13:21:41.205.21-Mar-2020 4435.61 4647.82 73.32 1.00  73.81 3146.67
   13:21:41.405.21-Mar-2020 4435.61 4647.87 73.32 1.00  74.01 3146.67
   13:21:41.605.21-Mar-2020 4435.61 4647.87 73.32 1.00  74.21 3146.67
   13:21:41.805.21-Mar-2020 4435.61 4647.75 73.32 1.00  74.41 3146.67
   13:21:42.005.21-Mar-2020 4435.61 4647.85 73.32 1.00  74.61 3146.67
   13:21:42.205.21-Mar-2020 4435.61 4647.86 73.32 1.00  74.81 3146.67
   13:21:42.405.21-Mar-2020 4435.61 4647.77 73.32 1.00  75.01 3146.67
   13:21:42.605.21-Mar-2020 4435.61 4647.77 73.32 1.00  75.21 3146.67
   13:21:42.805.21-Mar-2020 4435.61 4647.73 73.32 1.00  75.41 3146.67
   13:21:43.005.21-Mar-2020 4435.61 4647.52 73.32 1.00  75.61 3146.67
   13:21:43.205.21-Mar-2020 4435.61 4647.85 73.32 1.00  75.81 3146.67
   13:21:43.405.21-Mar-2020 4435.61 4647.74 73.32 1.00  76.01 3146.67
   13:21:43.605.21-Mar-2020 4435.61 4647.74 73.32 1.00  76.21 3146.67
   13:21:43.805.21-Mar-2020 4435.61 4647.78 73.32 1.00  76.41 3146.67
   13:21:44.005.21-Mar-2020 4435.61 4647.73 73.32 1.00  76.61 3146.67
   13:21:44.205.21-Mar-2020 4435.61 4647.76 73.32 1.00  76.81 3146.67
   13:21:44.405.21-Mar-2020 4435.61 4647.74 73.32 1.00  77.01 3146.67
   13:21:44.605.21-Mar-2020 4435.61 4647.74 73.32 1.00  77.21 3146.67
   13:21:44.805.21-Mar-2020 4435.61 4647.79 73.32 1.00  77.41 3146.67
   13:21:45.005.21-Mar-2020 4435.61 4647.86 73.32 1.00  77.61 3146.67
   13:21:45.205.21-Mar-2020 4435.61 4647.81 73.31 1.00  77.81 3146.67
   13:21:45.405.21-Mar-2020 4435.61 4647.82 73.31 1.00  78.01 3146.67
   13:21:45.605.21-Mar-2020 4435.61 4647.82 73.31 1.00  78.21 3146.67
   13:21:45.805.21-Mar-2020 4435.61 4647.81 73.31 1.00  78.41 3146.67
   13:21:46.005.21-Mar-2020 4435.61 4647.79 73.31 1.00  78.61 3146.67
   13:21:46.205.21-Mar-2020 4435.61 4647.85 73.31 1.00  78.81 3146.67
   13:21:46.405.21-Mar-2020 4435.61 4647.44 73.31 1.00  79.01 3146.67
   13:21:46.605.21-Mar-2020 4435.61 4647.44 73.31 1.00  79.21 3146.67
   13:21:46.805.21-Mar-2020 4435.61 4647.82 73.31 1.00  79.41 3146.67
   13:21:47.005.21-Mar-2020 4435.61 4647.75 73.31 1.00  79.61 3146.67
   13:21:47.205.21-Mar-2020 4435.61 4647.14 73.31 1.00  79.81 3146.67
   13:21:47.406.21-Mar-2020 4435.61 4647.36 73.31 1.00  80.01 3146.67
   13:21:47.606.21-Mar-2020 4435.61 4647.36 73.31 1.00  80.21 3146.67
   13:21:47.806.21-Mar-2020 4435.61 4647.81 73.31 1.00  80.41 3146.67
   13:21:48.006.21-Mar-2020 4435.61 4647.45 73.31 1.00  80.61 3146.67
   13:21:48.206.21-Mar-2020 4435.61 4647.83 73.31 1.00  80.81 3146.67
   13:21:48.406.21-Mar-2020 4435.61 4647.87 73.31 1.00  81.01 3146.67
   13:21:48.606.21-Mar-2020 4435.61 4647.87 73.31 1.00  81.21 3146.67
   13:21:48.806.21-Mar-2020 4435.61 4647.79 73.31 1.00  81.41 3146.67
   13:21:49.006.21-Mar-2020 4435.61 4647.81 73.31 1.00  81.61 3146.67
   13:21:49.206.21-Mar-2020 4435.61 4647.86 73.31 1.00  81.81 3146.67
   13:21:49.406.21-Mar-2020 4435.61 4647.78 73.31 1.00  82.01 3146.67
   13:21:49.606.21-Mar-2020 4435.61 4647.78 73.31 1.00  82.21 3146.67
   13:21:49.806.21-Mar-2020 4435.61 4647.85 73.31 1.00  82.41 3146.67
   13:21:50.006.21-Mar-2020 4435.61 4647.39 73.31 1.00  82.61 3146.67
   13:21:50.206.21-Mar-2020 4435.61 4647.89 73.31 1.00  82.81 3146.67
   13:21:50.406.21-Mar-2020 4435.61 4647.77 73.31 1.00  83.01 3146.67
   13:21:50.606.21-Mar-2020 4435.61 4647.77 73.31 1.00  83.21 3146.67
   13:21:50.806.21-Mar-2020 4435.61 4647.78 73.31 1.00  83.41 3146.67
   13:21:51.006.21-Mar-2020 4435.61 4647.75 73.31 1.00  83.61 3146.67
   13:21:51.206.21-Mar-2020 4435.61 4647.74 73.31 1.00  83.81 3146.67
   13:21:51.406.21-Mar-2020 4435.61 4647.75 73.31 1.00  84.01 3146.67
   13:21:51.606.21-Mar-2020 4435.61 4647.75 73.31 1.00  84.21 3146.67
   13:21:51.806.21-Mar-2020 4435.61 4647.80 73.31 1.00  84.41 3146.67
   13:21:52.006.21-Mar-2020 4435.61 4647.85 73.31 1.00  84.61 3146.67
   13:21:52.206.21-Mar-2020 4435.61 4647.82 73.30 1.00  84.81 3146.67
   13:21:52.406.21-Mar-2020 4435.61 4647.80 73.30 1.00  85.01 3146.67
   13:21:52.606.21-Mar-2020 4435.61 4647.80 73.30 1.00  85.21 3146.67
   13:21:52.806.21-Mar-2020 4435.61 4647.81 73.30 1.00  85.41 3146.67
   13:21:53.006.21-Mar-2020 4435.61 4647.79 73.30 1.00  85.61 3146.67
   13:21:53.206.21-Mar-2020 4435.61 4647.81 73.30 1.00  85.81 3146.67
   13:21:53.406.21-Mar-2020 4435.61 4647.52 73.30 1.00  86.01 3146.67
   13:21:53.606.21-Mar-2020 4435.61 4647.52 73.30 1.00  86.21 3146.67
   13:21:53.806.21-Mar-2020 4435.61 4647.87 73.30 1.00  86.41 3146.67
   13:21:54.006.21-Mar-2020 4435.61 4647.85 73.30 1.00  86.61 3146.67
   13:21:54.206.21-Mar-2020 4435.61 4647.43 73.30 1.00  86.81 3146.67
   13:21:54.407.21-Mar-2020 4435.61 4647.85 73.30 1.00  87.01 3146.67
   13:21:54.607.21-Mar-2020 4435.61 4647.85 73.30 1.00  87.21 3146.67
   13:21:54.807.21-Mar-2020 4435.61 4647.89 73.30 1.00  87.41 3146.67
   13:21:55.007.21-Mar-2020 4435.61 4647.65 73.30 1.00  87.61 3146.67
   13:21:55.207.21-Mar-2020 4435.61 4647.69 73.30 1.00  87.81 3146.67
   13:21:55.407.21-Mar-2020 4435.61 4647.92 73.30 1.00  88.01 3146.67
   13:21:55.607.21-Mar-2020 4435.61 4647.92 73.30 1.00  88.21 3146.67
   13:21:55.807.21-Mar-2020 4435.61 4647.81 73.30 1.00  88.41 3146.67
   13:21:56.007.21-Mar-2020 4435.61 4647.81 73.30 1.00  88.61 3146.67
   13:21:56.207.21-Mar-2020 4435.61 4647.87 73.30 1.00  88.81 3146.67
   13:21:56.407.21-Mar-2020 4435.61 4647.83 73.30 1.00  89.01 3146.67
   13:21:56.607.21-Mar-2020 4435.61 4647.83 73.30 1.00  89.21 3146.67
   13:21:56.807.21-Mar-2020 4435.61 4647.81 73.30 1.00  89.41 3146.67
   13:21:57.007.21-Mar-2020 4435.61 4647.45 73.30 1.00  89.61 3146.67
   13:21:57.207.21-Mar-2020 4435.61 4647.86 73.30 1.00  89.81 3146.67
   13:21:57.407.21-Mar-2020 4435.61 4647.81 73.30 1.00  90.01 3146.67
   13:21:57.607.21-Mar-2020 4435.61 4647.81 73.30 1.00  90.21 3146.67
   13:21:57.807.21-Mar-2020 4435.61 4647.80 73.30 1.00  90.41 3146.67
   13:21:58.007.21-Mar-2020 4435.61 4647.76 73.30 1.00  90.61 3146.67
   13:21:58.207.21-Mar-2020 4435.61 4647.74 73.30 1.00  90.81 3146.67
   13:21:58.407.21-Mar-2020 4435.61 4647.78 73.30 1.00  91.01 3146.67
   13:21:58.607.21-Mar-2020 4435.61 4647.78 73.30 1.00  91.21 3146.67
   13:21:58.807.21-Mar-2020 4435.61 4647.77 73.30 1.00  91.41 3146.67
   13:21:59.007.21-Mar-2020 4435.61 4647.87 73.30 1.00  91.61 3146.67
   13:21:59.207.21-Mar-2020 4435.61 4647.83 73.30 1.00  91.81 3146.67
