~Version Information
 VERS.                  2.0:   CWLS log ASCII Standard -VERSION 2.0
 WRAP.                   NO:   One line per depth step
~Well Information Block
#MNEM.UNIT     VALUE/NAME     DESCRIPTION
#---------     -----------    ---------------------------
 STRT.S             13:20:27 21-Mar-20: START TIME 13:20:27 21-Mar-20
 STOP.S             13:26:37 21-Mar-20: STOP TIME  13:26:37 21-Mar-20
 STEP.S                   0.00: STEP TIME
 NULL.                 -999.25: NULL VALUE
 DFWT.                        :  DIST FWL TEXT
 DFST.                        :  DIST FSL TEXT
 DMF .             Drill Floor:  DRILL MEAS FROM
 STIM.      22.38.56 15-Feb-20:  START TIME
 DATE.      22.38.56 15-Feb-20:  END TIME
 SPUD.               15-Feb-20:  SPUD DATE
 NREF.                    Grid:  NORTH REFERENCE
 HPTY.       Minimum Curvature:  HOLE POS TYPE
 DMOD.             Drill Model:  DRILL MOD DESC
 SVYD.                  Survey:  SURVEY DESC
 ILTD.               Lithology:  INTERP LTH DESC
 FTOP.          Formation Tops:  FORM TOPS DESC
 SON .        AZ-XX-0906019077:  JOB NUMBER
 PDAT.          Mean Sea Level:  PERMANENT DATUM
 WTYP.                Deviated:  WELL TYPE
 MDS .        Operator Entered:  MAG DATA SOURCE
 COMP.     BP Exploration (Caspian sea) Ltd.:  COMPANY
 UWI .                     N/A:  UNIQUE WELL IDENTIFIER
 API .                     N/A:  API NUMBER
 BASE.              Azerbaijan:  LOGGING EQUIPMENT BASE LOCATION
 REGN.                   EESSA:  REGION
 PROV.                     N/A:  PROVINCE
 STAT.                     N/A:  STATE NAME
 CTRY.              Azerbaijan:  COUNTRY NAME
 FLD .                     ACG:  FIELD NAME
 SRVC.          Turan Drilling:  CONTRACTOR
 MWDS.                    Baku:  MWD SHOP
 WELL.                    E16W:  WELL NAME
 JOBN.        AZ-XX-0906019077:  JOB TICKET NUMB
 RIG .                     DWG:  RIG NAME
 CNTY.                     N/A:  COUNTY NAME
 DCON.         Sperry Drilling:  DIRECTNL CONTR
 UNIT.                     N/A:  LOGGING EQUIPMENT ID
 LOC .                        :  LOCATION
 LMF .             Drill Floor:  LOG MEASURED FROM
 TVDS.m                  43.16:  TVDSS CORRECTN
 LATI.deg                40.17:  LATITUDE
 LONG.deg                51.17:  LONGITUDE
 WHNS.m                 -15.30:  WELL HEAD N/S
 WHEW.m                  -1.29:  WELL HEAD E/W
 UTMX.m              514337.95:  UTM X
 UTMY.m             4448627.46:  UTM Y
 DFWL.m                   0.00:  DISTANCE FWL
 DFSL.m                   0.00:  DISTANCE FSL
 SDEP.m                3499.01:  START DEPTH
 TDD .m                4422.01:  TOTAL DEPTH (DRILLER)
 VSDR.deg               151.14:  VERT SEC DIRECT
 GVFD.g                   1.00:  GRAVITY FIELD
 MFLD.nT              50334.00:  MAGNETIC FIELD
 MDIP.deg                59.62:  MAGNETIC DIP
 MDEC.deg                 6.46:  MAGNETIC DECL
 GRDC.deg                 0.12:  GRID CORRECTION
 AZTC.deg                 6.34:  AZM TOTAL CORR
 EPD .m                   0.00:  ELEVATION
 EGL .m                   0.00:  GROUND ELEVATION
 WDMS.m                 176.20:  WD ELEV
 APD .m                  43.16:  DEPTH ABOVE PD
 VSEW.m                  -1.29:  VERT SEC E/W
 VSNS.m                 -15.30:  VERT SEC N/S
 AGAP.m                  43.16:  AIR GAP
 EKB .m                   0.00:  KB ELEVATION
 EDF .m                  43.16:  DF ELEVATION
 TDL .m                  81.00:  TOTAL DEPTH (LOGGER)
 VSC .                       0:  VS TO CLOSURE
 MAGU.                 1852525:  MAGUTM CHECKSUM
~Parameter Information Block
#MNEM.UNIT       Value        Description
#---------     -----------    ---------------------------
 AV  .mps                 1.00:  Ann Velocity 
 AVMX.mps                 1.32:  Max Ann Veloc 
 AZIF.deg               141.43:  Azm, Final 
 BHAT.        Rotary Steerable:  BHA Type 
 BREV.rev            107699.99:  Rev Bit Total 
 BROT.°/30m              -0.88:  Build Rotating 
 BS  .in                  6.50:  Bit Size 
 BSZ .in                  6.50:  Bit Size 
 BTPL.psig              222.00:  Bit Press Loss 
 CABU.                     Yes:  Customer Abuse 
 CGEO.        Ali Isfandiyarov:  Customer Geo 
 TCS .hr                 23.12:  Time Ciculation Ended 
 CV  .mps                 2.20:  Crit Velocity 
 CVMX.mps                 3.01:  Max Crit Veloc 
 DD1 .         Intigam Rahimov:  Direct Drillr 1 
 DDSV.               Geo-Pilot:  DD Service 
 DEFF.%                 100.00:  % Det Eff 
 DLRX.°/30m               0.90:  Dogleg Rot Max 
 DLSO.°/30m               0.00:  Dogleg Oriented 
 DLSX.°/30m               0.00:  Dogleg Str Max 
 DRET.      20.00.00 21-Mar-20:  Drill End Time 
 DRST.      04.30.00 20-Mar-20:  Drill Start Tim 
 DTIM.hr                  8.99:  Time Drilling 
 EDEP.m                4503.01:  End Depth 
 ENG1.          Rasim Hashimov:  Engineer 1 
 ENG2.         Yevgeniy Ulikov:  Engineer 2 
 ETIM.      14.43.10 22-Mar-20:  End Time 
 FLOI.gpm               350.00:  Flow In 
 FLON.gpm               300.00:  Flow In Min 
 FLOS.cptm                0.00:  Fluid Loss 
 FLOX.gpm               400.00:  Flow In Max 
 FTRO.       Formation Presure:  FTWD Run Obj 
 HFLO.                      No:  High Flow 
 HPRE.                      No:  High Pressure 
 HTEM.                      No:  High Temp 
 HYDO.m                   1.80:  Hydro Offset 
 IFIN.deg                78.17:  Inc, Final 
 IMAX.deg                79.31:  Inc Max 
 IMIN.deg                78.75:  Inc Min 
 IMND.m                4474.16:  Inc Min Depth 
 IMXD.m                4445.88:  Inc Max Depth 
 JARR.                      No:  Jarring 
 LETM.      20.00.00 21-Mar-20:  Log End Time 
 LOST.hr                     0:  Lost Rig Time 
 LSTM.      04.30.00 19-Mar-20:  Log Start Time 
 MDCL.ppm             39500.00:  Mud Chlorides 
 MDES.     Inversion Oil/Synthetic:  Mud Desc 
 DFD .sg                  1.40:  Mud Density 
 MDMN.sg                  1.40:  Dens Mud Min 
 MDMX.sg                  1.40:  Dens Mud Max 
 MOIL.                      55:  Run Mud Oil % 
 MOWR.                   68:32:  Run Mud OWR 
 MSND.                     0.1:  Run Mud Sand % 
 MSOL.                       1:  Run Mud Solids% 
 DFV .spqt               78.00:  Mud Viscosity 
 MWOD.in                  4.75:  MWD Tool OD 
 MWSI.                      No:  Serv Intrp, MWD 
 OTIM.hr                 61.28:  Time Operating 
 PCON.           Look Like New:  Pad Condition 
 PMAX.psia             9103.94:  Press Op, Max 
 PV  .cP                 25.00:  Mud PV 
 RUN .                     800:  Run Number 
 ROPA.m/hr                7.10:  ROP Avg 
 ROPN.m/hr                2.40:  ROP Min 
 ROPX.m/hr               12.00:  ROP Max 
 RPMA.rpm               120.00:  RPM Surface Avg 
 RPMN.rpm                80.00:  RPM Surface Min 
 RPMX.rpm               140.00:  RPM Surface Max 
 RRUN.                    L203:  Rig Run Number 
 RTIM.hr                  6.50:  Time Reaming 
 SAZI.deg               140.14:  Azm, Start 
 SDEP.m                4422.01:  Start Depth 
 SIDD.                     Yes:  Serv Intrp, DD 
 SINC.deg                80.07:  Inc, Start 
 SPPA.psig             4619.00:  SPP Avg 
 SPPN.psig             3980.00:  SPP Min 
 SPPX.psig             5100.00:  SPP Max 
 STIM.      22.30.00 19-Mar-20:  Start Time 
 SVCS.                 DD, MWD:  Services 
 SVER.                    9.20:  Sperry Version 
 TDAT.m                  81.00:  Tot Depth Attmp 
 TDDF.                     Yes:  Trip for DD 
 TDLG.m                  81.00:  Tot Depth Loggd 
 TFF .                      No:  Trip for Fail 
 TQAA.f-kp               12.50:  Torque Abs Avg 
 TQAN.f-kp               12.00:  Torque Abs Min 
 TQAX.f-kp               14.00:  Torque Abs Max 
 TRRT.°/30m               0.25:  Turn Rotating 
 MRT .                    HCIM:  Maximum Recorded Temperature 
 TTMX.degC               86.27:  Max Tool Temp 
 VS01.         90595989G12V7D4:  Virtual Str1 SN 
 VS02.            90519330D5C4:  Virtual Str2 SN 
 VS03.             90522014R12:  Virtual Str3 SN 
 VS04.          90522272N2L2C4:  Virtual Str4 SN 
 VS05.      90512713X1Z1W1X1C4:  Virtual Str5 SN 
 WBMN.klb                 3.00:  WOB Min 
 WITN.        Elmaddin Rahimov:  Customer Rep 
 WOBA.klb                 5.60:  WOB Avg 
 WOBX.klb                 7.00:  WOB Max 
 YP  .lhf2               28.00:  Yield Point 
~Curve Information Block
#MNEM.UNIT                 API CODE     Curve Description
#---------               -----------    ---------------------------
 TIME.HHMMSS            00 000 000 000:  GT Time & Date
 GTDEPTH.m              00 000 000 000:  GT Depth
 GTPQH.psia             00 000 000 000:  GT HR Quartz Pressure
 GTTQ.degC              00 000 000 000:  GT Quartz Temperature
 GTTN.NONE              00 000 000 000:  GT Test Number
 GTET.sec               00 000 000 000:  GT Elapsed Test Time
 GTTVD.m                00 000 000 000:  GT True Vertical Depth
#Other Information
#
#WARRANTY: Halliburton will use its best efforts to furnish customers with 
#accurate information and interpretations that are part of, and incident to, the services 
#provided.  However, Halliburton cannot and does not warrant the accuracy 
#or correctness of such information and interpretations.  Under no circumstances should any 
#such information or interpretation be relied upon as the sole basis for any drilling, 
#completion, production, or financial decision or any procedure involving any risk to the 
#safety of any drilling venture, drilling rig or its crew or any other third party.  The 
#Customer has full responsibility for all drilling, completion and production operation.  
#Halliburton makes no representations or warranties, either expressed or 
#implied, including, but not limited to, the implied warranties of merchantability or fitness 
#for a particular purpose, with respect to the services rendered.  In no event will 
#Halliburton be liable for failure to obtain any particular results or for 
#any damages, including, but not limited to, indirect, special or consequential damages, 
#resulting from the use of any information or interpretation provided by Halliburton.
#
~A           TIME           GTDEPTH  GTPQH  GTTQ  GTTN  GTET   GTTVD  
# ...
   13:22:22.411.21-Mar-2020 4435.61 3930.40 73.27 1.00 115.02 3146.67
   13:22:22.611.21-Mar-2020 4435.61 3930.40 73.27 1.00 115.22 3146.67
   13:22:22.811.21-Mar-2020 4435.61 3937.62 73.26 1.00 115.42 3146.67
   13:22:23.011.21-Mar-2020 4435.61 3935.00 73.26 1.00 115.62 3146.67
   13:22:23.211.21-Mar-2020 4435.61 3932.42 73.26 1.00 115.82 3146.67
   13:22:23.411.21-Mar-2020 4435.61 3937.16 73.26 1.00 116.02 3146.67
   13:22:23.611.21-Mar-2020 4435.61 3937.16 73.26 1.00 116.22 3146.67
   13:22:23.811.21-Mar-2020 4435.61 3940.40 73.26 1.00 116.42 3146.67
   13:22:24.011.21-Mar-2020 4435.61 3939.96 73.26 1.00 116.62 3146.67
   13:22:24.211.21-Mar-2020 4435.61 3942.29 73.26 1.00 116.82 3146.67
   13:22:24.411.21-Mar-2020 4435.61 3942.92 73.26 1.00 117.02 3146.67
   13:22:24.611.21-Mar-2020 4435.61 3942.92 73.26 1.00 117.22 3146.67
   13:22:24.811.21-Mar-2020 4435.61 3944.35 73.26 1.00 117.42 3146.67
   13:22:25.011.21-Mar-2020 4435.61 3944.65 73.26 1.00 117.62 3146.67
   13:22:25.211.21-Mar-2020 4435.61 3940.39 73.26 1.00 117.82 3146.67
   13:22:25.411.21-Mar-2020 4435.61 3950.05 73.26 1.00 118.02 3146.67
   13:22:25.611.21-Mar-2020 4435.61 3950.05 73.26 1.00 118.22 3146.67
   13:22:25.811.21-Mar-2020 4435.61 3948.43 73.26 1.00 118.42 3146.67
   13:22:26.011.21-Mar-2020 4435.61 3950.92 73.26 1.00 118.62 3146.67
   13:22:26.211.21-Mar-2020 4435.61 3950.71 73.26 1.00 118.82 3146.67
   13:22:26.411.21-Mar-2020 4435.61 3949.02 73.26 1.00 119.02 3146.67
   13:22:26.611.21-Mar-2020 4435.61 3949.02 73.26 1.00 119.22 3146.67
   13:22:26.811.21-Mar-2020 4435.61 3950.75 73.26 1.00 119.42 3146.67
   13:22:27.011.21-Mar-2020 4435.61 3952.30 73.26 1.00 119.62 3146.67
   13:22:27.211.21-Mar-2020 4435.61 3955.63 73.25 1.00 119.82 3146.67
   13:22:27.411.21-Mar-2020 4435.61 3954.27 73.25 1.00 120.02 3146.67
   13:22:27.611.21-Mar-2020 4435.61 3954.27 73.25 1.00 120.22 3146.67
   13:22:27.811.21-Mar-2020 4435.61 3951.52 73.25 1.00 120.42 3146.67
   13:22:28.011.21-Mar-2020 4435.61 3954.60 73.25 1.00 120.62 3146.67
   13:22:28.211.21-Mar-2020 4435.61 3956.87 73.25 1.00 120.82 3146.67
   13:22:28.411.21-Mar-2020 4435.61 3954.96 73.25 1.00 121.02 3146.67
   13:22:28.611.21-Mar-2020 4435.61 3954.96 73.25 1.00 121.22 3146.67
   13:22:28.811.21-Mar-2020 4435.61 3963.48 73.25 1.00 121.42 3146.67
   13:22:29.011.21-Mar-2020 4435.61 3965.05 73.25 1.00 121.62 3146.67
   13:22:29.211.21-Mar-2020 4435.61 3960.28 73.25 1.00 121.82 3146.67
   13:22:29.412.21-Mar-2020 4435.61 3956.06 73.25 1.00 122.02 3146.67
   13:22:29.612.21-Mar-2020 4435.61 3956.06 73.25 1.00 122.22 3146.67
   13:22:29.812.21-Mar-2020 4435.61 3964.72 73.25 1.00 122.42 3146.67
   13:22:30.012.21-Mar-2020 4435.61 3965.22 73.25 1.00 122.62 3146.67
   13:22:30.212.21-Mar-2020 4435.61 3963.19 73.25 1.00 122.82 3146.67
   13:22:30.412.21-Mar-2020 4435.61 3964.26 73.25 1.00 123.02 3146.67
   13:22:30.612.21-Mar-2020 4435.61 3964.26 73.25 1.00 123.22 3146.67
   13:22:30.812.21-Mar-2020 4435.61 3968.53 73.25 1.00 123.42 3146.67
   13:22:31.012.21-Mar-2020 4435.61 3967.76 73.25 1.00 123.62 3146.67
   13:22:31.212.21-Mar-2020 4435.61 4015.02 73.25 1.00 123.82 3146.67
   13:22:31.412.21-Mar-2020 4435.61 4322.92 73.25 1.00 124.02 3146.67
   13:22:31.612.21-Mar-2020 4435.61 4322.92 73.25 1.00 124.22 3146.67
   13:22:31.812.21-Mar-2020 4435.61 4508.85 73.25 1.00 124.42 3146.67
   13:22:32.012.21-Mar-2020 4435.61 4616.86 73.25 1.00 124.62 3146.67
   13:22:32.212.21-Mar-2020 4435.61 4629.81 73.25 1.00 124.82 3146.67
   13:22:32.412.21-Mar-2020 4435.61 4635.76 73.25 1.00 125.02 3146.67
   13:22:32.612.21-Mar-2020 4435.61 4635.76 73.25 1.00 125.22 3146.67
   13:22:32.812.21-Mar-2020 4435.61 4640.66 73.25 1.00 125.42 3146.67
   13:22:33.012.21-Mar-2020 4435.61 4641.76 73.25 1.00 125.62 3146.67
   13:22:33.212.21-Mar-2020 4435.61 4642.43 73.25 1.00 125.82 3146.67
   13:22:33.412.21-Mar-2020 4435.61 4642.95 73.24 1.00 126.02 3146.67
   13:22:33.612.21-Mar-2020 4435.61 4643.41 73.24 1.00 126.22 3146.67
   13:22:33.812.21-Mar-2020 4435.61 4643.84 73.24 1.00 126.42 3146.67
   13:22:34.012.21-Mar-2020 4435.61 4644.09 73.24 1.00 126.62 3146.67
   13:22:34.212.21-Mar-2020 4435.61 4644.42 73.24 1.00 126.82 3146.67
   13:22:34.412.21-Mar-2020 4435.61 4644.72 73.24 1.00 127.02 3146.67
   13:22:34.612.21-Mar-2020 4435.61 4644.72 73.24 1.00 127.22 3146.67
   13:22:34.812.21-Mar-2020 4435.61 4645.05 73.24 1.00 127.42 3146.67
   13:22:35.012.21-Mar-2020 4435.61 4644.81 73.24 1.00 127.62 3146.67
   13:22:35.212.21-Mar-2020 4435.61 4645.27 73.24 1.00 127.82 3146.67
   13:22:35.412.21-Mar-2020 4435.61 4645.43 73.24 1.00 128.02 3146.67
   13:22:35.612.21-Mar-2020 4435.61 4645.43 73.24 1.00 128.22 3146.67
   13:22:35.812.21-Mar-2020 4435.61 4645.37 73.24 1.00 128.42 3146.67
   13:22:36.012.21-Mar-2020 4435.61 4645.85 73.24 1.00 128.62 3146.67
   13:22:36.212.21-Mar-2020 4435.61 4645.90 73.24 1.00 128.82 3146.67
   13:22:36.413.21-Mar-2020 4435.61 4645.94 73.24 1.00 129.02 3146.67
   13:22:36.613.21-Mar-2020 4435.61 4645.94 73.24 1.00 129.22 3146.67
   13:22:36.813.21-Mar-2020 4435.61 4645.75 73.24 1.00 129.42 3146.67
   13:22:37.013.21-Mar-2020 4435.61 4646.32 73.24 1.00 129.62 3146.67
   13:22:37.213.21-Mar-2020 4435.61 4646.32 73.24 1.00 129.82 3146.67
   13:22:37.413.21-Mar-2020 4435.61 4646.27 73.24 1.00 130.02 3146.67
   13:22:37.613.21-Mar-2020 4435.61 4646.27 73.24 1.00 130.22 3146.67
   13:22:37.813.21-Mar-2020 4435.61 4646.01 73.24 1.00 130.42 3146.67
   13:22:38.013.21-Mar-2020 4435.61 4646.52 73.24 1.00 130.62 3146.67
   13:22:38.213.21-Mar-2020 4435.61 4646.45 73.24 1.00 130.82 3146.67
   13:22:38.413.21-Mar-2020 4435.61 4646.43 73.24 1.00 131.02 3146.67
   13:22:38.613.21-Mar-2020 4435.61 4646.43 73.24 1.00 131.22 3146.67
   13:22:38.813.21-Mar-2020 4435.61 4646.49 73.24 1.00 131.42 3146.67
   13:22:39.013.21-Mar-2020 4435.61 4646.52 73.24 1.00 131.62 3146.67
   13:22:39.213.21-Mar-2020 4435.61 4646.43 73.24 1.00 131.82 3146.67
   13:22:39.413.21-Mar-2020 4435.61 4646.51 73.24 1.00 132.02 3146.67
   13:22:39.613.21-Mar-2020 4435.61 4646.51 73.24 1.00 132.22 3146.67
   13:22:39.813.21-Mar-2020 4435.61 4646.29 73.24 1.00 132.42 3146.67
   13:22:40.013.21-Mar-2020 4435.61 4646.69 73.24 1.00 132.62 3146.67
   13:22:40.213.21-Mar-2020 4435.61 4646.65 73.24 1.00 132.82 3146.67
   13:22:40.413.21-Mar-2020 4435.61 4646.64 73.24 1.00 133.02 3146.67
   13:22:40.613.21-Mar-2020 4435.61 4646.64 73.24 1.00 133.22 3146.67
   13:22:40.813.21-Mar-2020 4435.61 4646.59 73.24 1.00 133.42 3146.67
   13:22:41.013.21-Mar-2020 4435.61 4646.65 73.24 1.00 133.62 3146.67
   13:22:41.213.21-Mar-2020 4435.61 4646.67 73.24 1.00 133.82 3146.67
   13:22:41.413.21-Mar-2020 4435.61 4646.71 73.24 1.00 134.02 3146.67
   13:22:41.613.21-Mar-2020 4435.61 4646.71 73.24 1.00 134.22 3146.67
   13:22:41.813.21-Mar-2020 4435.61 4646.81 73.24 1.00 134.42 3146.67
   13:22:42.013.21-Mar-2020 4435.61 4646.78 73.24 1.00 134.62 3146.67
   13:22:42.213.21-Mar-2020 4435.61 4646.76 73.24 1.00 134.82 3146.67
   13:22:42.413.21-Mar-2020 4435.61 4646.45 73.24 1.00 135.02 3146.67
   13:22:42.613.21-Mar-2020 4435.61 4646.45 73.24 1.00 135.22 3146.67
   13:22:42.813.21-Mar-2020 4435.61 4646.92 73.24 1.00 135.42 3146.67
   13:22:43.013.21-Mar-2020 4435.61 4646.89 73.24 1.00 135.62 3146.67
   13:22:43.213.21-Mar-2020 4435.61 4646.52 73.24 1.00 135.82 3146.67
   13:22:43.414.21-Mar-2020 4435.61 4646.96 73.24 1.00 136.02 3146.67
   13:22:43.614.21-Mar-2020 4435.61 4646.96 73.24 1.00 136.22 3146.67
   13:22:43.814.21-Mar-2020 4435.61 4646.62 73.24 1.00 136.42 3146.67
   13:22:44.014.21-Mar-2020 4435.61 4647.04 73.24 1.00 136.62 3146.67
   13:22:44.214.21-Mar-2020 4435.61 4647.04 73.24 1.00 136.82 3146.67
   13:22:44.414.21-Mar-2020 4435.61 4647.10 73.24 1.00 137.02 3146.67
   13:22:44.614.21-Mar-2020 4435.61 4647.10 73.24 1.00 137.22 3146.67
   13:22:44.814.21-Mar-2020 4435.61 4646.72 73.24 1.00 137.42 3146.67
   13:22:45.014.21-Mar-2020 4435.61 4647.15 73.24 1.00 137.62 3146.67
   13:22:45.214.21-Mar-2020 4435.61 4647.15 73.24 1.00 137.82 3146.67
