~Version Information
 VERS.                  2.0:   CWLS log ASCII Standard -VERSION 2.0
 WRAP.                   NO:   One line per depth step
~Well Information Block
#MNEM.UNIT     VALUE/NAME     DESCRIPTION
#---------     -----------    ---------------------------
 STRT.S             13:20:27 21-Mar-20: START TIME 13:20:27 21-Mar-20
 STOP.S             13:26:37 21-Mar-20: STOP TIME  13:26:37 21-Mar-20
 STEP.S                   0.00: STEP TIME
 NULL.                 -999.25: NULL VALUE
 DFWT.                        :  DIST FWL TEXT
 DFST.                        :  DIST FSL TEXT
 DMF .             Drill Floor:  DRILL MEAS FROM
 STIM.      22.38.56 15-Feb-20:  START TIME
 DATE.      22.38.56 15-Feb-20:  END TIME
 SPUD.               15-Feb-20:  SPUD DATE
 NREF.                    Grid:  NORTH REFERENCE
 HPTY.       Minimum Curvature:  HOLE POS TYPE
 DMOD.             Drill Model:  DRILL MOD DESC
 SVYD.                  Survey:  SURVEY DESC
 ILTD.               Lithology:  INTERP LTH DESC
 FTOP.          Formation Tops:  FORM TOPS DESC
 SON .        AZ-XX-0906019077:  JOB NUMBER
 PDAT.          Mean Sea Level:  PERMANENT DATUM
 WTYP.                Deviated:  WELL TYPE
 MDS .        Operator Entered:  MAG DATA SOURCE
 COMP.     BP Exploration (Caspian sea) Ltd.:  COMPANY
 UWI .                     N/A:  UNIQUE WELL IDENTIFIER
 API .                     N/A:  API NUMBER
 BASE.              Azerbaijan:  LOGGING EQUIPMENT BASE LOCATION
 REGN.                   EESSA:  REGION
 PROV.                     N/A:  PROVINCE
 STAT.                     N/A:  STATE NAME
 CTRY.              Azerbaijan:  COUNTRY NAME
 FLD .                     ACG:  FIELD NAME
 SRVC.          Turan Drilling:  CONTRACTOR
 MWDS.                    Baku:  MWD SHOP
 WELL.                    E16W:  WELL NAME
 JOBN.        AZ-XX-0906019077:  JOB TICKET NUMB
 RIG .                     DWG:  RIG NAME
 CNTY.                     N/A:  COUNTY NAME
 DCON.         Sperry Drilling:  DIRECTNL CONTR
 UNIT.                     N/A:  LOGGING EQUIPMENT ID
 LOC .                        :  LOCATION
 LMF .             Drill Floor:  LOG MEASURED FROM
 TVDS.m                  43.16:  TVDSS CORRECTN
 LATI.deg                40.17:  LATITUDE
 LONG.deg                51.17:  LONGITUDE
 WHNS.m                 -15.30:  WELL HEAD N/S
 WHEW.m                  -1.29:  WELL HEAD E/W
 UTMX.m              514337.95:  UTM X
 UTMY.m             4448627.46:  UTM Y
 DFWL.m                   0.00:  DISTANCE FWL
 DFSL.m                   0.00:  DISTANCE FSL
 SDEP.m                3499.01:  START DEPTH
 TDD .m                4422.01:  TOTAL DEPTH (DRILLER)
 VSDR.deg               151.14:  VERT SEC DIRECT
 GVFD.g                   1.00:  GRAVITY FIELD
 MFLD.nT              50334.00:  MAGNETIC FIELD
 MDIP.deg                59.62:  MAGNETIC DIP
 MDEC.deg                 6.46:  MAGNETIC DECL
 GRDC.deg                 0.12:  GRID CORRECTION
 AZTC.deg                 6.34:  AZM TOTAL CORR
 EPD .m                   0.00:  ELEVATION
 EGL .m                   0.00:  GROUND ELEVATION
 WDMS.m                 176.20:  WD ELEV
 APD .m                  43.16:  DEPTH ABOVE PD
 VSEW.m                  -1.29:  VERT SEC E/W
 VSNS.m                 -15.30:  VERT SEC N/S
 AGAP.m                  43.16:  AIR GAP
 EKB .m                   0.00:  KB ELEVATION
 EDF .m                  43.16:  DF ELEVATION
 TDL .m                  81.00:  TOTAL DEPTH (LOGGER)
 VSC .                       0:  VS TO CLOSURE
 MAGU.                 1852525:  MAGUTM CHECKSUM
~Parameter Information Block
#MNEM.UNIT       Value        Description
#---------     -----------    ---------------------------
 AV  .mps                 1.00:  Ann Velocity 
 AVMX.mps                 1.32:  Max Ann Veloc 
 AZIF.deg               141.43:  Azm, Final 
 BHAT.        Rotary Steerable:  BHA Type 
 BREV.rev            107699.99:  Rev Bit Total 
 BROT.°/30m              -0.88:  Build Rotating 
 BS  .in                  6.50:  Bit Size 
 BSZ .in                  6.50:  Bit Size 
 BTPL.psig              222.00:  Bit Press Loss 
 CABU.                     Yes:  Customer Abuse 
 CGEO.        Ali Isfandiyarov:  Customer Geo 
 TCS .hr                 23.12:  Time Ciculation Ended 
 CV  .mps                 2.20:  Crit Velocity 
 CVMX.mps                 3.01:  Max Crit Veloc 
 DD1 .         Intigam Rahimov:  Direct Drillr 1 
 DDSV.               Geo-Pilot:  DD Service 
 DEFF.%                 100.00:  % Det Eff 
 DLRX.°/30m               0.90:  Dogleg Rot Max 
 DLSO.°/30m               0.00:  Dogleg Oriented 
 DLSX.°/30m               0.00:  Dogleg Str Max 
 DRET.      20.00.00 21-Mar-20:  Drill End Time 
 DRST.      04.30.00 20-Mar-20:  Drill Start Tim 
 DTIM.hr                  8.99:  Time Drilling 
 EDEP.m                4503.01:  End Depth 
 ENG1.          Rasim Hashimov:  Engineer 1 
 ENG2.         Yevgeniy Ulikov:  Engineer 2 
 ETIM.      14.43.10 22-Mar-20:  End Time 
 FLOI.gpm               350.00:  Flow In 
 FLON.gpm               300.00:  Flow In Min 
 FLOS.cptm                0.00:  Fluid Loss 
 FLOX.gpm               400.00:  Flow In Max 
 FTRO.       Formation Presure:  FTWD Run Obj 
 HFLO.                      No:  High Flow 
 HPRE.                      No:  High Pressure 
 HTEM.                      No:  High Temp 
 HYDO.m                   1.80:  Hydro Offset 
 IFIN.deg                78.17:  Inc, Final 
 IMAX.deg                79.31:  Inc Max 
 IMIN.deg                78.75:  Inc Min 
 IMND.m                4474.16:  Inc Min Depth 
 IMXD.m                4445.88:  Inc Max Depth 
 JARR.                      No:  Jarring 
 LETM.      20.00.00 21-Mar-20:  Log End Time 
 LOST.hr                     0:  Lost Rig Time 
 LSTM.      04.30.00 19-Mar-20:  Log Start Time 
 MDCL.ppm             39500.00:  Mud Chlorides 
 MDES.     Inversion Oil/Synthetic:  Mud Desc 
 DFD .sg                  1.40:  Mud Density 
 MDMN.sg                  1.40:  Dens Mud Min 
 MDMX.sg                  1.40:  Dens Mud Max 
 MOIL.                      55:  Run Mud Oil % 
 MOWR.                   68:32:  Run Mud OWR 
 MSND.                     0.1:  Run Mud Sand % 
 MSOL.                       1:  Run Mud Solids% 
 DFV .spqt               78.00:  Mud Viscosity 
 MWOD.in                  4.75:  MWD Tool OD 
 MWSI.                      No:  Serv Intrp, MWD 
 OTIM.hr                 61.28:  Time Operating 
 PCON.           Look Like New:  Pad Condition 
 PMAX.psia             9103.94:  Press Op, Max 
 PV  .cP                 25.00:  Mud PV 
 RUN .                     800:  Run Number 
 ROPA.m/hr                7.10:  ROP Avg 
 ROPN.m/hr                2.40:  ROP Min 
 ROPX.m/hr               12.00:  ROP Max 
 RPMA.rpm               120.00:  RPM Surface Avg 
 RPMN.rpm                80.00:  RPM Surface Min 
 RPMX.rpm               140.00:  RPM Surface Max 
 RRUN.                    L203:  Rig Run Number 
 RTIM.hr                  6.50:  Time Reaming 
 SAZI.deg               140.14:  Azm, Start 
 SDEP.m                4422.01:  Start Depth 
 SIDD.                     Yes:  Serv Intrp, DD 
 SINC.deg                80.07:  Inc, Start 
 SPPA.psig             4619.00:  SPP Avg 
 SPPN.psig             3980.00:  SPP Min 
 SPPX.psig             5100.00:  SPP Max 
 STIM.      22.30.00 19-Mar-20:  Start Time 
 SVCS.                 DD, MWD:  Services 
 SVER.                    9.20:  Sperry Version 
 TDAT.m                  81.00:  Tot Depth Attmp 
 TDDF.                     Yes:  Trip for DD 
 TDLG.m                  81.00:  Tot Depth Loggd 
 TFF .                      No:  Trip for Fail 
 TQAA.f-kp               12.50:  Torque Abs Avg 
 TQAN.f-kp               12.00:  Torque Abs Min 
 TQAX.f-kp               14.00:  Torque Abs Max 
 TRRT.°/30m               0.25:  Turn Rotating 
 MRT .                    HCIM:  Maximum Recorded Temperature 
 TTMX.degC               86.27:  Max Tool Temp 
 VS01.         90595989G12V7D4:  Virtual Str1 SN 
 VS02.            90519330D5C4:  Virtual Str2 SN 
 VS03.             90522014R12:  Virtual Str3 SN 
 VS04.          90522272N2L2C4:  Virtual Str4 SN 
 VS05.      90512713X1Z1W1X1C4:  Virtual Str5 SN 
 WBMN.klb                 3.00:  WOB Min 
 WITN.        Elmaddin Rahimov:  Customer Rep 
 WOBA.klb                 5.60:  WOB Avg 
 WOBX.klb                 7.00:  WOB Max 
 YP  .lhf2               28.00:  Yield Point 
~Curve Information Block
#MNEM.UNIT                 API CODE     Curve Description
#---------               -----------    ---------------------------
 TIME.HHMMSS            00 000 000 000:  GT Time & Date
 GTDEPTH.m              00 000 000 000:  GT Depth
 GTPQH.psia             00 000 000 000:  GT HR Quartz Pressure
 GTTQ.degC              00 000 000 000:  GT Quartz Temperature
 GTTN.NONE              00 000 000 000:  GT Test Number
 GTET.sec               00 000 000 000:  GT Elapsed Test Time
 GTTVD.m                00 000 000 000:  GT True Vertical Depth
#Other Information
#
#WARRANTY: Halliburton will use its best efforts to furnish customers with 
#accurate information and interpretations that are part of, and incident to, the services 
#provided.  However, Halliburton cannot and does not warrant the accuracy 
#or correctness of such information and interpretations.  Under no circumstances should any 
#such information or interpretation be relied upon as the sole basis for any drilling, 
#completion, production, or financial decision or any procedure involving any risk to the 
#safety of any drilling venture, drilling rig or its crew or any other third party.  The 
#Customer has full responsibility for all drilling, completion and production operation.  
#Halliburton makes no representations or warranties, either expressed or 
#implied, including, but not limited to, the implied warranties of merchantability or fitness 
#for a particular purpose, with respect to the services rendered.  In no event will 
#Halliburton be liable for failure to obtain any particular results or for 
#any damages, including, but not limited to, indirect, special or consequential damages, 
#resulting from the use of any information or interpretation provided by Halliburton.
#
~A           TIME           GTDEPTH  GTPQH  GTTQ  GTTN  GTET   GTTVD  
# ...
   13:25:03.433.21-Mar-2020 4435.61 4647.15 73.13 1.00 276.04 3146.67
   13:25:03.634.21-Mar-2020 4435.61 4647.15 73.13 1.00 276.24 3146.67
   13:25:03.834.21-Mar-2020 4435.61 4647.32 73.13 1.00 276.44 3146.67
   13:25:04.034.21-Mar-2020 4435.61 4647.32 73.13 1.00 276.64 3146.67
   13:25:04.234.21-Mar-2020 4435.61 4647.23 73.13 1.00 276.84 3146.67
   13:25:04.434.21-Mar-2020 4435.61 4647.24 73.13 1.00 277.04 3146.67
   13:25:04.634.21-Mar-2020 4435.61 4647.24 73.13 1.00 277.24 3146.67
   13:25:04.834.21-Mar-2020 4435.61 4647.44 73.13 1.00 277.44 3146.67
   13:25:05.034.21-Mar-2020 4435.61 4647.00 73.13 1.00 277.64 3146.67
   13:25:05.234.21-Mar-2020 4435.61 4647.46 73.13 1.00 277.84 3146.67
   13:25:05.434.21-Mar-2020 4435.61 4647.48 73.13 1.00 278.04 3146.67
   13:25:05.634.21-Mar-2020 4435.61 4647.48 73.13 1.00 278.24 3146.67
   13:25:05.834.21-Mar-2020 4435.61 4647.45 73.13 1.00 278.44 3146.67
   13:25:06.034.21-Mar-2020 4435.61 4647.06 73.13 1.00 278.64 3146.67
   13:25:06.234.21-Mar-2020 4435.61 4647.51 73.13 1.00 278.84 3146.67
   13:25:06.434.21-Mar-2020 4435.61 4647.47 73.13 1.00 279.04 3146.67
   13:25:06.634.21-Mar-2020 4435.61 4647.47 73.13 1.00 279.24 3146.67
   13:25:06.834.21-Mar-2020 4435.61 4647.48 73.13 1.00 279.44 3146.67
   13:25:07.034.21-Mar-2020 4435.61 4647.48 73.13 1.00 279.64 3146.67
   13:25:07.234.21-Mar-2020 4435.61 4647.46 73.13 1.00 279.84 3146.67
   13:25:07.434.21-Mar-2020 4435.61 4647.38 73.13 1.00 280.04 3146.67
   13:25:07.634.21-Mar-2020 4435.61 4647.38 73.13 1.00 280.24 3146.67
   13:25:07.834.21-Mar-2020 4435.61 4647.00 73.13 1.00 280.44 3146.67
   13:25:08.034.21-Mar-2020 4435.61 4647.39 73.13 1.00 280.64 3146.67
   13:25:08.234.21-Mar-2020 4435.61 4647.43 73.13 1.00 280.84 3146.67
   13:25:08.434.21-Mar-2020 4435.61 4647.39 73.13 1.00 281.04 3146.67
   13:25:08.634.21-Mar-2020 4435.61 4647.39 73.13 1.00 281.24 3146.67
   13:25:08.834.21-Mar-2020 4435.61 4647.40 73.13 1.00 281.44 3146.67
   13:25:09.034.21-Mar-2020 4435.61 4647.33 73.13 1.00 281.64 3146.67
   13:25:09.234.21-Mar-2020 4435.61 4647.34 73.13 1.00 281.84 3146.67
   13:25:09.434.21-Mar-2020 4435.61 4647.40 73.13 1.00 282.04 3146.67
   13:25:09.634.21-Mar-2020 4435.61 4647.40 73.13 1.00 282.24 3146.67
   13:25:09.834.21-Mar-2020 4435.61 4647.45 73.13 1.00 282.44 3146.67
   13:25:10.034.21-Mar-2020 4435.61 4647.46 73.13 1.00 282.64 3146.67
   13:25:10.234.21-Mar-2020 4435.61 4647.36 73.13 1.00 282.84 3146.67
   13:25:10.434.21-Mar-2020 4435.61 4647.43 73.13 1.00 283.04 3146.67
   13:25:10.635.21-Mar-2020 4435.61 4647.43 73.13 1.00 283.24 3146.67
   13:25:10.835.21-Mar-2020 4435.61 4647.31 73.13 1.00 283.44 3146.67
   13:25:11.035.21-Mar-2020 4435.61 4647.39 73.13 1.00 283.64 3146.67
   13:25:11.235.21-Mar-2020 4435.61 4647.36 73.13 1.00 283.84 3146.67
   13:25:11.435.21-Mar-2020 4435.61 4647.17 73.13 1.00 284.04 3146.67
   13:25:11.635.21-Mar-2020 4435.61 4647.17 73.13 1.00 284.24 3146.67
   13:25:11.835.21-Mar-2020 4435.61 4647.46 73.13 1.00 284.44 3146.67
   13:25:12.035.21-Mar-2020 4435.61 4647.11 73.13 1.00 284.64 3146.67
   13:25:12.235.21-Mar-2020 4435.61 4647.44 73.13 1.00 284.84 3146.67
   13:25:12.435.21-Mar-2020 4435.61 4647.53 73.12 1.00 285.04 3146.67
   13:25:12.635.21-Mar-2020 4435.61 4647.53 73.12 1.00 285.24 3146.67
   13:25:12.835.21-Mar-2020 4435.61 4647.53 73.12 1.00 285.44 3146.67
   13:25:13.035.21-Mar-2020 4435.61 4647.11 73.12 1.00 285.64 3146.67
   13:25:13.235.21-Mar-2020 4435.61 4647.50 73.12 1.00 285.84 3146.67
   13:25:13.435.21-Mar-2020 4435.61 4647.58 73.12 1.00 286.04 3146.67
   13:25:13.635.21-Mar-2020 4435.61 4647.58 73.12 1.00 286.24 3146.67
   13:25:13.835.21-Mar-2020 4435.61 4647.40 73.12 1.00 286.44 3146.67
   13:25:14.035.21-Mar-2020 4435.61 4647.52 73.12 1.00 286.64 3146.67
   13:25:14.235.21-Mar-2020 4435.61 4647.43 73.12 1.00 286.84 3146.67
   13:25:14.435.21-Mar-2020 4435.61 4647.43 73.12 1.00 287.04 3146.67
   13:25:14.635.21-Mar-2020 4435.61 4647.43 73.12 1.00 287.24 3146.67
   13:25:14.835.21-Mar-2020 4435.61 4647.43 73.12 1.00 287.44 3146.67
   13:25:15.035.21-Mar-2020 4435.61 4647.36 73.12 1.00 287.64 3146.67
   13:25:15.235.21-Mar-2020 4435.61 4647.43 73.12 1.00 287.84 3146.67
   13:25:15.435.21-Mar-2020 4435.61 4647.42 73.12 1.00 288.04 3146.67
   13:25:15.635.21-Mar-2020 4435.61 4647.42 73.12 1.00 288.24 3146.67
   13:25:15.835.21-Mar-2020 4435.61 4647.39 73.12 1.00 288.44 3146.67
   13:25:16.035.21-Mar-2020 4435.61 4647.42 73.12 1.00 288.64 3146.67
   13:25:16.235.21-Mar-2020 4435.61 4647.36 73.12 1.00 288.84 3146.67
   13:25:16.435.21-Mar-2020 4435.61 4647.42 73.12 1.00 289.04 3146.67
   13:25:16.635.21-Mar-2020 4435.61 4647.42 73.12 1.00 289.24 3146.67
   13:25:16.835.21-Mar-2020 4435.61 4647.40 73.12 1.00 289.44 3146.67
   13:25:17.035.21-Mar-2020 4435.61 4647.53 73.12 1.00 289.64 3146.67
   13:25:17.235.21-Mar-2020 4435.61 4647.42 73.12 1.00 289.84 3146.67
   13:25:17.435.21-Mar-2020 4435.61 4647.43 73.12 1.00 290.04 3146.67
   13:25:17.636.21-Mar-2020 4435.61 4647.43 73.12 1.00 290.24 3146.67
   13:25:17.836.21-Mar-2020 4435.61 4647.35 73.12 1.00 290.44 3146.67
   13:25:18.036.21-Mar-2020 4435.61 4647.44 73.12 1.00 290.64 3146.67
   13:25:18.236.21-Mar-2020 4435.61 4647.45 73.12 1.00 290.84 3146.67
   13:25:18.436.21-Mar-2020 4435.61 4647.08 73.12 1.00 291.04 3146.67
   13:25:18.636.21-Mar-2020 4435.61 4647.08 73.12 1.00 291.24 3146.67
   13:25:18.836.21-Mar-2020 4435.61 4647.45 73.12 1.00 291.44 3146.67
   13:25:19.036.21-Mar-2020 4435.61 4647.26 73.12 1.00 291.64 3146.67
   13:25:19.236.21-Mar-2020 4435.61 4647.34 73.12 1.00 291.84 3146.67
   13:25:19.436.21-Mar-2020 4435.61 4647.48 73.12 1.00 292.04 3146.67
   13:25:19.636.21-Mar-2020 4435.61 4647.48 73.12 1.00 292.24 3146.67
   13:25:19.836.21-Mar-2020 4435.61 4647.51 73.12 1.00 292.44 3146.67
   13:25:20.036.21-Mar-2020 4435.61 4647.10 73.12 1.00 292.64 3146.67
   13:25:20.236.21-Mar-2020 4435.61 4647.58 73.12 1.00 292.84 3146.67
   13:25:20.436.21-Mar-2020 4435.61 4647.56 73.12 1.00 293.04 3146.67
   13:25:20.636.21-Mar-2020 4435.61 4647.56 73.12 1.00 293.24 3146.67
   13:25:20.836.21-Mar-2020 4435.61 4647.44 73.12 1.00 293.44 3146.67
   13:25:21.036.21-Mar-2020 4435.61 4647.48 73.12 1.00 293.64 3146.67
   13:25:21.236.21-Mar-2020 4435.61 4647.52 73.12 1.00 293.84 3146.67
   13:25:21.436.21-Mar-2020 4435.61 4647.39 73.12 1.00 294.04 3146.67
   13:25:21.636.21-Mar-2020 4435.61 4647.39 73.12 1.00 294.24 3146.67
   13:25:21.836.21-Mar-2020 4435.61 4647.39 73.12 1.00 294.44 3146.67
   13:25:22.036.21-Mar-2020 4435.61 4647.09 73.12 1.00 294.64 3146.67
   13:25:22.236.21-Mar-2020 4435.61 4647.50 73.12 1.00 294.84 3146.67
   13:25:22.436.21-Mar-2020 4435.61 4647.42 73.12 1.00 295.04 3146.67
   13:25:22.636.21-Mar-2020 4435.61 4647.42 73.12 1.00 295.24 3146.67
   13:25:22.836.21-Mar-2020 4435.61 4647.42 73.12 1.00 295.44 3146.67
   13:25:23.036.21-Mar-2020 4435.61 4647.37 73.12 1.00 295.64 3146.67
   13:25:23.236.21-Mar-2020 4435.61 4647.43 73.12 1.00 295.84 3146.67
   13:25:23.436.21-Mar-2020 4435.61 4647.40 73.12 1.00 296.04 3146.67
   13:25:23.636.21-Mar-2020 4435.61 4647.40 73.12 1.00 296.24 3146.67
   13:25:23.836.21-Mar-2020 4435.61 4647.44 73.12 1.00 296.44 3146.67
   13:25:24.036.21-Mar-2020 4435.61 4647.47 73.12 1.00 296.64 3146.67
   13:25:24.236.21-Mar-2020 4435.61 4647.49 73.12 1.00 296.84 3146.67
   13:25:24.436.21-Mar-2020 4435.61 4647.43 73.12 1.00 297.04 3146.67
   13:25:24.637.21-Mar-2020 4435.61 4647.43 73.12 1.00 297.24 3146.67
   13:25:24.837.21-Mar-2020 4435.61 4647.40 73.12 1.00 297.44 3146.67
   13:25:25.037.21-Mar-2020 4435.61 4647.39 73.12 1.00 297.64 3146.67
   13:25:25.237.21-Mar-2020 4435.61 4647.48 73.12 1.00 297.84 3146.67
   13:25:25.437.21-Mar-2020 4435.61 4647.06 73.12 1.00 298.04 3146.67
   13:25:25.637.21-Mar-2020 4435.61 4647.06 73.12 1.00 298.24 3146.67
   13:25:25.837.21-Mar-2020 4435.61 4647.51 73.12 1.00 298.44 3146.67
   13:25:26.037.21-Mar-2020 4435.61 4647.43 73.12 1.00 298.64 3146.67
   13:25:26.237.21-Mar-2020 4435.61 4647.20 73.12 1.00 298.84 3146.67
