~Version Information
 VERS.                  2.0:   CWLS log ASCII Standard -VERSION 2.0
 WRAP.                   NO:   One line per depth step
~Well Information Block
#MNEM.UNIT     VALUE/NAME     DESCRIPTION
#---------     -----------    ---------------------------
 STRT.S             13:20:27 21-Mar-20: START TIME 13:20:27 21-Mar-20
 STOP.S             13:26:37 21-Mar-20: STOP TIME  13:26:37 21-Mar-20
 STEP.S                   0.00: STEP TIME
 NULL.                 -999.25: NULL VALUE
 DFWT.                        :  DIST FWL TEXT
 DFST.                        :  DIST FSL TEXT
 DMF .             Drill Floor:  DRILL MEAS FROM
 STIM.      22.38.56 15-Feb-20:  START TIME
 DATE.      22.38.56 15-Feb-20:  END TIME
 SPUD.               15-Feb-20:  SPUD DATE
 NREF.                    Grid:  NORTH REFERENCE
 HPTY.       Minimum Curvature:  HOLE POS TYPE
 DMOD.             Drill Model:  DRILL MOD DESC
 SVYD.                  Survey:  SURVEY DESC
 ILTD.               Lithology:  INTERP LTH DESC
 FTOP.          Formation Tops:  FORM TOPS DESC
 SON .        AZ-XX-0906019077:  JOB NUMBER
 PDAT.          Mean Sea Level:  PERMANENT DATUM
 WTYP.                Deviated:  WELL TYPE
 MDS .        Operator Entered:  MAG DATA SOURCE
 COMP.     BP Exploration (Caspian sea) Ltd.:  COMPANY
 UWI .                     N/A:  UNIQUE WELL IDENTIFIER
 API .                     N/A:  API NUMBER
 BASE.              Azerbaijan:  LOGGING EQUIPMENT BASE LOCATION
 REGN.                   EESSA:  REGION
 PROV.                     N/A:  PROVINCE
 STAT.                     N/A:  STATE NAME
 CTRY.              Azerbaijan:  COUNTRY NAME
 FLD .                     ACG:  FIELD NAME
 SRVC.          Turan Drilling:  CONTRACTOR
 MWDS.                    Baku:  MWD SHOP
 WELL.                    E16W:  WELL NAME
 JOBN.        AZ-XX-0906019077:  JOB TICKET NUMB
 RIG .                     DWG:  RIG NAME
 CNTY.                     N/A:  COUNTY NAME
 DCON.         Sperry Drilling:  DIRECTNL CONTR
 UNIT.                     N/A:  LOGGING EQUIPMENT ID
 LOC .                        :  LOCATION
 LMF .             Drill Floor:  LOG MEASURED FROM
 TVDS.m                  43.16:  TVDSS CORRECTN
 LATI.deg                40.17:  LATITUDE
 LONG.deg                51.17:  LONGITUDE
 WHNS.m                 -15.30:  WELL HEAD N/S
 WHEW.m                  -1.29:  WELL HEAD E/W
 UTMX.m              514337.95:  UTM X
 UTMY.m             4448627.46:  UTM Y
 DFWL.m                   0.00:  DISTANCE FWL
 DFSL.m                   0.00:  DISTANCE FSL
 SDEP.m                3499.01:  START DEPTH
 TDD .m                4422.01:  TOTAL DEPTH (DRILLER)
 VSDR.deg               151.14:  VERT SEC DIRECT
 GVFD.g                   1.00:  GRAVITY FIELD
 MFLD.nT              50334.00:  MAGNETIC FIELD
 MDIP.deg                59.62:  MAGNETIC DIP
 MDEC.deg                 6.46:  MAGNETIC DECL
 GRDC.deg                 0.12:  GRID CORRECTION
 AZTC.deg                 6.34:  AZM TOTAL CORR
 EPD .m                   0.00:  ELEVATION
 EGL .m                   0.00:  GROUND ELEVATION
 WDMS.m                 176.20:  WD ELEV
 APD .m                  43.16:  DEPTH ABOVE PD
 VSEW.m                  -1.29:  VERT SEC E/W
 VSNS.m                 -15.30:  VERT SEC N/S
 AGAP.m                  43.16:  AIR GAP
 EKB .m                   0.00:  KB ELEVATION
 EDF .m                  43.16:  DF ELEVATION
 TDL .m                  81.00:  TOTAL DEPTH (LOGGER)
 VSC .                       0:  VS TO CLOSURE
 MAGU.                 1852525:  MAGUTM CHECKSUM
~Parameter Information Block
#MNEM.UNIT       Value        Description
#---------     -----------    ---------------------------
 AV  .mps                 1.00:  Ann Velocity 
 AVMX.mps                 1.32:  Max Ann Veloc 
 AZIF.deg               141.43:  Azm, Final 
 BHAT.        Rotary Steerable:  BHA Type 
 BREV.rev            107699.99:  Rev Bit Total 
 BROT.°/30m              -0.88:  Build Rotating 
 BS  .in                  6.50:  Bit Size 
 BSZ .in                  6.50:  Bit Size 
 BTPL.psig              222.00:  Bit Press Loss 
 CABU.                     Yes:  Customer Abuse 
 CGEO.        Ali Isfandiyarov:  Customer Geo 
 TCS .hr                 23.12:  Time Ciculation Ended 
 CV  .mps                 2.20:  Crit Velocity 
 CVMX.mps                 3.01:  Max Crit Veloc 
 DD1 .         Intigam Rahimov:  Direct Drillr 1 
 DDSV.               Geo-Pilot:  DD Service 
 DEFF.%                 100.00:  % Det Eff 
 DLRX.°/30m               0.90:  Dogleg Rot Max 
 DLSO.°/30m               0.00:  Dogleg Oriented 
 DLSX.°/30m               0.00:  Dogleg Str Max 
 DRET.      20.00.00 21-Mar-20:  Drill End Time 
 DRST.      04.30.00 20-Mar-20:  Drill Start Tim 
 DTIM.hr                  8.99:  Time Drilling 
 EDEP.m                4503.01:  End Depth 
 ENG1.          Rasim Hashimov:  Engineer 1 
 ENG2.         Yevgeniy Ulikov:  Engineer 2 
 ETIM.      14.43.10 22-Mar-20:  End Time 
 FLOI.gpm               350.00:  Flow In 
 FLON.gpm               300.00:  Flow In Min 
 FLOS.cptm                0.00:  Fluid Loss 
 FLOX.gpm               400.00:  Flow In Max 
 FTRO.       Formation Presure:  FTWD Run Obj 
 HFLO.                      No:  High Flow 
 HPRE.                      No:  High Pressure 
 HTEM.                      No:  High Temp 
 HYDO.m                   1.80:  Hydro Offset 
 IFIN.deg                78.17:  Inc, Final 
 IMAX.deg                79.31:  Inc Max 
 IMIN.deg                78.75:  Inc Min 
 IMND.m                4474.16:  Inc Min Depth 
 IMXD.m                4445.88:  Inc Max Depth 
 JARR.                      No:  Jarring 
 LETM.      20.00.00 21-Mar-20:  Log End Time 
 LOST.hr                     0:  Lost Rig Time 
 LSTM.      04.30.00 19-Mar-20:  Log Start Time 
 MDCL.ppm             39500.00:  Mud Chlorides 
 MDES.     Inversion Oil/Synthetic:  Mud Desc 
 DFD .sg                  1.40:  Mud Density 
 MDMN.sg                  1.40:  Dens Mud Min 
 MDMX.sg                  1.40:  Dens Mud Max 
 MOIL.                      55:  Run Mud Oil % 
 MOWR.                   68:32:  Run Mud OWR 
 MSND.                     0.1:  Run Mud Sand % 
 MSOL.                       1:  Run Mud Solids% 
 DFV .spqt               78.00:  Mud Viscosity 
 MWOD.in                  4.75:  MWD Tool OD 
 MWSI.                      No:  Serv Intrp, MWD 
 OTIM.hr                 61.28:  Time Operating 
 PCON.           Look Like New:  Pad Condition 
 PMAX.psia             9103.94:  Press Op, Max 
 PV  .cP                 25.00:  Mud PV 
 RUN .                     800:  Run Number 
 ROPA.m/hr                7.10:  ROP Avg 
 ROPN.m/hr                2.40:  ROP Min 
 ROPX.m/hr               12.00:  ROP Max 
 RPMA.rpm               120.00:  RPM Surface Avg 
 RPMN.rpm                80.00:  RPM Surface Min 
 RPMX.rpm               140.00:  RPM Surface Max 
 RRUN.                    L203:  Rig Run Number 
 RTIM.hr                  6.50:  Time Reaming 
 SAZI.deg               140.14:  Azm, Start 
 SDEP.m                4422.01:  Start Depth 
 SIDD.                     Yes:  Serv Intrp, DD 
 SINC.deg                80.07:  Inc, Start 
 SPPA.psig             4619.00:  SPP Avg 
 SPPN.psig             3980.00:  SPP Min 
 SPPX.psig             5100.00:  SPP Max 
 STIM.      22.30.00 19-Mar-20:  Start Time 
 SVCS.                 DD, MWD:  Services 
 SVER.                    9.20:  Sperry Version 
 TDAT.m                  81.00:  Tot Depth Attmp 
 TDDF.                     Yes:  Trip for DD 
 TDLG.m                  81.00:  Tot Depth Loggd 
 TFF .                      No:  Trip for Fail 
 TQAA.f-kp               12.50:  Torque Abs Avg 
 TQAN.f-kp               12.00:  Torque Abs Min 
 TQAX.f-kp               14.00:  Torque Abs Max 
 TRRT.°/30m               0.25:  Turn Rotating 
 MRT .                    HCIM:  Maximum Recorded Temperature 
 TTMX.degC               86.27:  Max Tool Temp 
 VS01.         90595989G12V7D4:  Virtual Str1 SN 
 VS02.            90519330D5C4:  Virtual Str2 SN 
 VS03.             90522014R12:  Virtual Str3 SN 
 VS04.          90522272N2L2C4:  Virtual Str4 SN 
 VS05.      90512713X1Z1W1X1C4:  Virtual Str5 SN 
 WBMN.klb                 3.00:  WOB Min 
 WITN.        Elmaddin Rahimov:  Customer Rep 
 WOBA.klb                 5.60:  WOB Avg 
 WOBX.klb                 7.00:  WOB Max 
 YP  .lhf2               28.00:  Yield Point 
~Curve Information Block
#MNEM.UNIT                 API CODE     Curve Description
#---------               -----------    ---------------------------
 TIME.HHMMSS            00 000 000 000:  GT Time & Date
 GTDEPTH.m              00 000 000 000:  GT Depth
 GTPQH.psia             00 000 000 000:  GT HR Quartz Pressure
 GTTQ.degC              00 000 000 000:  GT Quartz Temperature
 GTTN.NONE              00 000 000 000:  GT Test Number
 GTET.sec               00 000 000 000:  GT Elapsed Test Time
 GTTVD.m                00 000 000 000:  GT True Vertical Depth
#Other Information
#
#WARRANTY: Halliburton will use its best efforts to furnish customers with 
#accurate information and interpretations that are part of, and incident to, the services 
#provided.  However, Halliburton cannot and does not warrant the accuracy 
#or correctness of such information and interpretations.  Under no circumstances should any 
#such information or interpretation be relied upon as the sole basis for any drilling, 
#completion, production, or financial decision or any procedure involving any risk to the 
#safety of any drilling venture, drilling rig or its crew or any other third party.  The 
#Customer has full responsibility for all drilling, completion and production operation.  
#Halliburton makes no representations or warranties, either expressed or 
#implied, including, but not limited to, the implied warranties of merchantability or fitness 
#for a particular purpose, with respect to the services rendered.  In no event will 
#Halliburton be liable for failure to obtain any particular results or for 
#any damages, including, but not limited to, indirect, special or consequential damages, 
#resulting from the use of any information or interpretation provided by Halliburton.
#
~A           TIME           GTDEPTH  GTPQH  GTTQ  GTTN  GTET   GTTVD  
   13:20:27.394.21-Mar-2020 4435.61 7068.79 73.49 1.00   0.00 3146.67
   13:20:27.594.21-Mar-2020 4435.61 7068.79 73.49 1.00   0.20 3146.67
   13:20:27.794.21-Mar-2020 4435.61 7596.11 73.49 1.00   0.40 3146.67
   13:20:27.994.21-Mar-2020 4435.61 7524.30 73.49 1.00   0.60 3146.67
   13:20:28.194.21-Mar-2020 4435.61 7470.88 73.49 1.00   0.80 3146.67
   13:20:28.394.21-Mar-2020 4435.61 7538.06 73.49 1.00   1.00 3146.67
   13:20:28.594.21-Mar-2020 4435.61 7538.06 73.49 1.00   1.20 3146.67
   13:20:28.794.21-Mar-2020 4435.61 7577.06 73.49 1.00   1.40 3146.67
   13:20:28.994.21-Mar-2020 4435.61 7600.88 73.49 1.00   1.60 3146.67
   13:20:29.194.21-Mar-2020 4435.61 7595.63 73.49 1.00   1.80 3146.67
   13:20:29.394.21-Mar-2020 4435.61 7485.01 73.49 1.00   2.00 3146.67
   13:20:29.594.21-Mar-2020 4435.61 7485.01 73.49 1.00   2.20 3146.67
   13:20:29.794.21-Mar-2020 4435.61 7509.92 73.49 1.00   2.40 3146.67
   13:20:29.994.21-Mar-2020 4435.61 7542.45 73.49 1.00   2.60 3146.67
   13:20:30.195.21-Mar-2020 4435.61 7566.07 73.49 1.00   2.80 3146.67
   13:20:30.395.21-Mar-2020 4435.61 7577.86 73.49 1.00   3.00 3146.67
   13:20:30.595.21-Mar-2020 4435.61 7577.86 73.49 1.00   3.20 3146.67
   13:20:30.795.21-Mar-2020 4435.61 7609.66 73.49 1.00   3.40 3146.67
   13:20:30.995.21-Mar-2020 4435.61 7618.66 73.48 1.00   3.60 3146.67
   13:20:31.195.21-Mar-2020 4435.61 7624.80 73.48 1.00   3.80 3146.67
   13:20:31.395.21-Mar-2020 4435.61 7630.92 73.48 1.00   4.00 3146.67
   13:20:31.595.21-Mar-2020 4435.61 7630.92 73.48 1.00   4.20 3146.67
   13:20:31.795.21-Mar-2020 4435.61 7640.30 73.48 1.00   4.40 3146.67
   13:20:31.995.21-Mar-2020 4435.61 7645.53 73.48 1.00   4.60 3146.67
   13:20:32.195.21-Mar-2020 4435.61 7650.20 73.48 1.00   4.80 3146.67
   13:20:32.395.21-Mar-2020 4435.61 7650.26 73.48 1.00   5.00 3146.67
   13:20:32.595.21-Mar-2020 4435.61 7650.26 73.48 1.00   5.20 3146.67
   13:20:32.795.21-Mar-2020 4435.61 7660.25 73.48 1.00   5.40 3146.67
   13:20:32.995.21-Mar-2020 4435.61 7663.76 73.48 1.00   5.60 3146.67
   13:20:33.195.21-Mar-2020 4435.61 7666.42 73.48 1.00   5.80 3146.67
   13:20:33.395.21-Mar-2020 4435.61 7401.70 73.48 1.00   6.00 3146.67
   13:20:33.595.21-Mar-2020 4435.61 7401.70 73.48 1.00   6.20 3146.67
   13:20:33.795.21-Mar-2020 4435.61 7365.87 73.48 1.00   6.40 3146.67
   13:20:33.995.21-Mar-2020 4435.61 6740.83 73.48 1.00   6.60 3146.67
   13:20:34.195.21-Mar-2020 4435.61 6130.02 73.48 1.00   6.80 3146.67
   13:20:34.395.21-Mar-2020 4435.61 5545.03 73.48 1.00   7.00 3146.67
   13:20:34.595.21-Mar-2020 4435.61 5545.03 73.48 1.00   7.20 3146.67
   13:20:34.795.21-Mar-2020 4435.61 5545.03 73.48 1.00   7.40 3146.67
   13:20:34.995.21-Mar-2020 4435.61 4058.44 73.48 1.00   7.60 3146.67
   13:20:35.195.21-Mar-2020 4435.61 3974.40 73.48 1.00   7.80 3146.67
   13:20:35.395.21-Mar-2020 4435.61 3944.30 73.48 1.00   8.00 3146.67
   13:20:35.595.21-Mar-2020 4435.61 3944.30 73.48 1.00   8.20 3146.67
   13:20:35.795.21-Mar-2020 4435.61 3915.23 73.47 1.00   8.40 3146.67
   13:20:35.995.21-Mar-2020 4435.61 3907.49 73.47 1.00   8.60 3146.67
   13:20:36.195.21-Mar-2020 4435.61 3905.10 73.47 1.00   8.80 3146.67
   13:20:36.395.21-Mar-2020 4435.61 3907.11 73.47 1.00   9.00 3146.67
   13:20:36.595.21-Mar-2020 4435.61 3907.11 73.47 1.00   9.20 3146.67
   13:20:36.795.21-Mar-2020 4435.61 3907.66 73.47 1.00   9.40 3146.67
   13:20:36.995.21-Mar-2020 4435.61 3904.51 73.47 1.00   9.60 3146.67
   13:20:37.196.21-Mar-2020 4435.61 3903.24 73.47 1.00   9.80 3146.67
   13:20:37.396.21-Mar-2020 4435.61 3906.25 73.46 1.00  10.00 3146.67
   13:20:37.596.21-Mar-2020 4435.61 3906.25 73.46 1.00  10.20 3146.67
   13:20:37.796.21-Mar-2020 4435.61 3906.63 73.46 1.00  10.40 3146.67
   13:20:37.996.21-Mar-2020 4435.61 3904.06 73.46 1.00  10.60 3146.67
   13:20:38.196.21-Mar-2020 4435.61 3903.19 73.46 1.00  10.80 3146.67
   13:20:38.396.21-Mar-2020 4435.61 3904.73 73.46 1.00  11.00 3146.67
   13:20:38.596.21-Mar-2020 4435.61 3904.73 73.46 1.00  11.20 3146.67
   13:20:38.796.21-Mar-2020 4435.61 3902.82 73.45 1.00  11.40 3146.67
   13:20:38.996.21-Mar-2020 4435.61 3902.11 73.45 1.00  11.60 3146.67
   13:20:39.196.21-Mar-2020 4435.61 3903.36 73.45 1.00  11.80 3146.67
   13:20:39.396.21-Mar-2020 4435.61 3908.19 73.45 1.00  12.00 3146.67
   13:20:39.596.21-Mar-2020 4435.61 3908.19 73.45 1.00  12.20 3146.67
   13:20:39.796.21-Mar-2020 4435.61 3908.04 73.45 1.00  12.40 3146.67
   13:20:39.996.21-Mar-2020 4435.61 3907.13 73.45 1.00  12.60 3146.67
   13:20:40.196.21-Mar-2020 4435.61 3911.02 73.44 1.00  12.80 3146.67
   13:20:40.396.21-Mar-2020 4435.61 3907.99 73.44 1.00  13.00 3146.67
   13:20:40.596.21-Mar-2020 4435.61 3907.99 73.44 1.00  13.20 3146.67
   13:20:40.796.21-Mar-2020 4435.61 3905.05 73.44 1.00  13.40 3146.67
   13:20:40.996.21-Mar-2020 4435.61 3910.22 73.44 1.00  13.60 3146.67
   13:20:41.196.21-Mar-2020 4435.61 3911.41 73.44 1.00  13.80 3146.67
   13:20:41.396.21-Mar-2020 4435.61 3909.28 73.44 1.00  14.00 3146.67
   13:20:41.596.21-Mar-2020 4435.61 3909.28 73.44 1.00  14.20 3146.67
   13:20:41.796.21-Mar-2020 4435.61 3908.85 73.43 1.00  14.40 3146.67
   13:20:41.996.21-Mar-2020 4435.61 3916.53 73.43 1.00  14.60 3146.67
   13:20:42.196.21-Mar-2020 4435.61 3916.90 73.43 1.00  14.80 3146.67
   13:20:42.396.21-Mar-2020 4435.61 3913.95 73.43 1.00  15.00 3146.67
   13:20:42.596.21-Mar-2020 4435.61 3913.95 73.43 1.00  15.20 3146.67
   13:20:42.796.21-Mar-2020 4435.61 3918.84 73.43 1.00  15.40 3146.67
   13:20:42.996.21-Mar-2020 4435.61 3917.52 73.43 1.00  15.60 3146.67
   13:20:43.196.21-Mar-2020 4435.61 3916.63 73.43 1.00  15.80 3146.67
   13:20:43.396.21-Mar-2020 4435.61 3916.53 73.43 1.00  16.00 3146.67
   13:20:43.596.21-Mar-2020 4435.61 3916.53 73.43 1.00  16.20 3146.67
   13:20:43.796.21-Mar-2020 4435.61 3919.77 73.42 1.00  16.40 3146.67
   13:20:43.996.21-Mar-2020 4435.61 3984.48 73.42 1.00  16.60 3146.67
   13:20:44.197.21-Mar-2020 4435.61 4345.42 73.42 1.00  16.80 3146.67
   13:20:44.397.21-Mar-2020 4435.61 4525.40 73.42 1.00  17.00 3146.67
   13:20:44.597.21-Mar-2020 4435.61 4525.40 73.42 1.00  17.20 3146.67
   13:20:44.797.21-Mar-2020 4435.61 4622.82 73.42 1.00  17.40 3146.67
   13:20:44.997.21-Mar-2020 4435.61 4633.04 73.42 1.00  17.60 3146.67
   13:20:45.197.21-Mar-2020 4435.61 4637.49 73.42 1.00  17.80 3146.67
   13:20:45.397.21-Mar-2020 4435.61 4639.66 73.42 1.00  18.00 3146.67
   13:20:45.597.21-Mar-2020 4435.61 4639.66 73.42 1.00  18.20 3146.67
   13:20:45.797.21-Mar-2020 4435.61 4641.81 73.42 1.00  18.40 3146.67
   13:20:45.997.21-Mar-2020 4435.61 4642.40 73.42 1.00  18.60 3146.67
   13:20:46.197.21-Mar-2020 4435.61 4642.98 73.41 1.00  18.80 3146.67
   13:20:46.397.21-Mar-2020 4435.61 4643.33 73.41 1.00  19.00 3146.67
   13:20:46.597.21-Mar-2020 4435.61 4643.33 73.41 1.00  19.20 3146.67
   13:20:46.797.21-Mar-2020 4435.61 4644.15 73.41 1.00  19.40 3146.67
   13:20:46.997.21-Mar-2020 4435.61 4644.23 73.41 1.00  19.60 3146.67
   13:20:47.197.21-Mar-2020 4435.61 4644.55 73.41 1.00  19.80 3146.67
   13:20:47.397.21-Mar-2020 4435.61 4644.73 73.41 1.00  20.00 3146.67
   13:20:47.597.21-Mar-2020 4435.61 4644.73 73.41 1.00  20.20 3146.67
   13:20:47.797.21-Mar-2020 4435.61 4645.17 73.41 1.00  20.40 3146.67
   13:20:47.997.21-Mar-2020 4435.61 4645.37 73.41 1.00  20.60 3146.67
   13:20:48.197.21-Mar-2020 4435.61 4645.46 73.41 1.00  20.80 3146.67
   13:20:48.397.21-Mar-2020 4435.61 4645.54 73.41 1.00  21.00 3146.67
   13:20:48.597.21-Mar-2020 4435.61 4645.54 73.41 1.00  21.20 3146.67
   13:20:48.797.21-Mar-2020 4435.61 4645.80 73.41 1.00  21.40 3146.67
   13:20:48.997.21-Mar-2020 4435.61 4645.88 73.41 1.00  21.60 3146.67
   13:20:49.197.21-Mar-2020 4435.61 4646.01 73.41 1.00  21.80 3146.67
   13:20:49.397.21-Mar-2020 4435.61 4645.66 73.41 1.00  22.00 3146.67
   13:20:49.597.21-Mar-2020 4435.61 4645.66 73.41 1.00  22.20 3146.67
   13:20:49.797.21-Mar-2020 4435.61 4646.36 73.41 1.00  22.40 3146.67
   13:20:49.997.21-Mar-2020 4435.61 4645.79 73.41 1.00  22.60 3146.67
   13:20:50.197.21-Mar-2020 4435.61 4646.33 73.41 1.00  22.80 3146.67
