~Version Information
 VERS.                  2.0:   CWLS log ASCII Standard -VERSION 2.0
 WRAP.                   NO:   One line per depth step
~Well Information Block
#MNEM.UNIT     VALUE/NAME     DESCRIPTION
#---------     -----------    ---------------------------
 STRT.S             13:20:27 21-Mar-20: START TIME 13:20:27 21-Mar-20
 STOP.S             13:26:37 21-Mar-20: STOP TIME  13:26:37 21-Mar-20
 STEP.S                   0.00: STEP TIME
 NULL.                 -999.25: NULL VALUE
 DFWT.                        :  DIST FWL TEXT
 DFST.                        :  DIST FSL TEXT
 DMF .             Drill Floor:  DRILL MEAS FROM
 STIM.      22.38.56 15-Feb-20:  START TIME
 DATE.      22.38.56 15-Feb-20:  END TIME
 SPUD.               15-Feb-20:  SPUD DATE
 NREF.                    Grid:  NORTH REFERENCE
 HPTY.       Minimum Curvature:  HOLE POS TYPE
 DMOD.             Drill Model:  DRILL MOD DESC
 SVYD.                  Survey:  SURVEY DESC
 ILTD.               Lithology:  INTERP LTH DESC
 FTOP.          Formation Tops:  FORM TOPS DESC
 SON .        AZ-XX-0906019077:  JOB NUMBER
 PDAT.          Mean Sea Level:  PERMANENT DATUM
 WTYP.                Deviated:  WELL TYPE
 MDS .        Operator Entered:  MAG DATA SOURCE
 COMP.     BP Exploration (Caspian sea) Ltd.:  COMPANY
 UWI .                     N/A:  UNIQUE WELL IDENTIFIER
 API .                     N/A:  API NUMBER
 BASE.              Azerbaijan:  LOGGING EQUIPMENT BASE LOCATION
 REGN.                   EESSA:  REGION
 PROV.                     N/A:  PROVINCE
 STAT.                     N/A:  STATE NAME
 CTRY.              Azerbaijan:  COUNTRY NAME
 FLD .                     ACG:  FIELD NAME
 SRVC.          Turan Drilling:  CONTRACTOR
 MWDS.                    Baku:  MWD SHOP
 WELL.                    E16W:  WELL NAME
 JOBN.        AZ-XX-0906019077:  JOB TICKET NUMB
 RIG .                     DWG:  RIG NAME
 CNTY.                     N/A:  COUNTY NAME
 DCON.         Sperry Drilling:  DIRECTNL CONTR
 UNIT.                     N/A:  LOGGING EQUIPMENT ID
 LOC .                        :  LOCATION
 LMF .             Drill Floor:  LOG MEASURED FROM
 TVDS.m                  43.16:  TVDSS CORRECTN
 LATI.deg                40.17:  LATITUDE
 LONG.deg                51.17:  LONGITUDE
 WHNS.m                 -15.30:  WELL HEAD N/S
 WHEW.m                  -1.29:  WELL HEAD E/W
 UTMX.m              514337.95:  UTM X
 UTMY.m             4448627.46:  UTM Y
 DFWL.m                   0.00:  DISTANCE FWL
 DFSL.m                   0.00:  DISTANCE FSL
 SDEP.m                3499.01:  START DEPTH
 TDD .m                4422.01:  TOTAL DEPTH (DRILLER)
 VSDR.deg               151.14:  VERT SEC DIRECT
 GVFD.g                   1.00:  GRAVITY FIELD
 MFLD.nT              50334.00:  MAGNETIC FIELD
 MDIP.deg                59.62:  MAGNETIC DIP
 MDEC.deg                 6.46:  MAGNETIC DECL
 GRDC.deg                 0.12:  GRID CORRECTION
 AZTC.deg                 6.34:  AZM TOTAL CORR
 EPD .m                   0.00:  ELEVATION
 EGL .m                   0.00:  GROUND ELEVATION
 WDMS.m                 176.20:  WD ELEV
 APD .m                  43.16:  DEPTH ABOVE PD
 VSEW.m                  -1.29:  VERT SEC E/W
 VSNS.m                 -15.30:  VERT SEC N/S
 AGAP.m                  43.16:  AIR GAP
 EKB .m                   0.00:  KB ELEVATION
 EDF .m                  43.16:  DF ELEVATION
 TDL .m                  81.00:  TOTAL DEPTH (LOGGER)
 VSC .                       0:  VS TO CLOSURE
 MAGU.                 1852525:  MAGUTM CHECKSUM
~Parameter Information Block
#MNEM.UNIT       Value        Description
#---------     -----------    ---------------------------
 AV  .mps                 1.00:  Ann Velocity 
 AVMX.mps                 1.32:  Max Ann Veloc 
 AZIF.deg               141.43:  Azm, Final 
 BHAT.        Rotary Steerable:  BHA Type 
 BREV.rev            107699.99:  Rev Bit Total 
 BROT.°/30m              -0.88:  Build Rotating 
 BS  .in                  6.50:  Bit Size 
 BSZ .in                  6.50:  Bit Size 
 BTPL.psig              222.00:  Bit Press Loss 
 CABU.                     Yes:  Customer Abuse 
 CGEO.        Ali Isfandiyarov:  Customer Geo 
 TCS .hr                 23.12:  Time Ciculation Ended 
 CV  .mps                 2.20:  Crit Velocity 
 CVMX.mps                 3.01:  Max Crit Veloc 
 DD1 .         Intigam Rahimov:  Direct Drillr 1 
 DDSV.               Geo-Pilot:  DD Service 
 DEFF.%                 100.00:  % Det Eff 
 DLRX.°/30m               0.90:  Dogleg Rot Max 
 DLSO.°/30m               0.00:  Dogleg Oriented 
 DLSX.°/30m               0.00:  Dogleg Str Max 
 DRET.      20.00.00 21-Mar-20:  Drill End Time 
 DRST.      04.30.00 20-Mar-20:  Drill Start Tim 
 DTIM.hr                  8.99:  Time Drilling 
 EDEP.m                4503.01:  End Depth 
 ENG1.          Rasim Hashimov:  Engineer 1 
 ENG2.         Yevgeniy Ulikov:  Engineer 2 
 ETIM.      14.43.10 22-Mar-20:  End Time 
 FLOI.gpm               350.00:  Flow In 
 FLON.gpm               300.00:  Flow In Min 
 FLOS.cptm                0.00:  Fluid Loss 
 FLOX.gpm               400.00:  Flow In Max 
 FTRO.       Formation Presure:  FTWD Run Obj 
 HFLO.                      No:  High Flow 
 HPRE.                      No:  High Pressure 
 HTEM.                      No:  High Temp 
 HYDO.m                   1.80:  Hydro Offset 
 IFIN.deg                78.17:  Inc, Final 
 IMAX.deg                79.31:  Inc Max 
 IMIN.deg                78.75:  Inc Min 
 IMND.m                4474.16:  Inc Min Depth 
 IMXD.m                4445.88:  Inc Max Depth 
 JARR.                      No:  Jarring 
 LETM.      20.00.00 21-Mar-20:  Log End Time 
 LOST.hr                     0:  Lost Rig Time 
 LSTM.      04.30.00 19-Mar-20:  Log Start Time 
 MDCL.ppm             39500.00:  Mud Chlorides 
 MDES.     Inversion Oil/Synthetic:  Mud Desc 
 DFD .sg                  1.40:  Mud Density 
 MDMN.sg                  1.40:  Dens Mud Min 
 MDMX.sg                  1.40:  Dens Mud Max 
 MOIL.                      55:  Run Mud Oil % 
 MOWR.                   68:32:  Run Mud OWR 
 MSND.                     0.1:  Run Mud Sand % 
 MSOL.                       1:  Run Mud Solids% 
 DFV .spqt               78.00:  Mud Viscosity 
 MWOD.in                  4.75:  MWD Tool OD 
 MWSI.                      No:  Serv Intrp, MWD 
 OTIM.hr                 61.28:  Time Operating 
 PCON.           Look Like New:  Pad Condition 
 PMAX.psia             9103.94:  Press Op, Max 
 PV  .cP                 25.00:  Mud PV 
 RUN .                     800:  Run Number 
 ROPA.m/hr                7.10:  ROP Avg 
 ROPN.m/hr                2.40:  ROP Min 
 ROPX.m/hr               12.00:  ROP Max 
 RPMA.rpm               120.00:  RPM Surface Avg 
 RPMN.rpm                80.00:  RPM Surface Min 
 RPMX.rpm               140.00:  RPM Surface Max 
 RRUN.                    L203:  Rig Run Number 
 RTIM.hr                  6.50:  Time Reaming 
 SAZI.deg               140.14:  Azm, Start 
 SDEP.m                4422.01:  Start Depth 
 SIDD.                     Yes:  Serv Intrp, DD 
 SINC.deg                80.07:  Inc, Start 
 SPPA.psig             4619.00:  SPP Avg 
 SPPN.psig             3980.00:  SPP Min 
 SPPX.psig             5100.00:  SPP Max 
 STIM.      22.30.00 19-Mar-20:  Start Time 
 SVCS.                 DD, MWD:  Services 
 SVER.                    9.20:  Sperry Version 
 TDAT.m                  81.00:  Tot Depth Attmp 
 TDDF.                     Yes:  Trip for DD 
 TDLG.m                  81.00:  Tot Depth Loggd 
 TFF .                      No:  Trip for Fail 
 TQAA.f-kp               12.50:  Torque Abs Avg 
 TQAN.f-kp               12.00:  Torque Abs Min 
 TQAX.f-kp               14.00:  Torque Abs Max 
 TRRT.°/30m               0.25:  Turn Rotating 
 MRT .                    HCIM:  Maximum Recorded Temperature 
 TTMX.degC               86.27:  Max Tool Temp 
 VS01.         90595989G12V7D4:  Virtual Str1 SN 
 VS02.            90519330D5C4:  Virtual Str2 SN 
 VS03.             90522014R12:  Virtual Str3 SN 
 VS04.          90522272N2L2C4:  Virtual Str4 SN 
 VS05.      90512713X1Z1W1X1C4:  Virtual Str5 SN 
 WBMN.klb                 3.00:  WOB Min 
 WITN.        Elmaddin Rahimov:  Customer Rep 
 WOBA.klb                 5.60:  WOB Avg 
 WOBX.klb                 7.00:  WOB Max 
 YP  .lhf2               28.00:  Yield Point 
~Curve Information Block
#MNEM.UNIT                 API CODE     Curve Description
#---------               -----------    ---------------------------
 TIME.HHMMSS            00 000 000 000:  GT Time & Date
 GTDEPTH.m              00 000 000 000:  GT Depth
 GTPQH.psia             00 000 000 000:  GT HR Quartz Pressure
 GTTQ.degC              00 000 000 000:  GT Quartz Temperature
 GTTN.NONE              00 000 000 000:  GT Test Number
 GTET.sec               00 000 000 000:  GT Elapsed Test Time
 GTTVD.m                00 000 000 000:  GT True Vertical Depth
#Other Information
#
#WARRANTY: Halliburton will use its best efforts to furnish customers with 
#accurate information and interpretations that are part of, and incident to, the services 
#provided.  However, Halliburton cannot and does not warrant the accuracy 
#or correctness of such information and interpretations.  Under no circumstances should any 
#such information or interpretation be relied upon as the sole basis for any drilling, 
#completion, production, or financial decision or any procedure involving any risk to the 
#safety of any drilling venture, drilling rig or its crew or any other third party.  The 
#Customer has full responsibility for all drilling, completion and production operation.  
#Halliburton makes no representations or warranties, either expressed or 
#implied, including, but not limited to, the implied warranties of merchantability or fitness 
#for a particular purpose, with respect to the services rendered.  In no event will 
#Halliburton be liable for failure to obtain any particular results or for 
#any damages, including, but not limited to, indirect, special or consequential damages, 
#resulting from the use of any information or interpretation provided by Halliburton.
#
~A           TIME           GTDEPTH  GTPQH  GTTQ  GTTN  GTET   GTTVD  
# ...
   13:23:54.424.21-Mar-2020 4435.61 4647.55 73.18 1.00 207.03 3146.67
   13:23:54.624.21-Mar-2020 4435.61 4647.55 73.18 1.00 207.23 3146.67
   13:23:54.824.21-Mar-2020 4435.61 4647.62 73.18 1.00 207.43 3146.67
   13:23:55.024.21-Mar-2020 4435.61 4647.65 73.18 1.00 207.63 3146.67
   13:23:55.224.21-Mar-2020 4435.61 4647.16 73.18 1.00 207.83 3146.67
   13:23:55.424.21-Mar-2020 4435.61 4647.61 73.18 1.00 208.03 3146.67
   13:23:55.624.21-Mar-2020 4435.61 4647.61 73.18 1.00 208.23 3146.67
   13:23:55.824.21-Mar-2020 4435.61 4647.52 73.18 1.00 208.43 3146.67
   13:23:56.024.21-Mar-2020 4435.61 4647.55 73.18 1.00 208.63 3146.67
   13:23:56.224.21-Mar-2020 4435.61 4647.56 73.18 1.00 208.83 3146.67
   13:23:56.424.21-Mar-2020 4435.61 4647.53 73.18 1.00 209.03 3146.67
   13:23:56.624.21-Mar-2020 4435.61 4647.53 73.18 1.00 209.23 3146.67
   13:23:56.824.21-Mar-2020 4435.61 4647.51 73.18 1.00 209.43 3146.67
   13:23:57.024.21-Mar-2020 4435.61 4647.26 73.18 1.00 209.63 3146.67
   13:23:57.224.21-Mar-2020 4435.61 4647.47 73.18 1.00 209.83 3146.67
   13:23:57.424.21-Mar-2020 4435.61 4647.58 73.18 1.00 210.03 3146.67
   13:23:57.624.21-Mar-2020 4435.61 4647.58 73.18 1.00 210.23 3146.67
   13:23:57.824.21-Mar-2020 4435.61 4647.52 73.18 1.00 210.43 3146.67
   13:23:58.024.21-Mar-2020 4435.61 4647.49 73.18 1.00 210.63 3146.67
   13:23:58.224.21-Mar-2020 4435.61 4647.46 73.18 1.00 210.83 3146.67
   13:23:58.424.21-Mar-2020 4435.61 4647.47 73.18 1.00 211.03 3146.67
   13:23:58.624.21-Mar-2020 4435.61 4647.47 73.18 1.00 211.23 3146.67
   13:23:58.824.21-Mar-2020 4435.61 4647.47 73.18 1.00 211.43 3146.67
   13:23:59.024.21-Mar-2020 4435.61 4647.52 73.18 1.00 211.63 3146.67
   13:23:59.224.21-Mar-2020 4435.61 4647.56 73.18 1.00 211.83 3146.67
   13:23:59.424.21-Mar-2020 4435.61 4647.49 73.17 1.00 212.03 3146.67
   13:23:59.624.21-Mar-2020 4435.61 4647.49 73.17 1.00 212.23 3146.67
   13:23:59.824.21-Mar-2020 4435.61 4647.16 73.17 1.00 212.43 3146.67
   13:24:00.024.21-Mar-2020 4435.61 4647.48 73.17 1.00 212.63 3146.67
   13:24:00.224.21-Mar-2020 4435.61 4647.52 73.17 1.00 212.83 3146.67
   13:24:00.425.21-Mar-2020 4435.61 4647.52 73.17 1.00 213.03 3146.67
   13:24:00.625.21-Mar-2020 4435.61 4647.52 73.17 1.00 213.23 3146.67
   13:24:00.825.21-Mar-2020 4435.61 4647.39 73.17 1.00 213.43 3146.67
   13:24:01.025.21-Mar-2020 4435.61 4647.46 73.17 1.00 213.63 3146.67
   13:24:01.225.21-Mar-2020 4435.61 4647.27 73.17 1.00 213.83 3146.67
   13:24:01.425.21-Mar-2020 4435.61 4647.44 73.17 1.00 214.03 3146.67
   13:24:01.625.21-Mar-2020 4435.61 4647.44 73.17 1.00 214.23 3146.67
   13:24:01.825.21-Mar-2020 4435.61 4647.63 73.17 1.00 214.43 3146.67
   13:24:02.025.21-Mar-2020 4435.61 4647.61 73.17 1.00 214.63 3146.67
   13:24:02.225.21-Mar-2020 4435.61 4647.22 73.17 1.00 214.83 3146.67
   13:24:02.425.21-Mar-2020 4435.61 4647.60 73.17 1.00 215.03 3146.67
   13:24:02.625.21-Mar-2020 4435.61 4647.60 73.17 1.00 215.23 3146.67
   13:24:02.825.21-Mar-2020 4435.61 4647.57 73.17 1.00 215.43 3146.67
   13:24:03.025.21-Mar-2020 4435.61 4647.50 73.17 1.00 215.63 3146.67
   13:24:03.225.21-Mar-2020 4435.61 4647.60 73.17 1.00 215.83 3146.67
   13:24:03.425.21-Mar-2020 4435.61 4647.58 73.17 1.00 216.03 3146.67
   13:24:03.625.21-Mar-2020 4435.61 4647.58 73.17 1.00 216.23 3146.67
   13:24:03.825.21-Mar-2020 4435.61 4647.50 73.17 1.00 216.43 3146.67
   13:24:04.025.21-Mar-2020 4435.61 4647.41 73.17 1.00 216.63 3146.67
   13:24:04.225.21-Mar-2020 4435.61 4647.30 73.17 1.00 216.83 3146.67
   13:24:04.425.21-Mar-2020 4435.61 4647.60 73.17 1.00 217.03 3146.67
   13:24:04.625.21-Mar-2020 4435.61 4647.60 73.17 1.00 217.23 3146.67
   13:24:04.825.21-Mar-2020 4435.61 4647.57 73.17 1.00 217.43 3146.67
   13:24:05.025.21-Mar-2020 4435.61 4647.50 73.17 1.00 217.63 3146.67
   13:24:05.225.21-Mar-2020 4435.61 4647.51 73.17 1.00 217.83 3146.67
   13:24:05.425.21-Mar-2020 4435.61 4647.47 73.17 1.00 218.03 3146.67
   13:24:05.625.21-Mar-2020 4435.61 4647.47 73.17 1.00 218.23 3146.67
   13:24:05.825.21-Mar-2020 4435.61 4647.52 73.17 1.00 218.43 3146.67
   13:24:06.025.21-Mar-2020 4435.61 4647.49 73.17 1.00 218.63 3146.67
   13:24:06.225.21-Mar-2020 4435.61 4647.58 73.17 1.00 218.83 3146.67
   13:24:06.425.21-Mar-2020 4435.61 4647.52 73.17 1.00 219.03 3146.67
   13:24:06.625.21-Mar-2020 4435.61 4647.52 73.17 1.00 219.23 3146.67
   13:24:06.825.21-Mar-2020 4435.61 4647.20 73.17 1.00 219.43 3146.67
   13:24:07.025.21-Mar-2020 4435.61 4647.54 73.17 1.00 219.63 3146.67
   13:24:07.225.21-Mar-2020 4435.61 4647.54 73.17 1.00 219.83 3146.67
   13:24:07.426.21-Mar-2020 4435.61 4647.57 73.17 1.00 220.03 3146.67
   13:24:07.626.21-Mar-2020 4435.61 4647.57 73.17 1.00 220.23 3146.67
   13:24:07.826.21-Mar-2020 4435.61 4647.13 73.17 1.00 220.43 3146.67
   13:24:08.026.21-Mar-2020 4435.61 4521.46 73.17 1.00 220.63 3146.67
   13:24:08.226.21-Mar-2020 4435.61 4213.93 73.17 1.00 220.83 3146.67
   13:24:08.426.21-Mar-2020 4435.61 4083.73 73.17 1.00 221.03 3146.67
   13:24:08.626.21-Mar-2020 4435.61 4083.73 73.17 1.00 221.23 3146.67
   13:24:08.826.21-Mar-2020 4435.61 4006.41 73.17 1.00 221.43 3146.67
   13:24:09.026.21-Mar-2020 4435.61 3988.76 73.17 1.00 221.63 3146.67
   13:24:09.226.21-Mar-2020 4435.61 3971.33 73.17 1.00 221.83 3146.67
   13:24:09.426.21-Mar-2020 4435.61 3976.75 73.17 1.00 222.03 3146.67
   13:24:09.626.21-Mar-2020 4435.61 3976.75 73.17 1.00 222.23 3146.67
   13:24:09.826.21-Mar-2020 4435.61 3975.27 73.17 1.00 222.43 3146.67
   13:24:10.026.21-Mar-2020 4435.61 3973.02 73.17 1.00 222.63 3146.67
   13:24:10.226.21-Mar-2020 4435.61 3973.07 73.17 1.00 222.83 3146.67
   13:24:10.426.21-Mar-2020 4435.61 3977.10 73.17 1.00 223.03 3146.67
   13:24:10.626.21-Mar-2020 4435.61 3977.10 73.17 1.00 223.23 3146.67
   13:24:10.826.21-Mar-2020 4435.61 3974.78 73.16 1.00 223.43 3146.67
   13:24:11.026.21-Mar-2020 4435.61 3970.10 73.16 1.00 223.63 3146.67
   13:24:11.226.21-Mar-2020 4435.61 3966.68 73.16 1.00 223.83 3146.67
   13:24:11.426.21-Mar-2020 4435.61 3975.25 73.16 1.00 224.03 3146.67
   13:24:11.626.21-Mar-2020 4435.61 3975.25 73.16 1.00 224.23 3146.67
   13:24:11.826.21-Mar-2020 4435.61 3974.56 73.16 1.00 224.43 3146.67
   13:24:12.026.21-Mar-2020 4435.61 3976.09 73.16 1.00 224.63 3146.67
   13:24:12.226.21-Mar-2020 4435.61 3975.14 73.16 1.00 224.83 3146.67
   13:24:12.426.21-Mar-2020 4435.61 3975.41 73.16 1.00 225.03 3146.67
   13:24:12.626.21-Mar-2020 4435.61 3975.41 73.16 1.00 225.23 3146.67
   13:24:12.826.21-Mar-2020 4435.61 3976.74 73.16 1.00 225.43 3146.67
   13:24:13.026.21-Mar-2020 4435.61 3976.42 73.16 1.00 225.63 3146.67
   13:24:13.226.21-Mar-2020 4435.61 3974.48 73.16 1.00 225.83 3146.67
   13:24:13.426.21-Mar-2020 4435.61 3976.06 73.16 1.00 226.03 3146.67
   13:24:13.626.21-Mar-2020 4435.61 3976.06 73.16 1.00 226.23 3146.67
   13:24:13.826.21-Mar-2020 4435.61 3972.75 73.16 1.00 226.43 3146.67
   13:24:14.026.21-Mar-2020 4435.61 3977.49 73.16 1.00 226.63 3146.67
   13:24:14.226.21-Mar-2020 4435.61 3977.35 73.16 1.00 226.83 3146.67
   13:24:14.427.21-Mar-2020 4435.61 3976.74 73.16 1.00 227.03 3146.67
   13:24:14.627.21-Mar-2020 4435.61 3976.74 73.16 1.00 227.23 3146.67
   13:24:14.827.21-Mar-2020 4435.61 3976.74 73.16 1.00 227.43 3146.67
   13:24:15.027.21-Mar-2020 4435.61 3980.09 73.16 1.00 227.63 3146.67
   13:24:15.227.21-Mar-2020 4435.61 3975.57 73.16 1.00 227.83 3146.67
   13:24:15.427.21-Mar-2020 4435.61 3968.77 73.16 1.00 228.03 3146.67
   13:24:15.627.21-Mar-2020 4435.61 3968.77 73.16 1.00 228.23 3146.67
   13:24:15.827.21-Mar-2020 4435.61 3978.21 73.16 1.00 228.43 3146.67
   13:24:16.027.21-Mar-2020 4435.61 3980.00 73.16 1.00 228.63 3146.67
   13:24:16.227.21-Mar-2020 4435.61 3975.24 73.16 1.00 228.83 3146.67
   13:24:16.427.21-Mar-2020 4435.61 3975.27 73.16 1.00 229.03 3146.67
   13:24:16.627.21-Mar-2020 4435.61 3975.27 73.16 1.00 229.23 3146.67
   13:24:16.827.21-Mar-2020 4435.61 3979.47 73.16 1.00 229.43 3146.67
   13:24:17.027.21-Mar-2020 4435.61 3979.07 73.15 1.00 229.63 3146.67
   13:24:17.227.21-Mar-2020 4435.61 3978.64 73.15 1.00 229.83 3146.67
