~Version Information
 VERS.                  2.0:   CWLS log ASCII Standard -VERSION 2.0
 WRAP.                   NO:   One line per depth step
~Well Information Block
#MNEM.UNIT     VALUE/NAME     DESCRIPTION
#---------     -----------    ---------------------------
 STRT.S             13:20:27 21-Mar-20: START TIME 13:20:27 21-Mar-20
 STOP.S             13:26:37 21-Mar-20: STOP TIME  13:26:37 21-Mar-20
 STEP.S                   0.00: STEP TIME
 NULL.                 -999.25: NULL VALUE
 DFWT.                        :  DIST FWL TEXT
 DFST.                        :  DIST FSL TEXT
 DMF .             Drill Floor:  DRILL MEAS FROM
 STIM.      22.38.56 15-Feb-20:  START TIME
 DATE.      22.38.56 15-Feb-20:  END TIME
 SPUD.               15-Feb-20:  SPUD DATE
 NREF.                    Grid:  NORTH REFERENCE
 HPTY.       Minimum Curvature:  HOLE POS TYPE
 DMOD.             Drill Model:  DRILL MOD DESC
 SVYD.                  Survey:  SURVEY DESC
 ILTD.               Lithology:  INTERP LTH DESC
 FTOP.          Formation Tops:  FORM TOPS DESC
 SON .        AZ-XX-0906019077:  JOB NUMBER
 PDAT.          Mean Sea Level:  PERMANENT DATUM
 WTYP.                Deviated:  WELL TYPE
 MDS .        Operator Entered:  MAG DATA SOURCE
 COMP.     BP Exploration (Caspian sea) Ltd.:  COMPANY
 UWI .                     N/A:  UNIQUE WELL IDENTIFIER
 API .                     N/A:  API NUMBER
 BASE.              Azerbaijan:  LOGGING EQUIPMENT BASE LOCATION
 REGN.                   EESSA:  REGION
 PROV.                     N/A:  PROVINCE
 STAT.                     N/A:  STATE NAME
 CTRY.              Azerbaijan:  COUNTRY NAME
 FLD .                     ACG:  FIELD NAME
 SRVC.          Turan Drilling:  CONTRACTOR
 MWDS.                    Baku:  MWD SHOP
 WELL.                    E16W:  WELL NAME
 JOBN.        AZ-XX-0906019077:  JOB TICKET NUMB
 RIG .                     DWG:  RIG NAME
 CNTY.                     N/A:  COUNTY NAME
 DCON.         Sperry Drilling:  DIRECTNL CONTR
 UNIT.                     N/A:  LOGGING EQUIPMENT ID
 LOC .                        :  LOCATION
 LMF .             Drill Floor:  LOG MEASURED FROM
 TVDS.m                  43.16:  TVDSS CORRECTN
 LATI.deg                40.17:  LATITUDE
 LONG.deg                51.17:  LONGITUDE
 WHNS.m                 -15.30:  WELL HEAD N/S
 WHEW.m                  -1.29:  WELL HEAD E/W
 UTMX.m              514337.95:  UTM X
 UTMY.m             4448627.46:  UTM Y
 DFWL.m                   0.00:  DISTANCE FWL
 DFSL.m                   0.00:  DISTANCE FSL
 SDEP.m                3499.01:  START DEPTH
 TDD .m                4422.01:  TOTAL DEPTH (DRILLER)
 VSDR.deg               151.14:  VERT SEC DIRECT
 GVFD.g                   1.00:  GRAVITY FIELD
 MFLD.nT              50334.00:  MAGNETIC FIELD
 MDIP.deg                59.62:  MAGNETIC DIP
 MDEC.deg                 6.46:  MAGNETIC DECL
 GRDC.deg                 0.12:  GRID CORRECTION
 AZTC.deg                 6.34:  AZM TOTAL CORR
 EPD .m                   0.00:  ELEVATION
 EGL .m                   0.00:  GROUND ELEVATION
 WDMS.m                 176.20:  WD ELEV
 APD .m                  43.16:  DEPTH ABOVE PD
 VSEW.m                  -1.29:  VERT SEC E/W
 VSNS.m                 -15.30:  VERT SEC N/S
 AGAP.m                  43.16:  AIR GAP
 EKB .m                   0.00:  KB ELEVATION
 EDF .m                  43.16:  DF ELEVATION
 TDL .m                  81.00:  TOTAL DEPTH (LOGGER)
 VSC .                       0:  VS TO CLOSURE
 MAGU.                 1852525:  MAGUTM CHECKSUM
~Parameter Information Block
#MNEM.UNIT       Value        Description
#---------     -----------    ---------------------------
 AV  .mps                 1.00:  Ann Velocity 
 AVMX.mps                 1.32:  Max Ann Veloc 
 AZIF.deg               141.43:  Azm, Final 
 BHAT.        Rotary Steerable:  BHA Type 
 BREV.rev            107699.99:  Rev Bit Total 
 BROT.°/30m              -0.88:  Build Rotating 
 BS  .in                  6.50:  Bit Size 
 BSZ .in                  6.50:  Bit Size 
 BTPL.psig              222.00:  Bit Press Loss 
 CABU.                     Yes:  Customer Abuse 
 CGEO.        Ali Isfandiyarov:  Customer Geo 
 TCS .hr                 23.12:  Time Ciculation Ended 
 CV  .mps                 2.20:  Crit Velocity 
 CVMX.mps                 3.01:  Max Crit Veloc 
 DD1 .         Intigam Rahimov:  Direct Drillr 1 
 DDSV.               Geo-Pilot:  DD Service 
 DEFF.%                 100.00:  % Det Eff 
 DLRX.°/30m               0.90:  Dogleg Rot Max 
 DLSO.°/30m               0.00:  Dogleg Oriented 
 DLSX.°/30m               0.00:  Dogleg Str Max 
 DRET.      20.00.00 21-Mar-20:  Drill End Time 
 DRST.      04.30.00 20-Mar-20:  Drill Start Tim 
 DTIM.hr                  8.99:  Time Drilling 
 EDEP.m                4503.01:  End Depth 
 ENG1.          Rasim Hashimov:  Engineer 1 
 ENG2.         Yevgeniy Ulikov:  Engineer 2 
 ETIM.      14.43.10 22-Mar-20:  End Time 
 FLOI.gpm               350.00:  Flow In 
 FLON.gpm               300.00:  Flow In Min 
 FLOS.cptm                0.00:  Fluid Loss 
 FLOX.gpm               400.00:  Flow In Max 
 FTRO.       Formation Presure:  FTWD Run Obj 
 HFLO.                      No:  High Flow 
 HPRE.                      No:  High Pressure 
 HTEM.                      No:  High Temp 
 HYDO.m                   1.80:  Hydro Offset 
 IFIN.deg                78.17:  Inc, Final 
 IMAX.deg                79.31:  Inc Max 
 IMIN.deg                78.75:  Inc Min 
 IMND.m                4474.16:  Inc Min Depth 
 IMXD.m                4445.88:  Inc Max Depth 
 JARR.                      No:  Jarring 
 LETM.      20.00.00 21-Mar-20:  Log End Time 
 LOST.hr                     0:  Lost Rig Time 
 LSTM.      04.30.00 19-Mar-20:  Log Start Time 
 MDCL.ppm             39500.00:  Mud Chlorides 
 MDES.     Inversion Oil/Synthetic:  Mud Desc 
 DFD .sg                  1.40:  Mud Density 
 MDMN.sg                  1.40:  Dens Mud Min 
 MDMX.sg                  1.40:  Dens Mud Max 
 MOIL.                      55:  Run Mud Oil % 
 MOWR.                   68:32:  Run Mud OWR 
 MSND.                     0.1:  Run Mud Sand % 
 MSOL.                       1:  Run Mud Solids% 
 DFV .spqt               78.00:  Mud Viscosity 
 MWOD.in                  4.75:  MWD Tool OD 
 MWSI.                      No:  Serv Intrp, MWD 
 OTIM.hr                 61.28:  Time Operating 
 PCON.           Look Like New:  Pad Condition 
 PMAX.psia             9103.94:  Press Op, Max 
 PV  .cP                 25.00:  Mud PV 
 RUN .                     800:  Run Number 
 ROPA.m/hr                7.10:  ROP Avg 
 ROPN.m/hr                2.40:  ROP Min 
 ROPX.m/hr               12.00:  ROP Max 
 RPMA.rpm               120.00:  RPM Surface Avg 
 RPMN.rpm                80.00:  RPM Surface Min 
 RPMX.rpm               140.00:  RPM Surface Max 
 RRUN.                    L203:  Rig Run Number 
 RTIM.hr                  6.50:  Time Reaming 
 SAZI.deg               140.14:  Azm, Start 
 SDEP.m                4422.01:  Start Depth 
 SIDD.                     Yes:  Serv Intrp, DD 
 SINC.deg                80.07:  Inc, Start 
 SPPA.psig             4619.00:  SPP Avg 
 SPPN.psig             3980.00:  SPP Min 
 SPPX.psig             5100.00:  SPP Max 
 STIM.      22.30.00 19-Mar-20:  Start Time 
 SVCS.                 DD, MWD:  Services 
 SVER.                    9.20:  Sperry Version 
 TDAT.m                  81.00:  Tot Depth Attmp 
 TDDF.                     Yes:  Trip for DD 
 TDLG.m                  81.00:  Tot Depth Loggd 
 TFF .                      No:  Trip for Fail 
 TQAA.f-kp               12.50:  Torque Abs Avg 
 TQAN.f-kp               12.00:  Torque Abs Min 
 TQAX.f-kp               14.00:  Torque Abs Max 
 TRRT.°/30m               0.25:  Turn Rotating 
 MRT .                    HCIM:  Maximum Recorded Temperature 
 TTMX.degC               86.27:  Max Tool Temp 
 VS01.         90595989G12V7D4:  Virtual Str1 SN 
 VS02.            90519330D5C4:  Virtual Str2 SN 
 VS03.             90522014R12:  Virtual Str3 SN 
 VS04.          90522272N2L2C4:  Virtual Str4 SN 
 VS05.      90512713X1Z1W1X1C4:  Virtual Str5 SN 
 WBMN.klb                 3.00:  WOB Min 
 WITN.        Elmaddin Rahimov:  Customer Rep 
 WOBA.klb                 5.60:  WOB Avg 
 WOBX.klb                 7.00:  WOB Max 
 YP  .lhf2               28.00:  Yield Point 
~Curve Information Block
#MNEM.UNIT                 API CODE     Curve Description
#---------               -----------    ---------------------------
 TIME.HHMMSS            00 000 000 000:  GT Time & Date
 GTDEPTH.m              00 000 000 000:  GT Depth
 GTPQH.psia             00 000 000 000:  GT HR Quartz Pressure
 GTTQ.degC              00 000 000 000:  GT Quartz Temperature
 GTTN.NONE              00 000 000 000:  GT Test Number
 GTET.sec               00 000 000 000:  GT Elapsed Test Time
 GTTVD.m                00 000 000 000:  GT True Vertical Depth
#Other Information
#
#WARRANTY: Halliburton will use its best efforts to furnish customers with 
#accurate information and interpretations that are part of, and incident to, the services 
#provided.  However, Halliburton cannot and does not warrant the accuracy 
#or correctness of such information and interpretations.  Under no circumstances should any 
#such information or interpretation be relied upon as the sole basis for any drilling, 
#completion, production, or financial decision or any procedure involving any risk to the 
#safety of any drilling venture, drilling rig or its crew or any other third party.  The 
#Customer has full responsibility for all drilling, completion and production operation.  
#Halliburton makes no representations or warranties, either expressed or 
#implied, including, but not limited to, the implied warranties of merchantability or fitness 
#for a particular purpose, with respect to the services rendered.  In no event will 
#Halliburton be liable for failure to obtain any particular results or for 
#any damages, including, but not limited to, indirect, special or consequential damages, 
#resulting from the use of any information or interpretation provided by Halliburton.
#
~A           TIME           GTDEPTH  GTPQH  GTTQ  GTTN  GTET   GTTVD  
# ...
   13:22:45.414.21-Mar-2020 4435.61 4647.07 73.24 1.00 138.02 3146.67
   13:22:45.614.21-Mar-2020 4435.61 4647.07 73.24 1.00 138.22 3146.67
   13:22:45.814.21-Mar-2020 4435.61 4647.12 73.24 1.00 138.42 3146.67
   13:22:46.014.21-Mar-2020 4435.61 4647.06 73.24 1.00 138.62 3146.67
   13:22:46.214.21-Mar-2020 4435.61 4647.00 73.24 1.00 138.82 3146.67
   13:22:46.414.21-Mar-2020 4435.61 4647.02 73.24 1.00 139.02 3146.67
   13:22:46.614.21-Mar-2020 4435.61 4647.02 73.24 1.00 139.22 3146.67
   13:22:46.814.21-Mar-2020 4435.61 4647.13 73.24 1.00 139.42 3146.67
   13:22:47.014.21-Mar-2020 4435.61 4647.14 73.24 1.00 139.62 3146.67
   13:22:47.214.21-Mar-2020 4435.61 4647.09 73.24 1.00 139.82 3146.67
   13:22:47.414.21-Mar-2020 4435.61 4647.12 73.24 1.00 140.02 3146.67
   13:22:47.614.21-Mar-2020 4435.61 4647.12 73.24 1.00 140.22 3146.67
   13:22:47.814.21-Mar-2020 4435.61 4647.06 73.24 1.00 140.42 3146.67
   13:22:48.014.21-Mar-2020 4435.61 4647.05 73.24 1.00 140.62 3146.67
   13:22:48.214.21-Mar-2020 4435.61 4647.06 73.24 1.00 140.82 3146.67
   13:22:48.414.21-Mar-2020 4435.61 4647.05 73.24 1.00 141.02 3146.67
   13:22:48.614.21-Mar-2020 4435.61 4647.05 73.24 1.00 141.22 3146.67
   13:22:48.814.21-Mar-2020 4435.61 4647.16 73.24 1.00 141.42 3146.67
   13:22:49.014.21-Mar-2020 4435.61 4647.08 73.24 1.00 141.62 3146.67
   13:22:49.214.21-Mar-2020 4435.61 4647.10 73.24 1.00 141.82 3146.67
   13:22:49.414.21-Mar-2020 4435.61 4646.68 73.24 1.00 142.02 3146.67
   13:22:49.614.21-Mar-2020 4435.61 4646.68 73.24 1.00 142.22 3146.67
   13:22:49.814.21-Mar-2020 4435.61 4647.06 73.24 1.00 142.42 3146.67
   13:22:50.014.21-Mar-2020 4435.61 4647.07 73.23 1.00 142.62 3146.67
   13:22:50.214.21-Mar-2020 4435.61 4646.89 73.23 1.00 142.82 3146.67
   13:22:50.415.21-Mar-2020 4435.61 4647.26 73.23 1.00 143.02 3146.67
   13:22:50.615.21-Mar-2020 4435.61 4647.26 73.23 1.00 143.22 3146.67
   13:22:50.815.21-Mar-2020 4435.61 4646.84 73.23 1.00 143.42 3146.67
   13:22:51.015.21-Mar-2020 4435.61 4647.25 73.23 1.00 143.62 3146.67
   13:22:51.215.21-Mar-2020 4435.61 4647.27 73.23 1.00 143.82 3146.67
   13:22:51.415.21-Mar-2020 4435.61 4647.29 73.23 1.00 144.02 3146.67
   13:22:51.615.21-Mar-2020 4435.61 4647.29 73.23 1.00 144.22 3146.67
   13:22:51.815.21-Mar-2020 4435.61 4646.90 73.23 1.00 144.42 3146.67
   13:22:52.015.21-Mar-2020 4435.61 4647.32 73.23 1.00 144.62 3146.67
   13:22:52.215.21-Mar-2020 4435.61 4647.34 73.23 1.00 144.82 3146.67
   13:22:52.415.21-Mar-2020 4435.61 4647.26 73.23 1.00 145.02 3146.67
   13:22:52.615.21-Mar-2020 4435.61 4647.26 73.23 1.00 145.22 3146.67
   13:22:52.815.21-Mar-2020 4435.61 4647.28 73.23 1.00 145.42 3146.67
   13:22:53.015.21-Mar-2020 4435.61 4647.27 73.23 1.00 145.62 3146.67
   13:22:53.215.21-Mar-2020 4435.61 4647.20 73.23 1.00 145.82 3146.67
   13:22:53.415.21-Mar-2020 4435.61 4647.24 73.23 1.00 146.02 3146.67
   13:22:53.615.21-Mar-2020 4435.61 4647.24 73.23 1.00 146.22 3146.67
   13:22:53.815.21-Mar-2020 4435.61 4646.95 73.23 1.00 146.42 3146.67
   13:22:54.015.21-Mar-2020 4435.61 4647.28 73.23 1.00 146.62 3146.67
   13:22:54.215.21-Mar-2020 4435.61 4647.25 73.23 1.00 146.82 3146.67
   13:22:54.415.21-Mar-2020 4435.61 4647.28 73.23 1.00 147.02 3146.67
   13:22:54.615.21-Mar-2020 4435.61 4647.28 73.23 1.00 147.22 3146.67
   13:22:54.815.21-Mar-2020 4435.61 4647.19 73.23 1.00 147.42 3146.67
   13:22:55.015.21-Mar-2020 4435.61 4647.19 73.23 1.00 147.62 3146.67
   13:22:55.215.21-Mar-2020 4435.61 4647.22 73.23 1.00 147.82 3146.67
   13:22:55.415.21-Mar-2020 4435.61 4647.20 73.23 1.00 148.02 3146.67
   13:22:55.615.21-Mar-2020 4435.61 4647.20 73.23 1.00 148.22 3146.67
   13:22:55.815.21-Mar-2020 4435.61 4647.31 73.23 1.00 148.42 3146.67
   13:22:56.015.21-Mar-2020 4435.61 4647.25 73.23 1.00 148.62 3146.67
   13:22:56.215.21-Mar-2020 4435.61 4647.24 73.23 1.00 148.82 3146.67
   13:22:56.415.21-Mar-2020 4435.61 4646.87 73.23 1.00 149.02 3146.67
   13:22:56.615.21-Mar-2020 4435.61 4646.87 73.23 1.00 149.22 3146.67
   13:22:56.815.21-Mar-2020 4435.61 4647.17 73.23 1.00 149.42 3146.67
   13:22:57.015.21-Mar-2020 4435.61 4647.24 73.23 1.00 149.62 3146.67
   13:22:57.215.21-Mar-2020 4435.61 4646.92 73.23 1.00 149.82 3146.67
   13:22:57.416.21-Mar-2020 4435.61 4647.31 73.23 1.00 150.02 3146.67
   13:22:57.616.21-Mar-2020 4435.61 4647.31 73.23 1.00 150.22 3146.67
   13:22:57.816.21-Mar-2020 4435.61 4647.25 73.23 1.00 150.42 3146.67
   13:22:58.016.21-Mar-2020 4435.61 4647.00 73.23 1.00 150.62 3146.67
   13:22:58.216.21-Mar-2020 4435.61 4647.35 73.23 1.00 150.82 3146.67
   13:22:58.416.21-Mar-2020 4435.61 4647.41 73.23 1.00 151.02 3146.67
   13:22:58.616.21-Mar-2020 4435.61 4647.41 73.23 1.00 151.22 3146.67
   13:22:58.816.21-Mar-2020 4435.61 4646.96 73.23 1.00 151.42 3146.67
   13:22:59.016.21-Mar-2020 4435.61 4647.37 73.23 1.00 151.62 3146.67
   13:22:59.216.21-Mar-2020 4435.61 4647.43 73.23 1.00 151.82 3146.67
   13:22:59.416.21-Mar-2020 4435.61 4647.37 73.23 1.00 152.02 3146.67
   13:22:59.616.21-Mar-2020 4435.61 4647.37 73.23 1.00 152.22 3146.67
   13:22:59.816.21-Mar-2020 4435.61 4647.36 73.23 1.00 152.42 3146.67
   13:23:00.016.21-Mar-2020 4435.61 4647.37 73.23 1.00 152.62 3146.67
   13:23:00.216.21-Mar-2020 4435.61 4647.29 73.23 1.00 152.82 3146.67
   13:23:00.416.21-Mar-2020 4435.61 4647.30 73.22 1.00 153.02 3146.67
   13:23:00.616.21-Mar-2020 4435.61 4647.30 73.22 1.00 153.22 3146.67
   13:23:00.816.21-Mar-2020 4435.61 4646.92 73.22 1.00 153.42 3146.67
   13:23:01.016.21-Mar-2020 4435.61 4647.37 73.22 1.00 153.62 3146.67
   13:23:01.216.21-Mar-2020 4435.61 4647.32 73.22 1.00 153.82 3146.67
   13:23:01.416.21-Mar-2020 4435.61 4647.30 73.22 1.00 154.02 3146.67
   13:23:01.616.21-Mar-2020 4435.61 4647.30 73.22 1.00 154.22 3146.67
   13:23:01.816.21-Mar-2020 4435.61 4647.26 73.22 1.00 154.42 3146.67
   13:23:02.016.21-Mar-2020 4435.61 4647.27 73.22 1.00 154.62 3146.67
   13:23:02.216.21-Mar-2020 4435.61 4647.27 73.22 1.00 154.82 3146.67
   13:23:02.416.21-Mar-2020 4435.61 4647.27 73.22 1.00 155.02 3146.67
   13:23:02.616.21-Mar-2020 4435.61 4647.27 73.22 1.00 155.22 3146.67
   13:23:02.816.21-Mar-2020 4435.61 4647.34 73.22 1.00 155.42 3146.67
   13:23:03.016.21-Mar-2020 4435.61 4647.33 73.22 1.00 155.62 3146.67
   13:23:03.216.21-Mar-2020 4435.61 4647.28 73.22 1.00 155.82 3146.67
   13:23:03.416.21-Mar-2020 4435.61 4646.95 73.22 1.00 156.02 3146.67
   13:23:03.616.21-Mar-2020 4435.61 4646.95 73.22 1.00 156.22 3146.67
   13:23:03.816.21-Mar-2020 4435.61 4647.17 73.22 1.00 156.42 3146.67
   13:23:04.016.21-Mar-2020 4435.61 4647.27 73.22 1.00 156.62 3146.67
   13:23:04.216.21-Mar-2020 4435.61 4646.93 73.22 1.00 156.82 3146.67
   13:23:04.417.21-Mar-2020 4435.61 4647.34 73.22 1.00 157.02 3146.67
   13:23:04.617.21-Mar-2020 4435.61 4647.34 73.22 1.00 157.22 3146.67
   13:23:04.817.21-Mar-2020 4435.61 4647.36 73.22 1.00 157.42 3146.67
   13:23:05.017.21-Mar-2020 4435.61 4646.94 73.22 1.00 157.62 3146.67
   13:23:05.217.21-Mar-2020 4435.61 4647.36 73.22 1.00 157.82 3146.67
   13:23:05.417.21-Mar-2020 4435.61 4647.43 73.22 1.00 158.02 3146.67
   13:23:05.617.21-Mar-2020 4435.61 4647.43 73.22 1.00 158.22 3146.67
   13:23:05.817.21-Mar-2020 4435.61 4647.14 73.22 1.00 158.42 3146.67
   13:23:06.017.21-Mar-2020 4435.61 4647.27 73.22 1.00 158.62 3146.67
   13:23:06.217.21-Mar-2020 4435.61 4647.44 73.22 1.00 158.82 3146.67
   13:23:06.417.21-Mar-2020 4435.61 4647.38 73.22 1.00 159.02 3146.67
   13:23:06.617.21-Mar-2020 4435.61 4647.38 73.22 1.00 159.22 3146.67
   13:23:06.817.21-Mar-2020 4435.61 4647.38 73.22 1.00 159.42 3146.67
   13:23:07.017.21-Mar-2020 4435.61 4647.41 73.22 1.00 159.62 3146.67
   13:23:07.217.21-Mar-2020 4435.61 4647.32 73.22 1.00 159.82 3146.67
   13:23:07.417.21-Mar-2020 4435.61 4647.32 73.22 1.00 160.02 3146.67
   13:23:07.617.21-Mar-2020 4435.61 4647.32 73.22 1.00 160.22 3146.67
   13:23:07.817.21-Mar-2020 4435.61 4646.95 73.22 1.00 160.42 3146.67
   13:23:08.017.21-Mar-2020 4435.61 4647.40 73.22 1.00 160.62 3146.67
   13:23:08.217.21-Mar-2020 4435.61 4647.35 73.22 1.00 160.82 3146.67
