~Version Information
 VERS.                  2.0:   CWLS log ASCII Standard -VERSION 2.0
 WRAP.                   NO:   One line per depth step
~Well Information Block
#MNEM.UNIT     VALUE/NAME     DESCRIPTION
#---------     -----------    ---------------------------
 STRT.S             13:20:27 21-Mar-20: START TIME 13:20:27 21-Mar-20
 STOP.S             13:26:37 21-Mar-20: STOP TIME  13:26:37 21-Mar-20
 STEP.S                   0.00: STEP TIME
 NULL.                 -999.25: NULL VALUE
 DFWT.                        :  DIST FWL TEXT
 DFST.                        :  DIST FSL TEXT
 DMF .             Drill Floor:  DRILL MEAS FROM
 STIM.      22.38.56 15-Feb-20:  START TIME
 DATE.      22.38.56 15-Feb-20:  END TIME
 SPUD.               15-Feb-20:  SPUD DATE
 NREF.                    Grid:  NORTH REFERENCE
 HPTY.       Minimum Curvature:  HOLE POS TYPE
 DMOD.             Drill Model:  DRILL MOD DESC
 SVYD.                  Survey:  SURVEY DESC
 ILTD.               Lithology:  INTERP LTH DESC
 FTOP.          Formation Tops:  FORM TOPS DESC
 SON .        AZ-XX-0906019077:  JOB NUMBER
 PDAT.          Mean Sea Level:  PERMANENT DATUM
 WTYP.                Deviated:  WELL TYPE
 MDS .        Operator Entered:  MAG DATA SOURCE
 COMP.     BP Exploration (Caspian sea) Ltd.:  COMPANY
 UWI .                     N/A:  UNIQUE WELL IDENTIFIER
 API .                     N/A:  API NUMBER
 BASE.              Azerbaijan:  LOGGING EQUIPMENT BASE LOCATION
 REGN.                   EESSA:  REGION
 PROV.                     N/A:  PROVINCE
 STAT.                     N/A:  STATE NAME
 CTRY.              Azerbaijan:  COUNTRY NAME
 FLD .                     ACG:  FIELD NAME
 SRVC.          Turan Drilling:  CONTRACTOR
 MWDS.                    Baku:  MWD SHOP
 WELL.                    E16W:  WELL NAME
 JOBN.        AZ-XX-0906019077:  JOB TICKET NUMB
 RIG .                     DWG:  RIG NAME
 CNTY.                     N/A:  COUNTY NAME
 DCON.         Sperry Drilling:  DIRECTNL CONTR
 UNIT.                     N/A:  LOGGING EQUIPMENT ID
 LOC .                        :  LOCATION
 LMF .             Drill Floor:  LOG MEASURED FROM
 TVDS.m                  43.16:  TVDSS CORRECTN
 LATI.deg                40.17:  LATITUDE
 LONG.deg                51.17:  LONGITUDE
 WHNS.m                 -15.30:  WELL HEAD N/S
 WHEW.m                  -1.29:  WELL HEAD E/W
 UTMX.m              514337.95:  UTM X
 UTMY.m             4448627.46:  UTM Y
 DFWL.m                   0.00:  DISTANCE FWL
 DFSL.m                   0.00:  DISTANCE FSL
 SDEP.m                3499.01:  START DEPTH
 TDD .m                4422.01:  TOTAL DEPTH (DRILLER)
 VSDR.deg               151.14:  VERT SEC DIRECT
 GVFD.g                   1.00:  GRAVITY FIELD
 MFLD.nT              50334.00:  MAGNETIC FIELD
 MDIP.deg                59.62:  MAGNETIC DIP
 MDEC.deg                 6.46:  MAGNETIC DECL
 GRDC.deg                 0.12:  GRID CORRECTION
 AZTC.deg                 6.34:  AZM TOTAL CORR
 EPD .m                   0.00:  ELEVATION
 EGL .m                   0.00:  GROUND ELEVATION
 WDMS.m                 176.20:  WD ELEV
 APD .m                  43.16:  DEPTH ABOVE PD
 VSEW.m                  -1.29:  VERT SEC E/W
 VSNS.m                 -15.30:  VERT SEC N/S
 AGAP.m                  43.16:  AIR GAP
 EKB .m                   0.00:  KB ELEVATION
 EDF .m                  43.16:  DF ELEVATION
 TDL .m                  81.00:  TOTAL DEPTH (LOGGER)
 VSC .                       0:  VS TO CLOSURE
 MAGU.                 1852525:  MAGUTM CHECKSUM
~Parameter Information Block
#MNEM.UNIT       Value        Description
#---------     -----------    ---------------------------
 AV  .mps                 1.00:  Ann Velocity 
 AVMX.mps                 1.32:  Max Ann Veloc 
 AZIF.deg               141.43:  Azm, Final 
 BHAT.        Rotary Steerable:  BHA Type 
 BREV.rev            107699.99:  Rev Bit Total 
 BROT.°/30m              -0.88:  Build Rotating 
 BS  .in                  6.50:  Bit Size 
 BSZ .in                  6.50:  Bit Size 
 BTPL.psig              222.00:  Bit Press Loss 
 CABU.                     Yes:  Customer Abuse 
 CGEO.        Ali Isfandiyarov:  Customer Geo 
 TCS .hr                 23.12:  Time Ciculation Ended 
 CV  .mps                 2.20:  Crit Velocity 
 CVMX.mps                 3.01:  Max Crit Veloc 
 DD1 .         Intigam Rahimov:  Direct Drillr 1 
 DDSV.               Geo-Pilot:  DD Service 
 DEFF.%                 100.00:  % Det Eff 
 DLRX.°/30m               0.90:  Dogleg Rot Max 
 DLSO.°/30m               0.00:  Dogleg Oriented 
 DLSX.°/30m               0.00:  Dogleg Str Max 
 DRET.      20.00.00 21-Mar-20:  Drill End Time 
 DRST.      04.30.00 20-Mar-20:  Drill Start Tim 
 DTIM.hr                  8.99:  Time Drilling 
 EDEP.m                4503.01:  End Depth 
 ENG1.          Rasim Hashimov:  Engineer 1 
 ENG2.         Yevgeniy Ulikov:  Engineer 2 
 ETIM.      14.43.10 22-Mar-20:  End Time 
 FLOI.gpm               350.00:  Flow In 
 FLON.gpm               300.00:  Flow In Min 
 FLOS.cptm                0.00:  Fluid Loss 
 FLOX.gpm               400.00:  Flow In Max 
 FTRO.       Formation Presure:  FTWD Run Obj 
 HFLO.                      No:  High Flow 
 HPRE.                      No:  High Pressure 
 HTEM.                      No:  High Temp 
 HYDO.m                   1.80:  Hydro Offset 
 IFIN.deg                78.17:  Inc, Final 
 IMAX.deg                79.31:  Inc Max 
 IMIN.deg                78.75:  Inc Min 
 IMND.m                4474.16:  Inc Min Depth 
 IMXD.m                4445.88:  Inc Max Depth 
 JARR.                      No:  Jarring 
 LETM.      20.00.00 21-Mar-20:  Log End Time 
 LOST.hr                     0:  Lost Rig Time 
 LSTM.      04.30.00 19-Mar-20:  Log Start Time 
 MDCL.ppm             39500.00:  Mud Chlorides 
 MDES.     Inversion Oil/Synthetic:  Mud Desc 
 DFD .sg                  1.40:  Mud Density 
 MDMN.sg                  1.40:  Dens Mud Min 
 MDMX.sg                  1.40:  Dens Mud Max 
 MOIL.                      55:  Run Mud Oil % 
 MOWR.                   68:32:  Run Mud OWR 
 MSND.                     0.1:  Run Mud Sand % 
 MSOL.                       1:  Run Mud Solids% 
 DFV .spqt               78.00:  Mud Viscosity 
 MWOD.in                  4.75:  MWD Tool OD 
 MWSI.                      No:  Serv Intrp, MWD 
 OTIM.hr                 61.28:  Time Operating 
 PCON.           Look Like New:  Pad Condition 
 PMAX.psia             9103.94:  Press Op, Max 
 PV  .cP                 25.00:  Mud PV 
 RUN .                     800:  Run Number 
 ROPA.m/hr                7.10:  ROP Avg 
 ROPN.m/hr                2.40:  ROP Min 
 ROPX.m/hr               12.00:  ROP Max 
 RPMA.rpm               120.00:  RPM Surface Avg 
 RPMN.rpm                80.00:  RPM Surface Min 
 RPMX.rpm               140.00:  RPM Surface Max 
 RRUN.                    L203:  Rig Run Number 
 RTIM.hr                  6.50:  Time Reaming 
 SAZI.deg               140.14:  Azm, Start 
 SDEP.m                4422.01:  Start Depth 
 SIDD.                     Yes:  Serv Intrp, DD 
 SINC.deg                80.07:  Inc, Start 
 SPPA.psig             4619.00:  SPP Avg 
 SPPN.psig             3980.00:  SPP Min 
 SPPX.psig             5100.00:  SPP Max 
 STIM.      22.30.00 19-Mar-20:  Start Time 
 SVCS.                 DD, MWD:  Services 
 SVER.                    9.20:  Sperry Version 
 TDAT.m                  81.00:  Tot Depth Attmp 
 TDDF.                     Yes:  Trip for DD 
 TDLG.m                  81.00:  Tot Depth Loggd 
 TFF .                      No:  Trip for Fail 
 TQAA.f-kp               12.50:  Torque Abs Avg 
 TQAN.f-kp               12.00:  Torque Abs Min 
 TQAX.f-kp               14.00:  Torque Abs Max 
 TRRT.°/30m               0.25:  Turn Rotating 
 MRT .                    HCIM:  Maximum Recorded Temperature 
 TTMX.degC               86.27:  Max Tool Temp 
 VS01.         90595989G12V7D4:  Virtual Str1 SN 
 VS02.            90519330D5C4:  Virtual Str2 SN 
 VS03.             90522014R12:  Virtual Str3 SN 
 VS04.          90522272N2L2C4:  Virtual Str4 SN 
 VS05.      90512713X1Z1W1X1C4:  Virtual Str5 SN 
 WBMN.klb                 3.00:  WOB Min 
 WITN.        Elmaddin Rahimov:  Customer Rep 
 WOBA.klb                 5.60:  WOB Avg 
 WOBX.klb                 7.00:  WOB Max 
 YP  .lhf2               28.00:  Yield Point 
~Curve Information Block
#MNEM.UNIT                 API CODE     Curve Description
#---------               -----------    ---------------------------
 TIME.HHMMSS            00 000 000 000:  GT Time & Date
 GTDEPTH.m              00 000 000 000:  GT Depth
 GTPQH.psia             00 000 000 000:  GT HR Quartz Pressure
 GTTQ.degC              00 000 000 000:  GT Quartz Temperature
 GTTN.NONE              00 000 000 000:  GT Test Number
 GTET.sec               00 000 000 000:  GT Elapsed Test Time
 GTTVD.m                00 000 000 000:  GT True Vertical Depth
#Other Information
#
#WARRANTY: Halliburton will use its best efforts to furnish customers with 
#accurate information and interpretations that are part of, and incident to, the services 
#provided.  However, Halliburton cannot and does not warrant the accuracy 
#or correctness of such information and interpretations.  Under no circumstances should any 
#such information or interpretation be relied upon as the sole basis for any drilling, 
#completion, production, or financial decision or any procedure involving any risk to the 
#safety of any drilling venture, drilling rig or its crew or any other third party.  The 
#Customer has full responsibility for all drilling, completion and production operation.  
#Halliburton makes no representations or warranties, either expressed or 
#implied, including, but not limited to, the implied warranties of merchantability or fitness 
#for a particular purpose, with respect to the services rendered.  In no event will 
#Halliburton be liable for failure to obtain any particular results or for 
#any damages, including, but not limited to, indirect, special or consequential damages, 
#resulting from the use of any information or interpretation provided by Halliburton.
#
~A           TIME           GTDEPTH  GTPQH  GTTQ  GTTN  GTET   GTTVD  
# ...
   13:23:31.420.21-Mar-2020 4435.61 4647.37 73.20 1.00 184.03 3146.67
   13:23:31.620.21-Mar-2020 4435.61 4647.37 73.20 1.00 184.23 3146.67
   13:23:31.820.21-Mar-2020 4435.61 4647.36 73.20 1.00 184.43 3146.67
   13:23:32.020.21-Mar-2020 4435.61 4647.38 73.20 1.00 184.63 3146.67
   13:23:32.220.21-Mar-2020 4435.61 4647.39 73.20 1.00 184.83 3146.67
   13:23:32.421.21-Mar-2020 4435.61 4647.00 73.20 1.00 185.03 3146.67
   13:23:32.621.21-Mar-2020 4435.61 4647.00 73.20 1.00 185.23 3146.67
   13:23:32.821.21-Mar-2020 4435.61 4647.37 73.20 1.00 185.43 3146.67
   13:23:33.021.21-Mar-2020 4435.61 4647.30 73.20 1.00 185.63 3146.67
   13:23:33.221.21-Mar-2020 4435.61 4647.08 73.20 1.00 185.83 3146.67
   13:23:33.421.21-Mar-2020 4435.61 4647.46 73.20 1.00 186.03 3146.67
   13:23:33.621.21-Mar-2020 4435.61 4647.46 73.20 1.00 186.23 3146.67
   13:23:33.821.21-Mar-2020 4435.61 4647.48 73.20 1.00 186.43 3146.67
   13:23:34.021.21-Mar-2020 4435.61 4647.09 73.20 1.00 186.63 3146.67
   13:23:34.221.21-Mar-2020 4435.61 4647.48 73.19 1.00 186.83 3146.67
   13:23:34.421.21-Mar-2020 4435.61 4647.54 73.19 1.00 187.03 3146.67
   13:23:34.621.21-Mar-2020 4435.61 4647.54 73.19 1.00 187.23 3146.67
   13:23:34.821.21-Mar-2020 4435.61 4647.42 73.19 1.00 187.43 3146.67
   13:23:35.021.21-Mar-2020 4435.61 4647.45 73.19 1.00 187.63 3146.67
   13:23:35.221.21-Mar-2020 4435.61 4647.48 73.19 1.00 187.83 3146.67
   13:23:35.421.21-Mar-2020 4435.61 4647.39 73.19 1.00 188.03 3146.67
   13:23:35.621.21-Mar-2020 4435.61 4647.39 73.19 1.00 188.23 3146.67
   13:23:35.821.21-Mar-2020 4435.61 4647.41 73.19 1.00 188.43 3146.67
   13:23:36.021.21-Mar-2020 4435.61 4647.05 73.19 1.00 188.63 3146.67
   13:23:36.221.21-Mar-2020 4435.61 4647.50 73.19 1.00 188.83 3146.67
   13:23:36.421.21-Mar-2020 4435.61 4647.43 73.19 1.00 189.03 3146.67
   13:23:36.621.21-Mar-2020 4435.61 4647.43 73.19 1.00 189.23 3146.67
   13:23:36.821.21-Mar-2020 4435.61 4647.42 73.19 1.00 189.43 3146.67
   13:23:37.021.21-Mar-2020 4435.61 4647.39 73.19 1.00 189.63 3146.67
   13:23:37.221.21-Mar-2020 4435.61 4647.37 73.19 1.00 189.83 3146.67
   13:23:37.421.21-Mar-2020 4435.61 4647.38 73.19 1.00 190.03 3146.67
   13:23:37.621.21-Mar-2020 4435.61 4647.38 73.19 1.00 190.23 3146.67
   13:23:37.821.21-Mar-2020 4435.61 4647.42 73.19 1.00 190.43 3146.67
   13:23:38.021.21-Mar-2020 4435.61 4647.51 73.19 1.00 190.63 3146.67
   13:23:38.221.21-Mar-2020 4435.61 4647.48 73.19 1.00 190.83 3146.67
   13:23:38.421.21-Mar-2020 4435.61 4647.44 73.19 1.00 191.03 3146.67
   13:23:38.621.21-Mar-2020 4435.61 4647.44 73.19 1.00 191.23 3146.67
   13:23:38.821.21-Mar-2020 4435.61 4647.42 73.19 1.00 191.43 3146.67
   13:23:39.021.21-Mar-2020 4435.61 4647.46 73.19 1.00 191.63 3146.67
   13:23:39.221.21-Mar-2020 4435.61 4647.44 73.19 1.00 191.83 3146.67
   13:23:39.422.21-Mar-2020 4435.61 4647.11 73.19 1.00 192.03 3146.67
   13:23:39.622.21-Mar-2020 4435.61 4647.11 73.19 1.00 192.23 3146.67
   13:23:39.822.21-Mar-2020 4435.61 4647.50 73.19 1.00 192.43 3146.67
   13:23:40.022.21-Mar-2020 4435.61 4647.49 73.19 1.00 192.63 3146.67
   13:23:40.222.21-Mar-2020 4435.61 4647.07 73.19 1.00 192.83 3146.67
   13:23:40.422.21-Mar-2020 4435.61 4647.47 73.19 1.00 193.03 3146.67
   13:23:40.622.21-Mar-2020 4435.61 4647.47 73.19 1.00 193.23 3146.67
   13:23:40.822.21-Mar-2020 4435.61 4647.56 73.19 1.00 193.43 3146.67
   13:23:41.022.21-Mar-2020 4435.61 4647.26 73.19 1.00 193.63 3146.67
   13:23:41.222.21-Mar-2020 4435.61 4647.42 73.19 1.00 193.83 3146.67
   13:23:41.422.21-Mar-2020 4435.61 4647.58 73.19 1.00 194.03 3146.67
   13:23:41.622.21-Mar-2020 4435.61 4647.58 73.19 1.00 194.23 3146.67
   13:23:41.822.21-Mar-2020 4435.61 4647.45 73.19 1.00 194.43 3146.67
   13:23:42.022.21-Mar-2020 4435.61 4647.49 73.19 1.00 194.63 3146.67
   13:23:42.222.21-Mar-2020 4435.61 4647.55 73.19 1.00 194.83 3146.67
   13:23:42.422.21-Mar-2020 4435.61 4647.48 73.19 1.00 195.03 3146.67
   13:23:42.622.21-Mar-2020 4435.61 4647.48 73.19 1.00 195.23 3146.67
   13:23:42.822.21-Mar-2020 4435.61 4647.49 73.19 1.00 195.43 3146.67
   13:23:43.022.21-Mar-2020 4435.61 4647.07 73.19 1.00 195.63 3146.67
   13:23:43.222.21-Mar-2020 4435.61 4647.53 73.19 1.00 195.83 3146.67
   13:23:43.422.21-Mar-2020 4435.61 4647.47 73.19 1.00 196.03 3146.67
   13:23:43.622.21-Mar-2020 4435.61 4647.47 73.19 1.00 196.23 3146.67
   13:23:43.822.21-Mar-2020 4435.61 4647.48 73.19 1.00 196.43 3146.67
   13:23:44.022.21-Mar-2020 4435.61 4647.41 73.19 1.00 196.63 3146.67
   13:23:44.222.21-Mar-2020 4435.61 4647.43 73.19 1.00 196.83 3146.67
   13:23:44.422.21-Mar-2020 4435.61 4647.41 73.19 1.00 197.03 3146.67
   13:23:44.622.21-Mar-2020 4435.61 4647.41 73.19 1.00 197.23 3146.67
   13:23:44.822.21-Mar-2020 4435.61 4647.46 73.19 1.00 197.43 3146.67
   13:23:45.022.21-Mar-2020 4435.61 4647.51 73.19 1.00 197.63 3146.67
   13:23:45.222.21-Mar-2020 4435.61 4647.52 73.19 1.00 197.83 3146.67
   13:23:45.422.21-Mar-2020 4435.61 4647.49 73.19 1.00 198.03 3146.67
   13:23:45.622.21-Mar-2020 4435.61 4647.49 73.19 1.00 198.23 3146.67
   13:23:45.822.21-Mar-2020 4435.61 4647.39 73.19 1.00 198.43 3146.67
   13:23:46.022.21-Mar-2020 4435.61 4647.48 73.19 1.00 198.63 3146.67
   13:23:46.222.21-Mar-2020 4435.61 4647.50 73.19 1.00 198.83 3146.67
   13:23:46.423.21-Mar-2020 4435.61 4647.27 73.19 1.00 199.03 3146.67
   13:23:46.623.21-Mar-2020 4435.61 4647.27 73.19 1.00 199.23 3146.67
   13:23:46.823.21-Mar-2020 4435.61 4647.55 73.18 1.00 199.43 3146.67
   13:23:47.023.21-Mar-2020 4435.61 4647.50 73.18 1.00 199.63 3146.67
   13:23:47.223.21-Mar-2020 4435.61 4647.05 73.18 1.00 199.83 3146.67
   13:23:47.423.21-Mar-2020 4435.61 4647.45 73.18 1.00 200.03 3146.67
   13:23:47.623.21-Mar-2020 4435.61 4647.45 73.18 1.00 200.23 3146.67
   13:23:47.823.21-Mar-2020 4435.61 4647.56 73.18 1.00 200.43 3146.67
   13:23:48.023.21-Mar-2020 4435.61 4647.46 73.18 1.00 200.63 3146.67
   13:23:48.223.21-Mar-2020 4435.61 4647.20 73.18 1.00 200.83 3146.67
   13:23:48.423.21-Mar-2020 4435.61 4647.61 73.18 1.00 201.03 3146.67
   13:23:48.623.21-Mar-2020 4435.61 4647.61 73.18 1.00 201.23 3146.67
   13:23:48.823.21-Mar-2020 4435.61 4647.50 73.18 1.00 201.43 3146.67
   13:23:49.023.21-Mar-2020 4435.61 4647.50 73.18 1.00 201.63 3146.67
   13:23:49.223.21-Mar-2020 4435.61 4647.56 73.18 1.00 201.83 3146.67
   13:23:49.423.21-Mar-2020 4435.61 4647.53 73.18 1.00 202.03 3146.67
   13:23:49.623.21-Mar-2020 4435.61 4647.53 73.18 1.00 202.23 3146.67
   13:23:49.823.21-Mar-2020 4435.61 4647.51 73.18 1.00 202.43 3146.67
   13:23:50.023.21-Mar-2020 4435.61 4647.12 73.18 1.00 202.63 3146.67
   13:23:50.223.21-Mar-2020 4435.61 4647.53 73.18 1.00 202.83 3146.67
   13:23:50.423.21-Mar-2020 4435.61 4647.56 73.18 1.00 203.03 3146.67
   13:23:50.623.21-Mar-2020 4435.61 4647.56 73.18 1.00 203.23 3146.67
   13:23:50.823.21-Mar-2020 4435.61 4647.51 73.18 1.00 203.43 3146.67
   13:23:51.023.21-Mar-2020 4435.61 4647.47 73.18 1.00 203.63 3146.67
   13:23:51.223.21-Mar-2020 4435.61 4647.42 73.18 1.00 203.83 3146.67
   13:23:51.423.21-Mar-2020 4435.61 4647.47 73.18 1.00 204.03 3146.67
   13:23:51.623.21-Mar-2020 4435.61 4647.47 73.18 1.00 204.23 3146.67
   13:23:51.823.21-Mar-2020 4435.61 4647.46 73.18 1.00 204.43 3146.67
   13:23:52.023.21-Mar-2020 4435.61 4647.54 73.18 1.00 204.63 3146.67
   13:23:52.223.21-Mar-2020 4435.61 4647.53 73.18 1.00 204.83 3146.67
   13:23:52.423.21-Mar-2020 4435.61 4647.47 73.18 1.00 205.03 3146.67
   13:23:52.623.21-Mar-2020 4435.61 4647.47 73.18 1.00 205.23 3146.67
   13:23:52.823.21-Mar-2020 4435.61 4647.17 73.18 1.00 205.43 3146.67
   13:23:53.023.21-Mar-2020 4435.61 4647.52 73.18 1.00 205.63 3146.67
   13:23:53.223.21-Mar-2020 4435.61 4647.54 73.18 1.00 205.83 3146.67
   13:23:53.424.21-Mar-2020 4435.61 4647.48 73.18 1.00 206.03 3146.67
   13:23:53.624.21-Mar-2020 4435.61 4647.27 73.18 1.00 206.23 3146.67
   13:23:53.824.21-Mar-2020 4435.61 4647.55 73.18 1.00 206.43 3146.67
   13:23:54.024.21-Mar-2020 4435.61 4647.56 73.18 1.00 206.63 3146.67
   13:23:54.224.21-Mar-2020 4435.61 4647.13 73.18 1.00 206.83 3146.67
