~Version Information
 VERS.                  2.0:   CWLS log ASCII Standard -VERSION 2.0
 WRAP.                   NO:   One line per depth step
~Well Information Block
#MNEM.UNIT     VALUE/NAME     DESCRIPTION
#---------     -----------    ---------------------------
 STRT.S             13:20:27 21-Mar-20: START TIME 13:20:27 21-Mar-20
 STOP.S             13:26:37 21-Mar-20: STOP TIME  13:26:37 21-Mar-20
 STEP.S                   0.00: STEP TIME
 NULL.                 -999.25: NULL VALUE
 DFWT.                        :  DIST FWL TEXT
 DFST.                        :  DIST FSL TEXT
 DMF .             Drill Floor:  DRILL MEAS FROM
 STIM.      22.38.56 15-Feb-20:  START TIME
 DATE.      22.38.56 15-Feb-20:  END TIME
 SPUD.               15-Feb-20:  SPUD DATE
 NREF.                    Grid:  NORTH REFERENCE
 HPTY.       Minimum Curvature:  HOLE POS TYPE
 DMOD.             Drill Model:  DRILL MOD DESC
 SVYD.                  Survey:  SURVEY DESC
 ILTD.               Lithology:  INTERP LTH DESC
 FTOP.          Formation Tops:  FORM TOPS DESC
 SON .        AZ-XX-0906019077:  JOB NUMBER
 PDAT.          Mean Sea Level:  PERMANENT DATUM
 WTYP.                Deviated:  WELL TYPE
 MDS .        Operator Entered:  MAG DATA SOURCE
 COMP.     BP Exploration (Caspian sea) Ltd.:  COMPANY
 UWI .                     N/A:  UNIQUE WELL IDENTIFIER
 API .                     N/A:  API NUMBER
 BASE.              Azerbaijan:  LOGGING EQUIPMENT BASE LOCATION
 REGN.                   EESSA:  REGION
 PROV.                     N/A:  PROVINCE
 STAT.                     N/A:  STATE NAME
 CTRY.              Azerbaijan:  COUNTRY NAME
 FLD .                     ACG:  FIELD NAME
 SRVC.          Turan Drilling:  CONTRACTOR
 MWDS.                    Baku:  MWD SHOP
 WELL.                    E16W:  WELL NAME
 JOBN.        AZ-XX-0906019077:  JOB TICKET NUMB
 RIG .                     DWG:  RIG NAME
 CNTY.                     N/A:  COUNTY NAME
 DCON.         Sperry Drilling:  DIRECTNL CONTR
 UNIT.                     N/A:  LOGGING EQUIPMENT ID
 LOC .                        :  LOCATION
 LMF .             Drill Floor:  LOG MEASURED FROM
 TVDS.m                  43.16:  TVDSS CORRECTN
 LATI.deg                40.17:  LATITUDE
 LONG.deg                51.17:  LONGITUDE
 WHNS.m                 -15.30:  WELL HEAD N/S
 WHEW.m                  -1.29:  WELL HEAD E/W
 UTMX.m              514337.95:  UTM X
 UTMY.m             4448627.46:  UTM Y
 DFWL.m                   0.00:  DISTANCE FWL
 DFSL.m                   0.00:  DISTANCE FSL
 SDEP.m                3499.01:  START DEPTH
 TDD .m                4422.01:  TOTAL DEPTH (DRILLER)
 VSDR.deg               151.14:  VERT SEC DIRECT
 GVFD.g                   1.00:  GRAVITY FIELD
 MFLD.nT              50334.00:  MAGNETIC FIELD
 MDIP.deg                59.62:  MAGNETIC DIP
 MDEC.deg                 6.46:  MAGNETIC DECL
 GRDC.deg                 0.12:  GRID CORRECTION
 AZTC.deg                 6.34:  AZM TOTAL CORR
 EPD .m                   0.00:  ELEVATION
 EGL .m                   0.00:  GROUND ELEVATION
 WDMS.m                 176.20:  WD ELEV
 APD .m                  43.16:  DEPTH ABOVE PD
 VSEW.m                  -1.29:  VERT SEC E/W
 VSNS.m                 -15.30:  VERT SEC N/S
 AGAP.m                  43.16:  AIR GAP
 EKB .m                   0.00:  KB ELEVATION
 EDF .m                  43.16:  DF ELEVATION
 TDL .m                  81.00:  TOTAL DEPTH (LOGGER)
 VSC .                       0:  VS TO CLOSURE
 MAGU.                 1852525:  MAGUTM CHECKSUM
~Parameter Information Block
#MNEM.UNIT       Value        Description
#---------     -----------    ---------------------------
 AV  .mps                 1.00:  Ann Velocity 
 AVMX.mps                 1.32:  Max Ann Veloc 
 AZIF.deg               141.43:  Azm, Final 
 BHAT.        Rotary Steerable:  BHA Type 
 BREV.rev            107699.99:  Rev Bit Total 
 BROT.°/30m              -0.88:  Build Rotating 
 BS  .in                  6.50:  Bit Size 
 BSZ .in                  6.50:  Bit Size 
 BTPL.psig              222.00:  Bit Press Loss 
 CABU.                     Yes:  Customer Abuse 
 CGEO.        Ali Isfandiyarov:  Customer Geo 
 TCS .hr                 23.12:  Time Ciculation Ended 
 CV  .mps                 2.20:  Crit Velocity 
 CVMX.mps                 3.01:  Max Crit Veloc 
 DD1 .         Intigam Rahimov:  Direct Drillr 1 
 DDSV.               Geo-Pilot:  DD Service 
 DEFF.%                 100.00:  % Det Eff 
 DLRX.°/30m               0.90:  Dogleg Rot Max 
 DLSO.°/30m               0.00:  Dogleg Oriented 
 DLSX.°/30m               0.00:  Dogleg Str Max 
 DRET.      20.00.00 21-Mar-20:  Drill End Time 
 DRST.      04.30.00 20-Mar-20:  Drill Start Tim 
 DTIM.hr                  8.99:  Time Drilling 
 EDEP.m                4503.01:  End Depth 
 ENG1.          Rasim Hashimov:  Engineer 1 
 ENG2.         Yevgeniy Ulikov:  Engineer 2 
 ETIM.      14.43.10 22-Mar-20:  End Time 
 FLOI.gpm               350.00:  Flow In 
 FLON.gpm               300.00:  Flow In Min 
 FLOS.cptm                0.00:  Fluid Loss 
 FLOX.gpm               400.00:  Flow In Max 
 FTRO.       Formation Presure:  FTWD Run Obj 
 HFLO.                      No:  High Flow 
 HPRE.                      No:  High Pressure 
 HTEM.                      No:  High Temp 
 HYDO.m                   1.80:  Hydro Offset 
 IFIN.deg                78.17:  Inc, Final 
 IMAX.deg                79.31:  Inc Max 
 IMIN.deg                78.75:  Inc Min 
 IMND.m                4474.16:  Inc Min Depth 
 IMXD.m                4445.88:  Inc Max Depth 
 JARR.                      No:  Jarring 
 LETM.      20.00.00 21-Mar-20:  Log End Time 
 LOST.hr                     0:  Lost Rig Time 
 LSTM.      04.30.00 19-Mar-20:  Log Start Time 
 MDCL.ppm             39500.00:  Mud Chlorides 
 MDES.     Inversion Oil/Synthetic:  Mud Desc 
 DFD .sg                  1.40:  Mud Density 
 MDMN.sg                  1.40:  Dens Mud Min 
 MDMX.sg                  1.40:  Dens Mud Max 
 MOIL.                      55:  Run Mud Oil % 
 MOWR.                   68:32:  Run Mud OWR 
 MSND.                     0.1:  Run Mud Sand % 
 MSOL.                       1:  Run Mud Solids% 
 DFV .spqt               78.00:  Mud Viscosity 
 MWOD.in                  4.75:  MWD Tool OD 
 MWSI.                      No:  Serv Intrp, MWD 
 OTIM.hr                 61.28:  Time Operating 
 PCON.           Look Like New:  Pad Condition 
 PMAX.psia             9103.94:  Press Op, Max 
 PV  .cP                 25.00:  Mud PV 
 RUN .                     800:  Run Number 
 ROPA.m/hr                7.10:  ROP Avg 
 ROPN.m/hr                2.40:  ROP Min 
 ROPX.m/hr               12.00:  ROP Max 
 RPMA.rpm               120.00:  RPM Surface Avg 
 RPMN.rpm                80.00:  RPM Surface Min 
 RPMX.rpm               140.00:  RPM Surface Max 
 RRUN.                    L203:  Rig Run Number 
 RTIM.hr                  6.50:  Time Reaming 
 SAZI.deg               140.14:  Azm, Start 
 SDEP.m                4422.01:  Start Depth 
 SIDD.                     Yes:  Serv Intrp, DD 
 SINC.deg                80.07:  Inc, Start 
 SPPA.psig             4619.00:  SPP Avg 
 SPPN.psig             3980.00:  SPP Min 
 SPPX.psig             5100.00:  SPP Max 
 STIM.      22.30.00 19-Mar-20:  Start Time 
 SVCS.                 DD, MWD:  Services 
 SVER.                    9.20:  Sperry Version 
 TDAT.m                  81.00:  Tot Depth Attmp 
 TDDF.                     Yes:  Trip for DD 
 TDLG.m                  81.00:  Tot Depth Loggd 
 TFF .                      No:  Trip for Fail 
 TQAA.f-kp               12.50:  Torque Abs Avg 
 TQAN.f-kp               12.00:  Torque Abs Min 
 TQAX.f-kp               14.00:  Torque Abs Max 
 TRRT.°/30m               0.25:  Turn Rotating 
 MRT .                    HCIM:  Maximum Recorded Temperature 
 TTMX.degC               86.27:  Max Tool Temp 
 VS01.         90595989G12V7D4:  Virtual Str1 SN 
 VS02.            90519330D5C4:  Virtual Str2 SN 
 VS03.             90522014R12:  Virtual Str3 SN 
 VS04.          90522272N2L2C4:  Virtual Str4 SN 
 VS05.      90512713X1Z1W1X1C4:  Virtual Str5 SN 
 WBMN.klb                 3.00:  WOB Min 
 WITN.        Elmaddin Rahimov:  Customer Rep 
 WOBA.klb                 5.60:  WOB Avg 
 WOBX.klb                 7.00:  WOB Max 
 YP  .lhf2               28.00:  Yield Point 
~Curve Information Block
#MNEM.UNIT                 API CODE     Curve Description
#---------               -----------    ---------------------------
 TIME.HHMMSS            00 000 000 000:  GT Time & Date
 GTDEPTH.m              00 000 000 000:  GT Depth
 GTPQH.psia             00 000 000 000:  GT HR Quartz Pressure
 GTTQ.degC              00 000 000 000:  GT Quartz Temperature
 GTTN.NONE              00 000 000 000:  GT Test Number
 GTET.sec               00 000 000 000:  GT Elapsed Test Time
 GTTVD.m                00 000 000 000:  GT True Vertical Depth
#Other Information
#
#WARRANTY: Halliburton will use its best efforts to furnish customers with 
#accurate information and interpretations that are part of, and incident to, the services 
#provided.  However, Halliburton cannot and does not warrant the accuracy 
#or correctness of such information and interpretations.  Under no circumstances should any 
#such information or interpretation be relied upon as the sole basis for any drilling, 
#completion, production, or financial decision or any procedure involving any risk to the 
#safety of any drilling venture, drilling rig or its crew or any other third party.  The 
#Customer has full responsibility for all drilling, completion and production operation.  
#Halliburton makes no representations or warranties, either expressed or 
#implied, including, but not limited to, the implied warranties of merchantability or fitness 
#for a particular purpose, with respect to the services rendered.  In no event will 
#Halliburton be liable for failure to obtain any particular results or for 
#any damages, including, but not limited to, indirect, special or consequential damages, 
#resulting from the use of any information or interpretation provided by Halliburton.
#
~A           TIME           GTDEPTH  GTPQH  GTTQ  GTTN  GTET   GTTVD  
# ...
   13:24:17.427.21-Mar-2020 4435.61 3977.42 73.15 1.00 230.03 3146.67
   13:24:17.627.21-Mar-2020 4435.61 3977.42 73.15 1.00 230.23 3146.67
   13:24:17.827.21-Mar-2020 4435.61 3977.37 73.15 1.00 230.43 3146.67
   13:24:18.027.21-Mar-2020 4435.61 3979.86 73.15 1.00 230.63 3146.67
   13:24:18.227.21-Mar-2020 4435.61 3997.97 73.15 1.00 230.83 3146.67
   13:24:18.427.21-Mar-2020 4435.61 4258.76 73.15 1.00 231.03 3146.67
   13:24:18.627.21-Mar-2020 4435.61 4258.76 73.15 1.00 231.23 3146.67
   13:24:18.827.21-Mar-2020 4435.61 4560.31 73.15 1.00 231.43 3146.67
   13:24:19.027.21-Mar-2020 4435.61 4603.06 73.15 1.00 231.63 3146.67
   13:24:19.227.21-Mar-2020 4435.61 4622.59 73.15 1.00 231.83 3146.67
   13:24:19.427.21-Mar-2020 4435.61 4631.96 73.15 1.00 232.03 3146.67
   13:24:19.627.21-Mar-2020 4435.61 4631.96 73.15 1.00 232.23 3146.67
   13:24:19.827.21-Mar-2020 4435.61 4639.38 73.15 1.00 232.43 3146.67
   13:24:20.027.21-Mar-2020 4435.61 4640.91 73.15 1.00 232.63 3146.67
   13:24:20.227.21-Mar-2020 4435.61 4642.01 73.15 1.00 232.83 3146.67
   13:24:20.427.21-Mar-2020 4435.61 4642.75 73.15 1.00 233.03 3146.67
   13:24:20.627.21-Mar-2020 4435.61 4642.75 73.15 1.00 233.23 3146.67
   13:24:20.827.21-Mar-2020 4435.61 4643.59 73.15 1.00 233.43 3146.67
   13:24:21.027.21-Mar-2020 4435.61 4643.37 73.15 1.00 233.63 3146.67
   13:24:21.227.21-Mar-2020 4435.61 4644.12 73.15 1.00 233.83 3146.67
   13:24:21.428.21-Mar-2020 4435.61 4644.42 73.15 1.00 234.03 3146.67
   13:24:21.628.21-Mar-2020 4435.61 4644.42 73.15 1.00 234.23 3146.67
   13:24:21.828.21-Mar-2020 4435.61 4644.74 73.15 1.00 234.43 3146.67
   13:24:22.028.21-Mar-2020 4435.61 4645.06 73.15 1.00 234.63 3146.67
   13:24:22.228.21-Mar-2020 4435.61 4645.34 73.15 1.00 234.83 3146.67
   13:24:22.428.21-Mar-2020 4435.61 4645.41 73.15 1.00 235.03 3146.67
   13:24:22.628.21-Mar-2020 4435.61 4645.41 73.15 1.00 235.23 3146.67
   13:24:22.828.21-Mar-2020 4435.61 4645.71 73.15 1.00 235.43 3146.67
   13:24:23.028.21-Mar-2020 4435.61 4645.88 73.15 1.00 235.63 3146.67
   13:24:23.228.21-Mar-2020 4435.61 4645.68 73.15 1.00 235.83 3146.67
   13:24:23.428.21-Mar-2020 4435.61 4645.86 73.15 1.00 236.03 3146.67
   13:24:23.628.21-Mar-2020 4435.61 4645.86 73.15 1.00 236.23 3146.67
   13:24:23.828.21-Mar-2020 4435.61 4646.08 73.15 1.00 236.43 3146.67
   13:24:24.028.21-Mar-2020 4435.61 4646.12 73.15 1.00 236.63 3146.67
   13:24:24.228.21-Mar-2020 4435.61 4646.12 73.15 1.00 236.83 3146.67
   13:24:24.428.21-Mar-2020 4435.61 4646.14 73.15 1.00 237.03 3146.67
   13:24:24.628.21-Mar-2020 4435.61 4646.14 73.15 1.00 237.23 3146.67
   13:24:24.828.21-Mar-2020 4435.61 4646.23 73.15 1.00 237.43 3146.67
   13:24:25.028.21-Mar-2020 4435.61 4646.15 73.15 1.00 237.63 3146.67
   13:24:25.228.21-Mar-2020 4435.61 4646.11 73.15 1.00 237.83 3146.67
   13:24:25.428.21-Mar-2020 4435.61 4646.25 73.15 1.00 238.03 3146.67
   13:24:25.628.21-Mar-2020 4435.61 4646.25 73.15 1.00 238.23 3146.67
   13:24:25.828.21-Mar-2020 4435.61 4646.41 73.15 1.00 238.43 3146.67
   13:24:26.028.21-Mar-2020 4435.61 4646.38 73.15 1.00 238.63 3146.67
   13:24:26.228.21-Mar-2020 4435.61 4646.43 73.15 1.00 238.83 3146.67
   13:24:26.428.21-Mar-2020 4435.61 4646.45 73.15 1.00 239.03 3146.67
   13:24:26.628.21-Mar-2020 4435.61 4646.45 73.15 1.00 239.23 3146.67
   13:24:26.828.21-Mar-2020 4435.61 4646.49 73.15 1.00 239.43 3146.67
   13:24:27.028.21-Mar-2020 4435.61 4646.49 73.15 1.00 239.63 3146.67
   13:24:27.228.21-Mar-2020 4435.61 4646.59 73.15 1.00 239.83 3146.67
   13:24:27.428.21-Mar-2020 4435.61 4646.67 73.15 1.00 240.03 3146.67
   13:24:27.628.21-Mar-2020 4435.61 4646.67 73.15 1.00 240.23 3146.67
   13:24:27.828.21-Mar-2020 4435.61 4646.62 73.15 1.00 240.43 3146.67
   13:24:28.028.21-Mar-2020 4435.61 4646.25 73.15 1.00 240.63 3146.67
   13:24:28.228.21-Mar-2020 4435.61 4646.62 73.15 1.00 240.83 3146.67
   13:24:28.429.21-Mar-2020 4435.61 4646.70 73.15 1.00 241.03 3146.67
   13:24:28.629.21-Mar-2020 4435.61 4646.70 73.15 1.00 241.23 3146.67
   13:24:28.829.21-Mar-2020 4435.61 4646.75 73.15 1.00 241.43 3146.67
   13:24:29.029.21-Mar-2020 4435.61 4646.53 73.15 1.00 241.63 3146.67
   13:24:29.229.21-Mar-2020 4435.61 4646.86 73.15 1.00 241.83 3146.67
   13:24:29.429.21-Mar-2020 4435.61 4646.89 73.15 1.00 242.03 3146.67
   13:24:29.629.21-Mar-2020 4435.61 4646.89 73.15 1.00 242.23 3146.67
   13:24:29.829.21-Mar-2020 4435.61 4646.54 73.15 1.00 242.43 3146.67
   13:24:30.029.21-Mar-2020 4435.61 4646.99 73.15 1.00 242.63 3146.67
   13:24:30.229.21-Mar-2020 4435.61 4646.97 73.15 1.00 242.83 3146.67
   13:24:30.429.21-Mar-2020 4435.61 4647.00 73.15 1.00 243.03 3146.67
   13:24:30.629.21-Mar-2020 4435.61 4647.00 73.15 1.00 243.23 3146.67
   13:24:30.829.21-Mar-2020 4435.61 4646.97 73.15 1.00 243.43 3146.67
   13:24:31.029.21-Mar-2020 4435.61 4647.08 73.15 1.00 243.63 3146.67
   13:24:31.229.21-Mar-2020 4435.61 4646.96 73.15 1.00 243.83 3146.67
   13:24:31.429.21-Mar-2020 4435.61 4647.00 73.15 1.00 244.03 3146.67
   13:24:31.629.21-Mar-2020 4435.61 4647.00 73.15 1.00 244.23 3146.67
   13:24:31.829.21-Mar-2020 4435.61 4646.99 73.15 1.00 244.43 3146.67
   13:24:32.029.21-Mar-2020 4435.61 4647.00 73.15 1.00 244.63 3146.67
   13:24:32.229.21-Mar-2020 4435.61 4646.89 73.15 1.00 244.83 3146.67
   13:24:32.429.21-Mar-2020 4435.61 4646.96 73.15 1.00 245.03 3146.67
   13:24:32.629.21-Mar-2020 4435.61 4646.96 73.15 1.00 245.23 3146.67
   13:24:32.829.21-Mar-2020 4435.61 4646.96 73.15 1.00 245.44 3146.67
   13:24:33.029.21-Mar-2020 4435.61 4647.00 73.15 1.00 245.64 3146.67
   13:24:33.229.21-Mar-2020 4435.61 4646.96 73.15 1.00 245.84 3146.67
   13:24:33.429.21-Mar-2020 4435.61 4646.94 73.15 1.00 246.04 3146.67
   13:24:33.629.21-Mar-2020 4435.61 4646.94 73.15 1.00 246.24 3146.67
   13:24:33.829.21-Mar-2020 4435.61 4646.95 73.15 1.00 246.44 3146.67
   13:24:34.029.21-Mar-2020 4435.61 4646.98 73.15 1.00 246.64 3146.67
   13:24:34.229.21-Mar-2020 4435.61 4646.96 73.15 1.00 246.84 3146.67
   13:24:34.429.21-Mar-2020 4435.61 4647.00 73.15 1.00 247.04 3146.67
   13:24:34.629.21-Mar-2020 4435.61 4647.00 73.15 1.00 247.24 3146.67
   13:24:34.829.21-Mar-2020 4435.61 4647.00 73.15 1.00 247.44 3146.67
   13:24:35.029.21-Mar-2020 4435.61 4647.00 73.15 1.00 247.64 3146.67
   13:24:35.229.21-Mar-2020 4435.61 4646.59 73.15 1.00 247.84 3146.67
   13:24:35.429.21-Mar-2020 4435.61 4646.87 73.15 1.00 248.04 3146.67
   13:24:35.630.21-Mar-2020 4435.61 4646.87 73.15 1.00 248.24 3146.67
   13:24:35.830.21-Mar-2020 4435.61 4647.06 73.15 1.00 248.44 3146.67
   13:24:36.030.21-Mar-2020 4435.61 4646.75 73.15 1.00 248.64 3146.67
   13:24:36.230.21-Mar-2020 4435.61 4647.09 73.15 1.00 248.84 3146.67
   13:24:36.430.21-Mar-2020 4435.61 4647.15 73.15 1.00 249.04 3146.67
   13:24:36.630.21-Mar-2020 4435.61 4647.15 73.15 1.00 249.24 3146.67
   13:24:36.830.21-Mar-2020 4435.61 4646.87 73.15 1.00 249.44 3146.67
   13:24:37.030.21-Mar-2020 4435.61 4647.20 73.15 1.00 249.64 3146.67
   13:24:37.230.21-Mar-2020 4435.61 4647.24 73.15 1.00 249.84 3146.67
   13:24:37.430.21-Mar-2020 4435.61 4647.21 73.15 1.00 250.04 3146.67
   13:24:37.630.21-Mar-2020 4435.61 4647.21 73.15 1.00 250.24 3146.67
   13:24:37.830.21-Mar-2020 4435.61 4646.87 73.15 1.00 250.44 3146.67
   13:24:38.030.21-Mar-2020 4435.61 4647.26 73.15 1.00 250.64 3146.67
   13:24:38.230.21-Mar-2020 4435.61 4647.24 73.15 1.00 250.84 3146.67
   13:24:38.430.21-Mar-2020 4435.61 4647.14 73.15 1.00 251.04 3146.67
   13:24:38.630.21-Mar-2020 4435.61 4647.14 73.15 1.00 251.24 3146.67
   13:24:38.830.21-Mar-2020 4435.61 4647.18 73.15 1.00 251.44 3146.67
   13:24:39.030.21-Mar-2020 4435.61 4647.13 73.15 1.00 251.64 3146.67
   13:24:39.230.21-Mar-2020 4435.61 4647.13 73.15 1.00 251.84 3146.67
   13:24:39.430.21-Mar-2020 4435.61 4647.09 73.15 1.00 252.04 3146.67
   13:24:39.630.21-Mar-2020 4435.61 4647.09 73.15 1.00 252.24 3146.67
   13:24:39.830.21-Mar-2020 4435.61 4647.08 73.15 1.00 252.44 3146.67
   13:24:40.030.21-Mar-2020 4435.61 4647.13 73.15 1.00 252.64 3146.67
   13:24:40.230.21-Mar-2020 4435.61 4647.17 73.15 1.00 252.84 3146.67
