~Version Information
 VERS.                  2.0:   CWLS log ASCII Standard -VERSION 2.0
 WRAP.                   NO:   One line per depth step
~Well Information Block
#MNEM.UNIT     VALUE/NAME     DESCRIPTION
#---------     -----------    ---------------------------
 STRT.S             13:20:27 21-Mar-20: START TIME 13:20:27 21-Mar-20
 STOP.S             13:26:37 21-Mar-20: STOP TIME  13:26:37 21-Mar-20
 STEP.S                   0.00: STEP TIME
 NULL.                 -999.25: NULL VALUE
 DFWT.                        :  DIST FWL TEXT
 DFST.                        :  DIST FSL TEXT
 DMF .             Drill Floor:  DRILL MEAS FROM
 STIM.      22.38.56 15-Feb-20:  START TIME
 DATE.      22.38.56 15-Feb-20:  END TIME
 SPUD.               15-Feb-20:  SPUD DATE
 NREF.                    Grid:  NORTH REFERENCE
 HPTY.       Minimum Curvature:  HOLE POS TYPE
 DMOD.             Drill Model:  DRILL MOD DESC
 SVYD.                  Survey:  SURVEY DESC
 ILTD.               Lithology:  INTERP LTH DESC
 FTOP.          Formation Tops:  FORM TOPS DESC
 SON .        AZ-XX-0906019077:  JOB NUMBER
 PDAT.          Mean Sea Level:  PERMANENT DATUM
 WTYP.                Deviated:  WELL TYPE
 MDS .        Operator Entered:  MAG DATA SOURCE
 COMP.     BP Exploration (Caspian sea) Ltd.:  COMPANY
 UWI .                     N/A:  UNIQUE WELL IDENTIFIER
 API .                     N/A:  API NUMBER
 BASE.              Azerbaijan:  LOGGING EQUIPMENT BASE LOCATION
 REGN.                   EESSA:  REGION
 PROV.                     N/A:  PROVINCE
 STAT.                     N/A:  STATE NAME
 CTRY.              Azerbaijan:  COUNTRY NAME
 FLD .                     ACG:  FIELD NAME
 SRVC.          Turan Drilling:  CONTRACTOR
 MWDS.                    Baku:  MWD SHOP
 WELL.                    E16W:  WELL NAME
 JOBN.        AZ-XX-0906019077:  JOB TICKET NUMB
 RIG .                     DWG:  RIG NAME
 CNTY.                     N/A:  COUNTY NAME
 DCON.         Sperry Drilling:  DIRECTNL CONTR
 UNIT.                     N/A:  LOGGING EQUIPMENT ID
 LOC .                        :  LOCATION
 LMF .             Drill Floor:  LOG MEASURED FROM
 TVDS.m                  43.16:  TVDSS CORRECTN
 LATI.deg                40.17:  LATITUDE
 LONG.deg                51.17:  LONGITUDE
 WHNS.m                 -15.30:  WELL HEAD N/S
 WHEW.m                  -1.29:  WELL HEAD E/W
 UTMX.m              514337.95:  UTM X
 UTMY.m             4448627.46:  UTM Y
 DFWL.m                   0.00:  DISTANCE FWL
 DFSL.m                   0.00:  DISTANCE FSL
 SDEP.m                3499.01:  START DEPTH
 TDD .m                4422.01:  TOTAL DEPTH (DRILLER)
 VSDR.deg               151.14:  VERT SEC DIRECT
 GVFD.g                   1.00:  GRAVITY FIELD
 MFLD.nT              50334.00:  MAGNETIC FIELD
 MDIP.deg                59.62:  MAGNETIC DIP
 MDEC.deg                 6.46:  MAGNETIC DECL
 GRDC.deg                 0.12:  GRID CORRECTION
 AZTC.deg                 6.34:  AZM TOTAL CORR
 EPD .m                   0.00:  ELEVATION
 EGL .m                   0.00:  GROUND ELEVATION
 WDMS.m                 176.20:  WD ELEV
 APD .m                  43.16:  DEPTH ABOVE PD
 VSEW.m                  -1.29:  VERT SEC E/W
 VSNS.m                 -15.30:  VERT SEC N/S
 AGAP.m                  43.16:  AIR GAP
 EKB .m                   0.00:  KB ELEVATION
 EDF .m                  43.16:  DF ELEVATION
 TDL .m                  81.00:  TOTAL DEPTH (LOGGER)
 VSC .                       0:  VS TO CLOSURE
 MAGU.                 1852525:  MAGUTM CHECKSUM
~Parameter Information Block
#MNEM.UNIT       Value        Description
#---------     -----------    ---------------------------
 AV  .mps                 1.00:  Ann Velocity 
 AVMX.mps                 1.32:  Max Ann Veloc 
 AZIF.deg               141.43:  Azm, Final 
 BHAT.        Rotary Steerable:  BHA Type 
 BREV.rev            107699.99:  Rev Bit Total 
 BROT.°/30m              -0.88:  Build Rotating 
 BS  .in                  6.50:  Bit Size 
 BSZ .in                  6.50:  Bit Size 
 BTPL.psig              222.00:  Bit Press Loss 
 CABU.                     Yes:  Customer Abuse 
 CGEO.        Ali Isfandiyarov:  Customer Geo 
 TCS .hr                 23.12:  Time Ciculation Ended 
 CV  .mps                 2.20:  Crit Velocity 
 CVMX.mps                 3.01:  Max Crit Veloc 
 DD1 .         Intigam Rahimov:  Direct Drillr 1 
 DDSV.               Geo-Pilot:  DD Service 
 DEFF.%                 100.00:  % Det Eff 
 DLRX.°/30m               0.90:  Dogleg Rot Max 
 DLSO.°/30m               0.00:  Dogleg Oriented 
 DLSX.°/30m               0.00:  Dogleg Str Max 
 DRET.      20.00.00 21-Mar-20:  Drill End Time 
 DRST.      04.30.00 20-Mar-20:  Drill Start Tim 
 DTIM.hr                  8.99:  Time Drilling 
 EDEP.m                4503.01:  End Depth 
 ENG1.          Rasim Hashimov:  Engineer 1 
 ENG2.         Yevgeniy Ulikov:  Engineer 2 
 ETIM.      14.43.10 22-Mar-20:  End Time 
 FLOI.gpm               350.00:  Flow In 
 FLON.gpm               300.00:  Flow In Min 
 FLOS.cptm                0.00:  Fluid Loss 
 FLOX.gpm               400.00:  Flow In Max 
 FTRO.       Formation Presure:  FTWD Run Obj 
 HFLO.                      No:  High Flow 
 HPRE.                      No:  High Pressure 
 HTEM.                      No:  High Temp 
 HYDO.m                   1.80:  Hydro Offset 
 IFIN.deg                78.17:  Inc, Final 
 IMAX.deg                79.31:  Inc Max 
 IMIN.deg                78.75:  Inc Min 
 IMND.m                4474.16:  Inc Min Depth 
 IMXD.m                4445.88:  Inc Max Depth 
 JARR.                      No:  Jarring 
 LETM.      20.00.00 21-Mar-20:  Log End Time 
 LOST.hr                     0:  Lost Rig Time 
 LSTM.      04.30.00 19-Mar-20:  Log Start Time 
 MDCL.ppm             39500.00:  Mud Chlorides 
 MDES.     Inversion Oil/Synthetic:  Mud Desc 
 DFD .sg                  1.40:  Mud Density 
 MDMN.sg                  1.40:  Dens Mud Min 
 MDMX.sg                  1.40:  Dens Mud Max 
 MOIL.                      55:  Run Mud Oil % 
 MOWR.                   68:32:  Run Mud OWR 
 MSND.                     0.1:  Run Mud Sand % 
 MSOL.                       1:  Run Mud Solids% 
 DFV .spqt               78.00:  Mud Viscosity 
 MWOD.in                  4.75:  MWD Tool OD 
 MWSI.                      No:  Serv Intrp, MWD 
 OTIM.hr                 61.28:  Time Operating 
 PCON.           Look Like New:  Pad Condition 
 PMAX.psia             9103.94:  Press Op, Max 
 PV  .cP                 25.00:  Mud PV 
 RUN .                     800:  Run Number 
 ROPA.m/hr                7.10:  ROP Avg 
 ROPN.m/hr                2.40:  ROP Min 
 ROPX.m/hr               12.00:  ROP Max 
 RPMA.rpm               120.00:  RPM Surface Avg 
 RPMN.rpm                80.00:  RPM Surface Min 
 RPMX.rpm               140.00:  RPM Surface Max 
 RRUN.                    L203:  Rig Run Number 
 RTIM.hr                  6.50:  Time Reaming 
 SAZI.deg               140.14:  Azm, Start 
 SDEP.m                4422.01:  Start Depth 
 SIDD.                     Yes:  Serv Intrp, DD 
 SINC.deg                80.07:  Inc, Start 
 SPPA.psig             4619.00:  SPP Avg 
 SPPN.psig             3980.00:  SPP Min 
 SPPX.psig             5100.00:  SPP Max 
 STIM.      22.30.00 19-Mar-20:  Start Time 
 SVCS.                 DD, MWD:  Services 
 SVER.                    9.20:  Sperry Version 
 TDAT.m                  81.00:  Tot Depth Attmp 
 TDDF.                     Yes:  Trip for DD 
 TDLG.m                  81.00:  Tot Depth Loggd 
 TFF .                      No:  Trip for Fail 
 TQAA.f-kp               12.50:  Torque Abs Avg 
 TQAN.f-kp               12.00:  Torque Abs Min 
 TQAX.f-kp               14.00:  Torque Abs Max 
 TRRT.°/30m               0.25:  Turn Rotating 
 MRT .                    HCIM:  Maximum Recorded Temperature 
 TTMX.degC               86.27:  Max Tool Temp 
 VS01.         90595989G12V7D4:  Virtual Str1 SN 
 VS02.            90519330D5C4:  Virtual Str2 SN 
 VS03.             90522014R12:  Virtual Str3 SN 
 VS04.          90522272N2L2C4:  Virtual Str4 SN 
 VS05.      90512713X1Z1W1X1C4:  Virtual Str5 SN 
 WBMN.klb                 3.00:  WOB Min 
 WITN.        Elmaddin Rahimov:  Customer Rep 
 WOBA.klb                 5.60:  WOB Avg 
 WOBX.klb                 7.00:  WOB Max 
 YP  .lhf2               28.00:  Yield Point 
~Curve Information Block
#MNEM.UNIT                 API CODE     Curve Description
#---------               -----------    ---------------------------
 TIME.HHMMSS            00 000 000 000:  GT Time & Date
 GTDEPTH.m              00 000 000 000:  GT Depth
 GTPQH.psia             00 000 000 000:  GT HR Quartz Pressure
 GTTQ.degC              00 000 000 000:  GT Quartz Temperature
 GTTN.NONE              00 000 000 000:  GT Test Number
 GTET.sec               00 000 000 000:  GT Elapsed Test Time
 GTTVD.m                00 000 000 000:  GT True Vertical Depth
#Other Information
#
#WARRANTY: Halliburton will use its best efforts to furnish customers with 
#accurate information and interpretations that are part of, and incident to, the services 
#provided.  However, Halliburton cannot and does not warrant the accuracy 
#or correctness of such information and interpretations.  Under no circumstances should any 
#such information or interpretation be relied upon as the sole basis for any drilling, 
#completion, production, or financial decision or any procedure involving any risk to the 
#safety of any drilling venture, drilling rig or its crew or any other third party.  The 
#Customer has full responsibility for all drilling, completion and production operation.  
#Halliburton makes no representations or warranties, either expressed or 
#implied, including, but not limited to, the implied warranties of merchantability or fitness 
#for a particular purpose, with respect to the services rendered.  In no event will 
#Halliburton be liable for failure to obtain any particular results or for 
#any damages, including, but not limited to, indirect, special or consequential damages, 
#resulting from the use of any information or interpretation provided by Halliburton.
#
~A           TIME           GTDEPTH  GTPQH  GTTQ  GTTN  GTET   GTTVD  
# ...
   13:23:08.417.21-Mar-2020 4435.61 4647.31 73.22 1.00 161.02 3146.67
   13:23:08.617.21-Mar-2020 4435.61 4647.31 73.22 1.00 161.22 3146.67
   13:23:08.817.21-Mar-2020 4435.61 4647.30 73.22 1.00 161.42 3146.67
   13:23:09.017.21-Mar-2020 4435.61 4647.27 73.22 1.00 161.62 3146.67
   13:23:09.217.21-Mar-2020 4435.61 4647.27 73.22 1.00 161.82 3146.67
   13:23:09.417.21-Mar-2020 4435.61 4647.29 73.22 1.00 162.02 3146.67
   13:23:09.617.21-Mar-2020 4435.61 4647.29 73.22 1.00 162.22 3146.67
   13:23:09.817.21-Mar-2020 4435.61 4647.39 73.22 1.00 162.42 3146.67
   13:23:10.017.21-Mar-2020 4435.61 4647.35 73.22 1.00 162.62 3146.67
   13:23:10.217.21-Mar-2020 4435.61 4647.28 73.22 1.00 162.82 3146.67
   13:23:10.417.21-Mar-2020 4435.61 4647.12 73.22 1.00 163.02 3146.67
   13:23:10.617.21-Mar-2020 4435.61 4647.12 73.22 1.00 163.22 3146.67
   13:23:10.817.21-Mar-2020 4435.61 4647.24 73.22 1.00 163.42 3146.67
   13:23:11.017.21-Mar-2020 4435.61 4647.25 73.22 1.00 163.62 3146.67
   13:23:11.217.21-Mar-2020 4435.61 4647.07 73.22 1.00 163.82 3146.67
   13:23:11.418.21-Mar-2020 4435.61 4647.23 73.21 1.00 164.02 3146.67
   13:23:11.618.21-Mar-2020 4435.61 4647.23 73.21 1.00 164.22 3146.67
   13:23:11.818.21-Mar-2020 4435.61 4647.34 73.21 1.00 164.42 3146.67
   13:23:12.018.21-Mar-2020 4435.61 4646.96 73.21 1.00 164.62 3146.67
   13:23:12.218.21-Mar-2020 4435.61 4647.36 73.21 1.00 164.82 3146.67
   13:23:12.418.21-Mar-2020 4435.61 4647.39 73.21 1.00 165.02 3146.67
   13:23:12.618.21-Mar-2020 4435.61 4647.39 73.21 1.00 165.22 3146.67
   13:23:12.818.21-Mar-2020 4435.61 4647.34 73.21 1.00 165.42 3146.67
   13:23:13.018.21-Mar-2020 4435.61 4647.08 73.21 1.00 165.62 3146.67
   13:23:13.218.21-Mar-2020 4435.61 4647.44 73.21 1.00 165.82 3146.67
   13:23:13.418.21-Mar-2020 4435.61 4647.42 73.21 1.00 166.02 3146.67
   13:23:13.618.21-Mar-2020 4435.61 4647.42 73.21 1.00 166.22 3146.67
   13:23:13.818.21-Mar-2020 4435.61 4647.37 73.21 1.00 166.42 3146.67
   13:23:14.018.21-Mar-2020 4435.61 4647.40 73.21 1.00 166.62 3146.67
   13:23:14.218.21-Mar-2020 4435.61 4647.35 73.21 1.00 166.82 3146.67
   13:23:14.418.21-Mar-2020 4435.61 4647.32 73.21 1.00 167.02 3146.67
   13:23:14.618.21-Mar-2020 4435.61 4647.32 73.21 1.00 167.22 3146.67
   13:23:14.818.21-Mar-2020 4435.61 4646.93 73.21 1.00 167.42 3146.67
   13:23:15.018.21-Mar-2020 4435.61 4647.40 73.21 1.00 167.62 3146.67
   13:23:15.218.21-Mar-2020 4435.61 4647.39 73.21 1.00 167.82 3146.67
   13:23:15.418.21-Mar-2020 4435.61 4647.32 73.21 1.00 168.02 3146.67
   13:23:15.618.21-Mar-2020 4435.61 4647.32 73.21 1.00 168.22 3146.67
   13:23:15.818.21-Mar-2020 4435.61 4647.29 73.21 1.00 168.42 3146.67
   13:23:16.018.21-Mar-2020 4435.61 4647.29 73.21 1.00 168.62 3146.67
   13:23:16.218.21-Mar-2020 4435.61 4647.30 73.21 1.00 168.82 3146.67
   13:23:16.418.21-Mar-2020 4435.61 4647.31 73.21 1.00 169.02 3146.67
   13:23:16.618.21-Mar-2020 4435.61 4647.31 73.21 1.00 169.22 3146.67
   13:23:16.818.21-Mar-2020 4435.61 4647.40 73.21 1.00 169.42 3146.67
   13:23:17.018.21-Mar-2020 4435.61 4647.38 73.21 1.00 169.62 3146.67
   13:23:17.218.21-Mar-2020 4435.61 4647.31 73.21 1.00 169.82 3146.67
   13:23:17.418.21-Mar-2020 4435.61 4647.31 73.21 1.00 170.02 3146.67
   13:23:17.618.21-Mar-2020 4435.61 4647.31 73.21 1.00 170.22 3146.67
   13:23:17.818.21-Mar-2020 4435.61 4647.29 73.21 1.00 170.42 3146.67
   13:23:18.018.21-Mar-2020 4435.61 4647.30 73.21 1.00 170.62 3146.67
   13:23:18.218.21-Mar-2020 4435.61 4647.25 73.21 1.00 170.82 3146.67
   13:23:18.419.21-Mar-2020 4435.61 4646.92 73.21 1.00 171.02 3146.67
   13:23:18.619.21-Mar-2020 4435.61 4646.92 73.21 1.00 171.22 3146.67
   13:23:18.819.21-Mar-2020 4435.61 4647.33 73.21 1.00 171.42 3146.67
   13:23:19.019.21-Mar-2020 4435.61 4646.97 73.21 1.00 171.62 3146.67
   13:23:19.219.21-Mar-2020 4435.61 4647.42 73.21 1.00 171.82 3146.67
   13:23:19.419.21-Mar-2020 4435.61 4647.43 73.21 1.00 172.02 3146.67
   13:23:19.619.21-Mar-2020 4435.61 4647.43 73.21 1.00 172.22 3146.67
   13:23:19.819.21-Mar-2020 4435.61 4647.43 73.21 1.00 172.42 3146.67
   13:23:20.019.21-Mar-2020 4435.61 4647.01 73.21 1.00 172.62 3146.67
   13:23:20.219.21-Mar-2020 4435.61 4647.46 73.21 1.00 172.82 3146.67
   13:23:20.419.21-Mar-2020 4435.61 4647.46 73.21 1.00 173.02 3146.67
   13:23:20.619.21-Mar-2020 4435.61 4647.46 73.21 1.00 173.22 3146.67
   13:23:20.819.21-Mar-2020 4435.61 4647.35 73.21 1.00 173.42 3146.67
   13:23:21.019.21-Mar-2020 4435.61 4647.41 73.21 1.00 173.62 3146.67
   13:23:21.219.21-Mar-2020 4435.61 4647.42 73.21 1.00 173.82 3146.67
   13:23:21.419.21-Mar-2020 4435.61 4647.33 73.21 1.00 174.02 3146.67
   13:23:21.619.21-Mar-2020 4435.61 4647.33 73.21 1.00 174.22 3146.67
   13:23:21.819.21-Mar-2020 4435.61 4647.11 73.21 1.00 174.42 3146.67
   13:23:22.019.21-Mar-2020 4435.61 4647.28 73.21 1.00 174.62 3146.67
   13:23:22.219.21-Mar-2020 4435.61 4647.40 73.21 1.00 174.82 3146.67
   13:23:22.419.21-Mar-2020 4435.61 4647.34 73.21 1.00 175.02 3146.67
   13:23:22.619.21-Mar-2020 4435.61 4647.34 73.21 1.00 175.23 3146.67
   13:23:22.819.21-Mar-2020 4435.61 4647.34 73.20 1.00 175.43 3146.67
   13:23:23.019.21-Mar-2020 4435.61 4647.32 73.20 1.00 175.63 3146.67
   13:23:23.219.21-Mar-2020 4435.61 4647.28 73.20 1.00 175.83 3146.67
   13:23:23.419.21-Mar-2020 4435.61 4647.33 73.20 1.00 176.03 3146.67
   13:23:23.619.21-Mar-2020 4435.61 4647.33 73.20 1.00 176.23 3146.67
   13:23:23.819.21-Mar-2020 4435.61 4647.38 73.20 1.00 176.43 3146.67
   13:23:24.019.21-Mar-2020 4435.61 4647.39 73.20 1.00 176.63 3146.67
   13:23:24.219.21-Mar-2020 4435.61 4647.33 73.20 1.00 176.83 3146.67
   13:23:24.419.21-Mar-2020 4435.61 4647.38 73.20 1.00 177.03 3146.67
   13:23:24.619.21-Mar-2020 4435.61 4647.38 73.20 1.00 177.23 3146.67
   13:23:24.819.21-Mar-2020 4435.61 4647.34 73.20 1.00 177.43 3146.67
   13:23:25.019.21-Mar-2020 4435.61 4647.36 73.20 1.00 177.63 3146.67
   13:23:25.219.21-Mar-2020 4435.61 4647.39 73.20 1.00 177.83 3146.67
   13:23:25.420.21-Mar-2020 4435.61 4646.98 73.20 1.00 178.03 3146.67
   13:23:25.620.21-Mar-2020 4435.61 4646.98 73.20 1.00 178.23 3146.67
   13:23:25.820.21-Mar-2020 4435.61 4647.38 73.20 1.00 178.43 3146.67
   13:23:26.020.21-Mar-2020 4435.61 4647.14 73.20 1.00 178.63 3146.67
   13:23:26.220.21-Mar-2020 4435.61 4647.27 73.20 1.00 178.83 3146.67
   13:23:26.420.21-Mar-2020 4435.61 4647.40 73.20 1.00 179.03 3146.67
   13:23:26.620.21-Mar-2020 4435.61 4647.40 73.20 1.00 179.23 3146.67
   13:23:26.820.21-Mar-2020 4435.61 4647.48 73.20 1.00 179.43 3146.67
   13:23:27.020.21-Mar-2020 4435.61 4647.02 73.20 1.00 179.63 3146.67
   13:23:27.220.21-Mar-2020 4435.61 4647.46 73.20 1.00 179.83 3146.67
   13:23:27.420.21-Mar-2020 4435.61 4647.51 73.20 1.00 180.03 3146.67
   13:23:27.620.21-Mar-2020 4435.61 4647.51 73.20 1.00 180.23 3146.67
   13:23:27.820.21-Mar-2020 4435.61 4647.38 73.20 1.00 180.43 3146.67
   13:23:28.020.21-Mar-2020 4435.61 4647.46 73.20 1.00 180.63 3146.67
   13:23:28.220.21-Mar-2020 4435.61 4647.42 73.20 1.00 180.83 3146.67
   13:23:28.420.21-Mar-2020 4435.61 4647.36 73.20 1.00 181.03 3146.67
   13:23:28.620.21-Mar-2020 4435.61 4647.36 73.20 1.00 181.23 3146.67
   13:23:28.820.21-Mar-2020 4435.61 4647.27 73.20 1.00 181.43 3146.67
   13:23:29.020.21-Mar-2020 4435.61 4647.10 73.20 1.00 181.63 3146.67
   13:23:29.220.21-Mar-2020 4435.61 4647.43 73.20 1.00 181.83 3146.67
   13:23:29.420.21-Mar-2020 4435.61 4647.34 73.20 1.00 182.03 3146.67
   13:23:29.620.21-Mar-2020 4435.61 4647.34 73.20 1.00 182.23 3146.67
   13:23:29.820.21-Mar-2020 4435.61 4647.38 73.20 1.00 182.43 3146.67
   13:23:30.020.21-Mar-2020 4435.61 4647.34 73.20 1.00 182.63 3146.67
   13:23:30.220.21-Mar-2020 4435.61 4647.33 73.20 1.00 182.83 3146.67
   13:23:30.420.21-Mar-2020 4435.61 4647.36 73.20 1.00 183.03 3146.67
   13:23:30.620.21-Mar-2020 4435.61 4647.36 73.20 1.00 183.23 3146.67
   13:23:30.820.21-Mar-2020 4435.61 4647.38 73.20 1.00 183.43 3146.67
   13:23:31.020.21-Mar-2020 4435.61 4647.43 73.20 1.00 183.63 3146.67
   13:23:31.220.21-Mar-2020 4435.61 4647.37 73.20 1.00 183.83 3146.67
