~Version Information
 VERS.                  2.0:   CWLS log ASCII Standard -VERSION 2.0
 WRAP.                   NO:   One line per depth step
~Well Information Block
#MNEM.UNIT     VALUE/NAME     DESCRIPTION
#---------     -----------    ---------------------------
 STRT.S             10:33:43 02-Jan-20: START TIME 10:33:43 02-Jan-20
 STOP.S             10:42:04 02-Jan-20: STOP TIME  10:42:04 02-Jan-20
 STEP.S                   0.00: STEP TIME
 NULL.                 -999.25: NULL VALUE
 MDS .        Operator Entered:  MAG DATA SOURCE
 UNIT.                     N/a:  LOGGING EQUIPMENT ID
 DCON.         Sperry Drilling:  DIRECTNL CONTR
 CNTY.                    Baku:  COUNTY NAME
 DOE .                     N/a:  DOE NUMBER
 RIG .                     DWG:  RIG NAME
 MWDS.                    Baku:  MWD SHOP
 REGN.                   EESSA:  REGION
 BASE.              Azerbaijan:  LOGGING EQUIPMENT BASE LOCATION
 UWI .                     N/a:  UNIQUE WELL IDENTIFIER
 API .                     N/a:  API NUMBER
 WTYP.                Deviated:  WELL TYPE
 COMP.     BP Exploration (Caspian Sea) Ltd.:  COMPANY
 SRVC.          TURAN DRILLING:  CONTRACTOR
 WELL.           E04 (Slot 23):  WELL NAME
 CTRY.              Azerbaijan:  COUNTRY NAME
 SON .        AZ-XX-0905715376:  JOB NUMBER
 FLD .                     ACG:  FIELD NAME
 PDAT.          Mean Sea Level:  PERMANENT DATUM
 FTOP.          Formation Tops:  FORM TOPS DESC
 ILTD.               Lithology:  INTERP LTH DESC
 SVYD.                  Survey:  SURVEY DESC
 DMOD.             Drill Model:  DRILL MOD DESC
 HPTY.       Minimum Curvature:  HOLE POS TYPE
 NREF.                    Grid:  NORTH REFERENCE
 SPUD.               21-Dec-19:  SPUD DATE
 DATE.      17.57.20 21-Dec-19:  END TIME
 STIM.      17.57.20 21-Dec-19:  START TIME
 DMF .             Drill Floor:  DRILL MEAS FROM
 DFST.                        :  DIST FSL TEXT
 DFWT.                        :  DIST FWL TEXT
 PROV.                        :  PROVINCE
 STAT.                        :  STATE
 LOC .                        :  LOCATION
 LMF .             Drill Floor:  LOG MEASURED FROM
 AGAP.m                  43.16:  AIR GAP
 DEP .m                3172.61:  DEPTH
 APD .m                  43.16:  DEPTH ABOVE PD
 WDMS.m                 176.20:  WD ELEV
 EGL .m                   0.00:  GROUND ELEVATION
 EPD .m                   0.00:  ELEVATION
 AZTC.deg                 6.49:  AZM TOTAL CORR
 GRDC.deg                 0.09:  GRID CORRECTION
 MDEC.deg                 6.58:  MAGNETIC DECL
 MDIP.deg                59.61:  MAGNETIC DIP
 MFLD.nT              50294.00:  MAGNETIC FIELD
 GVFD.g                   1.00:  GRAVITY FIELD
 VSDR.deg               235.12:  VERT SEC DIRECT
 TDD .m                   0.00:  TOTAL DEPTH (DRILLER)
 SDEP.m                   0.00:  START DEPTH
 UTMY.m             4448627.46:  UTM Y
 UTMX.m              514337.95:  UTM X
 LONG.deg                51.17:  LONGITUDE
 LATI.deg                40.17:  LATITUDE
 TVDS.m                  43.16:  TVDSS CORRECTN
 WHEW.m                  -5.41:  WELL HEAD E/W
 WHNS.m                  -0.12:  WELL HEAD N/S
 VSEW.m                  -5.41:  VERT SEC E/W
 VSNS.m                  -0.12:  VERT SEC N/S
 EKB .m                  43.16:  KB ELEVATION
 EDF .m                  43.16:  DF ELEVATION
 MAGU.                 1852276:  MAGUTM CHECKSUM
 VSC .                       0:  VS TO CLOSURE
~Parameter Information Block
#MNEM.UNIT       Value        Description
#---------     -----------    ---------------------------
 TCS .hr                125.29:  Time Ciculation Ended 
 DD1 .      Fakhraddin Guliyev:  Direct Drillr 1 
 DD2 .                   Sanan:  Direct Drillr 2 
 DEFF.%                   0.00:  % Det Eff 
 DRET.      04.26.40 27-Dec-19:  Drill End Time 
 DRST.      04.26.40 27-Dec-19:  Drill Start Tim 
 DTIM.hr                 80.10:  Time Drilling 
 EDEP.m                   0.00:  End Depth 
 ENG1.            Adlet Omarov:  Engineer 1 
 ENG2.         Almaz Almadatov:  Engineer 2 
 ETIM.      04.26.40 27-Dec-19:  End Time 
 HFLO.                      No:  High Flow 
 HPRE.                      No:  High Pressure 
 HTEM.                      No:  High Temp 
 HYDO.m                   1.85:  Hydro Offset 
 IMAX.deg                72.09:  Inc Max 
 IMIN.deg                59.07:  Inc Min 
 IMND.m                3901.43:  Inc Min Depth 
 IMXD.m                4753.85:  Inc Max Depth 
 LETM.      04.26.40 27-Dec-19:  Log End Time 
 LSTM.      04.26.40 27-Dec-19:  Log Start Time 
 OTIM.hr                187.88:  Time Operating 
 PMAX.psia            10202.94:  Press Op, Max 
 RUN .                     300:  Run Number 
 RRUN.                    0300:  Rig Run Number 
 SDEP.m                   0.00:  Start Depth 
 STIM.      04.26.40 27-Dec-19:  Start Time 
 SVER.                    9.20:  Sperry Version 
 MRT .                    HCIM:  Maximum Recorded Temperature 
 TTMX.degC               96.08:  Max Tool Temp 
~Curve Information Block
#MNEM.UNIT                 API CODE     Curve Description
#---------               -----------    ---------------------------
 TIME.HHMMSS            00 000 000 000:  GT Time & Date
 GTDEPTH.m              00 000 000 000:  GT Depth
 GTPQH.psia             00 000 000 000:  GT HR Quartz Pressure
 GTTQ.degC              00 000 000 000:  GT Quartz Temperature
 GTTN.NONE              00 000 000 000:  GT Test Number
 GTET.sec               00 000 000 000:  GT Elapsed Test Time
 GTTVD.m                00 000 000 000:  GT True Vertical Depth
#Other Information
#
#WARRANTY: Halliburton will use its best efforts to furnish customers with 
#accurate information and interpretations that are part of, and incident to, the services 
#provided.  However, Halliburton cannot and does not warrant the accuracy 
#or correctness of such information and interpretations.  Under no circumstances should any 
#such information or interpretation be relied upon as the sole basis for any drilling, 
#completion, production, or financial decision or any procedure involving any risk to the 
#safety of any drilling venture, drilling rig or its crew or any other third party.  The 
#Customer has full responsibility for all drilling, completion and production operation.  
#Halliburton makes no representations or warranties, either expressed or 
#implied, including, but not limited to, the implied warranties of merchantability or fitness 
#for a particular purpose, with respect to the services rendered.  In no event will 
#Halliburton be liable for failure to obtain any particular results or for 
#any damages, including, but not limited to, indirect, special or consequential damages, 
#resulting from the use of any information or interpretation provided by Halliburton.
#
~A           TIME           GTDEPTH  GTPQH  GTTQ  GTTN  GTET   GTTVD  
# ...
   10:34:06.678.02-Jan-2020 4788.22 6095.18 85.80 1.00  23.01 2776.61
   10:34:06.878.02-Jan-2020 4788.22 6095.18 85.80 1.00  23.21 2776.61
   10:34:07.078.02-Jan-2020 4788.22 6091.83 85.80 1.00  23.41 2776.61
   10:34:07.278.02-Jan-2020 4788.22 6091.71 85.80 1.00  23.61 2776.61
   10:34:07.478.02-Jan-2020 4788.22 6100.10 85.80 1.00  23.81 2776.61
   10:34:07.678.02-Jan-2020 4788.22 6095.33 85.80 1.00  24.01 2776.61
   10:34:07.878.02-Jan-2020 4788.22 6095.33 85.80 1.00  24.21 2776.61
   10:34:08.078.02-Jan-2020 4788.22 6094.06 85.80 1.00  24.41 2776.61
   10:34:08.278.02-Jan-2020 4788.22 6093.89 85.80 1.00  24.61 2776.61
   10:34:08.478.02-Jan-2020 4788.22 6093.25 85.80 1.00  24.81 2776.61
   10:34:08.678.02-Jan-2020 4788.22 6093.54 85.80 1.00  25.01 2776.61
   10:34:08.878.02-Jan-2020 4788.22 6093.54 85.80 1.00  25.21 2776.61
   10:34:09.078.02-Jan-2020 4788.22 6095.47 85.80 1.00  25.41 2776.61
   10:34:09.278.02-Jan-2020 4788.22 6092.38 85.80 1.00  25.61 2776.61
   10:34:09.478.02-Jan-2020 4788.22 6092.42 85.80 1.00  25.81 2776.61
   10:34:09.679.02-Jan-2020 4788.22 6101.14 85.80 1.00  26.01 2776.61
   10:34:09.879.02-Jan-2020 4788.22 6101.14 85.80 1.00  26.21 2776.61
   10:34:10.079.02-Jan-2020 4788.22 6094.16 85.80 1.00  26.41 2776.61
   10:34:10.279.02-Jan-2020 4788.22 6094.73 85.80 1.00  26.61 2776.61
   10:34:10.479.02-Jan-2020 4788.22 6101.25 85.80 1.00  26.81 2776.61
   10:34:10.679.02-Jan-2020 4788.22 6098.39 85.80 1.00  27.01 2776.61
   10:34:10.879.02-Jan-2020 4788.22 6098.39 85.80 1.00  27.21 2776.61
   10:34:11.079.02-Jan-2020 4788.22 6103.05 85.80 1.00  27.41 2776.61
   10:34:11.279.02-Jan-2020 4788.22 6095.88 85.80 1.00  27.61 2776.61
   10:34:11.479.02-Jan-2020 4788.22 6093.98 85.80 1.00  27.81 2776.61
   10:34:11.679.02-Jan-2020 4788.22 6095.66 85.80 1.00  28.01 2776.61
   10:34:11.879.02-Jan-2020 4788.22 6095.66 85.80 1.00  28.21 2776.61
   10:34:12.079.02-Jan-2020 4788.22 6095.28 85.80 1.00  28.41 2776.61
   10:34:12.279.02-Jan-2020 4788.22 6095.13 85.80 1.00  28.61 2776.61
   10:34:12.479.02-Jan-2020 4788.22 6095.80 85.79 1.00  28.81 2776.61
   10:34:12.679.02-Jan-2020 4788.22 6099.18 85.79 1.00  29.01 2776.61
   10:34:12.879.02-Jan-2020 4788.22 6099.18 85.79 1.00  29.21 2776.61
   10:34:13.079.02-Jan-2020 4788.22 6098.40 85.79 1.00  29.41 2776.61
   10:34:13.279.02-Jan-2020 4788.22 6096.56 85.79 1.00  29.61 2776.61
   10:34:13.479.02-Jan-2020 4788.22 6096.84 85.79 1.00  29.81 2776.61
   10:34:13.679.02-Jan-2020 4788.22 6104.82 85.79 1.00  30.01 2776.61
   10:34:13.880.02-Jan-2020 4788.22 6104.82 85.79 1.00  30.21 2776.61
   10:34:14.080.02-Jan-2020 4788.22 6097.97 85.79 1.00  30.41 2776.61
   10:34:14.280.02-Jan-2020 4788.22 6097.87 85.79 1.00  30.61 2776.61
   10:34:14.480.02-Jan-2020 4788.22 6097.60 85.79 1.00  30.81 2776.61
   10:34:14.680.02-Jan-2020 4788.22 6097.30 85.79 1.00  31.01 2776.61
   10:34:14.880.02-Jan-2020 4788.22 6097.30 85.79 1.00  31.21 2776.61
   10:34:15.080.02-Jan-2020 4788.22 6103.04 85.79 1.00  31.41 2776.61
   10:34:15.280.02-Jan-2020 4788.22 6099.38 85.79 1.00  31.61 2776.61
   10:34:15.480.02-Jan-2020 4788.22 6098.66 85.79 1.00  31.81 2776.61
   10:34:15.680.02-Jan-2020 4788.22 6097.81 85.79 1.00  32.01 2776.61
   10:34:15.880.02-Jan-2020 4788.22 6097.81 85.79 1.00  32.21 2776.61
   10:34:16.080.02-Jan-2020 4788.22 6098.72 85.79 1.00  32.41 2776.61
   10:34:16.280.02-Jan-2020 4788.22 6105.51 85.79 1.00  32.61 2776.61
   10:34:16.480.02-Jan-2020 4788.22 6102.93 85.79 1.00  32.81 2776.61
   10:34:16.680.02-Jan-2020 4788.22 6098.78 85.79 1.00  33.01 2776.61
   10:34:16.880.02-Jan-2020 4788.22 6098.78 85.79 1.00  33.21 2776.61
   10:34:17.080.02-Jan-2020 4788.22 6104.70 85.79 1.00  33.41 2776.61
   10:34:17.280.02-Jan-2020 4788.22 6100.42 85.79 1.00  33.61 2776.61
   10:34:17.480.02-Jan-2020 4788.22 6098.65 85.79 1.00  33.81 2776.61
   10:34:17.680.02-Jan-2020 4788.22 6100.36 85.79 1.00  34.01 2776.61
   10:34:17.880.02-Jan-2020 4788.22 6100.36 85.79 1.00  34.21 2776.61
   10:34:18.080.02-Jan-2020 4788.22 6102.73 85.79 1.00  34.41 2776.61
   10:34:18.281.02-Jan-2020 4788.22 6100.42 85.79 1.00  34.61 2776.61
   10:34:18.481.02-Jan-2020 4788.22 6100.77 85.79 1.00  34.81 2776.61
   10:34:18.681.02-Jan-2020 4788.22 6106.40 85.79 1.00  35.01 2776.61
   10:34:18.881.02-Jan-2020 4788.22 6106.40 85.79 1.00  35.21 2776.61
   10:34:19.081.02-Jan-2020 4788.22 6102.04 85.79 1.00  35.41 2776.61
   10:34:19.281.02-Jan-2020 4788.22 6102.89 85.79 1.00  35.61 2776.61
   10:34:19.481.02-Jan-2020 4788.22 6101.36 85.79 1.00  35.81 2776.61
   10:34:19.681.02-Jan-2020 4788.22 6100.35 85.79 1.00  36.01 2776.61
   10:34:19.881.02-Jan-2020 4788.22 6100.35 85.79 1.00  36.21 2776.61
   10:34:20.081.02-Jan-2020 4788.22 6102.31 85.79 1.00  36.41 2776.61
   10:34:20.281.02-Jan-2020 4788.22 6102.54 85.79 1.00  36.61 2776.61
   10:34:20.481.02-Jan-2020 4788.22 6102.26 85.79 1.00  36.81 2776.61
   10:34:20.681.02-Jan-2020 4788.22 6102.55 85.79 1.00  37.01 2776.61
   10:34:20.881.02-Jan-2020 4788.22 6102.55 85.79 1.00  37.21 2776.61
   10:34:21.081.02-Jan-2020 4788.22 6107.66 85.79 1.00  37.41 2776.61
   10:34:21.281.02-Jan-2020 4788.22 6103.45 85.79 1.00  37.61 2776.61
   10:34:21.481.02-Jan-2020 4788.22 6103.00 85.79 1.00  37.81 2776.61
   10:34:21.681.02-Jan-2020 4788.22 6105.16 85.79 1.00  38.01 2776.61
   10:34:21.881.02-Jan-2020 4788.22 6105.16 85.79 1.00  38.21 2776.61
   10:34:22.081.02-Jan-2020 4788.22 6105.54 85.78 1.00  38.41 2776.61
   10:34:22.281.02-Jan-2020 4788.22 6103.78 85.78 1.00  38.61 2776.61
   10:34:22.482.02-Jan-2020 4788.22 6104.11 85.78 1.00  38.81 2776.61
   10:34:22.682.02-Jan-2020 4788.22 6103.46 85.78 1.00  39.01 2776.61
   10:34:22.882.02-Jan-2020 4788.22 6103.46 85.78 1.00  39.21 2776.61
   10:34:23.082.02-Jan-2020 4788.22 6109.48 85.78 1.00  39.41 2776.61
   10:34:23.282.02-Jan-2020 4788.22 6105.27 85.78 1.00  39.61 2776.61
   10:34:23.482.02-Jan-2020 4788.22 6112.30 85.78 1.00  39.81 2776.61
   10:34:23.682.02-Jan-2020 4788.22 6105.46 85.78 1.00  40.01 2776.61
   10:34:23.882.02-Jan-2020 4788.22 6105.46 85.78 1.00  40.21 2776.61
   10:34:24.082.02-Jan-2020 4788.22 6104.09 85.78 1.00  40.41 2776.61
   10:34:24.282.02-Jan-2020 4788.22 6103.83 85.78 1.00  40.61 2776.61
   10:34:24.482.02-Jan-2020 4788.22 6109.46 85.78 1.00  40.81 2776.61
   10:34:24.682.02-Jan-2020 4788.22 6108.21 85.78 1.00  41.01 2776.61
   10:34:24.882.02-Jan-2020 4788.22 6108.21 85.78 1.00  41.21 2776.61
   10:34:25.082.02-Jan-2020 4788.22 6106.30 85.78 1.00  41.41 2776.61
   10:34:25.282.02-Jan-2020 4788.22 6104.85 85.78 1.00  41.61 2776.61
   10:34:25.482.02-Jan-2020 4788.22 6107.95 85.78 1.00  41.81 2776.61
   10:34:25.682.02-Jan-2020 4788.22 6111.83 85.78 1.00  42.01 2776.61
   10:34:25.882.02-Jan-2020 4788.22 6111.83 85.78 1.00  42.21 2776.61
   10:34:26.082.02-Jan-2020 4788.22 6106.43 85.78 1.00  42.41 2776.61
   10:34:26.282.02-Jan-2020 4788.22 6114.80 85.78 1.00  42.61 2776.61
   10:34:26.482.02-Jan-2020 4788.22 6107.97 85.78 1.00  42.81 2776.61
   10:34:26.683.02-Jan-2020 4788.22 6106.43 85.78 1.00  43.01 2776.61
   10:34:26.883.02-Jan-2020 4788.22 6106.43 85.78 1.00  43.21 2776.61
   10:34:27.083.02-Jan-2020 4788.22 6107.38 85.78 1.00  43.41 2776.61
   10:34:27.283.02-Jan-2020 4788.22 6106.76 85.78 1.00  43.61 2776.61
   10:34:27.483.02-Jan-2020 4788.22 6107.58 85.78 1.00  43.81 2776.61
   10:34:27.683.02-Jan-2020 4788.22 6108.45 85.78 1.00  44.01 2776.61
   10:34:27.883.02-Jan-2020 4788.22 6108.45 85.78 1.00  44.21 2776.61
   10:34:28.083.02-Jan-2020 4788.22 6113.62 85.78 1.00  44.41 2776.61
   10:34:28.283.02-Jan-2020 4788.22 6112.05 85.78 1.00  44.61 2776.61
   10:34:28.483.02-Jan-2020 4788.22 6109.17 85.78 1.00  44.81 2776.61
   10:34:28.683.02-Jan-2020 4788.22 6109.23 85.78 1.00  45.01 2776.61
   10:34:28.883.02-Jan-2020 4788.22 6109.23 85.78 1.00  45.21 2776.61
   10:34:29.083.02-Jan-2020 4788.22 6107.51 85.78 1.00  45.41 2776.61
   10:34:29.283.02-Jan-2020 4788.22 6116.32 85.78 1.00  45.61 2776.61
   10:34:29.483.02-Jan-2020 4788.22 6111.40 85.78 1.00  45.81 2776.61
