~Version Information
 VERS.                  2.0:   CWLS log ASCII Standard -VERSION 2.0
 WRAP.                   NO:   One line per depth step
~Well Information Block
#MNEM.UNIT     VALUE/NAME     DESCRIPTION
#---------     -----------    ---------------------------
 STRT.S             11:06:01 02-Jan-20: START TIME 11:06:01 02-Jan-20
 STOP.S             11:13:00 02-Jan-20: STOP TIME  11:13:00 02-Jan-20
 STEP.S                   0.00: STEP TIME
 NULL.                 -999.25: NULL VALUE
 MDS .        Operator Entered:  MAG DATA SOURCE
 UNIT.                     N/a:  LOGGING EQUIPMENT ID
 DCON.         Sperry Drilling:  DIRECTNL CONTR
 CNTY.                    Baku:  COUNTY NAME
 DOE .                     N/a:  DOE NUMBER
 RIG .                     DWG:  RIG NAME
 MWDS.                    Baku:  MWD SHOP
 REGN.                   EESSA:  REGION
 BASE.              Azerbaijan:  LOGGING EQUIPMENT BASE LOCATION
 UWI .                     N/a:  UNIQUE WELL IDENTIFIER
 API .                     N/a:  API NUMBER
 WTYP.                Deviated:  WELL TYPE
 COMP.     BP Exploration (Caspian Sea) Ltd.:  COMPANY
 SRVC.          TURAN DRILLING:  CONTRACTOR
 WELL.           E04 (Slot 23):  WELL NAME
 CTRY.              Azerbaijan:  COUNTRY NAME
 SON .        AZ-XX-0905715376:  JOB NUMBER
 FLD .                     ACG:  FIELD NAME
 PDAT.          Mean Sea Level:  PERMANENT DATUM
 FTOP.          Formation Tops:  FORM TOPS DESC
 ILTD.               Lithology:  INTERP LTH DESC
 SVYD.                  Survey:  SURVEY DESC
 DMOD.             Drill Model:  DRILL MOD DESC
 HPTY.       Minimum Curvature:  HOLE POS TYPE
 NREF.                    Grid:  NORTH REFERENCE
 SPUD.               21-Dec-19:  SPUD DATE
 DATE.      17.57.20 21-Dec-19:  END TIME
 STIM.      17.57.20 21-Dec-19:  START TIME
 DMF .             Drill Floor:  DRILL MEAS FROM
 DFST.                        :  DIST FSL TEXT
 DFWT.                        :  DIST FWL TEXT
 PROV.                        :  PROVINCE
 STAT.                        :  STATE
 LOC .                        :  LOCATION
 LMF .             Drill Floor:  LOG MEASURED FROM
 AGAP.m                  43.16:  AIR GAP
 DEP .m                3172.61:  DEPTH
 APD .m                  43.16:  DEPTH ABOVE PD
 WDMS.m                 176.20:  WD ELEV
 EGL .m                   0.00:  GROUND ELEVATION
 EPD .m                   0.00:  ELEVATION
 AZTC.deg                 6.49:  AZM TOTAL CORR
 GRDC.deg                 0.09:  GRID CORRECTION
 MDEC.deg                 6.58:  MAGNETIC DECL
 MDIP.deg                59.61:  MAGNETIC DIP
 MFLD.nT              50294.00:  MAGNETIC FIELD
 GVFD.g                   1.00:  GRAVITY FIELD
 VSDR.deg               235.12:  VERT SEC DIRECT
 TDD .m                   0.00:  TOTAL DEPTH (DRILLER)
 SDEP.m                   0.00:  START DEPTH
 UTMY.m             4448627.46:  UTM Y
 UTMX.m              514337.95:  UTM X
 LONG.deg                51.17:  LONGITUDE
 LATI.deg                40.17:  LATITUDE
 TVDS.m                  43.16:  TVDSS CORRECTN
 WHEW.m                  -5.41:  WELL HEAD E/W
 WHNS.m                  -0.12:  WELL HEAD N/S
 VSEW.m                  -5.41:  VERT SEC E/W
 VSNS.m                  -0.12:  VERT SEC N/S
 EKB .m                  43.16:  KB ELEVATION
 EDF .m                  43.16:  DF ELEVATION
 MAGU.                 1852276:  MAGUTM CHECKSUM
 VSC .                       0:  VS TO CLOSURE
~Parameter Information Block
#MNEM.UNIT       Value        Description
#---------     -----------    ---------------------------
 TCS .hr                125.29:  Time Ciculation Ended 
 DD1 .      Fakhraddin Guliyev:  Direct Drillr 1 
 DD2 .                   Sanan:  Direct Drillr 2 
 DEFF.%                   0.00:  % Det Eff 
 DRET.      04.26.40 27-Dec-19:  Drill End Time 
 DRST.      04.26.40 27-Dec-19:  Drill Start Tim 
 DTIM.hr                 80.10:  Time Drilling 
 EDEP.m                   0.00:  End Depth 
 ENG1.            Adlet Omarov:  Engineer 1 
 ENG2.         Almaz Almadatov:  Engineer 2 
 ETIM.      04.26.40 27-Dec-19:  End Time 
 HFLO.                      No:  High Flow 
 HPRE.                      No:  High Pressure 
 HTEM.                      No:  High Temp 
 HYDO.m                   1.85:  Hydro Offset 
 IMAX.deg                72.09:  Inc Max 
 IMIN.deg                59.07:  Inc Min 
 IMND.m                3901.43:  Inc Min Depth 
 IMXD.m                4753.85:  Inc Max Depth 
 LETM.      04.26.40 27-Dec-19:  Log End Time 
 LSTM.      04.26.40 27-Dec-19:  Log Start Time 
 OTIM.hr                187.88:  Time Operating 
 PMAX.psia            10202.94:  Press Op, Max 
 RUN .                     300:  Run Number 
 RRUN.                    0300:  Rig Run Number 
 SDEP.m                   0.00:  Start Depth 
 STIM.      04.26.40 27-Dec-19:  Start Time 
 SVER.                    9.20:  Sperry Version 
 MRT .                    HCIM:  Maximum Recorded Temperature 
 TTMX.degC               96.08:  Max Tool Temp 
~Curve Information Block
#MNEM.UNIT                 API CODE     Curve Description
#---------               -----------    ---------------------------
 TIME.HHMMSS            00 000 000 000:  GT Time & Date
 GTDEPTH.m              00 000 000 000:  GT Depth
 GTPQH.psia             00 000 000 000:  GT HR Quartz Pressure
 GTTQ.degC              00 000 000 000:  GT Quartz Temperature
 GTTN.NONE              00 000 000 000:  GT Test Number
 GTET.sec               00 000 000 000:  GT Elapsed Test Time
 GTTVD.m                00 000 000 000:  GT True Vertical Depth
#Other Information
#
#WARRANTY: Halliburton will use its best efforts to furnish customers with 
#accurate information and interpretations that are part of, and incident to, the services 
#provided.  However, Halliburton cannot and does not warrant the accuracy 
#or correctness of such information and interpretations.  Under no circumstances should any 
#such information or interpretation be relied upon as the sole basis for any drilling, 
#completion, production, or financial decision or any procedure involving any risk to the 
#safety of any drilling venture, drilling rig or its crew or any other third party.  The 
#Customer has full responsibility for all drilling, completion and production operation.  
#Halliburton makes no representations or warranties, either expressed or 
#implied, including, but not limited to, the implied warranties of merchantability or fitness 
#for a particular purpose, with respect to the services rendered.  In no event will 
#Halliburton be liable for failure to obtain any particular results or for 
#any damages, including, but not limited to, indirect, special or consequential damages, 
#resulting from the use of any information or interpretation provided by Halliburton.
#
~A           TIME           GTDEPTH  GTPQH  GTTQ  GTTN  GTET   GTTVD  
# ...
   11:08:19.160.02-Jan-2020 4790.04 5197.82 85.14 2.00 138.03 2777.18
   11:08:19.360.02-Jan-2020 4790.04 5197.82 85.14 2.00 138.23 2777.18
   11:08:19.560.02-Jan-2020 4790.04 5197.50 85.14 2.00 138.43 2777.18
   11:08:19.760.02-Jan-2020 4790.04 5197.94 85.14 2.00 138.63 2777.18
   11:08:19.960.02-Jan-2020 4790.04 5198.04 85.14 2.00 138.83 2777.18
   11:08:20.160.02-Jan-2020 4790.04 5197.94 85.14 2.00 139.03 2777.18
   11:08:20.361.02-Jan-2020 4790.04 5197.94 85.14 2.00 139.23 2777.18
   11:08:20.561.02-Jan-2020 4790.04 5196.29 85.14 2.00 139.43 2777.18
   11:08:20.761.02-Jan-2020 4790.04 5198.20 85.14 2.00 139.63 2777.18
   11:08:20.961.02-Jan-2020 4790.04 5198.05 85.14 2.00 139.83 2777.18
   11:08:21.161.02-Jan-2020 4790.04 5196.33 85.14 2.00 140.03 2777.18
   11:08:21.361.02-Jan-2020 4790.04 5196.33 85.14 2.00 140.23 2777.18
   11:08:21.561.02-Jan-2020 4790.04 5198.13 85.14 2.00 140.43 2777.18
   11:08:21.761.02-Jan-2020 4790.04 5198.31 85.14 2.00 140.63 2777.18
   11:08:21.961.02-Jan-2020 4790.04 5197.67 85.14 2.00 140.83 2777.18
   11:08:22.161.02-Jan-2020 4790.04 5196.52 85.14 2.00 141.03 2777.18
   11:08:22.361.02-Jan-2020 4790.04 5196.52 85.14 2.00 141.23 2777.18
   11:08:22.561.02-Jan-2020 4790.04 5198.41 85.14 2.00 141.43 2777.18
   11:08:22.761.02-Jan-2020 4790.04 5196.24 85.14 2.00 141.63 2777.18
   11:08:22.961.02-Jan-2020 4790.04 5198.56 85.14 2.00 141.83 2777.18
   11:08:23.161.02-Jan-2020 4790.04 5198.47 85.14 2.00 142.03 2777.18
   11:08:23.361.02-Jan-2020 4790.04 5198.47 85.14 2.00 142.23 2777.18
   11:08:23.561.02-Jan-2020 4790.04 5198.68 85.14 2.00 142.43 2777.18
   11:08:23.761.02-Jan-2020 4790.04 5198.69 85.14 2.00 142.63 2777.18
   11:08:23.961.02-Jan-2020 4790.04 5198.72 85.14 2.00 142.83 2777.18
   11:08:24.161.02-Jan-2020 4790.04 5198.75 85.14 2.00 143.03 2777.18
   11:08:24.361.02-Jan-2020 4790.04 5198.75 85.14 2.00 143.23 2777.18
   11:08:24.561.02-Jan-2020 4790.04 5198.57 85.14 2.00 143.43 2777.18
   11:08:24.762.02-Jan-2020 4790.04 5198.91 85.14 2.00 143.63 2777.18
   11:08:24.962.02-Jan-2020 4790.04 5199.06 85.14 2.00 143.83 2777.18
   11:08:25.162.02-Jan-2020 4790.04 5199.00 85.14 2.00 144.03 2777.18
   11:08:25.362.02-Jan-2020 4790.04 5199.00 85.14 2.00 144.23 2777.18
   11:08:25.562.02-Jan-2020 4790.04 5196.83 85.14 2.00 144.43 2777.18
   11:08:25.762.02-Jan-2020 4790.04 5199.26 85.14 2.00 144.63 2777.18
   11:08:25.962.02-Jan-2020 4790.04 5199.14 85.14 2.00 144.83 2777.18
   11:08:26.162.02-Jan-2020 4790.04 5199.29 85.14 2.00 145.03 2777.18
   11:08:26.362.02-Jan-2020 4790.04 5199.29 85.14 2.00 145.23 2777.18
   11:08:26.562.02-Jan-2020 4790.04 5198.66 85.14 2.00 145.43 2777.18
   11:08:26.762.02-Jan-2020 4790.04 5197.61 85.14 2.00 145.63 2777.18
   11:08:26.962.02-Jan-2020 4790.04 5199.56 85.14 2.00 145.83 2777.18
   11:08:27.162.02-Jan-2020 4790.04 5199.64 85.14 2.00 146.03 2777.18
   11:08:27.362.02-Jan-2020 4790.04 5199.64 85.14 2.00 146.23 2777.18
   11:08:27.562.02-Jan-2020 4790.04 5199.84 85.14 2.00 146.43 2777.18
   11:08:27.762.02-Jan-2020 4790.04 5197.59 85.14 2.00 146.63 2777.18
   11:08:27.962.02-Jan-2020 4790.04 5200.08 85.14 2.00 146.83 2777.18
   11:08:28.162.02-Jan-2020 4790.04 5199.99 85.14 2.00 147.03 2777.18
   11:08:28.362.02-Jan-2020 4790.04 5199.99 85.14 2.00 147.23 2777.18
   11:08:28.562.02-Jan-2020 4790.04 5198.37 85.14 2.00 147.43 2777.18
   11:08:28.762.02-Jan-2020 4790.04 5200.26 85.14 2.00 147.63 2777.18
   11:08:28.963.02-Jan-2020 4790.04 5210.97 85.14 2.00 147.83 2777.18
   11:08:29.163.02-Jan-2020 4790.04 4866.85 85.14 2.00 148.03 2777.18
   11:08:29.363.02-Jan-2020 4790.04 4866.85 85.14 2.00 148.23 2777.18
   11:08:29.563.02-Jan-2020 4790.04 4545.53 85.14 2.00 148.43 2777.18
   11:08:29.763.02-Jan-2020 4790.04 4362.47 85.14 2.00 148.63 2777.18
   11:08:29.963.02-Jan-2020 4790.04 4184.60 85.13 2.00 148.83 2777.18
   11:08:30.163.02-Jan-2020 4790.04 4030.42 85.13 2.00 149.04 2777.18
   11:08:30.363.02-Jan-2020 4790.04 4030.42 85.13 2.00 149.24 2777.18
   11:08:30.563.02-Jan-2020 4790.04 4129.68 85.13 2.00 149.44 2777.18
   11:08:30.763.02-Jan-2020 4790.04 4162.02 85.13 2.00 149.64 2777.18
   11:08:30.963.02-Jan-2020 4790.04 3953.15 85.13 2.00 149.84 2777.18
   11:08:31.163.02-Jan-2020 4790.04 4030.07 85.13 2.00 150.04 2777.18
   11:08:31.363.02-Jan-2020 4790.04 4030.07 85.13 2.00 150.24 2777.18
   11:08:31.563.02-Jan-2020 4790.04 4427.13 85.13 2.00 150.44 2777.18
   11:08:31.763.02-Jan-2020 4790.04 4304.12 85.13 2.00 150.64 2777.18
   11:08:31.963.02-Jan-2020 4790.04 4223.04 85.13 2.00 150.84 2777.18
   11:08:32.163.02-Jan-2020 4790.04 4195.53 85.13 2.00 151.04 2777.18
   11:08:32.363.02-Jan-2020 4790.04 4195.53 85.13 2.00 151.24 2777.18
   11:08:32.563.02-Jan-2020 4790.04 4468.63 85.13 2.00 151.44 2777.18
   11:08:32.763.02-Jan-2020 4790.04 4475.90 85.12 2.00 151.64 2777.18
   11:08:32.963.02-Jan-2020 4790.04 4141.60 85.12 2.00 151.84 2777.18
   11:08:33.164.02-Jan-2020 4790.04 4561.46 85.12 2.00 152.04 2777.18
   11:08:33.364.02-Jan-2020 4790.04 4561.46 85.12 2.00 152.24 2777.18
   11:08:33.564.02-Jan-2020 4790.04 4404.59 85.12 2.00 152.44 2777.18
   11:08:33.764.02-Jan-2020 4790.04 4312.94 85.12 2.00 152.64 2777.18
   11:08:33.964.02-Jan-2020 4790.04 4326.26 85.12 2.00 152.84 2777.18
   11:08:34.164.02-Jan-2020 4790.04 4487.96 85.12 2.00 153.04 2777.18
   11:08:34.364.02-Jan-2020 4790.04 4487.96 85.12 2.00 153.24 2777.18
   11:08:34.564.02-Jan-2020 4790.04 3936.76 85.12 2.00 153.44 2777.18
   11:08:34.764.02-Jan-2020 4790.04 3885.76 85.12 2.00 153.64 2777.18
   11:08:34.964.02-Jan-2020 4790.04 4580.11 85.12 2.00 153.84 2777.18
   11:08:35.164.02-Jan-2020 4790.04 4199.70 85.12 2.00 154.04 2777.18
   11:08:35.364.02-Jan-2020 4790.04 4199.70 85.12 2.00 154.24 2777.18
   11:08:35.564.02-Jan-2020 4790.04 3870.38 85.12 2.00 154.44 2777.18
   11:08:35.764.02-Jan-2020 4790.04 3628.69 85.12 2.00 154.64 2777.18
   11:08:35.964.02-Jan-2020 4790.04 5327.55 85.12 2.00 154.84 2777.18
   11:08:36.164.02-Jan-2020 4790.04 5032.50 85.12 2.00 155.04 2777.18
   11:08:36.364.02-Jan-2020 4790.04 5032.50 85.12 2.00 155.24 2777.18
   11:08:36.564.02-Jan-2020 4790.04 4272.42 85.11 2.00 155.44 2777.18
   11:08:36.764.02-Jan-2020 4790.04 3808.67 85.11 2.00 155.64 2777.18
   11:08:36.964.02-Jan-2020 4790.04 3655.47 85.11 2.00 155.84 2777.18
   11:08:37.164.02-Jan-2020 4790.04 3700.00 85.11 2.00 156.04 2777.18
   11:08:37.365.02-Jan-2020 4790.04 3700.00 85.11 2.00 156.24 2777.18
   11:08:37.565.02-Jan-2020 4790.04 3910.25 85.11 2.00 156.44 2777.18
   11:08:37.765.02-Jan-2020 4790.04 4877.66 85.11 2.00 156.64 2777.18
   11:08:37.965.02-Jan-2020 4790.04 4204.93 85.11 2.00 156.84 2777.18
   11:08:38.165.02-Jan-2020 4790.04 4228.23 85.11 2.00 157.04 2777.18
   11:08:38.365.02-Jan-2020 4790.04 4228.23 85.11 2.00 157.24 2777.18
   11:08:38.565.02-Jan-2020 4790.04 3722.28 85.11 2.00 157.44 2777.18
   11:08:38.765.02-Jan-2020 4790.04 3924.45 85.11 2.00 157.64 2777.18
   11:08:38.965.02-Jan-2020 4790.04 3772.47 85.11 2.00 157.84 2777.18
   11:08:39.165.02-Jan-2020 4790.04 3684.34 85.11 2.00 158.04 2777.18
   11:08:39.365.02-Jan-2020 4790.04 3684.34 85.11 2.00 158.24 2777.18
   11:08:39.565.02-Jan-2020 4790.04 3757.71 85.11 2.00 158.44 2777.18
   11:08:39.765.02-Jan-2020 4790.04 3758.26 85.11 2.00 158.64 2777.18
   11:08:39.965.02-Jan-2020 4790.04 3757.63 85.11 2.00 158.84 2777.18
   11:08:40.165.02-Jan-2020 4790.04 3763.68 85.11 2.00 159.04 2777.18
   11:08:40.365.02-Jan-2020 4790.04 3763.68 85.11 2.00 159.24 2777.18
   11:08:40.565.02-Jan-2020 4790.04 3767.59 85.11 2.00 159.44 2777.18
   11:08:40.765.02-Jan-2020 4790.04 3767.96 85.11 2.00 159.64 2777.18
   11:08:40.965.02-Jan-2020 4790.04 3769.50 85.10 2.00 159.84 2777.18
   11:08:41.165.02-Jan-2020 4790.04 3788.57 85.10 2.00 160.04 2777.18
   11:08:41.365.02-Jan-2020 4790.04 3788.57 85.10 2.00 160.24 2777.18
   11:08:41.565.02-Jan-2020 4790.04 3877.96 85.10 2.00 160.44 2777.18
   11:08:41.766.02-Jan-2020 4790.04 3877.60 85.10 2.00 160.64 2777.18
   11:08:41.966.02-Jan-2020 4790.04 3909.01 85.10 2.00 160.84 2777.18
