~Version Information
 VERS.                  2.0:   CWLS log ASCII Standard -VERSION 2.0
 WRAP.                   NO:   One line per depth step
~Well Information Block
#MNEM.UNIT     VALUE/NAME     DESCRIPTION
#---------     -----------    ---------------------------
 STRT.S             10:33:43 02-Jan-20: START TIME 10:33:43 02-Jan-20
 STOP.S             10:42:04 02-Jan-20: STOP TIME  10:42:04 02-Jan-20
 STEP.S                   0.00: STEP TIME
 NULL.                 -999.25: NULL VALUE
 MDS .        Operator Entered:  MAG DATA SOURCE
 UNIT.                     N/a:  LOGGING EQUIPMENT ID
 DCON.         Sperry Drilling:  DIRECTNL CONTR
 CNTY.                    Baku:  COUNTY NAME
 DOE .                     N/a:  DOE NUMBER
 RIG .                     DWG:  RIG NAME
 MWDS.                    Baku:  MWD SHOP
 REGN.                   EESSA:  REGION
 BASE.              Azerbaijan:  LOGGING EQUIPMENT BASE LOCATION
 UWI .                     N/a:  UNIQUE WELL IDENTIFIER
 API .                     N/a:  API NUMBER
 WTYP.                Deviated:  WELL TYPE
 COMP.     BP Exploration (Caspian Sea) Ltd.:  COMPANY
 SRVC.          TURAN DRILLING:  CONTRACTOR
 WELL.           E04 (Slot 23):  WELL NAME
 CTRY.              Azerbaijan:  COUNTRY NAME
 SON .        AZ-XX-0905715376:  JOB NUMBER
 FLD .                     ACG:  FIELD NAME
 PDAT.          Mean Sea Level:  PERMANENT DATUM
 FTOP.          Formation Tops:  FORM TOPS DESC
 ILTD.               Lithology:  INTERP LTH DESC
 SVYD.                  Survey:  SURVEY DESC
 DMOD.             Drill Model:  DRILL MOD DESC
 HPTY.       Minimum Curvature:  HOLE POS TYPE
 NREF.                    Grid:  NORTH REFERENCE
 SPUD.               21-Dec-19:  SPUD DATE
 DATE.      17.57.20 21-Dec-19:  END TIME
 STIM.      17.57.20 21-Dec-19:  START TIME
 DMF .             Drill Floor:  DRILL MEAS FROM
 DFST.                        :  DIST FSL TEXT
 DFWT.                        :  DIST FWL TEXT
 PROV.                        :  PROVINCE
 STAT.                        :  STATE
 LOC .                        :  LOCATION
 LMF .             Drill Floor:  LOG MEASURED FROM
 AGAP.m                  43.16:  AIR GAP
 DEP .m                3172.61:  DEPTH
 APD .m                  43.16:  DEPTH ABOVE PD
 WDMS.m                 176.20:  WD ELEV
 EGL .m                   0.00:  GROUND ELEVATION
 EPD .m                   0.00:  ELEVATION
 AZTC.deg                 6.49:  AZM TOTAL CORR
 GRDC.deg                 0.09:  GRID CORRECTION
 MDEC.deg                 6.58:  MAGNETIC DECL
 MDIP.deg                59.61:  MAGNETIC DIP
 MFLD.nT              50294.00:  MAGNETIC FIELD
 GVFD.g                   1.00:  GRAVITY FIELD
 VSDR.deg               235.12:  VERT SEC DIRECT
 TDD .m                   0.00:  TOTAL DEPTH (DRILLER)
 SDEP.m                   0.00:  START DEPTH
 UTMY.m             4448627.46:  UTM Y
 UTMX.m              514337.95:  UTM X
 LONG.deg                51.17:  LONGITUDE
 LATI.deg                40.17:  LATITUDE
 TVDS.m                  43.16:  TVDSS CORRECTN
 WHEW.m                  -5.41:  WELL HEAD E/W
 WHNS.m                  -0.12:  WELL HEAD N/S
 VSEW.m                  -5.41:  VERT SEC E/W
 VSNS.m                  -0.12:  VERT SEC N/S
 EKB .m                  43.16:  KB ELEVATION
 EDF .m                  43.16:  DF ELEVATION
 MAGU.                 1852276:  MAGUTM CHECKSUM
 VSC .                       0:  VS TO CLOSURE
~Parameter Information Block
#MNEM.UNIT       Value        Description
#---------     -----------    ---------------------------
 TCS .hr                125.29:  Time Ciculation Ended 
 DD1 .      Fakhraddin Guliyev:  Direct Drillr 1 
 DD2 .                   Sanan:  Direct Drillr 2 
 DEFF.%                   0.00:  % Det Eff 
 DRET.      04.26.40 27-Dec-19:  Drill End Time 
 DRST.      04.26.40 27-Dec-19:  Drill Start Tim 
 DTIM.hr                 80.10:  Time Drilling 
 EDEP.m                   0.00:  End Depth 
 ENG1.            Adlet Omarov:  Engineer 1 
 ENG2.         Almaz Almadatov:  Engineer 2 
 ETIM.      04.26.40 27-Dec-19:  End Time 
 HFLO.                      No:  High Flow 
 HPRE.                      No:  High Pressure 
 HTEM.                      No:  High Temp 
 HYDO.m                   1.85:  Hydro Offset 
 IMAX.deg                72.09:  Inc Max 
 IMIN.deg                59.07:  Inc Min 
 IMND.m                3901.43:  Inc Min Depth 
 IMXD.m                4753.85:  Inc Max Depth 
 LETM.      04.26.40 27-Dec-19:  Log End Time 
 LSTM.      04.26.40 27-Dec-19:  Log Start Time 
 OTIM.hr                187.88:  Time Operating 
 PMAX.psia            10202.94:  Press Op, Max 
 RUN .                     300:  Run Number 
 RRUN.                    0300:  Rig Run Number 
 SDEP.m                   0.00:  Start Depth 
 STIM.      04.26.40 27-Dec-19:  Start Time 
 SVER.                    9.20:  Sperry Version 
 MRT .                    HCIM:  Maximum Recorded Temperature 
 TTMX.degC               96.08:  Max Tool Temp 
~Curve Information Block
#MNEM.UNIT                 API CODE     Curve Description
#---------               -----------    ---------------------------
 TIME.HHMMSS            00 000 000 000:  GT Time & Date
 GTDEPTH.m              00 000 000 000:  GT Depth
 GTPQH.psia             00 000 000 000:  GT HR Quartz Pressure
 GTTQ.degC              00 000 000 000:  GT Quartz Temperature
 GTTN.NONE              00 000 000 000:  GT Test Number
 GTET.sec               00 000 000 000:  GT Elapsed Test Time
 GTTVD.m                00 000 000 000:  GT True Vertical Depth
#Other Information
#
#WARRANTY: Halliburton will use its best efforts to furnish customers with 
#accurate information and interpretations that are part of, and incident to, the services 
#provided.  However, Halliburton cannot and does not warrant the accuracy 
#or correctness of such information and interpretations.  Under no circumstances should any 
#such information or interpretation be relied upon as the sole basis for any drilling, 
#completion, production, or financial decision or any procedure involving any risk to the 
#safety of any drilling venture, drilling rig or its crew or any other third party.  The 
#Customer has full responsibility for all drilling, completion and production operation.  
#Halliburton makes no representations or warranties, either expressed or 
#implied, including, but not limited to, the implied warranties of merchantability or fitness 
#for a particular purpose, with respect to the services rendered.  In no event will 
#Halliburton be liable for failure to obtain any particular results or for 
#any damages, including, but not limited to, indirect, special or consequential damages, 
#resulting from the use of any information or interpretation provided by Halliburton.
#
~A           TIME           GTDEPTH  GTPQH  GTTQ  GTTN  GTET   GTTVD  
# ...
   10:37:33.726.02-Jan-2020 4788.22 6142.36 85.64 1.00 230.05 2776.61
   10:37:33.927.02-Jan-2020 4788.22 6142.36 85.64 1.00 230.25 2776.61
   10:37:34.127.02-Jan-2020 4788.22 6143.34 85.64 1.00 230.45 2776.61
   10:37:34.327.02-Jan-2020 4788.22 6141.10 85.64 1.00 230.65 2776.61
   10:37:34.527.02-Jan-2020 4788.22 6142.03 85.64 1.00 230.85 2776.61
   10:37:34.727.02-Jan-2020 4788.22 6141.68 85.64 1.00 231.05 2776.61
   10:37:34.927.02-Jan-2020 4788.22 6141.68 85.64 1.00 231.25 2776.61
   10:37:35.127.02-Jan-2020 4788.22 6140.22 85.64 1.00 231.45 2776.61
   10:37:35.327.02-Jan-2020 4788.22 6141.33 85.64 1.00 231.65 2776.61
   10:37:35.527.02-Jan-2020 4788.22 6142.21 85.64 1.00 231.85 2776.61
   10:37:35.727.02-Jan-2020 4788.22 6148.90 85.64 1.00 232.05 2776.61
   10:37:35.927.02-Jan-2020 4788.22 6148.90 85.64 1.00 232.25 2776.61
   10:37:36.127.02-Jan-2020 4788.22 6142.31 85.64 1.00 232.45 2776.61
   10:37:36.327.02-Jan-2020 4788.22 6142.50 85.64 1.00 232.65 2776.61
   10:37:36.527.02-Jan-2020 4788.22 6141.26 85.64 1.00 232.85 2776.61
   10:37:36.727.02-Jan-2020 4788.22 6140.91 85.64 1.00 233.05 2776.61
   10:37:36.927.02-Jan-2020 4788.22 6140.91 85.64 1.00 233.25 2776.61
   10:37:37.127.02-Jan-2020 4788.22 6144.76 85.64 1.00 233.45 2776.61
   10:37:37.327.02-Jan-2020 4788.22 6142.85 85.64 1.00 233.65 2776.61
   10:37:37.527.02-Jan-2020 4788.22 6142.80 85.64 1.00 233.85 2776.61
   10:37:37.727.02-Jan-2020 4788.22 6142.55 85.64 1.00 234.06 2776.61
   10:37:37.927.02-Jan-2020 4788.22 6142.55 85.64 1.00 234.26 2776.61
   10:37:38.128.02-Jan-2020 4788.22 6143.68 85.64 1.00 234.46 2776.61
   10:37:38.328.02-Jan-2020 4788.22 6152.04 85.64 1.00 234.66 2776.61
   10:37:38.528.02-Jan-2020 4788.22 6145.48 85.64 1.00 234.86 2776.61
   10:37:38.728.02-Jan-2020 4788.22 6142.43 85.64 1.00 235.06 2776.61
   10:37:38.928.02-Jan-2020 4788.22 6142.43 85.64 1.00 235.26 2776.61
   10:37:39.128.02-Jan-2020 4788.22 6141.58 85.64 1.00 235.46 2776.61
   10:37:39.328.02-Jan-2020 4788.22 6140.90 85.64 1.00 235.66 2776.61
   10:37:39.528.02-Jan-2020 4788.22 6141.73 85.64 1.00 235.86 2776.61
   10:37:39.728.02-Jan-2020 4788.22 6151.51 85.64 1.00 236.06 2776.61
   10:37:39.928.02-Jan-2020 4788.22 6151.51 85.64 1.00 236.26 2776.61
   10:37:40.128.02-Jan-2020 4788.22 6142.85 85.64 1.00 236.46 2776.61
   10:37:40.328.02-Jan-2020 4788.22 6142.22 85.64 1.00 236.66 2776.61
   10:37:40.528.02-Jan-2020 4788.22 6148.42 85.64 1.00 236.86 2776.61
   10:37:40.728.02-Jan-2020 4788.22 6145.54 85.64 1.00 237.06 2776.61
   10:37:40.928.02-Jan-2020 4788.22 6145.54 85.64 1.00 237.26 2776.61
   10:37:41.128.02-Jan-2020 4788.22 6143.35 85.64 1.00 237.46 2776.61
   10:37:41.328.02-Jan-2020 4788.22 6145.97 85.64 1.00 237.66 2776.61
   10:37:41.528.02-Jan-2020 4788.22 6146.96 85.64 1.00 237.86 2776.61
   10:37:41.728.02-Jan-2020 4788.22 6143.69 85.64 1.00 238.06 2776.61
   10:37:41.928.02-Jan-2020 4788.22 6143.69 85.64 1.00 238.26 2776.61
   10:37:42.128.02-Jan-2020 4788.22 6150.22 85.64 1.00 238.46 2776.61
   10:37:42.329.02-Jan-2020 4788.22 6143.46 85.64 1.00 238.66 2776.61
   10:37:42.529.02-Jan-2020 4788.22 6142.35 85.64 1.00 238.86 2776.61
   10:37:42.729.02-Jan-2020 4788.22 6142.70 85.64 1.00 239.06 2776.61
   10:37:42.929.02-Jan-2020 4788.22 6142.70 85.64 1.00 239.26 2776.61
   10:37:43.129.02-Jan-2020 4788.22 6139.70 85.64 1.00 239.46 2776.61
   10:37:43.329.02-Jan-2020 4788.22 6140.14 85.64 1.00 239.66 2776.61
   10:37:43.529.02-Jan-2020 4788.22 6141.37 85.64 1.00 239.86 2776.61
   10:37:43.729.02-Jan-2020 4788.22 6145.79 85.64 1.00 240.06 2776.61
   10:37:43.929.02-Jan-2020 4788.22 6145.79 85.64 1.00 240.26 2776.61
   10:37:44.129.02-Jan-2020 4788.22 6143.53 85.64 1.00 240.46 2776.61
   10:37:44.329.02-Jan-2020 4788.22 6141.88 85.64 1.00 240.66 2776.61
   10:37:44.529.02-Jan-2020 4788.22 6142.33 85.64 1.00 240.86 2776.61
   10:37:44.729.02-Jan-2020 4788.22 6141.01 85.64 1.00 241.06 2776.61
   10:37:44.929.02-Jan-2020 4788.22 6141.01 85.64 1.00 241.26 2776.61
   10:37:45.129.02-Jan-2020 4788.22 6148.60 85.64 1.00 241.46 2776.61
   10:37:45.329.02-Jan-2020 4788.22 6147.10 85.64 1.00 241.66 2776.61
   10:37:45.529.02-Jan-2020 4788.22 6143.24 85.64 1.00 241.86 2776.61
   10:37:45.729.02-Jan-2020 4788.22 6143.41 85.64 1.00 242.06 2776.61
   10:37:45.929.02-Jan-2020 4788.22 6143.41 85.64 1.00 242.26 2776.61
   10:37:46.129.02-Jan-2020 4788.22 6143.41 85.64 1.00 242.46 2776.61
   10:37:46.329.02-Jan-2020 4788.22 6143.91 85.64 1.00 242.66 2776.61
   10:37:46.529.02-Jan-2020 4788.22 6150.43 85.64 1.00 242.86 2776.61
   10:37:46.730.02-Jan-2020 4788.22 6147.01 85.64 1.00 243.06 2776.61
   10:37:46.930.02-Jan-2020 4788.22 6147.01 85.64 1.00 243.26 2776.61
   10:37:47.130.02-Jan-2020 4788.22 6142.26 85.64 1.00 243.46 2776.61
   10:37:47.330.02-Jan-2020 4788.22 6141.44 85.63 1.00 243.66 2776.61
   10:37:47.530.02-Jan-2020 4788.22 6140.94 85.63 1.00 243.86 2776.61
   10:37:47.730.02-Jan-2020 4788.22 6142.13 85.63 1.00 244.06 2776.61
   10:37:47.930.02-Jan-2020 4788.22 6142.13 85.63 1.00 244.26 2776.61
   10:37:48.130.02-Jan-2020 4788.22 6147.35 85.63 1.00 244.46 2776.61
   10:37:48.330.02-Jan-2020 4788.22 6142.21 85.63 1.00 244.66 2776.61
   10:37:48.530.02-Jan-2020 4788.22 6146.17 85.63 1.00 244.86 2776.61
   10:37:48.730.02-Jan-2020 4788.22 6147.15 85.63 1.00 245.06 2776.61
   10:37:48.930.02-Jan-2020 4788.22 6147.15 85.63 1.00 245.26 2776.61
   10:37:49.130.02-Jan-2020 4788.22 6141.90 85.63 1.00 245.46 2776.61
   10:37:49.330.02-Jan-2020 4788.22 6142.91 85.63 1.00 245.66 2776.61
   10:37:49.530.02-Jan-2020 4788.22 6150.54 85.63 1.00 245.86 2776.61
   10:37:49.730.02-Jan-2020 4788.22 6143.67 85.63 1.00 246.06 2776.61
   10:37:49.930.02-Jan-2020 4788.22 6143.67 85.63 1.00 246.26 2776.61
   10:37:50.130.02-Jan-2020 4788.22 6141.99 85.63 1.00 246.46 2776.61
   10:37:50.330.02-Jan-2020 4788.22 6148.21 85.63 1.00 246.66 2776.61
   10:37:50.530.02-Jan-2020 4788.22 6145.60 85.63 1.00 246.86 2776.61
   10:37:50.730.02-Jan-2020 4788.22 6142.69 85.63 1.00 247.06 2776.61
   10:37:50.931.02-Jan-2020 4788.22 6142.69 85.63 1.00 247.26 2776.61
   10:37:51.131.02-Jan-2020 4788.22 6141.06 85.63 1.00 247.46 2776.61
   10:37:51.331.02-Jan-2020 4788.22 6140.01 85.63 1.00 247.66 2776.61
   10:37:51.531.02-Jan-2020 4788.22 6140.71 85.63 1.00 247.86 2776.61
   10:37:51.731.02-Jan-2020 4788.22 6142.05 85.63 1.00 248.06 2776.61
   10:37:51.931.02-Jan-2020 4788.22 6142.05 85.63 1.00 248.26 2776.61
   10:37:52.131.02-Jan-2020 4788.22 6144.68 85.63 1.00 248.46 2776.61
   10:37:52.331.02-Jan-2020 4788.22 6141.79 85.63 1.00 248.66 2776.61
   10:37:52.531.02-Jan-2020 4788.22 6142.31 85.63 1.00 248.86 2776.61
   10:37:52.731.02-Jan-2020 4788.22 6142.04 85.63 1.00 249.06 2776.61
   10:37:52.931.02-Jan-2020 4788.22 6142.04 85.63 1.00 249.26 2776.61
   10:37:53.131.02-Jan-2020 4788.22 6141.69 85.63 1.00 249.46 2776.61
   10:37:53.331.02-Jan-2020 4788.22 6150.49 85.63 1.00 249.66 2776.61
   10:37:53.531.02-Jan-2020 4788.22 6145.12 85.63 1.00 249.86 2776.61
   10:37:53.731.02-Jan-2020 4788.22 6142.82 85.63 1.00 250.06 2776.61
   10:37:53.931.02-Jan-2020 4788.22 6142.82 85.63 1.00 250.26 2776.61
   10:37:54.131.02-Jan-2020 4788.22 6142.54 85.63 1.00 250.46 2776.61
   10:37:54.331.02-Jan-2020 4788.22 6142.43 85.63 1.00 250.66 2776.61
   10:37:54.531.02-Jan-2020 4788.22 6142.77 85.63 1.00 250.86 2776.61
   10:37:54.731.02-Jan-2020 4788.22 6150.91 85.63 1.00 251.06 2776.61
   10:37:54.931.02-Jan-2020 4788.22 6150.91 85.63 1.00 251.26 2776.61
   10:37:55.132.02-Jan-2020 4788.22 6141.19 85.63 1.00 251.46 2776.61
   10:37:55.332.02-Jan-2020 4788.22 6140.91 85.63 1.00 251.66 2776.61
   10:37:55.532.02-Jan-2020 4788.22 6140.49 85.63 1.00 251.86 2776.61
   10:37:55.732.02-Jan-2020 4788.22 6140.31 85.63 1.00 252.06 2776.61
   10:37:55.932.02-Jan-2020 4788.22 6140.31 85.63 1.00 252.26 2776.61
   10:37:56.132.02-Jan-2020 4788.22 6151.47 85.63 1.00 252.46 2776.61
   10:37:56.332.02-Jan-2020 4788.22 6145.43 85.63 1.00 252.66 2776.61
   10:37:56.532.02-Jan-2020 4788.22 6142.23 85.63 1.00 252.86 2776.61
