~Version Information
 VERS.                  2.0:   CWLS log ASCII Standard -VERSION 2.0
 WRAP.                   NO:   One line per depth step
~Well Information Block
#MNEM.UNIT     VALUE/NAME     DESCRIPTION
#---------     -----------    ---------------------------
 STRT.S             13:48:18 02-Jan-20: START TIME 13:48:18 02-Jan-20
 STOP.S             13:56:34 02-Jan-20: STOP TIME  13:56:34 02-Jan-20
 STEP.S                   0.00: STEP TIME
 NULL.                 -999.25: NULL VALUE
 MDS .        Operator Entered:  MAG DATA SOURCE
 UNIT.                     N/a:  LOGGING EQUIPMENT ID
 DCON.         Sperry Drilling:  DIRECTNL CONTR
 CNTY.                    Baku:  COUNTY NAME
 DOE .                     N/a:  DOE NUMBER
 RIG .                     DWG:  RIG NAME
 MWDS.                    Baku:  MWD SHOP
 REGN.                   EESSA:  REGION
 BASE.              Azerbaijan:  LOGGING EQUIPMENT BASE LOCATION
 UWI .                     N/a:  UNIQUE WELL IDENTIFIER
 API .                     N/a:  API NUMBER
 WTYP.                Deviated:  WELL TYPE
 COMP.     BP Exploration (Caspian Sea) Ltd.:  COMPANY
 SRVC.          TURAN DRILLING:  CONTRACTOR
 WELL.           E04 (Slot 23):  WELL NAME
 CTRY.              Azerbaijan:  COUNTRY NAME
 SON .        AZ-XX-0905715376:  JOB NUMBER
 FLD .                     ACG:  FIELD NAME
 PDAT.          Mean Sea Level:  PERMANENT DATUM
 FTOP.          Formation Tops:  FORM TOPS DESC
 ILTD.               Lithology:  INTERP LTH DESC
 SVYD.                  Survey:  SURVEY DESC
 DMOD.             Drill Model:  DRILL MOD DESC
 HPTY.       Minimum Curvature:  HOLE POS TYPE
 NREF.                    Grid:  NORTH REFERENCE
 SPUD.               21-Dec-19:  SPUD DATE
 DATE.      17.57.20 21-Dec-19:  END TIME
 STIM.      17.57.20 21-Dec-19:  START TIME
 DMF .             Drill Floor:  DRILL MEAS FROM
 DFST.                        :  DIST FSL TEXT
 DFWT.                        :  DIST FWL TEXT
 PROV.                        :  PROVINCE
 STAT.                        :  STATE
 LOC .                        :  LOCATION
 LMF .             Drill Floor:  LOG MEASURED FROM
 AGAP.m                  43.16:  AIR GAP
 DEP .m                3172.61:  DEPTH
 APD .m                  43.16:  DEPTH ABOVE PD
 WDMS.m                 176.20:  WD ELEV
 EGL .m                   0.00:  GROUND ELEVATION
 EPD .m                   0.00:  ELEVATION
 AZTC.deg                 6.49:  AZM TOTAL CORR
 GRDC.deg                 0.09:  GRID CORRECTION
 MDEC.deg                 6.58:  MAGNETIC DECL
 MDIP.deg                59.61:  MAGNETIC DIP
 MFLD.nT              50294.00:  MAGNETIC FIELD
 GVFD.g                   1.00:  GRAVITY FIELD
 VSDR.deg               235.12:  VERT SEC DIRECT
 TDD .m                   0.00:  TOTAL DEPTH (DRILLER)
 SDEP.m                   0.00:  START DEPTH
 UTMY.m             4448627.46:  UTM Y
 UTMX.m              514337.95:  UTM X
 LONG.deg                51.17:  LONGITUDE
 LATI.deg                40.17:  LATITUDE
 TVDS.m                  43.16:  TVDSS CORRECTN
 WHEW.m                  -5.41:  WELL HEAD E/W
 WHNS.m                  -0.12:  WELL HEAD N/S
 VSEW.m                  -5.41:  VERT SEC E/W
 VSNS.m                  -0.12:  VERT SEC N/S
 EKB .m                  43.16:  KB ELEVATION
 EDF .m                  43.16:  DF ELEVATION
 MAGU.                 1852276:  MAGUTM CHECKSUM
 VSC .                       0:  VS TO CLOSURE
~Parameter Information Block
#MNEM.UNIT       Value        Description
#---------     -----------    ---------------------------
 TCS .hr                125.29:  Time Ciculation Ended 
 DD1 .      Fakhraddin Guliyev:  Direct Drillr 1 
 DD2 .                   Sanan:  Direct Drillr 2 
 DEFF.%                   0.00:  % Det Eff 
 DRET.      04.26.40 27-Dec-19:  Drill End Time 
 DRST.      04.26.40 27-Dec-19:  Drill Start Tim 
 DTIM.hr                 80.10:  Time Drilling 
 EDEP.m                   0.00:  End Depth 
 ENG1.            Adlet Omarov:  Engineer 1 
 ENG2.         Almaz Almadatov:  Engineer 2 
 ETIM.      04.26.40 27-Dec-19:  End Time 
 HFLO.                      No:  High Flow 
 HPRE.                      No:  High Pressure 
 HTEM.                      No:  High Temp 
 HYDO.m                   1.85:  Hydro Offset 
 IMAX.deg                72.09:  Inc Max 
 IMIN.deg                59.07:  Inc Min 
 IMND.m                3901.43:  Inc Min Depth 
 IMXD.m                4753.85:  Inc Max Depth 
 LETM.      04.26.40 27-Dec-19:  Log End Time 
 LSTM.      04.26.40 27-Dec-19:  Log Start Time 
 OTIM.hr                187.88:  Time Operating 
 PMAX.psia            10202.94:  Press Op, Max 
 RUN .                     300:  Run Number 
 RRUN.                    0300:  Rig Run Number 
 SDEP.m                   0.00:  Start Depth 
 STIM.      04.26.40 27-Dec-19:  Start Time 
 SVER.                    9.20:  Sperry Version 
 MRT .                    HCIM:  Maximum Recorded Temperature 
 TTMX.degC               96.08:  Max Tool Temp 
~Curve Information Block
#MNEM.UNIT                 API CODE     Curve Description
#---------               -----------    ---------------------------
 TIME.HHMMSS            00 000 000 000:  GT Time & Date
 GTDEPTH.m              00 000 000 000:  GT Depth
 GTPQH.psia             00 000 000 000:  GT HR Quartz Pressure
 GTTQ.degC              00 000 000 000:  GT Quartz Temperature
 GTTN.NONE              00 000 000 000:  GT Test Number
 GTET.sec               00 000 000 000:  GT Elapsed Test Time
 GTTVD.m                00 000 000 000:  GT True Vertical Depth
#Other Information
#
#WARRANTY: Halliburton will use its best efforts to furnish customers with 
#accurate information and interpretations that are part of, and incident to, the services 
#provided.  However, Halliburton cannot and does not warrant the accuracy 
#or correctness of such information and interpretations.  Under no circumstances should any 
#such information or interpretation be relied upon as the sole basis for any drilling, 
#completion, production, or financial decision or any procedure involving any risk to the 
#safety of any drilling venture, drilling rig or its crew or any other third party.  The 
#Customer has full responsibility for all drilling, completion and production operation.  
#Halliburton makes no representations or warranties, either expressed or 
#implied, including, but not limited to, the implied warranties of merchantability or fitness 
#for a particular purpose, with respect to the services rendered.  In no event will 
#Halliburton be liable for failure to obtain any particular results or for 
#any damages, including, but not limited to, indirect, special or consequential damages, 
#resulting from the use of any information or interpretation provided by Halliburton.
#
~A           TIME           GTDEPTH  GTPQH  GTTQ  GTTN  GTET   GTTVD  
# ...
   13:49:50.244.02-Jan-2020 4773.81 4261.20 83.68 4.00  92.00 2772.13
   13:49:50.444.02-Jan-2020 4773.81 4261.20 83.68 4.00  92.20 2772.13
   13:49:50.644.02-Jan-2020 4773.81 4269.67 83.68 4.00  92.40 2772.13
   13:49:50.844.02-Jan-2020 4773.81 4271.45 83.68 4.00  92.60 2772.13
   13:49:51.044.02-Jan-2020 4773.81 4277.90 83.68 4.00  92.80 2772.13
   13:49:51.244.02-Jan-2020 4773.81 4282.75 83.68 4.00  93.00 2772.13
   13:49:51.444.02-Jan-2020 4773.81 4282.75 83.68 4.00  93.20 2772.13
   13:49:51.644.02-Jan-2020 4773.81 4292.07 83.68 4.00  93.40 2772.13
   13:49:51.844.02-Jan-2020 4773.81 4296.53 83.68 4.00  93.60 2772.13
   13:49:52.044.02-Jan-2020 4773.81 4297.99 83.68 4.00  93.80 2772.13
   13:49:52.244.02-Jan-2020 4773.81 4303.83 83.68 4.00  94.00 2772.13
   13:49:52.444.02-Jan-2020 4773.81 4303.83 83.68 4.00  94.20 2772.13
   13:49:52.644.02-Jan-2020 4773.81 4312.86 83.68 4.00  94.40 2772.13
   13:49:52.844.02-Jan-2020 4773.81 4317.49 83.68 4.00  94.60 2772.13
   13:49:53.044.02-Jan-2020 4773.81 4321.63 83.68 4.00  94.80 2772.13
   13:49:53.244.02-Jan-2020 4773.81 4325.99 83.68 4.00  95.00 2772.13
   13:49:53.444.02-Jan-2020 4773.81 4325.99 83.68 4.00  95.20 2772.13
   13:49:53.644.02-Jan-2020 4773.81 4332.36 83.68 4.00  95.40 2772.13
   13:49:53.844.02-Jan-2020 4773.81 4336.60 83.68 4.00  95.60 2772.13
   13:49:54.044.02-Jan-2020 4773.81 4341.06 83.68 4.00  95.80 2772.13
   13:49:54.244.02-Jan-2020 4773.81 4341.92 83.68 4.00  96.00 2772.13
   13:49:54.444.02-Jan-2020 4773.81 4341.92 83.68 4.00  96.20 2772.13
   13:49:54.644.02-Jan-2020 4773.81 4351.26 83.68 4.00  96.40 2772.13
   13:49:54.844.02-Jan-2020 4773.81 4355.43 83.68 4.00  96.60 2772.13
   13:49:55.044.02-Jan-2020 4773.81 4359.29 83.68 4.00  96.80 2772.13
   13:49:55.244.02-Jan-2020 4773.81 4363.14 83.68 4.00  97.00 2772.13
   13:49:55.444.02-Jan-2020 4773.81 4363.14 83.68 4.00  97.20 2772.13
   13:49:55.644.02-Jan-2020 4773.81 4368.65 83.68 4.00  97.40 2772.13
   13:49:55.844.02-Jan-2020 4773.81 4372.13 83.68 4.00  97.60 2772.13
   13:49:56.044.02-Jan-2020 4773.81 4376.08 83.68 4.00  97.80 2772.13
   13:49:56.244.02-Jan-2020 4773.81 4376.98 83.68 4.00  98.00 2772.13
   13:49:56.444.02-Jan-2020 4773.81 4376.98 83.68 4.00  98.20 2772.13
   13:49:56.644.02-Jan-2020 4773.81 4386.00 83.68 4.00  98.40 2772.13
   13:49:56.844.02-Jan-2020 4773.81 4389.89 83.68 4.00  98.60 2772.13
   13:49:57.044.02-Jan-2020 4773.81 4393.46 83.68 4.00  98.80 2772.13
   13:49:57.244.02-Jan-2020 4773.81 4396.74 83.68 4.00  99.00 2772.13
   13:49:57.444.02-Jan-2020 4773.81 4396.74 83.68 4.00  99.20 2772.13
   13:49:57.644.02-Jan-2020 4773.81 4403.76 83.68 4.00  99.40 2772.13
   13:49:57.844.02-Jan-2020 4773.81 4404.95 83.68 4.00  99.60 2772.13
   13:49:58.044.02-Jan-2020 4773.81 4408.37 83.68 4.00  99.80 2772.13
   13:49:58.244.02-Jan-2020 4773.81 4412.03 83.68 4.00 100.00 2772.13
   13:49:58.444.02-Jan-2020 4773.81 4412.03 83.68 4.00 100.20 2772.13
   13:49:58.644.02-Jan-2020 4773.81 4419.54 83.68 4.00 100.40 2772.13
   13:49:58.844.02-Jan-2020 4773.81 4422.93 83.68 4.00 100.60 2772.13
   13:49:59.044.02-Jan-2020 4773.81 4425.54 83.68 4.00 100.80 2772.13
   13:49:59.244.02-Jan-2020 4773.81 4426.38 83.68 4.00 101.00 2772.13
   13:49:59.444.02-Jan-2020 4773.81 4426.38 83.68 4.00 101.20 2772.13
   13:49:59.644.02-Jan-2020 4773.81 4434.36 83.68 4.00 101.40 2772.13
   13:49:59.844.02-Jan-2020 4773.81 4437.55 83.68 4.00 101.60 2772.13
   13:50:00.044.02-Jan-2020 4773.81 4440.70 83.68 4.00 101.80 2772.13
   13:50:00.244.02-Jan-2020 4773.81 4443.83 83.68 4.00 102.00 2772.13
   13:50:00.444.02-Jan-2020 4773.81 4443.83 83.68 4.00 102.20 2772.13
   13:50:00.644.02-Jan-2020 4773.81 4446.52 83.68 4.00 102.41 2772.13
   13:50:00.844.02-Jan-2020 4773.81 4450.68 83.68 4.00 102.61 2772.13
   13:50:01.044.02-Jan-2020 4773.81 4453.63 83.68 4.00 102.81 2772.13
   13:50:01.244.02-Jan-2020 4773.81 4454.76 83.68 4.00 103.01 2772.13
   13:50:01.444.02-Jan-2020 4773.81 4454.76 83.68 4.00 103.21 2772.13
   13:50:01.644.02-Jan-2020 4773.81 4461.44 83.68 4.00 103.41 2772.13
   13:50:01.844.02-Jan-2020 4773.81 4464.40 83.68 4.00 103.61 2772.13
   13:50:02.044.02-Jan-2020 4773.81 4466.68 83.68 4.00 103.81 2772.13
   13:50:02.244.02-Jan-2020 4773.81 4467.32 83.68 4.00 104.01 2772.13
   13:50:02.444.02-Jan-2020 4773.81 4467.32 83.68 4.00 104.21 2772.13
   13:50:02.644.02-Jan-2020 4773.81 4473.93 83.68 4.00 104.41 2772.13
   13:50:02.844.02-Jan-2020 4773.81 4477.00 83.68 4.00 104.61 2772.13
   13:50:03.044.02-Jan-2020 4773.81 4479.90 83.68 4.00 104.81 2772.13
   13:50:03.244.02-Jan-2020 4773.81 4479.27 83.68 4.00 105.01 2772.13
   13:50:03.444.02-Jan-2020 4773.81 4479.27 83.68 4.00 105.21 2772.13
   13:50:03.644.02-Jan-2020 4773.81 4485.80 83.68 4.00 105.41 2772.13
   13:50:03.844.02-Jan-2020 4773.81 4487.94 83.68 4.00 105.61 2772.13
   13:50:04.044.02-Jan-2020 4773.81 4488.54 83.68 4.00 105.81 2772.13
   13:50:04.244.02-Jan-2020 4773.81 4492.66 83.68 4.00 106.01 2772.13
   13:50:04.444.02-Jan-2020 4773.81 4492.66 83.68 4.00 106.21 2772.13
   13:50:04.644.02-Jan-2020 4773.81 4497.70 83.68 4.00 106.41 2772.13
   13:50:04.844.02-Jan-2020 4773.81 4500.15 83.68 4.00 106.61 2772.13
   13:50:05.044.02-Jan-2020 4773.81 4502.57 83.68 4.00 106.81 2772.13
   13:50:05.244.02-Jan-2020 4773.81 4504.94 83.68 4.00 107.01 2772.13
   13:50:05.444.02-Jan-2020 4773.81 4504.94 83.68 4.00 107.21 2772.13
   13:50:05.644.02-Jan-2020 4773.81 4506.31 83.68 4.00 107.41 2772.13
   13:50:05.844.02-Jan-2020 4773.81 4510.05 83.68 4.00 107.61 2772.13
   13:50:06.045.02-Jan-2020 4773.81 4511.98 83.68 4.00 107.81 2772.13
   13:50:06.245.02-Jan-2020 4773.81 4514.40 83.68 4.00 108.01 2772.13
   13:50:06.445.02-Jan-2020 4773.81 4514.40 83.68 4.00 108.21 2772.13
   13:50:06.645.02-Jan-2020 4773.81 4518.82 83.68 4.00 108.41 2772.13
   13:50:06.845.02-Jan-2020 4773.81 4519.37 83.68 4.00 108.61 2772.13
   13:50:07.045.02-Jan-2020 4773.81 4521.99 83.68 4.00 108.81 2772.13
   13:50:07.245.02-Jan-2020 4773.81 4524.33 83.68 4.00 109.01 2772.13
   13:50:07.445.02-Jan-2020 4773.81 4524.33 83.68 4.00 109.21 2772.13
   13:50:07.645.02-Jan-2020 4773.81 4528.61 83.68 4.00 109.41 2772.13
   13:50:07.845.02-Jan-2020 4773.81 4530.80 83.68 4.00 109.61 2772.13
   13:50:08.045.02-Jan-2020 4773.81 4532.39 83.68 4.00 109.81 2772.13
   13:50:08.245.02-Jan-2020 4773.81 4532.41 83.68 4.00 110.01 2772.13
   13:50:08.445.02-Jan-2020 4773.81 4532.41 83.68 4.00 110.21 2772.13
   13:50:08.645.02-Jan-2020 4773.81 4538.67 83.68 4.00 110.41 2772.13
   13:50:08.845.02-Jan-2020 4773.81 4540.85 83.68 4.00 110.61 2772.13
   13:50:09.045.02-Jan-2020 4773.81 4540.09 83.68 4.00 110.81 2772.13
   13:50:09.245.02-Jan-2020 4773.81 4543.92 83.68 4.00 111.01 2772.13
   13:50:09.445.02-Jan-2020 4773.81 4543.92 83.68 4.00 111.21 2772.13
   13:50:09.645.02-Jan-2020 4773.81 4548.03 83.68 4.00 111.41 2772.13
   13:50:09.845.02-Jan-2020 4773.81 4547.33 83.68 4.00 111.61 2772.13
   13:50:10.045.02-Jan-2020 4773.81 4551.25 83.68 4.00 111.81 2772.13
   13:50:10.245.02-Jan-2020 4773.81 4552.98 83.68 4.00 112.01 2772.13
   13:50:10.445.02-Jan-2020 4773.81 4552.98 83.68 4.00 112.21 2772.13
   13:50:10.645.02-Jan-2020 4773.81 4554.94 83.68 4.00 112.41 2772.13
   13:50:10.845.02-Jan-2020 4773.81 4557.86 83.68 4.00 112.61 2772.13
   13:50:11.045.02-Jan-2020 4773.81 4561.00 83.68 4.00 112.81 2772.13
   13:50:11.245.02-Jan-2020 4773.81 4563.65 83.68 4.00 113.01 2772.13
   13:50:11.445.02-Jan-2020 4773.81 4563.65 83.68 4.00 113.21 2772.13
   13:50:11.645.02-Jan-2020 4773.81 4567.18 83.68 4.00 113.41 2772.13
   13:50:11.845.02-Jan-2020 4773.81 4569.53 83.68 4.00 113.61 2772.13
   13:50:12.045.02-Jan-2020 4773.81 4572.04 83.68 4.00 113.81 2772.13
   13:50:12.245.02-Jan-2020 4773.81 4574.27 83.68 4.00 114.01 2772.13
   13:50:12.445.02-Jan-2020 4773.81 4574.27 83.68 4.00 114.21 2772.13
   13:50:12.645.02-Jan-2020 4773.81 4578.71 83.68 4.00 114.41 2772.13
   13:50:12.845.02-Jan-2020 4773.81 4580.89 83.68 4.00 114.61 2772.13
   13:50:13.045.02-Jan-2020 4773.81 4580.98 83.68 4.00 114.81 2772.13
