~Version Information
 VERS.                  2.0:   CWLS log ASCII Standard -VERSION 2.0
 WRAP.                   NO:   One line per depth step
~Well Information Block
#MNEM.UNIT     VALUE/NAME     DESCRIPTION
#---------     -----------    ---------------------------
 STRT.S             11:06:01 02-Jan-20: START TIME 11:06:01 02-Jan-20
 STOP.S             11:13:00 02-Jan-20: STOP TIME  11:13:00 02-Jan-20
 STEP.S                   0.00: STEP TIME
 NULL.                 -999.25: NULL VALUE
 MDS .        Operator Entered:  MAG DATA SOURCE
 UNIT.                     N/a:  LOGGING EQUIPMENT ID
 DCON.         Sperry Drilling:  DIRECTNL CONTR
 CNTY.                    Baku:  COUNTY NAME
 DOE .                     N/a:  DOE NUMBER
 RIG .                     DWG:  RIG NAME
 MWDS.                    Baku:  MWD SHOP
 REGN.                   EESSA:  REGION
 BASE.              Azerbaijan:  LOGGING EQUIPMENT BASE LOCATION
 UWI .                     N/a:  UNIQUE WELL IDENTIFIER
 API .                     N/a:  API NUMBER
 WTYP.                Deviated:  WELL TYPE
 COMP.     BP Exploration (Caspian Sea) Ltd.:  COMPANY
 SRVC.          TURAN DRILLING:  CONTRACTOR
 WELL.           E04 (Slot 23):  WELL NAME
 CTRY.              Azerbaijan:  COUNTRY NAME
 SON .        AZ-XX-0905715376:  JOB NUMBER
 FLD .                     ACG:  FIELD NAME
 PDAT.          Mean Sea Level:  PERMANENT DATUM
 FTOP.          Formation Tops:  FORM TOPS DESC
 ILTD.               Lithology:  INTERP LTH DESC
 SVYD.                  Survey:  SURVEY DESC
 DMOD.             Drill Model:  DRILL MOD DESC
 HPTY.       Minimum Curvature:  HOLE POS TYPE
 NREF.                    Grid:  NORTH REFERENCE
 SPUD.               21-Dec-19:  SPUD DATE
 DATE.      17.57.20 21-Dec-19:  END TIME
 STIM.      17.57.20 21-Dec-19:  START TIME
 DMF .             Drill Floor:  DRILL MEAS FROM
 DFST.                        :  DIST FSL TEXT
 DFWT.                        :  DIST FWL TEXT
 PROV.                        :  PROVINCE
 STAT.                        :  STATE
 LOC .                        :  LOCATION
 LMF .             Drill Floor:  LOG MEASURED FROM
 AGAP.m                  43.16:  AIR GAP
 DEP .m                3172.61:  DEPTH
 APD .m                  43.16:  DEPTH ABOVE PD
 WDMS.m                 176.20:  WD ELEV
 EGL .m                   0.00:  GROUND ELEVATION
 EPD .m                   0.00:  ELEVATION
 AZTC.deg                 6.49:  AZM TOTAL CORR
 GRDC.deg                 0.09:  GRID CORRECTION
 MDEC.deg                 6.58:  MAGNETIC DECL
 MDIP.deg                59.61:  MAGNETIC DIP
 MFLD.nT              50294.00:  MAGNETIC FIELD
 GVFD.g                   1.00:  GRAVITY FIELD
 VSDR.deg               235.12:  VERT SEC DIRECT
 TDD .m                   0.00:  TOTAL DEPTH (DRILLER)
 SDEP.m                   0.00:  START DEPTH
 UTMY.m             4448627.46:  UTM Y
 UTMX.m              514337.95:  UTM X
 LONG.deg                51.17:  LONGITUDE
 LATI.deg                40.17:  LATITUDE
 TVDS.m                  43.16:  TVDSS CORRECTN
 WHEW.m                  -5.41:  WELL HEAD E/W
 WHNS.m                  -0.12:  WELL HEAD N/S
 VSEW.m                  -5.41:  VERT SEC E/W
 VSNS.m                  -0.12:  VERT SEC N/S
 EKB .m                  43.16:  KB ELEVATION
 EDF .m                  43.16:  DF ELEVATION
 MAGU.                 1852276:  MAGUTM CHECKSUM
 VSC .                       0:  VS TO CLOSURE
~Parameter Information Block
#MNEM.UNIT       Value        Description
#---------     -----------    ---------------------------
 TCS .hr                125.29:  Time Ciculation Ended 
 DD1 .      Fakhraddin Guliyev:  Direct Drillr 1 
 DD2 .                   Sanan:  Direct Drillr 2 
 DEFF.%                   0.00:  % Det Eff 
 DRET.      04.26.40 27-Dec-19:  Drill End Time 
 DRST.      04.26.40 27-Dec-19:  Drill Start Tim 
 DTIM.hr                 80.10:  Time Drilling 
 EDEP.m                   0.00:  End Depth 
 ENG1.            Adlet Omarov:  Engineer 1 
 ENG2.         Almaz Almadatov:  Engineer 2 
 ETIM.      04.26.40 27-Dec-19:  End Time 
 HFLO.                      No:  High Flow 
 HPRE.                      No:  High Pressure 
 HTEM.                      No:  High Temp 
 HYDO.m                   1.85:  Hydro Offset 
 IMAX.deg                72.09:  Inc Max 
 IMIN.deg                59.07:  Inc Min 
 IMND.m                3901.43:  Inc Min Depth 
 IMXD.m                4753.85:  Inc Max Depth 
 LETM.      04.26.40 27-Dec-19:  Log End Time 
 LSTM.      04.26.40 27-Dec-19:  Log Start Time 
 OTIM.hr                187.88:  Time Operating 
 PMAX.psia            10202.94:  Press Op, Max 
 RUN .                     300:  Run Number 
 RRUN.                    0300:  Rig Run Number 
 SDEP.m                   0.00:  Start Depth 
 STIM.      04.26.40 27-Dec-19:  Start Time 
 SVER.                    9.20:  Sperry Version 
 MRT .                    HCIM:  Maximum Recorded Temperature 
 TTMX.degC               96.08:  Max Tool Temp 
~Curve Information Block
#MNEM.UNIT                 API CODE     Curve Description
#---------               -----------    ---------------------------
 TIME.HHMMSS            00 000 000 000:  GT Time & Date
 GTDEPTH.m              00 000 000 000:  GT Depth
 GTPQH.psia             00 000 000 000:  GT HR Quartz Pressure
 GTTQ.degC              00 000 000 000:  GT Quartz Temperature
 GTTN.NONE              00 000 000 000:  GT Test Number
 GTET.sec               00 000 000 000:  GT Elapsed Test Time
 GTTVD.m                00 000 000 000:  GT True Vertical Depth
#Other Information
#
#WARRANTY: Halliburton will use its best efforts to furnish customers with 
#accurate information and interpretations that are part of, and incident to, the services 
#provided.  However, Halliburton cannot and does not warrant the accuracy 
#or correctness of such information and interpretations.  Under no circumstances should any 
#such information or interpretation be relied upon as the sole basis for any drilling, 
#completion, production, or financial decision or any procedure involving any risk to the 
#safety of any drilling venture, drilling rig or its crew or any other third party.  The 
#Customer has full responsibility for all drilling, completion and production operation.  
#Halliburton makes no representations or warranties, either expressed or 
#implied, including, but not limited to, the implied warranties of merchantability or fitness 
#for a particular purpose, with respect to the services rendered.  In no event will 
#Halliburton be liable for failure to obtain any particular results or for 
#any damages, including, but not limited to, indirect, special or consequential damages, 
#resulting from the use of any information or interpretation provided by Halliburton.
#
~A           TIME           GTDEPTH  GTPQH  GTTQ  GTTN  GTET   GTTVD  
# ...
   11:09:05.171.02-Jan-2020 4790.04 4464.58 85.11 2.00 184.04 2777.18
   11:09:05.371.02-Jan-2020 4790.04 4464.58 85.11 2.00 184.24 2777.18
   11:09:05.571.02-Jan-2020 4790.04 4465.49 85.11 2.00 184.44 2777.18
   11:09:05.771.02-Jan-2020 4790.04 4465.39 85.11 2.00 184.64 2777.18
   11:09:05.971.02-Jan-2020 4790.04 4463.59 85.11 2.00 184.84 2777.18
   11:09:06.171.02-Jan-2020 4790.04 4465.65 85.11 2.00 185.04 2777.18
   11:09:06.371.02-Jan-2020 4790.04 4465.65 85.11 2.00 185.24 2777.18
   11:09:06.571.02-Jan-2020 4790.04 4465.66 85.11 2.00 185.44 2777.18
   11:09:06.771.02-Jan-2020 4790.04 4465.60 85.11 2.00 185.64 2777.18
   11:09:06.971.02-Jan-2020 4790.04 4465.61 85.11 2.00 185.84 2777.18
   11:09:07.172.02-Jan-2020 4790.04 4465.65 85.11 2.00 186.04 2777.18
   11:09:07.372.02-Jan-2020 4790.04 4465.65 85.11 2.00 186.24 2777.18
   11:09:07.572.02-Jan-2020 4790.04 4464.26 85.11 2.00 186.44 2777.18
   11:09:07.772.02-Jan-2020 4790.04 4465.73 85.11 2.00 186.64 2777.18
   11:09:07.972.02-Jan-2020 4790.04 4465.99 85.11 2.00 186.84 2777.18
   11:09:08.172.02-Jan-2020 4790.04 4466.11 85.11 2.00 187.04 2777.18
   11:09:08.372.02-Jan-2020 4790.04 4466.11 85.11 2.00 187.24 2777.18
   11:09:08.572.02-Jan-2020 4790.04 4466.05 85.11 2.00 187.44 2777.18
   11:09:08.772.02-Jan-2020 4790.04 4466.07 85.11 2.00 187.64 2777.18
   11:09:08.972.02-Jan-2020 4790.04 4464.28 85.11 2.00 187.84 2777.18
   11:09:09.172.02-Jan-2020 4790.04 4466.40 85.11 2.00 188.04 2777.18
   11:09:09.372.02-Jan-2020 4790.04 4466.40 85.11 2.00 188.24 2777.18
   11:09:09.572.02-Jan-2020 4790.04 4466.42 85.11 2.00 188.44 2777.18
   11:09:09.772.02-Jan-2020 4790.04 4466.38 85.11 2.00 188.64 2777.18
   11:09:09.972.02-Jan-2020 4790.04 4466.35 85.11 2.00 188.84 2777.18
   11:09:10.172.02-Jan-2020 4790.04 4465.91 85.11 2.00 189.04 2777.18
   11:09:10.372.02-Jan-2020 4790.04 4465.91 85.11 2.00 189.24 2777.18
   11:09:10.572.02-Jan-2020 4790.04 4466.88 85.11 2.00 189.44 2777.18
   11:09:10.772.02-Jan-2020 4790.04 4466.75 85.11 2.00 189.64 2777.18
   11:09:10.972.02-Jan-2020 4790.04 4465.37 85.11 2.00 189.84 2777.18
   11:09:11.172.02-Jan-2020 4790.04 4466.69 85.11 2.00 190.04 2777.18
   11:09:11.372.02-Jan-2020 4790.04 4466.69 85.11 2.00 190.24 2777.18
   11:09:11.573.02-Jan-2020 4790.04 4467.20 85.11 2.00 190.44 2777.18
   11:09:11.773.02-Jan-2020 4790.04 4465.47 85.11 2.00 190.64 2777.18
   11:09:11.973.02-Jan-2020 4790.04 4467.60 85.11 2.00 190.84 2777.18
   11:09:12.173.02-Jan-2020 4790.04 4467.50 85.11 2.00 191.04 2777.18
   11:09:12.373.02-Jan-2020 4790.04 4467.50 85.11 2.00 191.24 2777.18
   11:09:12.573.02-Jan-2020 4790.04 4467.61 85.11 2.00 191.44 2777.18
   11:09:12.773.02-Jan-2020 4790.04 4466.16 85.11 2.00 191.65 2777.18
   11:09:12.973.02-Jan-2020 4790.04 4467.72 85.11 2.00 191.85 2777.18
   11:09:13.173.02-Jan-2020 4790.04 4468.13 85.11 2.00 192.05 2777.18
   11:09:13.373.02-Jan-2020 4790.04 4468.13 85.11 2.00 192.25 2777.18
   11:09:13.573.02-Jan-2020 4790.04 4467.02 85.11 2.00 192.45 2777.18
   11:09:13.773.02-Jan-2020 4790.04 4468.58 85.11 2.00 192.65 2777.18
   11:09:13.973.02-Jan-2020 4790.04 4468.56 85.10 2.00 192.85 2777.18
   11:09:14.173.02-Jan-2020 4790.04 4469.30 85.10 2.00 193.05 2777.18
   11:09:14.373.02-Jan-2020 4790.04 4469.30 85.10 2.00 193.25 2777.18
   11:09:14.573.02-Jan-2020 4790.04 4469.82 85.10 2.00 193.45 2777.18
   11:09:14.773.02-Jan-2020 4790.04 4469.91 85.10 2.00 193.65 2777.18
   11:09:14.973.02-Jan-2020 4790.04 4469.97 85.10 2.00 193.85 2777.18
   11:09:15.173.02-Jan-2020 4790.04 4468.35 85.10 2.00 194.05 2777.18
   11:09:15.373.02-Jan-2020 4790.04 4468.35 85.10 2.00 194.25 2777.18
   11:09:15.573.02-Jan-2020 4790.04 4470.51 85.10 2.00 194.45 2777.18
   11:09:15.774.02-Jan-2020 4790.04 4493.91 85.10 2.00 194.65 2777.18
   11:09:15.974.02-Jan-2020 4790.04 4495.32 85.10 2.00 194.85 2777.18
   11:09:16.174.02-Jan-2020 4790.04 4497.56 85.10 2.00 195.05 2777.18
   11:09:16.374.02-Jan-2020 4790.04 4497.56 85.10 2.00 195.25 2777.18
   11:09:16.574.02-Jan-2020 4790.04 4497.54 85.10 2.00 195.45 2777.18
   11:09:16.774.02-Jan-2020 4790.04 4497.44 85.10 2.00 195.65 2777.18
   11:09:16.974.02-Jan-2020 4790.04 4497.45 85.10 2.00 195.85 2777.18
   11:09:17.174.02-Jan-2020 4790.04 4496.98 85.10 2.00 196.05 2777.18
   11:09:17.374.02-Jan-2020 4790.04 4496.98 85.10 2.00 196.25 2777.18
   11:09:17.574.02-Jan-2020 4790.04 4498.03 85.10 2.00 196.45 2777.18
   11:09:17.774.02-Jan-2020 4790.04 4497.88 85.10 2.00 196.65 2777.18
   11:09:17.974.02-Jan-2020 4790.04 4496.45 85.10 2.00 196.85 2777.18
   11:09:18.174.02-Jan-2020 4790.04 4497.78 85.10 2.00 197.05 2777.18
   11:09:18.374.02-Jan-2020 4790.04 4497.78 85.10 2.00 197.25 2777.18
   11:09:18.574.02-Jan-2020 4790.04 4498.12 85.10 2.00 197.45 2777.18
   11:09:18.774.02-Jan-2020 4790.04 4496.21 85.10 2.00 197.65 2777.18
   11:09:18.974.02-Jan-2020 4790.04 4498.33 85.10 2.00 197.85 2777.18
   11:09:19.174.02-Jan-2020 4790.04 4498.26 85.10 2.00 198.05 2777.18
   11:09:19.374.02-Jan-2020 4790.04 4498.26 85.10 2.00 198.25 2777.18
   11:09:19.574.02-Jan-2020 4790.04 4496.76 85.10 2.00 198.45 2777.18
   11:09:19.774.02-Jan-2020 4790.04 4498.85 85.10 2.00 198.65 2777.18
   11:09:19.975.02-Jan-2020 4790.04 4498.76 85.10 2.00 198.85 2777.18
   11:09:20.175.02-Jan-2020 4790.04 4497.15 85.10 2.00 199.05 2777.18
   11:09:20.375.02-Jan-2020 4790.04 4497.15 85.10 2.00 199.25 2777.18
   11:09:20.575.02-Jan-2020 4790.04 4977.58 85.10 2.00 199.45 2777.18
   11:09:20.775.02-Jan-2020 4790.04 4976.11 85.10 2.00 199.65 2777.18
   11:09:20.975.02-Jan-2020 4790.04 4974.60 85.10 2.00 199.85 2777.18
   11:09:21.175.02-Jan-2020 4790.04 4973.50 85.10 2.00 200.05 2777.18
   11:09:21.375.02-Jan-2020 4790.04 4973.50 85.10 2.00 200.25 2777.18
   11:09:21.575.02-Jan-2020 4790.04 4972.15 85.10 2.00 200.45 2777.18
   11:09:21.775.02-Jan-2020 4790.04 4971.11 85.10 2.00 200.65 2777.18
   11:09:21.975.02-Jan-2020 4790.04 4969.38 85.10 2.00 200.85 2777.18
   11:09:22.175.02-Jan-2020 4790.04 4970.31 85.10 2.00 201.05 2777.18
   11:09:22.375.02-Jan-2020 4790.04 4970.31 85.10 2.00 201.25 2777.18
   11:09:22.575.02-Jan-2020 4790.04 4969.40 85.11 2.00 201.45 2777.18
   11:09:22.775.02-Jan-2020 4790.04 4969.00 85.11 2.00 201.65 2777.18
   11:09:22.975.02-Jan-2020 4790.04 4966.89 85.11 2.00 201.85 2777.18
   11:09:23.175.02-Jan-2020 4790.04 4968.49 85.11 2.00 202.05 2777.18
   11:09:23.375.02-Jan-2020 4790.04 4968.49 85.11 2.00 202.25 2777.18
   11:09:23.575.02-Jan-2020 4790.04 4967.90 85.11 2.00 202.45 2777.18
   11:09:23.775.02-Jan-2020 4790.04 4967.56 85.11 2.00 202.65 2777.18
   11:09:23.975.02-Jan-2020 4790.04 4967.31 85.11 2.00 202.85 2777.18
   11:09:24.176.02-Jan-2020 4790.04 4966.63 85.11 2.00 203.05 2777.18
   11:09:24.376.02-Jan-2020 4790.04 4966.63 85.11 2.00 203.25 2777.18
   11:09:24.576.02-Jan-2020 4790.04 4966.75 85.11 2.00 203.45 2777.18
   11:09:24.776.02-Jan-2020 4790.04 4966.37 85.11 2.00 203.65 2777.18
   11:09:24.976.02-Jan-2020 4790.04 4964.79 85.11 2.00 203.85 2777.18
   11:09:25.176.02-Jan-2020 4790.04 4965.73 85.11 2.00 204.05 2777.18
   11:09:25.376.02-Jan-2020 4790.04 4965.73 85.11 2.00 204.25 2777.18
   11:09:25.576.02-Jan-2020 4790.04 5134.72 85.11 2.00 204.45 2777.18
   11:09:25.776.02-Jan-2020 4790.04 5131.76 85.11 2.00 204.65 2777.18
   11:09:25.976.02-Jan-2020 4790.04 5132.59 85.11 2.00 204.85 2777.18
   11:09:26.176.02-Jan-2020 4790.04 5131.86 85.11 2.00 205.05 2777.18
   11:09:26.376.02-Jan-2020 4790.04 5131.86 85.11 2.00 205.25 2777.18
   11:09:26.576.02-Jan-2020 4790.04 5130.95 85.11 2.00 205.45 2777.18
   11:09:26.776.02-Jan-2020 4790.04 5128.64 85.11 2.00 205.65 2777.18
   11:09:26.976.02-Jan-2020 4790.04 5130.22 85.11 2.00 205.85 2777.18
   11:09:27.176.02-Jan-2020 4790.04 5129.77 85.11 2.00 206.05 2777.18
   11:09:27.376.02-Jan-2020 4790.04 5129.77 85.11 2.00 206.25 2777.18
   11:09:27.576.02-Jan-2020 4790.04 5128.14 85.11 2.00 206.45 2777.18
   11:09:27.776.02-Jan-2020 4790.04 5128.70 85.11 2.00 206.65 2777.18
   11:09:27.976.02-Jan-2020 4790.04 5128.54 85.11 2.00 206.85 2777.18
