~Version Information
 VERS.                  2.0:   CWLS log ASCII Standard -VERSION 2.0
 WRAP.                   NO:   One line per depth step
~Well Information Block
#MNEM.UNIT     VALUE/NAME     DESCRIPTION
#---------     -----------    ---------------------------
 STRT.S             11:06:01 02-Jan-20: START TIME 11:06:01 02-Jan-20
 STOP.S             11:13:00 02-Jan-20: STOP TIME  11:13:00 02-Jan-20
 STEP.S                   0.00: STEP TIME
 NULL.                 -999.25: NULL VALUE
 MDS .        Operator Entered:  MAG DATA SOURCE
 UNIT.                     N/a:  LOGGING EQUIPMENT ID
 DCON.         Sperry Drilling:  DIRECTNL CONTR
 CNTY.                    Baku:  COUNTY NAME
 DOE .                     N/a:  DOE NUMBER
 RIG .                     DWG:  RIG NAME
 MWDS.                    Baku:  MWD SHOP
 REGN.                   EESSA:  REGION
 BASE.              Azerbaijan:  LOGGING EQUIPMENT BASE LOCATION
 UWI .                     N/a:  UNIQUE WELL IDENTIFIER
 API .                     N/a:  API NUMBER
 WTYP.                Deviated:  WELL TYPE
 COMP.     BP Exploration (Caspian Sea) Ltd.:  COMPANY
 SRVC.          TURAN DRILLING:  CONTRACTOR
 WELL.           E04 (Slot 23):  WELL NAME
 CTRY.              Azerbaijan:  COUNTRY NAME
 SON .        AZ-XX-0905715376:  JOB NUMBER
 FLD .                     ACG:  FIELD NAME
 PDAT.          Mean Sea Level:  PERMANENT DATUM
 FTOP.          Formation Tops:  FORM TOPS DESC
 ILTD.               Lithology:  INTERP LTH DESC
 SVYD.                  Survey:  SURVEY DESC
 DMOD.             Drill Model:  DRILL MOD DESC
 HPTY.       Minimum Curvature:  HOLE POS TYPE
 NREF.                    Grid:  NORTH REFERENCE
 SPUD.               21-Dec-19:  SPUD DATE
 DATE.      17.57.20 21-Dec-19:  END TIME
 STIM.      17.57.20 21-Dec-19:  START TIME
 DMF .             Drill Floor:  DRILL MEAS FROM
 DFST.                        :  DIST FSL TEXT
 DFWT.                        :  DIST FWL TEXT
 PROV.                        :  PROVINCE
 STAT.                        :  STATE
 LOC .                        :  LOCATION
 LMF .             Drill Floor:  LOG MEASURED FROM
 AGAP.m                  43.16:  AIR GAP
 DEP .m                3172.61:  DEPTH
 APD .m                  43.16:  DEPTH ABOVE PD
 WDMS.m                 176.20:  WD ELEV
 EGL .m                   0.00:  GROUND ELEVATION
 EPD .m                   0.00:  ELEVATION
 AZTC.deg                 6.49:  AZM TOTAL CORR
 GRDC.deg                 0.09:  GRID CORRECTION
 MDEC.deg                 6.58:  MAGNETIC DECL
 MDIP.deg                59.61:  MAGNETIC DIP
 MFLD.nT              50294.00:  MAGNETIC FIELD
 GVFD.g                   1.00:  GRAVITY FIELD
 VSDR.deg               235.12:  VERT SEC DIRECT
 TDD .m                   0.00:  TOTAL DEPTH (DRILLER)
 SDEP.m                   0.00:  START DEPTH
 UTMY.m             4448627.46:  UTM Y
 UTMX.m              514337.95:  UTM X
 LONG.deg                51.17:  LONGITUDE
 LATI.deg                40.17:  LATITUDE
 TVDS.m                  43.16:  TVDSS CORRECTN
 WHEW.m                  -5.41:  WELL HEAD E/W
 WHNS.m                  -0.12:  WELL HEAD N/S
 VSEW.m                  -5.41:  VERT SEC E/W
 VSNS.m                  -0.12:  VERT SEC N/S
 EKB .m                  43.16:  KB ELEVATION
 EDF .m                  43.16:  DF ELEVATION
 MAGU.                 1852276:  MAGUTM CHECKSUM
 VSC .                       0:  VS TO CLOSURE
~Parameter Information Block
#MNEM.UNIT       Value        Description
#---------     -----------    ---------------------------
 TCS .hr                125.29:  Time Ciculation Ended 
 DD1 .      Fakhraddin Guliyev:  Direct Drillr 1 
 DD2 .                   Sanan:  Direct Drillr 2 
 DEFF.%                   0.00:  % Det Eff 
 DRET.      04.26.40 27-Dec-19:  Drill End Time 
 DRST.      04.26.40 27-Dec-19:  Drill Start Tim 
 DTIM.hr                 80.10:  Time Drilling 
 EDEP.m                   0.00:  End Depth 
 ENG1.            Adlet Omarov:  Engineer 1 
 ENG2.         Almaz Almadatov:  Engineer 2 
 ETIM.      04.26.40 27-Dec-19:  End Time 
 HFLO.                      No:  High Flow 
 HPRE.                      No:  High Pressure 
 HTEM.                      No:  High Temp 
 HYDO.m                   1.85:  Hydro Offset 
 IMAX.deg                72.09:  Inc Max 
 IMIN.deg                59.07:  Inc Min 
 IMND.m                3901.43:  Inc Min Depth 
 IMXD.m                4753.85:  Inc Max Depth 
 LETM.      04.26.40 27-Dec-19:  Log End Time 
 LSTM.      04.26.40 27-Dec-19:  Log Start Time 
 OTIM.hr                187.88:  Time Operating 
 PMAX.psia            10202.94:  Press Op, Max 
 RUN .                     300:  Run Number 
 RRUN.                    0300:  Rig Run Number 
 SDEP.m                   0.00:  Start Depth 
 STIM.      04.26.40 27-Dec-19:  Start Time 
 SVER.                    9.20:  Sperry Version 
 MRT .                    HCIM:  Maximum Recorded Temperature 
 TTMX.degC               96.08:  Max Tool Temp 
~Curve Information Block
#MNEM.UNIT                 API CODE     Curve Description
#---------               -----------    ---------------------------
 TIME.HHMMSS            00 000 000 000:  GT Time & Date
 GTDEPTH.m              00 000 000 000:  GT Depth
 GTPQH.psia             00 000 000 000:  GT HR Quartz Pressure
 GTTQ.degC              00 000 000 000:  GT Quartz Temperature
 GTTN.NONE              00 000 000 000:  GT Test Number
 GTET.sec               00 000 000 000:  GT Elapsed Test Time
 GTTVD.m                00 000 000 000:  GT True Vertical Depth
#Other Information
#
#WARRANTY: Halliburton will use its best efforts to furnish customers with 
#accurate information and interpretations that are part of, and incident to, the services 
#provided.  However, Halliburton cannot and does not warrant the accuracy 
#or correctness of such information and interpretations.  Under no circumstances should any 
#such information or interpretation be relied upon as the sole basis for any drilling, 
#completion, production, or financial decision or any procedure involving any risk to the 
#safety of any drilling venture, drilling rig or its crew or any other third party.  The 
#Customer has full responsibility for all drilling, completion and production operation.  
#Halliburton makes no representations or warranties, either expressed or 
#implied, including, but not limited to, the implied warranties of merchantability or fitness 
#for a particular purpose, with respect to the services rendered.  In no event will 
#Halliburton be liable for failure to obtain any particular results or for 
#any damages, including, but not limited to, indirect, special or consequential damages, 
#resulting from the use of any information or interpretation provided by Halliburton.
#
~A           TIME           GTDEPTH  GTPQH  GTTQ  GTTN  GTET   GTTVD  
# ...
   11:11:46.209.02-Jan-2020 4790.04 3355.73 85.04 2.00 345.08 2777.18
   11:11:46.409.02-Jan-2020 4790.04 3355.73 85.04 2.00 345.28 2777.18
   11:11:46.609.02-Jan-2020 4790.04 3354.15 85.04 2.00 345.48 2777.18
   11:11:46.809.02-Jan-2020 4790.04 3355.81 85.04 2.00 345.68 2777.18
   11:11:47.009.02-Jan-2020 4790.04 3355.75 85.04 2.00 345.88 2777.18
   11:11:47.209.02-Jan-2020 4790.04 3355.84 85.04 2.00 346.08 2777.18
   11:11:47.409.02-Jan-2020 4790.04 3355.84 85.04 2.00 346.28 2777.18
   11:11:47.609.02-Jan-2020 4790.04 3355.90 85.04 2.00 346.48 2777.18
   11:11:47.809.02-Jan-2020 4790.04 3355.79 85.04 2.00 346.68 2777.18
   11:11:48.009.02-Jan-2020 4790.04 3355.97 85.04 2.00 346.88 2777.18
   11:11:48.209.02-Jan-2020 4790.04 3355.93 85.04 2.00 347.08 2777.18
   11:11:48.409.02-Jan-2020 4790.04 3355.93 85.04 2.00 347.28 2777.18
   11:11:48.609.02-Jan-2020 4790.04 3354.44 85.04 2.00 347.48 2777.18
   11:11:48.809.02-Jan-2020 4790.04 3356.27 85.04 2.00 347.68 2777.18
   11:11:49.010.02-Jan-2020 4790.04 3356.15 85.04 2.00 347.88 2777.18
   11:11:49.210.02-Jan-2020 4790.04 3354.88 85.04 2.00 348.08 2777.18
   11:11:49.410.02-Jan-2020 4790.04 3354.88 85.04 2.00 348.28 2777.18
   11:11:49.610.02-Jan-2020 4790.04 3356.10 85.03 2.00 348.48 2777.18
   11:11:49.810.02-Jan-2020 4790.04 3356.23 85.04 2.00 348.68 2777.18
   11:11:50.010.02-Jan-2020 4790.04 3356.27 85.03 2.00 348.88 2777.18
   11:11:50.210.02-Jan-2020 4790.04 3356.31 85.03 2.00 349.08 2777.18
   11:11:50.410.02-Jan-2020 4790.04 3356.31 85.03 2.00 349.28 2777.18
   11:11:50.610.02-Jan-2020 4790.04 3354.93 85.03 2.00 349.48 2777.18
   11:11:50.810.02-Jan-2020 4790.04 3356.67 85.03 2.00 349.68 2777.18
   11:11:51.010.02-Jan-2020 4790.04 3356.48 85.03 2.00 349.88 2777.18
   11:11:51.210.02-Jan-2020 4790.04 3356.11 85.03 2.00 350.08 2777.18
   11:11:51.410.02-Jan-2020 4790.04 3356.11 85.03 2.00 350.28 2777.18
   11:11:51.610.02-Jan-2020 4790.04 3356.76 85.03 2.00 350.48 2777.18
   11:11:51.810.02-Jan-2020 4790.04 3356.71 85.03 2.00 350.68 2777.18
   11:11:52.010.02-Jan-2020 4790.04 3356.76 85.03 2.00 350.88 2777.18
   11:11:52.210.02-Jan-2020 4790.04 3356.80 85.03 2.00 351.08 2777.18
   11:11:52.410.02-Jan-2020 4790.04 3356.80 85.03 2.00 351.28 2777.18
   11:11:52.610.02-Jan-2020 4790.04 3356.96 85.03 2.00 351.48 2777.18
   11:11:52.810.02-Jan-2020 4790.04 3357.05 85.03 2.00 351.68 2777.18
   11:11:53.010.02-Jan-2020 4790.04 3355.56 85.03 2.00 351.88 2777.18
   11:11:53.211.02-Jan-2020 4790.04 3357.27 85.03 2.00 352.08 2777.18
   11:11:53.411.02-Jan-2020 4790.04 3357.27 85.03 2.00 352.28 2777.18
   11:11:53.611.02-Jan-2020 4790.04 3357.33 85.03 2.00 352.48 2777.18
   11:11:53.811.02-Jan-2020 4790.04 3357.32 85.03 2.00 352.68 2777.18
   11:11:54.011.02-Jan-2020 4790.04 3355.68 85.03 2.00 352.88 2777.18
   11:11:54.211.02-Jan-2020 4790.04 3357.50 85.03 2.00 353.08 2777.18
   11:11:54.411.02-Jan-2020 4790.04 3357.50 85.03 2.00 353.28 2777.18
   11:11:54.611.02-Jan-2020 4790.04 3357.57 85.03 2.00 353.48 2777.18
   11:11:54.811.02-Jan-2020 4790.04 3355.84 85.03 2.00 353.68 2777.18
   11:11:55.011.02-Jan-2020 4790.04 3357.69 85.03 2.00 353.88 2777.18
   11:11:55.211.02-Jan-2020 4790.04 3357.58 85.03 2.00 354.08 2777.18
   11:11:55.411.02-Jan-2020 4790.04 3357.58 85.03 2.00 354.28 2777.18
   11:11:55.611.02-Jan-2020 4790.04 3357.72 85.03 2.00 354.48 2777.18
   11:11:55.811.02-Jan-2020 4790.04 3357.23 85.03 2.00 354.68 2777.18
   11:11:56.011.02-Jan-2020 4790.04 3356.87 85.03 2.00 354.88 2777.18
   11:11:56.211.02-Jan-2020 4790.04 3358.16 85.03 2.00 355.08 2777.18
   11:11:56.411.02-Jan-2020 4790.04 3358.16 85.03 2.00 355.28 2777.18
   11:11:56.611.02-Jan-2020 4790.04 3356.49 85.03 2.00 355.48 2777.18
   11:11:56.811.02-Jan-2020 4790.04 3358.06 85.03 2.00 355.68 2777.18
   11:11:57.011.02-Jan-2020 4790.04 3358.03 85.03 2.00 355.88 2777.18
   11:11:57.211.02-Jan-2020 4790.04 3358.23 85.03 2.00 356.08 2777.18
   11:11:57.412.02-Jan-2020 4790.04 3358.23 85.03 2.00 356.28 2777.18
   11:11:57.612.02-Jan-2020 4790.04 3358.34 85.03 2.00 356.48 2777.18
   11:11:57.812.02-Jan-2020 4790.04 3358.21 85.03 2.00 356.68 2777.18
   11:11:58.012.02-Jan-2020 4790.04 3357.07 85.03 2.00 356.88 2777.18
   11:11:58.212.02-Jan-2020 4790.04 3358.23 85.03 2.00 357.08 2777.18
   11:11:58.412.02-Jan-2020 4790.04 3358.23 85.03 2.00 357.28 2777.18
   11:11:58.612.02-Jan-2020 4790.04 3358.49 85.03 2.00 357.48 2777.18
   11:11:58.812.02-Jan-2020 4790.04 3358.54 85.03 2.00 357.68 2777.18
   11:11:59.012.02-Jan-2020 4790.04 3358.53 85.03 2.00 357.88 2777.18
   11:11:59.212.02-Jan-2020 4790.04 3358.59 85.03 2.00 358.08 2777.18
   11:11:59.412.02-Jan-2020 4790.04 3358.59 85.03 2.00 358.28 2777.18
   11:11:59.612.02-Jan-2020 4790.04 3358.67 85.03 2.00 358.48 2777.18
   11:11:59.812.02-Jan-2020 4790.04 3357.05 85.03 2.00 358.68 2777.18
   11:12:00.012.02-Jan-2020 4790.04 3358.89 85.03 2.00 358.88 2777.18
   11:12:00.212.02-Jan-2020 4790.04 3358.75 85.03 2.00 359.08 2777.18
   11:12:00.412.02-Jan-2020 4790.04 3358.75 85.03 2.00 359.28 2777.18
   11:12:00.612.02-Jan-2020 4790.04 3358.86 85.03 2.00 359.48 2777.18
   11:12:00.812.02-Jan-2020 4790.04 3357.39 85.03 2.00 359.68 2777.18
   11:12:01.012.02-Jan-2020 4790.04 3359.12 85.03 2.00 359.88 2777.18
   11:12:01.212.02-Jan-2020 4790.04 3359.01 85.03 2.00 360.08 2777.18
   11:12:01.412.02-Jan-2020 4790.04 3359.01 85.03 2.00 360.28 2777.18
   11:12:01.613.02-Jan-2020 4790.04 3357.49 85.03 2.00 360.48 2777.18
   11:12:01.813.02-Jan-2020 4790.04 3359.18 85.03 2.00 360.68 2777.18
   11:12:02.013.02-Jan-2020 4790.04 3359.17 85.03 2.00 360.88 2777.18
   11:12:02.213.02-Jan-2020 4790.04 3359.31 85.03 2.00 361.08 2777.18
   11:12:02.413.02-Jan-2020 4790.04 3359.31 85.03 2.00 361.28 2777.18
   11:12:02.613.02-Jan-2020 4790.04 3359.33 85.03 2.00 361.48 2777.18
   11:12:02.813.02-Jan-2020 4790.04 3369.47 85.03 2.00 361.69 2777.18
   11:12:03.013.02-Jan-2020 4790.04 3430.38 85.03 2.00 361.89 2777.18
   11:12:03.213.02-Jan-2020 4790.04 3716.99 85.03 2.00 362.09 2777.18
   11:12:03.413.02-Jan-2020 4790.04 3716.99 85.03 2.00 362.29 2777.18
   11:12:03.613.02-Jan-2020 4790.04 6144.64 85.03 2.00 362.49 2777.18
   11:12:03.813.02-Jan-2020 4790.04 6141.30 85.03 2.00 362.69 2777.18
   11:12:04.013.02-Jan-2020 4790.04 6141.61 85.03 2.00 362.89 2777.18
   11:12:04.213.02-Jan-2020 4790.04 6141.18 85.03 2.00 363.09 2777.18
   11:12:04.413.02-Jan-2020 4790.04 6141.18 85.03 2.00 363.29 2777.18
   11:12:04.613.02-Jan-2020 4790.04 6140.41 85.04 2.00 363.49 2777.18
   11:12:04.813.02-Jan-2020 4790.04 6152.06 85.04 2.00 363.69 2777.18
   11:12:05.013.02-Jan-2020 4790.04 6146.28 85.04 2.00 363.89 2777.18
   11:12:05.213.02-Jan-2020 4790.04 6144.15 85.04 2.00 364.09 2777.18
   11:12:05.413.02-Jan-2020 4790.04 6144.15 85.04 2.00 364.29 2777.18
   11:12:05.613.02-Jan-2020 4790.04 6148.48 85.05 2.00 364.49 2777.18
   11:12:05.813.02-Jan-2020 4790.04 6145.64 85.05 2.00 364.69 2777.18
   11:12:06.014.02-Jan-2020 4790.04 6145.95 85.05 2.00 364.89 2777.18
   11:12:06.214.02-Jan-2020 4790.04 6146.65 85.05 2.00 365.09 2777.18
   11:12:06.414.02-Jan-2020 4790.04 6146.65 85.05 2.00 365.29 2777.18
   11:12:06.614.02-Jan-2020 4790.04 6146.15 85.06 2.00 365.49 2777.18
   11:12:06.814.02-Jan-2020 4790.04 6147.51 85.06 2.00 365.69 2777.18
   11:12:07.014.02-Jan-2020 4790.04 6148.38 85.06 2.00 365.89 2777.18
   11:12:07.214.02-Jan-2020 4790.04 6153.98 85.06 2.00 366.09 2777.18
   11:12:07.414.02-Jan-2020 4790.04 6153.98 85.06 2.00 366.29 2777.18
   11:12:07.614.02-Jan-2020 4790.04 6148.76 85.07 2.00 366.49 2777.18
   11:12:07.814.02-Jan-2020 4790.04 6148.79 85.07 2.00 366.69 2777.18
   11:12:08.014.02-Jan-2020 4790.04 6147.10 85.07 2.00 366.89 2777.18
   11:12:08.214.02-Jan-2020 4790.04 6146.68 85.07 2.00 367.09 2777.18
   11:12:08.414.02-Jan-2020 4790.04 6146.68 85.07 2.00 367.29 2777.18
   11:12:08.614.02-Jan-2020 4790.04 6149.87 85.08 2.00 367.49 2777.18
   11:12:08.814.02-Jan-2020 4790.04 6148.42 85.08 2.00 367.69 2777.18
   11:12:09.014.02-Jan-2020 4790.04 6148.49 85.08 2.00 367.89 2777.18
