~Version Information
 VERS.                  2.0:   CWLS log ASCII Standard -VERSION 2.0
 WRAP.                   NO:   One line per depth step
~Well Information Block
#MNEM.UNIT     VALUE/NAME     DESCRIPTION
#---------     -----------    ---------------------------
 STRT.S             10:33:43 02-Jan-20: START TIME 10:33:43 02-Jan-20
 STOP.S             10:42:04 02-Jan-20: STOP TIME  10:42:04 02-Jan-20
 STEP.S                   0.00: STEP TIME
 NULL.                 -999.25: NULL VALUE
 MDS .        Operator Entered:  MAG DATA SOURCE
 UNIT.                     N/a:  LOGGING EQUIPMENT ID
 DCON.         Sperry Drilling:  DIRECTNL CONTR
 CNTY.                    Baku:  COUNTY NAME
 DOE .                     N/a:  DOE NUMBER
 RIG .                     DWG:  RIG NAME
 MWDS.                    Baku:  MWD SHOP
 REGN.                   EESSA:  REGION
 BASE.              Azerbaijan:  LOGGING EQUIPMENT BASE LOCATION
 UWI .                     N/a:  UNIQUE WELL IDENTIFIER
 API .                     N/a:  API NUMBER
 WTYP.                Deviated:  WELL TYPE
 COMP.     BP Exploration (Caspian Sea) Ltd.:  COMPANY
 SRVC.          TURAN DRILLING:  CONTRACTOR
 WELL.           E04 (Slot 23):  WELL NAME
 CTRY.              Azerbaijan:  COUNTRY NAME
 SON .        AZ-XX-0905715376:  JOB NUMBER
 FLD .                     ACG:  FIELD NAME
 PDAT.          Mean Sea Level:  PERMANENT DATUM
 FTOP.          Formation Tops:  FORM TOPS DESC
 ILTD.               Lithology:  INTERP LTH DESC
 SVYD.                  Survey:  SURVEY DESC
 DMOD.             Drill Model:  DRILL MOD DESC
 HPTY.       Minimum Curvature:  HOLE POS TYPE
 NREF.                    Grid:  NORTH REFERENCE
 SPUD.               21-Dec-19:  SPUD DATE
 DATE.      17.57.20 21-Dec-19:  END TIME
 STIM.      17.57.20 21-Dec-19:  START TIME
 DMF .             Drill Floor:  DRILL MEAS FROM
 DFST.                        :  DIST FSL TEXT
 DFWT.                        :  DIST FWL TEXT
 PROV.                        :  PROVINCE
 STAT.                        :  STATE
 LOC .                        :  LOCATION
 LMF .             Drill Floor:  LOG MEASURED FROM
 AGAP.m                  43.16:  AIR GAP
 DEP .m                3172.61:  DEPTH
 APD .m                  43.16:  DEPTH ABOVE PD
 WDMS.m                 176.20:  WD ELEV
 EGL .m                   0.00:  GROUND ELEVATION
 EPD .m                   0.00:  ELEVATION
 AZTC.deg                 6.49:  AZM TOTAL CORR
 GRDC.deg                 0.09:  GRID CORRECTION
 MDEC.deg                 6.58:  MAGNETIC DECL
 MDIP.deg                59.61:  MAGNETIC DIP
 MFLD.nT              50294.00:  MAGNETIC FIELD
 GVFD.g                   1.00:  GRAVITY FIELD
 VSDR.deg               235.12:  VERT SEC DIRECT
 TDD .m                   0.00:  TOTAL DEPTH (DRILLER)
 SDEP.m                   0.00:  START DEPTH
 UTMY.m             4448627.46:  UTM Y
 UTMX.m              514337.95:  UTM X
 LONG.deg                51.17:  LONGITUDE
 LATI.deg                40.17:  LATITUDE
 TVDS.m                  43.16:  TVDSS CORRECTN
 WHEW.m                  -5.41:  WELL HEAD E/W
 WHNS.m                  -0.12:  WELL HEAD N/S
 VSEW.m                  -5.41:  VERT SEC E/W
 VSNS.m                  -0.12:  VERT SEC N/S
 EKB .m                  43.16:  KB ELEVATION
 EDF .m                  43.16:  DF ELEVATION
 MAGU.                 1852276:  MAGUTM CHECKSUM
 VSC .                       0:  VS TO CLOSURE
~Parameter Information Block
#MNEM.UNIT       Value        Description
#---------     -----------    ---------------------------
 TCS .hr                125.29:  Time Ciculation Ended 
 DD1 .      Fakhraddin Guliyev:  Direct Drillr 1 
 DD2 .                   Sanan:  Direct Drillr 2 
 DEFF.%                   0.00:  % Det Eff 
 DRET.      04.26.40 27-Dec-19:  Drill End Time 
 DRST.      04.26.40 27-Dec-19:  Drill Start Tim 
 DTIM.hr                 80.10:  Time Drilling 
 EDEP.m                   0.00:  End Depth 
 ENG1.            Adlet Omarov:  Engineer 1 
 ENG2.         Almaz Almadatov:  Engineer 2 
 ETIM.      04.26.40 27-Dec-19:  End Time 
 HFLO.                      No:  High Flow 
 HPRE.                      No:  High Pressure 
 HTEM.                      No:  High Temp 
 HYDO.m                   1.85:  Hydro Offset 
 IMAX.deg                72.09:  Inc Max 
 IMIN.deg                59.07:  Inc Min 
 IMND.m                3901.43:  Inc Min Depth 
 IMXD.m                4753.85:  Inc Max Depth 
 LETM.      04.26.40 27-Dec-19:  Log End Time 
 LSTM.      04.26.40 27-Dec-19:  Log Start Time 
 OTIM.hr                187.88:  Time Operating 
 PMAX.psia            10202.94:  Press Op, Max 
 RUN .                     300:  Run Number 
 RRUN.                    0300:  Rig Run Number 
 SDEP.m                   0.00:  Start Depth 
 STIM.      04.26.40 27-Dec-19:  Start Time 
 SVER.                    9.20:  Sperry Version 
 MRT .                    HCIM:  Maximum Recorded Temperature 
 TTMX.degC               96.08:  Max Tool Temp 
~Curve Information Block
#MNEM.UNIT                 API CODE     Curve Description
#---------               -----------    ---------------------------
 TIME.HHMMSS            00 000 000 000:  GT Time & Date
 GTDEPTH.m              00 000 000 000:  GT Depth
 GTPQH.psia             00 000 000 000:  GT HR Quartz Pressure
 GTTQ.degC              00 000 000 000:  GT Quartz Temperature
 GTTN.NONE              00 000 000 000:  GT Test Number
 GTET.sec               00 000 000 000:  GT Elapsed Test Time
 GTTVD.m                00 000 000 000:  GT True Vertical Depth
#Other Information
#
#WARRANTY: Halliburton will use its best efforts to furnish customers with 
#accurate information and interpretations that are part of, and incident to, the services 
#provided.  However, Halliburton cannot and does not warrant the accuracy 
#or correctness of such information and interpretations.  Under no circumstances should any 
#such information or interpretation be relied upon as the sole basis for any drilling, 
#completion, production, or financial decision or any procedure involving any risk to the 
#safety of any drilling venture, drilling rig or its crew or any other third party.  The 
#Customer has full responsibility for all drilling, completion and production operation.  
#Halliburton makes no representations or warranties, either expressed or 
#implied, including, but not limited to, the implied warranties of merchantability or fitness 
#for a particular purpose, with respect to the services rendered.  In no event will 
#Halliburton be liable for failure to obtain any particular results or for 
#any damages, including, but not limited to, indirect, special or consequential damages, 
#resulting from the use of any information or interpretation provided by Halliburton.
#
~A           TIME           GTDEPTH  GTPQH  GTTQ  GTTN  GTET   GTTVD  
   10:33:43.672.02-Jan-2020 4788.22 -999.25 85.83 1.00   0.00 2776.61
   10:33:43.872.02-Jan-2020 4788.22    0.00 85.83 1.00   0.20 2776.61
   10:33:44.073.02-Jan-2020 4788.22    0.00 85.82 1.00   0.40 2776.61
   10:33:44.273.02-Jan-2020 4788.22 6075.55 85.82 1.00   0.60 2776.61
   10:33:44.473.02-Jan-2020 4788.22 6073.05 85.82 1.00   0.80 2776.61
   10:33:44.673.02-Jan-2020 4788.22 6070.89 85.82 1.00   1.00 2776.61
   10:33:44.873.02-Jan-2020 4788.22 6070.89 85.82 1.00   1.20 2776.61
   10:33:45.073.02-Jan-2020 4788.22 6079.34 85.82 1.00   1.40 2776.61
   10:33:45.273.02-Jan-2020 4788.22 6074.89 85.82 1.00   1.60 2776.61
   10:33:45.473.02-Jan-2020 4788.22 6075.10 85.82 1.00   1.80 2776.61
   10:33:45.673.02-Jan-2020 4788.22 6076.60 85.82 1.00   2.00 2776.61
   10:33:45.873.02-Jan-2020 4788.22 6076.60 85.82 1.00   2.20 2776.61
   10:33:46.073.02-Jan-2020 4788.22 6076.60 85.82 1.00   2.40 2776.61
   10:33:46.273.02-Jan-2020 4788.22 6075.02 85.82 1.00   2.60 2776.61
   10:33:46.473.02-Jan-2020 4788.22 6074.75 85.82 1.00   2.80 2776.61
   10:33:46.673.02-Jan-2020 4788.22 6074.05 85.82 1.00   3.00 2776.61
   10:33:46.873.02-Jan-2020 4788.22 6074.05 85.82 1.00   3.20 2776.61
   10:33:47.073.02-Jan-2020 4788.22 6076.81 85.82 1.00   3.40 2776.61
   10:33:47.273.02-Jan-2020 4788.22 6078.90 85.82 1.00   3.60 2776.61
   10:33:47.473.02-Jan-2020 4788.22 6074.11 85.82 1.00   3.80 2776.61
   10:33:47.673.02-Jan-2020 4788.22 6070.34 85.82 1.00   4.00 2776.61
   10:33:47.873.02-Jan-2020 4788.22 6070.34 85.82 1.00   4.20 2776.61
   10:33:48.073.02-Jan-2020 4788.22 6073.77 85.82 1.00   4.40 2776.61
   10:33:48.273.02-Jan-2020 4788.22 6071.14 85.82 1.00   4.60 2776.61
   10:33:48.474.02-Jan-2020 4788.22 6074.85 85.82 1.00   4.80 2776.61
   10:33:48.674.02-Jan-2020 4788.22 6076.68 85.82 1.00   5.00 2776.61
   10:33:48.874.02-Jan-2020 4788.22 6076.68 85.82 1.00   5.20 2776.61
   10:33:49.074.02-Jan-2020 4788.22 6072.56 85.82 1.00   5.40 2776.61
   10:33:49.274.02-Jan-2020 4788.22 6074.25 85.82 1.00   5.60 2776.61
   10:33:49.474.02-Jan-2020 4788.22 6073.79 85.82 1.00   5.80 2776.61
   10:33:49.674.02-Jan-2020 4788.22 6074.05 85.82 1.00   6.00 2776.61
   10:33:49.874.02-Jan-2020 4788.22 6074.05 85.82 1.00   6.20 2776.61
   10:33:50.074.02-Jan-2020 4788.22 6077.75 85.82 1.00   6.40 2776.61
   10:33:50.274.02-Jan-2020 4788.22 6077.81 85.82 1.00   6.60 2776.61
   10:33:50.474.02-Jan-2020 4788.22 6077.55 85.82 1.00   6.80 2776.61
   10:33:50.674.02-Jan-2020 4788.22 6080.86 85.82 1.00   7.00 2776.61
   10:33:50.874.02-Jan-2020 4788.22 6080.86 85.82 1.00   7.20 2776.61
   10:33:51.074.02-Jan-2020 4788.22 6079.63 85.82 1.00   7.40 2776.61
   10:33:51.274.02-Jan-2020 4788.22 6077.76 85.82 1.00   7.60 2776.61
   10:33:51.474.02-Jan-2020 4788.22 6078.69 85.82 1.00   7.80 2776.61
   10:33:51.674.02-Jan-2020 4788.22 6086.17 85.82 1.00   8.00 2776.61
   10:33:51.874.02-Jan-2020 4788.22 6086.17 85.82 1.00   8.20 2776.61
   10:33:52.074.02-Jan-2020 4788.22 6079.29 85.82 1.00   8.40 2776.61
   10:33:52.274.02-Jan-2020 4788.22 6078.75 85.82 1.00   8.60 2776.61
   10:33:52.474.02-Jan-2020 4788.22 6078.43 85.82 1.00   8.80 2776.61
   10:33:52.675.02-Jan-2020 4788.22 6081.27 85.82 1.00   9.00 2776.61
   10:33:52.875.02-Jan-2020 4788.22 6081.27 85.82 1.00   9.20 2776.61
   10:33:53.075.02-Jan-2020 4788.22 6081.72 85.82 1.00   9.40 2776.61
   10:33:53.275.02-Jan-2020 4788.22 6079.25 85.82 1.00   9.60 2776.61
   10:33:53.475.02-Jan-2020 4788.22 6084.54 85.82 1.00   9.80 2776.61
   10:33:53.675.02-Jan-2020 4788.22 6081.52 85.81 1.00  10.00 2776.61
   10:33:53.875.02-Jan-2020 4788.22 6081.52 85.81 1.00  10.20 2776.61
   10:33:54.075.02-Jan-2020 4788.22 6079.00 85.81 1.00  10.40 2776.61
   10:33:54.275.02-Jan-2020 4788.22 6082.02 85.81 1.00  10.60 2776.61
   10:33:54.475.02-Jan-2020 4788.22 6084.04 85.81 1.00  10.80 2776.61
   10:33:54.675.02-Jan-2020 4788.22 6081.96 85.81 1.00  11.00 2776.61
   10:33:54.875.02-Jan-2020 4788.22 6081.96 85.81 1.00  11.20 2776.61
   10:33:55.075.02-Jan-2020 4788.22 6081.11 85.81 1.00  11.40 2776.61
   10:33:55.275.02-Jan-2020 4788.22 6079.71 85.81 1.00  11.60 2776.61
   10:33:55.475.02-Jan-2020 4788.22 6088.36 85.81 1.00  11.80 2776.61
   10:33:55.675.02-Jan-2020 4788.22 6084.03 85.81 1.00  12.00 2776.61
   10:33:55.875.02-Jan-2020 4788.22 6084.03 85.81 1.00  12.20 2776.61
   10:33:56.075.02-Jan-2020 4788.22 6081.61 85.81 1.00  12.40 2776.61
   10:33:56.275.02-Jan-2020 4788.22 6088.81 85.81 1.00  12.60 2776.61
   10:33:56.475.02-Jan-2020 4788.22 6082.89 85.81 1.00  12.80 2776.61
   10:33:56.675.02-Jan-2020 4788.22 6081.78 85.81 1.00  13.00 2776.61
   10:33:56.876.02-Jan-2020 4788.22 6081.78 85.81 1.00  13.20 2776.61
   10:33:57.076.02-Jan-2020 4788.22 6082.09 85.81 1.00  13.40 2776.61
   10:33:57.276.02-Jan-2020 4788.22 6081.76 85.81 1.00  13.60 2776.61
   10:33:57.476.02-Jan-2020 4788.22 6083.41 85.81 1.00  13.80 2776.61
   10:33:57.676.02-Jan-2020 4788.22 6084.25 85.81 1.00  14.00 2776.61
   10:33:57.876.02-Jan-2020 4788.22 6084.25 85.81 1.00  14.20 2776.61
   10:33:58.076.02-Jan-2020 4788.22 6088.25 85.81 1.00  14.40 2776.61
   10:33:58.276.02-Jan-2020 4788.22 6085.37 85.81 1.00  14.60 2776.61
   10:33:58.476.02-Jan-2020 4788.22 6084.22 85.81 1.00  14.80 2776.61
   10:33:58.676.02-Jan-2020 4788.22 6084.80 85.81 1.00  15.00 2776.61
   10:33:58.876.02-Jan-2020 4788.22 6084.80 85.81 1.00  15.20 2776.61
   10:33:59.076.02-Jan-2020 4788.22 6092.49 85.81 1.00  15.40 2776.61
   10:33:59.276.02-Jan-2020 4788.22 6087.37 85.81 1.00  15.60 2776.61
   10:33:59.476.02-Jan-2020 4788.22 6085.53 85.81 1.00  15.80 2776.61
   10:33:59.676.02-Jan-2020 4788.22 6085.63 85.81 1.00  16.00 2776.61
   10:33:59.876.02-Jan-2020 4788.22 6085.63 85.81 1.00  16.20 2776.61
   10:34:00.076.02-Jan-2020 4788.22 6093.85 85.81 1.00  16.40 2776.61
   10:34:00.276.02-Jan-2020 4788.22 6089.26 85.81 1.00  16.60 2776.61
   10:34:00.476.02-Jan-2020 4788.22 6087.38 85.81 1.00  16.80 2776.61
   10:34:00.676.02-Jan-2020 4788.22 6087.31 85.81 1.00  17.00 2776.61
   10:34:00.876.02-Jan-2020 4788.22 6087.31 85.81 1.00  17.20 2776.61
   10:34:01.077.02-Jan-2020 4788.22 6085.73 85.81 1.00  17.40 2776.61
   10:34:01.277.02-Jan-2020 4788.22 6086.25 85.81 1.00  17.60 2776.61
   10:34:01.477.02-Jan-2020 4788.22 6094.77 85.81 1.00  17.80 2776.61
   10:34:01.677.02-Jan-2020 4788.22 6088.79 85.81 1.00  18.00 2776.61
   10:34:01.877.02-Jan-2020 4788.22 6088.79 85.81 1.00  18.20 2776.61
   10:34:02.077.02-Jan-2020 4788.22 6086.73 85.81 1.00  18.40 2776.61
   10:34:02.277.02-Jan-2020 4788.22 6095.31 85.81 1.00  18.60 2776.61
   10:34:02.477.02-Jan-2020 4788.22 6088.46 85.81 1.00  18.80 2776.61
   10:34:02.677.02-Jan-2020 4788.22 6086.76 85.81 1.00  19.00 2776.61
   10:34:02.877.02-Jan-2020 4788.22 6086.76 85.81 1.00  19.20 2776.61
   10:34:03.077.02-Jan-2020 4788.22 6087.37 85.80 1.00  19.40 2776.61
   10:34:03.277.02-Jan-2020 4788.22 6087.46 85.80 1.00  19.60 2776.61
   10:34:03.477.02-Jan-2020 4788.22 6094.18 85.80 1.00  19.80 2776.61
   10:34:03.677.02-Jan-2020 4788.22 6092.94 85.80 1.00  20.00 2776.61
   10:34:03.877.02-Jan-2020 4788.22 6092.94 85.80 1.00  20.20 2776.61
   10:34:04.077.02-Jan-2020 4788.22 6096.13 85.80 1.00  20.40 2776.61
   10:34:04.277.02-Jan-2020 4788.22 6090.41 85.80 1.00  20.60 2776.61
   10:34:04.477.02-Jan-2020 4788.22 6089.15 85.80 1.00  20.80 2776.61
   10:34:04.677.02-Jan-2020 4788.22 6089.54 85.80 1.00  21.00 2776.61
   10:34:04.877.02-Jan-2020 4788.22 6089.54 85.80 1.00  21.20 2776.61
   10:34:05.077.02-Jan-2020 4788.22 6088.49 85.80 1.00  21.41 2776.61
   10:34:05.277.02-Jan-2020 4788.22 6088.88 85.80 1.00  21.61 2776.61
   10:34:05.478.02-Jan-2020 4788.22 6090.33 85.80 1.00  21.81 2776.61
   10:34:05.678.02-Jan-2020 4788.22 6094.36 85.80 1.00  22.01 2776.61
   10:34:05.878.02-Jan-2020 4788.22 6094.36 85.80 1.00  22.21 2776.61
   10:34:06.078.02-Jan-2020 4788.22 6093.11 85.80 1.00  22.41 2776.61
   10:34:06.278.02-Jan-2020 4788.22 6091.84 85.80 1.00  22.61 2776.61
   10:34:06.478.02-Jan-2020 4788.22 6098.38 85.80 1.00  22.81 2776.61
