~Version Information
 VERS.                  2.0:   CWLS log ASCII Standard -VERSION 2.0
 WRAP.                   NO:   One line per depth step
~Well Information Block
#MNEM.UNIT     VALUE/NAME     DESCRIPTION
#---------     -----------    ---------------------------
 STRT.S             11:06:01 02-Jan-20: START TIME 11:06:01 02-Jan-20
 STOP.S             11:13:00 02-Jan-20: STOP TIME  11:13:00 02-Jan-20
 STEP.S                   0.00: STEP TIME
 NULL.                 -999.25: NULL VALUE
 MDS .        Operator Entered:  MAG DATA SOURCE
 UNIT.                     N/a:  LOGGING EQUIPMENT ID
 DCON.         Sperry Drilling:  DIRECTNL CONTR
 CNTY.                    Baku:  COUNTY NAME
 DOE .                     N/a:  DOE NUMBER
 RIG .                     DWG:  RIG NAME
 MWDS.                    Baku:  MWD SHOP
 REGN.                   EESSA:  REGION
 BASE.              Azerbaijan:  LOGGING EQUIPMENT BASE LOCATION
 UWI .                     N/a:  UNIQUE WELL IDENTIFIER
 API .                     N/a:  API NUMBER
 WTYP.                Deviated:  WELL TYPE
 COMP.     BP Exploration (Caspian Sea) Ltd.:  COMPANY
 SRVC.          TURAN DRILLING:  CONTRACTOR
 WELL.           E04 (Slot 23):  WELL NAME
 CTRY.              Azerbaijan:  COUNTRY NAME
 SON .        AZ-XX-0905715376:  JOB NUMBER
 FLD .                     ACG:  FIELD NAME
 PDAT.          Mean Sea Level:  PERMANENT DATUM
 FTOP.          Formation Tops:  FORM TOPS DESC
 ILTD.               Lithology:  INTERP LTH DESC
 SVYD.                  Survey:  SURVEY DESC
 DMOD.             Drill Model:  DRILL MOD DESC
 HPTY.       Minimum Curvature:  HOLE POS TYPE
 NREF.                    Grid:  NORTH REFERENCE
 SPUD.               21-Dec-19:  SPUD DATE
 DATE.      17.57.20 21-Dec-19:  END TIME
 STIM.      17.57.20 21-Dec-19:  START TIME
 DMF .             Drill Floor:  DRILL MEAS FROM
 DFST.                        :  DIST FSL TEXT
 DFWT.                        :  DIST FWL TEXT
 PROV.                        :  PROVINCE
 STAT.                        :  STATE
 LOC .                        :  LOCATION
 LMF .             Drill Floor:  LOG MEASURED FROM
 AGAP.m                  43.16:  AIR GAP
 DEP .m                3172.61:  DEPTH
 APD .m                  43.16:  DEPTH ABOVE PD
 WDMS.m                 176.20:  WD ELEV
 EGL .m                   0.00:  GROUND ELEVATION
 EPD .m                   0.00:  ELEVATION
 AZTC.deg                 6.49:  AZM TOTAL CORR
 GRDC.deg                 0.09:  GRID CORRECTION
 MDEC.deg                 6.58:  MAGNETIC DECL
 MDIP.deg                59.61:  MAGNETIC DIP
 MFLD.nT              50294.00:  MAGNETIC FIELD
 GVFD.g                   1.00:  GRAVITY FIELD
 VSDR.deg               235.12:  VERT SEC DIRECT
 TDD .m                   0.00:  TOTAL DEPTH (DRILLER)
 SDEP.m                   0.00:  START DEPTH
 UTMY.m             4448627.46:  UTM Y
 UTMX.m              514337.95:  UTM X
 LONG.deg                51.17:  LONGITUDE
 LATI.deg                40.17:  LATITUDE
 TVDS.m                  43.16:  TVDSS CORRECTN
 WHEW.m                  -5.41:  WELL HEAD E/W
 WHNS.m                  -0.12:  WELL HEAD N/S
 VSEW.m                  -5.41:  VERT SEC E/W
 VSNS.m                  -0.12:  VERT SEC N/S
 EKB .m                  43.16:  KB ELEVATION
 EDF .m                  43.16:  DF ELEVATION
 MAGU.                 1852276:  MAGUTM CHECKSUM
 VSC .                       0:  VS TO CLOSURE
~Parameter Information Block
#MNEM.UNIT       Value        Description
#---------     -----------    ---------------------------
 TCS .hr                125.29:  Time Ciculation Ended 
 DD1 .      Fakhraddin Guliyev:  Direct Drillr 1 
 DD2 .                   Sanan:  Direct Drillr 2 
 DEFF.%                   0.00:  % Det Eff 
 DRET.      04.26.40 27-Dec-19:  Drill End Time 
 DRST.      04.26.40 27-Dec-19:  Drill Start Tim 
 DTIM.hr                 80.10:  Time Drilling 
 EDEP.m                   0.00:  End Depth 
 ENG1.            Adlet Omarov:  Engineer 1 
 ENG2.         Almaz Almadatov:  Engineer 2 
 ETIM.      04.26.40 27-Dec-19:  End Time 
 HFLO.                      No:  High Flow 
 HPRE.                      No:  High Pressure 
 HTEM.                      No:  High Temp 
 HYDO.m                   1.85:  Hydro Offset 
 IMAX.deg                72.09:  Inc Max 
 IMIN.deg                59.07:  Inc Min 
 IMND.m                3901.43:  Inc Min Depth 
 IMXD.m                4753.85:  Inc Max Depth 
 LETM.      04.26.40 27-Dec-19:  Log End Time 
 LSTM.      04.26.40 27-Dec-19:  Log Start Time 
 OTIM.hr                187.88:  Time Operating 
 PMAX.psia            10202.94:  Press Op, Max 
 RUN .                     300:  Run Number 
 RRUN.                    0300:  Rig Run Number 
 SDEP.m                   0.00:  Start Depth 
 STIM.      04.26.40 27-Dec-19:  Start Time 
 SVER.                    9.20:  Sperry Version 
 MRT .                    HCIM:  Maximum Recorded Temperature 
 TTMX.degC               96.08:  Max Tool Temp 
~Curve Information Block
#MNEM.UNIT                 API CODE     Curve Description
#---------               -----------    ---------------------------
 TIME.HHMMSS            00 000 000 000:  GT Time & Date
 GTDEPTH.m              00 000 000 000:  GT Depth
 GTPQH.psia             00 000 000 000:  GT HR Quartz Pressure
 GTTQ.degC              00 000 000 000:  GT Quartz Temperature
 GTTN.NONE              00 000 000 000:  GT Test Number
 GTET.sec               00 000 000 000:  GT Elapsed Test Time
 GTTVD.m                00 000 000 000:  GT True Vertical Depth
#Other Information
#
#WARRANTY: Halliburton will use its best efforts to furnish customers with 
#accurate information and interpretations that are part of, and incident to, the services 
#provided.  However, Halliburton cannot and does not warrant the accuracy 
#or correctness of such information and interpretations.  Under no circumstances should any 
#such information or interpretation be relied upon as the sole basis for any drilling, 
#completion, production, or financial decision or any procedure involving any risk to the 
#safety of any drilling venture, drilling rig or its crew or any other third party.  The 
#Customer has full responsibility for all drilling, completion and production operation.  
#Halliburton makes no representations or warranties, either expressed or 
#implied, including, but not limited to, the implied warranties of merchantability or fitness 
#for a particular purpose, with respect to the services rendered.  In no event will 
#Halliburton be liable for failure to obtain any particular results or for 
#any damages, including, but not limited to, indirect, special or consequential damages, 
#resulting from the use of any information or interpretation provided by Halliburton.
#
~A           TIME           GTDEPTH  GTPQH  GTTQ  GTTN  GTET   GTTVD  
# ...
   11:12:09.214.02-Jan-2020 4790.04 6157.57 85.08 2.00 368.09 2777.18
   11:12:09.414.02-Jan-2020 4790.04 6157.57 85.08 2.00 368.29 2777.18
   11:12:09.614.02-Jan-2020 4790.04 6150.52 85.08 2.00 368.49 2777.18
   11:12:09.814.02-Jan-2020 4790.04 6151.00 85.08 2.00 368.69 2777.18
   11:12:10.014.02-Jan-2020 4790.04 6149.87 85.08 2.00 368.89 2777.18
   11:12:10.215.02-Jan-2020 4790.04 6148.34 85.08 2.00 369.09 2777.18
   11:12:10.415.02-Jan-2020 4790.04 6148.34 85.08 2.00 369.29 2777.18
   11:12:10.615.02-Jan-2020 4790.04 6153.01 85.09 2.00 369.49 2777.18
   11:12:10.815.02-Jan-2020 4790.04 6148.42 85.09 2.00 369.69 2777.18
   11:12:11.015.02-Jan-2020 4790.04 6156.55 85.09 2.00 369.89 2777.18
   11:12:11.215.02-Jan-2020 4790.04 6151.51 85.09 2.00 370.09 2777.18
   11:12:11.415.02-Jan-2020 4790.04 6151.51 85.09 2.00 370.29 2777.18
   11:12:11.615.02-Jan-2020 4790.04 6149.14 85.09 2.00 370.49 2777.18
   11:12:11.815.02-Jan-2020 4790.04 6148.63 85.09 2.00 370.69 2777.18
   11:12:12.015.02-Jan-2020 4790.04 6156.12 85.09 2.00 370.89 2777.18
   11:12:12.215.02-Jan-2020 4790.04 6149.72 85.09 2.00 371.09 2777.18
   11:12:12.415.02-Jan-2020 4790.04 6149.72 85.09 2.00 371.29 2777.18
   11:12:12.615.02-Jan-2020 4790.04 6157.31 85.09 2.00 371.49 2777.18
   11:12:12.815.02-Jan-2020 4790.04 6151.25 85.09 2.00 371.69 2777.18
   11:12:13.015.02-Jan-2020 4790.04 6147.90 85.09 2.00 371.89 2777.18
   11:12:13.215.02-Jan-2020 4790.04 6149.20 85.10 2.00 372.09 2777.18
   11:12:13.415.02-Jan-2020 4790.04 6149.20 85.10 2.00 372.29 2777.18
   11:12:13.615.02-Jan-2020 4790.04 6148.45 85.10 2.00 372.49 2777.18
   11:12:13.815.02-Jan-2020 4790.04 6148.22 85.10 2.00 372.69 2777.18
   11:12:14.015.02-Jan-2020 4790.04 6148.33 85.10 2.00 372.89 2777.18
   11:12:14.215.02-Jan-2020 4790.04 6148.90 85.10 2.00 373.09 2777.18
   11:12:14.416.02-Jan-2020 4790.04 6148.90 85.10 2.00 373.29 2777.18
   11:12:14.616.02-Jan-2020 4790.04 6153.10 85.10 2.00 373.49 2777.18
   11:12:14.816.02-Jan-2020 4790.04 6149.36 85.10 2.00 373.69 2777.18
   11:12:15.016.02-Jan-2020 4790.04 6152.36 85.10 2.00 373.89 2777.18
   11:12:15.216.02-Jan-2020 4790.04 6155.30 85.10 2.00 374.09 2777.18
   11:12:15.416.02-Jan-2020 4790.04 6155.30 85.10 2.00 374.29 2777.18
   11:12:15.616.02-Jan-2020 4790.04 6148.81 85.10 2.00 374.49 2777.18
   11:12:15.816.02-Jan-2020 4790.04 6158.24 85.10 2.00 374.69 2777.18
   11:12:16.016.02-Jan-2020 4790.04 6149.92 85.10 2.00 374.89 2777.18
   11:12:16.216.02-Jan-2020 4790.04 6148.29 85.10 2.00 375.09 2777.18
   11:12:16.416.02-Jan-2020 4790.04 6148.29 85.10 2.00 375.29 2777.18
   11:12:16.616.02-Jan-2020 4790.04 6152.40 85.10 2.00 375.49 2777.18
   11:12:16.816.02-Jan-2020 4790.04 6148.77 85.10 2.00 375.69 2777.18
   11:12:17.016.02-Jan-2020 4790.04 6149.04 85.10 2.00 375.89 2777.18
   11:12:17.216.02-Jan-2020 4790.04 6157.64 85.10 2.00 376.09 2777.18
   11:12:17.416.02-Jan-2020 4790.04 6157.64 85.10 2.00 376.29 2777.18
   11:12:17.616.02-Jan-2020 4790.04 6147.90 85.10 2.00 376.49 2777.18
   11:12:17.816.02-Jan-2020 4790.04 6147.32 85.10 2.00 376.69 2777.18
   11:12:18.016.02-Jan-2020 4790.04 6147.55 85.10 2.00 376.89 2777.18
   11:12:18.216.02-Jan-2020 4790.04 6146.52 85.10 2.00 377.09 2777.18
   11:12:18.416.02-Jan-2020 4790.04 6146.52 85.10 2.00 377.29 2777.18
   11:12:18.617.02-Jan-2020 4790.04 6158.34 85.10 2.00 377.49 2777.18
   11:12:18.817.02-Jan-2020 4790.04 6151.19 85.10 2.00 377.69 2777.18
   11:12:19.017.02-Jan-2020 4790.04 6148.72 85.10 2.00 377.89 2777.18
   11:12:19.217.02-Jan-2020 4790.04 6157.48 85.10 2.00 378.09 2777.18
   11:12:19.417.02-Jan-2020 4790.04 6157.48 85.10 2.00 378.29 2777.18
   11:12:19.617.02-Jan-2020 4790.04 6148.88 85.10 2.00 378.49 2777.18
   11:12:19.817.02-Jan-2020 4790.04 6149.37 85.10 2.00 378.69 2777.18
   11:12:20.017.02-Jan-2020 4790.04 6150.05 85.10 2.00 378.89 2777.18
   11:12:20.217.02-Jan-2020 4790.04 6149.57 85.10 2.00 379.09 2777.18
   11:12:20.417.02-Jan-2020 4790.04 6149.57 85.10 2.00 379.29 2777.18
   11:12:20.617.02-Jan-2020 4790.04 6150.60 85.10 2.00 379.49 2777.18
   11:12:20.817.02-Jan-2020 4790.04 6151.05 85.10 2.00 379.69 2777.18
   11:12:21.017.02-Jan-2020 4790.04 6155.85 85.10 2.00 379.89 2777.18
   11:12:21.217.02-Jan-2020 4790.04 6153.63 85.10 2.00 380.09 2777.18
   11:12:21.417.02-Jan-2020 4790.04 6153.63 85.10 2.00 380.29 2777.18
   11:12:21.617.02-Jan-2020 4790.04 6149.98 85.10 2.00 380.49 2777.18
   11:12:21.817.02-Jan-2020 4790.04 6148.38 85.10 2.00 380.69 2777.18
   11:12:22.017.02-Jan-2020 4790.04 6149.82 85.10 2.00 380.89 2777.18
   11:12:22.217.02-Jan-2020 4790.04 6154.45 85.10 2.00 381.09 2777.18
   11:12:22.417.02-Jan-2020 4790.04 6154.45 85.10 2.00 381.29 2777.18
   11:12:22.617.02-Jan-2020 4790.04 6148.24 85.10 2.00 381.49 2777.18
   11:12:22.817.02-Jan-2020 4790.04 6155.02 85.10 2.00 381.69 2777.18
   11:12:23.018.02-Jan-2020 4790.04 6152.31 85.10 2.00 381.89 2777.18
   11:12:23.218.02-Jan-2020 4790.04 6148.89 85.09 2.00 382.09 2777.18
   11:12:23.418.02-Jan-2020 4790.04 6148.89 85.09 2.00 382.29 2777.18
   11:12:23.618.02-Jan-2020 4790.04 6150.32 85.09 2.00 382.49 2777.18
   11:12:23.818.02-Jan-2020 4790.04 6147.68 85.09 2.00 382.69 2777.18
   11:12:24.018.02-Jan-2020 4790.04 6148.16 85.09 2.00 382.89 2777.18
   11:12:24.218.02-Jan-2020 4790.04 6156.77 85.09 2.00 383.09 2777.18
   11:12:24.418.02-Jan-2020 4790.04 6156.77 85.09 2.00 383.29 2777.18
   11:12:24.618.02-Jan-2020 4790.04 6147.93 85.09 2.00 383.49 2777.18
   11:12:24.818.02-Jan-2020 4790.04 6148.67 85.09 2.00 383.69 2777.18
   11:12:25.018.02-Jan-2020 4790.04 6148.86 85.09 2.00 383.89 2777.18
   11:12:25.218.02-Jan-2020 4790.04 6148.08 85.09 2.00 384.09 2777.18
   11:12:25.418.02-Jan-2020 4790.04 6148.08 85.09 2.00 384.29 2777.18
   11:12:25.618.02-Jan-2020 4790.04 6152.45 85.09 2.00 384.49 2777.18
   11:12:25.818.02-Jan-2020 4790.04 6148.08 85.09 2.00 384.69 2777.18
   11:12:26.018.02-Jan-2020 4790.04 6147.25 85.09 2.00 384.89 2777.18
   11:12:26.218.02-Jan-2020 4790.04 6154.48 85.09 2.00 385.09 2777.18
   11:12:26.418.02-Jan-2020 4790.04 6154.48 85.09 2.00 385.29 2777.18
   11:12:26.618.02-Jan-2020 4790.04 6148.62 85.09 2.00 385.49 2777.18
   11:12:26.818.02-Jan-2020 4790.04 6149.08 85.09 2.00 385.69 2777.18
   11:12:27.018.02-Jan-2020 4790.04 6148.39 85.09 2.00 385.89 2777.18
   11:12:27.219.02-Jan-2020 4790.04 6147.64 85.09 2.00 386.09 2777.18
   11:12:27.419.02-Jan-2020 4790.04 6147.64 85.09 2.00 386.29 2777.18
   11:12:27.619.02-Jan-2020 4790.04 6149.83 85.09 2.00 386.49 2777.18
   11:12:27.819.02-Jan-2020 4790.04 6157.32 85.09 2.00 386.69 2777.18
   11:12:28.019.02-Jan-2020 4790.04 6151.48 85.09 2.00 386.89 2777.18
   11:12:28.219.02-Jan-2020 4790.04 6149.04 85.09 2.00 387.09 2777.18
   11:12:28.419.02-Jan-2020 4790.04 6149.04 85.09 2.00 387.29 2777.18
   11:12:28.619.02-Jan-2020 4790.04 6148.97 85.09 2.00 387.49 2777.18
   11:12:28.819.02-Jan-2020 4790.04 6148.07 85.09 2.00 387.69 2777.18
   11:12:29.019.02-Jan-2020 4790.04 6157.48 85.09 2.00 387.89 2777.18
   11:12:29.219.02-Jan-2020 4790.04 6151.25 85.09 2.00 388.09 2777.18
   11:12:29.419.02-Jan-2020 4790.04 6151.25 85.09 2.00 388.29 2777.18
   11:12:29.619.02-Jan-2020 4790.04 6156.80 85.09 2.00 388.49 2777.18
   11:12:29.819.02-Jan-2020 4790.04 6151.46 85.09 2.00 388.69 2777.18
   11:12:30.019.02-Jan-2020 4790.04 6147.93 85.09 2.00 388.89 2777.18
   11:12:30.219.02-Jan-2020 4790.04 6151.24 85.09 2.00 389.09 2777.18
   11:12:30.419.02-Jan-2020 4790.04 6151.24 85.09 2.00 389.29 2777.18
   11:12:30.619.02-Jan-2020 4790.04 6150.56 85.09 2.00 389.49 2777.18
   11:12:30.819.02-Jan-2020 4790.04 6148.02 85.09 2.00 389.69 2777.18
   11:12:31.019.02-Jan-2020 4790.04 6151.56 85.09 2.00 389.89 2777.18
   11:12:31.219.02-Jan-2020 4790.04 6153.76 85.09 2.00 390.09 2777.18
   11:12:31.420.02-Jan-2020 4790.04 6153.76 85.09 2.00 390.29 2777.18
   11:12:31.620.02-Jan-2020 4790.04 6147.45 85.09 2.00 390.49 2777.18
   11:12:31.820.02-Jan-2020 4790.04 6148.79 85.09 2.00 390.69 2777.18
   11:12:32.020.02-Jan-2020 4790.04 6148.02 85.09 2.00 390.89 2777.18
