~Version Information
 VERS.                  2.0:   CWLS log ASCII Standard -VERSION 2.0
 WRAP.                   NO:   One line per depth step
~Well Information Block
#MNEM.UNIT     VALUE/NAME     DESCRIPTION
#---------     -----------    ---------------------------
 STRT.S             10:33:43 02-Jan-20: START TIME 10:33:43 02-Jan-20
 STOP.S             10:42:04 02-Jan-20: STOP TIME  10:42:04 02-Jan-20
 STEP.S                   0.00: STEP TIME
 NULL.                 -999.25: NULL VALUE
 MDS .        Operator Entered:  MAG DATA SOURCE
 UNIT.                     N/a:  LOGGING EQUIPMENT ID
 DCON.         Sperry Drilling:  DIRECTNL CONTR
 CNTY.                    Baku:  COUNTY NAME
 DOE .                     N/a:  DOE NUMBER
 RIG .                     DWG:  RIG NAME
 MWDS.                    Baku:  MWD SHOP
 REGN.                   EESSA:  REGION
 BASE.              Azerbaijan:  LOGGING EQUIPMENT BASE LOCATION
 UWI .                     N/a:  UNIQUE WELL IDENTIFIER
 API .                     N/a:  API NUMBER
 WTYP.                Deviated:  WELL TYPE
 COMP.     BP Exploration (Caspian Sea) Ltd.:  COMPANY
 SRVC.          TURAN DRILLING:  CONTRACTOR
 WELL.           E04 (Slot 23):  WELL NAME
 CTRY.              Azerbaijan:  COUNTRY NAME
 SON .        AZ-XX-0905715376:  JOB NUMBER
 FLD .                     ACG:  FIELD NAME
 PDAT.          Mean Sea Level:  PERMANENT DATUM
 FTOP.          Formation Tops:  FORM TOPS DESC
 ILTD.               Lithology:  INTERP LTH DESC
 SVYD.                  Survey:  SURVEY DESC
 DMOD.             Drill Model:  DRILL MOD DESC
 HPTY.       Minimum Curvature:  HOLE POS TYPE
 NREF.                    Grid:  NORTH REFERENCE
 SPUD.               21-Dec-19:  SPUD DATE
 DATE.      17.57.20 21-Dec-19:  END TIME
 STIM.      17.57.20 21-Dec-19:  START TIME
 DMF .             Drill Floor:  DRILL MEAS FROM
 DFST.                        :  DIST FSL TEXT
 DFWT.                        :  DIST FWL TEXT
 PROV.                        :  PROVINCE
 STAT.                        :  STATE
 LOC .                        :  LOCATION
 LMF .             Drill Floor:  LOG MEASURED FROM
 AGAP.m                  43.16:  AIR GAP
 DEP .m                3172.61:  DEPTH
 APD .m                  43.16:  DEPTH ABOVE PD
 WDMS.m                 176.20:  WD ELEV
 EGL .m                   0.00:  GROUND ELEVATION
 EPD .m                   0.00:  ELEVATION
 AZTC.deg                 6.49:  AZM TOTAL CORR
 GRDC.deg                 0.09:  GRID CORRECTION
 MDEC.deg                 6.58:  MAGNETIC DECL
 MDIP.deg                59.61:  MAGNETIC DIP
 MFLD.nT              50294.00:  MAGNETIC FIELD
 GVFD.g                   1.00:  GRAVITY FIELD
 VSDR.deg               235.12:  VERT SEC DIRECT
 TDD .m                   0.00:  TOTAL DEPTH (DRILLER)
 SDEP.m                   0.00:  START DEPTH
 UTMY.m             4448627.46:  UTM Y
 UTMX.m              514337.95:  UTM X
 LONG.deg                51.17:  LONGITUDE
 LATI.deg                40.17:  LATITUDE
 TVDS.m                  43.16:  TVDSS CORRECTN
 WHEW.m                  -5.41:  WELL HEAD E/W
 WHNS.m                  -0.12:  WELL HEAD N/S
 VSEW.m                  -5.41:  VERT SEC E/W
 VSNS.m                  -0.12:  VERT SEC N/S
 EKB .m                  43.16:  KB ELEVATION
 EDF .m                  43.16:  DF ELEVATION
 MAGU.                 1852276:  MAGUTM CHECKSUM
 VSC .                       0:  VS TO CLOSURE
~Parameter Information Block
#MNEM.UNIT       Value        Description
#---------     -----------    ---------------------------
 TCS .hr                125.29:  Time Ciculation Ended 
 DD1 .      Fakhraddin Guliyev:  Direct Drillr 1 
 DD2 .                   Sanan:  Direct Drillr 2 
 DEFF.%                   0.00:  % Det Eff 
 DRET.      04.26.40 27-Dec-19:  Drill End Time 
 DRST.      04.26.40 27-Dec-19:  Drill Start Tim 
 DTIM.hr                 80.10:  Time Drilling 
 EDEP.m                   0.00:  End Depth 
 ENG1.            Adlet Omarov:  Engineer 1 
 ENG2.         Almaz Almadatov:  Engineer 2 
 ETIM.      04.26.40 27-Dec-19:  End Time 
 HFLO.                      No:  High Flow 
 HPRE.                      No:  High Pressure 
 HTEM.                      No:  High Temp 
 HYDO.m                   1.85:  Hydro Offset 
 IMAX.deg                72.09:  Inc Max 
 IMIN.deg                59.07:  Inc Min 
 IMND.m                3901.43:  Inc Min Depth 
 IMXD.m                4753.85:  Inc Max Depth 
 LETM.      04.26.40 27-Dec-19:  Log End Time 
 LSTM.      04.26.40 27-Dec-19:  Log Start Time 
 OTIM.hr                187.88:  Time Operating 
 PMAX.psia            10202.94:  Press Op, Max 
 RUN .                     300:  Run Number 
 RRUN.                    0300:  Rig Run Number 
 SDEP.m                   0.00:  Start Depth 
 STIM.      04.26.40 27-Dec-19:  Start Time 
 SVER.                    9.20:  Sperry Version 
 MRT .                    HCIM:  Maximum Recorded Temperature 
 TTMX.degC               96.08:  Max Tool Temp 
~Curve Information Block
#MNEM.UNIT                 API CODE     Curve Description
#---------               -----------    ---------------------------
 TIME.HHMMSS            00 000 000 000:  GT Time & Date
 GTDEPTH.m              00 000 000 000:  GT Depth
 GTPQH.psia             00 000 000 000:  GT HR Quartz Pressure
 GTTQ.degC              00 000 000 000:  GT Quartz Temperature
 GTTN.NONE              00 000 000 000:  GT Test Number
 GTET.sec               00 000 000 000:  GT Elapsed Test Time
 GTTVD.m                00 000 000 000:  GT True Vertical Depth
#Other Information
#
#WARRANTY: Halliburton will use its best efforts to furnish customers with 
#accurate information and interpretations that are part of, and incident to, the services 
#provided.  However, Halliburton cannot and does not warrant the accuracy 
#or correctness of such information and interpretations.  Under no circumstances should any 
#such information or interpretation be relied upon as the sole basis for any drilling, 
#completion, production, or financial decision or any procedure involving any risk to the 
#safety of any drilling venture, drilling rig or its crew or any other third party.  The 
#Customer has full responsibility for all drilling, completion and production operation.  
#Halliburton makes no representations or warranties, either expressed or 
#implied, including, but not limited to, the implied warranties of merchantability or fitness 
#for a particular purpose, with respect to the services rendered.  In no event will 
#Halliburton be liable for failure to obtain any particular results or for 
#any damages, including, but not limited to, indirect, special or consequential damages, 
#resulting from the use of any information or interpretation provided by Halliburton.
#
~A           TIME           GTDEPTH  GTPQH  GTTQ  GTTN  GTET   GTTVD  
# ...
   10:40:37.770.02-Jan-2020 4788.22 6142.83 85.54 1.00 414.10 2776.61
   10:40:37.970.02-Jan-2020 4788.22 6142.83 85.54 1.00 414.30 2776.61
   10:40:38.170.02-Jan-2020 4788.22 6143.24 85.54 1.00 414.50 2776.61
   10:40:38.370.02-Jan-2020 4788.22 6142.82 85.54 1.00 414.70 2776.61
   10:40:38.570.02-Jan-2020 4788.22 6144.26 85.54 1.00 414.90 2776.61
   10:40:38.770.02-Jan-2020 4788.22 6145.13 85.54 1.00 415.10 2776.61
   10:40:38.970.02-Jan-2020 4788.22 6145.13 85.54 1.00 415.30 2776.61
   10:40:39.170.02-Jan-2020 4788.22 6147.38 85.54 1.00 415.50 2776.61
   10:40:39.370.02-Jan-2020 4788.22 6144.49 85.54 1.00 415.70 2776.61
   10:40:39.570.02-Jan-2020 4788.22 6144.05 85.54 1.00 415.90 2776.61
   10:40:39.770.02-Jan-2020 4788.22 6143.92 85.54 1.00 416.10 2776.61
   10:40:39.970.02-Jan-2020 4788.22 6143.92 85.54 1.00 416.30 2776.61
   10:40:40.170.02-Jan-2020 4788.22 6152.00 85.54 1.00 416.50 2776.61
   10:40:40.370.02-Jan-2020 4788.22 6146.67 85.54 1.00 416.70 2776.61
   10:40:40.570.02-Jan-2020 4788.22 6144.22 85.54 1.00 416.90 2776.61
   10:40:40.770.02-Jan-2020 4788.22 6143.99 85.54 1.00 417.10 2776.61
   10:40:40.970.02-Jan-2020 4788.22 6143.99 85.54 1.00 417.30 2776.61
   10:40:41.171.02-Jan-2020 4788.22 6143.27 85.54 1.00 417.50 2776.61
   10:40:41.371.02-Jan-2020 4788.22 6144.54 85.54 1.00 417.70 2776.61
   10:40:41.571.02-Jan-2020 4788.22 6153.09 85.54 1.00 417.90 2776.61
   10:40:41.771.02-Jan-2020 4788.22 6146.89 85.54 1.00 418.10 2776.61
   10:40:41.971.02-Jan-2020 4788.22 6146.89 85.54 1.00 418.30 2776.61
   10:40:42.171.02-Jan-2020 4788.22 6143.08 85.54 1.00 418.50 2776.61
   10:40:42.371.02-Jan-2020 4788.22 6142.71 85.54 1.00 418.70 2776.61
   10:40:42.571.02-Jan-2020 4788.22 6142.51 85.54 1.00 418.90 2776.61
   10:40:42.771.02-Jan-2020 4788.22 6143.25 85.54 1.00 419.10 2776.61
   10:40:42.971.02-Jan-2020 4788.22 6143.25 85.54 1.00 419.30 2776.61
   10:40:43.171.02-Jan-2020 4788.22 6148.39 85.54 1.00 419.50 2776.61
   10:40:43.371.02-Jan-2020 4788.22 6144.96 85.54 1.00 419.70 2776.61
   10:40:43.571.02-Jan-2020 4788.22 6143.79 85.54 1.00 419.90 2776.61
   10:40:43.771.02-Jan-2020 4788.22 6149.81 85.54 1.00 420.10 2776.61
   10:40:43.971.02-Jan-2020 4788.22 6149.81 85.54 1.00 420.30 2776.61
   10:40:44.171.02-Jan-2020 4788.22 6143.90 85.54 1.00 420.50 2776.61
   10:40:44.371.02-Jan-2020 4788.22 6144.77 85.54 1.00 420.70 2776.61
   10:40:44.571.02-Jan-2020 4788.22 6143.60 85.54 1.00 420.90 2776.61
   10:40:44.771.02-Jan-2020 4788.22 6146.61 85.54 1.00 421.10 2776.61
   10:40:44.971.02-Jan-2020 4788.22 6146.61 85.54 1.00 421.30 2776.61
   10:40:45.171.02-Jan-2020 4788.22 6144.55 85.53 1.00 421.50 2776.61
   10:40:45.372.02-Jan-2020 4788.22 6142.30 85.53 1.00 421.70 2776.61
   10:40:45.572.02-Jan-2020 4788.22 6151.35 85.53 1.00 421.90 2776.61
   10:40:45.772.02-Jan-2020 4788.22 6145.71 85.53 1.00 422.10 2776.61
   10:40:45.972.02-Jan-2020 4788.22 6145.71 85.53 1.00 422.30 2776.61
   10:40:46.172.02-Jan-2020 4788.22 6143.82 85.53 1.00 422.50 2776.61
   10:40:46.372.02-Jan-2020 4788.22 6142.59 85.53 1.00 422.70 2776.61
   10:40:46.572.02-Jan-2020 4788.22 6141.66 85.53 1.00 422.90 2776.61
   10:40:46.772.02-Jan-2020 4788.22 6142.45 85.53 1.00 423.10 2776.61
   10:40:46.972.02-Jan-2020 4788.22 6142.45 85.53 1.00 423.30 2776.61
   10:40:47.172.02-Jan-2020 4788.22 6148.95 85.53 1.00 423.50 2776.61
   10:40:47.372.02-Jan-2020 4788.22 6149.24 85.53 1.00 423.70 2776.61
   10:40:47.572.02-Jan-2020 4788.22 6145.66 85.53 1.00 423.90 2776.61
   10:40:47.772.02-Jan-2020 4788.22 6144.62 85.53 1.00 424.10 2776.61
   10:40:47.972.02-Jan-2020 4788.22 6144.62 85.53 1.00 424.30 2776.61
   10:40:48.172.02-Jan-2020 4788.22 6142.91 85.53 1.00 424.50 2776.61
   10:40:48.372.02-Jan-2020 4788.22 6143.21 85.53 1.00 424.70 2776.61
   10:40:48.572.02-Jan-2020 4788.22 6153.16 85.53 1.00 424.90 2776.61
   10:40:48.772.02-Jan-2020 4788.22 6146.90 85.53 1.00 425.10 2776.61
   10:40:48.972.02-Jan-2020 4788.22 6146.90 85.53 1.00 425.30 2776.61
   10:40:49.172.02-Jan-2020 4788.22 6144.30 85.53 1.00 425.50 2776.61
   10:40:49.372.02-Jan-2020 4788.22 6144.53 85.53 1.00 425.70 2776.61
   10:40:49.573.02-Jan-2020 4788.22 6143.97 85.53 1.00 425.90 2776.61
   10:40:49.773.02-Jan-2020 4788.22 6144.23 85.53 1.00 426.10 2776.61
   10:40:49.973.02-Jan-2020 4788.22 6144.23 85.53 1.00 426.30 2776.61
   10:40:50.173.02-Jan-2020 4788.22 6145.95 85.53 1.00 426.50 2776.61
   10:40:50.373.02-Jan-2020 4788.22 6142.70 85.53 1.00 426.70 2776.61
   10:40:50.573.02-Jan-2020 4788.22 6142.09 85.53 1.00 426.90 2776.61
   10:40:50.773.02-Jan-2020 4788.22 6141.85 85.53 1.00 427.10 2776.61
   10:40:50.973.02-Jan-2020 4788.22 6141.85 85.53 1.00 427.30 2776.61
   10:40:51.173.02-Jan-2020 4788.22 6142.20 85.53 1.00 427.50 2776.61
   10:40:51.373.02-Jan-2020 4788.22 6153.15 85.53 1.00 427.70 2776.61
   10:40:51.573.02-Jan-2020 4788.22 6146.64 85.53 1.00 427.90 2776.61
   10:40:51.773.02-Jan-2020 4788.22 6143.22 85.53 1.00 428.10 2776.61
   10:40:51.973.02-Jan-2020 4788.22 6143.22 85.53 1.00 428.30 2776.61
   10:40:52.173.02-Jan-2020 4788.22 6150.48 85.53 1.00 428.50 2776.61
   10:40:52.373.02-Jan-2020 4788.22 6144.03 85.53 1.00 428.70 2776.61
   10:40:52.573.02-Jan-2020 4788.22 6142.99 85.53 1.00 428.90 2776.61
   10:40:52.773.02-Jan-2020 4788.22 6143.91 85.53 1.00 429.10 2776.61
   10:40:52.973.02-Jan-2020 4788.22 6143.91 85.53 1.00 429.30 2776.61
   10:40:53.173.02-Jan-2020 4788.22 6146.58 85.53 1.00 429.50 2776.61
   10:40:53.373.02-Jan-2020 4788.22 6142.51 85.53 1.00 429.70 2776.61
   10:40:53.573.02-Jan-2020 4788.22 6152.60 85.53 1.00 429.90 2776.61
   10:40:53.773.02-Jan-2020 4788.22 6144.12 85.53 1.00 430.10 2776.61
   10:40:53.974.02-Jan-2020 4788.22 6144.12 85.53 1.00 430.30 2776.61
   10:40:54.174.02-Jan-2020 4788.22 6142.87 85.53 1.00 430.50 2776.61
   10:40:54.374.02-Jan-2020 4788.22 6143.25 85.53 1.00 430.70 2776.61
   10:40:54.574.02-Jan-2020 4788.22 6141.66 85.53 1.00 430.90 2776.61
   10:40:54.774.02-Jan-2020 4788.22 6141.38 85.53 1.00 431.10 2776.61
   10:40:54.974.02-Jan-2020 4788.22 6141.38 85.53 1.00 431.30 2776.61
   10:40:55.174.02-Jan-2020 4788.22 6142.74 85.53 1.00 431.50 2776.61
   10:40:55.374.02-Jan-2020 4788.22 6149.68 85.53 1.00 431.70 2776.61
   10:40:55.574.02-Jan-2020 4788.22 6147.25 85.53 1.00 431.90 2776.61
   10:40:55.774.02-Jan-2020 4788.22 6143.73 85.53 1.00 432.10 2776.61
   10:40:55.974.02-Jan-2020 4788.22 6143.73 85.53 1.00 432.30 2776.61
   10:40:56.174.02-Jan-2020 4788.22 6145.44 85.53 1.00 432.50 2776.61
   10:40:56.374.02-Jan-2020 4788.22 6143.28 85.53 1.00 432.70 2776.61
   10:40:56.574.02-Jan-2020 4788.22 6152.82 85.53 1.00 432.90 2776.61
   10:40:56.774.02-Jan-2020 4788.22 6145.88 85.53 1.00 433.10 2776.61
   10:40:56.974.02-Jan-2020 4788.22 6145.88 85.53 1.00 433.30 2776.61
   10:40:57.174.02-Jan-2020 4788.22 6147.83 85.53 1.00 433.50 2776.61
   10:40:57.374.02-Jan-2020 4788.22 6150.00 85.53 1.00 433.70 2776.61
   10:40:57.574.02-Jan-2020 4788.22 6146.04 85.53 1.00 433.90 2776.61
   10:40:57.774.02-Jan-2020 4788.22 6143.97 85.53 1.00 434.10 2776.61
   10:40:57.974.02-Jan-2020 4788.22 6143.97 85.53 1.00 434.30 2776.61
   10:40:58.175.02-Jan-2020 4788.22 6148.39 85.53 1.00 434.50 2776.61
   10:40:58.375.02-Jan-2020 4788.22 6143.95 85.53 1.00 434.70 2776.61
   10:40:58.575.02-Jan-2020 4788.22 6142.04 85.53 1.00 434.90 2776.61
   10:40:58.775.02-Jan-2020 4788.22 6149.58 85.53 1.00 435.10 2776.61
   10:40:58.975.02-Jan-2020 4788.22 6149.58 85.53 1.00 435.30 2776.61
   10:40:59.175.02-Jan-2020 4788.22 6141.71 85.53 1.00 435.50 2776.61
   10:40:59.375.02-Jan-2020 4788.22 6152.41 85.53 1.00 435.70 2776.61
   10:40:59.575.02-Jan-2020 4788.22 6145.24 85.53 1.00 435.90 2776.61
   10:40:59.775.02-Jan-2020 4788.22 6141.98 85.53 1.00 436.10 2776.61
   10:40:59.975.02-Jan-2020 4788.22 6141.98 85.53 1.00 436.30 2776.61
   10:41:00.175.02-Jan-2020 4788.22 6144.34 85.53 1.00 436.50 2776.61
   10:41:00.375.02-Jan-2020 4788.22 6143.40 85.53 1.00 436.70 2776.61
   10:41:00.575.02-Jan-2020 4788.22 6143.44 85.53 1.00 436.90 2776.61
