~Version Information
 VERS.                  2.0:   CWLS log ASCII Standard -VERSION 2.0
 WRAP.                   NO:   One line per depth step
~Well Information Block
#MNEM.UNIT     VALUE/NAME     DESCRIPTION
#---------     -----------    ---------------------------
 STRT.S             11:06:01 02-Jan-20: START TIME 11:06:01 02-Jan-20
 STOP.S             11:13:00 02-Jan-20: STOP TIME  11:13:00 02-Jan-20
 STEP.S                   0.00: STEP TIME
 NULL.                 -999.25: NULL VALUE
 MDS .        Operator Entered:  MAG DATA SOURCE
 UNIT.                     N/a:  LOGGING EQUIPMENT ID
 DCON.         Sperry Drilling:  DIRECTNL CONTR
 CNTY.                    Baku:  COUNTY NAME
 DOE .                     N/a:  DOE NUMBER
 RIG .                     DWG:  RIG NAME
 MWDS.                    Baku:  MWD SHOP
 REGN.                   EESSA:  REGION
 BASE.              Azerbaijan:  LOGGING EQUIPMENT BASE LOCATION
 UWI .                     N/a:  UNIQUE WELL IDENTIFIER
 API .                     N/a:  API NUMBER
 WTYP.                Deviated:  WELL TYPE
 COMP.     BP Exploration (Caspian Sea) Ltd.:  COMPANY
 SRVC.          TURAN DRILLING:  CONTRACTOR
 WELL.           E04 (Slot 23):  WELL NAME
 CTRY.              Azerbaijan:  COUNTRY NAME
 SON .        AZ-XX-0905715376:  JOB NUMBER
 FLD .                     ACG:  FIELD NAME
 PDAT.          Mean Sea Level:  PERMANENT DATUM
 FTOP.          Formation Tops:  FORM TOPS DESC
 ILTD.               Lithology:  INTERP LTH DESC
 SVYD.                  Survey:  SURVEY DESC
 DMOD.             Drill Model:  DRILL MOD DESC
 HPTY.       Minimum Curvature:  HOLE POS TYPE
 NREF.                    Grid:  NORTH REFERENCE
 SPUD.               21-Dec-19:  SPUD DATE
 DATE.      17.57.20 21-Dec-19:  END TIME
 STIM.      17.57.20 21-Dec-19:  START TIME
 DMF .             Drill Floor:  DRILL MEAS FROM
 DFST.                        :  DIST FSL TEXT
 DFWT.                        :  DIST FWL TEXT
 PROV.                        :  PROVINCE
 STAT.                        :  STATE
 LOC .                        :  LOCATION
 LMF .             Drill Floor:  LOG MEASURED FROM
 AGAP.m                  43.16:  AIR GAP
 DEP .m                3172.61:  DEPTH
 APD .m                  43.16:  DEPTH ABOVE PD
 WDMS.m                 176.20:  WD ELEV
 EGL .m                   0.00:  GROUND ELEVATION
 EPD .m                   0.00:  ELEVATION
 AZTC.deg                 6.49:  AZM TOTAL CORR
 GRDC.deg                 0.09:  GRID CORRECTION
 MDEC.deg                 6.58:  MAGNETIC DECL
 MDIP.deg                59.61:  MAGNETIC DIP
 MFLD.nT              50294.00:  MAGNETIC FIELD
 GVFD.g                   1.00:  GRAVITY FIELD
 VSDR.deg               235.12:  VERT SEC DIRECT
 TDD .m                   0.00:  TOTAL DEPTH (DRILLER)
 SDEP.m                   0.00:  START DEPTH
 UTMY.m             4448627.46:  UTM Y
 UTMX.m              514337.95:  UTM X
 LONG.deg                51.17:  LONGITUDE
 LATI.deg                40.17:  LATITUDE
 TVDS.m                  43.16:  TVDSS CORRECTN
 WHEW.m                  -5.41:  WELL HEAD E/W
 WHNS.m                  -0.12:  WELL HEAD N/S
 VSEW.m                  -5.41:  VERT SEC E/W
 VSNS.m                  -0.12:  VERT SEC N/S
 EKB .m                  43.16:  KB ELEVATION
 EDF .m                  43.16:  DF ELEVATION
 MAGU.                 1852276:  MAGUTM CHECKSUM
 VSC .                       0:  VS TO CLOSURE
~Parameter Information Block
#MNEM.UNIT       Value        Description
#---------     -----------    ---------------------------
 TCS .hr                125.29:  Time Ciculation Ended 
 DD1 .      Fakhraddin Guliyev:  Direct Drillr 1 
 DD2 .                   Sanan:  Direct Drillr 2 
 DEFF.%                   0.00:  % Det Eff 
 DRET.      04.26.40 27-Dec-19:  Drill End Time 
 DRST.      04.26.40 27-Dec-19:  Drill Start Tim 
 DTIM.hr                 80.10:  Time Drilling 
 EDEP.m                   0.00:  End Depth 
 ENG1.            Adlet Omarov:  Engineer 1 
 ENG2.         Almaz Almadatov:  Engineer 2 
 ETIM.      04.26.40 27-Dec-19:  End Time 
 HFLO.                      No:  High Flow 
 HPRE.                      No:  High Pressure 
 HTEM.                      No:  High Temp 
 HYDO.m                   1.85:  Hydro Offset 
 IMAX.deg                72.09:  Inc Max 
 IMIN.deg                59.07:  Inc Min 
 IMND.m                3901.43:  Inc Min Depth 
 IMXD.m                4753.85:  Inc Max Depth 
 LETM.      04.26.40 27-Dec-19:  Log End Time 
 LSTM.      04.26.40 27-Dec-19:  Log Start Time 
 OTIM.hr                187.88:  Time Operating 
 PMAX.psia            10202.94:  Press Op, Max 
 RUN .                     300:  Run Number 
 RRUN.                    0300:  Rig Run Number 
 SDEP.m                   0.00:  Start Depth 
 STIM.      04.26.40 27-Dec-19:  Start Time 
 SVER.                    9.20:  Sperry Version 
 MRT .                    HCIM:  Maximum Recorded Temperature 
 TTMX.degC               96.08:  Max Tool Temp 
~Curve Information Block
#MNEM.UNIT                 API CODE     Curve Description
#---------               -----------    ---------------------------
 TIME.HHMMSS            00 000 000 000:  GT Time & Date
 GTDEPTH.m              00 000 000 000:  GT Depth
 GTPQH.psia             00 000 000 000:  GT HR Quartz Pressure
 GTTQ.degC              00 000 000 000:  GT Quartz Temperature
 GTTN.NONE              00 000 000 000:  GT Test Number
 GTET.sec               00 000 000 000:  GT Elapsed Test Time
 GTTVD.m                00 000 000 000:  GT True Vertical Depth
#Other Information
#
#WARRANTY: Halliburton will use its best efforts to furnish customers with 
#accurate information and interpretations that are part of, and incident to, the services 
#provided.  However, Halliburton cannot and does not warrant the accuracy 
#or correctness of such information and interpretations.  Under no circumstances should any 
#such information or interpretation be relied upon as the sole basis for any drilling, 
#completion, production, or financial decision or any procedure involving any risk to the 
#safety of any drilling venture, drilling rig or its crew or any other third party.  The 
#Customer has full responsibility for all drilling, completion and production operation.  
#Halliburton makes no representations or warranties, either expressed or 
#implied, including, but not limited to, the implied warranties of merchantability or fitness 
#for a particular purpose, with respect to the services rendered.  In no event will 
#Halliburton be liable for failure to obtain any particular results or for 
#any damages, including, but not limited to, indirect, special or consequential damages, 
#resulting from the use of any information or interpretation provided by Halliburton.
#
~A           TIME           GTDEPTH  GTPQH  GTTQ  GTTN  GTET   GTTVD  
# ...
   11:10:14.187.02-Jan-2020 4790.04 5552.05 85.10 2.00 253.06 2777.18
   11:10:14.387.02-Jan-2020 4790.04 5552.05 85.10 2.00 253.26 2777.18
   11:10:14.587.02-Jan-2020 4790.04 5552.21 85.10 2.00 253.46 2777.18
   11:10:14.787.02-Jan-2020 4790.04 5551.93 85.10 2.00 253.66 2777.18
   11:10:14.987.02-Jan-2020 4790.04 5551.94 85.10 2.00 253.86 2777.18
   11:10:15.187.02-Jan-2020 4790.04 5549.97 85.10 2.00 254.06 2777.18
   11:10:15.388.02-Jan-2020 4790.04 5549.97 85.10 2.00 254.26 2777.18
   11:10:15.588.02-Jan-2020 4790.04 5551.67 85.10 2.00 254.46 2777.18
   11:10:15.788.02-Jan-2020 4790.04 5301.19 85.10 2.00 254.66 2777.18
   11:10:15.988.02-Jan-2020 4790.04 4535.71 85.10 2.00 254.86 2777.18
   11:10:16.188.02-Jan-2020 4790.04 4240.10 85.10 2.00 255.06 2777.18
   11:10:16.388.02-Jan-2020 4790.04 4240.10 85.10 2.00 255.26 2777.18
   11:10:16.588.02-Jan-2020 4790.04 3988.54 85.10 2.00 255.46 2777.18
   11:10:16.788.02-Jan-2020 4790.04 3959.37 85.10 2.00 255.66 2777.18
   11:10:16.988.02-Jan-2020 4790.04 3775.40 85.10 2.00 255.86 2777.18
   11:10:17.188.02-Jan-2020 4790.04 3749.45 85.10 2.00 256.06 2777.18
   11:10:17.388.02-Jan-2020 4790.04 3749.45 85.10 2.00 256.26 2777.18
   11:10:17.588.02-Jan-2020 4790.04 4178.11 85.10 2.00 256.46 2777.18
   11:10:17.788.02-Jan-2020 4790.04 3738.96 85.10 2.00 256.66 2777.18
   11:10:17.988.02-Jan-2020 4790.04 3461.48 85.10 2.00 256.86 2777.18
   11:10:18.188.02-Jan-2020 4790.04 3438.86 85.09 2.00 257.06 2777.18
   11:10:18.388.02-Jan-2020 4790.04 3438.86 85.09 2.00 257.26 2777.18
   11:10:18.588.02-Jan-2020 4790.04 3778.61 85.09 2.00 257.46 2777.18
   11:10:18.788.02-Jan-2020 4790.04 3516.51 85.09 2.00 257.66 2777.18
   11:10:18.988.02-Jan-2020 4790.04 3549.17 85.09 2.00 257.86 2777.18
   11:10:19.188.02-Jan-2020 4790.04 3594.31 85.09 2.00 258.06 2777.18
   11:10:19.388.02-Jan-2020 4790.04 3594.31 85.09 2.00 258.26 2777.18
   11:10:19.589.02-Jan-2020 4790.04 3694.07 85.08 2.00 258.46 2777.18
   11:10:19.789.02-Jan-2020 4790.04 3564.10 85.08 2.00 258.66 2777.18
   11:10:19.989.02-Jan-2020 4790.04 3464.03 85.08 2.00 258.86 2777.18
   11:10:20.189.02-Jan-2020 4790.04 3854.37 85.08 2.00 259.06 2777.18
   11:10:20.389.02-Jan-2020 4790.04 3854.37 85.08 2.00 259.26 2777.18
   11:10:20.589.02-Jan-2020 4790.04 3688.55 85.08 2.00 259.46 2777.18
   11:10:20.789.02-Jan-2020 4790.04 3997.85 85.08 2.00 259.66 2777.18
   11:10:20.989.02-Jan-2020 4790.04 3509.09 85.07 2.00 259.86 2777.18
   11:10:21.189.02-Jan-2020 4790.04 3688.87 85.07 2.00 260.06 2777.18
   11:10:21.389.02-Jan-2020 4790.04 3688.87 85.07 2.00 260.26 2777.18
   11:10:21.589.02-Jan-2020 4790.04 4050.55 85.07 2.00 260.46 2777.18
   11:10:21.789.02-Jan-2020 4790.04 3509.29 85.07 2.00 260.66 2777.18
   11:10:21.989.02-Jan-2020 4790.04 3187.12 85.07 2.00 260.86 2777.18
   11:10:22.189.02-Jan-2020 4790.04 3983.92 85.07 2.00 261.06 2777.18
   11:10:22.389.02-Jan-2020 4790.04 3983.92 85.07 2.00 261.26 2777.18
   11:10:22.589.02-Jan-2020 4790.04 3812.16 85.07 2.00 261.46 2777.18
   11:10:22.789.02-Jan-2020 4790.04 3477.64 85.07 2.00 261.66 2777.18
   11:10:22.989.02-Jan-2020 4790.04 4202.15 85.06 2.00 261.86 2777.18
   11:10:23.189.02-Jan-2020 4790.04 3696.32 85.06 2.00 262.06 2777.18
   11:10:23.389.02-Jan-2020 4790.04 3696.32 85.06 2.00 262.26 2777.18
   11:10:23.589.02-Jan-2020 4790.04 4254.64 85.06 2.00 262.46 2777.18
   11:10:23.790.02-Jan-2020 4790.04 3990.78 85.06 2.00 262.66 2777.18
   11:10:23.990.02-Jan-2020 4790.04 5561.14 85.06 2.00 262.86 2777.18
   11:10:24.190.02-Jan-2020 4790.04 5026.77 85.06 2.00 263.06 2777.18
   11:10:24.390.02-Jan-2020 4790.04 5026.77 85.06 2.00 263.26 2777.18
   11:10:24.590.02-Jan-2020 4790.04 4273.13 85.06 2.00 263.46 2777.18
   11:10:24.790.02-Jan-2020 4790.04 3846.13 85.06 2.00 263.66 2777.18
   11:10:24.990.02-Jan-2020 4790.04 3525.43 85.06 2.00 263.86 2777.18
   11:10:25.190.02-Jan-2020 4790.04 3344.97 85.06 2.00 264.06 2777.18
   11:10:25.390.02-Jan-2020 4790.04 3344.97 85.06 2.00 264.26 2777.18
   11:10:25.590.02-Jan-2020 4790.04 3441.56 85.06 2.00 264.46 2777.18
   11:10:25.790.02-Jan-2020 4790.04 3300.20 85.06 2.00 264.66 2777.18
   11:10:25.990.02-Jan-2020 4790.04 2962.32 85.06 2.00 264.86 2777.18
   11:10:26.190.02-Jan-2020 4790.04 2944.92 85.06 2.00 265.06 2777.18
   11:10:26.390.02-Jan-2020 4790.04 2944.92 85.06 2.00 265.26 2777.18
   11:10:26.590.02-Jan-2020 4790.04 3002.87 85.06 2.00 265.46 2777.18
   11:10:26.790.02-Jan-2020 4790.04 3106.12 85.06 2.00 265.66 2777.18
   11:10:26.990.02-Jan-2020 4790.04 3106.07 85.06 2.00 265.86 2777.18
   11:10:27.190.02-Jan-2020 4790.04 3105.73 85.06 2.00 266.06 2777.18
   11:10:27.390.02-Jan-2020 4790.04 3105.73 85.06 2.00 266.26 2777.18
   11:10:27.590.02-Jan-2020 4790.04 3107.65 85.05 2.00 266.46 2777.18
   11:10:27.790.02-Jan-2020 4790.04 3108.14 85.05 2.00 266.66 2777.18
   11:10:27.991.02-Jan-2020 4790.04 3108.57 85.05 2.00 266.86 2777.18
   11:10:28.191.02-Jan-2020 4790.04 3109.01 85.05 2.00 267.06 2777.18
   11:10:28.391.02-Jan-2020 4790.04 3109.01 85.05 2.00 267.26 2777.18
   11:10:28.591.02-Jan-2020 4790.04 3110.14 85.05 2.00 267.46 2777.18
   11:10:28.791.02-Jan-2020 4790.04 3110.35 85.05 2.00 267.66 2777.18
   11:10:28.991.02-Jan-2020 4790.04 3109.68 85.05 2.00 267.86 2777.18
   11:10:29.191.02-Jan-2020 4790.04 3111.10 85.05 2.00 268.06 2777.18
   11:10:29.391.02-Jan-2020 4790.04 3111.10 85.05 2.00 268.26 2777.18
   11:10:29.591.02-Jan-2020 4790.04 3112.17 85.05 2.00 268.46 2777.18
   11:10:29.791.02-Jan-2020 4790.04 3112.53 85.05 2.00 268.66 2777.18
   11:10:29.991.02-Jan-2020 4790.04 3112.87 85.04 2.00 268.86 2777.18
   11:10:30.191.02-Jan-2020 4790.04 3113.28 85.04 2.00 269.06 2777.18
   11:10:30.391.02-Jan-2020 4790.04 3113.28 85.04 2.00 269.26 2777.18
   11:10:30.591.02-Jan-2020 4790.04 3114.41 85.04 2.00 269.46 2777.18
   11:10:30.791.02-Jan-2020 4790.04 3114.62 85.04 2.00 269.66 2777.18
   11:10:30.991.02-Jan-2020 4790.04 3113.85 85.04 2.00 269.86 2777.18
   11:10:31.191.02-Jan-2020 4790.04 3115.36 85.04 2.00 270.06 2777.18
   11:10:31.391.02-Jan-2020 4790.04 3115.36 85.04 2.00 270.26 2777.18
   11:10:31.591.02-Jan-2020 4790.04 3116.31 85.04 2.00 270.46 2777.18
   11:10:31.791.02-Jan-2020 4790.04 3116.65 85.04 2.00 270.66 2777.18
   11:10:31.991.02-Jan-2020 4790.04 3116.97 85.04 2.00 270.86 2777.18
   11:10:32.191.02-Jan-2020 4790.04 3117.30 85.04 2.00 271.06 2777.18
   11:10:32.392.02-Jan-2020 4790.04 3117.30 85.04 2.00 271.26 2777.18
   11:10:32.592.02-Jan-2020 4790.04 3119.15 85.04 2.00 271.46 2777.18
   11:10:32.792.02-Jan-2020 4790.04 3117.99 85.04 2.00 271.66 2777.18
   11:10:32.992.02-Jan-2020 4790.04 3120.02 85.04 2.00 271.86 2777.18
   11:10:33.192.02-Jan-2020 4790.04 3120.19 85.04 2.00 272.06 2777.18
   11:10:33.392.02-Jan-2020 4790.04 3120.19 85.04 2.00 272.26 2777.18
   11:10:33.592.02-Jan-2020 4790.04 3120.91 85.04 2.00 272.46 2777.18
   11:10:33.792.02-Jan-2020 4790.04 3121.08 85.04 2.00 272.66 2777.18
   11:10:33.992.02-Jan-2020 4790.04 3121.47 85.04 2.00 272.86 2777.18
   11:10:34.192.02-Jan-2020 4790.04 3120.19 85.04 2.00 273.06 2777.18
   11:10:34.392.02-Jan-2020 4790.04 3120.19 85.04 2.00 273.26 2777.18
   11:10:34.592.02-Jan-2020 4790.04 3122.40 85.04 2.00 273.46 2777.18
   11:10:34.792.02-Jan-2020 4790.04 3122.78 85.04 2.00 273.66 2777.18
   11:10:34.992.02-Jan-2020 4790.04 3123.06 85.04 2.00 273.86 2777.18
   11:10:35.192.02-Jan-2020 4790.04 3122.93 85.04 2.00 274.06 2777.18
   11:10:35.392.02-Jan-2020 4790.04 3122.93 85.04 2.00 274.26 2777.18
   11:10:35.592.02-Jan-2020 4790.04 3122.68 85.03 2.00 274.46 2777.18
   11:10:35.792.02-Jan-2020 4790.04 3124.44 85.03 2.00 274.66 2777.18
   11:10:35.992.02-Jan-2020 4790.04 3142.03 85.03 2.00 274.86 2777.18
   11:10:36.192.02-Jan-2020 4790.04 3271.38 85.03 2.00 275.06 2777.18
   11:10:36.392.02-Jan-2020 4790.04 3271.38 85.03 2.00 275.26 2777.18
   11:10:36.593.02-Jan-2020 4790.04 3272.26 85.03 2.00 275.46 2777.18
   11:10:36.793.02-Jan-2020 4790.04 3272.18 85.03 2.00 275.66 2777.18
   11:10:36.993.02-Jan-2020 4790.04 3272.16 85.03 2.00 275.86 2777.18
