~Version Information
 VERS.                  2.0:   CWLS log ASCII Standard -VERSION 2.0
 WRAP.                   NO:   One line per depth step
~Well Information Block
#MNEM.UNIT     VALUE/NAME     DESCRIPTION
#---------     -----------    ---------------------------
 STRT.S             13:48:18 02-Jan-20: START TIME 13:48:18 02-Jan-20
 STOP.S             13:56:34 02-Jan-20: STOP TIME  13:56:34 02-Jan-20
 STEP.S                   0.00: STEP TIME
 NULL.                 -999.25: NULL VALUE
 MDS .        Operator Entered:  MAG DATA SOURCE
 UNIT.                     N/a:  LOGGING EQUIPMENT ID
 DCON.         Sperry Drilling:  DIRECTNL CONTR
 CNTY.                    Baku:  COUNTY NAME
 DOE .                     N/a:  DOE NUMBER
 RIG .                     DWG:  RIG NAME
 MWDS.                    Baku:  MWD SHOP
 REGN.                   EESSA:  REGION
 BASE.              Azerbaijan:  LOGGING EQUIPMENT BASE LOCATION
 UWI .                     N/a:  UNIQUE WELL IDENTIFIER
 API .                     N/a:  API NUMBER
 WTYP.                Deviated:  WELL TYPE
 COMP.     BP Exploration (Caspian Sea) Ltd.:  COMPANY
 SRVC.          TURAN DRILLING:  CONTRACTOR
 WELL.           E04 (Slot 23):  WELL NAME
 CTRY.              Azerbaijan:  COUNTRY NAME
 SON .        AZ-XX-0905715376:  JOB NUMBER
 FLD .                     ACG:  FIELD NAME
 PDAT.          Mean Sea Level:  PERMANENT DATUM
 FTOP.          Formation Tops:  FORM TOPS DESC
 ILTD.               Lithology:  INTERP LTH DESC
 SVYD.                  Survey:  SURVEY DESC
 DMOD.             Drill Model:  DRILL MOD DESC
 HPTY.       Minimum Curvature:  HOLE POS TYPE
 NREF.                    Grid:  NORTH REFERENCE
 SPUD.               21-Dec-19:  SPUD DATE
 DATE.      17.57.20 21-Dec-19:  END TIME
 STIM.      17.57.20 21-Dec-19:  START TIME
 DMF .             Drill Floor:  DRILL MEAS FROM
 DFST.                        :  DIST FSL TEXT
 DFWT.                        :  DIST FWL TEXT
 PROV.                        :  PROVINCE
 STAT.                        :  STATE
 LOC .                        :  LOCATION
 LMF .             Drill Floor:  LOG MEASURED FROM
 AGAP.m                  43.16:  AIR GAP
 DEP .m                3172.61:  DEPTH
 APD .m                  43.16:  DEPTH ABOVE PD
 WDMS.m                 176.20:  WD ELEV
 EGL .m                   0.00:  GROUND ELEVATION
 EPD .m                   0.00:  ELEVATION
 AZTC.deg                 6.49:  AZM TOTAL CORR
 GRDC.deg                 0.09:  GRID CORRECTION
 MDEC.deg                 6.58:  MAGNETIC DECL
 MDIP.deg                59.61:  MAGNETIC DIP
 MFLD.nT              50294.00:  MAGNETIC FIELD
 GVFD.g                   1.00:  GRAVITY FIELD
 VSDR.deg               235.12:  VERT SEC DIRECT
 TDD .m                   0.00:  TOTAL DEPTH (DRILLER)
 SDEP.m                   0.00:  START DEPTH
 UTMY.m             4448627.46:  UTM Y
 UTMX.m              514337.95:  UTM X
 LONG.deg                51.17:  LONGITUDE
 LATI.deg                40.17:  LATITUDE
 TVDS.m                  43.16:  TVDSS CORRECTN
 WHEW.m                  -5.41:  WELL HEAD E/W
 WHNS.m                  -0.12:  WELL HEAD N/S
 VSEW.m                  -5.41:  VERT SEC E/W
 VSNS.m                  -0.12:  VERT SEC N/S
 EKB .m                  43.16:  KB ELEVATION
 EDF .m                  43.16:  DF ELEVATION
 MAGU.                 1852276:  MAGUTM CHECKSUM
 VSC .                       0:  VS TO CLOSURE
~Parameter Information Block
#MNEM.UNIT       Value        Description
#---------     -----------    ---------------------------
 TCS .hr                125.29:  Time Ciculation Ended 
 DD1 .      Fakhraddin Guliyev:  Direct Drillr 1 
 DD2 .                   Sanan:  Direct Drillr 2 
 DEFF.%                   0.00:  % Det Eff 
 DRET.      04.26.40 27-Dec-19:  Drill End Time 
 DRST.      04.26.40 27-Dec-19:  Drill Start Tim 
 DTIM.hr                 80.10:  Time Drilling 
 EDEP.m                   0.00:  End Depth 
 ENG1.            Adlet Omarov:  Engineer 1 
 ENG2.         Almaz Almadatov:  Engineer 2 
 ETIM.      04.26.40 27-Dec-19:  End Time 
 HFLO.                      No:  High Flow 
 HPRE.                      No:  High Pressure 
 HTEM.                      No:  High Temp 
 HYDO.m                   1.85:  Hydro Offset 
 IMAX.deg                72.09:  Inc Max 
 IMIN.deg                59.07:  Inc Min 
 IMND.m                3901.43:  Inc Min Depth 
 IMXD.m                4753.85:  Inc Max Depth 
 LETM.      04.26.40 27-Dec-19:  Log End Time 
 LSTM.      04.26.40 27-Dec-19:  Log Start Time 
 OTIM.hr                187.88:  Time Operating 
 PMAX.psia            10202.94:  Press Op, Max 
 RUN .                     300:  Run Number 
 RRUN.                    0300:  Rig Run Number 
 SDEP.m                   0.00:  Start Depth 
 STIM.      04.26.40 27-Dec-19:  Start Time 
 SVER.                    9.20:  Sperry Version 
 MRT .                    HCIM:  Maximum Recorded Temperature 
 TTMX.degC               96.08:  Max Tool Temp 
~Curve Information Block
#MNEM.UNIT                 API CODE     Curve Description
#---------               -----------    ---------------------------
 TIME.HHMMSS            00 000 000 000:  GT Time & Date
 GTDEPTH.m              00 000 000 000:  GT Depth
 GTPQH.psia             00 000 000 000:  GT HR Quartz Pressure
 GTTQ.degC              00 000 000 000:  GT Quartz Temperature
 GTTN.NONE              00 000 000 000:  GT Test Number
 GTET.sec               00 000 000 000:  GT Elapsed Test Time
 GTTVD.m                00 000 000 000:  GT True Vertical Depth
#Other Information
#
#WARRANTY: Halliburton will use its best efforts to furnish customers with 
#accurate information and interpretations that are part of, and incident to, the services 
#provided.  However, Halliburton cannot and does not warrant the accuracy 
#or correctness of such information and interpretations.  Under no circumstances should any 
#such information or interpretation be relied upon as the sole basis for any drilling, 
#completion, production, or financial decision or any procedure involving any risk to the 
#safety of any drilling venture, drilling rig or its crew or any other third party.  The 
#Customer has full responsibility for all drilling, completion and production operation.  
#Halliburton makes no representations or warranties, either expressed or 
#implied, including, but not limited to, the implied warranties of merchantability or fitness 
#for a particular purpose, with respect to the services rendered.  In no event will 
#Halliburton be liable for failure to obtain any particular results or for 
#any damages, including, but not limited to, indirect, special or consequential damages, 
#resulting from the use of any information or interpretation provided by Halliburton.
#
~A           TIME           GTDEPTH  GTPQH  GTTQ  GTTN  GTET   GTTVD  
# ...
   13:55:12.259.02-Jan-2020 4773.81 4706.33 83.56 4.00 414.02 2772.13
   13:55:12.459.02-Jan-2020 4773.81 4706.33 83.56 4.00 414.22 2772.13
   13:55:12.659.02-Jan-2020 4773.81 4707.09 83.56 4.00 414.42 2772.13
   13:55:12.860.02-Jan-2020 4773.81 4706.39 83.56 4.00 414.62 2772.13
   13:55:13.060.02-Jan-2020 4773.81 4706.36 83.56 4.00 414.82 2772.13
   13:55:13.260.02-Jan-2020 4773.81 4706.33 83.56 4.00 415.02 2772.13
   13:55:13.460.02-Jan-2020 4773.81 4706.33 83.56 4.00 415.22 2772.13
   13:55:13.660.02-Jan-2020 4773.81 4706.78 83.56 4.00 415.42 2772.13
   13:55:13.860.02-Jan-2020 4773.81 4706.69 83.56 4.00 415.62 2772.13
   13:55:14.060.02-Jan-2020 4773.81 4706.30 83.56 4.00 415.82 2772.13
   13:55:14.260.02-Jan-2020 4773.81 4706.29 83.56 4.00 416.02 2772.13
   13:55:14.460.02-Jan-2020 4773.81 4706.29 83.56 4.00 416.22 2772.13
   13:55:14.660.02-Jan-2020 4773.81 4706.79 83.56 4.00 416.42 2772.13
   13:55:14.860.02-Jan-2020 4773.81 4706.37 83.56 4.00 416.62 2772.13
   13:55:15.060.02-Jan-2020 4773.81 4705.79 83.55 4.00 416.82 2772.13
   13:55:15.260.02-Jan-2020 4773.81 4707.04 83.56 4.00 417.02 2772.13
   13:55:15.460.02-Jan-2020 4773.81 4707.04 83.56 4.00 417.22 2772.13
   13:55:15.660.02-Jan-2020 4773.81 4705.40 83.55 4.00 417.42 2772.13
   13:55:15.860.02-Jan-2020 4773.81 4707.26 83.55 4.00 417.62 2772.13
   13:55:16.060.02-Jan-2020 4773.81 4706.41 83.55 4.00 417.82 2772.13
   13:55:16.260.02-Jan-2020 4773.81 4706.30 83.55 4.00 418.02 2772.13
   13:55:16.460.02-Jan-2020 4773.81 4706.30 83.55 4.00 418.22 2772.13
   13:55:16.660.02-Jan-2020 4773.81 4706.36 83.55 4.00 418.42 2772.13
   13:55:16.860.02-Jan-2020 4773.81 4706.36 83.55 4.00 418.62 2772.13
   13:55:17.060.02-Jan-2020 4773.81 4706.36 83.55 4.00 418.82 2772.13
   13:55:17.260.02-Jan-2020 4773.81 4706.34 83.55 4.00 419.02 2772.13
   13:55:17.460.02-Jan-2020 4773.81 4706.34 83.55 4.00 419.22 2772.13
   13:55:17.660.02-Jan-2020 4773.81 4706.82 83.55 4.00 419.42 2772.13
   13:55:17.860.02-Jan-2020 4773.81 4706.37 83.55 4.00 419.62 2772.13
   13:55:18.060.02-Jan-2020 4773.81 4706.37 83.55 4.00 419.82 2772.13
   13:55:18.260.02-Jan-2020 4773.81 4706.31 83.55 4.00 420.02 2772.13
   13:55:18.460.02-Jan-2020 4773.81 4706.31 83.55 4.00 420.22 2772.13
   13:55:18.660.02-Jan-2020 4773.81 4707.13 83.55 4.00 420.42 2772.13
   13:55:18.860.02-Jan-2020 4773.81 4706.37 83.55 4.00 420.62 2772.13
   13:55:19.060.02-Jan-2020 4773.81 4706.39 83.55 4.00 420.82 2772.13
   13:55:19.260.02-Jan-2020 4773.81 4706.34 83.55 4.00 421.02 2772.13
   13:55:19.460.02-Jan-2020 4773.81 4706.34 83.55 4.00 421.22 2772.13
   13:55:19.660.02-Jan-2020 4773.81 4707.34 83.55 4.00 421.42 2772.13
   13:55:19.860.02-Jan-2020 4773.81 4706.56 83.55 4.00 421.62 2772.13
   13:55:20.060.02-Jan-2020 4773.81 4706.38 83.55 4.00 421.82 2772.13
   13:55:20.260.02-Jan-2020 4773.81 4706.31 83.55 4.00 422.02 2772.13
   13:55:20.460.02-Jan-2020 4773.81 4706.31 83.55 4.00 422.22 2772.13
   13:55:20.660.02-Jan-2020 4773.81 4706.03 83.55 4.00 422.42 2772.13
   13:55:20.860.02-Jan-2020 4773.81 4706.80 83.55 4.00 422.62 2772.13
   13:55:21.060.02-Jan-2020 4773.81 4706.33 83.55 4.00 422.82 2772.13
   13:55:21.260.02-Jan-2020 4773.81 4706.33 83.55 4.00 423.02 2772.13
   13:55:21.460.02-Jan-2020 4773.81 4706.33 83.55 4.00 423.22 2772.13
   13:55:21.660.02-Jan-2020 4773.81 4707.09 83.55 4.00 423.42 2772.13
   13:55:21.860.02-Jan-2020 4773.81 4706.37 83.55 4.00 423.62 2772.13
   13:55:22.060.02-Jan-2020 4773.81 4705.39 83.55 4.00 423.82 2772.13
   13:55:22.260.02-Jan-2020 4773.81 4707.28 83.55 4.00 424.02 2772.13
   13:55:22.460.02-Jan-2020 4773.81 4707.28 83.55 4.00 424.22 2772.13
   13:55:22.660.02-Jan-2020 4773.81 4705.88 83.55 4.00 424.42 2772.13
   13:55:22.860.02-Jan-2020 4773.81 4706.66 83.55 4.00 424.62 2772.13
   13:55:23.060.02-Jan-2020 4773.81 4706.71 83.55 4.00 424.82 2772.13
   13:55:23.260.02-Jan-2020 4773.81 4706.31 83.55 4.00 425.02 2772.13
   13:55:23.460.02-Jan-2020 4773.81 4706.31 83.55 4.00 425.22 2772.13
   13:55:23.660.02-Jan-2020 4773.81 4706.35 83.55 4.00 425.42 2772.13
   13:55:23.860.02-Jan-2020 4773.81 4706.33 83.55 4.00 425.62 2772.13
   13:55:24.060.02-Jan-2020 4773.81 4706.34 83.55 4.00 425.82 2772.13
   13:55:24.260.02-Jan-2020 4773.81 4706.35 83.55 4.00 426.02 2772.13
   13:55:24.460.02-Jan-2020 4773.81 4706.35 83.55 4.00 426.22 2772.13
   13:55:24.660.02-Jan-2020 4773.81 4707.23 83.55 4.00 426.42 2772.13
   13:55:24.860.02-Jan-2020 4773.81 4706.44 83.55 4.00 426.62 2772.13
   13:55:25.060.02-Jan-2020 4773.81 4706.42 83.55 4.00 426.82 2772.13
   13:55:25.260.02-Jan-2020 4773.81 4706.34 83.55 4.00 427.02 2772.13
   13:55:25.460.02-Jan-2020 4773.81 4706.34 83.55 4.00 427.22 2772.13
   13:55:25.660.02-Jan-2020 4773.81 4707.39 83.55 4.00 427.42 2772.13
   13:55:25.860.02-Jan-2020 4773.81 4706.56 83.55 4.00 427.62 2772.13
   13:55:26.060.02-Jan-2020 4773.81 4706.41 83.55 4.00 427.82 2772.13
   13:55:26.260.02-Jan-2020 4773.81 4706.35 83.55 4.00 428.02 2772.13
   13:55:26.460.02-Jan-2020 4773.81 4706.35 83.55 4.00 428.22 2772.13
   13:55:26.660.02-Jan-2020 4773.81 4706.85 83.55 4.00 428.42 2772.13
   13:55:26.860.02-Jan-2020 4773.81 4706.84 83.55 4.00 428.62 2772.13
   13:55:27.060.02-Jan-2020 4773.81 4706.43 83.55 4.00 428.82 2772.13
   13:55:27.260.02-Jan-2020 4773.81 4706.36 83.55 4.00 429.02 2772.13
   13:55:27.460.02-Jan-2020 4773.81 4706.36 83.55 4.00 429.22 2772.13
   13:55:27.660.02-Jan-2020 4773.81 4705.65 83.55 4.00 429.42 2772.13
   13:55:27.860.02-Jan-2020 4773.81 4707.16 83.55 4.00 429.62 2772.13
   13:55:28.060.02-Jan-2020 4773.81 4706.35 83.55 4.00 429.82 2772.13
   13:55:28.260.02-Jan-2020 4773.81 4706.36 83.55 4.00 430.02 2772.13
   13:55:28.460.02-Jan-2020 4773.81 4706.36 83.55 4.00 430.22 2772.13
   13:55:28.660.02-Jan-2020 4773.81 4707.26 83.55 4.00 430.42 2772.13
   13:55:28.860.02-Jan-2020 4773.81 4706.57 83.55 4.00 430.62 2772.13
   13:55:29.060.02-Jan-2020 4773.81 4705.87 83.55 4.00 430.82 2772.13
   13:55:29.260.02-Jan-2020 4773.81 4706.48 83.55 4.00 431.02 2772.13
   13:55:29.460.02-Jan-2020 4773.81 4706.48 83.55 4.00 431.22 2772.13
   13:55:29.660.02-Jan-2020 4773.81 4706.37 83.55 4.00 431.42 2772.13
   13:55:29.860.02-Jan-2020 4773.81 4705.91 83.55 4.00 431.62 2772.13
   13:55:30.060.02-Jan-2020 4773.81 4706.81 83.55 4.00 431.82 2772.13
   13:55:30.260.02-Jan-2020 4773.81 4706.30 83.55 4.00 432.02 2772.13
   13:55:30.460.02-Jan-2020 4773.81 4706.30 83.55 4.00 432.22 2772.13
   13:55:30.660.02-Jan-2020 4773.81 4706.36 83.55 4.00 432.42 2772.13
   13:55:30.860.02-Jan-2020 4773.81 4706.33 83.55 4.00 432.62 2772.13
   13:55:31.060.02-Jan-2020 4773.81 4706.36 83.55 4.00 432.82 2772.13
   13:55:31.260.02-Jan-2020 4773.81 4706.37 83.55 4.00 433.02 2772.13
   13:55:31.460.02-Jan-2020 4773.81 4706.37 83.55 4.00 433.22 2772.13
   13:55:31.660.02-Jan-2020 4773.81 4707.41 83.55 4.00 433.42 2772.13
   13:55:31.860.02-Jan-2020 4773.81 4706.58 83.55 4.00 433.62 2772.13
   13:55:32.060.02-Jan-2020 4773.81 4706.40 83.55 4.00 433.82 2772.13
   13:55:32.260.02-Jan-2020 4773.81 4706.32 83.55 4.00 434.02 2772.13
   13:55:32.460.02-Jan-2020 4773.81 4706.32 83.55 4.00 434.22 2772.13
   13:55:32.660.02-Jan-2020 4773.81 4706.66 83.55 4.00 434.42 2772.13
   13:55:32.860.02-Jan-2020 4773.81 4706.79 83.55 4.00 434.62 2772.13
   13:55:33.060.02-Jan-2020 4773.81 4706.38 83.55 4.00 434.82 2772.13
   13:55:33.260.02-Jan-2020 4773.81 4706.33 83.55 4.00 435.02 2772.13
   13:55:33.461.02-Jan-2020 4773.81 4706.33 83.55 4.00 435.22 2772.13
   13:55:33.661.02-Jan-2020 4773.81 4705.95 83.55 4.00 435.42 2772.13
   13:55:33.861.02-Jan-2020 4773.81 4706.93 83.55 4.00 435.62 2772.13
   13:55:34.061.02-Jan-2020 4773.81 4706.45 83.55 4.00 435.82 2772.13
   13:55:34.261.02-Jan-2020 4773.81 4706.41 83.55 4.00 436.02 2772.13
   13:55:34.461.02-Jan-2020 4773.81 4706.41 83.55 4.00 436.22 2772.13
   13:55:34.661.02-Jan-2020 4773.81 4705.36 83.55 4.00 436.42 2772.13
   13:55:34.861.02-Jan-2020 4773.81 4707.41 83.55 4.00 436.62 2772.13
   13:55:35.061.02-Jan-2020 4773.81 4706.53 83.55 4.00 436.82 2772.13
