~Version Information
 VERS.                  2.0:   CWLS log ASCII Standard -VERSION 2.0
 WRAP.                   NO:   One line per depth step
~Well Information Block
#MNEM.UNIT     VALUE/NAME     DESCRIPTION
#---------     -----------    ---------------------------
 STRT.S             10:33:43 02-Jan-20: START TIME 10:33:43 02-Jan-20
 STOP.S             10:42:04 02-Jan-20: STOP TIME  10:42:04 02-Jan-20
 STEP.S                   0.00: STEP TIME
 NULL.                 -999.25: NULL VALUE
 MDS .        Operator Entered:  MAG DATA SOURCE
 UNIT.                     N/a:  LOGGING EQUIPMENT ID
 DCON.         Sperry Drilling:  DIRECTNL CONTR
 CNTY.                    Baku:  COUNTY NAME
 DOE .                     N/a:  DOE NUMBER
 RIG .                     DWG:  RIG NAME
 MWDS.                    Baku:  MWD SHOP
 REGN.                   EESSA:  REGION
 BASE.              Azerbaijan:  LOGGING EQUIPMENT BASE LOCATION
 UWI .                     N/a:  UNIQUE WELL IDENTIFIER
 API .                     N/a:  API NUMBER
 WTYP.                Deviated:  WELL TYPE
 COMP.     BP Exploration (Caspian Sea) Ltd.:  COMPANY
 SRVC.          TURAN DRILLING:  CONTRACTOR
 WELL.           E04 (Slot 23):  WELL NAME
 CTRY.              Azerbaijan:  COUNTRY NAME
 SON .        AZ-XX-0905715376:  JOB NUMBER
 FLD .                     ACG:  FIELD NAME
 PDAT.          Mean Sea Level:  PERMANENT DATUM
 FTOP.          Formation Tops:  FORM TOPS DESC
 ILTD.               Lithology:  INTERP LTH DESC
 SVYD.                  Survey:  SURVEY DESC
 DMOD.             Drill Model:  DRILL MOD DESC
 HPTY.       Minimum Curvature:  HOLE POS TYPE
 NREF.                    Grid:  NORTH REFERENCE
 SPUD.               21-Dec-19:  SPUD DATE
 DATE.      17.57.20 21-Dec-19:  END TIME
 STIM.      17.57.20 21-Dec-19:  START TIME
 DMF .             Drill Floor:  DRILL MEAS FROM
 DFST.                        :  DIST FSL TEXT
 DFWT.                        :  DIST FWL TEXT
 PROV.                        :  PROVINCE
 STAT.                        :  STATE
 LOC .                        :  LOCATION
 LMF .             Drill Floor:  LOG MEASURED FROM
 AGAP.m                  43.16:  AIR GAP
 DEP .m                3172.61:  DEPTH
 APD .m                  43.16:  DEPTH ABOVE PD
 WDMS.m                 176.20:  WD ELEV
 EGL .m                   0.00:  GROUND ELEVATION
 EPD .m                   0.00:  ELEVATION
 AZTC.deg                 6.49:  AZM TOTAL CORR
 GRDC.deg                 0.09:  GRID CORRECTION
 MDEC.deg                 6.58:  MAGNETIC DECL
 MDIP.deg                59.61:  MAGNETIC DIP
 MFLD.nT              50294.00:  MAGNETIC FIELD
 GVFD.g                   1.00:  GRAVITY FIELD
 VSDR.deg               235.12:  VERT SEC DIRECT
 TDD .m                   0.00:  TOTAL DEPTH (DRILLER)
 SDEP.m                   0.00:  START DEPTH
 UTMY.m             4448627.46:  UTM Y
 UTMX.m              514337.95:  UTM X
 LONG.deg                51.17:  LONGITUDE
 LATI.deg                40.17:  LATITUDE
 TVDS.m                  43.16:  TVDSS CORRECTN
 WHEW.m                  -5.41:  WELL HEAD E/W
 WHNS.m                  -0.12:  WELL HEAD N/S
 VSEW.m                  -5.41:  VERT SEC E/W
 VSNS.m                  -0.12:  VERT SEC N/S
 EKB .m                  43.16:  KB ELEVATION
 EDF .m                  43.16:  DF ELEVATION
 MAGU.                 1852276:  MAGUTM CHECKSUM
 VSC .                       0:  VS TO CLOSURE
~Parameter Information Block
#MNEM.UNIT       Value        Description
#---------     -----------    ---------------------------
 TCS .hr                125.29:  Time Ciculation Ended 
 DD1 .      Fakhraddin Guliyev:  Direct Drillr 1 
 DD2 .                   Sanan:  Direct Drillr 2 
 DEFF.%                   0.00:  % Det Eff 
 DRET.      04.26.40 27-Dec-19:  Drill End Time 
 DRST.      04.26.40 27-Dec-19:  Drill Start Tim 
 DTIM.hr                 80.10:  Time Drilling 
 EDEP.m                   0.00:  End Depth 
 ENG1.            Adlet Omarov:  Engineer 1 
 ENG2.         Almaz Almadatov:  Engineer 2 
 ETIM.      04.26.40 27-Dec-19:  End Time 
 HFLO.                      No:  High Flow 
 HPRE.                      No:  High Pressure 
 HTEM.                      No:  High Temp 
 HYDO.m                   1.85:  Hydro Offset 
 IMAX.deg                72.09:  Inc Max 
 IMIN.deg                59.07:  Inc Min 
 IMND.m                3901.43:  Inc Min Depth 
 IMXD.m                4753.85:  Inc Max Depth 
 LETM.      04.26.40 27-Dec-19:  Log End Time 
 LSTM.      04.26.40 27-Dec-19:  Log Start Time 
 OTIM.hr                187.88:  Time Operating 
 PMAX.psia            10202.94:  Press Op, Max 
 RUN .                     300:  Run Number 
 RRUN.                    0300:  Rig Run Number 
 SDEP.m                   0.00:  Start Depth 
 STIM.      04.26.40 27-Dec-19:  Start Time 
 SVER.                    9.20:  Sperry Version 
 MRT .                    HCIM:  Maximum Recorded Temperature 
 TTMX.degC               96.08:  Max Tool Temp 
~Curve Information Block
#MNEM.UNIT                 API CODE     Curve Description
#---------               -----------    ---------------------------
 TIME.HHMMSS            00 000 000 000:  GT Time & Date
 GTDEPTH.m              00 000 000 000:  GT Depth
 GTPQH.psia             00 000 000 000:  GT HR Quartz Pressure
 GTTQ.degC              00 000 000 000:  GT Quartz Temperature
 GTTN.NONE              00 000 000 000:  GT Test Number
 GTET.sec               00 000 000 000:  GT Elapsed Test Time
 GTTVD.m                00 000 000 000:  GT True Vertical Depth
#Other Information
#
#WARRANTY: Halliburton will use its best efforts to furnish customers with 
#accurate information and interpretations that are part of, and incident to, the services 
#provided.  However, Halliburton cannot and does not warrant the accuracy 
#or correctness of such information and interpretations.  Under no circumstances should any 
#such information or interpretation be relied upon as the sole basis for any drilling, 
#completion, production, or financial decision or any procedure involving any risk to the 
#safety of any drilling venture, drilling rig or its crew or any other third party.  The 
#Customer has full responsibility for all drilling, completion and production operation.  
#Halliburton makes no representations or warranties, either expressed or 
#implied, including, but not limited to, the implied warranties of merchantability or fitness 
#for a particular purpose, with respect to the services rendered.  In no event will 
#Halliburton be liable for failure to obtain any particular results or for 
#any damages, including, but not limited to, indirect, special or consequential damages, 
#resulting from the use of any information or interpretation provided by Halliburton.
#
~A           TIME           GTDEPTH  GTPQH  GTTQ  GTTN  GTET   GTTVD  
# ...
   10:37:56.732.02-Jan-2020 4788.22 6141.85 85.63 1.00 253.06 2776.61
   10:37:56.932.02-Jan-2020 4788.22 6141.85 85.63 1.00 253.26 2776.61
   10:37:57.132.02-Jan-2020 4788.22 6144.77 85.63 1.00 253.46 2776.61
   10:37:57.332.02-Jan-2020 4788.22 6141.95 85.63 1.00 253.66 2776.61
   10:37:57.532.02-Jan-2020 4788.22 6146.90 85.63 1.00 253.86 2776.61
   10:37:57.732.02-Jan-2020 4788.22 6147.75 85.63 1.00 254.06 2776.61
   10:37:57.932.02-Jan-2020 4788.22 6147.75 85.63 1.00 254.26 2776.61
   10:37:58.132.02-Jan-2020 4788.22 6141.30 85.63 1.00 254.46 2776.61
   10:37:58.332.02-Jan-2020 4788.22 6150.69 85.63 1.00 254.66 2776.61
   10:37:58.532.02-Jan-2020 4788.22 6143.39 85.63 1.00 254.86 2776.61
   10:37:58.732.02-Jan-2020 4788.22 6141.72 85.63 1.00 255.06 2776.61
   10:37:58.932.02-Jan-2020 4788.22 6141.72 85.63 1.00 255.26 2776.61
   10:37:59.132.02-Jan-2020 4788.22 6142.29 85.63 1.00 255.46 2776.61
   10:37:59.332.02-Jan-2020 4788.22 6140.45 85.63 1.00 255.66 2776.61
   10:37:59.533.02-Jan-2020 4788.22 6140.19 85.63 1.00 255.86 2776.61
   10:37:59.733.02-Jan-2020 4788.22 6141.09 85.63 1.00 256.06 2776.61
   10:37:59.933.02-Jan-2020 4788.22 6141.09 85.63 1.00 256.26 2776.61
   10:38:00.133.02-Jan-2020 4788.22 6147.08 85.63 1.00 256.46 2776.61
   10:38:00.333.02-Jan-2020 4788.22 6143.68 85.63 1.00 256.66 2776.61
   10:38:00.533.02-Jan-2020 4788.22 6141.76 85.63 1.00 256.86 2776.61
   10:38:00.733.02-Jan-2020 4788.22 6142.04 85.63 1.00 257.06 2776.61
   10:38:00.933.02-Jan-2020 4788.22 6142.04 85.63 1.00 257.26 2776.61
   10:38:01.133.02-Jan-2020 4788.22 6141.62 85.63 1.00 257.46 2776.61
   10:38:01.333.02-Jan-2020 4788.22 6148.90 85.63 1.00 257.66 2776.61
   10:38:01.533.02-Jan-2020 4788.22 6147.08 85.63 1.00 257.86 2776.61
   10:38:01.733.02-Jan-2020 4788.22 6142.73 85.63 1.00 258.06 2776.61
   10:38:01.933.02-Jan-2020 4788.22 6142.73 85.63 1.00 258.26 2776.61
   10:38:02.133.02-Jan-2020 4788.22 6142.36 85.63 1.00 258.46 2776.61
   10:38:02.333.02-Jan-2020 4788.22 6142.71 85.63 1.00 258.66 2776.61
   10:38:02.533.02-Jan-2020 4788.22 6143.20 85.63 1.00 258.86 2776.61
   10:38:02.733.02-Jan-2020 4788.22 6149.82 85.63 1.00 259.06 2776.61
   10:38:02.933.02-Jan-2020 4788.22 6149.82 85.63 1.00 259.26 2776.61
   10:38:03.133.02-Jan-2020 4788.22 6141.18 85.63 1.00 259.46 2776.61
   10:38:03.333.02-Jan-2020 4788.22 6141.24 85.63 1.00 259.66 2776.61
   10:38:03.533.02-Jan-2020 4788.22 6140.65 85.63 1.00 259.86 2776.61
   10:38:03.734.02-Jan-2020 4788.22 6140.51 85.63 1.00 260.06 2776.61
   10:38:03.934.02-Jan-2020 4788.22 6140.51 85.63 1.00 260.26 2776.61
   10:38:04.134.02-Jan-2020 4788.22 6149.58 85.63 1.00 260.46 2776.61
   10:38:04.334.02-Jan-2020 4788.22 6146.95 85.63 1.00 260.66 2776.61
   10:38:04.534.02-Jan-2020 4788.22 6141.83 85.63 1.00 260.86 2776.61
   10:38:04.734.02-Jan-2020 4788.22 6145.69 85.62 1.00 261.06 2776.61
   10:38:04.934.02-Jan-2020 4788.22 6145.69 85.62 1.00 261.26 2776.61
   10:38:05.134.02-Jan-2020 4788.22 6143.18 85.62 1.00 261.46 2776.61
   10:38:05.334.02-Jan-2020 4788.22 6142.17 85.62 1.00 261.66 2776.61
   10:38:05.534.02-Jan-2020 4788.22 6143.16 85.62 1.00 261.86 2776.61
   10:38:05.734.02-Jan-2020 4788.22 6150.81 85.62 1.00 262.06 2776.61
   10:38:05.934.02-Jan-2020 4788.22 6150.81 85.62 1.00 262.26 2776.61
   10:38:06.134.02-Jan-2020 4788.22 6141.87 85.62 1.00 262.46 2776.61
   10:38:06.334.02-Jan-2020 4788.22 6142.35 85.62 1.00 262.66 2776.61
   10:38:06.534.02-Jan-2020 4788.22 6148.89 85.62 1.00 262.86 2776.61
   10:38:06.734.02-Jan-2020 4788.22 6146.27 85.62 1.00 263.06 2776.61
   10:38:06.934.02-Jan-2020 4788.22 6146.27 85.62 1.00 263.26 2776.61
   10:38:07.134.02-Jan-2020 4788.22 6143.54 85.62 1.00 263.46 2776.61
   10:38:07.334.02-Jan-2020 4788.22 6141.58 85.62 1.00 263.66 2776.61
   10:38:07.534.02-Jan-2020 4788.22 6140.34 85.62 1.00 263.86 2776.61
   10:38:07.734.02-Jan-2020 4788.22 6140.80 85.62 1.00 264.06 2776.61
   10:38:07.935.02-Jan-2020 4788.22 6140.80 85.62 1.00 264.26 2776.61
   10:38:08.135.02-Jan-2020 4788.22 6151.40 85.62 1.00 264.46 2776.61
   10:38:08.335.02-Jan-2020 4788.22 6144.47 85.62 1.00 264.66 2776.61
   10:38:08.535.02-Jan-2020 4788.22 6141.80 85.62 1.00 264.86 2776.61
   10:38:08.735.02-Jan-2020 4788.22 6142.25 85.62 1.00 265.06 2776.61
   10:38:08.935.02-Jan-2020 4788.22 6142.25 85.62 1.00 265.26 2776.61
   10:38:09.135.02-Jan-2020 4788.22 6141.36 85.62 1.00 265.46 2776.61
   10:38:09.335.02-Jan-2020 4788.22 6145.83 85.62 1.00 265.66 2776.61
   10:38:09.535.02-Jan-2020 4788.22 6148.13 85.62 1.00 265.86 2776.61
   10:38:09.735.02-Jan-2020 4788.22 6144.79 85.62 1.00 266.06 2776.61
   10:38:09.935.02-Jan-2020 4788.22 6144.79 85.62 1.00 266.26 2776.61
   10:38:10.135.02-Jan-2020 4788.22 6142.92 85.62 1.00 266.46 2776.61
   10:38:10.335.02-Jan-2020 4788.22 6142.60 85.62 1.00 266.66 2776.61
   10:38:10.535.02-Jan-2020 4788.22 6143.30 85.62 1.00 266.86 2776.61
   10:38:10.735.02-Jan-2020 4788.22 6147.53 85.62 1.00 267.06 2776.61
   10:38:10.935.02-Jan-2020 4788.22 6147.53 85.62 1.00 267.26 2776.61
   10:38:11.135.02-Jan-2020 4788.22 6143.95 85.62 1.00 267.46 2776.61
   10:38:11.335.02-Jan-2020 4788.22 6141.43 85.62 1.00 267.66 2776.61
   10:38:11.535.02-Jan-2020 4788.22 6141.80 85.62 1.00 267.86 2776.61
   10:38:11.735.02-Jan-2020 4788.22 6140.94 85.62 1.00 268.06 2776.61
   10:38:11.935.02-Jan-2020 4788.22 6140.94 85.62 1.00 268.26 2776.61
   10:38:12.136.02-Jan-2020 4788.22 6146.42 85.62 1.00 268.46 2776.61
   10:38:12.336.02-Jan-2020 4788.22 6149.48 85.62 1.00 268.66 2776.61
   10:38:12.536.02-Jan-2020 4788.22 6144.88 85.62 1.00 268.86 2776.61
   10:38:12.736.02-Jan-2020 4788.22 6141.83 85.62 1.00 269.06 2776.61
   10:38:12.936.02-Jan-2020 4788.22 6141.83 85.62 1.00 269.26 2776.61
   10:38:13.136.02-Jan-2020 4788.22 6143.86 85.62 1.00 269.46 2776.61
   10:38:13.336.02-Jan-2020 4788.22 6141.59 85.62 1.00 269.66 2776.61
   10:38:13.536.02-Jan-2020 4788.22 6142.65 85.62 1.00 269.86 2776.61
   10:38:13.736.02-Jan-2020 4788.22 6143.07 85.62 1.00 270.06 2776.61
   10:38:13.936.02-Jan-2020 4788.22 6143.07 85.62 1.00 270.26 2776.61
   10:38:14.136.02-Jan-2020 4788.22 6144.35 85.62 1.00 270.46 2776.61
   10:38:14.336.02-Jan-2020 4788.22 6142.72 85.62 1.00 270.66 2776.61
   10:38:14.536.02-Jan-2020 4788.22 6146.53 85.62 1.00 270.86 2776.61
   10:38:14.736.02-Jan-2020 4788.22 6147.25 85.62 1.00 271.06 2776.61
   10:38:14.936.02-Jan-2020 4788.22 6147.25 85.62 1.00 271.26 2776.61
   10:38:15.136.02-Jan-2020 4788.22 6142.29 85.62 1.00 271.46 2776.61
   10:38:15.336.02-Jan-2020 4788.22 6142.59 85.62 1.00 271.66 2776.61
   10:38:15.536.02-Jan-2020 4788.22 6140.32 85.62 1.00 271.86 2776.61
   10:38:15.736.02-Jan-2020 4788.22 6140.02 85.62 1.00 272.06 2776.61
   10:38:15.936.02-Jan-2020 4788.22 6140.02 85.62 1.00 272.26 2776.61
   10:38:16.136.02-Jan-2020 4788.22 6142.36 85.62 1.00 272.46 2776.61
   10:38:16.336.02-Jan-2020 4788.22 6150.85 85.62 1.00 272.66 2776.61
   10:38:16.537.02-Jan-2020 4788.22 6144.84 85.62 1.00 272.86 2776.61
   10:38:16.737.02-Jan-2020 4788.22 6142.90 85.62 1.00 273.06 2776.61
   10:38:16.937.02-Jan-2020 4788.22 6142.90 85.62 1.00 273.26 2776.61
   10:38:17.137.02-Jan-2020 4788.22 6142.57 85.62 1.00 273.46 2776.61
   10:38:17.337.02-Jan-2020 4788.22 6142.11 85.62 1.00 273.66 2776.61
   10:38:17.537.02-Jan-2020 4788.22 6142.74 85.62 1.00 273.86 2776.61
   10:38:17.737.02-Jan-2020 4788.22 6150.21 85.62 1.00 274.06 2776.61
   10:38:17.937.02-Jan-2020 4788.22 6150.21 85.62 1.00 274.26 2776.61
   10:38:18.137.02-Jan-2020 4788.22 6143.86 85.62 1.00 274.46 2776.61
   10:38:18.337.02-Jan-2020 4788.22 6152.14 85.62 1.00 274.66 2776.61
   10:38:18.537.02-Jan-2020 4788.22 6146.02 85.62 1.00 274.86 2776.61
   10:38:18.737.02-Jan-2020 4788.22 6143.71 85.62 1.00 275.06 2776.61
   10:38:18.937.02-Jan-2020 4788.22 6143.71 85.62 1.00 275.26 2776.61
   10:38:19.137.02-Jan-2020 4788.22 6145.23 85.62 1.00 275.46 2776.61
   10:38:19.337.02-Jan-2020 4788.22 6141.39 85.62 1.00 275.66 2776.61
   10:38:19.537.02-Jan-2020 4788.22 6141.53 85.62 1.00 275.86 2776.61
