~Version Information
 VERS.                  2.0:   CWLS log ASCII Standard -VERSION 2.0
 WRAP.                   NO:   One line per depth step
~Well Information Block
#MNEM.UNIT     VALUE/NAME     DESCRIPTION
#---------     -----------    ---------------------------
 STRT.S             11:06:01 02-Jan-20: START TIME 11:06:01 02-Jan-20
 STOP.S             11:13:00 02-Jan-20: STOP TIME  11:13:00 02-Jan-20
 STEP.S                   0.00: STEP TIME
 NULL.                 -999.25: NULL VALUE
 MDS .        Operator Entered:  MAG DATA SOURCE
 UNIT.                     N/a:  LOGGING EQUIPMENT ID
 DCON.         Sperry Drilling:  DIRECTNL CONTR
 CNTY.                    Baku:  COUNTY NAME
 DOE .                     N/a:  DOE NUMBER
 RIG .                     DWG:  RIG NAME
 MWDS.                    Baku:  MWD SHOP
 REGN.                   EESSA:  REGION
 BASE.              Azerbaijan:  LOGGING EQUIPMENT BASE LOCATION
 UWI .                     N/a:  UNIQUE WELL IDENTIFIER
 API .                     N/a:  API NUMBER
 WTYP.                Deviated:  WELL TYPE
 COMP.     BP Exploration (Caspian Sea) Ltd.:  COMPANY
 SRVC.          TURAN DRILLING:  CONTRACTOR
 WELL.           E04 (Slot 23):  WELL NAME
 CTRY.              Azerbaijan:  COUNTRY NAME
 SON .        AZ-XX-0905715376:  JOB NUMBER
 FLD .                     ACG:  FIELD NAME
 PDAT.          Mean Sea Level:  PERMANENT DATUM
 FTOP.          Formation Tops:  FORM TOPS DESC
 ILTD.               Lithology:  INTERP LTH DESC
 SVYD.                  Survey:  SURVEY DESC
 DMOD.             Drill Model:  DRILL MOD DESC
 HPTY.       Minimum Curvature:  HOLE POS TYPE
 NREF.                    Grid:  NORTH REFERENCE
 SPUD.               21-Dec-19:  SPUD DATE
 DATE.      17.57.20 21-Dec-19:  END TIME
 STIM.      17.57.20 21-Dec-19:  START TIME
 DMF .             Drill Floor:  DRILL MEAS FROM
 DFST.                        :  DIST FSL TEXT
 DFWT.                        :  DIST FWL TEXT
 PROV.                        :  PROVINCE
 STAT.                        :  STATE
 LOC .                        :  LOCATION
 LMF .             Drill Floor:  LOG MEASURED FROM
 AGAP.m                  43.16:  AIR GAP
 DEP .m                3172.61:  DEPTH
 APD .m                  43.16:  DEPTH ABOVE PD
 WDMS.m                 176.20:  WD ELEV
 EGL .m                   0.00:  GROUND ELEVATION
 EPD .m                   0.00:  ELEVATION
 AZTC.deg                 6.49:  AZM TOTAL CORR
 GRDC.deg                 0.09:  GRID CORRECTION
 MDEC.deg                 6.58:  MAGNETIC DECL
 MDIP.deg                59.61:  MAGNETIC DIP
 MFLD.nT              50294.00:  MAGNETIC FIELD
 GVFD.g                   1.00:  GRAVITY FIELD
 VSDR.deg               235.12:  VERT SEC DIRECT
 TDD .m                   0.00:  TOTAL DEPTH (DRILLER)
 SDEP.m                   0.00:  START DEPTH
 UTMY.m             4448627.46:  UTM Y
 UTMX.m              514337.95:  UTM X
 LONG.deg                51.17:  LONGITUDE
 LATI.deg                40.17:  LATITUDE
 TVDS.m                  43.16:  TVDSS CORRECTN
 WHEW.m                  -5.41:  WELL HEAD E/W
 WHNS.m                  -0.12:  WELL HEAD N/S
 VSEW.m                  -5.41:  VERT SEC E/W
 VSNS.m                  -0.12:  VERT SEC N/S
 EKB .m                  43.16:  KB ELEVATION
 EDF .m                  43.16:  DF ELEVATION
 MAGU.                 1852276:  MAGUTM CHECKSUM
 VSC .                       0:  VS TO CLOSURE
~Parameter Information Block
#MNEM.UNIT       Value        Description
#---------     -----------    ---------------------------
 TCS .hr                125.29:  Time Ciculation Ended 
 DD1 .      Fakhraddin Guliyev:  Direct Drillr 1 
 DD2 .                   Sanan:  Direct Drillr 2 
 DEFF.%                   0.00:  % Det Eff 
 DRET.      04.26.40 27-Dec-19:  Drill End Time 
 DRST.      04.26.40 27-Dec-19:  Drill Start Tim 
 DTIM.hr                 80.10:  Time Drilling 
 EDEP.m                   0.00:  End Depth 
 ENG1.            Adlet Omarov:  Engineer 1 
 ENG2.         Almaz Almadatov:  Engineer 2 
 ETIM.      04.26.40 27-Dec-19:  End Time 
 HFLO.                      No:  High Flow 
 HPRE.                      No:  High Pressure 
 HTEM.                      No:  High Temp 
 HYDO.m                   1.85:  Hydro Offset 
 IMAX.deg                72.09:  Inc Max 
 IMIN.deg                59.07:  Inc Min 
 IMND.m                3901.43:  Inc Min Depth 
 IMXD.m                4753.85:  Inc Max Depth 
 LETM.      04.26.40 27-Dec-19:  Log End Time 
 LSTM.      04.26.40 27-Dec-19:  Log Start Time 
 OTIM.hr                187.88:  Time Operating 
 PMAX.psia            10202.94:  Press Op, Max 
 RUN .                     300:  Run Number 
 RRUN.                    0300:  Rig Run Number 
 SDEP.m                   0.00:  Start Depth 
 STIM.      04.26.40 27-Dec-19:  Start Time 
 SVER.                    9.20:  Sperry Version 
 MRT .                    HCIM:  Maximum Recorded Temperature 
 TTMX.degC               96.08:  Max Tool Temp 
~Curve Information Block
#MNEM.UNIT                 API CODE     Curve Description
#---------               -----------    ---------------------------
 TIME.HHMMSS            00 000 000 000:  GT Time & Date
 GTDEPTH.m              00 000 000 000:  GT Depth
 GTPQH.psia             00 000 000 000:  GT HR Quartz Pressure
 GTTQ.degC              00 000 000 000:  GT Quartz Temperature
 GTTN.NONE              00 000 000 000:  GT Test Number
 GTET.sec               00 000 000 000:  GT Elapsed Test Time
 GTTVD.m                00 000 000 000:  GT True Vertical Depth
#Other Information
#
#WARRANTY: Halliburton will use its best efforts to furnish customers with 
#accurate information and interpretations that are part of, and incident to, the services 
#provided.  However, Halliburton cannot and does not warrant the accuracy 
#or correctness of such information and interpretations.  Under no circumstances should any 
#such information or interpretation be relied upon as the sole basis for any drilling, 
#completion, production, or financial decision or any procedure involving any risk to the 
#safety of any drilling venture, drilling rig or its crew or any other third party.  The 
#Customer has full responsibility for all drilling, completion and production operation.  
#Halliburton makes no representations or warranties, either expressed or 
#implied, including, but not limited to, the implied warranties of merchantability or fitness 
#for a particular purpose, with respect to the services rendered.  In no event will 
#Halliburton be liable for failure to obtain any particular results or for 
#any damages, including, but not limited to, indirect, special or consequential damages, 
#resulting from the use of any information or interpretation provided by Halliburton.
#
~A           TIME           GTDEPTH  GTPQH  GTTQ  GTTN  GTET   GTTVD  
# ...
   11:07:56.155.02-Jan-2020 4790.04 5192.46 85.15 2.00 115.03 2777.18
   11:07:56.355.02-Jan-2020 4790.04 5192.46 85.15 2.00 115.23 2777.18
   11:07:56.555.02-Jan-2020 4790.04 5190.82 85.15 2.00 115.43 2777.18
   11:07:56.755.02-Jan-2020 4790.04 5192.29 85.15 2.00 115.63 2777.18
   11:07:56.955.02-Jan-2020 4790.04 5192.71 85.15 2.00 115.83 2777.18
   11:07:57.155.02-Jan-2020 4790.04 5192.92 85.15 2.00 116.03 2777.18
   11:07:57.355.02-Jan-2020 4790.04 5192.92 85.15 2.00 116.23 2777.18
   11:07:57.555.02-Jan-2020 4790.04 5192.32 85.15 2.00 116.43 2777.18
   11:07:57.755.02-Jan-2020 4790.04 5191.29 85.15 2.00 116.63 2777.18
   11:07:57.955.02-Jan-2020 4790.04 5193.24 85.15 2.00 116.83 2777.18
   11:07:58.155.02-Jan-2020 4790.04 5193.12 85.15 2.00 117.03 2777.18
   11:07:58.355.02-Jan-2020 4790.04 5193.12 85.15 2.00 117.23 2777.18
   11:07:58.555.02-Jan-2020 4790.04 5193.04 85.15 2.00 117.43 2777.18
   11:07:58.755.02-Jan-2020 4790.04 5190.83 85.15 2.00 117.63 2777.18
   11:07:58.955.02-Jan-2020 4790.04 5193.28 85.15 2.00 117.83 2777.18
   11:07:59.156.02-Jan-2020 4790.04 5193.20 85.15 2.00 118.03 2777.18
   11:07:59.356.02-Jan-2020 4790.04 5193.20 85.15 2.00 118.23 2777.18
   11:07:59.556.02-Jan-2020 4790.04 5191.41 85.15 2.00 118.43 2777.18
   11:07:59.756.02-Jan-2020 4790.04 5193.36 85.15 2.00 118.63 2777.18
   11:07:59.956.02-Jan-2020 4790.04 5193.27 85.15 2.00 118.83 2777.18
   11:08:00.156.02-Jan-2020 4790.04 5193.30 85.15 2.00 119.03 2777.18
   11:08:00.356.02-Jan-2020 4790.04 5193.30 85.15 2.00 119.23 2777.18
   11:08:00.556.02-Jan-2020 4790.04 5192.90 85.15 2.00 119.43 2777.18
   11:08:00.756.02-Jan-2020 4790.04 5193.35 85.15 2.00 119.63 2777.18
   11:08:00.956.02-Jan-2020 4790.04 5192.95 85.15 2.00 119.83 2777.18
   11:08:01.156.02-Jan-2020 4790.04 5191.67 85.15 2.00 120.03 2777.18
   11:08:01.356.02-Jan-2020 4790.04 5191.67 85.15 2.00 120.23 2777.18
   11:08:01.556.02-Jan-2020 4790.04 5193.54 85.15 2.00 120.43 2777.18
   11:08:01.756.02-Jan-2020 4790.04 5193.64 85.15 2.00 120.63 2777.18
   11:08:01.956.02-Jan-2020 4790.04 5193.63 85.15 2.00 120.83 2777.18
   11:08:02.156.02-Jan-2020 4790.04 5193.65 85.15 2.00 121.03 2777.18
   11:08:02.356.02-Jan-2020 4790.04 5193.65 85.15 2.00 121.23 2777.18
   11:08:02.556.02-Jan-2020 4790.04 5193.74 85.15 2.00 121.43 2777.18
   11:08:02.756.02-Jan-2020 4790.04 5191.62 85.15 2.00 121.63 2777.18
   11:08:02.956.02-Jan-2020 4790.04 5194.13 85.15 2.00 121.83 2777.18
   11:08:03.156.02-Jan-2020 4790.04 5193.99 85.15 2.00 122.03 2777.18
   11:08:03.357.02-Jan-2020 4790.04 5193.99 85.15 2.00 122.23 2777.18
   11:08:03.557.02-Jan-2020 4790.04 5194.14 85.15 2.00 122.43 2777.18
   11:08:03.757.02-Jan-2020 4790.04 5194.11 85.15 2.00 122.63 2777.18
   11:08:03.957.02-Jan-2020 4790.04 5192.33 85.15 2.00 122.83 2777.18
   11:08:04.157.02-Jan-2020 4790.04 5193.82 85.15 2.00 123.03 2777.18
   11:08:04.357.02-Jan-2020 4790.04 5193.82 85.15 2.00 123.23 2777.18
   11:08:04.557.02-Jan-2020 4790.04 5194.32 85.15 2.00 123.43 2777.18
   11:08:04.757.02-Jan-2020 4790.04 5194.21 85.15 2.00 123.63 2777.18
   11:08:04.957.02-Jan-2020 4790.04 5193.67 85.15 2.00 123.83 2777.18
   11:08:05.157.02-Jan-2020 4790.04 5192.67 85.15 2.00 124.03 2777.18
   11:08:05.357.02-Jan-2020 4790.04 5192.67 85.15 2.00 124.23 2777.18
   11:08:05.557.02-Jan-2020 4790.04 5194.47 85.15 2.00 124.43 2777.18
   11:08:05.757.02-Jan-2020 4790.04 5194.58 85.15 2.00 124.63 2777.18
   11:08:05.957.02-Jan-2020 4790.04 5194.57 85.15 2.00 124.83 2777.18
   11:08:06.157.02-Jan-2020 4790.04 5192.34 85.15 2.00 125.03 2777.18
   11:08:06.357.02-Jan-2020 4790.04 5192.34 85.15 2.00 125.23 2777.18
   11:08:06.557.02-Jan-2020 4790.04 5194.67 85.15 2.00 125.43 2777.18
   11:08:06.757.02-Jan-2020 4790.04 5194.27 85.15 2.00 125.63 2777.18
   11:08:06.957.02-Jan-2020 4790.04 5193.03 85.15 2.00 125.83 2777.18
   11:08:07.157.02-Jan-2020 4790.04 5194.92 85.15 2.00 126.03 2777.18
   11:08:07.357.02-Jan-2020 4790.04 5194.92 85.15 2.00 126.23 2777.18
   11:08:07.557.02-Jan-2020 4790.04 5194.86 85.15 2.00 126.43 2777.18
   11:08:07.758.02-Jan-2020 4790.04 5193.03 85.15 2.00 126.63 2777.18
   11:08:07.958.02-Jan-2020 4790.04 5194.55 85.15 2.00 126.83 2777.18
   11:08:08.158.02-Jan-2020 4790.04 5195.02 85.15 2.00 127.03 2777.18
   11:08:08.358.02-Jan-2020 4790.04 5195.02 85.15 2.00 127.23 2777.18
   11:08:08.558.02-Jan-2020 4790.04 5192.75 85.15 2.00 127.43 2777.18
   11:08:08.758.02-Jan-2020 4790.04 5195.09 85.15 2.00 127.63 2777.18
   11:08:08.958.02-Jan-2020 4790.04 5195.06 85.14 2.00 127.83 2777.18
   11:08:09.158.02-Jan-2020 4790.04 5195.26 85.14 2.00 128.03 2777.18
   11:08:09.358.02-Jan-2020 4790.04 5195.26 85.14 2.00 128.23 2777.18
   11:08:09.558.02-Jan-2020 4790.04 5195.16 85.14 2.00 128.43 2777.18
   11:08:09.758.02-Jan-2020 4790.04 5195.18 85.14 2.00 128.63 2777.18
   11:08:09.958.02-Jan-2020 4790.04 5195.23 85.14 2.00 128.83 2777.18
   11:08:10.158.02-Jan-2020 4790.04 5193.53 85.14 2.00 129.03 2777.18
   11:08:10.358.02-Jan-2020 4790.04 5193.53 85.14 2.00 129.23 2777.18
   11:08:10.558.02-Jan-2020 4790.04 5195.41 85.14 2.00 129.43 2777.18
   11:08:10.758.02-Jan-2020 4790.04 5195.56 85.14 2.00 129.63 2777.18
   11:08:10.958.02-Jan-2020 4790.04 5194.90 85.14 2.00 129.83 2777.18
   11:08:11.158.02-Jan-2020 4790.04 5193.87 85.14 2.00 130.03 2777.18
   11:08:11.358.02-Jan-2020 4790.04 5193.87 85.14 2.00 130.23 2777.18
   11:08:11.558.02-Jan-2020 4790.04 5195.69 85.14 2.00 130.43 2777.18
   11:08:11.758.02-Jan-2020 4790.04 5195.78 85.14 2.00 130.63 2777.18
   11:08:11.959.02-Jan-2020 4790.04 5195.77 85.14 2.00 130.83 2777.18
   11:08:12.159.02-Jan-2020 4790.04 5193.62 85.14 2.00 131.03 2777.18
   11:08:12.359.02-Jan-2020 4790.04 5193.62 85.14 2.00 131.23 2777.18
   11:08:12.559.02-Jan-2020 4790.04 5196.08 85.14 2.00 131.43 2777.18
   11:08:12.759.02-Jan-2020 4790.04 5196.27 85.14 2.00 131.63 2777.18
   11:08:12.959.02-Jan-2020 4790.04 5196.21 85.14 2.00 131.83 2777.18
   11:08:13.159.02-Jan-2020 4790.04 5194.53 85.14 2.00 132.03 2777.18
   11:08:13.359.02-Jan-2020 4790.04 5194.53 85.14 2.00 132.23 2777.18
   11:08:13.559.02-Jan-2020 4790.04 5196.42 85.14 2.00 132.43 2777.18
   11:08:13.759.02-Jan-2020 4790.04 5196.55 85.14 2.00 132.63 2777.18
   11:08:13.959.02-Jan-2020 4790.04 5194.20 85.14 2.00 132.83 2777.18
   11:08:14.159.02-Jan-2020 4790.04 5196.67 85.14 2.00 133.03 2777.18
   11:08:14.359.02-Jan-2020 4790.04 5196.67 85.14 2.00 133.23 2777.18
   11:08:14.559.02-Jan-2020 4790.04 5196.79 85.14 2.00 133.43 2777.18
   11:08:14.759.02-Jan-2020 4790.04 5196.72 85.14 2.00 133.63 2777.18
   11:08:14.959.02-Jan-2020 4790.04 5195.00 85.14 2.00 133.83 2777.18
   11:08:15.159.02-Jan-2020 4790.04 5196.52 85.14 2.00 134.03 2777.18
   11:08:15.359.02-Jan-2020 4790.04 5196.52 85.14 2.00 134.23 2777.18
   11:08:15.559.02-Jan-2020 4790.04 5196.91 85.14 2.00 134.43 2777.18
   11:08:15.759.02-Jan-2020 4790.04 5195.17 85.14 2.00 134.63 2777.18
   11:08:15.959.02-Jan-2020 4790.04 5197.12 85.14 2.00 134.83 2777.18
   11:08:16.160.02-Jan-2020 4790.04 5197.06 85.14 2.00 135.03 2777.18
   11:08:16.360.02-Jan-2020 4790.04 5197.06 85.14 2.00 135.23 2777.18
   11:08:16.560.02-Jan-2020 4790.04 5197.22 85.14 2.00 135.43 2777.18
   11:08:16.760.02-Jan-2020 4790.04 5197.19 85.14 2.00 135.63 2777.18
   11:08:16.960.02-Jan-2020 4790.04 5197.24 85.14 2.00 135.83 2777.18
   11:08:17.160.02-Jan-2020 4790.04 5197.34 85.14 2.00 136.03 2777.18
   11:08:17.360.02-Jan-2020 4790.04 5197.34 85.14 2.00 136.23 2777.18
   11:08:17.560.02-Jan-2020 4790.04 5197.59 85.14 2.00 136.43 2777.18
   11:08:17.760.02-Jan-2020 4790.04 5197.47 85.14 2.00 136.63 2777.18
   11:08:17.960.02-Jan-2020 4790.04 5197.64 85.14 2.00 136.83 2777.18
   11:08:18.160.02-Jan-2020 4790.04 5197.61 85.14 2.00 137.03 2777.18
   11:08:18.360.02-Jan-2020 4790.04 5197.61 85.14 2.00 137.23 2777.18
   11:08:18.560.02-Jan-2020 4790.04 5197.83 85.14 2.00 137.43 2777.18
   11:08:18.760.02-Jan-2020 4790.04 5197.76 85.14 2.00 137.63 2777.18
   11:08:18.960.02-Jan-2020 4790.04 5197.90 85.14 2.00 137.83 2777.18
