~Version Information
 VERS.                  2.0:   CWLS log ASCII Standard -VERSION 2.0
 WRAP.                   NO:   One line per depth step
~Well Information Block
#MNEM.UNIT     VALUE/NAME     DESCRIPTION
#---------     -----------    ---------------------------
 STRT.S             10:33:43 02-Jan-20: START TIME 10:33:43 02-Jan-20
 STOP.S             10:42:04 02-Jan-20: STOP TIME  10:42:04 02-Jan-20
 STEP.S                   0.00: STEP TIME
 NULL.                 -999.25: NULL VALUE
 MDS .        Operator Entered:  MAG DATA SOURCE
 UNIT.                     N/a:  LOGGING EQUIPMENT ID
 DCON.         Sperry Drilling:  DIRECTNL CONTR
 CNTY.                    Baku:  COUNTY NAME
 DOE .                     N/a:  DOE NUMBER
 RIG .                     DWG:  RIG NAME
 MWDS.                    Baku:  MWD SHOP
 REGN.                   EESSA:  REGION
 BASE.              Azerbaijan:  LOGGING EQUIPMENT BASE LOCATION
 UWI .                     N/a:  UNIQUE WELL IDENTIFIER
 API .                     N/a:  API NUMBER
 WTYP.                Deviated:  WELL TYPE
 COMP.     BP Exploration (Caspian Sea) Ltd.:  COMPANY
 SRVC.          TURAN DRILLING:  CONTRACTOR
 WELL.           E04 (Slot 23):  WELL NAME
 CTRY.              Azerbaijan:  COUNTRY NAME
 SON .        AZ-XX-0905715376:  JOB NUMBER
 FLD .                     ACG:  FIELD NAME
 PDAT.          Mean Sea Level:  PERMANENT DATUM
 FTOP.          Formation Tops:  FORM TOPS DESC
 ILTD.               Lithology:  INTERP LTH DESC
 SVYD.                  Survey:  SURVEY DESC
 DMOD.             Drill Model:  DRILL MOD DESC
 HPTY.       Minimum Curvature:  HOLE POS TYPE
 NREF.                    Grid:  NORTH REFERENCE
 SPUD.               21-Dec-19:  SPUD DATE
 DATE.      17.57.20 21-Dec-19:  END TIME
 STIM.      17.57.20 21-Dec-19:  START TIME
 DMF .             Drill Floor:  DRILL MEAS FROM
 DFST.                        :  DIST FSL TEXT
 DFWT.                        :  DIST FWL TEXT
 PROV.                        :  PROVINCE
 STAT.                        :  STATE
 LOC .                        :  LOCATION
 LMF .             Drill Floor:  LOG MEASURED FROM
 AGAP.m                  43.16:  AIR GAP
 DEP .m                3172.61:  DEPTH
 APD .m                  43.16:  DEPTH ABOVE PD
 WDMS.m                 176.20:  WD ELEV
 EGL .m                   0.00:  GROUND ELEVATION
 EPD .m                   0.00:  ELEVATION
 AZTC.deg                 6.49:  AZM TOTAL CORR
 GRDC.deg                 0.09:  GRID CORRECTION
 MDEC.deg                 6.58:  MAGNETIC DECL
 MDIP.deg                59.61:  MAGNETIC DIP
 MFLD.nT              50294.00:  MAGNETIC FIELD
 GVFD.g                   1.00:  GRAVITY FIELD
 VSDR.deg               235.12:  VERT SEC DIRECT
 TDD .m                   0.00:  TOTAL DEPTH (DRILLER)
 SDEP.m                   0.00:  START DEPTH
 UTMY.m             4448627.46:  UTM Y
 UTMX.m              514337.95:  UTM X
 LONG.deg                51.17:  LONGITUDE
 LATI.deg                40.17:  LATITUDE
 TVDS.m                  43.16:  TVDSS CORRECTN
 WHEW.m                  -5.41:  WELL HEAD E/W
 WHNS.m                  -0.12:  WELL HEAD N/S
 VSEW.m                  -5.41:  VERT SEC E/W
 VSNS.m                  -0.12:  VERT SEC N/S
 EKB .m                  43.16:  KB ELEVATION
 EDF .m                  43.16:  DF ELEVATION
 MAGU.                 1852276:  MAGUTM CHECKSUM
 VSC .                       0:  VS TO CLOSURE
~Parameter Information Block
#MNEM.UNIT       Value        Description
#---------     -----------    ---------------------------
 TCS .hr                125.29:  Time Ciculation Ended 
 DD1 .      Fakhraddin Guliyev:  Direct Drillr 1 
 DD2 .                   Sanan:  Direct Drillr 2 
 DEFF.%                   0.00:  % Det Eff 
 DRET.      04.26.40 27-Dec-19:  Drill End Time 
 DRST.      04.26.40 27-Dec-19:  Drill Start Tim 
 DTIM.hr                 80.10:  Time Drilling 
 EDEP.m                   0.00:  End Depth 
 ENG1.            Adlet Omarov:  Engineer 1 
 ENG2.         Almaz Almadatov:  Engineer 2 
 ETIM.      04.26.40 27-Dec-19:  End Time 
 HFLO.                      No:  High Flow 
 HPRE.                      No:  High Pressure 
 HTEM.                      No:  High Temp 
 HYDO.m                   1.85:  Hydro Offset 
 IMAX.deg                72.09:  Inc Max 
 IMIN.deg                59.07:  Inc Min 
 IMND.m                3901.43:  Inc Min Depth 
 IMXD.m                4753.85:  Inc Max Depth 
 LETM.      04.26.40 27-Dec-19:  Log End Time 
 LSTM.      04.26.40 27-Dec-19:  Log Start Time 
 OTIM.hr                187.88:  Time Operating 
 PMAX.psia            10202.94:  Press Op, Max 
 RUN .                     300:  Run Number 
 RRUN.                    0300:  Rig Run Number 
 SDEP.m                   0.00:  Start Depth 
 STIM.      04.26.40 27-Dec-19:  Start Time 
 SVER.                    9.20:  Sperry Version 
 MRT .                    HCIM:  Maximum Recorded Temperature 
 TTMX.degC               96.08:  Max Tool Temp 
~Curve Information Block
#MNEM.UNIT                 API CODE     Curve Description
#---------               -----------    ---------------------------
 TIME.HHMMSS            00 000 000 000:  GT Time & Date
 GTDEPTH.m              00 000 000 000:  GT Depth
 GTPQH.psia             00 000 000 000:  GT HR Quartz Pressure
 GTTQ.degC              00 000 000 000:  GT Quartz Temperature
 GTTN.NONE              00 000 000 000:  GT Test Number
 GTET.sec               00 000 000 000:  GT Elapsed Test Time
 GTTVD.m                00 000 000 000:  GT True Vertical Depth
#Other Information
#
#WARRANTY: Halliburton will use its best efforts to furnish customers with 
#accurate information and interpretations that are part of, and incident to, the services 
#provided.  However, Halliburton cannot and does not warrant the accuracy 
#or correctness of such information and interpretations.  Under no circumstances should any 
#such information or interpretation be relied upon as the sole basis for any drilling, 
#completion, production, or financial decision or any procedure involving any risk to the 
#safety of any drilling venture, drilling rig or its crew or any other third party.  The 
#Customer has full responsibility for all drilling, completion and production operation.  
#Halliburton makes no representations or warranties, either expressed or 
#implied, including, but not limited to, the implied warranties of merchantability or fitness 
#for a particular purpose, with respect to the services rendered.  In no event will 
#Halliburton be liable for failure to obtain any particular results or for 
#any damages, including, but not limited to, indirect, special or consequential damages, 
#resulting from the use of any information or interpretation provided by Halliburton.
#
~A           TIME           GTDEPTH  GTPQH  GTTQ  GTTN  GTET   GTTVD  
# ...
   10:39:28.754.02-Jan-2020 4788.22 6149.18 85.58 1.00 345.08 2776.61
   10:39:28.954.02-Jan-2020 4788.22 6149.18 85.58 1.00 345.28 2776.61
   10:39:29.154.02-Jan-2020 4788.22 6147.53 85.58 1.00 345.48 2776.61
   10:39:29.354.02-Jan-2020 4788.22 6147.85 85.58 1.00 345.68 2776.61
   10:39:29.554.02-Jan-2020 4788.22 6143.92 85.58 1.00 345.88 2776.61
   10:39:29.754.02-Jan-2020 4788.22 6143.20 85.58 1.00 346.08 2776.61
   10:39:29.954.02-Jan-2020 4788.22 6143.20 85.58 1.00 346.28 2776.61
   10:39:30.154.02-Jan-2020 4788.22 6144.66 85.58 1.00 346.48 2776.61
   10:39:30.354.02-Jan-2020 4788.22 6141.11 85.58 1.00 346.68 2776.61
   10:39:30.554.02-Jan-2020 4788.22 6141.49 85.58 1.00 346.88 2776.61
   10:39:30.754.02-Jan-2020 4788.22 6148.16 85.58 1.00 347.08 2776.61
   10:39:30.954.02-Jan-2020 4788.22 6148.16 85.58 1.00 347.28 2776.61
   10:39:31.154.02-Jan-2020 4788.22 6142.10 85.58 1.00 347.48 2776.61
   10:39:31.354.02-Jan-2020 4788.22 6143.44 85.58 1.00 347.68 2776.61
   10:39:31.554.02-Jan-2020 4788.22 6142.62 85.58 1.00 347.88 2776.61
   10:39:31.754.02-Jan-2020 4788.22 6140.95 85.58 1.00 348.08 2776.61
   10:39:31.954.02-Jan-2020 4788.22 6140.95 85.58 1.00 348.28 2776.61
   10:39:32.154.02-Jan-2020 4788.22 6142.61 85.58 1.00 348.48 2776.61
   10:39:32.354.02-Jan-2020 4788.22 6152.07 85.58 1.00 348.68 2776.61
   10:39:32.554.02-Jan-2020 4788.22 6145.55 85.57 1.00 348.88 2776.61
   10:39:32.754.02-Jan-2020 4788.22 6143.74 85.57 1.00 349.08 2776.61
   10:39:32.955.02-Jan-2020 4788.22 6143.74 85.57 1.00 349.28 2776.61
   10:39:33.155.02-Jan-2020 4788.22 6143.45 85.57 1.00 349.48 2776.61
   10:39:33.355.02-Jan-2020 4788.22 6142.82 85.57 1.00 349.68 2776.61
   10:39:33.555.02-Jan-2020 4788.22 6151.75 85.57 1.00 349.88 2776.61
   10:39:33.755.02-Jan-2020 4788.22 6146.79 85.57 1.00 350.08 2776.61
   10:39:33.955.02-Jan-2020 4788.22 6146.79 85.57 1.00 350.28 2776.61
   10:39:34.155.02-Jan-2020 4788.22 6153.27 85.57 1.00 350.48 2776.61
   10:39:34.355.02-Jan-2020 4788.22 6145.77 85.57 1.00 350.68 2776.61
   10:39:34.555.02-Jan-2020 4788.22 6142.99 85.57 1.00 350.88 2776.61
   10:39:34.755.02-Jan-2020 4788.22 6148.00 85.57 1.00 351.08 2776.61
   10:39:34.955.02-Jan-2020 4788.22 6148.00 85.57 1.00 351.28 2776.61
   10:39:35.155.02-Jan-2020 4788.22 6143.64 85.57 1.00 351.48 2776.61
   10:39:35.355.02-Jan-2020 4788.22 6141.15 85.57 1.00 351.68 2776.61
   10:39:35.555.02-Jan-2020 4788.22 6145.68 85.57 1.00 351.88 2776.61
   10:39:35.755.02-Jan-2020 4788.22 6146.28 85.57 1.00 352.08 2776.61
   10:39:35.955.02-Jan-2020 4788.22 6146.28 85.57 1.00 352.28 2776.61
   10:39:36.155.02-Jan-2020 4788.22 6140.79 85.57 1.00 352.48 2776.61
   10:39:36.355.02-Jan-2020 4788.22 6142.33 85.57 1.00 352.68 2776.61
   10:39:36.555.02-Jan-2020 4788.22 6141.55 85.57 1.00 352.88 2776.61
   10:39:36.755.02-Jan-2020 4788.22 6141.57 85.57 1.00 353.08 2776.61
   10:39:36.955.02-Jan-2020 4788.22 6141.57 85.57 1.00 353.28 2776.61
   10:39:37.155.02-Jan-2020 4788.22 6147.22 85.57 1.00 353.48 2776.61
   10:39:37.356.02-Jan-2020 4788.22 6142.69 85.57 1.00 353.68 2776.61
   10:39:37.556.02-Jan-2020 4788.22 6152.27 85.57 1.00 353.88 2776.61
   10:39:37.756.02-Jan-2020 4788.22 6145.16 85.57 1.00 354.08 2776.61
   10:39:37.956.02-Jan-2020 4788.22 6145.16 85.57 1.00 354.28 2776.61
   10:39:38.156.02-Jan-2020 4788.22 6143.31 85.57 1.00 354.48 2776.61
   10:39:38.356.02-Jan-2020 4788.22 6144.08 85.57 1.00 354.68 2776.61
   10:39:38.556.02-Jan-2020 4788.22 6143.32 85.57 1.00 354.88 2776.61
   10:39:38.756.02-Jan-2020 4788.22 6144.07 85.57 1.00 355.08 2776.61
   10:39:38.956.02-Jan-2020 4788.22 6144.07 85.57 1.00 355.28 2776.61
   10:39:39.156.02-Jan-2020 4788.22 6145.07 85.57 1.00 355.48 2776.61
   10:39:39.356.02-Jan-2020 4788.22 6150.14 85.57 1.00 355.68 2776.61
   10:39:39.556.02-Jan-2020 4788.22 6147.57 85.57 1.00 355.88 2776.61
   10:39:39.756.02-Jan-2020 4788.22 6144.24 85.57 1.00 356.08 2776.61
   10:39:39.956.02-Jan-2020 4788.22 6144.24 85.57 1.00 356.28 2776.61
   10:39:40.156.02-Jan-2020 4788.22 6142.10 85.57 1.00 356.48 2776.61
   10:39:40.356.02-Jan-2020 4788.22 6149.76 85.57 1.00 356.68 2776.61
   10:39:40.556.02-Jan-2020 4788.22 6144.70 85.57 1.00 356.88 2776.61
   10:39:40.756.02-Jan-2020 4788.22 6142.97 85.57 1.00 357.08 2776.61
   10:39:40.956.02-Jan-2020 4788.22 6142.97 85.57 1.00 357.28 2776.61
   10:39:41.156.02-Jan-2020 4788.22 6142.11 85.57 1.00 357.48 2776.61
   10:39:41.356.02-Jan-2020 4788.22 6142.08 85.57 1.00 357.68 2776.61
   10:39:41.557.02-Jan-2020 4788.22 6143.40 85.57 1.00 357.88 2776.61
   10:39:41.757.02-Jan-2020 4788.22 6152.40 85.57 1.00 358.08 2776.61
   10:39:41.957.02-Jan-2020 4788.22 6152.40 85.57 1.00 358.28 2776.61
   10:39:42.157.02-Jan-2020 4788.22 6143.52 85.57 1.00 358.48 2776.61
   10:39:42.357.02-Jan-2020 4788.22 6143.64 85.57 1.00 358.68 2776.61
   10:39:42.557.02-Jan-2020 4788.22 6143.00 85.57 1.00 358.88 2776.61
   10:39:42.757.02-Jan-2020 4788.22 6142.34 85.57 1.00 359.08 2776.61
   10:39:42.957.02-Jan-2020 4788.22 6142.34 85.57 1.00 359.28 2776.61
   10:39:43.157.02-Jan-2020 4788.22 6151.87 85.57 1.00 359.48 2776.61
   10:39:43.357.02-Jan-2020 4788.22 6146.41 85.57 1.00 359.68 2776.61
   10:39:43.557.02-Jan-2020 4788.22 6143.75 85.57 1.00 359.88 2776.61
   10:39:43.757.02-Jan-2020 4788.22 6143.20 85.57 1.00 360.08 2776.61
   10:39:43.957.02-Jan-2020 4788.22 6143.20 85.57 1.00 360.28 2776.61
   10:39:44.157.02-Jan-2020 4788.22 6145.99 85.57 1.00 360.48 2776.61
   10:39:44.357.02-Jan-2020 4788.22 6142.89 85.57 1.00 360.68 2776.61
   10:39:44.557.02-Jan-2020 4788.22 6143.90 85.57 1.00 360.88 2776.61
   10:39:44.757.02-Jan-2020 4788.22 6142.40 85.57 1.00 361.08 2776.61
   10:39:44.957.02-Jan-2020 4788.22 6142.40 85.57 1.00 361.28 2776.61
   10:39:45.157.02-Jan-2020 4788.22 6145.77 85.57 1.00 361.48 2776.61
   10:39:45.357.02-Jan-2020 4788.22 6147.91 85.57 1.00 361.69 2776.61
   10:39:45.557.02-Jan-2020 4788.22 6143.89 85.57 1.00 361.89 2776.61
   10:39:45.758.02-Jan-2020 4788.22 6142.26 85.57 1.00 362.09 2776.61
   10:39:45.958.02-Jan-2020 4788.22 6142.26 85.57 1.00 362.29 2776.61
   10:39:46.158.02-Jan-2020 4788.22 6145.36 85.57 1.00 362.49 2776.61
   10:39:46.358.02-Jan-2020 4788.22 6142.86 85.57 1.00 362.69 2776.61
   10:39:46.558.02-Jan-2020 4788.22 6142.82 85.57 1.00 362.89 2776.61
   10:39:46.758.02-Jan-2020 4788.22 6142.59 85.57 1.00 363.09 2776.61
   10:39:46.958.02-Jan-2020 4788.22 6142.59 85.57 1.00 363.29 2776.61
   10:39:47.158.02-Jan-2020 4788.22 6143.46 85.57 1.00 363.49 2776.61
   10:39:47.358.02-Jan-2020 4788.22 6144.92 85.57 1.00 363.69 2776.61
   10:39:47.558.02-Jan-2020 4788.22 6148.44 85.57 1.00 363.89 2776.61
   10:39:47.758.02-Jan-2020 4788.22 6149.00 85.57 1.00 364.09 2776.61
   10:39:47.958.02-Jan-2020 4788.22 6149.00 85.57 1.00 364.29 2776.61
   10:39:48.158.02-Jan-2020 4788.22 6143.87 85.57 1.00 364.49 2776.61
   10:39:48.358.02-Jan-2020 4788.22 6143.35 85.57 1.00 364.69 2776.61
   10:39:48.558.02-Jan-2020 4788.22 6141.55 85.57 1.00 364.89 2776.61
   10:39:48.758.02-Jan-2020 4788.22 6141.86 85.57 1.00 365.09 2776.61
   10:39:48.958.02-Jan-2020 4788.22 6141.86 85.57 1.00 365.29 2776.61
   10:39:49.158.02-Jan-2020 4788.22 6145.72 85.57 1.00 365.49 2776.61
   10:39:49.358.02-Jan-2020 4788.22 6143.18 85.57 1.00 365.69 2776.61
   10:39:49.558.02-Jan-2020 4788.22 6142.82 85.57 1.00 365.89 2776.61
   10:39:49.758.02-Jan-2020 4788.22 6142.80 85.57 1.00 366.09 2776.61
   10:39:49.959.02-Jan-2020 4788.22 6142.80 85.57 1.00 366.29 2776.61
   10:39:50.159.02-Jan-2020 4788.22 6142.83 85.57 1.00 366.49 2776.61
   10:39:50.359.02-Jan-2020 4788.22 6152.57 85.57 1.00 366.69 2776.61
   10:39:50.559.02-Jan-2020 4788.22 6145.64 85.57 1.00 366.89 2776.61
   10:39:50.759.02-Jan-2020 4788.22 6142.12 85.56 1.00 367.09 2776.61
   10:39:50.959.02-Jan-2020 4788.22 6142.12 85.56 1.00 367.29 2776.61
   10:39:51.159.02-Jan-2020 4788.22 6141.60 85.56 1.00 367.49 2776.61
   10:39:51.359.02-Jan-2020 4788.22 6141.13 85.56 1.00 367.69 2776.61
   10:39:51.559.02-Jan-2020 4788.22 6142.38 85.56 1.00 367.89 2776.61
