~Version Information
 VERS.                  2.0:   CWLS log ASCII Standard -VERSION 2.0
 WRAP.                   NO:   One line per depth step
~Well Information Block
#MNEM.UNIT     VALUE/NAME     DESCRIPTION
#---------     -----------    ---------------------------
 STRT.S             11:06:01 02-Jan-20: START TIME 11:06:01 02-Jan-20
 STOP.S             11:13:00 02-Jan-20: STOP TIME  11:13:00 02-Jan-20
 STEP.S                   0.00: STEP TIME
 NULL.                 -999.25: NULL VALUE
 MDS .        Operator Entered:  MAG DATA SOURCE
 UNIT.                     N/a:  LOGGING EQUIPMENT ID
 DCON.         Sperry Drilling:  DIRECTNL CONTR
 CNTY.                    Baku:  COUNTY NAME
 DOE .                     N/a:  DOE NUMBER
 RIG .                     DWG:  RIG NAME
 MWDS.                    Baku:  MWD SHOP
 REGN.                   EESSA:  REGION
 BASE.              Azerbaijan:  LOGGING EQUIPMENT BASE LOCATION
 UWI .                     N/a:  UNIQUE WELL IDENTIFIER
 API .                     N/a:  API NUMBER
 WTYP.                Deviated:  WELL TYPE
 COMP.     BP Exploration (Caspian Sea) Ltd.:  COMPANY
 SRVC.          TURAN DRILLING:  CONTRACTOR
 WELL.           E04 (Slot 23):  WELL NAME
 CTRY.              Azerbaijan:  COUNTRY NAME
 SON .        AZ-XX-0905715376:  JOB NUMBER
 FLD .                     ACG:  FIELD NAME
 PDAT.          Mean Sea Level:  PERMANENT DATUM
 FTOP.          Formation Tops:  FORM TOPS DESC
 ILTD.               Lithology:  INTERP LTH DESC
 SVYD.                  Survey:  SURVEY DESC
 DMOD.             Drill Model:  DRILL MOD DESC
 HPTY.       Minimum Curvature:  HOLE POS TYPE
 NREF.                    Grid:  NORTH REFERENCE
 SPUD.               21-Dec-19:  SPUD DATE
 DATE.      17.57.20 21-Dec-19:  END TIME
 STIM.      17.57.20 21-Dec-19:  START TIME
 DMF .             Drill Floor:  DRILL MEAS FROM
 DFST.                        :  DIST FSL TEXT
 DFWT.                        :  DIST FWL TEXT
 PROV.                        :  PROVINCE
 STAT.                        :  STATE
 LOC .                        :  LOCATION
 LMF .             Drill Floor:  LOG MEASURED FROM
 AGAP.m                  43.16:  AIR GAP
 DEP .m                3172.61:  DEPTH
 APD .m                  43.16:  DEPTH ABOVE PD
 WDMS.m                 176.20:  WD ELEV
 EGL .m                   0.00:  GROUND ELEVATION
 EPD .m                   0.00:  ELEVATION
 AZTC.deg                 6.49:  AZM TOTAL CORR
 GRDC.deg                 0.09:  GRID CORRECTION
 MDEC.deg                 6.58:  MAGNETIC DECL
 MDIP.deg                59.61:  MAGNETIC DIP
 MFLD.nT              50294.00:  MAGNETIC FIELD
 GVFD.g                   1.00:  GRAVITY FIELD
 VSDR.deg               235.12:  VERT SEC DIRECT
 TDD .m                   0.00:  TOTAL DEPTH (DRILLER)
 SDEP.m                   0.00:  START DEPTH
 UTMY.m             4448627.46:  UTM Y
 UTMX.m              514337.95:  UTM X
 LONG.deg                51.17:  LONGITUDE
 LATI.deg                40.17:  LATITUDE
 TVDS.m                  43.16:  TVDSS CORRECTN
 WHEW.m                  -5.41:  WELL HEAD E/W
 WHNS.m                  -0.12:  WELL HEAD N/S
 VSEW.m                  -5.41:  VERT SEC E/W
 VSNS.m                  -0.12:  VERT SEC N/S
 EKB .m                  43.16:  KB ELEVATION
 EDF .m                  43.16:  DF ELEVATION
 MAGU.                 1852276:  MAGUTM CHECKSUM
 VSC .                       0:  VS TO CLOSURE
~Parameter Information Block
#MNEM.UNIT       Value        Description
#---------     -----------    ---------------------------
 TCS .hr                125.29:  Time Ciculation Ended 
 DD1 .      Fakhraddin Guliyev:  Direct Drillr 1 
 DD2 .                   Sanan:  Direct Drillr 2 
 DEFF.%                   0.00:  % Det Eff 
 DRET.      04.26.40 27-Dec-19:  Drill End Time 
 DRST.      04.26.40 27-Dec-19:  Drill Start Tim 
 DTIM.hr                 80.10:  Time Drilling 
 EDEP.m                   0.00:  End Depth 
 ENG1.            Adlet Omarov:  Engineer 1 
 ENG2.         Almaz Almadatov:  Engineer 2 
 ETIM.      04.26.40 27-Dec-19:  End Time 
 HFLO.                      No:  High Flow 
 HPRE.                      No:  High Pressure 
 HTEM.                      No:  High Temp 
 HYDO.m                   1.85:  Hydro Offset 
 IMAX.deg                72.09:  Inc Max 
 IMIN.deg                59.07:  Inc Min 
 IMND.m                3901.43:  Inc Min Depth 
 IMXD.m                4753.85:  Inc Max Depth 
 LETM.      04.26.40 27-Dec-19:  Log End Time 
 LSTM.      04.26.40 27-Dec-19:  Log Start Time 
 OTIM.hr                187.88:  Time Operating 
 PMAX.psia            10202.94:  Press Op, Max 
 RUN .                     300:  Run Number 
 RRUN.                    0300:  Rig Run Number 
 SDEP.m                   0.00:  Start Depth 
 STIM.      04.26.40 27-Dec-19:  Start Time 
 SVER.                    9.20:  Sperry Version 
 MRT .                    HCIM:  Maximum Recorded Temperature 
 TTMX.degC               96.08:  Max Tool Temp 
~Curve Information Block
#MNEM.UNIT                 API CODE     Curve Description
#---------               -----------    ---------------------------
 TIME.HHMMSS            00 000 000 000:  GT Time & Date
 GTDEPTH.m              00 000 000 000:  GT Depth
 GTPQH.psia             00 000 000 000:  GT HR Quartz Pressure
 GTTQ.degC              00 000 000 000:  GT Quartz Temperature
 GTTN.NONE              00 000 000 000:  GT Test Number
 GTET.sec               00 000 000 000:  GT Elapsed Test Time
 GTTVD.m                00 000 000 000:  GT True Vertical Depth
#Other Information
#
#WARRANTY: Halliburton will use its best efforts to furnish customers with 
#accurate information and interpretations that are part of, and incident to, the services 
#provided.  However, Halliburton cannot and does not warrant the accuracy 
#or correctness of such information and interpretations.  Under no circumstances should any 
#such information or interpretation be relied upon as the sole basis for any drilling, 
#completion, production, or financial decision or any procedure involving any risk to the 
#safety of any drilling venture, drilling rig or its crew or any other third party.  The 
#Customer has full responsibility for all drilling, completion and production operation.  
#Halliburton makes no representations or warranties, either expressed or 
#implied, including, but not limited to, the implied warranties of merchantability or fitness 
#for a particular purpose, with respect to the services rendered.  In no event will 
#Halliburton be liable for failure to obtain any particular results or for 
#any damages, including, but not limited to, indirect, special or consequential damages, 
#resulting from the use of any information or interpretation provided by Halliburton.
#
~A           TIME           GTDEPTH  GTPQH  GTTQ  GTTN  GTET   GTTVD  
# ...
   11:09:51.182.02-Jan-2020 4790.04 5555.14 85.12 2.00 230.05 2777.18
   11:09:51.382.02-Jan-2020 4790.04 5555.14 85.12 2.00 230.25 2777.18
   11:09:51.582.02-Jan-2020 4790.04 5553.37 85.12 2.00 230.45 2777.18
   11:09:51.782.02-Jan-2020 4790.04 5554.75 85.12 2.00 230.65 2777.18
   11:09:51.982.02-Jan-2020 4790.04 5554.74 85.12 2.00 230.85 2777.18
   11:09:52.182.02-Jan-2020 4790.04 5554.55 85.12 2.00 231.05 2777.18
   11:09:52.382.02-Jan-2020 4790.04 5554.55 85.12 2.00 231.25 2777.18
   11:09:52.582.02-Jan-2020 4790.04 5554.44 85.12 2.00 231.45 2777.18
   11:09:52.782.02-Jan-2020 4790.04 5554.19 85.12 2.00 231.65 2777.18
   11:09:52.982.02-Jan-2020 4790.04 5554.19 85.12 2.00 231.85 2777.18
   11:09:53.182.02-Jan-2020 4790.04 5553.99 85.12 2.00 232.05 2777.18
   11:09:53.382.02-Jan-2020 4790.04 5553.99 85.12 2.00 232.25 2777.18
   11:09:53.582.02-Jan-2020 4790.04 5552.12 85.12 2.00 232.45 2777.18
   11:09:53.782.02-Jan-2020 4790.04 5553.88 85.12 2.00 232.65 2777.18
   11:09:53.983.02-Jan-2020 4790.04 5553.56 85.12 2.00 232.85 2777.18
   11:09:54.183.02-Jan-2020 4790.04 5553.54 85.12 2.00 233.05 2777.18
   11:09:54.383.02-Jan-2020 4790.04 5553.54 85.12 2.00 233.25 2777.18
   11:09:54.583.02-Jan-2020 4790.04 5553.36 85.12 2.00 233.45 2777.18
   11:09:54.783.02-Jan-2020 4790.04 5553.10 85.12 2.00 233.65 2777.18
   11:09:54.983.02-Jan-2020 4790.04 5556.09 85.12 2.00 233.85 2777.18
   11:09:55.183.02-Jan-2020 4790.04 5557.53 85.12 2.00 234.06 2777.18
   11:09:55.383.02-Jan-2020 4790.04 5557.53 85.12 2.00 234.26 2777.18
   11:09:55.583.02-Jan-2020 4790.04 5556.72 85.12 2.00 234.46 2777.18
   11:09:55.783.02-Jan-2020 4790.04 5557.85 85.12 2.00 234.66 2777.18
   11:09:55.983.02-Jan-2020 4790.04 5555.87 85.11 2.00 234.86 2777.18
   11:09:56.183.02-Jan-2020 4790.04 5557.64 85.11 2.00 235.06 2777.18
   11:09:56.383.02-Jan-2020 4790.04 5557.64 85.11 2.00 235.26 2777.18
   11:09:56.583.02-Jan-2020 4790.04 5557.46 85.11 2.00 235.46 2777.18
   11:09:56.783.02-Jan-2020 4790.04 5557.30 85.11 2.00 235.66 2777.18
   11:09:56.983.02-Jan-2020 4790.04 5557.17 85.11 2.00 235.86 2777.18
   11:09:57.183.02-Jan-2020 4790.04 5557.11 85.11 2.00 236.06 2777.18
   11:09:57.383.02-Jan-2020 4790.04 5557.11 85.11 2.00 236.26 2777.18
   11:09:57.583.02-Jan-2020 4790.04 5555.52 85.11 2.00 236.46 2777.18
   11:09:57.783.02-Jan-2020 4790.04 5556.81 85.11 2.00 236.66 2777.18
   11:09:57.983.02-Jan-2020 4790.04 5556.80 85.11 2.00 236.86 2777.18
   11:09:58.183.02-Jan-2020 4790.04 5556.79 85.11 2.00 237.06 2777.18
   11:09:58.384.02-Jan-2020 4790.04 5556.79 85.11 2.00 237.26 2777.18
   11:09:58.584.02-Jan-2020 4790.04 5556.56 85.11 2.00 237.46 2777.18
   11:09:58.784.02-Jan-2020 4790.04 5556.34 85.11 2.00 237.66 2777.18
   11:09:58.984.02-Jan-2020 4790.04 5556.37 85.11 2.00 237.86 2777.18
   11:09:59.184.02-Jan-2020 4790.04 5556.18 85.11 2.00 238.06 2777.18
   11:09:59.384.02-Jan-2020 4790.04 5556.18 85.11 2.00 238.26 2777.18
   11:09:59.584.02-Jan-2020 4790.04 5554.34 85.11 2.00 238.46 2777.18
   11:09:59.784.02-Jan-2020 4790.04 5555.98 85.11 2.00 238.66 2777.18
   11:09:59.984.02-Jan-2020 4790.04 5556.02 85.11 2.00 238.86 2777.18
   11:10:00.184.02-Jan-2020 4790.04 5555.81 85.11 2.00 239.06 2777.18
   11:10:00.384.02-Jan-2020 4790.04 5555.81 85.11 2.00 239.26 2777.18
   11:10:00.584.02-Jan-2020 4790.04 5553.96 85.11 2.00 239.46 2777.18
   11:10:00.784.02-Jan-2020 4790.04 5555.82 85.11 2.00 239.66 2777.18
   11:10:00.984.02-Jan-2020 4790.04 5555.55 85.11 2.00 239.86 2777.18
   11:10:01.184.02-Jan-2020 4790.04 5554.96 85.11 2.00 240.06 2777.18
   11:10:01.384.02-Jan-2020 4790.04 5554.96 85.11 2.00 240.26 2777.18
   11:10:01.584.02-Jan-2020 4790.04 5555.42 85.11 2.00 240.46 2777.18
   11:10:01.784.02-Jan-2020 4790.04 5555.24 85.11 2.00 240.66 2777.18
   11:10:01.984.02-Jan-2020 4790.04 5553.36 85.11 2.00 240.86 2777.18
   11:10:02.184.02-Jan-2020 4790.04 5555.17 85.11 2.00 241.06 2777.18
   11:10:02.384.02-Jan-2020 4790.04 5555.17 85.11 2.00 241.26 2777.18
   11:10:02.585.02-Jan-2020 4790.04 5553.32 85.11 2.00 241.46 2777.18
   11:10:02.785.02-Jan-2020 4790.04 5555.07 85.11 2.00 241.66 2777.18
   11:10:02.985.02-Jan-2020 4790.04 5554.75 85.11 2.00 241.86 2777.18
   11:10:03.185.02-Jan-2020 4790.04 5554.85 85.11 2.00 242.06 2777.18
   11:10:03.385.02-Jan-2020 4790.04 5554.85 85.11 2.00 242.26 2777.18
   11:10:03.585.02-Jan-2020 4790.04 5554.78 85.11 2.00 242.46 2777.18
   11:10:03.785.02-Jan-2020 4790.04 5554.65 85.11 2.00 242.66 2777.18
   11:10:03.985.02-Jan-2020 4790.04 5554.65 85.11 2.00 242.86 2777.18
   11:10:04.185.02-Jan-2020 4790.04 5554.03 85.11 2.00 243.06 2777.18
   11:10:04.385.02-Jan-2020 4790.04 5554.03 85.11 2.00 243.26 2777.18
   11:10:04.585.02-Jan-2020 4790.04 5554.61 85.11 2.00 243.46 2777.18
   11:10:04.785.02-Jan-2020 4790.04 5554.43 85.11 2.00 243.66 2777.18
   11:10:04.985.02-Jan-2020 4790.04 5554.37 85.11 2.00 243.86 2777.18
   11:10:05.185.02-Jan-2020 4790.04 5554.22 85.11 2.00 244.06 2777.18
   11:10:05.385.02-Jan-2020 4790.04 5554.22 85.11 2.00 244.26 2777.18
   11:10:05.585.02-Jan-2020 4790.04 5554.11 85.11 2.00 244.46 2777.18
   11:10:05.785.02-Jan-2020 4790.04 5554.17 85.11 2.00 244.66 2777.18
   11:10:05.985.02-Jan-2020 4790.04 5554.19 85.11 2.00 244.86 2777.18
   11:10:06.185.02-Jan-2020 4790.04 5553.98 85.11 2.00 245.06 2777.18
   11:10:06.385.02-Jan-2020 4790.04 5553.98 85.11 2.00 245.26 2777.18
   11:10:06.585.02-Jan-2020 4790.04 5554.05 85.11 2.00 245.46 2777.18
   11:10:06.786.02-Jan-2020 4790.04 5553.80 85.11 2.00 245.66 2777.18
   11:10:06.986.02-Jan-2020 4790.04 5553.87 85.11 2.00 245.86 2777.18
   11:10:07.186.02-Jan-2020 4790.04 5553.68 85.11 2.00 246.06 2777.18
   11:10:07.386.02-Jan-2020 4790.04 5553.68 85.11 2.00 246.26 2777.18
   11:10:07.586.02-Jan-2020 4790.04 5553.61 85.11 2.00 246.46 2777.18
   11:10:07.786.02-Jan-2020 4790.04 5553.71 85.11 2.00 246.66 2777.18
   11:10:07.986.02-Jan-2020 4790.04 5553.48 85.11 2.00 246.86 2777.18
   11:10:08.186.02-Jan-2020 4790.04 5553.51 85.11 2.00 247.06 2777.18
   11:10:08.386.02-Jan-2020 4790.04 5553.51 85.11 2.00 247.26 2777.18
   11:10:08.586.02-Jan-2020 4790.04 5553.46 85.11 2.00 247.46 2777.18
   11:10:08.786.02-Jan-2020 4790.04 5553.19 85.11 2.00 247.66 2777.18
   11:10:08.986.02-Jan-2020 4790.04 5551.40 85.11 2.00 247.86 2777.18
   11:10:09.186.02-Jan-2020 4790.04 5553.08 85.11 2.00 248.06 2777.18
   11:10:09.386.02-Jan-2020 4790.04 5553.08 85.11 2.00 248.26 2777.18
   11:10:09.586.02-Jan-2020 4790.04 5552.44 85.11 2.00 248.46 2777.18
   11:10:09.786.02-Jan-2020 4790.04 5551.73 85.11 2.00 248.66 2777.18
   11:10:09.986.02-Jan-2020 4790.04 5552.97 85.11 2.00 248.86 2777.18
   11:10:10.186.02-Jan-2020 4790.04 5552.73 85.11 2.00 249.06 2777.18
   11:10:10.386.02-Jan-2020 4790.04 5552.73 85.11 2.00 249.26 2777.18
   11:10:10.586.02-Jan-2020 4790.04 5552.69 85.11 2.00 249.46 2777.18
   11:10:10.786.02-Jan-2020 4790.04 5552.66 85.11 2.00 249.66 2777.18
   11:10:10.987.02-Jan-2020 4790.04 5552.63 85.11 2.00 249.86 2777.18
   11:10:11.187.02-Jan-2020 4790.04 5552.58 85.11 2.00 250.06 2777.18
   11:10:11.387.02-Jan-2020 4790.04 5552.58 85.11 2.00 250.26 2777.18
   11:10:11.587.02-Jan-2020 4790.04 5552.57 85.11 2.00 250.46 2777.18
   11:10:11.787.02-Jan-2020 4790.04 5552.45 85.11 2.00 250.66 2777.18
   11:10:11.987.02-Jan-2020 4790.04 5552.48 85.11 2.00 250.86 2777.18
   11:10:12.187.02-Jan-2020 4790.04 5550.86 85.11 2.00 251.06 2777.18
   11:10:12.387.02-Jan-2020 4790.04 5550.86 85.11 2.00 251.26 2777.18
   11:10:12.587.02-Jan-2020 4790.04 5552.27 85.11 2.00 251.46 2777.18
   11:10:12.787.02-Jan-2020 4790.04 5552.34 85.10 2.00 251.66 2777.18
   11:10:12.987.02-Jan-2020 4790.04 5552.28 85.10 2.00 251.86 2777.18
   11:10:13.187.02-Jan-2020 4790.04 5550.44 85.10 2.00 252.06 2777.18
   11:10:13.387.02-Jan-2020 4790.04 5550.44 85.10 2.00 252.26 2777.18
   11:10:13.587.02-Jan-2020 4790.04 5552.15 85.10 2.00 252.46 2777.18
   11:10:13.787.02-Jan-2020 4790.04 5552.23 85.10 2.00 252.66 2777.18
   11:10:13.987.02-Jan-2020 4790.04 5552.11 85.10 2.00 252.86 2777.18
