~Version Information
 VERS.                  2.0:   CWLS log ASCII Standard -VERSION 2.0
 WRAP.                   NO:   One line per depth step
~Well Information Block
#MNEM.UNIT     VALUE/NAME     DESCRIPTION
#---------     -----------    ---------------------------
 STRT.S             10:33:43 02-Jan-20: START TIME 10:33:43 02-Jan-20
 STOP.S             10:42:04 02-Jan-20: STOP TIME  10:42:04 02-Jan-20
 STEP.S                   0.00: STEP TIME
 NULL.                 -999.25: NULL VALUE
 MDS .        Operator Entered:  MAG DATA SOURCE
 UNIT.                     N/a:  LOGGING EQUIPMENT ID
 DCON.         Sperry Drilling:  DIRECTNL CONTR
 CNTY.                    Baku:  COUNTY NAME
 DOE .                     N/a:  DOE NUMBER
 RIG .                     DWG:  RIG NAME
 MWDS.                    Baku:  MWD SHOP
 REGN.                   EESSA:  REGION
 BASE.              Azerbaijan:  LOGGING EQUIPMENT BASE LOCATION
 UWI .                     N/a:  UNIQUE WELL IDENTIFIER
 API .                     N/a:  API NUMBER
 WTYP.                Deviated:  WELL TYPE
 COMP.     BP Exploration (Caspian Sea) Ltd.:  COMPANY
 SRVC.          TURAN DRILLING:  CONTRACTOR
 WELL.           E04 (Slot 23):  WELL NAME
 CTRY.              Azerbaijan:  COUNTRY NAME
 SON .        AZ-XX-0905715376:  JOB NUMBER
 FLD .                     ACG:  FIELD NAME
 PDAT.          Mean Sea Level:  PERMANENT DATUM
 FTOP.          Formation Tops:  FORM TOPS DESC
 ILTD.               Lithology:  INTERP LTH DESC
 SVYD.                  Survey:  SURVEY DESC
 DMOD.             Drill Model:  DRILL MOD DESC
 HPTY.       Minimum Curvature:  HOLE POS TYPE
 NREF.                    Grid:  NORTH REFERENCE
 SPUD.               21-Dec-19:  SPUD DATE
 DATE.      17.57.20 21-Dec-19:  END TIME
 STIM.      17.57.20 21-Dec-19:  START TIME
 DMF .             Drill Floor:  DRILL MEAS FROM
 DFST.                        :  DIST FSL TEXT
 DFWT.                        :  DIST FWL TEXT
 PROV.                        :  PROVINCE
 STAT.                        :  STATE
 LOC .                        :  LOCATION
 LMF .             Drill Floor:  LOG MEASURED FROM
 AGAP.m                  43.16:  AIR GAP
 DEP .m                3172.61:  DEPTH
 APD .m                  43.16:  DEPTH ABOVE PD
 WDMS.m                 176.20:  WD ELEV
 EGL .m                   0.00:  GROUND ELEVATION
 EPD .m                   0.00:  ELEVATION
 AZTC.deg                 6.49:  AZM TOTAL CORR
 GRDC.deg                 0.09:  GRID CORRECTION
 MDEC.deg                 6.58:  MAGNETIC DECL
 MDIP.deg                59.61:  MAGNETIC DIP
 MFLD.nT              50294.00:  MAGNETIC FIELD
 GVFD.g                   1.00:  GRAVITY FIELD
 VSDR.deg               235.12:  VERT SEC DIRECT
 TDD .m                   0.00:  TOTAL DEPTH (DRILLER)
 SDEP.m                   0.00:  START DEPTH
 UTMY.m             4448627.46:  UTM Y
 UTMX.m              514337.95:  UTM X
 LONG.deg                51.17:  LONGITUDE
 LATI.deg                40.17:  LATITUDE
 TVDS.m                  43.16:  TVDSS CORRECTN
 WHEW.m                  -5.41:  WELL HEAD E/W
 WHNS.m                  -0.12:  WELL HEAD N/S
 VSEW.m                  -5.41:  VERT SEC E/W
 VSNS.m                  -0.12:  VERT SEC N/S
 EKB .m                  43.16:  KB ELEVATION
 EDF .m                  43.16:  DF ELEVATION
 MAGU.                 1852276:  MAGUTM CHECKSUM
 VSC .                       0:  VS TO CLOSURE
~Parameter Information Block
#MNEM.UNIT       Value        Description
#---------     -----------    ---------------------------
 TCS .hr                125.29:  Time Ciculation Ended 
 DD1 .      Fakhraddin Guliyev:  Direct Drillr 1 
 DD2 .                   Sanan:  Direct Drillr 2 
 DEFF.%                   0.00:  % Det Eff 
 DRET.      04.26.40 27-Dec-19:  Drill End Time 
 DRST.      04.26.40 27-Dec-19:  Drill Start Tim 
 DTIM.hr                 80.10:  Time Drilling 
 EDEP.m                   0.00:  End Depth 
 ENG1.            Adlet Omarov:  Engineer 1 
 ENG2.         Almaz Almadatov:  Engineer 2 
 ETIM.      04.26.40 27-Dec-19:  End Time 
 HFLO.                      No:  High Flow 
 HPRE.                      No:  High Pressure 
 HTEM.                      No:  High Temp 
 HYDO.m                   1.85:  Hydro Offset 
 IMAX.deg                72.09:  Inc Max 
 IMIN.deg                59.07:  Inc Min 
 IMND.m                3901.43:  Inc Min Depth 
 IMXD.m                4753.85:  Inc Max Depth 
 LETM.      04.26.40 27-Dec-19:  Log End Time 
 LSTM.      04.26.40 27-Dec-19:  Log Start Time 
 OTIM.hr                187.88:  Time Operating 
 PMAX.psia            10202.94:  Press Op, Max 
 RUN .                     300:  Run Number 
 RRUN.                    0300:  Rig Run Number 
 SDEP.m                   0.00:  Start Depth 
 STIM.      04.26.40 27-Dec-19:  Start Time 
 SVER.                    9.20:  Sperry Version 
 MRT .                    HCIM:  Maximum Recorded Temperature 
 TTMX.degC               96.08:  Max Tool Temp 
~Curve Information Block
#MNEM.UNIT                 API CODE     Curve Description
#---------               -----------    ---------------------------
 TIME.HHMMSS            00 000 000 000:  GT Time & Date
 GTDEPTH.m              00 000 000 000:  GT Depth
 GTPQH.psia             00 000 000 000:  GT HR Quartz Pressure
 GTTQ.degC              00 000 000 000:  GT Quartz Temperature
 GTTN.NONE              00 000 000 000:  GT Test Number
 GTET.sec               00 000 000 000:  GT Elapsed Test Time
 GTTVD.m                00 000 000 000:  GT True Vertical Depth
#Other Information
#
#WARRANTY: Halliburton will use its best efforts to furnish customers with 
#accurate information and interpretations that are part of, and incident to, the services 
#provided.  However, Halliburton cannot and does not warrant the accuracy 
#or correctness of such information and interpretations.  Under no circumstances should any 
#such information or interpretation be relied upon as the sole basis for any drilling, 
#completion, production, or financial decision or any procedure involving any risk to the 
#safety of any drilling venture, drilling rig or its crew or any other third party.  The 
#Customer has full responsibility for all drilling, completion and production operation.  
#Halliburton makes no representations or warranties, either expressed or 
#implied, including, but not limited to, the implied warranties of merchantability or fitness 
#for a particular purpose, with respect to the services rendered.  In no event will 
#Halliburton be liable for failure to obtain any particular results or for 
#any damages, including, but not limited to, indirect, special or consequential damages, 
#resulting from the use of any information or interpretation provided by Halliburton.
#
~A           TIME           GTDEPTH  GTPQH  GTTQ  GTTN  GTET   GTTVD  
# ...
   10:39:05.748.02-Jan-2020 4788.22 6142.93 85.59 1.00 322.08 2776.61
   10:39:05.948.02-Jan-2020 4788.22 6142.93 85.59 1.00 322.28 2776.61
   10:39:06.148.02-Jan-2020 4788.22 6150.20 85.59 1.00 322.48 2776.61
   10:39:06.348.02-Jan-2020 4788.22 6145.00 85.59 1.00 322.68 2776.61
   10:39:06.548.02-Jan-2020 4788.22 6142.57 85.59 1.00 322.88 2776.61
   10:39:06.748.02-Jan-2020 4788.22 6147.16 85.59 1.00 323.08 2776.61
   10:39:06.948.02-Jan-2020 4788.22 6147.16 85.59 1.00 323.28 2776.61
   10:39:07.148.02-Jan-2020 4788.22 6143.78 85.59 1.00 323.48 2776.61
   10:39:07.348.02-Jan-2020 4788.22 6142.09 85.59 1.00 323.68 2776.61
   10:39:07.549.02-Jan-2020 4788.22 6149.88 85.59 1.00 323.88 2776.61
   10:39:07.749.02-Jan-2020 4788.22 6146.52 85.59 1.00 324.08 2776.61
   10:39:07.949.02-Jan-2020 4788.22 6146.52 85.59 1.00 324.28 2776.61
   10:39:08.149.02-Jan-2020 4788.22 6151.32 85.59 1.00 324.48 2776.61
   10:39:08.349.02-Jan-2020 4788.22 6144.87 85.59 1.00 324.68 2776.61
   10:39:08.549.02-Jan-2020 4788.22 6142.18 85.59 1.00 324.88 2776.61
   10:39:08.749.02-Jan-2020 4788.22 6142.98 85.59 1.00 325.08 2776.61
   10:39:08.949.02-Jan-2020 4788.22 6142.98 85.59 1.00 325.28 2776.61
   10:39:09.149.02-Jan-2020 4788.22 6142.53 85.59 1.00 325.48 2776.61
   10:39:09.349.02-Jan-2020 4788.22 6143.06 85.59 1.00 325.68 2776.61
   10:39:09.549.02-Jan-2020 4788.22 6144.11 85.59 1.00 325.88 2776.61
   10:39:09.749.02-Jan-2020 4788.22 6148.11 85.59 1.00 326.08 2776.61
   10:39:09.949.02-Jan-2020 4788.22 6148.11 85.59 1.00 326.28 2776.61
   10:39:10.149.02-Jan-2020 4788.22 6146.22 85.59 1.00 326.48 2776.61
   10:39:10.349.02-Jan-2020 4788.22 6144.16 85.59 1.00 326.68 2776.61
   10:39:10.549.02-Jan-2020 4788.22 6143.48 85.59 1.00 326.88 2776.61
   10:39:10.749.02-Jan-2020 4788.22 6142.15 85.59 1.00 327.08 2776.61
   10:39:10.949.02-Jan-2020 4788.22 6142.15 85.59 1.00 327.28 2776.61
   10:39:11.149.02-Jan-2020 4788.22 6150.20 85.59 1.00 327.48 2776.61
   10:39:11.349.02-Jan-2020 4788.22 6147.64 85.59 1.00 327.68 2776.61
   10:39:11.549.02-Jan-2020 4788.22 6143.24 85.59 1.00 327.88 2776.61
   10:39:11.750.02-Jan-2020 4788.22 6143.24 85.59 1.00 328.08 2776.61
   10:39:11.950.02-Jan-2020 4788.22 6143.24 85.59 1.00 328.28 2776.61
   10:39:12.150.02-Jan-2020 4788.22 6143.13 85.59 1.00 328.48 2776.61
   10:39:12.350.02-Jan-2020 4788.22 6143.98 85.59 1.00 328.68 2776.61
   10:39:12.550.02-Jan-2020 4788.22 6151.24 85.59 1.00 328.88 2776.61
   10:39:12.750.02-Jan-2020 4788.22 6147.77 85.59 1.00 329.08 2776.61
   10:39:12.950.02-Jan-2020 4788.22 6147.77 85.59 1.00 329.28 2776.61
   10:39:13.150.02-Jan-2020 4788.22 6142.82 85.59 1.00 329.48 2776.61
   10:39:13.350.02-Jan-2020 4788.22 6142.26 85.59 1.00 329.68 2776.61
   10:39:13.550.02-Jan-2020 4788.22 6142.33 85.59 1.00 329.88 2776.61
   10:39:13.750.02-Jan-2020 4788.22 6143.89 85.59 1.00 330.08 2776.61
   10:39:13.950.02-Jan-2020 4788.22 6143.89 85.59 1.00 330.28 2776.61
   10:39:14.150.02-Jan-2020 4788.22 6149.54 85.59 1.00 330.48 2776.61
   10:39:14.350.02-Jan-2020 4788.22 6144.07 85.59 1.00 330.68 2776.61
   10:39:14.550.02-Jan-2020 4788.22 6147.55 85.59 1.00 330.88 2776.61
   10:39:14.750.02-Jan-2020 4788.22 6148.13 85.58 1.00 331.08 2776.61
   10:39:14.950.02-Jan-2020 4788.22 6148.13 85.58 1.00 331.28 2776.61
   10:39:15.150.02-Jan-2020 4788.22 6143.69 85.58 1.00 331.48 2776.61
   10:39:15.350.02-Jan-2020 4788.22 6144.58 85.58 1.00 331.68 2776.61
   10:39:15.550.02-Jan-2020 4788.22 6152.08 85.58 1.00 331.88 2776.61
   10:39:15.750.02-Jan-2020 4788.22 6144.62 85.58 1.00 332.08 2776.61
   10:39:15.951.02-Jan-2020 4788.22 6144.62 85.58 1.00 332.28 2776.61
   10:39:16.151.02-Jan-2020 4788.22 6141.93 85.58 1.00 332.48 2776.61
   10:39:16.351.02-Jan-2020 4788.22 6148.26 85.58 1.00 332.68 2776.61
   10:39:16.551.02-Jan-2020 4788.22 6145.80 85.58 1.00 332.88 2776.61
   10:39:16.751.02-Jan-2020 4788.22 6143.21 85.58 1.00 333.08 2776.61
   10:39:16.951.02-Jan-2020 4788.22 6143.21 85.58 1.00 333.28 2776.61
   10:39:17.151.02-Jan-2020 4788.22 6142.29 85.58 1.00 333.48 2776.61
   10:39:17.351.02-Jan-2020 4788.22 6141.29 85.58 1.00 333.68 2776.61
   10:39:17.551.02-Jan-2020 4788.22 6142.10 85.58 1.00 333.88 2776.61
   10:39:17.751.02-Jan-2020 4788.22 6143.20 85.58 1.00 334.08 2776.61
   10:39:17.951.02-Jan-2020 4788.22 6143.20 85.58 1.00 334.28 2776.61
   10:39:18.151.02-Jan-2020 4788.22 6145.74 85.58 1.00 334.48 2776.61
   10:39:18.351.02-Jan-2020 4788.22 6143.10 85.58 1.00 334.68 2776.61
   10:39:18.551.02-Jan-2020 4788.22 6143.78 85.58 1.00 334.88 2776.61
   10:39:18.751.02-Jan-2020 4788.22 6147.69 85.58 1.00 335.08 2776.61
   10:39:18.951.02-Jan-2020 4788.22 6147.69 85.58 1.00 335.28 2776.61
   10:39:19.151.02-Jan-2020 4788.22 6145.13 85.58 1.00 335.48 2776.61
   10:39:19.351.02-Jan-2020 4788.22 6143.61 85.58 1.00 335.68 2776.61
   10:39:19.551.02-Jan-2020 4788.22 6150.93 85.58 1.00 335.88 2776.61
   10:39:19.751.02-Jan-2020 4788.22 6147.61 85.58 1.00 336.08 2776.61
   10:39:19.951.02-Jan-2020 4788.22 6147.61 85.58 1.00 336.28 2776.61
   10:39:20.151.02-Jan-2020 4788.22 6153.15 85.58 1.00 336.48 2776.61
   10:39:20.352.02-Jan-2020 4788.22 6146.85 85.58 1.00 336.68 2776.61
   10:39:20.552.02-Jan-2020 4788.22 6143.20 85.58 1.00 336.88 2776.61
   10:39:20.752.02-Jan-2020 4788.22 6142.94 85.58 1.00 337.08 2776.61
   10:39:20.952.02-Jan-2020 4788.22 6142.94 85.58 1.00 337.28 2776.61
   10:39:21.152.02-Jan-2020 4788.22 6143.84 85.58 1.00 337.48 2776.61
   10:39:21.352.02-Jan-2020 4788.22 6141.57 85.58 1.00 337.68 2776.61
   10:39:21.552.02-Jan-2020 4788.22 6141.83 85.58 1.00 337.88 2776.61
   10:39:21.752.02-Jan-2020 4788.22 6141.13 85.58 1.00 338.08 2776.61
   10:39:21.952.02-Jan-2020 4788.22 6141.13 85.58 1.00 338.28 2776.61
   10:39:22.152.02-Jan-2020 4788.22 6144.54 85.58 1.00 338.48 2776.61
   10:39:22.352.02-Jan-2020 4788.22 6142.94 85.58 1.00 338.68 2776.61
   10:39:22.552.02-Jan-2020 4788.22 6146.38 85.58 1.00 338.88 2776.61
   10:39:22.752.02-Jan-2020 4788.22 6147.61 85.58 1.00 339.08 2776.61
   10:39:22.952.02-Jan-2020 4788.22 6147.61 85.58 1.00 339.28 2776.61
   10:39:23.152.02-Jan-2020 4788.22 6142.72 85.58 1.00 339.48 2776.61
   10:39:23.352.02-Jan-2020 4788.22 6143.42 85.58 1.00 339.68 2776.61
   10:39:23.552.02-Jan-2020 4788.22 6142.81 85.58 1.00 339.88 2776.61
   10:39:23.752.02-Jan-2020 4788.22 6143.04 85.58 1.00 340.08 2776.61
   10:39:23.952.02-Jan-2020 4788.22 6143.04 85.58 1.00 340.28 2776.61
   10:39:24.152.02-Jan-2020 4788.22 6145.05 85.58 1.00 340.48 2776.61
   10:39:24.352.02-Jan-2020 4788.22 6153.00 85.58 1.00 340.68 2776.61
   10:39:24.553.02-Jan-2020 4788.22 6146.33 85.58 1.00 340.88 2776.61
   10:39:24.753.02-Jan-2020 4788.22 6143.93 85.58 1.00 341.08 2776.61
   10:39:24.953.02-Jan-2020 4788.22 6143.93 85.58 1.00 341.28 2776.61
   10:39:25.153.02-Jan-2020 4788.22 6143.25 85.58 1.00 341.48 2776.61
   10:39:25.353.02-Jan-2020 4788.22 6142.22 85.58 1.00 341.68 2776.61
   10:39:25.553.02-Jan-2020 4788.22 6142.71 85.58 1.00 341.88 2776.61
   10:39:25.753.02-Jan-2020 4788.22 6149.98 85.58 1.00 342.08 2776.61
   10:39:25.953.02-Jan-2020 4788.22 6149.98 85.58 1.00 342.28 2776.61
   10:39:26.153.02-Jan-2020 4788.22 6143.25 85.58 1.00 342.48 2776.61
   10:39:26.353.02-Jan-2020 4788.22 6143.36 85.58 1.00 342.68 2776.61
   10:39:26.553.02-Jan-2020 4788.22 6143.01 85.58 1.00 342.88 2776.61
   10:39:26.753.02-Jan-2020 4788.22 6143.44 85.58 1.00 343.08 2776.61
   10:39:26.953.02-Jan-2020 4788.22 6143.44 85.58 1.00 343.28 2776.61
   10:39:27.153.02-Jan-2020 4788.22 6151.04 85.58 1.00 343.48 2776.61
   10:39:27.353.02-Jan-2020 4788.22 6147.68 85.58 1.00 343.68 2776.61
   10:39:27.553.02-Jan-2020 4788.22 6143.09 85.58 1.00 343.88 2776.61
   10:39:27.753.02-Jan-2020 4788.22 6143.46 85.58 1.00 344.08 2776.61
   10:39:27.953.02-Jan-2020 4788.22 6143.46 85.58 1.00 344.28 2776.61
   10:39:28.153.02-Jan-2020 4788.22 6143.32 85.58 1.00 344.48 2776.61
   10:39:28.353.02-Jan-2020 4788.22 6145.31 85.58 1.00 344.68 2776.61
   10:39:28.553.02-Jan-2020 4788.22 6152.94 85.58 1.00 344.88 2776.61
