~Version Information
 VERS.                  2.0:   CWLS log ASCII Standard -VERSION 2.0
 WRAP.                   NO:   One line per depth step
~Well Information Block
#MNEM.UNIT     VALUE/NAME     DESCRIPTION
#---------     -----------    ---------------------------
 STRT.S             13:01:02 02-Jan-20: START TIME 13:01:02 02-Jan-20
 STOP.S             13:09:15 02-Jan-20: STOP TIME  13:09:15 02-Jan-20
 STEP.S                   0.00: STEP TIME
 NULL.                 -999.25: NULL VALUE
 MDS .        Operator Entered:  MAG DATA SOURCE
 UNIT.                     N/a:  LOGGING EQUIPMENT ID
 DCON.         Sperry Drilling:  DIRECTNL CONTR
 CNTY.                    Baku:  COUNTY NAME
 DOE .                     N/a:  DOE NUMBER
 RIG .                     DWG:  RIG NAME
 MWDS.                    Baku:  MWD SHOP
 REGN.                   EESSA:  REGION
 BASE.              Azerbaijan:  LOGGING EQUIPMENT BASE LOCATION
 UWI .                     N/a:  UNIQUE WELL IDENTIFIER
 API .                     N/a:  API NUMBER
 WTYP.                Deviated:  WELL TYPE
 COMP.     BP Exploration (Caspian Sea) Ltd.:  COMPANY
 SRVC.          TURAN DRILLING:  CONTRACTOR
 WELL.           E04 (Slot 23):  WELL NAME
 CTRY.              Azerbaijan:  COUNTRY NAME
 SON .        AZ-XX-0905715376:  JOB NUMBER
 FLD .                     ACG:  FIELD NAME
 PDAT.          Mean Sea Level:  PERMANENT DATUM
 FTOP.          Formation Tops:  FORM TOPS DESC
 ILTD.               Lithology:  INTERP LTH DESC
 SVYD.                  Survey:  SURVEY DESC
 DMOD.             Drill Model:  DRILL MOD DESC
 HPTY.       Minimum Curvature:  HOLE POS TYPE
 NREF.                    Grid:  NORTH REFERENCE
 SPUD.               21-Dec-19:  SPUD DATE
 DATE.      17.57.20 21-Dec-19:  END TIME
 STIM.      17.57.20 21-Dec-19:  START TIME
 DMF .             Drill Floor:  DRILL MEAS FROM
 DFST.                        :  DIST FSL TEXT
 DFWT.                        :  DIST FWL TEXT
 PROV.                        :  PROVINCE
 STAT.                        :  STATE
 LOC .                        :  LOCATION
 LMF .             Drill Floor:  LOG MEASURED FROM
 AGAP.m                  43.16:  AIR GAP
 DEP .m                3172.61:  DEPTH
 APD .m                  43.16:  DEPTH ABOVE PD
 WDMS.m                 176.20:  WD ELEV
 EGL .m                   0.00:  GROUND ELEVATION
 EPD .m                   0.00:  ELEVATION
 AZTC.deg                 6.49:  AZM TOTAL CORR
 GRDC.deg                 0.09:  GRID CORRECTION
 MDEC.deg                 6.58:  MAGNETIC DECL
 MDIP.deg                59.61:  MAGNETIC DIP
 MFLD.nT              50294.00:  MAGNETIC FIELD
 GVFD.g                   1.00:  GRAVITY FIELD
 VSDR.deg               235.12:  VERT SEC DIRECT
 TDD .m                   0.00:  TOTAL DEPTH (DRILLER)
 SDEP.m                   0.00:  START DEPTH
 UTMY.m             4448627.46:  UTM Y
 UTMX.m              514337.95:  UTM X
 LONG.deg                51.17:  LONGITUDE
 LATI.deg                40.17:  LATITUDE
 TVDS.m                  43.16:  TVDSS CORRECTN
 WHEW.m                  -5.41:  WELL HEAD E/W
 WHNS.m                  -0.12:  WELL HEAD N/S
 VSEW.m                  -5.41:  VERT SEC E/W
 VSNS.m                  -0.12:  VERT SEC N/S
 EKB .m                  43.16:  KB ELEVATION
 EDF .m                  43.16:  DF ELEVATION
 MAGU.                 1852276:  MAGUTM CHECKSUM
 VSC .                       0:  VS TO CLOSURE
~Parameter Information Block
#MNEM.UNIT       Value        Description
#---------     -----------    ---------------------------
 TCS .hr                125.29:  Time Ciculation Ended 
 DD1 .      Fakhraddin Guliyev:  Direct Drillr 1 
 DD2 .                   Sanan:  Direct Drillr 2 
 DEFF.%                   0.00:  % Det Eff 
 DRET.      04.26.40 27-Dec-19:  Drill End Time 
 DRST.      04.26.40 27-Dec-19:  Drill Start Tim 
 DTIM.hr                 80.10:  Time Drilling 
 EDEP.m                   0.00:  End Depth 
 ENG1.            Adlet Omarov:  Engineer 1 
 ENG2.         Almaz Almadatov:  Engineer 2 
 ETIM.      04.26.40 27-Dec-19:  End Time 
 HFLO.                      No:  High Flow 
 HPRE.                      No:  High Pressure 
 HTEM.                      No:  High Temp 
 HYDO.m                   1.85:  Hydro Offset 
 IMAX.deg                72.09:  Inc Max 
 IMIN.deg                59.07:  Inc Min 
 IMND.m                3901.43:  Inc Min Depth 
 IMXD.m                4753.85:  Inc Max Depth 
 LETM.      04.26.40 27-Dec-19:  Log End Time 
 LSTM.      04.26.40 27-Dec-19:  Log Start Time 
 OTIM.hr                187.88:  Time Operating 
 PMAX.psia            10202.94:  Press Op, Max 
 RUN .                     300:  Run Number 
 RRUN.                    0300:  Rig Run Number 
 SDEP.m                   0.00:  Start Depth 
 STIM.      04.26.40 27-Dec-19:  Start Time 
 SVER.                    9.20:  Sperry Version 
 MRT .                    HCIM:  Maximum Recorded Temperature 
 TTMX.degC               96.08:  Max Tool Temp 
~Curve Information Block
#MNEM.UNIT                 API CODE     Curve Description
#---------               -----------    ---------------------------
 TIME.HHMMSS            00 000 000 000:  GT Time & Date
 GTDEPTH.m              00 000 000 000:  GT Depth
 GTPQH.psia             00 000 000 000:  GT HR Quartz Pressure
 GTTQ.degC              00 000 000 000:  GT Quartz Temperature
 GTTN.NONE              00 000 000 000:  GT Test Number
 GTET.sec               00 000 000 000:  GT Elapsed Test Time
 GTTVD.m                00 000 000 000:  GT True Vertical Depth
#Other Information
#
#WARRANTY: Halliburton will use its best efforts to furnish customers with 
#accurate information and interpretations that are part of, and incident to, the services 
#provided.  However, Halliburton cannot and does not warrant the accuracy 
#or correctness of such information and interpretations.  Under no circumstances should any 
#such information or interpretation be relied upon as the sole basis for any drilling, 
#completion, production, or financial decision or any procedure involving any risk to the 
#safety of any drilling venture, drilling rig or its crew or any other third party.  The 
#Customer has full responsibility for all drilling, completion and production operation.  
#Halliburton makes no representations or warranties, either expressed or 
#implied, including, but not limited to, the implied warranties of merchantability or fitness 
#for a particular purpose, with respect to the services rendered.  In no event will 
#Halliburton be liable for failure to obtain any particular results or for 
#any damages, including, but not limited to, indirect, special or consequential damages, 
#resulting from the use of any information or interpretation provided by Halliburton.
#
~A           TIME           GTDEPTH  GTPQH  GTTQ  GTTN  GTET   GTTVD  
# ...
   13:06:01.115.02-Jan-2020 4774.33 4707.73 83.88 3.00 299.01 2772.29
   13:06:01.315.02-Jan-2020 4774.33 4707.73 83.88 3.00 299.21 2772.29
   13:06:01.515.02-Jan-2020 4774.33 4707.72 83.88 3.00 299.41 2772.29
   13:06:01.715.02-Jan-2020 4774.33 4707.08 83.88 3.00 299.61 2772.29
   13:06:01.915.02-Jan-2020 4774.33 4706.71 83.88 3.00 299.81 2772.29
   13:06:02.115.02-Jan-2020 4774.33 4708.05 83.88 3.00 300.01 2772.29
   13:06:02.315.02-Jan-2020 4774.33 4708.05 83.88 3.00 300.21 2772.29
   13:06:02.515.02-Jan-2020 4774.33 4706.32 83.88 3.00 300.41 2772.29
   13:06:02.715.02-Jan-2020 4774.33 4707.86 83.88 3.00 300.61 2772.29
   13:06:02.915.02-Jan-2020 4774.33 4707.75 83.88 3.00 300.81 2772.29
   13:06:03.115.02-Jan-2020 4774.33 4707.77 83.88 3.00 301.01 2772.29
   13:06:03.315.02-Jan-2020 4774.33 4707.77 83.88 3.00 301.21 2772.29
   13:06:03.515.02-Jan-2020 4774.33 4707.93 83.88 3.00 301.41 2772.29
   13:06:03.715.02-Jan-2020 4774.33 4707.69 83.88 3.00 301.61 2772.29
   13:06:03.915.02-Jan-2020 4774.33 4707.78 83.88 3.00 301.81 2772.29
   13:06:04.115.02-Jan-2020 4774.33 4707.68 83.88 3.00 302.01 2772.29
   13:06:04.315.02-Jan-2020 4774.33 4707.68 83.88 3.00 302.21 2772.29
   13:06:04.515.02-Jan-2020 4774.33 4707.58 83.88 3.00 302.41 2772.29
   13:06:04.715.02-Jan-2020 4774.33 4707.55 83.88 3.00 302.61 2772.29
   13:06:04.915.02-Jan-2020 4774.33 4706.14 83.88 3.00 302.81 2772.29
   13:06:05.115.02-Jan-2020 4774.33 4707.88 83.88 3.00 303.01 2772.29
   13:06:05.315.02-Jan-2020 4774.33 4707.88 83.88 3.00 303.21 2772.29
   13:06:05.515.02-Jan-2020 4774.33 4707.86 83.88 3.00 303.41 2772.29
   13:06:05.715.02-Jan-2020 4774.33 4707.65 83.88 3.00 303.61 2772.29
   13:06:05.915.02-Jan-2020 4774.33 4707.58 83.88 3.00 303.81 2772.29
   13:06:06.115.02-Jan-2020 4774.33 4707.11 83.88 3.00 304.01 2772.29
   13:06:06.315.02-Jan-2020 4774.33 4707.11 83.88 3.00 304.21 2772.29
   13:06:06.516.02-Jan-2020 4774.33 4708.19 83.88 3.00 304.41 2772.29
   13:06:06.716.02-Jan-2020 4774.33 4707.79 83.88 3.00 304.61 2772.29
   13:06:06.916.02-Jan-2020 4774.33 4707.65 83.88 3.00 304.81 2772.29
   13:06:07.116.02-Jan-2020 4774.33 4707.62 83.88 3.00 305.01 2772.29
   13:06:07.316.02-Jan-2020 4774.33 4707.62 83.88 3.00 305.21 2772.29
   13:06:07.516.02-Jan-2020 4774.33 4708.05 83.88 3.00 305.41 2772.29
   13:06:07.716.02-Jan-2020 4774.33 4707.86 83.87 3.00 305.61 2772.29
   13:06:07.916.02-Jan-2020 4774.33 4707.80 83.87 3.00 305.81 2772.29
   13:06:08.116.02-Jan-2020 4774.33 4707.63 83.87 3.00 306.01 2772.29
   13:06:08.316.02-Jan-2020 4774.33 4707.63 83.87 3.00 306.21 2772.29
   13:06:08.516.02-Jan-2020 4774.33 4707.80 83.87 3.00 306.41 2772.29
   13:06:08.716.02-Jan-2020 4774.33 4707.95 83.87 3.00 306.61 2772.29
   13:06:08.916.02-Jan-2020 4774.33 4707.83 83.87 3.00 306.81 2772.29
   13:06:09.116.02-Jan-2020 4774.33 4707.16 83.87 3.00 307.02 2772.29
   13:06:09.316.02-Jan-2020 4774.33 4707.16 83.87 3.00 307.22 2772.29
   13:06:09.516.02-Jan-2020 4774.33 4708.18 83.87 3.00 307.42 2772.29
   13:06:09.716.02-Jan-2020 4774.33 4707.75 83.87 3.00 307.62 2772.29
   13:06:09.916.02-Jan-2020 4774.33 4706.41 83.87 3.00 307.82 2772.29
   13:06:10.116.02-Jan-2020 4774.33 4707.95 83.87 3.00 308.02 2772.29
   13:06:10.316.02-Jan-2020 4774.33 4707.95 83.87 3.00 308.22 2772.29
   13:06:10.516.02-Jan-2020 4774.33 4707.85 83.87 3.00 308.42 2772.29
   13:06:10.716.02-Jan-2020 4774.33 4706.48 83.87 3.00 308.62 2772.29
   13:06:10.916.02-Jan-2020 4774.33 4707.95 83.87 3.00 308.82 2772.29
   13:06:11.116.02-Jan-2020 4774.33 4707.78 83.87 3.00 309.02 2772.29
   13:06:11.316.02-Jan-2020 4774.33 4707.78 83.87 3.00 309.22 2772.29
   13:06:11.516.02-Jan-2020 4774.33 4707.81 83.87 3.00 309.42 2772.29
   13:06:11.716.02-Jan-2020 4774.33 4707.68 83.87 3.00 309.62 2772.29
   13:06:11.916.02-Jan-2020 4774.33 4707.66 83.87 3.00 309.82 2772.29
   13:06:12.116.02-Jan-2020 4774.33 4707.67 83.87 3.00 310.02 2772.29
   13:06:12.316.02-Jan-2020 4774.33 4707.67 83.87 3.00 310.22 2772.29
   13:06:12.516.02-Jan-2020 4774.33 4707.93 83.87 3.00 310.42 2772.29
   13:06:12.716.02-Jan-2020 4774.33 4708.05 83.87 3.00 310.62 2772.29
   13:06:12.916.02-Jan-2020 4774.33 4707.88 83.87 3.00 310.82 2772.29
   13:06:13.116.02-Jan-2020 4774.33 4707.69 83.87 3.00 311.02 2772.29
   13:06:13.316.02-Jan-2020 4774.33 4707.69 83.87 3.00 311.22 2772.29
   13:06:13.516.02-Jan-2020 4774.33 4707.15 83.87 3.00 311.42 2772.29
   13:06:13.716.02-Jan-2020 4774.33 4706.88 83.87 3.00 311.62 2772.29
   13:06:13.916.02-Jan-2020 4774.33 4708.24 83.87 3.00 311.82 2772.29
   13:06:14.116.02-Jan-2020 4774.33 4707.80 83.87 3.00 312.02 2772.29
   13:06:14.316.02-Jan-2020 4774.33 4707.80 83.87 3.00 312.22 2772.29
   13:06:14.516.02-Jan-2020 4774.33 4707.64 83.87 3.00 312.42 2772.29
   13:06:14.716.02-Jan-2020 4774.33 4706.46 83.87 3.00 312.62 2772.29
   13:06:14.916.02-Jan-2020 4774.33 4708.06 83.87 3.00 312.82 2772.29
   13:06:15.116.02-Jan-2020 4774.33 4707.85 83.87 3.00 313.02 2772.29
   13:06:15.316.02-Jan-2020 4774.33 4707.85 83.87 3.00 313.22 2772.29
   13:06:15.516.02-Jan-2020 4774.33 4707.71 83.87 3.00 313.42 2772.29
   13:06:15.716.02-Jan-2020 4774.33 4706.20 83.87 3.00 313.62 2772.29
   13:06:15.916.02-Jan-2020 4774.33 4707.88 83.87 3.00 313.82 2772.29
   13:06:16.116.02-Jan-2020 4774.33 4708.00 83.87 3.00 314.02 2772.29
   13:06:16.316.02-Jan-2020 4774.33 4708.00 83.87 3.00 314.22 2772.29
   13:06:16.516.02-Jan-2020 4774.33 4707.23 83.87 3.00 314.42 2772.29
   13:06:16.716.02-Jan-2020 4774.33 4671.52 83.87 3.00 314.62 2772.29
   13:06:16.916.02-Jan-2020 4774.33 4172.74 83.87 3.00 314.82 2772.29
   13:06:17.116.02-Jan-2020 4774.33 3826.67 83.87 3.00 315.02 2772.29
   13:06:17.316.02-Jan-2020 4774.33 3826.67 83.87 3.00 315.22 2772.29
   13:06:17.516.02-Jan-2020 4774.33 3261.21 83.87 3.00 315.42 2772.29
   13:06:17.716.02-Jan-2020 4774.33 2948.84 83.87 3.00 315.62 2772.29
   13:06:17.916.02-Jan-2020 4774.33 2700.36 83.87 3.00 315.82 2772.29
   13:06:18.116.02-Jan-2020 4774.33 2402.47 83.87 3.00 316.02 2772.29
   13:06:18.316.02-Jan-2020 4774.33 2402.47 83.87 3.00 316.22 2772.29
   13:06:18.516.02-Jan-2020 4774.33 2170.63 83.86 3.00 316.42 2772.29
   13:06:18.716.02-Jan-2020 4774.33 1881.49 83.86 3.00 316.62 2772.29
   13:06:18.916.02-Jan-2020 4774.33 1600.37 83.86 3.00 316.82 2772.29
   13:06:19.116.02-Jan-2020 4774.33 1401.95 83.86 3.00 317.02 2772.29
   13:06:19.316.02-Jan-2020 4774.33 1401.95 83.86 3.00 317.22 2772.29
   13:06:19.516.02-Jan-2020 4774.33 1157.32 83.85 3.00 317.42 2772.29
   13:06:19.716.02-Jan-2020 4774.33 1022.73 83.85 3.00 317.62 2772.29
   13:06:19.916.02-Jan-2020 4774.33 1102.57 83.85 3.00 317.82 2772.29
   13:06:20.116.02-Jan-2020 4774.33  988.62 83.85 3.00 318.02 2772.29
   13:06:20.316.02-Jan-2020 4774.33  988.62 83.85 3.00 318.22 2772.29
   13:06:20.516.02-Jan-2020 4774.33  762.99 83.84 3.00 318.42 2772.29
   13:06:20.716.02-Jan-2020 4774.33  739.30 83.84 3.00 318.62 2772.29
   13:06:20.916.02-Jan-2020 4774.33  633.07 83.84 3.00 318.82 2772.29
   13:06:21.116.02-Jan-2020 4774.33  600.95 83.83 3.00 319.02 2772.29
   13:06:21.316.02-Jan-2020 4774.33  600.95 83.83 3.00 319.22 2772.29
   13:06:21.516.02-Jan-2020 4774.33  597.91 83.83 3.00 319.42 2772.29
   13:06:21.716.02-Jan-2020 4774.33  655.61 83.82 3.00 319.62 2772.29
   13:06:21.916.02-Jan-2020 4774.33  763.02 83.82 3.00 319.82 2772.29
   13:06:22.116.02-Jan-2020 4774.33 1000.84 83.82 3.00 320.02 2772.29
   13:06:22.316.02-Jan-2020 4774.33 1000.84 83.82 3.00 320.22 2772.29
   13:06:22.516.02-Jan-2020 4774.33 1485.82 83.81 3.00 320.42 2772.29
   13:06:22.716.02-Jan-2020 4774.33 1293.15 83.81 3.00 320.62 2772.29
   13:06:22.916.02-Jan-2020 4774.33 1108.03 83.81 3.00 320.82 2772.29
   13:06:23.116.02-Jan-2020 4774.33  926.30 83.81 3.00 321.02 2772.29
   13:06:23.316.02-Jan-2020 4774.33  926.30 83.81 3.00 321.22 2772.29
   13:06:23.516.02-Jan-2020 4774.33  984.51 83.80 3.00 321.42 2772.29
   13:06:23.716.02-Jan-2020 4774.33 1214.26 83.80 3.00 321.62 2772.29
   13:06:23.916.02-Jan-2020 4774.33 1312.43 83.80 3.00 321.82 2772.29
