~Version Information
 VERS.                  2.0:   CWLS log ASCII Standard -VERSION 2.0
 WRAP.                   NO:   One line per depth step
~Well Information Block
#MNEM.UNIT     VALUE/NAME     DESCRIPTION
#---------     -----------    ---------------------------
 STRT.S             11:06:01 02-Jan-20: START TIME 11:06:01 02-Jan-20
 STOP.S             11:13:00 02-Jan-20: STOP TIME  11:13:00 02-Jan-20
 STEP.S                   0.00: STEP TIME
 NULL.                 -999.25: NULL VALUE
 MDS .        Operator Entered:  MAG DATA SOURCE
 UNIT.                     N/a:  LOGGING EQUIPMENT ID
 DCON.         Sperry Drilling:  DIRECTNL CONTR
 CNTY.                    Baku:  COUNTY NAME
 DOE .                     N/a:  DOE NUMBER
 RIG .                     DWG:  RIG NAME
 MWDS.                    Baku:  MWD SHOP
 REGN.                   EESSA:  REGION
 BASE.              Azerbaijan:  LOGGING EQUIPMENT BASE LOCATION
 UWI .                     N/a:  UNIQUE WELL IDENTIFIER
 API .                     N/a:  API NUMBER
 WTYP.                Deviated:  WELL TYPE
 COMP.     BP Exploration (Caspian Sea) Ltd.:  COMPANY
 SRVC.          TURAN DRILLING:  CONTRACTOR
 WELL.           E04 (Slot 23):  WELL NAME
 CTRY.              Azerbaijan:  COUNTRY NAME
 SON .        AZ-XX-0905715376:  JOB NUMBER
 FLD .                     ACG:  FIELD NAME
 PDAT.          Mean Sea Level:  PERMANENT DATUM
 FTOP.          Formation Tops:  FORM TOPS DESC
 ILTD.               Lithology:  INTERP LTH DESC
 SVYD.                  Survey:  SURVEY DESC
 DMOD.             Drill Model:  DRILL MOD DESC
 HPTY.       Minimum Curvature:  HOLE POS TYPE
 NREF.                    Grid:  NORTH REFERENCE
 SPUD.               21-Dec-19:  SPUD DATE
 DATE.      17.57.20 21-Dec-19:  END TIME
 STIM.      17.57.20 21-Dec-19:  START TIME
 DMF .             Drill Floor:  DRILL MEAS FROM
 DFST.                        :  DIST FSL TEXT
 DFWT.                        :  DIST FWL TEXT
 PROV.                        :  PROVINCE
 STAT.                        :  STATE
 LOC .                        :  LOCATION
 LMF .             Drill Floor:  LOG MEASURED FROM
 AGAP.m                  43.16:  AIR GAP
 DEP .m                3172.61:  DEPTH
 APD .m                  43.16:  DEPTH ABOVE PD
 WDMS.m                 176.20:  WD ELEV
 EGL .m                   0.00:  GROUND ELEVATION
 EPD .m                   0.00:  ELEVATION
 AZTC.deg                 6.49:  AZM TOTAL CORR
 GRDC.deg                 0.09:  GRID CORRECTION
 MDEC.deg                 6.58:  MAGNETIC DECL
 MDIP.deg                59.61:  MAGNETIC DIP
 MFLD.nT              50294.00:  MAGNETIC FIELD
 GVFD.g                   1.00:  GRAVITY FIELD
 VSDR.deg               235.12:  VERT SEC DIRECT
 TDD .m                   0.00:  TOTAL DEPTH (DRILLER)
 SDEP.m                   0.00:  START DEPTH
 UTMY.m             4448627.46:  UTM Y
 UTMX.m              514337.95:  UTM X
 LONG.deg                51.17:  LONGITUDE
 LATI.deg                40.17:  LATITUDE
 TVDS.m                  43.16:  TVDSS CORRECTN
 WHEW.m                  -5.41:  WELL HEAD E/W
 WHNS.m                  -0.12:  WELL HEAD N/S
 VSEW.m                  -5.41:  VERT SEC E/W
 VSNS.m                  -0.12:  VERT SEC N/S
 EKB .m                  43.16:  KB ELEVATION
 EDF .m                  43.16:  DF ELEVATION
 MAGU.                 1852276:  MAGUTM CHECKSUM
 VSC .                       0:  VS TO CLOSURE
~Parameter Information Block
#MNEM.UNIT       Value        Description
#---------     -----------    ---------------------------
 TCS .hr                125.29:  Time Ciculation Ended 
 DD1 .      Fakhraddin Guliyev:  Direct Drillr 1 
 DD2 .                   Sanan:  Direct Drillr 2 
 DEFF.%                   0.00:  % Det Eff 
 DRET.      04.26.40 27-Dec-19:  Drill End Time 
 DRST.      04.26.40 27-Dec-19:  Drill Start Tim 
 DTIM.hr                 80.10:  Time Drilling 
 EDEP.m                   0.00:  End Depth 
 ENG1.            Adlet Omarov:  Engineer 1 
 ENG2.         Almaz Almadatov:  Engineer 2 
 ETIM.      04.26.40 27-Dec-19:  End Time 
 HFLO.                      No:  High Flow 
 HPRE.                      No:  High Pressure 
 HTEM.                      No:  High Temp 
 HYDO.m                   1.85:  Hydro Offset 
 IMAX.deg                72.09:  Inc Max 
 IMIN.deg                59.07:  Inc Min 
 IMND.m                3901.43:  Inc Min Depth 
 IMXD.m                4753.85:  Inc Max Depth 
 LETM.      04.26.40 27-Dec-19:  Log End Time 
 LSTM.      04.26.40 27-Dec-19:  Log Start Time 
 OTIM.hr                187.88:  Time Operating 
 PMAX.psia            10202.94:  Press Op, Max 
 RUN .                     300:  Run Number 
 RRUN.                    0300:  Rig Run Number 
 SDEP.m                   0.00:  Start Depth 
 STIM.      04.26.40 27-Dec-19:  Start Time 
 SVER.                    9.20:  Sperry Version 
 MRT .                    HCIM:  Maximum Recorded Temperature 
 TTMX.degC               96.08:  Max Tool Temp 
~Curve Information Block
#MNEM.UNIT                 API CODE     Curve Description
#---------               -----------    ---------------------------
 TIME.HHMMSS            00 000 000 000:  GT Time & Date
 GTDEPTH.m              00 000 000 000:  GT Depth
 GTPQH.psia             00 000 000 000:  GT HR Quartz Pressure
 GTTQ.degC              00 000 000 000:  GT Quartz Temperature
 GTTN.NONE              00 000 000 000:  GT Test Number
 GTET.sec               00 000 000 000:  GT Elapsed Test Time
 GTTVD.m                00 000 000 000:  GT True Vertical Depth
#Other Information
#
#WARRANTY: Halliburton will use its best efforts to furnish customers with 
#accurate information and interpretations that are part of, and incident to, the services 
#provided.  However, Halliburton cannot and does not warrant the accuracy 
#or correctness of such information and interpretations.  Under no circumstances should any 
#such information or interpretation be relied upon as the sole basis for any drilling, 
#completion, production, or financial decision or any procedure involving any risk to the 
#safety of any drilling venture, drilling rig or its crew or any other third party.  The 
#Customer has full responsibility for all drilling, completion and production operation.  
#Halliburton makes no representations or warranties, either expressed or 
#implied, including, but not limited to, the implied warranties of merchantability or fitness 
#for a particular purpose, with respect to the services rendered.  In no event will 
#Halliburton be liable for failure to obtain any particular results or for 
#any damages, including, but not limited to, indirect, special or consequential damages, 
#resulting from the use of any information or interpretation provided by Halliburton.
#
~A           TIME           GTDEPTH  GTPQH  GTTQ  GTTN  GTET   GTTVD  
# ...
   11:09:28.176.02-Jan-2020 4790.04 5128.24 85.11 2.00 207.05 2777.18
   11:09:28.376.02-Jan-2020 4790.04 5128.24 85.11 2.00 207.25 2777.18
   11:09:28.577.02-Jan-2020 4790.04 5127.73 85.11 2.00 207.45 2777.18
   11:09:28.777.02-Jan-2020 4790.04 5127.55 85.11 2.00 207.65 2777.18
   11:09:28.977.02-Jan-2020 4790.04 5127.32 85.11 2.00 207.85 2777.18
   11:09:29.177.02-Jan-2020 4790.04 5125.34 85.11 2.00 208.05 2777.18
   11:09:29.377.02-Jan-2020 4790.04 5125.34 85.11 2.00 208.25 2777.18
   11:09:29.577.02-Jan-2020 4790.04 5126.62 85.11 2.00 208.45 2777.18
   11:09:29.777.02-Jan-2020 4790.04 5126.54 85.11 2.00 208.65 2777.18
   11:09:29.977.02-Jan-2020 4790.04 5126.28 85.11 2.00 208.85 2777.18
   11:09:30.177.02-Jan-2020 4790.04 5124.30 85.11 2.00 209.05 2777.18
   11:09:30.377.02-Jan-2020 4790.04 5124.30 85.11 2.00 209.25 2777.18
   11:09:30.577.02-Jan-2020 4790.04 5125.57 85.11 2.00 209.45 2777.18
   11:09:30.777.02-Jan-2020 4790.04 5125.50 85.11 2.00 209.65 2777.18
   11:09:30.977.02-Jan-2020 4790.04 5125.19 85.11 2.00 209.85 2777.18
   11:09:31.177.02-Jan-2020 4790.04 5124.99 85.11 2.00 210.05 2777.18
   11:09:31.377.02-Jan-2020 4790.04 5124.99 85.11 2.00 210.25 2777.18
   11:09:31.577.02-Jan-2020 4790.04 5123.50 85.11 2.00 210.45 2777.18
   11:09:31.777.02-Jan-2020 4790.04 5124.70 85.11 2.00 210.65 2777.18
   11:09:31.977.02-Jan-2020 4790.04 5124.35 85.11 2.00 210.85 2777.18
   11:09:32.177.02-Jan-2020 4790.04 5145.70 85.11 2.00 211.05 2777.18
   11:09:32.377.02-Jan-2020 4790.04 5145.70 85.11 2.00 211.25 2777.18
   11:09:32.577.02-Jan-2020 4790.04 5569.81 85.11 2.00 211.45 2777.18
   11:09:32.778.02-Jan-2020 4790.04 5567.40 85.11 2.00 211.65 2777.18
   11:09:32.978.02-Jan-2020 4790.04 5566.02 85.12 2.00 211.85 2777.18
   11:09:33.178.02-Jan-2020 4790.04 5562.81 85.12 2.00 212.05 2777.18
   11:09:33.378.02-Jan-2020 4790.04 5562.81 85.12 2.00 212.25 2777.18
   11:09:33.578.02-Jan-2020 4790.04 5562.35 85.12 2.00 212.45 2777.18
   11:09:33.778.02-Jan-2020 4790.04 5561.76 85.12 2.00 212.65 2777.18
   11:09:33.978.02-Jan-2020 4790.04 5561.07 85.12 2.00 212.85 2777.18
   11:09:34.178.02-Jan-2020 4790.04 5560.48 85.12 2.00 213.05 2777.18
   11:09:34.378.02-Jan-2020 4790.04 5560.48 85.12 2.00 213.25 2777.18
   11:09:34.578.02-Jan-2020 4790.04 5559.30 85.12 2.00 213.45 2777.18
   11:09:34.778.02-Jan-2020 4790.04 5558.86 85.12 2.00 213.65 2777.18
   11:09:34.978.02-Jan-2020 4790.04 5557.85 85.12 2.00 213.85 2777.18
   11:09:35.178.02-Jan-2020 4790.04 5556.40 85.12 2.00 214.05 2777.18
   11:09:35.378.02-Jan-2020 4790.04 5556.40 85.12 2.00 214.25 2777.18
   11:09:35.578.02-Jan-2020 4790.04 5557.37 85.12 2.00 214.45 2777.18
   11:09:35.778.02-Jan-2020 4790.04 5556.55 85.12 2.00 214.65 2777.18
   11:09:35.978.02-Jan-2020 4790.04 5556.08 85.12 2.00 214.85 2777.18
   11:09:36.178.02-Jan-2020 4790.04 5555.70 85.12 2.00 215.05 2777.18
   11:09:36.378.02-Jan-2020 4790.04 5555.70 85.12 2.00 215.25 2777.18
   11:09:36.578.02-Jan-2020 4790.04 5555.11 85.12 2.00 215.45 2777.18
   11:09:36.778.02-Jan-2020 4790.04 5552.99 85.12 2.00 215.65 2777.18
   11:09:36.979.02-Jan-2020 4790.04 5554.38 85.12 2.00 215.85 2777.18
   11:09:37.179.02-Jan-2020 4790.04 5553.91 85.12 2.00 216.05 2777.18
   11:09:37.379.02-Jan-2020 4790.04 5553.91 85.12 2.00 216.25 2777.18
   11:09:37.579.02-Jan-2020 4790.04 5569.91 85.12 2.00 216.45 2777.18
   11:09:37.779.02-Jan-2020 4790.04 5569.45 85.12 2.00 216.65 2777.18
   11:09:37.979.02-Jan-2020 4790.04 5567.47 85.12 2.00 216.85 2777.18
   11:09:38.179.02-Jan-2020 4790.04 5568.12 85.12 2.00 217.05 2777.18
   11:09:38.379.02-Jan-2020 4790.04 5568.12 85.12 2.00 217.25 2777.18
   11:09:38.579.02-Jan-2020 4790.04 5567.05 85.12 2.00 217.45 2777.18
   11:09:38.779.02-Jan-2020 4790.04 5565.86 85.12 2.00 217.65 2777.18
   11:09:38.979.02-Jan-2020 4790.04 5566.95 85.12 2.00 217.85 2777.18
   11:09:39.179.02-Jan-2020 4790.04 5566.52 85.12 2.00 218.05 2777.18
   11:09:39.379.02-Jan-2020 4790.04 5566.52 85.12 2.00 218.25 2777.18
   11:09:39.579.02-Jan-2020 4790.04 5565.94 85.12 2.00 218.45 2777.18
   11:09:39.779.02-Jan-2020 4790.04 5563.73 85.12 2.00 218.65 2777.18
   11:09:39.979.02-Jan-2020 4790.04 5565.34 85.12 2.00 218.85 2777.18
   11:09:40.179.02-Jan-2020 4790.04 5564.90 85.12 2.00 219.05 2777.18
   11:09:40.379.02-Jan-2020 4790.04 5564.90 85.12 2.00 219.25 2777.18
   11:09:40.579.02-Jan-2020 4790.04 5563.02 85.12 2.00 219.45 2777.18
   11:09:40.779.02-Jan-2020 4790.04 5564.15 85.12 2.00 219.65 2777.18
   11:09:40.979.02-Jan-2020 4790.04 5563.81 85.12 2.00 219.85 2777.18
   11:09:41.180.02-Jan-2020 4790.04 5563.65 85.12 2.00 220.05 2777.18
   11:09:41.380.02-Jan-2020 4790.04 5563.65 85.12 2.00 220.25 2777.18
   11:09:41.580.02-Jan-2020 4790.04 5562.86 85.12 2.00 220.45 2777.18
   11:09:41.780.02-Jan-2020 4790.04 5562.78 85.12 2.00 220.65 2777.18
   11:09:41.980.02-Jan-2020 4790.04 5562.17 85.12 2.00 220.85 2777.18
   11:09:42.180.02-Jan-2020 4790.04 5561.14 85.12 2.00 221.05 2777.18
   11:09:42.380.02-Jan-2020 4790.04 5561.14 85.12 2.00 221.25 2777.18
   11:09:42.580.02-Jan-2020 4790.04 5561.90 85.12 2.00 221.45 2777.18
   11:09:42.780.02-Jan-2020 4790.04 5561.79 85.12 2.00 221.65 2777.18
   11:09:42.980.02-Jan-2020 4790.04 5561.50 85.12 2.00 221.85 2777.18
   11:09:43.180.02-Jan-2020 4790.04 5561.31 85.12 2.00 222.05 2777.18
   11:09:43.380.02-Jan-2020 4790.04 5561.31 85.12 2.00 222.25 2777.18
   11:09:43.580.02-Jan-2020 4790.04 5560.96 85.12 2.00 222.45 2777.18
   11:09:43.780.02-Jan-2020 4790.04 5559.09 85.12 2.00 222.65 2777.18
   11:09:43.980.02-Jan-2020 4790.04 5560.72 85.12 2.00 222.85 2777.18
   11:09:44.180.02-Jan-2020 4790.04 5560.36 85.12 2.00 223.05 2777.18
   11:09:44.380.02-Jan-2020 4790.04 5560.36 85.12 2.00 223.25 2777.18
   11:09:44.580.02-Jan-2020 4790.04 5558.26 85.12 2.00 223.45 2777.18
   11:09:44.780.02-Jan-2020 4790.04 5560.03 85.12 2.00 223.65 2777.18
   11:09:44.980.02-Jan-2020 4790.04 5559.65 85.12 2.00 223.85 2777.18
   11:09:45.180.02-Jan-2020 4790.04 5559.58 85.12 2.00 224.05 2777.18
   11:09:45.380.02-Jan-2020 4790.04 5559.58 85.12 2.00 224.25 2777.18
   11:09:45.581.02-Jan-2020 4790.04 5557.44 85.12 2.00 224.45 2777.18
   11:09:45.781.02-Jan-2020 4790.04 5559.17 85.12 2.00 224.65 2777.18
   11:09:45.981.02-Jan-2020 4790.04 5558.90 85.12 2.00 224.85 2777.18
   11:09:46.181.02-Jan-2020 4790.04 5558.84 85.12 2.00 225.05 2777.18
   11:09:46.381.02-Jan-2020 4790.04 5558.84 85.12 2.00 225.25 2777.18
   11:09:46.581.02-Jan-2020 4790.04 5558.43 85.12 2.00 225.45 2777.18
   11:09:46.781.02-Jan-2020 4790.04 5556.61 85.12 2.00 225.65 2777.18
   11:09:46.981.02-Jan-2020 4790.04 5558.32 85.12 2.00 225.85 2777.18
   11:09:47.181.02-Jan-2020 4790.04 5557.94 85.12 2.00 226.05 2777.18
   11:09:47.381.02-Jan-2020 4790.04 5557.94 85.12 2.00 226.25 2777.18
   11:09:47.581.02-Jan-2020 4790.04 5555.78 85.12 2.00 226.45 2777.18
   11:09:47.781.02-Jan-2020 4790.04 5557.56 85.12 2.00 226.65 2777.18
   11:09:47.981.02-Jan-2020 4790.04 5557.30 85.12 2.00 226.85 2777.18
   11:09:48.181.02-Jan-2020 4790.04 5557.25 85.12 2.00 227.05 2777.18
   11:09:48.381.02-Jan-2020 4790.04 5557.25 85.12 2.00 227.25 2777.18
   11:09:48.581.02-Jan-2020 4790.04 5557.01 85.12 2.00 227.45 2777.18
   11:09:48.781.02-Jan-2020 4790.04 5556.72 85.12 2.00 227.65 2777.18
   11:09:48.981.02-Jan-2020 4790.04 5555.24 85.12 2.00 227.85 2777.18
   11:09:49.181.02-Jan-2020 4790.04 5556.24 85.12 2.00 228.05 2777.18
   11:09:49.381.02-Jan-2020 4790.04 5556.24 85.12 2.00 228.25 2777.18
   11:09:49.581.02-Jan-2020 4790.04 5556.15 85.12 2.00 228.45 2777.18
   11:09:49.782.02-Jan-2020 4790.04 5555.99 85.12 2.00 228.65 2777.18
   11:09:49.982.02-Jan-2020 4790.04 5555.83 85.12 2.00 228.85 2777.18
   11:09:50.182.02-Jan-2020 4790.04 5555.74 85.12 2.00 229.05 2777.18
   11:09:50.382.02-Jan-2020 4790.04 5555.74 85.12 2.00 229.25 2777.18
   11:09:50.582.02-Jan-2020 4790.04 5555.49 85.12 2.00 229.45 2777.18
   11:09:50.782.02-Jan-2020 4790.04 5553.63 85.12 2.00 229.65 2777.18
   11:09:50.982.02-Jan-2020 4790.04 5555.46 85.12 2.00 229.85 2777.18
