~Version Information
 VERS.                  2.0:   CWLS log ASCII Standard -VERSION 2.0
 WRAP.                   NO:   One line per depth step
~Well Information Block
#MNEM.UNIT     VALUE/NAME     DESCRIPTION
#---------     -----------    ---------------------------
 STRT.S             13:48:18 02-Jan-20: START TIME 13:48:18 02-Jan-20
 STOP.S             13:56:34 02-Jan-20: STOP TIME  13:56:34 02-Jan-20
 STEP.S                   0.00: STEP TIME
 NULL.                 -999.25: NULL VALUE
 MDS .        Operator Entered:  MAG DATA SOURCE
 UNIT.                     N/a:  LOGGING EQUIPMENT ID
 DCON.         Sperry Drilling:  DIRECTNL CONTR
 CNTY.                    Baku:  COUNTY NAME
 DOE .                     N/a:  DOE NUMBER
 RIG .                     DWG:  RIG NAME
 MWDS.                    Baku:  MWD SHOP
 REGN.                   EESSA:  REGION
 BASE.              Azerbaijan:  LOGGING EQUIPMENT BASE LOCATION
 UWI .                     N/a:  UNIQUE WELL IDENTIFIER
 API .                     N/a:  API NUMBER
 WTYP.                Deviated:  WELL TYPE
 COMP.     BP Exploration (Caspian Sea) Ltd.:  COMPANY
 SRVC.          TURAN DRILLING:  CONTRACTOR
 WELL.           E04 (Slot 23):  WELL NAME
 CTRY.              Azerbaijan:  COUNTRY NAME
 SON .        AZ-XX-0905715376:  JOB NUMBER
 FLD .                     ACG:  FIELD NAME
 PDAT.          Mean Sea Level:  PERMANENT DATUM
 FTOP.          Formation Tops:  FORM TOPS DESC
 ILTD.               Lithology:  INTERP LTH DESC
 SVYD.                  Survey:  SURVEY DESC
 DMOD.             Drill Model:  DRILL MOD DESC
 HPTY.       Minimum Curvature:  HOLE POS TYPE
 NREF.                    Grid:  NORTH REFERENCE
 SPUD.               21-Dec-19:  SPUD DATE
 DATE.      17.57.20 21-Dec-19:  END TIME
 STIM.      17.57.20 21-Dec-19:  START TIME
 DMF .             Drill Floor:  DRILL MEAS FROM
 DFST.                        :  DIST FSL TEXT
 DFWT.                        :  DIST FWL TEXT
 PROV.                        :  PROVINCE
 STAT.                        :  STATE
 LOC .                        :  LOCATION
 LMF .             Drill Floor:  LOG MEASURED FROM
 AGAP.m                  43.16:  AIR GAP
 DEP .m                3172.61:  DEPTH
 APD .m                  43.16:  DEPTH ABOVE PD
 WDMS.m                 176.20:  WD ELEV
 EGL .m                   0.00:  GROUND ELEVATION
 EPD .m                   0.00:  ELEVATION
 AZTC.deg                 6.49:  AZM TOTAL CORR
 GRDC.deg                 0.09:  GRID CORRECTION
 MDEC.deg                 6.58:  MAGNETIC DECL
 MDIP.deg                59.61:  MAGNETIC DIP
 MFLD.nT              50294.00:  MAGNETIC FIELD
 GVFD.g                   1.00:  GRAVITY FIELD
 VSDR.deg               235.12:  VERT SEC DIRECT
 TDD .m                   0.00:  TOTAL DEPTH (DRILLER)
 SDEP.m                   0.00:  START DEPTH
 UTMY.m             4448627.46:  UTM Y
 UTMX.m              514337.95:  UTM X
 LONG.deg                51.17:  LONGITUDE
 LATI.deg                40.17:  LATITUDE
 TVDS.m                  43.16:  TVDSS CORRECTN
 WHEW.m                  -5.41:  WELL HEAD E/W
 WHNS.m                  -0.12:  WELL HEAD N/S
 VSEW.m                  -5.41:  VERT SEC E/W
 VSNS.m                  -0.12:  VERT SEC N/S
 EKB .m                  43.16:  KB ELEVATION
 EDF .m                  43.16:  DF ELEVATION
 MAGU.                 1852276:  MAGUTM CHECKSUM
 VSC .                       0:  VS TO CLOSURE
~Parameter Information Block
#MNEM.UNIT       Value        Description
#---------     -----------    ---------------------------
 TCS .hr                125.29:  Time Ciculation Ended 
 DD1 .      Fakhraddin Guliyev:  Direct Drillr 1 
 DD2 .                   Sanan:  Direct Drillr 2 
 DEFF.%                   0.00:  % Det Eff 
 DRET.      04.26.40 27-Dec-19:  Drill End Time 
 DRST.      04.26.40 27-Dec-19:  Drill Start Tim 
 DTIM.hr                 80.10:  Time Drilling 
 EDEP.m                   0.00:  End Depth 
 ENG1.            Adlet Omarov:  Engineer 1 
 ENG2.         Almaz Almadatov:  Engineer 2 
 ETIM.      04.26.40 27-Dec-19:  End Time 
 HFLO.                      No:  High Flow 
 HPRE.                      No:  High Pressure 
 HTEM.                      No:  High Temp 
 HYDO.m                   1.85:  Hydro Offset 
 IMAX.deg                72.09:  Inc Max 
 IMIN.deg                59.07:  Inc Min 
 IMND.m                3901.43:  Inc Min Depth 
 IMXD.m                4753.85:  Inc Max Depth 
 LETM.      04.26.40 27-Dec-19:  Log End Time 
 LSTM.      04.26.40 27-Dec-19:  Log Start Time 
 OTIM.hr                187.88:  Time Operating 
 PMAX.psia            10202.94:  Press Op, Max 
 RUN .                     300:  Run Number 
 RRUN.                    0300:  Rig Run Number 
 SDEP.m                   0.00:  Start Depth 
 STIM.      04.26.40 27-Dec-19:  Start Time 
 SVER.                    9.20:  Sperry Version 
 MRT .                    HCIM:  Maximum Recorded Temperature 
 TTMX.degC               96.08:  Max Tool Temp 
~Curve Information Block
#MNEM.UNIT                 API CODE     Curve Description
#---------               -----------    ---------------------------
 TIME.HHMMSS            00 000 000 000:  GT Time & Date
 GTDEPTH.m              00 000 000 000:  GT Depth
 GTPQH.psia             00 000 000 000:  GT HR Quartz Pressure
 GTTQ.degC              00 000 000 000:  GT Quartz Temperature
 GTTN.NONE              00 000 000 000:  GT Test Number
 GTET.sec               00 000 000 000:  GT Elapsed Test Time
 GTTVD.m                00 000 000 000:  GT True Vertical Depth
#Other Information
#
#WARRANTY: Halliburton will use its best efforts to furnish customers with 
#accurate information and interpretations that are part of, and incident to, the services 
#provided.  However, Halliburton cannot and does not warrant the accuracy 
#or correctness of such information and interpretations.  Under no circumstances should any 
#such information or interpretation be relied upon as the sole basis for any drilling, 
#completion, production, or financial decision or any procedure involving any risk to the 
#safety of any drilling venture, drilling rig or its crew or any other third party.  The 
#Customer has full responsibility for all drilling, completion and production operation.  
#Halliburton makes no representations or warranties, either expressed or 
#implied, including, but not limited to, the implied warranties of merchantability or fitness 
#for a particular purpose, with respect to the services rendered.  In no event will 
#Halliburton be liable for failure to obtain any particular results or for 
#any damages, including, but not limited to, indirect, special or consequential damages, 
#resulting from the use of any information or interpretation provided by Halliburton.
#
~A           TIME           GTDEPTH  GTPQH  GTTQ  GTTN  GTET   GTTVD  
# ...
   13:54:49.258.02-Jan-2020 4773.81 4706.21 83.57 4.00 391.02 2772.13
   13:54:49.458.02-Jan-2020 4773.81 4706.21 83.57 4.00 391.22 2772.13
   13:54:49.658.02-Jan-2020 4773.81 4706.30 83.57 4.00 391.42 2772.13
   13:54:49.858.02-Jan-2020 4773.81 4706.28 83.57 4.00 391.62 2772.13
   13:54:50.058.02-Jan-2020 4773.81 4706.25 83.57 4.00 391.82 2772.13
   13:54:50.258.02-Jan-2020 4773.81 4705.95 83.57 4.00 392.02 2772.13
   13:54:50.458.02-Jan-2020 4773.81 4705.95 83.57 4.00 392.22 2772.13
   13:54:50.658.02-Jan-2020 4773.81 4706.27 83.57 4.00 392.42 2772.13
   13:54:50.858.02-Jan-2020 4773.81 4706.29 83.57 4.00 392.62 2772.13
   13:54:51.058.02-Jan-2020 4773.81 4706.26 83.57 4.00 392.82 2772.13
   13:54:51.258.02-Jan-2020 4773.81 4705.57 83.56 4.00 393.02 2772.13
   13:54:51.458.02-Jan-2020 4773.81 4705.57 83.56 4.00 393.22 2772.13
   13:54:51.658.02-Jan-2020 4773.81 4706.46 83.56 4.00 393.42 2772.13
   13:54:51.858.02-Jan-2020 4773.81 4706.31 83.56 4.00 393.62 2772.13
   13:54:52.058.02-Jan-2020 4773.81 4706.27 83.56 4.00 393.82 2772.13
   13:54:52.258.02-Jan-2020 4773.81 4706.30 83.56 4.00 394.02 2772.13
   13:54:52.459.02-Jan-2020 4773.81 4706.30 83.56 4.00 394.22 2772.13
   13:54:52.659.02-Jan-2020 4773.81 4706.65 83.56 4.00 394.42 2772.13
   13:54:52.859.02-Jan-2020 4773.81 4706.27 83.56 4.00 394.62 2772.13
   13:54:53.059.02-Jan-2020 4773.81 4706.26 83.56 4.00 394.82 2772.13
   13:54:53.259.02-Jan-2020 4773.81 4706.01 83.56 4.00 395.02 2772.13
   13:54:53.459.02-Jan-2020 4773.81 4706.01 83.56 4.00 395.22 2772.13
   13:54:53.659.02-Jan-2020 4773.81 4706.25 83.56 4.00 395.42 2772.13
   13:54:53.859.02-Jan-2020 4773.81 4705.56 83.56 4.00 395.62 2772.13
   13:54:54.059.02-Jan-2020 4773.81 4707.17 83.56 4.00 395.82 2772.13
   13:54:54.259.02-Jan-2020 4773.81 4706.35 83.56 4.00 396.02 2772.13
   13:54:54.459.02-Jan-2020 4773.81 4706.35 83.56 4.00 396.22 2772.13
   13:54:54.659.02-Jan-2020 4773.81 4706.76 83.56 4.00 396.42 2772.13
   13:54:54.859.02-Jan-2020 4773.81 4706.52 83.56 4.00 396.62 2772.13
   13:54:55.059.02-Jan-2020 4773.81 4706.24 83.56 4.00 396.82 2772.13
   13:54:55.259.02-Jan-2020 4773.81 4706.24 83.56 4.00 397.02 2772.13
   13:54:55.459.02-Jan-2020 4773.81 4706.24 83.56 4.00 397.22 2772.13
   13:54:55.659.02-Jan-2020 4773.81 4706.29 83.56 4.00 397.42 2772.13
   13:54:55.859.02-Jan-2020 4773.81 4706.29 83.56 4.00 397.62 2772.13
   13:54:56.059.02-Jan-2020 4773.81 4706.31 83.56 4.00 397.82 2772.13
   13:54:56.259.02-Jan-2020 4773.81 4706.01 83.56 4.00 398.02 2772.13
   13:54:56.459.02-Jan-2020 4773.81 4706.01 83.56 4.00 398.22 2772.13
   13:54:56.659.02-Jan-2020 4773.81 4706.31 83.56 4.00 398.42 2772.13
   13:54:56.859.02-Jan-2020 4773.81 4706.31 83.56 4.00 398.62 2772.13
   13:54:57.059.02-Jan-2020 4773.81 4706.31 83.56 4.00 398.82 2772.13
   13:54:57.259.02-Jan-2020 4773.81 4705.57 83.56 4.00 399.02 2772.13
   13:54:57.459.02-Jan-2020 4773.81 4705.57 83.56 4.00 399.22 2772.13
   13:54:57.659.02-Jan-2020 4773.81 4706.43 83.56 4.00 399.42 2772.13
   13:54:57.859.02-Jan-2020 4773.81 4706.31 83.56 4.00 399.62 2772.13
   13:54:58.059.02-Jan-2020 4773.81 4706.27 83.56 4.00 399.82 2772.13
   13:54:58.259.02-Jan-2020 4773.81 4705.85 83.56 4.00 400.02 2772.13
   13:54:58.459.02-Jan-2020 4773.81 4705.85 83.56 4.00 400.22 2772.13
   13:54:58.659.02-Jan-2020 4773.81 4706.63 83.56 4.00 400.42 2772.13
   13:54:58.859.02-Jan-2020 4773.81 4706.33 83.56 4.00 400.62 2772.13
   13:54:59.059.02-Jan-2020 4773.81 4706.27 83.56 4.00 400.82 2772.13
   13:54:59.259.02-Jan-2020 4773.81 4706.30 83.56 4.00 401.02 2772.13
   13:54:59.459.02-Jan-2020 4773.81 4706.30 83.56 4.00 401.22 2772.13
   13:54:59.659.02-Jan-2020 4773.81 4706.93 83.56 4.00 401.42 2772.13
   13:54:59.859.02-Jan-2020 4773.81 4706.26 83.56 4.00 401.62 2772.13
   13:55:00.059.02-Jan-2020 4773.81 4706.24 83.56 4.00 401.82 2772.13
   13:55:00.259.02-Jan-2020 4773.81 4705.52 83.56 4.00 402.02 2772.13
   13:55:00.459.02-Jan-2020 4773.81 4705.52 83.56 4.00 402.22 2772.13
   13:55:00.659.02-Jan-2020 4773.81 4706.40 83.56 4.00 402.42 2772.13
   13:55:00.859.02-Jan-2020 4773.81 4705.84 83.56 4.00 402.62 2772.13
   13:55:01.059.02-Jan-2020 4773.81 4706.63 83.56 4.00 402.82 2772.13
   13:55:01.259.02-Jan-2020 4773.81 4706.56 83.56 4.00 403.02 2772.13
   13:55:01.459.02-Jan-2020 4773.81 4706.56 83.56 4.00 403.22 2772.13
   13:55:01.659.02-Jan-2020 4773.81 4706.13 83.56 4.00 403.42 2772.13
   13:55:01.859.02-Jan-2020 4773.81 4706.67 83.56 4.00 403.62 2772.13
   13:55:02.059.02-Jan-2020 4773.81 4706.26 83.56 4.00 403.82 2772.13
   13:55:02.259.02-Jan-2020 4773.81 4706.28 83.56 4.00 404.02 2772.13
   13:55:02.459.02-Jan-2020 4773.81 4706.28 83.56 4.00 404.22 2772.13
   13:55:02.659.02-Jan-2020 4773.81 4706.30 83.56 4.00 404.42 2772.13
   13:55:02.859.02-Jan-2020 4773.81 4706.30 83.56 4.00 404.62 2772.13
   13:55:03.059.02-Jan-2020 4773.81 4706.34 83.56 4.00 404.82 2772.13
   13:55:03.259.02-Jan-2020 4773.81 4705.53 83.56 4.00 405.02 2772.13
   13:55:03.459.02-Jan-2020 4773.81 4705.53 83.56 4.00 405.22 2772.13
   13:55:03.659.02-Jan-2020 4773.81 4706.46 83.56 4.00 405.42 2772.13
   13:55:03.859.02-Jan-2020 4773.81 4706.30 83.56 4.00 405.62 2772.13
   13:55:04.059.02-Jan-2020 4773.81 4706.27 83.56 4.00 405.82 2772.13
   13:55:04.259.02-Jan-2020 4773.81 4705.83 83.56 4.00 406.02 2772.13
   13:55:04.459.02-Jan-2020 4773.81 4705.83 83.56 4.00 406.22 2772.13
   13:55:04.659.02-Jan-2020 4773.81 4706.66 83.56 4.00 406.42 2772.13
   13:55:04.859.02-Jan-2020 4773.81 4706.31 83.56 4.00 406.62 2772.13
   13:55:05.059.02-Jan-2020 4773.81 4706.28 83.56 4.00 406.82 2772.13
   13:55:05.259.02-Jan-2020 4773.81 4706.33 83.56 4.00 407.02 2772.13
   13:55:05.459.02-Jan-2020 4773.81 4706.33 83.56 4.00 407.22 2772.13
   13:55:05.659.02-Jan-2020 4773.81 4706.79 83.56 4.00 407.42 2772.13
   13:55:05.859.02-Jan-2020 4773.81 4706.38 83.56 4.00 407.62 2772.13
   13:55:06.059.02-Jan-2020 4773.81 4706.35 83.56 4.00 407.82 2772.13
   13:55:06.259.02-Jan-2020 4773.81 4706.36 83.56 4.00 408.02 2772.13
   13:55:06.459.02-Jan-2020 4773.81 4706.36 83.56 4.00 408.22 2772.13
   13:55:06.659.02-Jan-2020 4773.81 4707.39 83.56 4.00 408.42 2772.13
   13:55:06.859.02-Jan-2020 4773.81 4706.46 83.56 4.00 408.62 2772.13
   13:55:07.059.02-Jan-2020 4773.81 4706.32 83.56 4.00 408.82 2772.13
   13:55:07.259.02-Jan-2020 4773.81 4705.85 83.56 4.00 409.02 2772.13
   13:55:07.459.02-Jan-2020 4773.81 4705.85 83.56 4.00 409.22 2772.13
   13:55:07.659.02-Jan-2020 4773.81 4706.67 83.56 4.00 409.42 2772.13
   13:55:07.859.02-Jan-2020 4773.81 4706.34 83.56 4.00 409.62 2772.13
   13:55:08.059.02-Jan-2020 4773.81 4706.06 83.56 4.00 409.82 2772.13
   13:55:08.259.02-Jan-2020 4773.81 4706.69 83.56 4.00 410.02 2772.13
   13:55:08.459.02-Jan-2020 4773.81 4706.69 83.56 4.00 410.22 2772.13
   13:55:08.659.02-Jan-2020 4773.81 4705.92 83.56 4.00 410.42 2772.13
   13:55:08.859.02-Jan-2020 4773.81 4706.98 83.56 4.00 410.62 2772.13
   13:55:09.059.02-Jan-2020 4773.81 4706.25 83.56 4.00 410.82 2772.13
   13:55:09.259.02-Jan-2020 4773.81 4706.30 83.56 4.00 411.02 2772.13
   13:55:09.459.02-Jan-2020 4773.81 4706.30 83.56 4.00 411.22 2772.13
   13:55:09.659.02-Jan-2020 4773.81 4706.32 83.56 4.00 411.42 2772.13
   13:55:09.859.02-Jan-2020 4773.81 4706.34 83.56 4.00 411.62 2772.13
   13:55:10.059.02-Jan-2020 4773.81 4706.35 83.56 4.00 411.82 2772.13
   13:55:10.259.02-Jan-2020 4773.81 4705.87 83.56 4.00 412.02 2772.13
   13:55:10.459.02-Jan-2020 4773.81 4705.87 83.56 4.00 412.22 2772.13
   13:55:10.659.02-Jan-2020 4773.81 4706.71 83.56 4.00 412.42 2772.13
   13:55:10.859.02-Jan-2020 4773.81 4706.34 83.56 4.00 412.62 2772.13
   13:55:11.059.02-Jan-2020 4773.81 4706.30 83.56 4.00 412.82 2772.13
   13:55:11.259.02-Jan-2020 4773.81 4706.31 83.56 4.00 413.02 2772.13
   13:55:11.459.02-Jan-2020 4773.81 4706.31 83.56 4.00 413.22 2772.13
   13:55:11.659.02-Jan-2020 4773.81 4706.82 83.56 4.00 413.42 2772.13
   13:55:11.859.02-Jan-2020 4773.81 4706.36 83.56 4.00 413.62 2772.13
   13:55:12.059.02-Jan-2020 4773.81 4706.36 83.56 4.00 413.82 2772.13
