~Version Information
 VERS.                  2.0:   CWLS log ASCII Standard -VERSION 2.0
 WRAP.                   NO:   One line per depth step
~Well Information Block
#MNEM.UNIT     VALUE/NAME     DESCRIPTION
#---------     -----------    ---------------------------
 STRT.S             13:48:18 02-Jan-20: START TIME 13:48:18 02-Jan-20
 STOP.S             13:56:34 02-Jan-20: STOP TIME  13:56:34 02-Jan-20
 STEP.S                   0.00: STEP TIME
 NULL.                 -999.25: NULL VALUE
 MDS .        Operator Entered:  MAG DATA SOURCE
 UNIT.                     N/a:  LOGGING EQUIPMENT ID
 DCON.         Sperry Drilling:  DIRECTNL CONTR
 CNTY.                    Baku:  COUNTY NAME
 DOE .                     N/a:  DOE NUMBER
 RIG .                     DWG:  RIG NAME
 MWDS.                    Baku:  MWD SHOP
 REGN.                   EESSA:  REGION
 BASE.              Azerbaijan:  LOGGING EQUIPMENT BASE LOCATION
 UWI .                     N/a:  UNIQUE WELL IDENTIFIER
 API .                     N/a:  API NUMBER
 WTYP.                Deviated:  WELL TYPE
 COMP.     BP Exploration (Caspian Sea) Ltd.:  COMPANY
 SRVC.          TURAN DRILLING:  CONTRACTOR
 WELL.           E04 (Slot 23):  WELL NAME
 CTRY.              Azerbaijan:  COUNTRY NAME
 SON .        AZ-XX-0905715376:  JOB NUMBER
 FLD .                     ACG:  FIELD NAME
 PDAT.          Mean Sea Level:  PERMANENT DATUM
 FTOP.          Formation Tops:  FORM TOPS DESC
 ILTD.               Lithology:  INTERP LTH DESC
 SVYD.                  Survey:  SURVEY DESC
 DMOD.             Drill Model:  DRILL MOD DESC
 HPTY.       Minimum Curvature:  HOLE POS TYPE
 NREF.                    Grid:  NORTH REFERENCE
 SPUD.               21-Dec-19:  SPUD DATE
 DATE.      17.57.20 21-Dec-19:  END TIME
 STIM.      17.57.20 21-Dec-19:  START TIME
 DMF .             Drill Floor:  DRILL MEAS FROM
 DFST.                        :  DIST FSL TEXT
 DFWT.                        :  DIST FWL TEXT
 PROV.                        :  PROVINCE
 STAT.                        :  STATE
 LOC .                        :  LOCATION
 LMF .             Drill Floor:  LOG MEASURED FROM
 AGAP.m                  43.16:  AIR GAP
 DEP .m                3172.61:  DEPTH
 APD .m                  43.16:  DEPTH ABOVE PD
 WDMS.m                 176.20:  WD ELEV
 EGL .m                   0.00:  GROUND ELEVATION
 EPD .m                   0.00:  ELEVATION
 AZTC.deg                 6.49:  AZM TOTAL CORR
 GRDC.deg                 0.09:  GRID CORRECTION
 MDEC.deg                 6.58:  MAGNETIC DECL
 MDIP.deg                59.61:  MAGNETIC DIP
 MFLD.nT              50294.00:  MAGNETIC FIELD
 GVFD.g                   1.00:  GRAVITY FIELD
 VSDR.deg               235.12:  VERT SEC DIRECT
 TDD .m                   0.00:  TOTAL DEPTH (DRILLER)
 SDEP.m                   0.00:  START DEPTH
 UTMY.m             4448627.46:  UTM Y
 UTMX.m              514337.95:  UTM X
 LONG.deg                51.17:  LONGITUDE
 LATI.deg                40.17:  LATITUDE
 TVDS.m                  43.16:  TVDSS CORRECTN
 WHEW.m                  -5.41:  WELL HEAD E/W
 WHNS.m                  -0.12:  WELL HEAD N/S
 VSEW.m                  -5.41:  VERT SEC E/W
 VSNS.m                  -0.12:  VERT SEC N/S
 EKB .m                  43.16:  KB ELEVATION
 EDF .m                  43.16:  DF ELEVATION
 MAGU.                 1852276:  MAGUTM CHECKSUM
 VSC .                       0:  VS TO CLOSURE
~Parameter Information Block
#MNEM.UNIT       Value        Description
#---------     -----------    ---------------------------
 TCS .hr                125.29:  Time Ciculation Ended 
 DD1 .      Fakhraddin Guliyev:  Direct Drillr 1 
 DD2 .                   Sanan:  Direct Drillr 2 
 DEFF.%                   0.00:  % Det Eff 
 DRET.      04.26.40 27-Dec-19:  Drill End Time 
 DRST.      04.26.40 27-Dec-19:  Drill Start Tim 
 DTIM.hr                 80.10:  Time Drilling 
 EDEP.m                   0.00:  End Depth 
 ENG1.            Adlet Omarov:  Engineer 1 
 ENG2.         Almaz Almadatov:  Engineer 2 
 ETIM.      04.26.40 27-Dec-19:  End Time 
 HFLO.                      No:  High Flow 
 HPRE.                      No:  High Pressure 
 HTEM.                      No:  High Temp 
 HYDO.m                   1.85:  Hydro Offset 
 IMAX.deg                72.09:  Inc Max 
 IMIN.deg                59.07:  Inc Min 
 IMND.m                3901.43:  Inc Min Depth 
 IMXD.m                4753.85:  Inc Max Depth 
 LETM.      04.26.40 27-Dec-19:  Log End Time 
 LSTM.      04.26.40 27-Dec-19:  Log Start Time 
 OTIM.hr                187.88:  Time Operating 
 PMAX.psia            10202.94:  Press Op, Max 
 RUN .                     300:  Run Number 
 RRUN.                    0300:  Rig Run Number 
 SDEP.m                   0.00:  Start Depth 
 STIM.      04.26.40 27-Dec-19:  Start Time 
 SVER.                    9.20:  Sperry Version 
 MRT .                    HCIM:  Maximum Recorded Temperature 
 TTMX.degC               96.08:  Max Tool Temp 
~Curve Information Block
#MNEM.UNIT                 API CODE     Curve Description
#---------               -----------    ---------------------------
 TIME.HHMMSS            00 000 000 000:  GT Time & Date
 GTDEPTH.m              00 000 000 000:  GT Depth
 GTPQH.psia             00 000 000 000:  GT HR Quartz Pressure
 GTTQ.degC              00 000 000 000:  GT Quartz Temperature
 GTTN.NONE              00 000 000 000:  GT Test Number
 GTET.sec               00 000 000 000:  GT Elapsed Test Time
 GTTVD.m                00 000 000 000:  GT True Vertical Depth
#Other Information
#
#WARRANTY: Halliburton will use its best efforts to furnish customers with 
#accurate information and interpretations that are part of, and incident to, the services 
#provided.  However, Halliburton cannot and does not warrant the accuracy 
#or correctness of such information and interpretations.  Under no circumstances should any 
#such information or interpretation be relied upon as the sole basis for any drilling, 
#completion, production, or financial decision or any procedure involving any risk to the 
#safety of any drilling venture, drilling rig or its crew or any other third party.  The 
#Customer has full responsibility for all drilling, completion and production operation.  
#Halliburton makes no representations or warranties, either expressed or 
#implied, including, but not limited to, the implied warranties of merchantability or fitness 
#for a particular purpose, with respect to the services rendered.  In no event will 
#Halliburton be liable for failure to obtain any particular results or for 
#any damages, including, but not limited to, indirect, special or consequential damages, 
#resulting from the use of any information or interpretation provided by Halliburton.
#
~A           TIME           GTDEPTH  GTPQH  GTTQ  GTTN  GTET   GTTVD  
# ...
   13:49:27.243.02-Jan-2020 4773.81 3469.66 83.65 4.00  69.00 2772.13
   13:49:27.443.02-Jan-2020 4773.81 3469.66 83.65 4.00  69.20 2772.13
   13:49:27.643.02-Jan-2020 4773.81 3489.05 83.66 4.00  69.40 2772.13
   13:49:27.843.02-Jan-2020 4773.81 3497.76 83.66 4.00  69.60 2772.13
   13:49:28.043.02-Jan-2020 4773.81 3506.57 83.66 4.00  69.80 2772.13
   13:49:28.243.02-Jan-2020 4773.81 3512.93 83.66 4.00  70.00 2772.13
   13:49:28.443.02-Jan-2020 4773.81 3512.93 83.66 4.00  70.20 2772.13
   13:49:28.643.02-Jan-2020 4773.81 3533.76 83.66 4.00  70.40 2772.13
   13:49:28.843.02-Jan-2020 4773.81 3542.86 83.66 4.00  70.60 2772.13
   13:49:29.043.02-Jan-2020 4773.81 3551.89 83.66 4.00  70.80 2772.13
   13:49:29.243.02-Jan-2020 4773.81 3561.05 83.66 4.00  71.00 2772.13
   13:49:29.443.02-Jan-2020 4773.81 3561.05 83.66 4.00  71.20 2772.13
   13:49:29.643.02-Jan-2020 4773.81 3576.13 83.66 4.00  71.40 2772.13
   13:49:29.843.02-Jan-2020 4773.81 3585.54 83.66 4.00  71.60 2772.13
   13:49:30.043.02-Jan-2020 4773.81 3594.81 83.66 4.00  71.80 2772.13
   13:49:30.243.02-Jan-2020 4773.81 3601.48 83.66 4.00  72.00 2772.13
   13:49:30.443.02-Jan-2020 4773.81 3601.48 83.66 4.00  72.20 2772.13
   13:49:30.643.02-Jan-2020 4773.81 3619.87 83.66 4.00  72.40 2772.13
   13:49:30.843.02-Jan-2020 4773.81 3628.80 83.66 4.00  72.60 2772.13
   13:49:31.043.02-Jan-2020 4773.81 3635.33 83.66 4.00  72.80 2772.13
   13:49:31.243.02-Jan-2020 4773.81 3646.22 83.66 4.00  73.00 2772.13
   13:49:31.443.02-Jan-2020 4773.81 3646.22 83.66 4.00  73.20 2772.13
   13:49:31.643.02-Jan-2020 4773.81 3663.83 83.66 4.00  73.40 2772.13
   13:49:31.843.02-Jan-2020 4773.81 3669.47 83.66 4.00  73.60 2772.13
   13:49:32.043.02-Jan-2020 4773.81 3680.14 83.66 4.00  73.80 2772.13
   13:49:32.243.02-Jan-2020 4773.81 3689.03 83.66 4.00  74.00 2772.13
   13:49:32.443.02-Jan-2020 4773.81 3689.03 83.66 4.00  74.20 2772.13
   13:49:32.643.02-Jan-2020 4773.81 3702.78 83.66 4.00  74.40 2772.13
   13:49:32.843.02-Jan-2020 4773.81 3713.68 83.67 4.00  74.60 2772.13
   13:49:33.043.02-Jan-2020 4773.81 3722.70 83.67 4.00  74.80 2772.13
   13:49:33.243.02-Jan-2020 4773.81 3728.60 83.67 4.00  75.00 2772.13
   13:49:33.443.02-Jan-2020 4773.81 3728.60 83.67 4.00  75.20 2772.13
   13:49:33.643.02-Jan-2020 4773.81 3747.69 83.67 4.00  75.40 2772.13
   13:49:33.843.02-Jan-2020 4773.81 3756.49 83.67 4.00  75.60 2772.13
   13:49:34.043.02-Jan-2020 4773.81 3764.44 83.67 4.00  75.80 2772.13
   13:49:34.243.02-Jan-2020 4773.81 3772.20 83.67 4.00  76.00 2772.13
   13:49:34.443.02-Jan-2020 4773.81 3772.20 83.67 4.00  76.20 2772.13
   13:49:34.643.02-Jan-2020 4773.81 3788.27 83.67 4.00  76.40 2772.13
   13:49:34.843.02-Jan-2020 4773.81 3794.58 83.67 4.00  76.60 2772.13
   13:49:35.043.02-Jan-2020 4773.81 3800.44 83.67 4.00  76.80 2772.13
   13:49:35.243.02-Jan-2020 4773.81 3810.37 83.67 4.00  77.00 2772.13
   13:49:35.443.02-Jan-2020 4773.81 3810.37 83.67 4.00  77.20 2772.13
   13:49:35.643.02-Jan-2020 4773.81 3825.65 83.67 4.00  77.40 2772.13
   13:49:35.843.02-Jan-2020 4773.81 3830.46 83.67 4.00  77.60 2772.13
   13:49:36.043.02-Jan-2020 4773.81 3840.37 83.67 4.00  77.80 2772.13
   13:49:36.243.02-Jan-2020 4773.81 3848.32 83.67 4.00  78.00 2772.13
   13:49:36.443.02-Jan-2020 4773.81 3848.32 83.67 4.00  78.20 2772.13
   13:49:36.643.02-Jan-2020 4773.81 3863.07 83.67 4.00  78.40 2772.13
   13:49:36.843.02-Jan-2020 4773.81 3867.51 83.67 4.00  78.60 2772.13
   13:49:37.043.02-Jan-2020 4773.81 3876.25 83.67 4.00  78.80 2772.13
   13:49:37.243.02-Jan-2020 4773.81 3883.95 83.67 4.00  79.00 2772.13
   13:49:37.443.02-Jan-2020 4773.81 3883.95 83.67 4.00  79.20 2772.13
   13:49:37.643.02-Jan-2020 4773.81 3899.21 83.67 4.00  79.40 2772.13
   13:49:37.843.02-Jan-2020 4773.81 3903.16 83.67 4.00  79.60 2772.13
   13:49:38.043.02-Jan-2020 4773.81 3912.89 83.67 4.00  79.80 2772.13
   13:49:38.243.02-Jan-2020 4773.81 3920.91 83.67 4.00  80.00 2772.13
   13:49:38.443.02-Jan-2020 4773.81 3920.91 83.67 4.00  80.20 2772.13
   13:49:38.643.02-Jan-2020 4773.81 3932.64 83.67 4.00  80.40 2772.13
   13:49:38.843.02-Jan-2020 4773.81 3941.69 83.67 4.00  80.60 2772.13
   13:49:39.043.02-Jan-2020 4773.81 3949.30 83.67 4.00  80.80 2772.13
   13:49:39.243.02-Jan-2020 4773.81 3956.85 83.67 4.00  81.00 2772.13
   13:49:39.443.02-Jan-2020 4773.81 3956.85 83.67 4.00  81.20 2772.13
   13:49:39.643.02-Jan-2020 4773.81 3967.62 83.67 4.00  81.40 2772.13
   13:49:39.843.02-Jan-2020 4773.81 3976.31 83.67 4.00  81.60 2772.13
   13:49:40.043.02-Jan-2020 4773.81 3983.38 83.67 4.00  81.80 2772.13
   13:49:40.243.02-Jan-2020 4773.81 3990.31 83.67 4.00  82.00 2772.13
   13:49:40.443.02-Jan-2020 4773.81 3990.31 83.67 4.00  82.20 2772.13
   13:49:40.643.02-Jan-2020 4773.81 4002.81 83.67 4.00  82.40 2772.13
   13:49:40.843.02-Jan-2020 4773.81 4009.80 83.67 4.00  82.60 2772.13
   13:49:41.043.02-Jan-2020 4773.81 4016.70 83.67 4.00  82.80 2772.13
   13:49:41.243.02-Jan-2020 4773.81 4023.36 83.67 4.00  83.00 2772.13
   13:49:41.443.02-Jan-2020 4773.81 4023.36 83.67 4.00  83.20 2772.13
   13:49:41.643.02-Jan-2020 4773.81 4035.83 83.68 4.00  83.40 2772.13
   13:49:41.843.02-Jan-2020 4773.81 4042.29 83.68 4.00  83.60 2772.13
   13:49:42.043.02-Jan-2020 4773.81 4045.33 83.68 4.00  83.80 2772.13
   13:49:42.243.02-Jan-2020 4773.81 4052.61 83.68 4.00  84.00 2772.13
   13:49:42.443.02-Jan-2020 4773.81 4052.61 83.68 4.00  84.20 2772.13
   13:49:42.643.02-Jan-2020 4773.81 4065.38 83.68 4.00  84.40 2772.13
   13:49:42.843.02-Jan-2020 4773.81 4071.72 83.68 4.00  84.60 2772.13
   13:49:43.043.02-Jan-2020 4773.81 4075.62 83.68 4.00  84.80 2772.13
   13:49:43.243.02-Jan-2020 4773.81 4081.20 83.68 4.00  85.00 2772.13
   13:49:43.443.02-Jan-2020 4773.81 4081.20 83.68 4.00  85.20 2772.13
   13:49:43.643.02-Jan-2020 4773.81 4093.91 83.68 4.00  85.40 2772.13
   13:49:43.843.02-Jan-2020 4773.81 4100.12 83.68 4.00  85.60 2772.13
   13:49:44.043.02-Jan-2020 4773.81 4105.63 83.68 4.00  85.80 2772.13
   13:49:44.243.02-Jan-2020 4773.81 4108.51 83.68 4.00  86.00 2772.13
   13:49:44.443.02-Jan-2020 4773.81 4108.51 83.68 4.00  86.20 2772.13
   13:49:44.643.02-Jan-2020 4773.81 4121.84 83.68 4.00  86.40 2772.13
   13:49:44.843.02-Jan-2020 4773.81 4127.73 83.68 4.00  86.60 2772.13
   13:49:45.043.02-Jan-2020 4773.81 4133.39 83.68 4.00  86.80 2772.13
   13:49:45.243.02-Jan-2020 4773.81 4138.38 83.68 4.00  87.00 2772.13
   13:49:45.443.02-Jan-2020 4773.81 4138.38 83.68 4.00  87.20 2772.13
   13:49:45.644.02-Jan-2020 4773.81 4147.85 83.68 4.00  87.40 2772.13
   13:49:45.844.02-Jan-2020 4773.81 4153.40 83.68 4.00  87.60 2772.13
   13:49:46.044.02-Jan-2020 4773.81 4158.47 83.68 4.00  87.80 2772.13
   13:49:46.244.02-Jan-2020 4773.81 4161.53 83.68 4.00  88.00 2772.13
   13:49:46.444.02-Jan-2020 4773.81 4161.53 83.68 4.00  88.20 2772.13
   13:49:46.644.02-Jan-2020 4773.81 4174.17 83.68 4.00  88.40 2772.13
   13:49:46.844.02-Jan-2020 4773.81 4179.76 83.68 4.00  88.60 2772.13
   13:49:47.044.02-Jan-2020 4773.81 4181.69 83.68 4.00  88.80 2772.13
   13:49:47.244.02-Jan-2020 4773.81 4188.56 83.68 4.00  89.00 2772.13
   13:49:47.444.02-Jan-2020 4773.81 4188.56 83.68 4.00  89.20 2772.13
   13:49:47.644.02-Jan-2020 4773.81 4199.54 83.68 4.00  89.40 2772.13
   13:49:47.844.02-Jan-2020 4773.81 4201.63 83.68 4.00  89.60 2772.13
   13:49:48.044.02-Jan-2020 4773.81 4208.38 83.68 4.00  89.80 2772.13
   13:49:48.244.02-Jan-2020 4773.81 4213.85 83.68 4.00  90.00 2772.13
   13:49:48.444.02-Jan-2020 4773.81 4213.85 83.68 4.00  90.20 2772.13
   13:49:48.644.02-Jan-2020 4773.81 4224.47 83.68 4.00  90.40 2772.13
   13:49:48.844.02-Jan-2020 4773.81 4229.41 83.68 4.00  90.60 2772.13
   13:49:49.044.02-Jan-2020 4773.81 4233.80 83.68 4.00  90.80 2772.13
   13:49:49.244.02-Jan-2020 4773.81 4238.72 83.68 4.00  91.00 2772.13
   13:49:49.444.02-Jan-2020 4773.81 4238.72 83.68 4.00  91.20 2772.13
   13:49:49.644.02-Jan-2020 4773.81 4246.36 83.68 4.00  91.40 2772.13
   13:49:49.844.02-Jan-2020 4773.81 4251.46 83.68 4.00  91.60 2772.13
   13:49:50.044.02-Jan-2020 4773.81 4256.47 83.68 4.00  91.80 2772.13
