~Version Information
 VERS.                  2.0:   CWLS log ASCII Standard -VERSION 2.0
 WRAP.                   NO:   One line per depth step
~Well Information Block
#MNEM.UNIT     VALUE/NAME     DESCRIPTION
#---------     -----------    ---------------------------
 STRT.S             13:01:02 02-Jan-20: START TIME 13:01:02 02-Jan-20
 STOP.S             13:09:15 02-Jan-20: STOP TIME  13:09:15 02-Jan-20
 STEP.S                   0.00: STEP TIME
 NULL.                 -999.25: NULL VALUE
 MDS .        Operator Entered:  MAG DATA SOURCE
 UNIT.                     N/a:  LOGGING EQUIPMENT ID
 DCON.         Sperry Drilling:  DIRECTNL CONTR
 CNTY.                    Baku:  COUNTY NAME
 DOE .                     N/a:  DOE NUMBER
 RIG .                     DWG:  RIG NAME
 MWDS.                    Baku:  MWD SHOP
 REGN.                   EESSA:  REGION
 BASE.              Azerbaijan:  LOGGING EQUIPMENT BASE LOCATION
 UWI .                     N/a:  UNIQUE WELL IDENTIFIER
 API .                     N/a:  API NUMBER
 WTYP.                Deviated:  WELL TYPE
 COMP.     BP Exploration (Caspian Sea) Ltd.:  COMPANY
 SRVC.          TURAN DRILLING:  CONTRACTOR
 WELL.           E04 (Slot 23):  WELL NAME
 CTRY.              Azerbaijan:  COUNTRY NAME
 SON .        AZ-XX-0905715376:  JOB NUMBER
 FLD .                     ACG:  FIELD NAME
 PDAT.          Mean Sea Level:  PERMANENT DATUM
 FTOP.          Formation Tops:  FORM TOPS DESC
 ILTD.               Lithology:  INTERP LTH DESC
 SVYD.                  Survey:  SURVEY DESC
 DMOD.             Drill Model:  DRILL MOD DESC
 HPTY.       Minimum Curvature:  HOLE POS TYPE
 NREF.                    Grid:  NORTH REFERENCE
 SPUD.               21-Dec-19:  SPUD DATE
 DATE.      17.57.20 21-Dec-19:  END TIME
 STIM.      17.57.20 21-Dec-19:  START TIME
 DMF .             Drill Floor:  DRILL MEAS FROM
 DFST.                        :  DIST FSL TEXT
 DFWT.                        :  DIST FWL TEXT
 PROV.                        :  PROVINCE
 STAT.                        :  STATE
 LOC .                        :  LOCATION
 LMF .             Drill Floor:  LOG MEASURED FROM
 AGAP.m                  43.16:  AIR GAP
 DEP .m                3172.61:  DEPTH
 APD .m                  43.16:  DEPTH ABOVE PD
 WDMS.m                 176.20:  WD ELEV
 EGL .m                   0.00:  GROUND ELEVATION
 EPD .m                   0.00:  ELEVATION
 AZTC.deg                 6.49:  AZM TOTAL CORR
 GRDC.deg                 0.09:  GRID CORRECTION
 MDEC.deg                 6.58:  MAGNETIC DECL
 MDIP.deg                59.61:  MAGNETIC DIP
 MFLD.nT              50294.00:  MAGNETIC FIELD
 GVFD.g                   1.00:  GRAVITY FIELD
 VSDR.deg               235.12:  VERT SEC DIRECT
 TDD .m                   0.00:  TOTAL DEPTH (DRILLER)
 SDEP.m                   0.00:  START DEPTH
 UTMY.m             4448627.46:  UTM Y
 UTMX.m              514337.95:  UTM X
 LONG.deg                51.17:  LONGITUDE
 LATI.deg                40.17:  LATITUDE
 TVDS.m                  43.16:  TVDSS CORRECTN
 WHEW.m                  -5.41:  WELL HEAD E/W
 WHNS.m                  -0.12:  WELL HEAD N/S
 VSEW.m                  -5.41:  VERT SEC E/W
 VSNS.m                  -0.12:  VERT SEC N/S
 EKB .m                  43.16:  KB ELEVATION
 EDF .m                  43.16:  DF ELEVATION
 MAGU.                 1852276:  MAGUTM CHECKSUM
 VSC .                       0:  VS TO CLOSURE
~Parameter Information Block
#MNEM.UNIT       Value        Description
#---------     -----------    ---------------------------
 TCS .hr                125.29:  Time Ciculation Ended 
 DD1 .      Fakhraddin Guliyev:  Direct Drillr 1 
 DD2 .                   Sanan:  Direct Drillr 2 
 DEFF.%                   0.00:  % Det Eff 
 DRET.      04.26.40 27-Dec-19:  Drill End Time 
 DRST.      04.26.40 27-Dec-19:  Drill Start Tim 
 DTIM.hr                 80.10:  Time Drilling 
 EDEP.m                   0.00:  End Depth 
 ENG1.            Adlet Omarov:  Engineer 1 
 ENG2.         Almaz Almadatov:  Engineer 2 
 ETIM.      04.26.40 27-Dec-19:  End Time 
 HFLO.                      No:  High Flow 
 HPRE.                      No:  High Pressure 
 HTEM.                      No:  High Temp 
 HYDO.m                   1.85:  Hydro Offset 
 IMAX.deg                72.09:  Inc Max 
 IMIN.deg                59.07:  Inc Min 
 IMND.m                3901.43:  Inc Min Depth 
 IMXD.m                4753.85:  Inc Max Depth 
 LETM.      04.26.40 27-Dec-19:  Log End Time 
 LSTM.      04.26.40 27-Dec-19:  Log Start Time 
 OTIM.hr                187.88:  Time Operating 
 PMAX.psia            10202.94:  Press Op, Max 
 RUN .                     300:  Run Number 
 RRUN.                    0300:  Rig Run Number 
 SDEP.m                   0.00:  Start Depth 
 STIM.      04.26.40 27-Dec-19:  Start Time 
 SVER.                    9.20:  Sperry Version 
 MRT .                    HCIM:  Maximum Recorded Temperature 
 TTMX.degC               96.08:  Max Tool Temp 
~Curve Information Block
#MNEM.UNIT                 API CODE     Curve Description
#---------               -----------    ---------------------------
 TIME.HHMMSS            00 000 000 000:  GT Time & Date
 GTDEPTH.m              00 000 000 000:  GT Depth
 GTPQH.psia             00 000 000 000:  GT HR Quartz Pressure
 GTTQ.degC              00 000 000 000:  GT Quartz Temperature
 GTTN.NONE              00 000 000 000:  GT Test Number
 GTET.sec               00 000 000 000:  GT Elapsed Test Time
 GTTVD.m                00 000 000 000:  GT True Vertical Depth
#Other Information
#
#WARRANTY: Halliburton will use its best efforts to furnish customers with 
#accurate information and interpretations that are part of, and incident to, the services 
#provided.  However, Halliburton cannot and does not warrant the accuracy 
#or correctness of such information and interpretations.  Under no circumstances should any 
#such information or interpretation be relied upon as the sole basis for any drilling, 
#completion, production, or financial decision or any procedure involving any risk to the 
#safety of any drilling venture, drilling rig or its crew or any other third party.  The 
#Customer has full responsibility for all drilling, completion and production operation.  
#Halliburton makes no representations or warranties, either expressed or 
#implied, including, but not limited to, the implied warranties of merchantability or fitness 
#for a particular purpose, with respect to the services rendered.  In no event will 
#Halliburton be liable for failure to obtain any particular results or for 
#any damages, including, but not limited to, indirect, special or consequential damages, 
#resulting from the use of any information or interpretation provided by Halliburton.
#
~A           TIME           GTDEPTH  GTPQH  GTTQ  GTTN  GTET   GTTVD  
# ...
   13:03:43.108.02-Jan-2020 4774.33 2520.30 83.91 3.00 161.01 2772.29
   13:03:43.309.02-Jan-2020 4774.33 2520.30 83.91 3.00 161.21 2772.29
   13:03:43.509.02-Jan-2020 4774.33 2520.10 83.91 3.00 161.41 2772.29
   13:03:43.709.02-Jan-2020 4774.33 2520.54 83.91 3.00 161.61 2772.29
   13:03:43.909.02-Jan-2020 4774.33 2520.62 83.91 3.00 161.81 2772.29
   13:03:44.109.02-Jan-2020 4774.33 2518.60 83.91 3.00 162.01 2772.29
   13:03:44.309.02-Jan-2020 4774.33 2518.60 83.91 3.00 162.21 2772.29
   13:03:44.509.02-Jan-2020 4774.33 2524.09 83.91 3.00 162.41 2772.29
   13:03:44.709.02-Jan-2020 4774.33 2525.08 83.91 3.00 162.61 2772.29
   13:03:44.909.02-Jan-2020 4774.33 2523.62 83.91 3.00 162.81 2772.29
   13:03:45.109.02-Jan-2020 4774.33 2524.72 83.91 3.00 163.01 2772.29
   13:03:45.309.02-Jan-2020 4774.33 2524.72 83.91 3.00 163.21 2772.29
   13:03:45.509.02-Jan-2020 4774.33 2524.83 83.91 3.00 163.41 2772.29
   13:03:45.709.02-Jan-2020 4774.33 2523.71 83.91 3.00 163.61 2772.29
   13:03:45.909.02-Jan-2020 4774.33 2525.28 83.91 3.00 163.81 2772.29
   13:03:46.109.02-Jan-2020 4774.33 2525.25 83.91 3.00 164.01 2772.29
   13:03:46.309.02-Jan-2020 4774.33 2525.25 83.91 3.00 164.21 2772.29
   13:03:46.509.02-Jan-2020 4774.33 2525.36 83.91 3.00 164.41 2772.29
   13:03:46.709.02-Jan-2020 4774.33 2525.44 83.91 3.00 164.61 2772.29
   13:03:46.909.02-Jan-2020 4774.33 2525.46 83.91 3.00 164.81 2772.29
   13:03:47.109.02-Jan-2020 4774.33 2525.56 83.91 3.00 165.01 2772.29
   13:03:47.309.02-Jan-2020 4774.33 2525.56 83.91 3.00 165.21 2772.29
   13:03:47.509.02-Jan-2020 4774.33 2562.83 83.91 3.00 165.41 2772.29
   13:03:47.709.02-Jan-2020 4774.33 2562.58 83.91 3.00 165.61 2772.29
   13:03:47.909.02-Jan-2020 4774.33 2562.56 83.91 3.00 165.81 2772.29
   13:03:48.109.02-Jan-2020 4774.33 2562.43 83.91 3.00 166.01 2772.29
   13:03:48.309.02-Jan-2020 4774.33 2562.43 83.91 3.00 166.21 2772.29
   13:03:48.509.02-Jan-2020 4774.33 2560.95 83.91 3.00 166.41 2772.29
   13:03:48.709.02-Jan-2020 4774.33 2562.02 83.91 3.00 166.61 2772.29
   13:03:48.909.02-Jan-2020 4774.33 2562.42 83.91 3.00 166.81 2772.29
   13:03:49.109.02-Jan-2020 4774.33 2562.39 83.91 3.00 167.01 2772.29
   13:03:49.309.02-Jan-2020 4774.33 2562.39 83.91 3.00 167.21 2772.29
   13:03:49.509.02-Jan-2020 4774.33 2560.46 83.91 3.00 167.41 2772.29
   13:03:49.709.02-Jan-2020 4774.33 2562.35 83.91 3.00 167.61 2772.29
   13:03:49.909.02-Jan-2020 4774.33 2562.29 83.91 3.00 167.81 2772.29
   13:03:50.109.02-Jan-2020 4774.33 2562.35 83.91 3.00 168.01 2772.29
   13:03:50.309.02-Jan-2020 4774.33 2562.35 83.91 3.00 168.21 2772.29
   13:03:50.509.02-Jan-2020 4774.33 2560.45 83.91 3.00 168.41 2772.29
   13:03:50.709.02-Jan-2020 4774.33 2562.33 83.91 3.00 168.61 2772.29
   13:03:50.909.02-Jan-2020 4774.33 2562.27 83.91 3.00 168.81 2772.29
   13:03:51.109.02-Jan-2020 4774.33 2561.95 83.91 3.00 169.01 2772.29
   13:03:51.309.02-Jan-2020 4774.33 2561.95 83.91 3.00 169.21 2772.29
   13:03:51.509.02-Jan-2020 4774.33 2562.79 83.91 3.00 169.41 2772.29
   13:03:51.709.02-Jan-2020 4774.33 2562.99 83.91 3.00 169.61 2772.29
   13:03:51.909.02-Jan-2020 4774.33 2563.06 83.91 3.00 169.81 2772.29
   13:03:52.109.02-Jan-2020 4774.33 2561.18 83.91 3.00 170.01 2772.29
   13:03:52.309.02-Jan-2020 4774.33 2561.18 83.91 3.00 170.21 2772.29
   13:03:52.509.02-Jan-2020 4774.33 2563.04 83.90 3.00 170.41 2772.29
   13:03:52.709.02-Jan-2020 4774.33 2562.78 83.91 3.00 170.61 2772.29
   13:03:52.909.02-Jan-2020 4774.33 2561.56 83.91 3.00 170.81 2772.29
   13:03:53.109.02-Jan-2020 4774.33 2563.14 83.90 3.00 171.01 2772.29
   13:03:53.309.02-Jan-2020 4774.33 2563.14 83.90 3.00 171.21 2772.29
   13:03:53.509.02-Jan-2020 4774.33 2563.09 83.90 3.00 171.41 2772.29
   13:03:53.709.02-Jan-2020 4774.33 2563.10 83.90 3.00 171.61 2772.29
   13:03:53.909.02-Jan-2020 4774.33 2563.08 83.90 3.00 171.81 2772.29
   13:03:54.109.02-Jan-2020 4774.33 2563.13 83.90 3.00 172.01 2772.29
   13:03:54.309.02-Jan-2020 4774.33 2563.13 83.90 3.00 172.21 2772.29
   13:03:54.509.02-Jan-2020 4774.33 2561.22 83.90 3.00 172.41 2772.29
   13:03:54.709.02-Jan-2020 4774.33 2563.37 83.90 3.00 172.61 2772.29
   13:03:54.909.02-Jan-2020 4774.33 2563.17 83.90 3.00 172.81 2772.29
   13:03:55.109.02-Jan-2020 4774.33 2563.27 83.90 3.00 173.01 2772.29
   13:03:55.309.02-Jan-2020 4774.33 2563.27 83.90 3.00 173.21 2772.29
   13:03:55.509.02-Jan-2020 4774.33 2561.79 83.90 3.00 173.41 2772.29
   13:03:55.709.02-Jan-2020 4774.33 2562.80 83.90 3.00 173.61 2772.29
   13:03:55.909.02-Jan-2020 4774.33 2563.26 83.90 3.00 173.81 2772.29
   13:03:56.109.02-Jan-2020 4774.33 2562.87 83.90 3.00 174.01 2772.29
   13:03:56.309.02-Jan-2020 4774.33 2562.87 83.90 3.00 174.21 2772.29
   13:03:56.509.02-Jan-2020 4774.33 2563.43 83.90 3.00 174.41 2772.29
   13:03:56.709.02-Jan-2020 4774.33 2563.34 83.90 3.00 174.61 2772.29
   13:03:56.909.02-Jan-2020 4774.33 2563.44 83.90 3.00 174.81 2772.29
   13:03:57.109.02-Jan-2020 4774.33 2563.44 83.90 3.00 175.01 2772.29
   13:03:57.309.02-Jan-2020 4774.33 2563.44 83.90 3.00 175.21 2772.29
   13:03:57.509.02-Jan-2020 4774.33 2563.58 83.90 3.00 175.41 2772.29
   13:03:57.709.02-Jan-2020 4774.33 2563.48 83.90 3.00 175.61 2772.29
   13:03:57.909.02-Jan-2020 4774.33 2563.19 83.90 3.00 175.81 2772.29
   13:03:58.109.02-Jan-2020 4774.33 2561.99 83.90 3.00 176.01 2772.29
   13:03:58.309.02-Jan-2020 4774.33 2561.99 83.90 3.00 176.21 2772.29
   13:03:58.509.02-Jan-2020 4774.33 2563.62 83.90 3.00 176.41 2772.29
   13:03:58.709.02-Jan-2020 4774.33 2563.68 83.90 3.00 176.61 2772.29
   13:03:58.909.02-Jan-2020 4774.33 2563.68 83.90 3.00 176.81 2772.29
   13:03:59.109.02-Jan-2020 4774.33 2563.72 83.90 3.00 177.01 2772.29
   13:03:59.309.02-Jan-2020 4774.33 2563.72 83.90 3.00 177.21 2772.29
   13:03:59.509.02-Jan-2020 4774.33 2563.84 83.90 3.00 177.41 2772.29
   13:03:59.709.02-Jan-2020 4774.33 2563.78 83.90 3.00 177.61 2772.29
   13:03:59.909.02-Jan-2020 4774.33 2562.39 83.90 3.00 177.81 2772.29
   13:04:00.109.02-Jan-2020 4774.33 2563.45 83.90 3.00 178.01 2772.29
   13:04:00.309.02-Jan-2020 4774.33 2563.45 83.90 3.00 178.21 2772.29
   13:04:00.509.02-Jan-2020 4774.33 2563.90 83.90 3.00 178.41 2772.29
   13:04:00.709.02-Jan-2020 4774.33 2563.92 83.90 3.00 178.61 2772.29
   13:04:00.909.02-Jan-2020 4774.33 2563.90 83.90 3.00 178.81 2772.29
   13:04:01.109.02-Jan-2020 4774.33 2563.95 83.90 3.00 179.01 2772.29
   13:04:01.309.02-Jan-2020 4774.33 2563.95 83.90 3.00 179.21 2772.29
   13:04:01.509.02-Jan-2020 4774.33 2563.80 83.90 3.00 179.41 2772.29
   13:04:01.709.02-Jan-2020 4774.33 2509.54 83.90 3.00 179.61 2772.29
   13:04:01.909.02-Jan-2020 4774.33 2191.87 83.90 3.00 179.81 2772.29
   13:04:02.109.02-Jan-2020 4774.33 1903.25 83.90 3.00 180.01 2772.29
   13:04:02.309.02-Jan-2020 4774.33 1903.25 83.90 3.00 180.21 2772.29
   13:04:02.509.02-Jan-2020 4774.33 1836.53 83.90 3.00 180.41 2772.29
   13:04:02.709.02-Jan-2020 4774.33 1690.66 83.90 3.00 180.61 2772.29
   13:04:02.909.02-Jan-2020 4774.33 1613.30 83.90 3.00 180.81 2772.29
   13:04:03.109.02-Jan-2020 4774.33 1693.77 83.90 3.00 181.01 2772.29
   13:04:03.309.02-Jan-2020 4774.33 1693.77 83.90 3.00 181.21 2772.29
   13:04:03.509.02-Jan-2020 4774.33 1508.75 83.90 3.00 181.41 2772.29
   13:04:03.710.02-Jan-2020 4774.33 1400.46 83.90 3.00 181.61 2772.29
   13:04:03.910.02-Jan-2020 4774.33 1317.40 83.90 3.00 181.81 2772.29
   13:04:04.110.02-Jan-2020 4774.33 1350.34 83.90 3.00 182.01 2772.29
   13:04:04.310.02-Jan-2020 4774.33 1350.34 83.90 3.00 182.21 2772.29
   13:04:04.510.02-Jan-2020 4774.33 1140.94 83.89 3.00 182.41 2772.29
   13:04:04.710.02-Jan-2020 4774.33 1167.76 83.89 3.00 182.61 2772.29
   13:04:04.910.02-Jan-2020 4774.33 1206.67 83.89 3.00 182.81 2772.29
   13:04:05.110.02-Jan-2020 4774.33 1128.63 83.89 3.00 183.01 2772.29
   13:04:05.310.02-Jan-2020 4774.33 1128.63 83.89 3.00 183.21 2772.29
   13:04:05.510.02-Jan-2020 4774.33  909.84 83.89 3.00 183.41 2772.29
   13:04:05.710.02-Jan-2020 4774.33  819.63 83.89 3.00 183.61 2772.29
   13:04:05.910.02-Jan-2020 4774.33  814.69 83.89 3.00 183.81 2772.29
