~Version Information
 VERS.                  2.0:   CWLS log ASCII Standard -VERSION 2.0
 WRAP.                   NO:   One line per depth step
~Well Information Block
#MNEM.UNIT     VALUE/NAME     DESCRIPTION
#---------     -----------    ---------------------------
 STRT.S             11:06:01 02-Jan-20: START TIME 11:06:01 02-Jan-20
 STOP.S             11:13:00 02-Jan-20: STOP TIME  11:13:00 02-Jan-20
 STEP.S                   0.00: STEP TIME
 NULL.                 -999.25: NULL VALUE
 MDS .        Operator Entered:  MAG DATA SOURCE
 UNIT.                     N/a:  LOGGING EQUIPMENT ID
 DCON.         Sperry Drilling:  DIRECTNL CONTR
 CNTY.                    Baku:  COUNTY NAME
 DOE .                     N/a:  DOE NUMBER
 RIG .                     DWG:  RIG NAME
 MWDS.                    Baku:  MWD SHOP
 REGN.                   EESSA:  REGION
 BASE.              Azerbaijan:  LOGGING EQUIPMENT BASE LOCATION
 UWI .                     N/a:  UNIQUE WELL IDENTIFIER
 API .                     N/a:  API NUMBER
 WTYP.                Deviated:  WELL TYPE
 COMP.     BP Exploration (Caspian Sea) Ltd.:  COMPANY
 SRVC.          TURAN DRILLING:  CONTRACTOR
 WELL.           E04 (Slot 23):  WELL NAME
 CTRY.              Azerbaijan:  COUNTRY NAME
 SON .        AZ-XX-0905715376:  JOB NUMBER
 FLD .                     ACG:  FIELD NAME
 PDAT.          Mean Sea Level:  PERMANENT DATUM
 FTOP.          Formation Tops:  FORM TOPS DESC
 ILTD.               Lithology:  INTERP LTH DESC
 SVYD.                  Survey:  SURVEY DESC
 DMOD.             Drill Model:  DRILL MOD DESC
 HPTY.       Minimum Curvature:  HOLE POS TYPE
 NREF.                    Grid:  NORTH REFERENCE
 SPUD.               21-Dec-19:  SPUD DATE
 DATE.      17.57.20 21-Dec-19:  END TIME
 STIM.      17.57.20 21-Dec-19:  START TIME
 DMF .             Drill Floor:  DRILL MEAS FROM
 DFST.                        :  DIST FSL TEXT
 DFWT.                        :  DIST FWL TEXT
 PROV.                        :  PROVINCE
 STAT.                        :  STATE
 LOC .                        :  LOCATION
 LMF .             Drill Floor:  LOG MEASURED FROM
 AGAP.m                  43.16:  AIR GAP
 DEP .m                3172.61:  DEPTH
 APD .m                  43.16:  DEPTH ABOVE PD
 WDMS.m                 176.20:  WD ELEV
 EGL .m                   0.00:  GROUND ELEVATION
 EPD .m                   0.00:  ELEVATION
 AZTC.deg                 6.49:  AZM TOTAL CORR
 GRDC.deg                 0.09:  GRID CORRECTION
 MDEC.deg                 6.58:  MAGNETIC DECL
 MDIP.deg                59.61:  MAGNETIC DIP
 MFLD.nT              50294.00:  MAGNETIC FIELD
 GVFD.g                   1.00:  GRAVITY FIELD
 VSDR.deg               235.12:  VERT SEC DIRECT
 TDD .m                   0.00:  TOTAL DEPTH (DRILLER)
 SDEP.m                   0.00:  START DEPTH
 UTMY.m             4448627.46:  UTM Y
 UTMX.m              514337.95:  UTM X
 LONG.deg                51.17:  LONGITUDE
 LATI.deg                40.17:  LATITUDE
 TVDS.m                  43.16:  TVDSS CORRECTN
 WHEW.m                  -5.41:  WELL HEAD E/W
 WHNS.m                  -0.12:  WELL HEAD N/S
 VSEW.m                  -5.41:  VERT SEC E/W
 VSNS.m                  -0.12:  VERT SEC N/S
 EKB .m                  43.16:  KB ELEVATION
 EDF .m                  43.16:  DF ELEVATION
 MAGU.                 1852276:  MAGUTM CHECKSUM
 VSC .                       0:  VS TO CLOSURE
~Parameter Information Block
#MNEM.UNIT       Value        Description
#---------     -----------    ---------------------------
 TCS .hr                125.29:  Time Ciculation Ended 
 DD1 .      Fakhraddin Guliyev:  Direct Drillr 1 
 DD2 .                   Sanan:  Direct Drillr 2 
 DEFF.%                   0.00:  % Det Eff 
 DRET.      04.26.40 27-Dec-19:  Drill End Time 
 DRST.      04.26.40 27-Dec-19:  Drill Start Tim 
 DTIM.hr                 80.10:  Time Drilling 
 EDEP.m                   0.00:  End Depth 
 ENG1.            Adlet Omarov:  Engineer 1 
 ENG2.         Almaz Almadatov:  Engineer 2 
 ETIM.      04.26.40 27-Dec-19:  End Time 
 HFLO.                      No:  High Flow 
 HPRE.                      No:  High Pressure 
 HTEM.                      No:  High Temp 
 HYDO.m                   1.85:  Hydro Offset 
 IMAX.deg                72.09:  Inc Max 
 IMIN.deg                59.07:  Inc Min 
 IMND.m                3901.43:  Inc Min Depth 
 IMXD.m                4753.85:  Inc Max Depth 
 LETM.      04.26.40 27-Dec-19:  Log End Time 
 LSTM.      04.26.40 27-Dec-19:  Log Start Time 
 OTIM.hr                187.88:  Time Operating 
 PMAX.psia            10202.94:  Press Op, Max 
 RUN .                     300:  Run Number 
 RRUN.                    0300:  Rig Run Number 
 SDEP.m                   0.00:  Start Depth 
 STIM.      04.26.40 27-Dec-19:  Start Time 
 SVER.                    9.20:  Sperry Version 
 MRT .                    HCIM:  Maximum Recorded Temperature 
 TTMX.degC               96.08:  Max Tool Temp 
~Curve Information Block
#MNEM.UNIT                 API CODE     Curve Description
#---------               -----------    ---------------------------
 TIME.HHMMSS            00 000 000 000:  GT Time & Date
 GTDEPTH.m              00 000 000 000:  GT Depth
 GTPQH.psia             00 000 000 000:  GT HR Quartz Pressure
 GTTQ.degC              00 000 000 000:  GT Quartz Temperature
 GTTN.NONE              00 000 000 000:  GT Test Number
 GTET.sec               00 000 000 000:  GT Elapsed Test Time
 GTTVD.m                00 000 000 000:  GT True Vertical Depth
#Other Information
#
#WARRANTY: Halliburton will use its best efforts to furnish customers with 
#accurate information and interpretations that are part of, and incident to, the services 
#provided.  However, Halliburton cannot and does not warrant the accuracy 
#or correctness of such information and interpretations.  Under no circumstances should any 
#such information or interpretation be relied upon as the sole basis for any drilling, 
#completion, production, or financial decision or any procedure involving any risk to the 
#safety of any drilling venture, drilling rig or its crew or any other third party.  The 
#Customer has full responsibility for all drilling, completion and production operation.  
#Halliburton makes no representations or warranties, either expressed or 
#implied, including, but not limited to, the implied warranties of merchantability or fitness 
#for a particular purpose, with respect to the services rendered.  In no event will 
#Halliburton be liable for failure to obtain any particular results or for 
#any damages, including, but not limited to, indirect, special or consequential damages, 
#resulting from the use of any information or interpretation provided by Halliburton.
#
~A           TIME           GTDEPTH  GTPQH  GTTQ  GTTN  GTET   GTTVD  
# ...
   11:06:47.139.02-Jan-2020 4790.04 3152.70 85.16 2.00  46.01 2777.18
   11:06:47.339.02-Jan-2020 4790.04 3152.70 85.16 2.00  46.21 2777.18
   11:06:47.539.02-Jan-2020 4790.04 3527.82 85.15 2.00  46.41 2777.18
   11:06:47.739.02-Jan-2020 4790.04 3710.47 85.15 2.00  46.61 2777.18
   11:06:47.939.02-Jan-2020 4790.04 3255.54 85.15 2.00  46.81 2777.18
   11:06:48.139.02-Jan-2020 4790.04 4395.37 85.15 2.00  47.01 2777.18
   11:06:48.339.02-Jan-2020 4790.04 4395.37 85.15 2.00  47.21 2777.18
   11:06:48.539.02-Jan-2020 4790.04 4220.34 85.15 2.00  47.41 2777.18
   11:06:48.739.02-Jan-2020 4790.04 4238.68 85.15 2.00  47.61 2777.18
   11:06:48.939.02-Jan-2020 4790.04 4374.45 85.14 2.00  47.81 2777.18
   11:06:49.139.02-Jan-2020 4790.04 3740.22 85.14 2.00  48.01 2777.18
   11:06:49.339.02-Jan-2020 4790.04 3740.22 85.14 2.00  48.21 2777.18
   11:06:49.539.02-Jan-2020 4790.04 3065.48 85.14 2.00  48.41 2777.18
   11:06:49.739.02-Jan-2020 4790.04 3273.45 85.14 2.00  48.61 2777.18
   11:06:49.939.02-Jan-2020 4790.04 3262.45 85.14 2.00  48.81 2777.18
   11:06:50.139.02-Jan-2020 4790.04 3504.36 85.14 2.00  49.01 2777.18
   11:06:50.339.02-Jan-2020 4790.04 3504.36 85.14 2.00  49.21 2777.18
   11:06:50.539.02-Jan-2020 4790.04 3546.96 85.14 2.00  49.41 2777.18
   11:06:50.739.02-Jan-2020 4790.04 3507.66 85.14 2.00  49.61 2777.18
   11:06:50.939.02-Jan-2020 4790.04 3248.02 85.14 2.00  49.81 2777.18
   11:06:51.140.02-Jan-2020 4790.04 3223.78 85.14 2.00  50.01 2777.18
   11:06:51.340.02-Jan-2020 4790.04 3223.78 85.14 2.00  50.21 2777.18
   11:06:51.540.02-Jan-2020 4790.04 3214.17 85.14 2.00  50.41 2777.18
   11:06:51.740.02-Jan-2020 4790.04 4495.52 85.14 2.00  50.61 2777.18
   11:06:51.940.02-Jan-2020 4790.04 3915.33 85.14 2.00  50.81 2777.18
   11:06:52.140.02-Jan-2020 4790.04 3903.56 85.14 2.00  51.01 2777.18
   11:06:52.340.02-Jan-2020 4790.04 3903.56 85.14 2.00  51.21 2777.18
   11:06:52.540.02-Jan-2020 4790.04 4072.12 85.14 2.00  51.41 2777.18
   11:06:52.740.02-Jan-2020 4790.04 4074.13 85.14 2.00  51.61 2777.18
   11:06:52.940.02-Jan-2020 4790.04 4073.10 85.14 2.00  51.81 2777.18
   11:06:53.140.02-Jan-2020 4790.04 4072.38 85.14 2.00  52.01 2777.18
   11:06:53.340.02-Jan-2020 4790.04 4072.38 85.14 2.00  52.21 2777.18
   11:06:53.540.02-Jan-2020 4790.04 4069.41 85.14 2.00  52.41 2777.18
   11:06:53.740.02-Jan-2020 4790.04 4080.05 85.14 2.00  52.61 2777.18
   11:06:53.940.02-Jan-2020 4790.04 4082.45 85.14 2.00  52.81 2777.18
   11:06:54.140.02-Jan-2020 4790.04 4083.28 85.14 2.00  53.01 2777.18
   11:06:54.340.02-Jan-2020 4790.04 4083.28 85.14 2.00  53.21 2777.18
   11:06:54.540.02-Jan-2020 4790.04 4085.56 85.14 2.00  53.41 2777.18
   11:06:54.740.02-Jan-2020 4790.04 4085.34 85.14 2.00  53.61 2777.18
   11:06:54.940.02-Jan-2020 4790.04 4125.69 85.14 2.00  53.81 2777.18
   11:06:55.140.02-Jan-2020 4790.04 4187.87 85.14 2.00  54.01 2777.18
   11:06:55.341.02-Jan-2020 4790.04 4187.87 85.14 2.00  54.21 2777.18
   11:06:55.541.02-Jan-2020 4790.04 4214.94 85.14 2.00  54.41 2777.18
   11:06:55.741.02-Jan-2020 4790.04 4253.17 85.14 2.00  54.61 2777.18
   11:06:55.941.02-Jan-2020 4790.04 4286.17 85.14 2.00  54.81 2777.18
   11:06:56.141.02-Jan-2020 4790.04 4286.97 85.14 2.00  55.01 2777.18
   11:06:56.341.02-Jan-2020 4790.04 4286.97 85.14 2.00  55.21 2777.18
   11:06:56.541.02-Jan-2020 4790.04 4286.65 85.14 2.00  55.41 2777.18
   11:06:56.741.02-Jan-2020 4790.04 4285.70 85.14 2.00  55.61 2777.18
   11:06:56.941.02-Jan-2020 4790.04 4285.05 85.14 2.00  55.81 2777.18
   11:06:57.141.02-Jan-2020 4790.04 4326.46 85.14 2.00  56.01 2777.18
   11:06:57.341.02-Jan-2020 4790.04 4326.46 85.14 2.00  56.21 2777.18
   11:06:57.541.02-Jan-2020 4790.04 4393.91 85.14 2.00  56.41 2777.18
   11:06:57.741.02-Jan-2020 4790.04 4404.72 85.14 2.00  56.61 2777.18
   11:06:57.941.02-Jan-2020 4790.04 4404.05 85.14 2.00  56.81 2777.18
   11:06:58.141.02-Jan-2020 4790.04 4440.11 85.14 2.00  57.01 2777.18
   11:06:58.341.02-Jan-2020 4790.04 4440.11 85.14 2.00  57.21 2777.18
   11:06:58.541.02-Jan-2020 4790.04 4486.17 85.14 2.00  57.41 2777.18
   11:06:58.741.02-Jan-2020 4790.04 4485.56 85.14 2.00  57.61 2777.18
   11:06:58.941.02-Jan-2020 4790.04 4485.01 85.14 2.00  57.81 2777.18
   11:06:59.141.02-Jan-2020 4790.04 4484.07 85.14 2.00  58.01 2777.18
   11:06:59.341.02-Jan-2020 4790.04 4484.07 85.14 2.00  58.21 2777.18
   11:06:59.542.02-Jan-2020 4790.04 4484.89 85.14 2.00  58.41 2777.18
   11:06:59.742.02-Jan-2020 4790.04 4484.46 85.15 2.00  58.61 2777.18
   11:06:59.942.02-Jan-2020 4790.04 4484.17 85.15 2.00  58.81 2777.18
   11:07:00.142.02-Jan-2020 4790.04 4485.22 85.15 2.00  59.01 2777.18
   11:07:00.342.02-Jan-2020 4790.04 4485.22 85.15 2.00  59.21 2777.18
   11:07:00.542.02-Jan-2020 4790.04 4483.57 85.15 2.00  59.41 2777.18
   11:07:00.742.02-Jan-2020 4790.04 4485.39 85.15 2.00  59.61 2777.18
   11:07:00.942.02-Jan-2020 4790.04 4485.87 85.15 2.00  59.81 2777.18
   11:07:01.142.02-Jan-2020 4790.04 4485.74 85.15 2.00  60.01 2777.18
   11:07:01.342.02-Jan-2020 4790.04 4485.74 85.15 2.00  60.21 2777.18
   11:07:01.542.02-Jan-2020 4790.04 4512.79 85.15 2.00  60.41 2777.18
   11:07:01.742.02-Jan-2020 4790.04 4512.53 85.15 2.00  60.61 2777.18
   11:07:01.942.02-Jan-2020 4790.04 4512.51 85.15 2.00  60.81 2777.18
   11:07:02.142.02-Jan-2020 4790.04 4512.25 85.15 2.00  61.01 2777.18
   11:07:02.342.02-Jan-2020 4790.04 4512.25 85.15 2.00  61.21 2777.18
   11:07:02.542.02-Jan-2020 4790.04 4511.25 85.15 2.00  61.41 2777.18
   11:07:02.742.02-Jan-2020 4790.04 4513.54 85.15 2.00  61.61 2777.18
   11:07:02.942.02-Jan-2020 4790.04 4513.46 85.15 2.00  61.81 2777.18
   11:07:03.142.02-Jan-2020 4790.04 4512.66 85.15 2.00  62.01 2777.18
   11:07:03.342.02-Jan-2020 4790.04 4512.66 85.15 2.00  62.21 2777.18
   11:07:03.542.02-Jan-2020 4790.04 4516.43 85.15 2.00  62.41 2777.18
   11:07:03.742.02-Jan-2020 4790.04 4516.64 85.15 2.00  62.61 2777.18
   11:07:03.943.02-Jan-2020 4790.04 4515.59 85.15 2.00  62.81 2777.18
   11:07:04.143.02-Jan-2020 4790.04 4520.50 85.15 2.00  63.01 2777.18
   11:07:04.343.02-Jan-2020 4790.04 4520.50 85.15 2.00  63.21 2777.18
   11:07:04.543.02-Jan-2020 4790.04 4521.14 85.15 2.00  63.41 2777.18
   11:07:04.743.02-Jan-2020 4790.04 4554.18 85.15 2.00  63.61 2777.18
   11:07:04.943.02-Jan-2020 4790.04 4564.36 85.15 2.00  63.81 2777.18
   11:07:05.143.02-Jan-2020 4790.04 4564.34 85.15 2.00  64.02 2777.18
   11:07:05.343.02-Jan-2020 4790.04 4564.34 85.15 2.00  64.22 2777.18
   11:07:05.543.02-Jan-2020 4790.04 4563.97 85.15 2.00  64.42 2777.18
   11:07:05.743.02-Jan-2020 4790.04 4563.89 85.15 2.00  64.62 2777.18
   11:07:05.943.02-Jan-2020 4790.04 4563.77 85.15 2.00  64.82 2777.18
   11:07:06.143.02-Jan-2020 4790.04 4563.16 85.15 2.00  65.02 2777.18
   11:07:06.343.02-Jan-2020 4790.04 4563.16 85.15 2.00  65.22 2777.18
   11:07:06.543.02-Jan-2020 4790.04 4565.47 85.15 2.00  65.42 2777.18
   11:07:06.743.02-Jan-2020 4790.04 4565.55 85.15 2.00  65.62 2777.18
   11:07:06.943.02-Jan-2020 4790.04 4567.33 85.15 2.00  65.82 2777.18
   11:07:07.143.02-Jan-2020 4790.04 4567.47 85.15 2.00  66.02 2777.18
   11:07:07.343.02-Jan-2020 4790.04 4567.47 85.15 2.00  66.22 2777.18
   11:07:07.543.02-Jan-2020 4790.04 4654.12 85.15 2.00  66.42 2777.18
   11:07:07.743.02-Jan-2020 4790.04 4660.99 85.15 2.00  66.62 2777.18
   11:07:07.943.02-Jan-2020 4790.04 4658.88 85.15 2.00  66.82 2777.18
   11:07:08.144.02-Jan-2020 4790.04 4661.44 85.15 2.00  67.02 2777.18
   11:07:08.344.02-Jan-2020 4790.04 4661.44 85.15 2.00  67.22 2777.18
   11:07:08.544.02-Jan-2020 4790.04 4662.34 85.15 2.00  67.42 2777.18
   11:07:08.744.02-Jan-2020 4790.04 4665.81 85.15 2.00  67.62 2777.18
   11:07:08.944.02-Jan-2020 4790.04 5070.35 85.15 2.00  67.82 2777.18
   11:07:09.144.02-Jan-2020 4790.04 5165.11 85.15 2.00  68.02 2777.18
   11:07:09.344.02-Jan-2020 4790.04 5165.11 85.15 2.00  68.22 2777.18
   11:07:09.544.02-Jan-2020 4790.04 5179.70 85.16 2.00  68.42 2777.18
   11:07:09.744.02-Jan-2020 4790.04 5179.98 85.16 2.00  68.62 2777.18
   11:07:09.944.02-Jan-2020 4790.04 5178.72 85.16 2.00  68.82 2777.18
