~Version Information
 VERS.                  2.0:   CWLS log ASCII Standard -VERSION 2.0
 WRAP.                   NO:   One line per depth step
~Well Information Block
#MNEM.UNIT     VALUE/NAME     DESCRIPTION
#---------     -----------    ---------------------------
 STRT.S             13:48:18 02-Jan-20: START TIME 13:48:18 02-Jan-20
 STOP.S             13:56:34 02-Jan-20: STOP TIME  13:56:34 02-Jan-20
 STEP.S                   0.00: STEP TIME
 NULL.                 -999.25: NULL VALUE
 MDS .        Operator Entered:  MAG DATA SOURCE
 UNIT.                     N/a:  LOGGING EQUIPMENT ID
 DCON.         Sperry Drilling:  DIRECTNL CONTR
 CNTY.                    Baku:  COUNTY NAME
 DOE .                     N/a:  DOE NUMBER
 RIG .                     DWG:  RIG NAME
 MWDS.                    Baku:  MWD SHOP
 REGN.                   EESSA:  REGION
 BASE.              Azerbaijan:  LOGGING EQUIPMENT BASE LOCATION
 UWI .                     N/a:  UNIQUE WELL IDENTIFIER
 API .                     N/a:  API NUMBER
 WTYP.                Deviated:  WELL TYPE
 COMP.     BP Exploration (Caspian Sea) Ltd.:  COMPANY
 SRVC.          TURAN DRILLING:  CONTRACTOR
 WELL.           E04 (Slot 23):  WELL NAME
 CTRY.              Azerbaijan:  COUNTRY NAME
 SON .        AZ-XX-0905715376:  JOB NUMBER
 FLD .                     ACG:  FIELD NAME
 PDAT.          Mean Sea Level:  PERMANENT DATUM
 FTOP.          Formation Tops:  FORM TOPS DESC
 ILTD.               Lithology:  INTERP LTH DESC
 SVYD.                  Survey:  SURVEY DESC
 DMOD.             Drill Model:  DRILL MOD DESC
 HPTY.       Minimum Curvature:  HOLE POS TYPE
 NREF.                    Grid:  NORTH REFERENCE
 SPUD.               21-Dec-19:  SPUD DATE
 DATE.      17.57.20 21-Dec-19:  END TIME
 STIM.      17.57.20 21-Dec-19:  START TIME
 DMF .             Drill Floor:  DRILL MEAS FROM
 DFST.                        :  DIST FSL TEXT
 DFWT.                        :  DIST FWL TEXT
 PROV.                        :  PROVINCE
 STAT.                        :  STATE
 LOC .                        :  LOCATION
 LMF .             Drill Floor:  LOG MEASURED FROM
 AGAP.m                  43.16:  AIR GAP
 DEP .m                3172.61:  DEPTH
 APD .m                  43.16:  DEPTH ABOVE PD
 WDMS.m                 176.20:  WD ELEV
 EGL .m                   0.00:  GROUND ELEVATION
 EPD .m                   0.00:  ELEVATION
 AZTC.deg                 6.49:  AZM TOTAL CORR
 GRDC.deg                 0.09:  GRID CORRECTION
 MDEC.deg                 6.58:  MAGNETIC DECL
 MDIP.deg                59.61:  MAGNETIC DIP
 MFLD.nT              50294.00:  MAGNETIC FIELD
 GVFD.g                   1.00:  GRAVITY FIELD
 VSDR.deg               235.12:  VERT SEC DIRECT
 TDD .m                   0.00:  TOTAL DEPTH (DRILLER)
 SDEP.m                   0.00:  START DEPTH
 UTMY.m             4448627.46:  UTM Y
 UTMX.m              514337.95:  UTM X
 LONG.deg                51.17:  LONGITUDE
 LATI.deg                40.17:  LATITUDE
 TVDS.m                  43.16:  TVDSS CORRECTN
 WHEW.m                  -5.41:  WELL HEAD E/W
 WHNS.m                  -0.12:  WELL HEAD N/S
 VSEW.m                  -5.41:  VERT SEC E/W
 VSNS.m                  -0.12:  VERT SEC N/S
 EKB .m                  43.16:  KB ELEVATION
 EDF .m                  43.16:  DF ELEVATION
 MAGU.                 1852276:  MAGUTM CHECKSUM
 VSC .                       0:  VS TO CLOSURE
~Parameter Information Block
#MNEM.UNIT       Value        Description
#---------     -----------    ---------------------------
 TCS .hr                125.29:  Time Ciculation Ended 
 DD1 .      Fakhraddin Guliyev:  Direct Drillr 1 
 DD2 .                   Sanan:  Direct Drillr 2 
 DEFF.%                   0.00:  % Det Eff 
 DRET.      04.26.40 27-Dec-19:  Drill End Time 
 DRST.      04.26.40 27-Dec-19:  Drill Start Tim 
 DTIM.hr                 80.10:  Time Drilling 
 EDEP.m                   0.00:  End Depth 
 ENG1.            Adlet Omarov:  Engineer 1 
 ENG2.         Almaz Almadatov:  Engineer 2 
 ETIM.      04.26.40 27-Dec-19:  End Time 
 HFLO.                      No:  High Flow 
 HPRE.                      No:  High Pressure 
 HTEM.                      No:  High Temp 
 HYDO.m                   1.85:  Hydro Offset 
 IMAX.deg                72.09:  Inc Max 
 IMIN.deg                59.07:  Inc Min 
 IMND.m                3901.43:  Inc Min Depth 
 IMXD.m                4753.85:  Inc Max Depth 
 LETM.      04.26.40 27-Dec-19:  Log End Time 
 LSTM.      04.26.40 27-Dec-19:  Log Start Time 
 OTIM.hr                187.88:  Time Operating 
 PMAX.psia            10202.94:  Press Op, Max 
 RUN .                     300:  Run Number 
 RRUN.                    0300:  Rig Run Number 
 SDEP.m                   0.00:  Start Depth 
 STIM.      04.26.40 27-Dec-19:  Start Time 
 SVER.                    9.20:  Sperry Version 
 MRT .                    HCIM:  Maximum Recorded Temperature 
 TTMX.degC               96.08:  Max Tool Temp 
~Curve Information Block
#MNEM.UNIT                 API CODE     Curve Description
#---------               -----------    ---------------------------
 TIME.HHMMSS            00 000 000 000:  GT Time & Date
 GTDEPTH.m              00 000 000 000:  GT Depth
 GTPQH.psia             00 000 000 000:  GT HR Quartz Pressure
 GTTQ.degC              00 000 000 000:  GT Quartz Temperature
 GTTN.NONE              00 000 000 000:  GT Test Number
 GTET.sec               00 000 000 000:  GT Elapsed Test Time
 GTTVD.m                00 000 000 000:  GT True Vertical Depth
#Other Information
#
#WARRANTY: Halliburton will use its best efforts to furnish customers with 
#accurate information and interpretations that are part of, and incident to, the services 
#provided.  However, Halliburton cannot and does not warrant the accuracy 
#or correctness of such information and interpretations.  Under no circumstances should any 
#such information or interpretation be relied upon as the sole basis for any drilling, 
#completion, production, or financial decision or any procedure involving any risk to the 
#safety of any drilling venture, drilling rig or its crew or any other third party.  The 
#Customer has full responsibility for all drilling, completion and production operation.  
#Halliburton makes no representations or warranties, either expressed or 
#implied, including, but not limited to, the implied warranties of merchantability or fitness 
#for a particular purpose, with respect to the services rendered.  In no event will 
#Halliburton be liable for failure to obtain any particular results or for 
#any damages, including, but not limited to, indirect, special or consequential damages, 
#resulting from the use of any information or interpretation provided by Halliburton.
#
~A           TIME           GTDEPTH  GTPQH  GTTQ  GTTN  GTET   GTTVD  
# ...
   13:51:22.248.02-Jan-2020 4773.81  254.06 83.60 4.00 184.01 2772.13
   13:51:22.448.02-Jan-2020 4773.81  254.06 83.60 4.00 184.21 2772.13
   13:51:22.648.02-Jan-2020 4773.81  202.97 83.60 4.00 184.41 2772.13
   13:51:22.848.02-Jan-2020 4773.81  204.72 83.59 4.00 184.61 2772.13
   13:51:23.048.02-Jan-2020 4773.81  224.31 83.59 4.00 184.81 2772.13
   13:51:23.248.02-Jan-2020 4773.81  284.84 83.58 4.00 185.01 2772.13
   13:51:23.448.02-Jan-2020 4773.81  284.84 83.58 4.00 185.21 2772.13
   13:51:23.648.02-Jan-2020 4773.81 2637.85 83.58 4.00 185.41 2772.13
   13:51:23.848.02-Jan-2020 4773.81 3080.97 83.58 4.00 185.61 2772.13
   13:51:24.048.02-Jan-2020 4773.81 3443.73 83.57 4.00 185.81 2772.13
   13:51:24.248.02-Jan-2020 4773.81 3673.11 83.57 4.00 186.01 2772.13
   13:51:24.448.02-Jan-2020 4773.81 3673.11 83.57 4.00 186.21 2772.13
   13:51:24.648.02-Jan-2020 4773.81 3825.64 83.57 4.00 186.41 2772.13
   13:51:24.848.02-Jan-2020 4773.81 3824.97 83.57 4.00 186.61 2772.13
   13:51:25.048.02-Jan-2020 4773.81 3844.19 83.57 4.00 186.81 2772.13
   13:51:25.248.02-Jan-2020 4773.81 3834.34 83.57 4.00 187.01 2772.13
   13:51:25.448.02-Jan-2020 4773.81 3834.34 83.57 4.00 187.21 2772.13
   13:51:25.648.02-Jan-2020 4773.81 3700.39 83.57 4.00 187.41 2772.13
   13:51:25.848.02-Jan-2020 4773.81 3652.57 83.57 4.00 187.61 2772.13
   13:51:26.048.02-Jan-2020 4773.81 3622.63 83.57 4.00 187.81 2772.13
   13:51:26.248.02-Jan-2020 4773.81 3624.19 83.57 4.00 188.01 2772.13
   13:51:26.448.02-Jan-2020 4773.81 3624.19 83.57 4.00 188.21 2772.13
   13:51:26.648.02-Jan-2020 4773.81 3490.49 83.58 4.00 188.41 2772.13
   13:51:26.848.02-Jan-2020 4773.81 3421.48 83.58 4.00 188.61 2772.13
   13:51:27.048.02-Jan-2020 4773.81 3354.22 83.58 4.00 188.81 2772.13
   13:51:27.248.02-Jan-2020 4773.81 3410.76 83.58 4.00 189.01 2772.13
   13:51:27.448.02-Jan-2020 4773.81 3410.76 83.58 4.00 189.21 2772.13
   13:51:27.648.02-Jan-2020 4773.81 3949.26 83.58 4.00 189.41 2772.13
   13:51:27.849.02-Jan-2020 4773.81 4180.13 83.58 4.00 189.61 2772.13
   13:51:28.049.02-Jan-2020 4773.81 4418.79 83.59 4.00 189.81 2772.13
   13:51:28.249.02-Jan-2020 4773.81 4579.31 83.59 4.00 190.01 2772.13
   13:51:28.449.02-Jan-2020 4773.81 4579.31 83.59 4.00 190.21 2772.13
   13:51:28.649.02-Jan-2020 4773.81 4690.82 83.59 4.00 190.41 2772.13
   13:51:28.849.02-Jan-2020 4773.81 4696.34 83.59 4.00 190.61 2772.13
   13:51:29.049.02-Jan-2020 4773.81 4697.29 83.59 4.00 190.81 2772.13
   13:51:29.249.02-Jan-2020 4773.81 4697.63 83.59 4.00 191.01 2772.13
   13:51:29.449.02-Jan-2020 4773.81 4697.63 83.59 4.00 191.21 2772.13
   13:51:29.649.02-Jan-2020 4773.81 4699.62 83.60 4.00 191.41 2772.13
   13:51:29.849.02-Jan-2020 4773.81 4699.86 83.60 4.00 191.61 2772.13
   13:51:30.049.02-Jan-2020 4773.81 4700.31 83.60 4.00 191.81 2772.13
   13:51:30.249.02-Jan-2020 4773.81 4700.77 83.60 4.00 192.01 2772.13
   13:51:30.449.02-Jan-2020 4773.81 4700.77 83.60 4.00 192.21 2772.13
   13:51:30.649.02-Jan-2020 4773.81 4701.56 83.61 4.00 192.41 2772.13
   13:51:30.849.02-Jan-2020 4773.81 4701.90 83.61 4.00 192.61 2772.13
   13:51:31.049.02-Jan-2020 4773.81 4702.09 83.61 4.00 192.81 2772.13
   13:51:31.249.02-Jan-2020 4773.81 4702.95 83.61 4.00 193.01 2772.13
   13:51:31.449.02-Jan-2020 4773.81 4702.95 83.61 4.00 193.21 2772.13
   13:51:31.649.02-Jan-2020 4773.81 4702.51 83.61 4.00 193.41 2772.13
   13:51:31.849.02-Jan-2020 4773.81 4703.99 83.61 4.00 193.61 2772.13
   13:51:32.049.02-Jan-2020 4773.81 4703.57 83.62 4.00 193.81 2772.13
   13:51:32.249.02-Jan-2020 4773.81 4703.65 83.62 4.00 194.01 2772.13
   13:51:32.449.02-Jan-2020 4773.81 4703.65 83.62 4.00 194.21 2772.13
   13:51:32.649.02-Jan-2020 4773.81 4703.07 83.62 4.00 194.41 2772.13
   13:51:32.849.02-Jan-2020 4773.81 4704.51 83.62 4.00 194.61 2772.13
   13:51:33.049.02-Jan-2020 4773.81 4704.31 83.62 4.00 194.81 2772.13
   13:51:33.249.02-Jan-2020 4773.81 4704.34 83.62 4.00 195.01 2772.13
   13:51:33.449.02-Jan-2020 4773.81 4704.34 83.62 4.00 195.21 2772.13
   13:51:33.649.02-Jan-2020 4773.81 4705.07 83.62 4.00 195.41 2772.13
   13:51:33.849.02-Jan-2020 4773.81 4705.00 83.63 4.00 195.61 2772.13
   13:51:34.049.02-Jan-2020 4773.81 4704.80 83.63 4.00 195.81 2772.13
   13:51:34.249.02-Jan-2020 4773.81 4704.82 83.63 4.00 196.01 2772.13
   13:51:34.449.02-Jan-2020 4773.81 4704.82 83.63 4.00 196.21 2772.13
   13:51:34.649.02-Jan-2020 4773.81 4705.01 83.63 4.00 196.41 2772.13
   13:51:34.849.02-Jan-2020 4773.81 4705.00 83.63 4.00 196.61 2772.13
   13:51:35.049.02-Jan-2020 4773.81 4705.65 83.63 4.00 196.81 2772.13
   13:51:35.249.02-Jan-2020 4773.81 4705.20 83.63 4.00 197.01 2772.13
   13:51:35.449.02-Jan-2020 4773.81 4705.20 83.63 4.00 197.21 2772.13
   13:51:35.649.02-Jan-2020 4773.81 4705.48 83.63 4.00 197.41 2772.13
   13:51:35.849.02-Jan-2020 4773.81 4705.68 83.63 4.00 197.61 2772.13
   13:51:36.049.02-Jan-2020 4773.81 4705.56 83.63 4.00 197.81 2772.13
   13:51:36.249.02-Jan-2020 4773.81 4705.61 83.63 4.00 198.01 2772.13
   13:51:36.449.02-Jan-2020 4773.81 4705.61 83.63 4.00 198.21 2772.13
   13:51:36.649.02-Jan-2020 4773.81 4705.59 83.63 4.00 198.41 2772.13
   13:51:36.849.02-Jan-2020 4773.81 4705.70 83.64 4.00 198.61 2772.13
   13:51:37.049.02-Jan-2020 4773.81 4705.71 83.64 4.00 198.81 2772.13
   13:51:37.249.02-Jan-2020 4773.81 4705.16 83.64 4.00 199.01 2772.13
   13:51:37.449.02-Jan-2020 4773.81 4705.16 83.64 4.00 199.21 2772.13
   13:51:37.649.02-Jan-2020 4773.81 4705.96 83.64 4.00 199.41 2772.13
   13:51:37.849.02-Jan-2020 4773.81 4705.94 83.64 4.00 199.61 2772.13
   13:51:38.049.02-Jan-2020 4773.81 4705.48 83.64 4.00 199.81 2772.13
   13:51:38.249.02-Jan-2020 4773.81 4706.50 83.64 4.00 200.01 2772.13
   13:51:38.449.02-Jan-2020 4773.81 4706.50 83.64 4.00 200.21 2772.13
   13:51:38.649.02-Jan-2020 4773.81 4706.06 83.64 4.00 200.41 2772.13
   13:51:38.849.02-Jan-2020 4773.81 4706.06 83.64 4.00 200.61 2772.13
   13:51:39.049.02-Jan-2020 4773.81 4705.51 83.64 4.00 200.81 2772.13
   13:51:39.249.02-Jan-2020 4773.81 4706.95 83.64 4.00 201.01 2772.13
   13:51:39.449.02-Jan-2020 4773.81 4706.95 83.64 4.00 201.21 2772.13
   13:51:39.649.02-Jan-2020 4773.81 4706.22 83.64 4.00 201.41 2772.13
   13:51:39.849.02-Jan-2020 4773.81 4706.18 83.64 4.00 201.61 2772.13
   13:51:40.049.02-Jan-2020 4773.81 4706.17 83.64 4.00 201.81 2772.13
   13:51:40.249.02-Jan-2020 4773.81 4706.33 83.64 4.00 202.01 2772.13
   13:51:40.449.02-Jan-2020 4773.81 4706.33 83.64 4.00 202.21 2772.13
   13:51:40.649.02-Jan-2020 4773.81 4706.29 83.64 4.00 202.41 2772.13
   13:51:40.849.02-Jan-2020 4773.81 4706.28 83.64 4.00 202.61 2772.13
   13:51:41.049.02-Jan-2020 4773.81 4706.30 83.64 4.00 202.81 2772.13
   13:51:41.249.02-Jan-2020 4773.81 4706.74 83.64 4.00 203.01 2772.13
   13:51:41.449.02-Jan-2020 4773.81 4706.74 83.64 4.00 203.21 2772.13
   13:51:41.649.02-Jan-2020 4773.81 4706.45 83.64 4.00 203.41 2772.13
   13:51:41.849.02-Jan-2020 4773.81 4706.36 83.64 4.00 203.61 2772.13
   13:51:42.049.02-Jan-2020 4773.81 4705.82 83.64 4.00 203.81 2772.13
   13:51:42.249.02-Jan-2020 4773.81 4707.33 83.64 4.00 204.01 2772.13
   13:51:42.449.02-Jan-2020 4773.81 4707.33 83.64 4.00 204.21 2772.13
   13:51:42.649.02-Jan-2020 4773.81 4706.02 83.64 4.00 204.41 2772.13
   13:51:42.849.02-Jan-2020 4773.81 4706.93 83.64 4.00 204.61 2772.13
   13:51:43.049.02-Jan-2020 4773.81 4706.70 83.64 4.00 204.81 2772.13
   13:51:43.249.02-Jan-2020 4773.81 4706.54 83.64 4.00 205.01 2772.13
   13:51:43.449.02-Jan-2020 4773.81 4706.54 83.64 4.00 205.21 2772.13
   13:51:43.649.02-Jan-2020 4773.81 4706.49 83.64 4.00 205.41 2772.13
   13:51:43.849.02-Jan-2020 4773.81 4706.48 83.64 4.00 205.61 2772.13
   13:51:44.049.02-Jan-2020 4773.81 4706.51 83.64 4.00 205.81 2772.13
   13:51:44.249.02-Jan-2020 4773.81 4706.56 83.64 4.00 206.01 2772.13
   13:51:44.449.02-Jan-2020 4773.81 4706.56 83.64 4.00 206.21 2772.13
   13:51:44.649.02-Jan-2020 4773.81 4706.94 83.64 4.00 206.41 2772.13
   13:51:44.849.02-Jan-2020 4773.81 4706.52 83.64 4.00 206.61 2772.13
   13:51:45.049.02-Jan-2020 4773.81 4706.61 83.64 4.00 206.81 2772.13
