~Version Information
 VERS.                  2.0:   CWLS log ASCII Standard -VERSION 2.0
 WRAP.                   NO:   One line per depth step
~Well Information Block
#MNEM.UNIT     VALUE/NAME     DESCRIPTION
#---------     -----------    ---------------------------
 STRT.S             13:48:18 02-Jan-20: START TIME 13:48:18 02-Jan-20
 STOP.S             13:56:34 02-Jan-20: STOP TIME  13:56:34 02-Jan-20
 STEP.S                   0.00: STEP TIME
 NULL.                 -999.25: NULL VALUE
 MDS .        Operator Entered:  MAG DATA SOURCE
 UNIT.                     N/a:  LOGGING EQUIPMENT ID
 DCON.         Sperry Drilling:  DIRECTNL CONTR
 CNTY.                    Baku:  COUNTY NAME
 DOE .                     N/a:  DOE NUMBER
 RIG .                     DWG:  RIG NAME
 MWDS.                    Baku:  MWD SHOP
 REGN.                   EESSA:  REGION
 BASE.              Azerbaijan:  LOGGING EQUIPMENT BASE LOCATION
 UWI .                     N/a:  UNIQUE WELL IDENTIFIER
 API .                     N/a:  API NUMBER
 WTYP.                Deviated:  WELL TYPE
 COMP.     BP Exploration (Caspian Sea) Ltd.:  COMPANY
 SRVC.          TURAN DRILLING:  CONTRACTOR
 WELL.           E04 (Slot 23):  WELL NAME
 CTRY.              Azerbaijan:  COUNTRY NAME
 SON .        AZ-XX-0905715376:  JOB NUMBER
 FLD .                     ACG:  FIELD NAME
 PDAT.          Mean Sea Level:  PERMANENT DATUM
 FTOP.          Formation Tops:  FORM TOPS DESC
 ILTD.               Lithology:  INTERP LTH DESC
 SVYD.                  Survey:  SURVEY DESC
 DMOD.             Drill Model:  DRILL MOD DESC
 HPTY.       Minimum Curvature:  HOLE POS TYPE
 NREF.                    Grid:  NORTH REFERENCE
 SPUD.               21-Dec-19:  SPUD DATE
 DATE.      17.57.20 21-Dec-19:  END TIME
 STIM.      17.57.20 21-Dec-19:  START TIME
 DMF .             Drill Floor:  DRILL MEAS FROM
 DFST.                        :  DIST FSL TEXT
 DFWT.                        :  DIST FWL TEXT
 PROV.                        :  PROVINCE
 STAT.                        :  STATE
 LOC .                        :  LOCATION
 LMF .             Drill Floor:  LOG MEASURED FROM
 AGAP.m                  43.16:  AIR GAP
 DEP .m                3172.61:  DEPTH
 APD .m                  43.16:  DEPTH ABOVE PD
 WDMS.m                 176.20:  WD ELEV
 EGL .m                   0.00:  GROUND ELEVATION
 EPD .m                   0.00:  ELEVATION
 AZTC.deg                 6.49:  AZM TOTAL CORR
 GRDC.deg                 0.09:  GRID CORRECTION
 MDEC.deg                 6.58:  MAGNETIC DECL
 MDIP.deg                59.61:  MAGNETIC DIP
 MFLD.nT              50294.00:  MAGNETIC FIELD
 GVFD.g                   1.00:  GRAVITY FIELD
 VSDR.deg               235.12:  VERT SEC DIRECT
 TDD .m                   0.00:  TOTAL DEPTH (DRILLER)
 SDEP.m                   0.00:  START DEPTH
 UTMY.m             4448627.46:  UTM Y
 UTMX.m              514337.95:  UTM X
 LONG.deg                51.17:  LONGITUDE
 LATI.deg                40.17:  LATITUDE
 TVDS.m                  43.16:  TVDSS CORRECTN
 WHEW.m                  -5.41:  WELL HEAD E/W
 WHNS.m                  -0.12:  WELL HEAD N/S
 VSEW.m                  -5.41:  VERT SEC E/W
 VSNS.m                  -0.12:  VERT SEC N/S
 EKB .m                  43.16:  KB ELEVATION
 EDF .m                  43.16:  DF ELEVATION
 MAGU.                 1852276:  MAGUTM CHECKSUM
 VSC .                       0:  VS TO CLOSURE
~Parameter Information Block
#MNEM.UNIT       Value        Description
#---------     -----------    ---------------------------
 TCS .hr                125.29:  Time Ciculation Ended 
 DD1 .      Fakhraddin Guliyev:  Direct Drillr 1 
 DD2 .                   Sanan:  Direct Drillr 2 
 DEFF.%                   0.00:  % Det Eff 
 DRET.      04.26.40 27-Dec-19:  Drill End Time 
 DRST.      04.26.40 27-Dec-19:  Drill Start Tim 
 DTIM.hr                 80.10:  Time Drilling 
 EDEP.m                   0.00:  End Depth 
 ENG1.            Adlet Omarov:  Engineer 1 
 ENG2.         Almaz Almadatov:  Engineer 2 
 ETIM.      04.26.40 27-Dec-19:  End Time 
 HFLO.                      No:  High Flow 
 HPRE.                      No:  High Pressure 
 HTEM.                      No:  High Temp 
 HYDO.m                   1.85:  Hydro Offset 
 IMAX.deg                72.09:  Inc Max 
 IMIN.deg                59.07:  Inc Min 
 IMND.m                3901.43:  Inc Min Depth 
 IMXD.m                4753.85:  Inc Max Depth 
 LETM.      04.26.40 27-Dec-19:  Log End Time 
 LSTM.      04.26.40 27-Dec-19:  Log Start Time 
 OTIM.hr                187.88:  Time Operating 
 PMAX.psia            10202.94:  Press Op, Max 
 RUN .                     300:  Run Number 
 RRUN.                    0300:  Rig Run Number 
 SDEP.m                   0.00:  Start Depth 
 STIM.      04.26.40 27-Dec-19:  Start Time 
 SVER.                    9.20:  Sperry Version 
 MRT .                    HCIM:  Maximum Recorded Temperature 
 TTMX.degC               96.08:  Max Tool Temp 
~Curve Information Block
#MNEM.UNIT                 API CODE     Curve Description
#---------               -----------    ---------------------------
 TIME.HHMMSS            00 000 000 000:  GT Time & Date
 GTDEPTH.m              00 000 000 000:  GT Depth
 GTPQH.psia             00 000 000 000:  GT HR Quartz Pressure
 GTTQ.degC              00 000 000 000:  GT Quartz Temperature
 GTTN.NONE              00 000 000 000:  GT Test Number
 GTET.sec               00 000 000 000:  GT Elapsed Test Time
 GTTVD.m                00 000 000 000:  GT True Vertical Depth
#Other Information
#
#WARRANTY: Halliburton will use its best efforts to furnish customers with 
#accurate information and interpretations that are part of, and incident to, the services 
#provided.  However, Halliburton cannot and does not warrant the accuracy 
#or correctness of such information and interpretations.  Under no circumstances should any 
#such information or interpretation be relied upon as the sole basis for any drilling, 
#completion, production, or financial decision or any procedure involving any risk to the 
#safety of any drilling venture, drilling rig or its crew or any other third party.  The 
#Customer has full responsibility for all drilling, completion and production operation.  
#Halliburton makes no representations or warranties, either expressed or 
#implied, including, but not limited to, the implied warranties of merchantability or fitness 
#for a particular purpose, with respect to the services rendered.  In no event will 
#Halliburton be liable for failure to obtain any particular results or for 
#any damages, including, but not limited to, indirect, special or consequential damages, 
#resulting from the use of any information or interpretation provided by Halliburton.
#
~A           TIME           GTDEPTH  GTPQH  GTTQ  GTTN  GTET   GTTVD  
# ...
   13:54:03.256.02-Jan-2020 4773.81 4705.60 83.58 4.00 345.02 2772.13
   13:54:03.456.02-Jan-2020 4773.81 4705.60 83.58 4.00 345.22 2772.13
   13:54:03.656.02-Jan-2020 4773.81 4706.25 83.58 4.00 345.42 2772.13
   13:54:03.856.02-Jan-2020 4773.81 4705.63 83.58 4.00 345.62 2772.13
   13:54:04.056.02-Jan-2020 4773.81 4705.67 83.58 4.00 345.82 2772.13
   13:54:04.256.02-Jan-2020 4773.81 4705.63 83.58 4.00 346.02 2772.13
   13:54:04.456.02-Jan-2020 4773.81 4705.63 83.58 4.00 346.22 2772.13
   13:54:04.656.02-Jan-2020 4773.81 4704.98 83.58 4.00 346.42 2772.13
   13:54:04.856.02-Jan-2020 4773.81 4706.64 83.58 4.00 346.62 2772.13
   13:54:05.056.02-Jan-2020 4773.81 4705.81 83.58 4.00 346.82 2772.13
   13:54:05.256.02-Jan-2020 4773.81 4705.74 83.58 4.00 347.02 2772.13
   13:54:05.456.02-Jan-2020 4773.81 4705.74 83.58 4.00 347.22 2772.13
   13:54:05.656.02-Jan-2020 4773.81 4706.68 83.58 4.00 347.42 2772.13
   13:54:05.856.02-Jan-2020 4773.81 4705.91 83.58 4.00 347.62 2772.13
   13:54:06.056.02-Jan-2020 4773.81 4705.79 83.58 4.00 347.82 2772.13
   13:54:06.256.02-Jan-2020 4773.81 4705.78 83.58 4.00 348.02 2772.13
   13:54:06.456.02-Jan-2020 4773.81 4705.78 83.58 4.00 348.22 2772.13
   13:54:06.656.02-Jan-2020 4773.81 4705.80 83.58 4.00 348.42 2772.13
   13:54:06.856.02-Jan-2020 4773.81 4705.84 83.58 4.00 348.62 2772.13
   13:54:07.056.02-Jan-2020 4773.81 4705.79 83.58 4.00 348.82 2772.13
   13:54:07.256.02-Jan-2020 4773.81 4705.71 83.58 4.00 349.02 2772.13
   13:54:07.456.02-Jan-2020 4773.81 4705.71 83.58 4.00 349.22 2772.13
   13:54:07.656.02-Jan-2020 4773.81 4705.89 83.58 4.00 349.42 2772.13
   13:54:07.856.02-Jan-2020 4773.81 4705.89 83.58 4.00 349.62 2772.13
   13:54:08.056.02-Jan-2020 4773.81 4705.54 83.58 4.00 349.82 2772.13
   13:54:08.256.02-Jan-2020 4773.81 4706.37 83.58 4.00 350.02 2772.13
   13:54:08.456.02-Jan-2020 4773.81 4706.37 83.58 4.00 350.22 2772.13
   13:54:08.656.02-Jan-2020 4773.81 4705.91 83.58 4.00 350.42 2772.13
   13:54:08.856.02-Jan-2020 4773.81 4705.88 83.58 4.00 350.62 2772.13
   13:54:09.056.02-Jan-2020 4773.81 4705.16 83.58 4.00 350.82 2772.13
   13:54:09.256.02-Jan-2020 4773.81 4706.83 83.58 4.00 351.02 2772.13
   13:54:09.456.02-Jan-2020 4773.81 4706.83 83.58 4.00 351.22 2772.13
   13:54:09.656.02-Jan-2020 4773.81 4705.97 83.58 4.00 351.42 2772.13
   13:54:09.856.02-Jan-2020 4773.81 4705.89 83.58 4.00 351.62 2772.13
   13:54:10.056.02-Jan-2020 4773.81 4705.91 83.58 4.00 351.82 2772.13
   13:54:10.256.02-Jan-2020 4773.81 4705.86 83.58 4.00 352.02 2772.13
   13:54:10.456.02-Jan-2020 4773.81 4705.86 83.58 4.00 352.22 2772.13
   13:54:10.656.02-Jan-2020 4773.81 4705.93 83.58 4.00 352.42 2772.13
   13:54:10.856.02-Jan-2020 4773.81 4705.90 83.58 4.00 352.62 2772.13
   13:54:11.056.02-Jan-2020 4773.81 4705.61 83.58 4.00 352.82 2772.13
   13:54:11.256.02-Jan-2020 4773.81 4706.54 83.58 4.00 353.02 2772.13
   13:54:11.456.02-Jan-2020 4773.81 4706.54 83.58 4.00 353.22 2772.13
   13:54:11.657.02-Jan-2020 4773.81 4705.30 83.58 4.00 353.42 2772.13
   13:54:11.857.02-Jan-2020 4773.81 4706.86 83.58 4.00 353.62 2772.13
   13:54:12.057.02-Jan-2020 4773.81 4706.04 83.58 4.00 353.82 2772.13
   13:54:12.257.02-Jan-2020 4773.81 4706.02 83.58 4.00 354.02 2772.13
   13:54:12.457.02-Jan-2020 4773.81 4706.02 83.58 4.00 354.22 2772.13
   13:54:12.657.02-Jan-2020 4773.81 4706.28 83.58 4.00 354.42 2772.13
   13:54:12.857.02-Jan-2020 4773.81 4705.99 83.58 4.00 354.62 2772.13
   13:54:13.057.02-Jan-2020 4773.81 4706.01 83.58 4.00 354.82 2772.13
   13:54:13.257.02-Jan-2020 4773.81 4706.03 83.58 4.00 355.02 2772.13
   13:54:13.457.02-Jan-2020 4773.81 4706.03 83.58 4.00 355.22 2772.13
   13:54:13.657.02-Jan-2020 4773.81 4705.99 83.58 4.00 355.42 2772.13
   13:54:13.857.02-Jan-2020 4773.81 4706.02 83.58 4.00 355.62 2772.13
   13:54:14.057.02-Jan-2020 4773.81 4705.28 83.58 4.00 355.82 2772.13
   13:54:14.257.02-Jan-2020 4773.81 4706.95 83.58 4.00 356.02 2772.13
   13:54:14.457.02-Jan-2020 4773.81 4706.95 83.58 4.00 356.22 2772.13
   13:54:14.657.02-Jan-2020 4773.81 4706.04 83.58 4.00 356.42 2772.13
   13:54:14.857.02-Jan-2020 4773.81 4705.57 83.58 4.00 356.62 2772.13
   13:54:15.057.02-Jan-2020 4773.81 4706.51 83.58 4.00 356.82 2772.13
   13:54:15.257.02-Jan-2020 4773.81 4706.33 83.58 4.00 357.02 2772.13
   13:54:15.457.02-Jan-2020 4773.81 4706.33 83.58 4.00 357.22 2772.13
   13:54:15.657.02-Jan-2020 4773.81 4706.03 83.58 4.00 357.42 2772.13
   13:54:15.857.02-Jan-2020 4773.81 4706.05 83.58 4.00 357.62 2772.13
   13:54:16.057.02-Jan-2020 4773.81 4706.01 83.58 4.00 357.82 2772.13
   13:54:16.257.02-Jan-2020 4773.81 4706.43 83.58 4.00 358.02 2772.13
   13:54:16.457.02-Jan-2020 4773.81 4706.43 83.58 4.00 358.22 2772.13
   13:54:16.657.02-Jan-2020 4773.81 4706.10 83.58 4.00 358.42 2772.13
   13:54:16.857.02-Jan-2020 4773.81 4706.05 83.58 4.00 358.62 2772.13
   13:54:17.057.02-Jan-2020 4773.81 4705.37 83.58 4.00 358.82 2772.13
   13:54:17.257.02-Jan-2020 4773.81 4707.00 83.58 4.00 359.02 2772.13
   13:54:17.457.02-Jan-2020 4773.81 4707.00 83.58 4.00 359.22 2772.13
   13:54:17.657.02-Jan-2020 4773.81 4706.07 83.58 4.00 359.42 2772.13
   13:54:17.857.02-Jan-2020 4773.81 4705.58 83.58 4.00 359.62 2772.13
   13:54:18.057.02-Jan-2020 4773.81 4706.55 83.58 4.00 359.82 2772.13
   13:54:18.257.02-Jan-2020 4773.81 4706.41 83.58 4.00 360.02 2772.13
   13:54:18.457.02-Jan-2020 4773.81 4706.41 83.58 4.00 360.22 2772.13
   13:54:18.657.02-Jan-2020 4773.81 4705.93 83.58 4.00 360.42 2772.13
   13:54:18.857.02-Jan-2020 4773.81 4706.39 83.58 4.00 360.62 2772.13
   13:54:19.057.02-Jan-2020 4773.81 4706.10 83.58 4.00 360.82 2772.13
   13:54:19.257.02-Jan-2020 4773.81 4705.44 83.58 4.00 361.02 2772.13
   13:54:19.457.02-Jan-2020 4773.81 4705.44 83.58 4.00 361.22 2772.13
   13:54:19.657.02-Jan-2020 4773.81 4706.13 83.58 4.00 361.42 2772.13
   13:54:19.857.02-Jan-2020 4773.81 4706.10 83.58 4.00 361.62 2772.13
   13:54:20.057.02-Jan-2020 4773.81 4706.09 83.58 4.00 361.82 2772.13
   13:54:20.257.02-Jan-2020 4773.81 4706.09 83.58 4.00 362.02 2772.13
   13:54:20.457.02-Jan-2020 4773.81 4706.09 83.58 4.00 362.22 2772.13
   13:54:20.657.02-Jan-2020 4773.81 4706.08 83.58 4.00 362.42 2772.13
   13:54:20.857.02-Jan-2020 4773.81 4706.10 83.58 4.00 362.62 2772.13
   13:54:21.057.02-Jan-2020 4773.81 4706.08 83.58 4.00 362.82 2772.13
   13:54:21.257.02-Jan-2020 4773.81 4706.49 83.58 4.00 363.02 2772.13
   13:54:21.457.02-Jan-2020 4773.81 4706.49 83.58 4.00 363.22 2772.13
   13:54:21.657.02-Jan-2020 4773.81 4706.14 83.58 4.00 363.42 2772.13
   13:54:21.857.02-Jan-2020 4773.81 4706.11 83.58 4.00 363.62 2772.13
   13:54:22.057.02-Jan-2020 4773.81 4705.87 83.58 4.00 363.82 2772.13
   13:54:22.257.02-Jan-2020 4773.81 4706.74 83.58 4.00 364.02 2772.13
   13:54:22.457.02-Jan-2020 4773.81 4706.74 83.58 4.00 364.22 2772.13
   13:54:22.657.02-Jan-2020 4773.81 4706.19 83.58 4.00 364.42 2772.13
   13:54:22.857.02-Jan-2020 4773.81 4706.12 83.58 4.00 364.62 2772.13
   13:54:23.057.02-Jan-2020 4773.81 4705.43 83.58 4.00 364.82 2772.13
   13:54:23.257.02-Jan-2020 4773.81 4707.09 83.58 4.00 365.02 2772.13
   13:54:23.457.02-Jan-2020 4773.81 4707.09 83.58 4.00 365.22 2772.13
   13:54:23.657.02-Jan-2020 4773.81 4706.19 83.58 4.00 365.42 2772.13
   13:54:23.857.02-Jan-2020 4773.81 4706.11 83.58 4.00 365.62 2772.13
   13:54:24.057.02-Jan-2020 4773.81 4706.14 83.58 4.00 365.82 2772.13
   13:54:24.257.02-Jan-2020 4773.81 4706.10 83.58 4.00 366.02 2772.13
   13:54:24.457.02-Jan-2020 4773.81 4706.10 83.58 4.00 366.22 2772.13
   13:54:24.657.02-Jan-2020 4773.81 4706.16 83.58 4.00 366.42 2772.13
   13:54:24.857.02-Jan-2020 4773.81 4706.13 83.58 4.00 366.62 2772.13
   13:54:25.057.02-Jan-2020 4773.81 4705.89 83.58 4.00 366.82 2772.13
   13:54:25.257.02-Jan-2020 4773.81 4706.73 83.58 4.00 367.02 2772.13
   13:54:25.457.02-Jan-2020 4773.81 4706.73 83.58 4.00 367.22 2772.13
   13:54:25.657.02-Jan-2020 4773.81 4705.44 83.58 4.00 367.42 2772.13
   13:54:25.857.02-Jan-2020 4773.81 4707.04 83.58 4.00 367.62 2772.13
   13:54:26.057.02-Jan-2020 4773.81 4706.21 83.58 4.00 367.82 2772.13
