~Version Information
 VERS.                  2.0:   CWLS log ASCII Standard -VERSION 2.0
 WRAP.                   NO:   One line per depth step
~Well Information Block
#MNEM.UNIT     VALUE/NAME     DESCRIPTION
#---------     -----------    ---------------------------
 STRT.S             10:33:43 02-Jan-20: START TIME 10:33:43 02-Jan-20
 STOP.S             10:42:04 02-Jan-20: STOP TIME  10:42:04 02-Jan-20
 STEP.S                   0.00: STEP TIME
 NULL.                 -999.25: NULL VALUE
 MDS .        Operator Entered:  MAG DATA SOURCE
 UNIT.                     N/a:  LOGGING EQUIPMENT ID
 DCON.         Sperry Drilling:  DIRECTNL CONTR
 CNTY.                    Baku:  COUNTY NAME
 DOE .                     N/a:  DOE NUMBER
 RIG .                     DWG:  RIG NAME
 MWDS.                    Baku:  MWD SHOP
 REGN.                   EESSA:  REGION
 BASE.              Azerbaijan:  LOGGING EQUIPMENT BASE LOCATION
 UWI .                     N/a:  UNIQUE WELL IDENTIFIER
 API .                     N/a:  API NUMBER
 WTYP.                Deviated:  WELL TYPE
 COMP.     BP Exploration (Caspian Sea) Ltd.:  COMPANY
 SRVC.          TURAN DRILLING:  CONTRACTOR
 WELL.           E04 (Slot 23):  WELL NAME
 CTRY.              Azerbaijan:  COUNTRY NAME
 SON .        AZ-XX-0905715376:  JOB NUMBER
 FLD .                     ACG:  FIELD NAME
 PDAT.          Mean Sea Level:  PERMANENT DATUM
 FTOP.          Formation Tops:  FORM TOPS DESC
 ILTD.               Lithology:  INTERP LTH DESC
 SVYD.                  Survey:  SURVEY DESC
 DMOD.             Drill Model:  DRILL MOD DESC
 HPTY.       Minimum Curvature:  HOLE POS TYPE
 NREF.                    Grid:  NORTH REFERENCE
 SPUD.               21-Dec-19:  SPUD DATE
 DATE.      17.57.20 21-Dec-19:  END TIME
 STIM.      17.57.20 21-Dec-19:  START TIME
 DMF .             Drill Floor:  DRILL MEAS FROM
 DFST.                        :  DIST FSL TEXT
 DFWT.                        :  DIST FWL TEXT
 PROV.                        :  PROVINCE
 STAT.                        :  STATE
 LOC .                        :  LOCATION
 LMF .             Drill Floor:  LOG MEASURED FROM
 AGAP.m                  43.16:  AIR GAP
 DEP .m                3172.61:  DEPTH
 APD .m                  43.16:  DEPTH ABOVE PD
 WDMS.m                 176.20:  WD ELEV
 EGL .m                   0.00:  GROUND ELEVATION
 EPD .m                   0.00:  ELEVATION
 AZTC.deg                 6.49:  AZM TOTAL CORR
 GRDC.deg                 0.09:  GRID CORRECTION
 MDEC.deg                 6.58:  MAGNETIC DECL
 MDIP.deg                59.61:  MAGNETIC DIP
 MFLD.nT              50294.00:  MAGNETIC FIELD
 GVFD.g                   1.00:  GRAVITY FIELD
 VSDR.deg               235.12:  VERT SEC DIRECT
 TDD .m                   0.00:  TOTAL DEPTH (DRILLER)
 SDEP.m                   0.00:  START DEPTH
 UTMY.m             4448627.46:  UTM Y
 UTMX.m              514337.95:  UTM X
 LONG.deg                51.17:  LONGITUDE
 LATI.deg                40.17:  LATITUDE
 TVDS.m                  43.16:  TVDSS CORRECTN
 WHEW.m                  -5.41:  WELL HEAD E/W
 WHNS.m                  -0.12:  WELL HEAD N/S
 VSEW.m                  -5.41:  VERT SEC E/W
 VSNS.m                  -0.12:  VERT SEC N/S
 EKB .m                  43.16:  KB ELEVATION
 EDF .m                  43.16:  DF ELEVATION
 MAGU.                 1852276:  MAGUTM CHECKSUM
 VSC .                       0:  VS TO CLOSURE
~Parameter Information Block
#MNEM.UNIT       Value        Description
#---------     -----------    ---------------------------
 TCS .hr                125.29:  Time Ciculation Ended 
 DD1 .      Fakhraddin Guliyev:  Direct Drillr 1 
 DD2 .                   Sanan:  Direct Drillr 2 
 DEFF.%                   0.00:  % Det Eff 
 DRET.      04.26.40 27-Dec-19:  Drill End Time 
 DRST.      04.26.40 27-Dec-19:  Drill Start Tim 
 DTIM.hr                 80.10:  Time Drilling 
 EDEP.m                   0.00:  End Depth 
 ENG1.            Adlet Omarov:  Engineer 1 
 ENG2.         Almaz Almadatov:  Engineer 2 
 ETIM.      04.26.40 27-Dec-19:  End Time 
 HFLO.                      No:  High Flow 
 HPRE.                      No:  High Pressure 
 HTEM.                      No:  High Temp 
 HYDO.m                   1.85:  Hydro Offset 
 IMAX.deg                72.09:  Inc Max 
 IMIN.deg                59.07:  Inc Min 
 IMND.m                3901.43:  Inc Min Depth 
 IMXD.m                4753.85:  Inc Max Depth 
 LETM.      04.26.40 27-Dec-19:  Log End Time 
 LSTM.      04.26.40 27-Dec-19:  Log Start Time 
 OTIM.hr                187.88:  Time Operating 
 PMAX.psia            10202.94:  Press Op, Max 
 RUN .                     300:  Run Number 
 RRUN.                    0300:  Rig Run Number 
 SDEP.m                   0.00:  Start Depth 
 STIM.      04.26.40 27-Dec-19:  Start Time 
 SVER.                    9.20:  Sperry Version 
 MRT .                    HCIM:  Maximum Recorded Temperature 
 TTMX.degC               96.08:  Max Tool Temp 
~Curve Information Block
#MNEM.UNIT                 API CODE     Curve Description
#---------               -----------    ---------------------------
 TIME.HHMMSS            00 000 000 000:  GT Time & Date
 GTDEPTH.m              00 000 000 000:  GT Depth
 GTPQH.psia             00 000 000 000:  GT HR Quartz Pressure
 GTTQ.degC              00 000 000 000:  GT Quartz Temperature
 GTTN.NONE              00 000 000 000:  GT Test Number
 GTET.sec               00 000 000 000:  GT Elapsed Test Time
 GTTVD.m                00 000 000 000:  GT True Vertical Depth
#Other Information
#
#WARRANTY: Halliburton will use its best efforts to furnish customers with 
#accurate information and interpretations that are part of, and incident to, the services 
#provided.  However, Halliburton cannot and does not warrant the accuracy 
#or correctness of such information and interpretations.  Under no circumstances should any 
#such information or interpretation be relied upon as the sole basis for any drilling, 
#completion, production, or financial decision or any procedure involving any risk to the 
#safety of any drilling venture, drilling rig or its crew or any other third party.  The 
#Customer has full responsibility for all drilling, completion and production operation.  
#Halliburton makes no representations or warranties, either expressed or 
#implied, including, but not limited to, the implied warranties of merchantability or fitness 
#for a particular purpose, with respect to the services rendered.  In no event will 
#Halliburton be liable for failure to obtain any particular results or for 
#any damages, including, but not limited to, indirect, special or consequential damages, 
#resulting from the use of any information or interpretation provided by Halliburton.
#
~A           TIME           GTDEPTH  GTPQH  GTTQ  GTTN  GTET   GTTVD  
# ...
   10:34:52.689.02-Jan-2020 4788.22 6127.43 85.76 1.00  69.02 2776.61
   10:34:52.889.02-Jan-2020 4788.22 6127.43 85.76 1.00  69.22 2776.61
   10:34:53.089.02-Jan-2020 4788.22 6121.64 85.76 1.00  69.42 2776.61
   10:34:53.289.02-Jan-2020 4788.22 6122.00 85.75 1.00  69.62 2776.61
   10:34:53.489.02-Jan-2020 4788.22 6121.76 85.75 1.00  69.82 2776.61
   10:34:53.689.02-Jan-2020 4788.22 6122.89 85.75 1.00  70.02 2776.61
   10:34:53.889.02-Jan-2020 4788.22 6122.89 85.75 1.00  70.22 2776.61
   10:34:54.089.02-Jan-2020 4788.22 6127.73 85.75 1.00  70.42 2776.61
   10:34:54.289.02-Jan-2020 4788.22 6122.64 85.75 1.00  70.62 2776.61
   10:34:54.489.02-Jan-2020 4788.22 6121.71 85.75 1.00  70.82 2776.61
   10:34:54.689.02-Jan-2020 4788.22 6121.19 85.75 1.00  71.02 2776.61
   10:34:54.889.02-Jan-2020 4788.22 6121.19 85.75 1.00  71.22 2776.61
   10:34:55.089.02-Jan-2020 4788.22 6122.02 85.75 1.00  71.42 2776.61
   10:34:55.289.02-Jan-2020 4788.22 6129.77 85.75 1.00  71.62 2776.61
   10:34:55.489.02-Jan-2020 4788.22 6127.92 85.75 1.00  71.82 2776.61
   10:34:55.689.02-Jan-2020 4788.22 6123.17 85.75 1.00  72.02 2776.61
   10:34:55.889.02-Jan-2020 4788.22 6123.17 85.75 1.00  72.22 2776.61
   10:34:56.089.02-Jan-2020 4788.22 6127.85 85.75 1.00  72.42 2776.61
   10:34:56.289.02-Jan-2020 4788.22 6123.92 85.75 1.00  72.62 2776.61
   10:34:56.490.02-Jan-2020 4788.22 6122.72 85.75 1.00  72.82 2776.61
   10:34:56.690.02-Jan-2020 4788.22 6130.32 85.75 1.00  73.02 2776.61
   10:34:56.890.02-Jan-2020 4788.22 6130.32 85.75 1.00  73.22 2776.61
   10:34:57.090.02-Jan-2020 4788.22 6122.66 85.75 1.00  73.42 2776.61
   10:34:57.290.02-Jan-2020 4788.22 6131.87 85.75 1.00  73.62 2776.61
   10:34:57.490.02-Jan-2020 4788.22 6125.28 85.75 1.00  73.82 2776.61
   10:34:57.690.02-Jan-2020 4788.22 6122.36 85.75 1.00  74.02 2776.61
   10:34:57.890.02-Jan-2020 4788.22 6122.36 85.75 1.00  74.22 2776.61
   10:34:58.090.02-Jan-2020 4788.22 6124.77 85.75 1.00  74.42 2776.61
   10:34:58.290.02-Jan-2020 4788.22 6123.65 85.75 1.00  74.62 2776.61
   10:34:58.490.02-Jan-2020 4788.22 6123.44 85.75 1.00  74.82 2776.61
   10:34:58.690.02-Jan-2020 4788.22 6123.70 85.75 1.00  75.02 2776.61
   10:34:58.890.02-Jan-2020 4788.22 6123.70 85.75 1.00  75.22 2776.61
   10:34:59.090.02-Jan-2020 4788.22 6129.97 85.75 1.00  75.42 2776.61
   10:34:59.290.02-Jan-2020 4788.22 6128.44 85.75 1.00  75.62 2776.61
   10:34:59.490.02-Jan-2020 4788.22 6125.29 85.75 1.00  75.82 2776.61
   10:34:59.690.02-Jan-2020 4788.22 6128.52 85.75 1.00  76.02 2776.61
   10:34:59.890.02-Jan-2020 4788.22 6128.52 85.75 1.00  76.22 2776.61
   10:35:00.090.02-Jan-2020 4788.22 6126.32 85.75 1.00  76.42 2776.61
   10:35:00.290.02-Jan-2020 4788.22 6124.98 85.75 1.00  76.62 2776.61
   10:35:00.490.02-Jan-2020 4788.22 6125.49 85.75 1.00  76.82 2776.61
   10:35:00.691.02-Jan-2020 4788.22 6124.62 85.75 1.00  77.02 2776.61
   10:35:00.891.02-Jan-2020 4788.22 6124.62 85.75 1.00  77.22 2776.61
   10:35:01.091.02-Jan-2020 4788.22 6134.11 85.75 1.00  77.42 2776.61
   10:35:01.291.02-Jan-2020 4788.22 6129.42 85.75 1.00  77.62 2776.61
   10:35:01.491.02-Jan-2020 4788.22 6126.90 85.75 1.00  77.82 2776.61
   10:35:01.691.02-Jan-2020 4788.22 6126.23 85.75 1.00  78.02 2776.61
   10:35:01.891.02-Jan-2020 4788.22 6126.23 85.75 1.00  78.22 2776.61
   10:35:02.091.02-Jan-2020 4788.22 6124.85 85.75 1.00  78.42 2776.61
   10:35:02.291.02-Jan-2020 4788.22 6124.91 85.75 1.00  78.62 2776.61
   10:35:02.491.02-Jan-2020 4788.22 6133.62 85.75 1.00  78.82 2776.61
   10:35:02.691.02-Jan-2020 4788.22 6127.80 85.75 1.00  79.02 2776.61
   10:35:02.891.02-Jan-2020 4788.22 6127.80 85.75 1.00  79.22 2776.61
   10:35:03.091.02-Jan-2020 4788.22 6126.12 85.75 1.00  79.42 2776.61
   10:35:03.291.02-Jan-2020 4788.22 6132.62 85.75 1.00  79.62 2776.61
   10:35:03.491.02-Jan-2020 4788.22 6129.78 85.75 1.00  79.82 2776.61
   10:35:03.691.02-Jan-2020 4788.22 6126.25 85.75 1.00  80.02 2776.61
   10:35:03.891.02-Jan-2020 4788.22 6126.25 85.75 1.00  80.22 2776.61
   10:35:04.091.02-Jan-2020 4788.22 6130.68 85.75 1.00  80.42 2776.61
   10:35:04.291.02-Jan-2020 4788.22 6131.84 85.75 1.00  80.62 2776.61
   10:35:04.491.02-Jan-2020 4788.22 6128.36 85.74 1.00  80.82 2776.61
   10:35:04.691.02-Jan-2020 4788.22 6126.20 85.74 1.00  81.02 2776.61
   10:35:04.891.02-Jan-2020 4788.22 6126.20 85.74 1.00  81.22 2776.61
   10:35:05.092.02-Jan-2020 4788.22 6129.62 85.74 1.00  81.42 2776.61
   10:35:05.292.02-Jan-2020 4788.22 6126.74 85.74 1.00  81.62 2776.61
   10:35:05.492.02-Jan-2020 4788.22 6128.07 85.74 1.00  81.82 2776.61
   10:35:05.692.02-Jan-2020 4788.22 6127.15 85.74 1.00  82.02 2776.61
   10:35:05.892.02-Jan-2020 4788.22 6127.15 85.74 1.00  82.22 2776.61
   10:35:06.092.02-Jan-2020 4788.22 6126.30 85.74 1.00  82.42 2776.61
   10:35:06.292.02-Jan-2020 4788.22 6127.24 85.74 1.00  82.62 2776.61
   10:35:06.492.02-Jan-2020 4788.22 6136.36 85.74 1.00  82.82 2776.61
   10:35:06.692.02-Jan-2020 4788.22 6130.05 85.74 1.00  83.02 2776.61
   10:35:06.892.02-Jan-2020 4788.22 6130.05 85.74 1.00  83.22 2776.61
   10:35:07.092.02-Jan-2020 4788.22 6127.62 85.74 1.00  83.42 2776.61
   10:35:07.292.02-Jan-2020 4788.22 6136.10 85.74 1.00  83.62 2776.61
   10:35:07.492.02-Jan-2020 4788.22 6129.42 85.74 1.00  83.82 2776.61
   10:35:07.692.02-Jan-2020 4788.22 6128.03 85.74 1.00  84.02 2776.61
   10:35:07.892.02-Jan-2020 4788.22 6128.03 85.74 1.00  84.22 2776.61
   10:35:08.092.02-Jan-2020 4788.22 6127.70 85.74 1.00  84.42 2776.61
   10:35:08.292.02-Jan-2020 4788.22 6127.64 85.74 1.00  84.62 2776.61
   10:35:08.492.02-Jan-2020 4788.22 6128.43 85.74 1.00  84.82 2776.61
   10:35:08.692.02-Jan-2020 4788.22 6136.35 85.74 1.00  85.02 2776.61
   10:35:08.892.02-Jan-2020 4788.22 6136.35 85.74 1.00  85.22 2776.61
   10:35:09.092.02-Jan-2020 4788.22 6129.66 85.74 1.00  85.42 2776.61
   10:35:09.293.02-Jan-2020 4788.22 6129.72 85.74 1.00  85.62 2776.61
   10:35:09.493.02-Jan-2020 4788.22 6128.97 85.74 1.00  85.82 2776.61
   10:35:09.693.02-Jan-2020 4788.22 6128.29 85.74 1.00  86.02 2776.61
   10:35:09.893.02-Jan-2020 4788.22 6128.29 85.74 1.00  86.22 2776.61
   10:35:10.093.02-Jan-2020 4788.22 6135.26 85.74 1.00  86.42 2776.61
   10:35:10.293.02-Jan-2020 4788.22 6132.56 85.74 1.00  86.62 2776.61
   10:35:10.493.02-Jan-2020 4788.22 6128.48 85.74 1.00  86.82 2776.61
   10:35:10.693.02-Jan-2020 4788.22 6132.55 85.74 1.00  87.02 2776.61
   10:35:10.893.02-Jan-2020 4788.22 6132.55 85.74 1.00  87.22 2776.61
   10:35:11.093.02-Jan-2020 4788.22 6130.26 85.74 1.00  87.42 2776.61
   10:35:11.293.02-Jan-2020 4788.22 6129.37 85.74 1.00  87.62 2776.61
   10:35:11.493.02-Jan-2020 4788.22 6130.87 85.74 1.00  87.82 2776.61
   10:35:11.693.02-Jan-2020 4788.22 6129.16 85.74 1.00  88.02 2776.61
   10:35:11.893.02-Jan-2020 4788.22 6129.16 85.74 1.00  88.22 2776.61
   10:35:12.093.02-Jan-2020 4788.22 6133.26 85.74 1.00  88.42 2776.61
   10:35:12.293.02-Jan-2020 4788.22 6129.29 85.74 1.00  88.62 2776.61
   10:35:12.493.02-Jan-2020 4788.22 6137.24 85.74 1.00  88.82 2776.61
   10:35:12.693.02-Jan-2020 4788.22 6131.17 85.74 1.00  89.02 2776.61
   10:35:12.893.02-Jan-2020 4788.22 6131.17 85.74 1.00  89.22 2776.61
   10:35:13.093.02-Jan-2020 4788.22 6130.38 85.74 1.00  89.42 2776.61
   10:35:13.293.02-Jan-2020 4788.22 6129.24 85.74 1.00  89.62 2776.61
   10:35:13.494.02-Jan-2020 4788.22 6127.97 85.74 1.00  89.82 2776.61
   10:35:13.694.02-Jan-2020 4788.22 6128.54 85.74 1.00  90.02 2776.61
   10:35:13.894.02-Jan-2020 4788.22 6128.54 85.74 1.00  90.22 2776.61
   10:35:14.094.02-Jan-2020 4788.22 6133.55 85.74 1.00  90.42 2776.61
   10:35:14.294.02-Jan-2020 4788.22 6135.85 85.74 1.00  90.62 2776.61
   10:35:14.494.02-Jan-2020 4788.22 6131.78 85.74 1.00  90.82 2776.61
   10:35:14.694.02-Jan-2020 4788.22 6130.14 85.74 1.00  91.02 2776.61
   10:35:14.894.02-Jan-2020 4788.22 6130.14 85.74 1.00  91.22 2776.61
   10:35:15.094.02-Jan-2020 4788.22 6129.18 85.74 1.00  91.42 2776.61
   10:35:15.294.02-Jan-2020 4788.22 6129.61 85.74 1.00  91.62 2776.61
   10:35:15.494.02-Jan-2020 4788.22 6138.78 85.74 1.00  91.82 2776.61
