~Version Information
 VERS.                  2.0:   CWLS log ASCII Standard -VERSION 2.0
 WRAP.                   NO:   One line per depth step
~Well Information Block
#MNEM.UNIT     VALUE/NAME     DESCRIPTION
#---------     -----------    ---------------------------
 STRT.S             13:01:02 02-Jan-20: START TIME 13:01:02 02-Jan-20
 STOP.S             13:09:15 02-Jan-20: STOP TIME  13:09:15 02-Jan-20
 STEP.S                   0.00: STEP TIME
 NULL.                 -999.25: NULL VALUE
 MDS .        Operator Entered:  MAG DATA SOURCE
 UNIT.                     N/a:  LOGGING EQUIPMENT ID
 DCON.         Sperry Drilling:  DIRECTNL CONTR
 CNTY.                    Baku:  COUNTY NAME
 DOE .                     N/a:  DOE NUMBER
 RIG .                     DWG:  RIG NAME
 MWDS.                    Baku:  MWD SHOP
 REGN.                   EESSA:  REGION
 BASE.              Azerbaijan:  LOGGING EQUIPMENT BASE LOCATION
 UWI .                     N/a:  UNIQUE WELL IDENTIFIER
 API .                     N/a:  API NUMBER
 WTYP.                Deviated:  WELL TYPE
 COMP.     BP Exploration (Caspian Sea) Ltd.:  COMPANY
 SRVC.          TURAN DRILLING:  CONTRACTOR
 WELL.           E04 (Slot 23):  WELL NAME
 CTRY.              Azerbaijan:  COUNTRY NAME
 SON .        AZ-XX-0905715376:  JOB NUMBER
 FLD .                     ACG:  FIELD NAME
 PDAT.          Mean Sea Level:  PERMANENT DATUM
 FTOP.          Formation Tops:  FORM TOPS DESC
 ILTD.               Lithology:  INTERP LTH DESC
 SVYD.                  Survey:  SURVEY DESC
 DMOD.             Drill Model:  DRILL MOD DESC
 HPTY.       Minimum Curvature:  HOLE POS TYPE
 NREF.                    Grid:  NORTH REFERENCE
 SPUD.               21-Dec-19:  SPUD DATE
 DATE.      17.57.20 21-Dec-19:  END TIME
 STIM.      17.57.20 21-Dec-19:  START TIME
 DMF .             Drill Floor:  DRILL MEAS FROM
 DFST.                        :  DIST FSL TEXT
 DFWT.                        :  DIST FWL TEXT
 PROV.                        :  PROVINCE
 STAT.                        :  STATE
 LOC .                        :  LOCATION
 LMF .             Drill Floor:  LOG MEASURED FROM
 AGAP.m                  43.16:  AIR GAP
 DEP .m                3172.61:  DEPTH
 APD .m                  43.16:  DEPTH ABOVE PD
 WDMS.m                 176.20:  WD ELEV
 EGL .m                   0.00:  GROUND ELEVATION
 EPD .m                   0.00:  ELEVATION
 AZTC.deg                 6.49:  AZM TOTAL CORR
 GRDC.deg                 0.09:  GRID CORRECTION
 MDEC.deg                 6.58:  MAGNETIC DECL
 MDIP.deg                59.61:  MAGNETIC DIP
 MFLD.nT              50294.00:  MAGNETIC FIELD
 GVFD.g                   1.00:  GRAVITY FIELD
 VSDR.deg               235.12:  VERT SEC DIRECT
 TDD .m                   0.00:  TOTAL DEPTH (DRILLER)
 SDEP.m                   0.00:  START DEPTH
 UTMY.m             4448627.46:  UTM Y
 UTMX.m              514337.95:  UTM X
 LONG.deg                51.17:  LONGITUDE
 LATI.deg                40.17:  LATITUDE
 TVDS.m                  43.16:  TVDSS CORRECTN
 WHEW.m                  -5.41:  WELL HEAD E/W
 WHNS.m                  -0.12:  WELL HEAD N/S
 VSEW.m                  -5.41:  VERT SEC E/W
 VSNS.m                  -0.12:  VERT SEC N/S
 EKB .m                  43.16:  KB ELEVATION
 EDF .m                  43.16:  DF ELEVATION
 MAGU.                 1852276:  MAGUTM CHECKSUM
 VSC .                       0:  VS TO CLOSURE
~Parameter Information Block
#MNEM.UNIT       Value        Description
#---------     -----------    ---------------------------
 TCS .hr                125.29:  Time Ciculation Ended 
 DD1 .      Fakhraddin Guliyev:  Direct Drillr 1 
 DD2 .                   Sanan:  Direct Drillr 2 
 DEFF.%                   0.00:  % Det Eff 
 DRET.      04.26.40 27-Dec-19:  Drill End Time 
 DRST.      04.26.40 27-Dec-19:  Drill Start Tim 
 DTIM.hr                 80.10:  Time Drilling 
 EDEP.m                   0.00:  End Depth 
 ENG1.            Adlet Omarov:  Engineer 1 
 ENG2.         Almaz Almadatov:  Engineer 2 
 ETIM.      04.26.40 27-Dec-19:  End Time 
 HFLO.                      No:  High Flow 
 HPRE.                      No:  High Pressure 
 HTEM.                      No:  High Temp 
 HYDO.m                   1.85:  Hydro Offset 
 IMAX.deg                72.09:  Inc Max 
 IMIN.deg                59.07:  Inc Min 
 IMND.m                3901.43:  Inc Min Depth 
 IMXD.m                4753.85:  Inc Max Depth 
 LETM.      04.26.40 27-Dec-19:  Log End Time 
 LSTM.      04.26.40 27-Dec-19:  Log Start Time 
 OTIM.hr                187.88:  Time Operating 
 PMAX.psia            10202.94:  Press Op, Max 
 RUN .                     300:  Run Number 
 RRUN.                    0300:  Rig Run Number 
 SDEP.m                   0.00:  Start Depth 
 STIM.      04.26.40 27-Dec-19:  Start Time 
 SVER.                    9.20:  Sperry Version 
 MRT .                    HCIM:  Maximum Recorded Temperature 
 TTMX.degC               96.08:  Max Tool Temp 
~Curve Information Block
#MNEM.UNIT                 API CODE     Curve Description
#---------               -----------    ---------------------------
 TIME.HHMMSS            00 000 000 000:  GT Time & Date
 GTDEPTH.m              00 000 000 000:  GT Depth
 GTPQH.psia             00 000 000 000:  GT HR Quartz Pressure
 GTTQ.degC              00 000 000 000:  GT Quartz Temperature
 GTTN.NONE              00 000 000 000:  GT Test Number
 GTET.sec               00 000 000 000:  GT Elapsed Test Time
 GTTVD.m                00 000 000 000:  GT True Vertical Depth
#Other Information
#
#WARRANTY: Halliburton will use its best efforts to furnish customers with 
#accurate information and interpretations that are part of, and incident to, the services 
#provided.  However, Halliburton cannot and does not warrant the accuracy 
#or correctness of such information and interpretations.  Under no circumstances should any 
#such information or interpretation be relied upon as the sole basis for any drilling, 
#completion, production, or financial decision or any procedure involving any risk to the 
#safety of any drilling venture, drilling rig or its crew or any other third party.  The 
#Customer has full responsibility for all drilling, completion and production operation.  
#Halliburton makes no representations or warranties, either expressed or 
#implied, including, but not limited to, the implied warranties of merchantability or fitness 
#for a particular purpose, with respect to the services rendered.  In no event will 
#Halliburton be liable for failure to obtain any particular results or for 
#any damages, including, but not limited to, indirect, special or consequential damages, 
#resulting from the use of any information or interpretation provided by Halliburton.
#
~A           TIME           GTDEPTH  GTPQH  GTTQ  GTTN  GTET   GTTVD  
# ...
   13:08:19.122.02-Jan-2020 4774.33 4707.81 83.81 3.00 437.02 2772.29
   13:08:19.322.02-Jan-2020 4774.33 4707.81 83.81 3.00 437.22 2772.29
   13:08:19.522.02-Jan-2020 4774.33 4708.01 83.81 3.00 437.42 2772.29
   13:08:19.722.02-Jan-2020 4774.33 4707.63 83.81 3.00 437.62 2772.29
   13:08:19.922.02-Jan-2020 4774.33 4707.82 83.81 3.00 437.82 2772.29
   13:08:20.122.02-Jan-2020 4774.33 4707.69 83.81 3.00 438.02 2772.29
   13:08:20.322.02-Jan-2020 4774.33 4707.69 83.81 3.00 438.22 2772.29
   13:08:20.522.02-Jan-2020 4774.33 4707.56 83.81 3.00 438.42 2772.29
   13:08:20.722.02-Jan-2020 4774.33 4707.56 83.81 3.00 438.62 2772.29
   13:08:20.922.02-Jan-2020 4774.33 4707.00 83.81 3.00 438.82 2772.29
   13:08:21.122.02-Jan-2020 4774.33 4706.67 83.81 3.00 439.02 2772.29
   13:08:21.322.02-Jan-2020 4774.33 4706.67 83.81 3.00 439.22 2772.29
   13:08:21.522.02-Jan-2020 4774.33 4707.66 83.81 3.00 439.42 2772.29
   13:08:21.722.02-Jan-2020 4774.33 4707.56 83.81 3.00 439.62 2772.29
   13:08:21.922.02-Jan-2020 4774.33 4707.52 83.81 3.00 439.82 2772.29
   13:08:22.122.02-Jan-2020 4774.33 4707.52 83.81 3.00 440.02 2772.29
   13:08:22.322.02-Jan-2020 4774.33 4707.52 83.81 3.00 440.22 2772.29
   13:08:22.522.02-Jan-2020 4774.33 4707.79 83.81 3.00 440.42 2772.29
   13:08:22.722.02-Jan-2020 4774.33 4707.67 83.81 3.00 440.62 2772.29
   13:08:22.922.02-Jan-2020 4774.33 4707.63 83.81 3.00 440.82 2772.29
   13:08:23.122.02-Jan-2020 4774.33 4707.56 83.81 3.00 441.02 2772.29
   13:08:23.322.02-Jan-2020 4774.33 4707.56 83.81 3.00 441.22 2772.29
   13:08:23.522.02-Jan-2020 4774.33 4708.04 83.81 3.00 441.42 2772.29
   13:08:23.722.02-Jan-2020 4774.33 4707.65 83.81 3.00 441.62 2772.29
   13:08:23.922.02-Jan-2020 4774.33 4707.77 83.81 3.00 441.82 2772.29
   13:08:24.122.02-Jan-2020 4774.33 4707.59 83.81 3.00 442.02 2772.29
   13:08:24.322.02-Jan-2020 4774.33 4707.59 83.81 3.00 442.22 2772.29
   13:08:24.522.02-Jan-2020 4774.33 4706.61 83.81 3.00 442.42 2772.29
   13:08:24.722.02-Jan-2020 4774.33 4707.96 83.81 3.00 442.62 2772.29
   13:08:24.922.02-Jan-2020 4774.33 4707.65 83.81 3.00 442.82 2772.29
   13:08:25.122.02-Jan-2020 4774.33 4707.62 83.81 3.00 443.02 2772.29
   13:08:25.322.02-Jan-2020 4774.33 4707.62 83.81 3.00 443.22 2772.29
   13:08:25.522.02-Jan-2020 4774.33 4707.77 83.80 3.00 443.42 2772.29
   13:08:25.722.02-Jan-2020 4774.33 4707.68 83.80 3.00 443.62 2772.29
   13:08:25.922.02-Jan-2020 4774.33 4706.07 83.80 3.00 443.82 2772.29
   13:08:26.122.02-Jan-2020 4774.33 4708.08 83.80 3.00 444.02 2772.29
   13:08:26.322.02-Jan-2020 4774.33 4708.08 83.80 3.00 444.22 2772.29
   13:08:26.522.02-Jan-2020 4774.33 4707.86 83.80 3.00 444.42 2772.29
   13:08:26.722.02-Jan-2020 4774.33 4706.13 83.80 3.00 444.62 2772.29
   13:08:26.922.02-Jan-2020 4774.33 4708.07 83.80 3.00 444.82 2772.29
   13:08:27.122.02-Jan-2020 4774.33 4707.66 83.80 3.00 445.02 2772.29
   13:08:27.322.02-Jan-2020 4774.33 4707.66 83.80 3.00 445.22 2772.29
   13:08:27.522.02-Jan-2020 4774.33 4707.72 83.80 3.00 445.42 2772.29
   13:08:27.722.02-Jan-2020 4774.33 4707.62 83.80 3.00 445.62 2772.29
   13:08:27.922.02-Jan-2020 4774.33 4707.60 83.80 3.00 445.82 2772.29
   13:08:28.122.02-Jan-2020 4774.33 4707.60 83.80 3.00 446.02 2772.29
   13:08:28.322.02-Jan-2020 4774.33 4707.60 83.80 3.00 446.22 2772.29
   13:08:28.522.02-Jan-2020 4774.33 4706.73 83.80 3.00 446.42 2772.29
   13:08:28.722.02-Jan-2020 4774.33 4708.04 83.80 3.00 446.62 2772.29
   13:08:28.922.02-Jan-2020 4774.33 4707.71 83.80 3.00 446.82 2772.29
   13:08:29.122.02-Jan-2020 4774.33 4707.61 83.80 3.00 447.02 2772.29
   13:08:29.322.02-Jan-2020 4774.33 4707.61 83.80 3.00 447.22 2772.29
   13:08:29.522.02-Jan-2020 4774.33 4706.25 83.80 3.00 447.42 2772.29
   13:08:29.723.02-Jan-2020 4774.33 4707.88 83.80 3.00 447.62 2772.29
   13:08:29.923.02-Jan-2020 4774.33 4707.75 83.80 3.00 447.82 2772.29
   13:08:30.123.02-Jan-2020 4774.33 4707.75 83.80 3.00 448.02 2772.29
   13:08:30.323.02-Jan-2020 4774.33 4707.75 83.80 3.00 448.22 2772.29
   13:08:30.523.02-Jan-2020 4774.33 4705.97 83.80 3.00 448.42 2772.29
   13:08:30.723.02-Jan-2020 4774.33 4708.05 83.80 3.00 448.62 2772.29
   13:08:30.923.02-Jan-2020 4774.33 4707.72 83.80 3.00 448.82 2772.29
   13:08:31.123.02-Jan-2020 4774.33 4707.83 83.80 3.00 449.02 2772.29
   13:08:31.323.02-Jan-2020 4774.33 4707.83 83.80 3.00 449.22 2772.29
   13:08:31.523.02-Jan-2020 4774.33 4707.02 83.80 3.00 449.42 2772.29
   13:08:31.723.02-Jan-2020 4774.33 4706.67 83.80 3.00 449.62 2772.29
   13:08:31.923.02-Jan-2020 4774.33 4707.96 83.80 3.00 449.82 2772.29
   13:08:32.123.02-Jan-2020 4774.33 4707.63 83.80 3.00 450.02 2772.29
   13:08:32.323.02-Jan-2020 4774.33 4707.63 83.80 3.00 450.22 2772.29
   13:08:32.523.02-Jan-2020 4774.33 4706.28 83.80 3.00 450.42 2772.29
   13:08:32.723.02-Jan-2020 4774.33 4707.85 83.80 3.00 450.62 2772.29
   13:08:32.923.02-Jan-2020 4774.33 4707.73 83.80 3.00 450.82 2772.29
   13:08:33.123.02-Jan-2020 4774.33 4706.10 83.80 3.00 451.02 2772.29
   13:08:33.323.02-Jan-2020 4774.33 4706.10 83.80 3.00 451.22 2772.29
   13:08:33.523.02-Jan-2020 4774.33 4707.69 83.80 3.00 451.42 2772.29
   13:08:33.723.02-Jan-2020 4774.33 4706.34 83.80 3.00 451.62 2772.29
   13:08:33.923.02-Jan-2020 4774.33 4707.88 83.80 3.00 451.82 2772.29
   13:08:34.123.02-Jan-2020 4774.33 4707.97 83.80 3.00 452.02 2772.29
   13:08:34.323.02-Jan-2020 4774.33 4707.97 83.80 3.00 452.22 2772.29
   13:08:34.523.02-Jan-2020 4774.33 4671.81 83.80 3.00 452.42 2772.29
   13:08:34.723.02-Jan-2020 4774.33 4564.24 83.80 3.00 452.62 2772.29
   13:08:34.923.02-Jan-2020 4774.33 4957.19 83.80 3.00 452.82 2772.29
   13:08:35.123.02-Jan-2020 4774.33 6151.69 83.80 3.00 453.02 2772.29
   13:08:35.323.02-Jan-2020 4774.33 6151.69 83.80 3.00 453.22 2772.29
   13:08:35.523.02-Jan-2020 4774.33 6157.27 83.80 3.00 453.42 2772.29
   13:08:35.723.02-Jan-2020 4774.33 6155.38 83.80 3.00 453.62 2772.29
   13:08:35.923.02-Jan-2020 4774.33 6151.62 83.80 3.00 453.82 2772.29
   13:08:36.123.02-Jan-2020 4774.33 6151.51 83.80 3.00 454.02 2772.29
   13:08:36.323.02-Jan-2020 4774.33 6151.51 83.80 3.00 454.22 2772.29
   13:08:36.523.02-Jan-2020 4774.33 6151.33 83.80 3.00 454.42 2772.29
   13:08:36.723.02-Jan-2020 4774.33 6161.40 83.80 3.00 454.62 2772.29
   13:08:36.923.02-Jan-2020 4774.33 6155.82 83.80 3.00 454.82 2772.29
   13:08:37.123.02-Jan-2020 4774.33 6153.67 83.81 3.00 455.02 2772.29
   13:08:37.323.02-Jan-2020 4774.33 6153.67 83.81 3.00 455.22 2772.29
   13:08:37.523.02-Jan-2020 4774.33 6153.37 83.81 3.00 455.42 2772.29
   13:08:37.723.02-Jan-2020 4774.33 6161.53 83.81 3.00 455.62 2772.29
   13:08:37.923.02-Jan-2020 4774.33 6156.10 83.81 3.00 455.82 2772.29
   13:08:38.123.02-Jan-2020 4774.33 6156.99 83.81 3.00 456.02 2772.29
   13:08:38.323.02-Jan-2020 4774.33 6156.99 83.81 3.00 456.22 2772.29
   13:08:38.523.02-Jan-2020 4774.33 6153.87 83.81 3.00 456.42 2772.29
   13:08:38.723.02-Jan-2020 4774.33 6153.21 83.81 3.00 456.62 2772.29
   13:08:38.923.02-Jan-2020 4774.33 6160.19 83.81 3.00 456.82 2772.29
   13:08:39.123.02-Jan-2020 4774.33 6158.17 83.82 3.00 457.02 2772.29
   13:08:39.323.02-Jan-2020 4774.33 6158.17 83.82 3.00 457.22 2772.29
   13:08:39.523.02-Jan-2020 4774.33 6154.70 83.82 3.00 457.42 2772.29
   13:08:39.723.02-Jan-2020 4774.33 6163.38 83.82 3.00 457.62 2772.29
   13:08:39.923.02-Jan-2020 4774.33 6156.51 83.82 3.00 457.82 2772.29
   13:08:40.123.02-Jan-2020 4774.33 6154.09 83.82 3.00 458.02 2772.29
   13:08:40.323.02-Jan-2020 4774.33 6154.09 83.82 3.00 458.22 2772.29
   13:08:40.523.02-Jan-2020 4774.33 6155.30 83.82 3.00 458.42 2772.29
   13:08:40.723.02-Jan-2020 4774.33 6155.75 83.82 3.00 458.62 2772.29
   13:08:40.923.02-Jan-2020 4774.33 6155.19 83.82 3.00 458.82 2772.29
   13:08:41.123.02-Jan-2020 4774.33 6163.38 83.82 3.00 459.02 2772.29
   13:08:41.323.02-Jan-2020 4774.33 6163.38 83.82 3.00 459.22 2772.29
   13:08:41.523.02-Jan-2020 4774.33 6156.12 83.82 3.00 459.42 2772.29
   13:08:41.723.02-Jan-2020 4774.33 6155.18 83.82 3.00 459.62 2772.29
   13:08:41.923.02-Jan-2020 4774.33 6155.97 83.82 3.00 459.82 2772.29
