~Version Information
 VERS.                  2.0:   CWLS log ASCII Standard -VERSION 2.0
 WRAP.                   NO:   One line per depth step
~Well Information Block
#MNEM.UNIT     VALUE/NAME     DESCRIPTION
#---------     -----------    ---------------------------
 STRT.S             13:01:02 02-Jan-20: START TIME 13:01:02 02-Jan-20
 STOP.S             13:09:15 02-Jan-20: STOP TIME  13:09:15 02-Jan-20
 STEP.S                   0.00: STEP TIME
 NULL.                 -999.25: NULL VALUE
 MDS .        Operator Entered:  MAG DATA SOURCE
 UNIT.                     N/a:  LOGGING EQUIPMENT ID
 DCON.         Sperry Drilling:  DIRECTNL CONTR
 CNTY.                    Baku:  COUNTY NAME
 DOE .                     N/a:  DOE NUMBER
 RIG .                     DWG:  RIG NAME
 MWDS.                    Baku:  MWD SHOP
 REGN.                   EESSA:  REGION
 BASE.              Azerbaijan:  LOGGING EQUIPMENT BASE LOCATION
 UWI .                     N/a:  UNIQUE WELL IDENTIFIER
 API .                     N/a:  API NUMBER
 WTYP.                Deviated:  WELL TYPE
 COMP.     BP Exploration (Caspian Sea) Ltd.:  COMPANY
 SRVC.          TURAN DRILLING:  CONTRACTOR
 WELL.           E04 (Slot 23):  WELL NAME
 CTRY.              Azerbaijan:  COUNTRY NAME
 SON .        AZ-XX-0905715376:  JOB NUMBER
 FLD .                     ACG:  FIELD NAME
 PDAT.          Mean Sea Level:  PERMANENT DATUM
 FTOP.          Formation Tops:  FORM TOPS DESC
 ILTD.               Lithology:  INTERP LTH DESC
 SVYD.                  Survey:  SURVEY DESC
 DMOD.             Drill Model:  DRILL MOD DESC
 HPTY.       Minimum Curvature:  HOLE POS TYPE
 NREF.                    Grid:  NORTH REFERENCE
 SPUD.               21-Dec-19:  SPUD DATE
 DATE.      17.57.20 21-Dec-19:  END TIME
 STIM.      17.57.20 21-Dec-19:  START TIME
 DMF .             Drill Floor:  DRILL MEAS FROM
 DFST.                        :  DIST FSL TEXT
 DFWT.                        :  DIST FWL TEXT
 PROV.                        :  PROVINCE
 STAT.                        :  STATE
 LOC .                        :  LOCATION
 LMF .             Drill Floor:  LOG MEASURED FROM
 AGAP.m                  43.16:  AIR GAP
 DEP .m                3172.61:  DEPTH
 APD .m                  43.16:  DEPTH ABOVE PD
 WDMS.m                 176.20:  WD ELEV
 EGL .m                   0.00:  GROUND ELEVATION
 EPD .m                   0.00:  ELEVATION
 AZTC.deg                 6.49:  AZM TOTAL CORR
 GRDC.deg                 0.09:  GRID CORRECTION
 MDEC.deg                 6.58:  MAGNETIC DECL
 MDIP.deg                59.61:  MAGNETIC DIP
 MFLD.nT              50294.00:  MAGNETIC FIELD
 GVFD.g                   1.00:  GRAVITY FIELD
 VSDR.deg               235.12:  VERT SEC DIRECT
 TDD .m                   0.00:  TOTAL DEPTH (DRILLER)
 SDEP.m                   0.00:  START DEPTH
 UTMY.m             4448627.46:  UTM Y
 UTMX.m              514337.95:  UTM X
 LONG.deg                51.17:  LONGITUDE
 LATI.deg                40.17:  LATITUDE
 TVDS.m                  43.16:  TVDSS CORRECTN
 WHEW.m                  -5.41:  WELL HEAD E/W
 WHNS.m                  -0.12:  WELL HEAD N/S
 VSEW.m                  -5.41:  VERT SEC E/W
 VSNS.m                  -0.12:  VERT SEC N/S
 EKB .m                  43.16:  KB ELEVATION
 EDF .m                  43.16:  DF ELEVATION
 MAGU.                 1852276:  MAGUTM CHECKSUM
 VSC .                       0:  VS TO CLOSURE
~Parameter Information Block
#MNEM.UNIT       Value        Description
#---------     -----------    ---------------------------
 TCS .hr                125.29:  Time Ciculation Ended 
 DD1 .      Fakhraddin Guliyev:  Direct Drillr 1 
 DD2 .                   Sanan:  Direct Drillr 2 
 DEFF.%                   0.00:  % Det Eff 
 DRET.      04.26.40 27-Dec-19:  Drill End Time 
 DRST.      04.26.40 27-Dec-19:  Drill Start Tim 
 DTIM.hr                 80.10:  Time Drilling 
 EDEP.m                   0.00:  End Depth 
 ENG1.            Adlet Omarov:  Engineer 1 
 ENG2.         Almaz Almadatov:  Engineer 2 
 ETIM.      04.26.40 27-Dec-19:  End Time 
 HFLO.                      No:  High Flow 
 HPRE.                      No:  High Pressure 
 HTEM.                      No:  High Temp 
 HYDO.m                   1.85:  Hydro Offset 
 IMAX.deg                72.09:  Inc Max 
 IMIN.deg                59.07:  Inc Min 
 IMND.m                3901.43:  Inc Min Depth 
 IMXD.m                4753.85:  Inc Max Depth 
 LETM.      04.26.40 27-Dec-19:  Log End Time 
 LSTM.      04.26.40 27-Dec-19:  Log Start Time 
 OTIM.hr                187.88:  Time Operating 
 PMAX.psia            10202.94:  Press Op, Max 
 RUN .                     300:  Run Number 
 RRUN.                    0300:  Rig Run Number 
 SDEP.m                   0.00:  Start Depth 
 STIM.      04.26.40 27-Dec-19:  Start Time 
 SVER.                    9.20:  Sperry Version 
 MRT .                    HCIM:  Maximum Recorded Temperature 
 TTMX.degC               96.08:  Max Tool Temp 
~Curve Information Block
#MNEM.UNIT                 API CODE     Curve Description
#---------               -----------    ---------------------------
 TIME.HHMMSS            00 000 000 000:  GT Time & Date
 GTDEPTH.m              00 000 000 000:  GT Depth
 GTPQH.psia             00 000 000 000:  GT HR Quartz Pressure
 GTTQ.degC              00 000 000 000:  GT Quartz Temperature
 GTTN.NONE              00 000 000 000:  GT Test Number
 GTET.sec               00 000 000 000:  GT Elapsed Test Time
 GTTVD.m                00 000 000 000:  GT True Vertical Depth
#Other Information
#
#WARRANTY: Halliburton will use its best efforts to furnish customers with 
#accurate information and interpretations that are part of, and incident to, the services 
#provided.  However, Halliburton cannot and does not warrant the accuracy 
#or correctness of such information and interpretations.  Under no circumstances should any 
#such information or interpretation be relied upon as the sole basis for any drilling, 
#completion, production, or financial decision or any procedure involving any risk to the 
#safety of any drilling venture, drilling rig or its crew or any other third party.  The 
#Customer has full responsibility for all drilling, completion and production operation.  
#Halliburton makes no representations or warranties, either expressed or 
#implied, including, but not limited to, the implied warranties of merchantability or fitness 
#for a particular purpose, with respect to the services rendered.  In no event will 
#Halliburton be liable for failure to obtain any particular results or for 
#any damages, including, but not limited to, indirect, special or consequential damages, 
#resulting from the use of any information or interpretation provided by Halliburton.
#
~A           TIME           GTDEPTH  GTPQH  GTTQ  GTTN  GTET   GTTVD  
# ...
   13:02:34.105.02-Jan-2020 4774.33 2441.36 83.92 3.00  92.00 2772.29
   13:02:34.305.02-Jan-2020 4774.33 2441.36 83.92 3.00  92.20 2772.29
   13:02:34.505.02-Jan-2020 4774.33 2439.53 83.92 3.00  92.40 2772.29
   13:02:34.705.02-Jan-2020 4774.33 2441.38 83.92 3.00  92.60 2772.29
   13:02:34.905.02-Jan-2020 4774.33 2441.33 83.92 3.00  92.80 2772.29
   13:02:35.105.02-Jan-2020 4774.33 2441.08 83.92 3.00  93.00 2772.29
   13:02:35.305.02-Jan-2020 4774.33 2441.08 83.92 3.00  93.20 2772.29
   13:02:35.505.02-Jan-2020 4774.33 2441.66 83.92 3.00  93.40 2772.29
   13:02:35.705.02-Jan-2020 4774.33 2441.63 83.92 3.00  93.60 2772.29
   13:02:35.905.02-Jan-2020 4774.33 2441.74 83.92 3.00  93.80 2772.29
   13:02:36.105.02-Jan-2020 4774.33 2441.78 83.92 3.00  94.00 2772.29
   13:02:36.305.02-Jan-2020 4774.33 2441.78 83.92 3.00  94.20 2772.29
   13:02:36.505.02-Jan-2020 4774.33 2440.33 83.92 3.00  94.40 2772.29
   13:02:36.705.02-Jan-2020 4774.33 2442.31 83.92 3.00  94.60 2772.29
   13:02:36.905.02-Jan-2020 4774.33 2442.29 83.92 3.00  94.80 2772.29
   13:02:37.105.02-Jan-2020 4774.33 2441.03 83.92 3.00  95.00 2772.29
   13:02:37.305.02-Jan-2020 4774.33 2441.03 83.92 3.00  95.20 2772.29
   13:02:37.505.02-Jan-2020 4774.33 2442.52 83.92 3.00  95.40 2772.29
   13:02:37.705.02-Jan-2020 4774.33 2442.65 83.92 3.00  95.60 2772.29
   13:02:37.905.02-Jan-2020 4774.33 2442.72 83.92 3.00  95.80 2772.29
   13:02:38.105.02-Jan-2020 4774.33 2442.82 83.92 3.00  96.00 2772.29
   13:02:38.305.02-Jan-2020 4774.33 2442.82 83.92 3.00  96.20 2772.29
   13:02:38.505.02-Jan-2020 4774.33 2443.07 83.92 3.00  96.40 2772.29
   13:02:38.705.02-Jan-2020 4774.33 2443.21 83.92 3.00  96.60 2772.29
   13:02:38.905.02-Jan-2020 4774.33 2441.48 83.92 3.00  96.80 2772.29
   13:02:39.105.02-Jan-2020 4774.33 2463.22 83.92 3.00  97.00 2772.29
   13:02:39.305.02-Jan-2020 4774.33 2463.22 83.92 3.00  97.20 2772.29
   13:02:39.505.02-Jan-2020 4774.33 2470.33 83.92 3.00  97.40 2772.29
   13:02:39.705.02-Jan-2020 4774.33 2470.27 83.92 3.00  97.60 2772.29
   13:02:39.905.02-Jan-2020 4774.33 2470.28 83.92 3.00  97.80 2772.29
   13:02:40.105.02-Jan-2020 4774.33 2468.36 83.92 3.00  98.00 2772.29
   13:02:40.305.02-Jan-2020 4774.33 2468.36 83.92 3.00  98.20 2772.29
   13:02:40.505.02-Jan-2020 4774.33 2470.27 83.92 3.00  98.40 2772.29
   13:02:40.705.02-Jan-2020 4774.33 2470.40 83.92 3.00  98.60 2772.29
   13:02:40.905.02-Jan-2020 4774.33 2470.44 83.92 3.00  98.80 2772.29
   13:02:41.105.02-Jan-2020 4774.33 2470.49 83.92 3.00  99.00 2772.29
   13:02:41.305.02-Jan-2020 4774.33 2470.49 83.92 3.00  99.20 2772.29
   13:02:41.505.02-Jan-2020 4774.33 2470.66 83.92 3.00  99.40 2772.29
   13:02:41.705.02-Jan-2020 4774.33 2470.62 83.92 3.00  99.60 2772.29
   13:02:41.906.02-Jan-2020 4774.33 2470.78 83.92 3.00  99.80 2772.29
   13:02:42.106.02-Jan-2020 4774.33 2469.33 83.92 3.00 100.00 2772.29
   13:02:42.306.02-Jan-2020 4774.33 2469.33 83.92 3.00 100.20 2772.29
   13:02:42.506.02-Jan-2020 4774.33 2471.01 83.92 3.00 100.40 2772.29
   13:02:42.706.02-Jan-2020 4774.33 2471.10 83.92 3.00 100.60 2772.29
   13:02:42.906.02-Jan-2020 4774.33 2469.17 83.92 3.00 100.80 2772.29
   13:02:43.106.02-Jan-2020 4774.33 2471.27 83.92 3.00 101.00 2772.29
   13:02:43.306.02-Jan-2020 4774.33 2471.27 83.92 3.00 101.20 2772.29
   13:02:43.506.02-Jan-2020 4774.33 2469.92 83.92 3.00 101.40 2772.29
   13:02:43.706.02-Jan-2020 4774.33 2470.90 83.92 3.00 101.60 2772.29
   13:02:43.906.02-Jan-2020 4774.33 2471.43 83.92 3.00 101.80 2772.29
   13:02:44.106.02-Jan-2020 4774.33 2471.18 83.92 3.00 102.00 2772.29
   13:02:44.306.02-Jan-2020 4774.33 2471.18 83.92 3.00 102.20 2772.29
   13:02:44.506.02-Jan-2020 4774.33 2471.74 83.92 3.00 102.41 2772.29
   13:02:44.706.02-Jan-2020 4774.33 2471.69 83.92 3.00 102.61 2772.29
   13:02:44.906.02-Jan-2020 4774.33 2471.93 83.92 3.00 102.81 2772.29
   13:02:45.106.02-Jan-2020 4774.33 2472.06 83.92 3.00 103.01 2772.29
   13:02:45.306.02-Jan-2020 4774.33 2472.06 83.92 3.00 103.21 2772.29
   13:02:45.506.02-Jan-2020 4774.33 2472.27 83.92 3.00 103.41 2772.29
   13:02:45.706.02-Jan-2020 4774.33 2472.38 83.92 3.00 103.61 2772.29
   13:02:45.906.02-Jan-2020 4774.33 2470.52 83.92 3.00 103.81 2772.29
   13:02:46.106.02-Jan-2020 4774.33 2472.70 83.92 3.00 104.01 2772.29
   13:02:46.306.02-Jan-2020 4774.33 2472.70 83.92 3.00 104.21 2772.29
   13:02:46.506.02-Jan-2020 4774.33 2472.81 83.92 3.00 104.41 2772.29
   13:02:46.706.02-Jan-2020 4774.33 2472.86 83.92 3.00 104.61 2772.29
   13:02:46.906.02-Jan-2020 4774.33 2472.96 83.92 3.00 104.81 2772.29
   13:02:47.106.02-Jan-2020 4774.33 2471.65 83.92 3.00 105.01 2772.29
   13:02:47.306.02-Jan-2020 4774.33 2471.65 83.92 3.00 105.21 2772.29
   13:02:47.506.02-Jan-2020 4774.33 2473.30 83.92 3.00 105.41 2772.29
   13:02:47.706.02-Jan-2020 4774.33 2473.41 83.92 3.00 105.61 2772.29
   13:02:47.906.02-Jan-2020 4774.33 2473.43 83.92 3.00 105.81 2772.29
   13:02:48.106.02-Jan-2020 4774.33 2472.12 83.92 3.00 106.01 2772.29
   13:02:48.306.02-Jan-2020 4774.33 2472.12 83.92 3.00 106.21 2772.29
   13:02:48.506.02-Jan-2020 4774.33 2473.77 83.92 3.00 106.41 2772.29
   13:02:48.706.02-Jan-2020 4774.33 2473.87 83.92 3.00 106.61 2772.29
   13:02:48.906.02-Jan-2020 4774.33 2473.89 83.92 3.00 106.81 2772.29
   13:02:49.106.02-Jan-2020 4774.33 2472.03 83.92 3.00 107.01 2772.29
   13:02:49.306.02-Jan-2020 4774.33 2472.03 83.92 3.00 107.21 2772.29
   13:02:49.506.02-Jan-2020 4774.33 2474.18 83.92 3.00 107.41 2772.29
   13:02:49.706.02-Jan-2020 4774.33 2474.31 83.92 3.00 107.61 2772.29
   13:02:49.906.02-Jan-2020 4774.33 2472.51 83.92 3.00 107.81 2772.29
   13:02:50.106.02-Jan-2020 4774.33 2474.41 83.92 3.00 108.01 2772.29
   13:02:50.306.02-Jan-2020 4774.33 2474.41 83.92 3.00 108.21 2772.29
   13:02:50.506.02-Jan-2020 4774.33 2472.67 83.92 3.00 108.41 2772.29
   13:02:50.706.02-Jan-2020 4774.33 2476.11 83.92 3.00 108.61 2772.29
   13:02:50.906.02-Jan-2020 4774.33 2477.01 83.92 3.00 108.81 2772.29
   13:02:51.106.02-Jan-2020 4774.33 2477.22 83.92 3.00 109.01 2772.29
   13:02:51.306.02-Jan-2020 4774.33 2477.22 83.92 3.00 109.21 2772.29
   13:02:51.506.02-Jan-2020 4774.33 2477.53 83.92 3.00 109.41 2772.29
   13:02:51.706.02-Jan-2020 4774.33 2477.36 83.92 3.00 109.61 2772.29
   13:02:51.906.02-Jan-2020 4774.33 2477.54 83.92 3.00 109.81 2772.29
   13:02:52.106.02-Jan-2020 4774.33 2477.59 83.92 3.00 110.01 2772.29
   13:02:52.306.02-Jan-2020 4774.33 2477.59 83.92 3.00 110.21 2772.29
   13:02:52.506.02-Jan-2020 4774.33 2477.76 83.92 3.00 110.41 2772.29
   13:02:52.706.02-Jan-2020 4774.33 2477.86 83.92 3.00 110.61 2772.29
   13:02:52.906.02-Jan-2020 4774.33 2477.55 83.92 3.00 110.81 2772.29
   13:02:53.106.02-Jan-2020 4774.33 2476.54 83.92 3.00 111.01 2772.29
   13:02:53.306.02-Jan-2020 4774.33 2476.54 83.92 3.00 111.21 2772.29
   13:02:53.506.02-Jan-2020 4774.33 2478.14 83.92 3.00 111.41 2772.29
   13:02:53.706.02-Jan-2020 4774.33 2476.37 83.92 3.00 111.61 2772.29
   13:02:53.906.02-Jan-2020 4774.33 2478.31 83.92 3.00 111.81 2772.29
   13:02:54.106.02-Jan-2020 4774.33 2478.89 83.92 3.00 112.01 2772.29
   13:02:54.306.02-Jan-2020 4774.33 2478.89 83.92 3.00 112.21 2772.29
   13:02:54.506.02-Jan-2020 4774.33 2479.83 83.92 3.00 112.41 2772.29
   13:02:54.706.02-Jan-2020 4774.33 2479.52 83.92 3.00 112.61 2772.29
   13:02:54.906.02-Jan-2020 4774.33 2478.58 83.92 3.00 112.81 2772.29
   13:02:55.106.02-Jan-2020 4774.33 2480.25 83.92 3.00 113.01 2772.29
   13:02:55.306.02-Jan-2020 4774.33 2480.25 83.92 3.00 113.21 2772.29
   13:02:55.506.02-Jan-2020 4774.33 2480.30 83.92 3.00 113.41 2772.29
   13:02:55.706.02-Jan-2020 4774.33 2478.93 83.92 3.00 113.61 2772.29
   13:02:55.906.02-Jan-2020 4774.33 2480.05 83.92 3.00 113.81 2772.29
   13:02:56.106.02-Jan-2020 4774.33 2480.54 83.92 3.00 114.01 2772.29
   13:02:56.306.02-Jan-2020 4774.33 2480.54 83.92 3.00 114.21 2772.29
   13:02:56.506.02-Jan-2020 4774.33 2478.71 83.92 3.00 114.41 2772.29
   13:02:56.706.02-Jan-2020 4774.33 2480.80 83.92 3.00 114.61 2772.29
   13:02:56.906.02-Jan-2020 4774.33 2480.75 83.92 3.00 114.81 2772.29
