~Version Information
 VERS.                  2.0:   CWLS log ASCII Standard -VERSION 2.0
 WRAP.                   NO:   One line per depth step
~Well Information Block
#MNEM.UNIT     VALUE/NAME     DESCRIPTION
#---------     -----------    ---------------------------
 STRT.S             13:01:02 02-Jan-20: START TIME 13:01:02 02-Jan-20
 STOP.S             13:09:15 02-Jan-20: STOP TIME  13:09:15 02-Jan-20
 STEP.S                   0.00: STEP TIME
 NULL.                 -999.25: NULL VALUE
 MDS .        Operator Entered:  MAG DATA SOURCE
 UNIT.                     N/a:  LOGGING EQUIPMENT ID
 DCON.         Sperry Drilling:  DIRECTNL CONTR
 CNTY.                    Baku:  COUNTY NAME
 DOE .                     N/a:  DOE NUMBER
 RIG .                     DWG:  RIG NAME
 MWDS.                    Baku:  MWD SHOP
 REGN.                   EESSA:  REGION
 BASE.              Azerbaijan:  LOGGING EQUIPMENT BASE LOCATION
 UWI .                     N/a:  UNIQUE WELL IDENTIFIER
 API .                     N/a:  API NUMBER
 WTYP.                Deviated:  WELL TYPE
 COMP.     BP Exploration (Caspian Sea) Ltd.:  COMPANY
 SRVC.          TURAN DRILLING:  CONTRACTOR
 WELL.           E04 (Slot 23):  WELL NAME
 CTRY.              Azerbaijan:  COUNTRY NAME
 SON .        AZ-XX-0905715376:  JOB NUMBER
 FLD .                     ACG:  FIELD NAME
 PDAT.          Mean Sea Level:  PERMANENT DATUM
 FTOP.          Formation Tops:  FORM TOPS DESC
 ILTD.               Lithology:  INTERP LTH DESC
 SVYD.                  Survey:  SURVEY DESC
 DMOD.             Drill Model:  DRILL MOD DESC
 HPTY.       Minimum Curvature:  HOLE POS TYPE
 NREF.                    Grid:  NORTH REFERENCE
 SPUD.               21-Dec-19:  SPUD DATE
 DATE.      17.57.20 21-Dec-19:  END TIME
 STIM.      17.57.20 21-Dec-19:  START TIME
 DMF .             Drill Floor:  DRILL MEAS FROM
 DFST.                        :  DIST FSL TEXT
 DFWT.                        :  DIST FWL TEXT
 PROV.                        :  PROVINCE
 STAT.                        :  STATE
 LOC .                        :  LOCATION
 LMF .             Drill Floor:  LOG MEASURED FROM
 AGAP.m                  43.16:  AIR GAP
 DEP .m                3172.61:  DEPTH
 APD .m                  43.16:  DEPTH ABOVE PD
 WDMS.m                 176.20:  WD ELEV
 EGL .m                   0.00:  GROUND ELEVATION
 EPD .m                   0.00:  ELEVATION
 AZTC.deg                 6.49:  AZM TOTAL CORR
 GRDC.deg                 0.09:  GRID CORRECTION
 MDEC.deg                 6.58:  MAGNETIC DECL
 MDIP.deg                59.61:  MAGNETIC DIP
 MFLD.nT              50294.00:  MAGNETIC FIELD
 GVFD.g                   1.00:  GRAVITY FIELD
 VSDR.deg               235.12:  VERT SEC DIRECT
 TDD .m                   0.00:  TOTAL DEPTH (DRILLER)
 SDEP.m                   0.00:  START DEPTH
 UTMY.m             4448627.46:  UTM Y
 UTMX.m              514337.95:  UTM X
 LONG.deg                51.17:  LONGITUDE
 LATI.deg                40.17:  LATITUDE
 TVDS.m                  43.16:  TVDSS CORRECTN
 WHEW.m                  -5.41:  WELL HEAD E/W
 WHNS.m                  -0.12:  WELL HEAD N/S
 VSEW.m                  -5.41:  VERT SEC E/W
 VSNS.m                  -0.12:  VERT SEC N/S
 EKB .m                  43.16:  KB ELEVATION
 EDF .m                  43.16:  DF ELEVATION
 MAGU.                 1852276:  MAGUTM CHECKSUM
 VSC .                       0:  VS TO CLOSURE
~Parameter Information Block
#MNEM.UNIT       Value        Description
#---------     -----------    ---------------------------
 TCS .hr                125.29:  Time Ciculation Ended 
 DD1 .      Fakhraddin Guliyev:  Direct Drillr 1 
 DD2 .                   Sanan:  Direct Drillr 2 
 DEFF.%                   0.00:  % Det Eff 
 DRET.      04.26.40 27-Dec-19:  Drill End Time 
 DRST.      04.26.40 27-Dec-19:  Drill Start Tim 
 DTIM.hr                 80.10:  Time Drilling 
 EDEP.m                   0.00:  End Depth 
 ENG1.            Adlet Omarov:  Engineer 1 
 ENG2.         Almaz Almadatov:  Engineer 2 
 ETIM.      04.26.40 27-Dec-19:  End Time 
 HFLO.                      No:  High Flow 
 HPRE.                      No:  High Pressure 
 HTEM.                      No:  High Temp 
 HYDO.m                   1.85:  Hydro Offset 
 IMAX.deg                72.09:  Inc Max 
 IMIN.deg                59.07:  Inc Min 
 IMND.m                3901.43:  Inc Min Depth 
 IMXD.m                4753.85:  Inc Max Depth 
 LETM.      04.26.40 27-Dec-19:  Log End Time 
 LSTM.      04.26.40 27-Dec-19:  Log Start Time 
 OTIM.hr                187.88:  Time Operating 
 PMAX.psia            10202.94:  Press Op, Max 
 RUN .                     300:  Run Number 
 RRUN.                    0300:  Rig Run Number 
 SDEP.m                   0.00:  Start Depth 
 STIM.      04.26.40 27-Dec-19:  Start Time 
 SVER.                    9.20:  Sperry Version 
 MRT .                    HCIM:  Maximum Recorded Temperature 
 TTMX.degC               96.08:  Max Tool Temp 
~Curve Information Block
#MNEM.UNIT                 API CODE     Curve Description
#---------               -----------    ---------------------------
 TIME.HHMMSS            00 000 000 000:  GT Time & Date
 GTDEPTH.m              00 000 000 000:  GT Depth
 GTPQH.psia             00 000 000 000:  GT HR Quartz Pressure
 GTTQ.degC              00 000 000 000:  GT Quartz Temperature
 GTTN.NONE              00 000 000 000:  GT Test Number
 GTET.sec               00 000 000 000:  GT Elapsed Test Time
 GTTVD.m                00 000 000 000:  GT True Vertical Depth
#Other Information
#
#WARRANTY: Halliburton will use its best efforts to furnish customers with 
#accurate information and interpretations that are part of, and incident to, the services 
#provided.  However, Halliburton cannot and does not warrant the accuracy 
#or correctness of such information and interpretations.  Under no circumstances should any 
#such information or interpretation be relied upon as the sole basis for any drilling, 
#completion, production, or financial decision or any procedure involving any risk to the 
#safety of any drilling venture, drilling rig or its crew or any other third party.  The 
#Customer has full responsibility for all drilling, completion and production operation.  
#Halliburton makes no representations or warranties, either expressed or 
#implied, including, but not limited to, the implied warranties of merchantability or fitness 
#for a particular purpose, with respect to the services rendered.  In no event will 
#Halliburton be liable for failure to obtain any particular results or for 
#any damages, including, but not limited to, indirect, special or consequential damages, 
#resulting from the use of any information or interpretation provided by Halliburton.
#
~A           TIME           GTDEPTH  GTPQH  GTTQ  GTTN  GTET   GTTVD  
   13:01:02.101.02-Jan-2020 4774.33 6093.30 84.07 3.00   0.00 2772.29
   13:01:02.301.02-Jan-2020 4774.33 6093.30 84.07 3.00   0.20 2772.29
   13:01:02.501.02-Jan-2020 4774.33 6091.96 84.07 3.00   0.40 2772.29
   13:01:02.701.02-Jan-2020 4774.33 6097.91 84.07 3.00   0.60 2772.29
   13:01:02.901.02-Jan-2020 4774.33 6095.26 84.07 3.00   0.80 2772.29
   13:01:03.101.02-Jan-2020 4774.33 6092.98 84.07 3.00   1.00 2772.29
   13:01:03.301.02-Jan-2020 4774.33 6092.98 84.07 3.00   1.20 2772.29
   13:01:03.501.02-Jan-2020 4774.33 6095.56 84.07 3.00   1.40 2772.29
   13:01:03.701.02-Jan-2020 4774.33 6096.04 84.07 3.00   1.60 2772.29
   13:01:03.901.02-Jan-2020 4774.33 6102.94 84.07 3.00   1.80 2772.29
   13:01:04.101.02-Jan-2020 4774.33 6101.22 84.07 3.00   2.00 2772.29
   13:01:04.301.02-Jan-2020 4774.33 6101.22 84.07 3.00   2.20 2772.29
   13:01:04.501.02-Jan-2020 4774.33 6104.63 84.07 3.00   2.40 2772.29
   13:01:04.701.02-Jan-2020 4774.33 6098.02 84.07 3.00   2.60 2772.29
   13:01:04.901.02-Jan-2020 4774.33 6095.84 84.07 3.00   2.80 2772.29
   13:01:05.101.02-Jan-2020 4774.33 6095.88 84.07 3.00   3.00 2772.29
   13:01:05.301.02-Jan-2020 4774.33 6095.88 84.07 3.00   3.20 2772.29
   13:01:05.501.02-Jan-2020 4774.33 6094.16 84.07 3.00   3.40 2772.29
   13:01:05.701.02-Jan-2020 4774.33 6099.68 84.07 3.00   3.60 2772.29
   13:01:05.901.02-Jan-2020 4774.33 6097.79 84.07 3.00   3.80 2772.29
   13:01:06.101.02-Jan-2020 4774.33 6093.98 84.07 3.00   4.00 2772.29
   13:01:06.301.02-Jan-2020 4774.33 6093.98 84.07 3.00   4.20 2772.29
   13:01:06.501.02-Jan-2020 4774.33 6099.86 84.07 3.00   4.40 2772.29
   13:01:06.701.02-Jan-2020 4774.33 6095.12 84.07 3.00   4.60 2772.29
   13:01:06.901.02-Jan-2020 4774.33 6096.78 84.07 3.00   4.80 2772.29
   13:01:07.101.02-Jan-2020 4774.33 6094.82 84.07 3.00   5.00 2772.29
   13:01:07.301.02-Jan-2020 4774.33 6094.82 84.07 3.00   5.20 2772.29
   13:01:07.501.02-Jan-2020 4774.33 6095.59 84.07 3.00   5.40 2772.29
   13:01:07.701.02-Jan-2020 4774.33 6100.41 84.07 3.00   5.60 2772.29
   13:01:07.901.02-Jan-2020 4774.33 6100.96 84.07 3.00   5.80 2772.29
   13:01:08.101.02-Jan-2020 4774.33 6098.13 84.07 3.00   6.00 2772.29
   13:01:08.301.02-Jan-2020 4774.33 6098.13 84.07 3.00   6.20 2772.29
   13:01:08.501.02-Jan-2020 4774.33 6100.52 84.07 3.00   6.40 2772.29
   13:01:08.701.02-Jan-2020 4774.33 6104.58 84.07 3.00   6.60 2772.29
   13:01:08.901.02-Jan-2020 4774.33 6103.65 84.07 3.00   6.80 2772.29
   13:01:09.101.02-Jan-2020 4774.33 6099.64 84.07 3.00   7.00 2772.29
   13:01:09.301.02-Jan-2020 4774.33 6099.64 84.07 3.00   7.20 2772.29
   13:01:09.501.02-Jan-2020 4774.33 6099.29 84.07 3.00   7.40 2772.29
   13:01:09.701.02-Jan-2020 4774.33 6100.20 84.07 3.00   7.60 2772.29
   13:01:09.901.02-Jan-2020 4774.33 6101.00 84.07 3.00   7.80 2772.29
   13:01:10.101.02-Jan-2020 4774.33 6101.29 84.07 3.00   8.00 2772.29
   13:01:10.301.02-Jan-2020 4774.33 6101.29 84.07 3.00   8.20 2772.29
   13:01:10.501.02-Jan-2020 4774.33 6100.45 84.06 3.00   8.40 2772.29
   13:01:10.701.02-Jan-2020 4774.33 6102.93 84.06 3.00   8.60 2772.29
   13:01:10.901.02-Jan-2020 4774.33 6106.33 84.06 3.00   8.80 2772.29
   13:01:11.101.02-Jan-2020 4774.33 6104.64 84.06 3.00   9.00 2772.29
   13:01:11.301.02-Jan-2020 4774.33 6104.64 84.06 3.00   9.20 2772.29
   13:01:11.501.02-Jan-2020 4774.33 6101.02 84.06 3.00   9.40 2772.29
   13:01:11.701.02-Jan-2020 4774.33 6101.08 84.06 3.00   9.60 2772.29
   13:01:11.901.02-Jan-2020 4774.33 6100.93 84.06 3.00   9.80 2772.29
   13:01:12.101.02-Jan-2020 4774.33 6107.25 84.06 3.00  10.00 2772.29
   13:01:12.301.02-Jan-2020 4774.33 6107.25 84.06 3.00  10.20 2772.29
   13:01:12.501.02-Jan-2020 4774.33 6101.63 84.06 3.00  10.40 2772.29
   13:01:12.701.02-Jan-2020 4774.33 6110.14 84.06 3.00  10.60 2772.29
   13:01:12.901.02-Jan-2020 4774.33 6103.97 84.06 3.00  10.80 2772.29
   13:01:13.101.02-Jan-2020 4774.33 6101.97 84.06 3.00  11.00 2772.29
   13:01:13.301.02-Jan-2020 4774.33 6101.97 84.06 3.00  11.20 2772.29
   13:01:13.501.02-Jan-2020 4774.33 6107.14 84.06 3.00  11.40 2772.29
   13:01:13.701.02-Jan-2020 4774.33 6105.36 84.06 3.00  11.60 2772.29
   13:01:13.901.02-Jan-2020 4774.33 6102.30 84.06 3.00  11.80 2772.29
   13:01:14.101.02-Jan-2020 4774.33 6103.02 84.06 3.00  12.00 2772.29
   13:01:14.301.02-Jan-2020 4774.33 6103.02 84.06 3.00  12.20 2772.29
   13:01:14.501.02-Jan-2020 4774.33 6102.33 84.06 3.00  12.40 2772.29
   13:01:14.701.02-Jan-2020 4774.33 6109.39 84.06 3.00  12.60 2772.29
   13:01:14.901.02-Jan-2020 4774.33 6108.18 84.06 3.00  12.80 2772.29
   13:01:15.101.02-Jan-2020 4774.33 6104.53 84.06 3.00  13.00 2772.29
   13:01:15.301.02-Jan-2020 4774.33 6104.53 84.06 3.00  13.20 2772.29
   13:01:15.501.02-Jan-2020 4774.33 6111.78 84.06 3.00  13.40 2772.29
   13:01:15.701.02-Jan-2020 4774.33 6105.16 84.06 3.00  13.60 2772.29
   13:01:15.901.02-Jan-2020 4774.33 6104.53 84.06 3.00  13.80 2772.29
   13:01:16.101.02-Jan-2020 4774.33 6105.88 84.06 3.00  14.00 2772.29
   13:01:16.301.02-Jan-2020 4774.33 6105.88 84.06 3.00  14.20 2772.29
   13:01:16.501.02-Jan-2020 4774.33 6111.18 84.06 3.00  14.40 2772.29
   13:01:16.701.02-Jan-2020 4774.33 6110.27 84.06 3.00  14.60 2772.29
   13:01:16.901.02-Jan-2020 4774.33 6107.65 84.06 3.00  14.80 2772.29
   13:01:17.101.02-Jan-2020 4774.33 6106.98 84.06 3.00  15.00 2772.29
   13:01:17.301.02-Jan-2020 4774.33 6106.98 84.06 3.00  15.20 2772.29
   13:01:17.501.02-Jan-2020 4774.33 6106.69 84.06 3.00  15.40 2772.29
   13:01:17.701.02-Jan-2020 4774.33 6107.86 84.06 3.00  15.60 2772.29
   13:01:17.901.02-Jan-2020 4774.33 6108.01 84.06 3.00  15.80 2772.29
   13:01:18.101.02-Jan-2020 4774.33 6114.15 84.06 3.00  16.00 2772.29
   13:01:18.301.02-Jan-2020 4774.33 6114.15 84.06 3.00  16.20 2772.29
   13:01:18.501.02-Jan-2020 4774.33 6109.68 84.06 3.00  16.40 2772.29
   13:01:18.701.02-Jan-2020 4774.33 6109.40 84.06 3.00  16.60 2772.29
   13:01:18.901.02-Jan-2020 4774.33 6113.14 84.06 3.00  16.80 2772.29
   13:01:19.101.02-Jan-2020 4774.33 6111.52 84.06 3.00  17.00 2772.29
   13:01:19.301.02-Jan-2020 4774.33 6111.52 84.06 3.00  17.20 2772.29
   13:01:19.501.02-Jan-2020 4774.33 6108.90 84.06 3.00  17.40 2772.29
   13:01:19.701.02-Jan-2020 4774.33 6115.83 84.06 3.00  17.60 2772.29
   13:01:19.901.02-Jan-2020 4774.33 6109.78 84.06 3.00  17.80 2772.29
   13:01:20.102.02-Jan-2020 4774.33 6110.94 84.06 3.00  18.00 2772.29
   13:01:20.302.02-Jan-2020 4774.33 6110.94 84.06 3.00  18.20 2772.29
   13:01:20.502.02-Jan-2020 4774.33 6110.03 84.05 3.00  18.40 2772.29
   13:01:20.702.02-Jan-2020 4774.33 6109.66 84.05 3.00  18.60 2772.29
   13:01:20.902.02-Jan-2020 4774.33 6110.68 84.05 3.00  18.80 2772.29
   13:01:21.102.02-Jan-2020 4774.33 6118.09 84.05 3.00  19.00 2772.29
   13:01:21.302.02-Jan-2020 4774.33 6118.09 84.05 3.00  19.20 2772.29
   13:01:21.502.02-Jan-2020 4774.33 6111.89 84.05 3.00  19.40 2772.29
   13:01:21.702.02-Jan-2020 4774.33 6109.56 84.05 3.00  19.60 2772.29
   13:01:21.902.02-Jan-2020 4774.33 6109.80 84.05 3.00  19.80 2772.29
   13:01:22.102.02-Jan-2020 4774.33 6116.16 84.05 3.00  20.00 2772.29
   13:01:22.302.02-Jan-2020 4774.33 6116.16 84.05 3.00  20.20 2772.29
   13:01:22.502.02-Jan-2020 4774.33 6112.23 84.05 3.00  20.40 2772.29
   13:01:22.702.02-Jan-2020 4774.33 6112.41 84.05 3.00  20.60 2772.29
   13:01:22.902.02-Jan-2020 4774.33 6120.37 84.05 3.00  20.80 2772.29
   13:01:23.102.02-Jan-2020 4774.33 6113.13 84.05 3.00  21.00 2772.29
   13:01:23.302.02-Jan-2020 4774.33 6113.13 84.05 3.00  21.20 2772.29
   13:01:23.502.02-Jan-2020 4774.33 6119.53 84.05 3.00  21.40 2772.29
   13:01:23.702.02-Jan-2020 4774.33 6113.67 84.05 3.00  21.60 2772.29
   13:01:23.902.02-Jan-2020 4774.33 6114.06 84.05 3.00  21.80 2772.29
   13:01:24.102.02-Jan-2020 4774.33 6112.75 84.05 3.00  22.00 2772.29
   13:01:24.302.02-Jan-2020 4774.33 6112.75 84.05 3.00  22.20 2772.29
   13:01:24.502.02-Jan-2020 4774.33 6112.05 84.05 3.00  22.40 2772.29
   13:01:24.702.02-Jan-2020 4774.33 6112.41 84.05 3.00  22.60 2772.29
   13:01:24.902.02-Jan-2020 4774.33 6113.33 84.05 3.00  22.80 2772.29
