~Version Information
 VERS.                  2.0:   CWLS log ASCII Standard -VERSION 2.0
 WRAP.                   NO:   One line per depth step
~Well Information Block
#MNEM.UNIT     VALUE/NAME     DESCRIPTION
#---------     -----------    ---------------------------
 STRT.S             10:33:43 02-Jan-20: START TIME 10:33:43 02-Jan-20
 STOP.S             10:42:04 02-Jan-20: STOP TIME  10:42:04 02-Jan-20
 STEP.S                   0.00: STEP TIME
 NULL.                 -999.25: NULL VALUE
 MDS .        Operator Entered:  MAG DATA SOURCE
 UNIT.                     N/a:  LOGGING EQUIPMENT ID
 DCON.         Sperry Drilling:  DIRECTNL CONTR
 CNTY.                    Baku:  COUNTY NAME
 DOE .                     N/a:  DOE NUMBER
 RIG .                     DWG:  RIG NAME
 MWDS.                    Baku:  MWD SHOP
 REGN.                   EESSA:  REGION
 BASE.              Azerbaijan:  LOGGING EQUIPMENT BASE LOCATION
 UWI .                     N/a:  UNIQUE WELL IDENTIFIER
 API .                     N/a:  API NUMBER
 WTYP.                Deviated:  WELL TYPE
 COMP.     BP Exploration (Caspian Sea) Ltd.:  COMPANY
 SRVC.          TURAN DRILLING:  CONTRACTOR
 WELL.           E04 (Slot 23):  WELL NAME
 CTRY.              Azerbaijan:  COUNTRY NAME
 SON .        AZ-XX-0905715376:  JOB NUMBER
 FLD .                     ACG:  FIELD NAME
 PDAT.          Mean Sea Level:  PERMANENT DATUM
 FTOP.          Formation Tops:  FORM TOPS DESC
 ILTD.               Lithology:  INTERP LTH DESC
 SVYD.                  Survey:  SURVEY DESC
 DMOD.             Drill Model:  DRILL MOD DESC
 HPTY.       Minimum Curvature:  HOLE POS TYPE
 NREF.                    Grid:  NORTH REFERENCE
 SPUD.               21-Dec-19:  SPUD DATE
 DATE.      17.57.20 21-Dec-19:  END TIME
 STIM.      17.57.20 21-Dec-19:  START TIME
 DMF .             Drill Floor:  DRILL MEAS FROM
 DFST.                        :  DIST FSL TEXT
 DFWT.                        :  DIST FWL TEXT
 PROV.                        :  PROVINCE
 STAT.                        :  STATE
 LOC .                        :  LOCATION
 LMF .             Drill Floor:  LOG MEASURED FROM
 AGAP.m                  43.16:  AIR GAP
 DEP .m                3172.61:  DEPTH
 APD .m                  43.16:  DEPTH ABOVE PD
 WDMS.m                 176.20:  WD ELEV
 EGL .m                   0.00:  GROUND ELEVATION
 EPD .m                   0.00:  ELEVATION
 AZTC.deg                 6.49:  AZM TOTAL CORR
 GRDC.deg                 0.09:  GRID CORRECTION
 MDEC.deg                 6.58:  MAGNETIC DECL
 MDIP.deg                59.61:  MAGNETIC DIP
 MFLD.nT              50294.00:  MAGNETIC FIELD
 GVFD.g                   1.00:  GRAVITY FIELD
 VSDR.deg               235.12:  VERT SEC DIRECT
 TDD .m                   0.00:  TOTAL DEPTH (DRILLER)
 SDEP.m                   0.00:  START DEPTH
 UTMY.m             4448627.46:  UTM Y
 UTMX.m              514337.95:  UTM X
 LONG.deg                51.17:  LONGITUDE
 LATI.deg                40.17:  LATITUDE
 TVDS.m                  43.16:  TVDSS CORRECTN
 WHEW.m                  -5.41:  WELL HEAD E/W
 WHNS.m                  -0.12:  WELL HEAD N/S
 VSEW.m                  -5.41:  VERT SEC E/W
 VSNS.m                  -0.12:  VERT SEC N/S
 EKB .m                  43.16:  KB ELEVATION
 EDF .m                  43.16:  DF ELEVATION
 MAGU.                 1852276:  MAGUTM CHECKSUM
 VSC .                       0:  VS TO CLOSURE
~Parameter Information Block
#MNEM.UNIT       Value        Description
#---------     -----------    ---------------------------
 TCS .hr                125.29:  Time Ciculation Ended 
 DD1 .      Fakhraddin Guliyev:  Direct Drillr 1 
 DD2 .                   Sanan:  Direct Drillr 2 
 DEFF.%                   0.00:  % Det Eff 
 DRET.      04.26.40 27-Dec-19:  Drill End Time 
 DRST.      04.26.40 27-Dec-19:  Drill Start Tim 
 DTIM.hr                 80.10:  Time Drilling 
 EDEP.m                   0.00:  End Depth 
 ENG1.            Adlet Omarov:  Engineer 1 
 ENG2.         Almaz Almadatov:  Engineer 2 
 ETIM.      04.26.40 27-Dec-19:  End Time 
 HFLO.                      No:  High Flow 
 HPRE.                      No:  High Pressure 
 HTEM.                      No:  High Temp 
 HYDO.m                   1.85:  Hydro Offset 
 IMAX.deg                72.09:  Inc Max 
 IMIN.deg                59.07:  Inc Min 
 IMND.m                3901.43:  Inc Min Depth 
 IMXD.m                4753.85:  Inc Max Depth 
 LETM.      04.26.40 27-Dec-19:  Log End Time 
 LSTM.      04.26.40 27-Dec-19:  Log Start Time 
 OTIM.hr                187.88:  Time Operating 
 PMAX.psia            10202.94:  Press Op, Max 
 RUN .                     300:  Run Number 
 RRUN.                    0300:  Rig Run Number 
 SDEP.m                   0.00:  Start Depth 
 STIM.      04.26.40 27-Dec-19:  Start Time 
 SVER.                    9.20:  Sperry Version 
 MRT .                    HCIM:  Maximum Recorded Temperature 
 TTMX.degC               96.08:  Max Tool Temp 
~Curve Information Block
#MNEM.UNIT                 API CODE     Curve Description
#---------               -----------    ---------------------------
 TIME.HHMMSS            00 000 000 000:  GT Time & Date
 GTDEPTH.m              00 000 000 000:  GT Depth
 GTPQH.psia             00 000 000 000:  GT HR Quartz Pressure
 GTTQ.degC              00 000 000 000:  GT Quartz Temperature
 GTTN.NONE              00 000 000 000:  GT Test Number
 GTET.sec               00 000 000 000:  GT Elapsed Test Time
 GTTVD.m                00 000 000 000:  GT True Vertical Depth
#Other Information
#
#WARRANTY: Halliburton will use its best efforts to furnish customers with 
#accurate information and interpretations that are part of, and incident to, the services 
#provided.  However, Halliburton cannot and does not warrant the accuracy 
#or correctness of such information and interpretations.  Under no circumstances should any 
#such information or interpretation be relied upon as the sole basis for any drilling, 
#completion, production, or financial decision or any procedure involving any risk to the 
#safety of any drilling venture, drilling rig or its crew or any other third party.  The 
#Customer has full responsibility for all drilling, completion and production operation.  
#Halliburton makes no representations or warranties, either expressed or 
#implied, including, but not limited to, the implied warranties of merchantability or fitness 
#for a particular purpose, with respect to the services rendered.  In no event will 
#Halliburton be liable for failure to obtain any particular results or for 
#any damages, including, but not limited to, indirect, special or consequential damages, 
#resulting from the use of any information or interpretation provided by Halliburton.
#
~A           TIME           GTDEPTH  GTPQH  GTTQ  GTTN  GTET   GTTVD  
# ...
   10:41:46.786.02-Jan-2020 4788.22 6145.01 85.50 1.00 483.11 2776.61
   10:41:46.986.02-Jan-2020 4788.22 6145.01 85.50 1.00 483.31 2776.61
   10:41:47.186.02-Jan-2020 4788.22 6148.62 85.50 1.00 483.51 2776.61
   10:41:47.386.02-Jan-2020 4788.22 6144.75 85.50 1.00 483.71 2776.61
   10:41:47.586.02-Jan-2020 4788.22 6144.63 85.50 1.00 483.91 2776.61
   10:41:47.786.02-Jan-2020 4788.22 6143.69 85.50 1.00 484.11 2776.61
   10:41:47.986.02-Jan-2020 4788.22 6143.69 85.50 1.00 484.31 2776.61
   10:41:48.186.02-Jan-2020 4788.22 6149.77 85.50 1.00 484.51 2776.61
   10:41:48.386.02-Jan-2020 4788.22 6151.25 85.50 1.00 484.71 2776.61
   10:41:48.586.02-Jan-2020 4788.22 6147.42 85.50 1.00 484.91 2776.61
   10:41:48.786.02-Jan-2020 4788.22 6145.38 85.50 1.00 485.11 2776.61
   10:41:48.986.02-Jan-2020 4788.22 6145.38 85.50 1.00 485.31 2776.61
   10:41:49.187.02-Jan-2020 4788.22 6145.45 85.50 1.00 485.51 2776.61
   10:41:49.387.02-Jan-2020 4788.22 6145.79 85.50 1.00 485.71 2776.61
   10:41:49.587.02-Jan-2020 4788.22 6150.14 85.50 1.00 485.91 2776.61
   10:41:49.787.02-Jan-2020 4788.22 6150.97 85.50 1.00 486.11 2776.61
   10:41:49.987.02-Jan-2020 4788.22 6150.97 85.50 1.00 486.31 2776.61
   10:41:50.187.02-Jan-2020 4788.22 6142.83 85.50 1.00 486.51 2776.61
   10:41:50.387.02-Jan-2020 4788.22 6143.40 85.50 1.00 486.71 2776.61
   10:41:50.587.02-Jan-2020 4788.22 6142.71 85.50 1.00 486.91 2776.61
   10:41:50.787.02-Jan-2020 4788.22 6143.65 85.50 1.00 487.11 2776.61
   10:41:50.987.02-Jan-2020 4788.22 6143.65 85.50 1.00 487.31 2776.61
   10:41:51.187.02-Jan-2020 4788.22 6151.98 85.50 1.00 487.51 2776.61
   10:41:51.387.02-Jan-2020 4788.22 6147.53 85.50 1.00 487.71 2776.61
   10:41:51.587.02-Jan-2020 4788.22 6144.23 85.50 1.00 487.91 2776.61
   10:41:51.787.02-Jan-2020 4788.22 6153.66 85.50 1.00 488.11 2776.61
   10:41:51.987.02-Jan-2020 4788.22 6153.66 85.50 1.00 488.31 2776.61
   10:41:52.187.02-Jan-2020 4788.22 6143.47 85.50 1.00 488.51 2776.61
   10:41:52.387.02-Jan-2020 4788.22 6144.62 85.50 1.00 488.71 2776.61
   10:41:52.587.02-Jan-2020 4788.22 6153.00 85.50 1.00 488.91 2776.61
   10:41:52.787.02-Jan-2020 4788.22 6146.12 85.50 1.00 489.11 2776.61
   10:41:52.987.02-Jan-2020 4788.22 6146.12 85.50 1.00 489.32 2776.61
   10:41:53.187.02-Jan-2020 4788.22 6148.15 85.50 1.00 489.52 2776.61
   10:41:53.388.02-Jan-2020 4788.22 6148.56 85.50 1.00 489.72 2776.61
   10:41:53.588.02-Jan-2020 4788.22 6144.39 85.50 1.00 489.92 2776.61
   10:41:53.788.02-Jan-2020 4788.22 6143.60 85.50 1.00 490.12 2776.61
   10:41:53.988.02-Jan-2020 4788.22 6143.60 85.50 1.00 490.32 2776.61
   10:41:54.188.02-Jan-2020 4788.22 6143.75 85.50 1.00 490.52 2776.61
   10:41:54.388.02-Jan-2020 4788.22 6142.70 85.50 1.00 490.72 2776.61
   10:41:54.588.02-Jan-2020 4788.22 6143.24 85.50 1.00 490.92 2776.61
   10:41:54.788.02-Jan-2020 4788.22 6143.88 85.50 1.00 491.12 2776.61
   10:41:54.988.02-Jan-2020 4788.22 6143.88 85.50 1.00 491.32 2776.61
   10:41:55.188.02-Jan-2020 4788.22 6146.88 85.50 1.00 491.52 2776.61
   10:41:55.388.02-Jan-2020 4788.22 6145.05 85.50 1.00 491.72 2776.61
   10:41:55.588.02-Jan-2020 4788.22 6154.43 85.50 1.00 491.92 2776.61
   10:41:55.788.02-Jan-2020 4788.22 6150.78 85.50 1.00 492.12 2776.61
   10:41:55.988.02-Jan-2020 4788.22 6150.78 85.50 1.00 492.32 2776.61
   10:41:56.188.02-Jan-2020 4788.22 6147.25 85.50 1.00 492.52 2776.61
   10:41:56.388.02-Jan-2020 4788.22 6152.02 85.50 1.00 492.72 2776.61
   10:41:56.588.02-Jan-2020 4788.22 6145.38 85.50 1.00 492.92 2776.61
   10:41:56.788.02-Jan-2020 4788.22 6142.51 85.50 1.00 493.12 2776.61
   10:41:56.988.02-Jan-2020 4788.22 6142.51 85.50 1.00 493.32 2776.61
   10:41:57.188.02-Jan-2020 4788.22 6149.51 85.49 1.00 493.52 2776.61
   10:41:57.388.02-Jan-2020 4788.22 6144.71 85.49 1.00 493.72 2776.61
   10:41:57.588.02-Jan-2020 4788.22 6143.51 85.49 1.00 493.92 2776.61
   10:41:57.789.02-Jan-2020 4788.22 6145.18 85.49 1.00 494.12 2776.61
   10:41:57.989.02-Jan-2020 4788.22 6145.18 85.49 1.00 494.32 2776.61
   10:41:58.189.02-Jan-2020 4788.22 6144.10 85.49 1.00 494.52 2776.61
   10:41:58.389.02-Jan-2020 4788.22 6144.65 85.49 1.00 494.72 2776.61
   10:41:58.589.02-Jan-2020 4788.22 6145.34 85.49 1.00 494.92 2776.61
   10:41:58.789.02-Jan-2020 4788.22 6153.10 85.49 1.00 495.12 2776.61
   10:41:58.989.02-Jan-2020 4788.22 6153.10 85.49 1.00 495.32 2776.61
   10:41:59.189.02-Jan-2020 4788.22 6146.07 85.49 1.00 495.52 2776.61
   10:41:59.389.02-Jan-2020 4788.22 6145.78 85.49 1.00 495.72 2776.61
   10:41:59.589.02-Jan-2020 4788.22 6151.77 85.49 1.00 495.92 2776.61
   10:41:59.789.02-Jan-2020 4788.22 6148.73 85.49 1.00 496.12 2776.61
   10:41:59.989.02-Jan-2020 4788.22 6148.73 85.49 1.00 496.32 2776.61
   10:42:00.189.02-Jan-2020 4788.22 6153.96 85.49 1.00 496.52 2776.61
   10:42:00.389.02-Jan-2020 4788.22 6147.12 85.49 1.00 496.72 2776.61
   10:42:00.589.02-Jan-2020 4788.22 6144.11 85.49 1.00 496.92 2776.61
   10:42:00.789.02-Jan-2020 4788.22 6154.04 85.49 1.00 497.12 2776.61
   10:42:00.989.02-Jan-2020 4788.22 6154.04 85.49 1.00 497.32 2776.61
   10:42:01.189.02-Jan-2020 4788.22 6143.81 85.49 1.00 497.52 2776.61
   10:42:01.389.02-Jan-2020 4788.22 6144.07 85.49 1.00 497.72 2776.61
   10:42:01.589.02-Jan-2020 4788.22 6153.90 85.49 1.00 497.92 2776.61
   10:42:01.789.02-Jan-2020 4788.22 6145.91 85.49 1.00 498.12 2776.61
   10:42:01.990.02-Jan-2020 4788.22 6145.91 85.49 1.00 498.32 2776.61
   10:42:02.190.02-Jan-2020 4788.22 6143.35 85.49 1.00 498.52 2776.61
   10:42:02.390.02-Jan-2020 4788.22 6143.77 85.49 1.00 498.72 2776.61
   10:42:02.590.02-Jan-2020 4788.22 6143.05 85.49 1.00 498.92 2776.61
   10:42:02.790.02-Jan-2020 4788.22 6148.82 85.49 1.00 499.12 2776.61
   10:42:02.990.02-Jan-2020 4788.22 6148.82 85.49 1.00 499.32 2776.61
   10:42:03.190.02-Jan-2020 4788.22 6148.13 85.49 1.00 499.52 2776.61
   10:42:03.390.02-Jan-2020 4788.22 6145.16 85.49 1.00 499.72 2776.61
   10:42:03.590.02-Jan-2020 4788.22 6152.47 85.49 1.00 499.92 2776.61
   10:42:03.790.02-Jan-2020 4788.22 6149.28 85.49 1.00 500.12 2776.61
   10:42:03.990.02-Jan-2020 4788.22 6149.28 85.49 1.00 500.32 2776.61
   10:42:04.190.02-Jan-2020 4788.22 6145.65 85.49 1.00 500.52 2776.61
   10:42:04.390.02-Jan-2020 4788.22 6145.19 85.49 1.00 500.72 2776.61
   10:42:04.590.02-Jan-2020 4788.22 6144.96 85.49 1.00 500.92 2776.61
