~Version Information
 VERS.                  2.0:   CWLS log ASCII Standard -VERSION 2.0
 WRAP.                   NO:   One line per depth step
~Well Information Block
#MNEM.UNIT     VALUE/NAME     DESCRIPTION
#---------     -----------    ---------------------------
 STRT.S             13:01:02 02-Jan-20: START TIME 13:01:02 02-Jan-20
 STOP.S             13:09:15 02-Jan-20: STOP TIME  13:09:15 02-Jan-20
 STEP.S                   0.00: STEP TIME
 NULL.                 -999.25: NULL VALUE
 MDS .        Operator Entered:  MAG DATA SOURCE
 UNIT.                     N/a:  LOGGING EQUIPMENT ID
 DCON.         Sperry Drilling:  DIRECTNL CONTR
 CNTY.                    Baku:  COUNTY NAME
 DOE .                     N/a:  DOE NUMBER
 RIG .                     DWG:  RIG NAME
 MWDS.                    Baku:  MWD SHOP
 REGN.                   EESSA:  REGION
 BASE.              Azerbaijan:  LOGGING EQUIPMENT BASE LOCATION
 UWI .                     N/a:  UNIQUE WELL IDENTIFIER
 API .                     N/a:  API NUMBER
 WTYP.                Deviated:  WELL TYPE
 COMP.     BP Exploration (Caspian Sea) Ltd.:  COMPANY
 SRVC.          TURAN DRILLING:  CONTRACTOR
 WELL.           E04 (Slot 23):  WELL NAME
 CTRY.              Azerbaijan:  COUNTRY NAME
 SON .        AZ-XX-0905715376:  JOB NUMBER
 FLD .                     ACG:  FIELD NAME
 PDAT.          Mean Sea Level:  PERMANENT DATUM
 FTOP.          Formation Tops:  FORM TOPS DESC
 ILTD.               Lithology:  INTERP LTH DESC
 SVYD.                  Survey:  SURVEY DESC
 DMOD.             Drill Model:  DRILL MOD DESC
 HPTY.       Minimum Curvature:  HOLE POS TYPE
 NREF.                    Grid:  NORTH REFERENCE
 SPUD.               21-Dec-19:  SPUD DATE
 DATE.      17.57.20 21-Dec-19:  END TIME
 STIM.      17.57.20 21-Dec-19:  START TIME
 DMF .             Drill Floor:  DRILL MEAS FROM
 DFST.                        :  DIST FSL TEXT
 DFWT.                        :  DIST FWL TEXT
 PROV.                        :  PROVINCE
 STAT.                        :  STATE
 LOC .                        :  LOCATION
 LMF .             Drill Floor:  LOG MEASURED FROM
 AGAP.m                  43.16:  AIR GAP
 DEP .m                3172.61:  DEPTH
 APD .m                  43.16:  DEPTH ABOVE PD
 WDMS.m                 176.20:  WD ELEV
 EGL .m                   0.00:  GROUND ELEVATION
 EPD .m                   0.00:  ELEVATION
 AZTC.deg                 6.49:  AZM TOTAL CORR
 GRDC.deg                 0.09:  GRID CORRECTION
 MDEC.deg                 6.58:  MAGNETIC DECL
 MDIP.deg                59.61:  MAGNETIC DIP
 MFLD.nT              50294.00:  MAGNETIC FIELD
 GVFD.g                   1.00:  GRAVITY FIELD
 VSDR.deg               235.12:  VERT SEC DIRECT
 TDD .m                   0.00:  TOTAL DEPTH (DRILLER)
 SDEP.m                   0.00:  START DEPTH
 UTMY.m             4448627.46:  UTM Y
 UTMX.m              514337.95:  UTM X
 LONG.deg                51.17:  LONGITUDE
 LATI.deg                40.17:  LATITUDE
 TVDS.m                  43.16:  TVDSS CORRECTN
 WHEW.m                  -5.41:  WELL HEAD E/W
 WHNS.m                  -0.12:  WELL HEAD N/S
 VSEW.m                  -5.41:  VERT SEC E/W
 VSNS.m                  -0.12:  VERT SEC N/S
 EKB .m                  43.16:  KB ELEVATION
 EDF .m                  43.16:  DF ELEVATION
 MAGU.                 1852276:  MAGUTM CHECKSUM
 VSC .                       0:  VS TO CLOSURE
~Parameter Information Block
#MNEM.UNIT       Value        Description
#---------     -----------    ---------------------------
 TCS .hr                125.29:  Time Ciculation Ended 
 DD1 .      Fakhraddin Guliyev:  Direct Drillr 1 
 DD2 .                   Sanan:  Direct Drillr 2 
 DEFF.%                   0.00:  % Det Eff 
 DRET.      04.26.40 27-Dec-19:  Drill End Time 
 DRST.      04.26.40 27-Dec-19:  Drill Start Tim 
 DTIM.hr                 80.10:  Time Drilling 
 EDEP.m                   0.00:  End Depth 
 ENG1.            Adlet Omarov:  Engineer 1 
 ENG2.         Almaz Almadatov:  Engineer 2 
 ETIM.      04.26.40 27-Dec-19:  End Time 
 HFLO.                      No:  High Flow 
 HPRE.                      No:  High Pressure 
 HTEM.                      No:  High Temp 
 HYDO.m                   1.85:  Hydro Offset 
 IMAX.deg                72.09:  Inc Max 
 IMIN.deg                59.07:  Inc Min 
 IMND.m                3901.43:  Inc Min Depth 
 IMXD.m                4753.85:  Inc Max Depth 
 LETM.      04.26.40 27-Dec-19:  Log End Time 
 LSTM.      04.26.40 27-Dec-19:  Log Start Time 
 OTIM.hr                187.88:  Time Operating 
 PMAX.psia            10202.94:  Press Op, Max 
 RUN .                     300:  Run Number 
 RRUN.                    0300:  Rig Run Number 
 SDEP.m                   0.00:  Start Depth 
 STIM.      04.26.40 27-Dec-19:  Start Time 
 SVER.                    9.20:  Sperry Version 
 MRT .                    HCIM:  Maximum Recorded Temperature 
 TTMX.degC               96.08:  Max Tool Temp 
~Curve Information Block
#MNEM.UNIT                 API CODE     Curve Description
#---------               -----------    ---------------------------
 TIME.HHMMSS            00 000 000 000:  GT Time & Date
 GTDEPTH.m              00 000 000 000:  GT Depth
 GTPQH.psia             00 000 000 000:  GT HR Quartz Pressure
 GTTQ.degC              00 000 000 000:  GT Quartz Temperature
 GTTN.NONE              00 000 000 000:  GT Test Number
 GTET.sec               00 000 000 000:  GT Elapsed Test Time
 GTTVD.m                00 000 000 000:  GT True Vertical Depth
#Other Information
#
#WARRANTY: Halliburton will use its best efforts to furnish customers with 
#accurate information and interpretations that are part of, and incident to, the services 
#provided.  However, Halliburton cannot and does not warrant the accuracy 
#or correctness of such information and interpretations.  Under no circumstances should any 
#such information or interpretation be relied upon as the sole basis for any drilling, 
#completion, production, or financial decision or any procedure involving any risk to the 
#safety of any drilling venture, drilling rig or its crew or any other third party.  The 
#Customer has full responsibility for all drilling, completion and production operation.  
#Halliburton makes no representations or warranties, either expressed or 
#implied, including, but not limited to, the implied warranties of merchantability or fitness 
#for a particular purpose, with respect to the services rendered.  In no event will 
#Halliburton be liable for failure to obtain any particular results or for 
#any damages, including, but not limited to, indirect, special or consequential damages, 
#resulting from the use of any information or interpretation provided by Halliburton.
#
~A           TIME           GTDEPTH  GTPQH  GTTQ  GTTN  GTET   GTTVD  
# ...
   13:04:29.111.02-Jan-2020 4774.33 2944.43 83.90 3.00 207.01 2772.29
   13:04:29.311.02-Jan-2020 4774.33 2944.43 83.90 3.00 207.21 2772.29
   13:04:29.511.02-Jan-2020 4774.33 2965.66 83.90 3.00 207.41 2772.29
   13:04:29.711.02-Jan-2020 4774.33 2976.73 83.90 3.00 207.61 2772.29
   13:04:29.911.02-Jan-2020 4774.33 2988.51 83.90 3.00 207.81 2772.29
   13:04:30.111.02-Jan-2020 4774.33 2999.97 83.90 3.00 208.01 2772.29
   13:04:30.311.02-Jan-2020 4774.33 2999.97 83.90 3.00 208.21 2772.29
   13:04:30.511.02-Jan-2020 4774.33 3020.78 83.90 3.00 208.41 2772.29
   13:04:30.711.02-Jan-2020 4774.33 3030.76 83.90 3.00 208.61 2772.29
   13:04:30.911.02-Jan-2020 4774.33 3038.88 83.90 3.00 208.81 2772.29
   13:04:31.111.02-Jan-2020 4774.33 3049.78 83.90 3.00 209.01 2772.29
   13:04:31.311.02-Jan-2020 4774.33 3049.78 83.90 3.00 209.21 2772.29
   13:04:31.511.02-Jan-2020 4774.33 3070.83 83.90 3.00 209.41 2772.29
   13:04:31.711.02-Jan-2020 4774.33 3080.28 83.90 3.00 209.61 2772.29
   13:04:31.911.02-Jan-2020 4774.33 3088.10 83.90 3.00 209.81 2772.29
   13:04:32.111.02-Jan-2020 4774.33 3100.19 83.90 3.00 210.01 2772.29
   13:04:32.311.02-Jan-2020 4774.33 3100.19 83.90 3.00 210.21 2772.29
   13:04:32.511.02-Jan-2020 4774.33 3119.83 83.90 3.00 210.41 2772.29
   13:04:32.711.02-Jan-2020 4774.33 3129.58 83.90 3.00 210.61 2772.29
   13:04:32.911.02-Jan-2020 4774.33 3137.94 83.90 3.00 210.81 2772.29
   13:04:33.111.02-Jan-2020 4774.33 3145.72 83.90 3.00 211.01 2772.29
   13:04:33.311.02-Jan-2020 4774.33 3145.72 83.90 3.00 211.21 2772.29
   13:04:33.511.02-Jan-2020 4774.33 3166.77 83.90 3.00 211.41 2772.29
   13:04:33.711.02-Jan-2020 4774.33 3175.83 83.90 3.00 211.61 2772.29
   13:04:33.911.02-Jan-2020 4774.33 3185.07 83.90 3.00 211.81 2772.29
   13:04:34.111.02-Jan-2020 4774.33 3190.59 83.90 3.00 212.01 2772.29
   13:04:34.311.02-Jan-2020 4774.33 3190.59 83.90 3.00 212.21 2772.29
   13:04:34.511.02-Jan-2020 4774.33 3210.69 83.90 3.00 212.41 2772.29
   13:04:34.711.02-Jan-2020 4774.33 3219.39 83.90 3.00 212.61 2772.29
   13:04:34.911.02-Jan-2020 4774.33 3225.84 83.90 3.00 212.81 2772.29
   13:04:35.111.02-Jan-2020 4774.33 3236.48 83.90 3.00 213.01 2772.29
   13:04:35.311.02-Jan-2020 4774.33 3236.48 83.90 3.00 213.21 2772.29
   13:04:35.511.02-Jan-2020 4774.33 3253.64 83.90 3.00 213.41 2772.29
   13:04:35.711.02-Jan-2020 4774.33 3261.72 83.90 3.00 213.61 2772.29
   13:04:35.911.02-Jan-2020 4774.33 3267.49 83.90 3.00 213.81 2772.29
   13:04:36.111.02-Jan-2020 4774.33 3277.68 83.90 3.00 214.01 2772.29
   13:04:36.311.02-Jan-2020 4774.33 3277.68 83.90 3.00 214.21 2772.29
   13:04:36.511.02-Jan-2020 4774.33 3292.29 83.90 3.00 214.41 2772.29
   13:04:36.711.02-Jan-2020 4774.33 3301.16 83.91 3.00 214.61 2772.29
   13:04:36.911.02-Jan-2020 4774.33 3309.98 83.90 3.00 214.81 2772.29
   13:04:37.111.02-Jan-2020 4774.33 3318.04 83.91 3.00 215.01 2772.29
   13:04:37.311.02-Jan-2020 4774.33 3318.04 83.91 3.00 215.21 2772.29
   13:04:37.511.02-Jan-2020 4774.33 3333.26 83.91 3.00 215.41 2772.29
   13:04:37.711.02-Jan-2020 4774.33 3340.83 83.91 3.00 215.61 2772.29
   13:04:37.911.02-Jan-2020 4774.33 3347.85 83.91 3.00 215.81 2772.29
   13:04:38.111.02-Jan-2020 4774.33 3355.33 83.91 3.00 216.01 2772.29
   13:04:38.311.02-Jan-2020 4774.33 3355.33 83.91 3.00 216.21 2772.29
   13:04:38.511.02-Jan-2020 4774.33 3369.41 83.91 3.00 216.41 2772.29
   13:04:38.711.02-Jan-2020 4774.33 3377.02 83.91 3.00 216.61 2772.29
   13:04:38.911.02-Jan-2020 4774.33 3384.72 83.91 3.00 216.81 2772.29
   13:04:39.111.02-Jan-2020 4774.33 3391.45 83.91 3.00 217.01 2772.29
   13:04:39.311.02-Jan-2020 4774.33 3391.45 83.91 3.00 217.21 2772.29
   13:04:39.511.02-Jan-2020 4774.33 3405.63 83.91 3.00 217.41 2772.29
   13:04:39.711.02-Jan-2020 4774.33 3413.02 83.91 3.00 217.61 2772.29
   13:04:39.911.02-Jan-2020 4774.33 3420.28 83.91 3.00 217.81 2772.29
   13:04:40.111.02-Jan-2020 4774.33 3460.86 83.91 3.00 218.01 2772.29
   13:04:40.311.02-Jan-2020 4774.33 3460.86 83.91 3.00 218.21 2772.29
   13:04:40.511.02-Jan-2020 4774.33 3474.43 83.91 3.00 218.41 2772.29
   13:04:40.711.02-Jan-2020 4774.33 3480.98 83.91 3.00 218.61 2772.29
   13:04:40.911.02-Jan-2020 4774.33 3487.64 83.91 3.00 218.81 2772.29
   13:04:41.111.02-Jan-2020 4774.33 3491.48 83.91 3.00 219.01 2772.29
   13:04:41.311.02-Jan-2020 4774.33 3491.48 83.91 3.00 219.21 2772.29
   13:04:41.511.02-Jan-2020 4774.33 3507.09 83.91 3.00 219.41 2772.29
   13:04:41.711.02-Jan-2020 4774.33 3514.16 83.91 3.00 219.61 2772.29
   13:04:41.911.02-Jan-2020 4774.33 3517.66 83.91 3.00 219.81 2772.29
   13:04:42.111.02-Jan-2020 4774.33 3526.39 83.91 3.00 220.01 2772.29
   13:04:42.311.02-Jan-2020 4774.33 3526.39 83.91 3.00 220.21 2772.29
   13:04:42.511.02-Jan-2020 4774.33 3540.42 83.91 3.00 220.41 2772.29
   13:04:42.711.02-Jan-2020 4774.33 3546.98 83.91 3.00 220.61 2772.29
   13:04:42.911.02-Jan-2020 4774.33 3552.93 83.91 3.00 220.81 2772.29
   13:04:43.111.02-Jan-2020 4774.33 3557.05 83.91 3.00 221.01 2772.29
   13:04:43.311.02-Jan-2020 4774.33 3557.05 83.91 3.00 221.21 2772.29
   13:04:43.511.02-Jan-2020 4774.33 3572.22 83.91 3.00 221.41 2772.29
   13:04:43.711.02-Jan-2020 4774.33 3578.75 83.91 3.00 221.61 2772.29
   13:04:43.911.02-Jan-2020 4774.33 3582.32 83.91 3.00 221.81 2772.29
   13:04:44.111.02-Jan-2020 4774.33 3590.75 83.91 3.00 222.01 2772.29
   13:04:44.311.02-Jan-2020 4774.33 3590.75 83.91 3.00 222.21 2772.29
   13:04:44.511.02-Jan-2020 4774.33 3603.75 83.91 3.00 222.41 2772.29
   13:04:44.712.02-Jan-2020 4774.33 3609.72 83.91 3.00 222.61 2772.29
   13:04:44.912.02-Jan-2020 4774.33 3615.76 83.91 3.00 222.81 2772.29
   13:04:45.112.02-Jan-2020 4774.33 3621.79 83.91 3.00 223.01 2772.29
   13:04:45.312.02-Jan-2020 4774.33 3621.79 83.91 3.00 223.21 2772.29
   13:04:45.512.02-Jan-2020 4774.33 3633.04 83.91 3.00 223.41 2772.29
   13:04:45.712.02-Jan-2020 4774.33 3637.09 83.91 3.00 223.61 2772.29
   13:04:45.912.02-Jan-2020 4774.33 3645.05 83.91 3.00 223.81 2772.29
   13:04:46.112.02-Jan-2020 4774.33 3651.24 83.91 3.00 224.01 2772.29
   13:04:46.312.02-Jan-2020 4774.33 3651.24 83.91 3.00 224.21 2772.29
   13:04:46.512.02-Jan-2020 4774.33 3660.74 83.91 3.00 224.41 2772.29
   13:04:46.712.02-Jan-2020 4774.33 3668.76 83.91 3.00 224.61 2772.29
   13:04:46.912.02-Jan-2020 4774.33 3674.77 83.91 3.00 224.81 2772.29
   13:04:47.112.02-Jan-2020 4774.33 3680.90 83.91 3.00 225.01 2772.29
   13:04:47.312.02-Jan-2020 4774.33 3680.90 83.91 3.00 225.21 2772.29
   13:04:47.512.02-Jan-2020 4774.33 3691.69 83.91 3.00 225.41 2772.29
   13:04:47.712.02-Jan-2020 4774.33 3697.66 83.91 3.00 225.61 2772.29
   13:04:47.912.02-Jan-2020 4774.33 3703.60 83.91 3.00 225.81 2772.29
   13:04:48.112.02-Jan-2020 4774.33 3707.30 83.91 3.00 226.01 2772.29
   13:04:48.312.02-Jan-2020 4774.33 3707.30 83.91 3.00 226.21 2772.29
   13:04:48.512.02-Jan-2020 4774.33 3719.79 83.91 3.00 226.41 2772.29
   13:04:48.712.02-Jan-2020 4774.33 3725.59 83.91 3.00 226.61 2772.29
   13:04:48.912.02-Jan-2020 4774.33 3729.27 83.91 3.00 226.81 2772.29
   13:04:49.112.02-Jan-2020 4774.33 3735.29 83.91 3.00 227.01 2772.29
   13:04:49.312.02-Jan-2020 4774.33 3735.29 83.91 3.00 227.21 2772.29
   13:04:49.512.02-Jan-2020 4774.33 3747.16 83.91 3.00 227.41 2772.29
   13:04:49.712.02-Jan-2020 4774.33 3752.62 83.91 3.00 227.61 2772.29
   13:04:49.912.02-Jan-2020 4774.33 3757.48 83.91 3.00 227.81 2772.29
   13:04:50.112.02-Jan-2020 4774.33 3760.51 83.91 3.00 228.01 2772.29
   13:04:50.312.02-Jan-2020 4774.33 3760.51 83.91 3.00 228.21 2772.29
   13:04:50.512.02-Jan-2020 4774.33 3773.19 83.91 3.00 228.41 2772.29
   13:04:50.712.02-Jan-2020 4774.33 3776.26 83.91 3.00 228.61 2772.29
   13:04:50.912.02-Jan-2020 4774.33 3783.65 83.91 3.00 228.81 2772.29
   13:04:51.112.02-Jan-2020 4774.33 3789.00 83.91 3.00 229.01 2772.29
   13:04:51.312.02-Jan-2020 4774.33 3789.00 83.91 3.00 229.21 2772.29
   13:04:51.512.02-Jan-2020 4774.33 3799.13 83.91 3.00 229.41 2772.29
   13:04:51.712.02-Jan-2020 4774.33 3803.85 83.91 3.00 229.61 2772.29
   13:04:51.912.02-Jan-2020 4774.33 3809.00 83.91 3.00 229.81 2772.29
