~Version Information
 VERS.                  2.0:   CWLS log ASCII Standard -VERSION 2.0
 WRAP.                   NO:   One line per depth step
~Well Information Block
#MNEM.UNIT     VALUE/NAME     DESCRIPTION
#---------     -----------    ---------------------------
 STRT.S             13:48:18 02-Jan-20: START TIME 13:48:18 02-Jan-20
 STOP.S             13:56:34 02-Jan-20: STOP TIME  13:56:34 02-Jan-20
 STEP.S                   0.00: STEP TIME
 NULL.                 -999.25: NULL VALUE
 MDS .        Operator Entered:  MAG DATA SOURCE
 UNIT.                     N/a:  LOGGING EQUIPMENT ID
 DCON.         Sperry Drilling:  DIRECTNL CONTR
 CNTY.                    Baku:  COUNTY NAME
 DOE .                     N/a:  DOE NUMBER
 RIG .                     DWG:  RIG NAME
 MWDS.                    Baku:  MWD SHOP
 REGN.                   EESSA:  REGION
 BASE.              Azerbaijan:  LOGGING EQUIPMENT BASE LOCATION
 UWI .                     N/a:  UNIQUE WELL IDENTIFIER
 API .                     N/a:  API NUMBER
 WTYP.                Deviated:  WELL TYPE
 COMP.     BP Exploration (Caspian Sea) Ltd.:  COMPANY
 SRVC.          TURAN DRILLING:  CONTRACTOR
 WELL.           E04 (Slot 23):  WELL NAME
 CTRY.              Azerbaijan:  COUNTRY NAME
 SON .        AZ-XX-0905715376:  JOB NUMBER
 FLD .                     ACG:  FIELD NAME
 PDAT.          Mean Sea Level:  PERMANENT DATUM
 FTOP.          Formation Tops:  FORM TOPS DESC
 ILTD.               Lithology:  INTERP LTH DESC
 SVYD.                  Survey:  SURVEY DESC
 DMOD.             Drill Model:  DRILL MOD DESC
 HPTY.       Minimum Curvature:  HOLE POS TYPE
 NREF.                    Grid:  NORTH REFERENCE
 SPUD.               21-Dec-19:  SPUD DATE
 DATE.      17.57.20 21-Dec-19:  END TIME
 STIM.      17.57.20 21-Dec-19:  START TIME
 DMF .             Drill Floor:  DRILL MEAS FROM
 DFST.                        :  DIST FSL TEXT
 DFWT.                        :  DIST FWL TEXT
 PROV.                        :  PROVINCE
 STAT.                        :  STATE
 LOC .                        :  LOCATION
 LMF .             Drill Floor:  LOG MEASURED FROM
 AGAP.m                  43.16:  AIR GAP
 DEP .m                3172.61:  DEPTH
 APD .m                  43.16:  DEPTH ABOVE PD
 WDMS.m                 176.20:  WD ELEV
 EGL .m                   0.00:  GROUND ELEVATION
 EPD .m                   0.00:  ELEVATION
 AZTC.deg                 6.49:  AZM TOTAL CORR
 GRDC.deg                 0.09:  GRID CORRECTION
 MDEC.deg                 6.58:  MAGNETIC DECL
 MDIP.deg                59.61:  MAGNETIC DIP
 MFLD.nT              50294.00:  MAGNETIC FIELD
 GVFD.g                   1.00:  GRAVITY FIELD
 VSDR.deg               235.12:  VERT SEC DIRECT
 TDD .m                   0.00:  TOTAL DEPTH (DRILLER)
 SDEP.m                   0.00:  START DEPTH
 UTMY.m             4448627.46:  UTM Y
 UTMX.m              514337.95:  UTM X
 LONG.deg                51.17:  LONGITUDE
 LATI.deg                40.17:  LATITUDE
 TVDS.m                  43.16:  TVDSS CORRECTN
 WHEW.m                  -5.41:  WELL HEAD E/W
 WHNS.m                  -0.12:  WELL HEAD N/S
 VSEW.m                  -5.41:  VERT SEC E/W
 VSNS.m                  -0.12:  VERT SEC N/S
 EKB .m                  43.16:  KB ELEVATION
 EDF .m                  43.16:  DF ELEVATION
 MAGU.                 1852276:  MAGUTM CHECKSUM
 VSC .                       0:  VS TO CLOSURE
~Parameter Information Block
#MNEM.UNIT       Value        Description
#---------     -----------    ---------------------------
 TCS .hr                125.29:  Time Ciculation Ended 
 DD1 .      Fakhraddin Guliyev:  Direct Drillr 1 
 DD2 .                   Sanan:  Direct Drillr 2 
 DEFF.%                   0.00:  % Det Eff 
 DRET.      04.26.40 27-Dec-19:  Drill End Time 
 DRST.      04.26.40 27-Dec-19:  Drill Start Tim 
 DTIM.hr                 80.10:  Time Drilling 
 EDEP.m                   0.00:  End Depth 
 ENG1.            Adlet Omarov:  Engineer 1 
 ENG2.         Almaz Almadatov:  Engineer 2 
 ETIM.      04.26.40 27-Dec-19:  End Time 
 HFLO.                      No:  High Flow 
 HPRE.                      No:  High Pressure 
 HTEM.                      No:  High Temp 
 HYDO.m                   1.85:  Hydro Offset 
 IMAX.deg                72.09:  Inc Max 
 IMIN.deg                59.07:  Inc Min 
 IMND.m                3901.43:  Inc Min Depth 
 IMXD.m                4753.85:  Inc Max Depth 
 LETM.      04.26.40 27-Dec-19:  Log End Time 
 LSTM.      04.26.40 27-Dec-19:  Log Start Time 
 OTIM.hr                187.88:  Time Operating 
 PMAX.psia            10202.94:  Press Op, Max 
 RUN .                     300:  Run Number 
 RRUN.                    0300:  Rig Run Number 
 SDEP.m                   0.00:  Start Depth 
 STIM.      04.26.40 27-Dec-19:  Start Time 
 SVER.                    9.20:  Sperry Version 
 MRT .                    HCIM:  Maximum Recorded Temperature 
 TTMX.degC               96.08:  Max Tool Temp 
~Curve Information Block
#MNEM.UNIT                 API CODE     Curve Description
#---------               -----------    ---------------------------
 TIME.HHMMSS            00 000 000 000:  GT Time & Date
 GTDEPTH.m              00 000 000 000:  GT Depth
 GTPQH.psia             00 000 000 000:  GT HR Quartz Pressure
 GTTQ.degC              00 000 000 000:  GT Quartz Temperature
 GTTN.NONE              00 000 000 000:  GT Test Number
 GTET.sec               00 000 000 000:  GT Elapsed Test Time
 GTTVD.m                00 000 000 000:  GT True Vertical Depth
#Other Information
#
#WARRANTY: Halliburton will use its best efforts to furnish customers with 
#accurate information and interpretations that are part of, and incident to, the services 
#provided.  However, Halliburton cannot and does not warrant the accuracy 
#or correctness of such information and interpretations.  Under no circumstances should any 
#such information or interpretation be relied upon as the sole basis for any drilling, 
#completion, production, or financial decision or any procedure involving any risk to the 
#safety of any drilling venture, drilling rig or its crew or any other third party.  The 
#Customer has full responsibility for all drilling, completion and production operation.  
#Halliburton makes no representations or warranties, either expressed or 
#implied, including, but not limited to, the implied warranties of merchantability or fitness 
#for a particular purpose, with respect to the services rendered.  In no event will 
#Halliburton be liable for failure to obtain any particular results or for 
#any damages, including, but not limited to, indirect, special or consequential damages, 
#resulting from the use of any information or interpretation provided by Halliburton.
#
~A           TIME           GTDEPTH  GTPQH  GTTQ  GTTN  GTET   GTTVD  
# ...
   13:53:40.255.02-Jan-2020 4773.81 2898.09 83.57 4.00 322.02 2772.13
   13:53:40.455.02-Jan-2020 4773.81 2898.09 83.57 4.00 322.22 2772.13
   13:53:40.655.02-Jan-2020 4773.81 2615.90 83.57 4.00 322.42 2772.13
   13:53:40.855.02-Jan-2020 4773.81 2487.73 83.57 4.00 322.62 2772.13
   13:53:41.055.02-Jan-2020 4773.81 2258.43 83.57 4.00 322.82 2772.13
   13:53:41.255.02-Jan-2020 4773.81 2002.77 83.57 4.00 323.02 2772.13
   13:53:41.455.02-Jan-2020 4773.81 2002.77 83.57 4.00 323.22 2772.13
   13:53:41.655.02-Jan-2020 4773.81 1635.58 83.57 4.00 323.42 2772.13
   13:53:41.855.02-Jan-2020 4773.81 1474.75 83.56 4.00 323.62 2772.13
   13:53:42.055.02-Jan-2020 4773.81 1334.43 83.56 4.00 323.82 2772.13
   13:53:42.255.02-Jan-2020 4773.81 1201.14 83.56 4.00 324.02 2772.13
   13:53:42.455.02-Jan-2020 4773.81 1201.14 83.56 4.00 324.22 2772.13
   13:53:42.655.02-Jan-2020 4773.81  974.71 83.56 4.00 324.42 2772.13
   13:53:42.855.02-Jan-2020 4773.81  935.73 83.55 4.00 324.62 2772.13
   13:53:43.055.02-Jan-2020 4773.81  950.45 83.55 4.00 324.82 2772.13
   13:53:43.255.02-Jan-2020 4773.81  892.50 83.55 4.00 325.02 2772.13
   13:53:43.455.02-Jan-2020 4773.81  892.50 83.55 4.00 325.22 2772.13
   13:53:43.655.02-Jan-2020 4773.81  966.41 83.55 4.00 325.42 2772.13
   13:53:43.855.02-Jan-2020 4773.81  972.17 83.54 4.00 325.62 2772.13
   13:53:44.055.02-Jan-2020 4773.81  984.98 83.54 4.00 325.82 2772.13
   13:53:44.255.02-Jan-2020 4773.81  966.58 83.54 4.00 326.02 2772.13
   13:53:44.455.02-Jan-2020 4773.81  966.58 83.54 4.00 326.22 2772.13
   13:53:44.655.02-Jan-2020 4773.81 1292.04 83.53 4.00 326.42 2772.13
   13:53:44.855.02-Jan-2020 4773.81 1352.98 83.53 4.00 326.62 2772.13
   13:53:45.055.02-Jan-2020 4773.81 1419.81 83.53 4.00 326.82 2772.13
   13:53:45.255.02-Jan-2020 4773.81 1497.93 83.53 4.00 327.02 2772.13
   13:53:45.455.02-Jan-2020 4773.81 1497.93 83.53 4.00 327.22 2772.13
   13:53:45.655.02-Jan-2020 4773.81 2080.71 83.52 4.00 327.42 2772.13
   13:53:45.855.02-Jan-2020 4773.81 2357.73 83.52 4.00 327.62 2772.13
   13:53:46.055.02-Jan-2020 4773.81 2619.71 83.52 4.00 327.82 2772.13
   13:53:46.255.02-Jan-2020 4773.81 2857.97 83.52 4.00 328.02 2772.13
   13:53:46.455.02-Jan-2020 4773.81 2857.97 83.52 4.00 328.22 2772.13
   13:53:46.655.02-Jan-2020 4773.81 3262.70 83.52 4.00 328.42 2772.13
   13:53:46.855.02-Jan-2020 4773.81 3446.66 83.52 4.00 328.62 2772.13
   13:53:47.055.02-Jan-2020 4773.81 3641.82 83.52 4.00 328.82 2772.13
   13:53:47.255.02-Jan-2020 4773.81 3799.98 83.52 4.00 329.02 2772.13
   13:53:47.455.02-Jan-2020 4773.81 3799.98 83.52 4.00 329.22 2772.13
   13:53:47.655.02-Jan-2020 4773.81 4010.96 83.52 4.00 329.42 2772.13
   13:53:47.855.02-Jan-2020 4773.81 4085.87 83.52 4.00 329.62 2772.13
   13:53:48.055.02-Jan-2020 4773.81 4163.73 83.52 4.00 329.82 2772.13
   13:53:48.255.02-Jan-2020 4773.81 4234.71 83.52 4.00 330.02 2772.13
   13:53:48.455.02-Jan-2020 4773.81 4234.71 83.52 4.00 330.22 2772.13
   13:53:48.655.02-Jan-2020 4773.81 4449.31 83.52 4.00 330.42 2772.13
   13:53:48.855.02-Jan-2020 4773.81 4608.38 83.52 4.00 330.62 2772.13
   13:53:49.055.02-Jan-2020 4773.81 4675.09 83.53 4.00 330.82 2772.13
   13:53:49.255.02-Jan-2020 4773.81 4690.77 83.53 4.00 331.02 2772.13
   13:53:49.455.02-Jan-2020 4773.81 4690.77 83.53 4.00 331.22 2772.13
   13:53:49.655.02-Jan-2020 4773.81 4696.99 83.53 4.00 331.42 2772.13
   13:53:49.855.02-Jan-2020 4773.81 4697.53 83.53 4.00 331.62 2772.13
   13:53:50.055.02-Jan-2020 4773.81 4697.68 83.53 4.00 331.82 2772.13
   13:53:50.255.02-Jan-2020 4773.81 4698.88 83.54 4.00 332.02 2772.13
   13:53:50.455.02-Jan-2020 4773.81 4698.88 83.54 4.00 332.22 2772.13
   13:53:50.655.02-Jan-2020 4773.81 4699.80 83.54 4.00 332.42 2772.13
   13:53:50.855.02-Jan-2020 4773.81 4699.87 83.54 4.00 332.62 2772.13
   13:53:51.056.02-Jan-2020 4773.81 4701.00 83.54 4.00 332.82 2772.13
   13:53:51.256.02-Jan-2020 4773.81 4700.96 83.55 4.00 333.02 2772.13
   13:53:51.456.02-Jan-2020 4773.81 4700.96 83.55 4.00 333.22 2772.13
   13:53:51.656.02-Jan-2020 4773.81 4702.46 83.55 4.00 333.42 2772.13
   13:53:51.856.02-Jan-2020 4773.81 4701.94 83.55 4.00 333.62 2772.13
   13:53:52.056.02-Jan-2020 4773.81 4701.95 83.55 4.00 333.82 2772.13
   13:53:52.256.02-Jan-2020 4773.81 4702.13 83.55 4.00 334.02 2772.13
   13:53:52.456.02-Jan-2020 4773.81 4702.13 83.55 4.00 334.22 2772.13
   13:53:52.656.02-Jan-2020 4773.81 4702.47 83.56 4.00 334.42 2772.13
   13:53:52.856.02-Jan-2020 4773.81 4702.66 83.56 4.00 334.62 2772.13
   13:53:53.056.02-Jan-2020 4773.81 4702.79 83.56 4.00 334.82 2772.13
   13:53:53.256.02-Jan-2020 4773.81 4702.78 83.56 4.00 335.02 2772.13
   13:53:53.456.02-Jan-2020 4773.81 4702.78 83.56 4.00 335.22 2772.13
   13:53:53.656.02-Jan-2020 4773.81 4703.35 83.56 4.00 335.42 2772.13
   13:53:53.856.02-Jan-2020 4773.81 4703.04 83.56 4.00 335.62 2772.13
   13:53:54.056.02-Jan-2020 4773.81 4704.15 83.57 4.00 335.82 2772.13
   13:53:54.256.02-Jan-2020 4773.81 4703.67 83.57 4.00 336.02 2772.13
   13:53:54.456.02-Jan-2020 4773.81 4703.67 83.57 4.00 336.22 2772.13
   13:53:54.656.02-Jan-2020 4773.81 4703.41 83.57 4.00 336.42 2772.13
   13:53:54.856.02-Jan-2020 4773.81 4704.56 83.57 4.00 336.62 2772.13
   13:53:55.056.02-Jan-2020 4773.81 4704.08 83.57 4.00 336.82 2772.13
   13:53:55.256.02-Jan-2020 4773.81 4704.13 83.57 4.00 337.02 2772.13
   13:53:55.456.02-Jan-2020 4773.81 4704.13 83.57 4.00 337.22 2772.13
   13:53:55.656.02-Jan-2020 4773.81 4705.17 83.57 4.00 337.42 2772.13
   13:53:55.856.02-Jan-2020 4773.81 4704.52 83.57 4.00 337.62 2772.13
   13:53:56.056.02-Jan-2020 4773.81 4704.48 83.57 4.00 337.82 2772.13
   13:53:56.256.02-Jan-2020 4773.81 4704.25 83.57 4.00 338.02 2772.13
   13:53:56.456.02-Jan-2020 4773.81 4704.25 83.57 4.00 338.22 2772.13
   13:53:56.656.02-Jan-2020 4773.81 4704.60 83.58 4.00 338.42 2772.13
   13:53:56.856.02-Jan-2020 4773.81 4704.62 83.58 4.00 338.62 2772.13
   13:53:57.056.02-Jan-2020 4773.81 4704.30 83.58 4.00 338.82 2772.13
   13:53:57.256.02-Jan-2020 4773.81 4705.34 83.58 4.00 339.02 2772.13
   13:53:57.456.02-Jan-2020 4773.81 4705.34 83.58 4.00 339.22 2772.13
   13:53:57.656.02-Jan-2020 4773.81 4704.48 83.58 4.00 339.42 2772.13
   13:53:57.856.02-Jan-2020 4773.81 4705.31 83.58 4.00 339.62 2772.13
   13:53:58.056.02-Jan-2020 4773.81 4705.20 83.58 4.00 339.82 2772.13
   13:53:58.256.02-Jan-2020 4773.81 4705.00 83.58 4.00 340.02 2772.13
   13:53:58.456.02-Jan-2020 4773.81 4705.00 83.58 4.00 340.22 2772.13
   13:53:58.656.02-Jan-2020 4773.81 4705.00 83.58 4.00 340.42 2772.13
   13:53:58.856.02-Jan-2020 4773.81 4705.02 83.58 4.00 340.62 2772.13
   13:53:59.056.02-Jan-2020 4773.81 4705.02 83.58 4.00 340.82 2772.13
   13:53:59.256.02-Jan-2020 4773.81 4705.06 83.58 4.00 341.02 2772.13
   13:53:59.456.02-Jan-2020 4773.81 4705.06 83.58 4.00 341.22 2772.13
   13:53:59.656.02-Jan-2020 4773.81 4705.78 83.58 4.00 341.42 2772.13
   13:53:59.856.02-Jan-2020 4773.81 4705.23 83.58 4.00 341.62 2772.13
   13:54:00.056.02-Jan-2020 4773.81 4705.24 83.58 4.00 341.82 2772.13
   13:54:00.256.02-Jan-2020 4773.81 4705.23 83.58 4.00 342.02 2772.13
   13:54:00.456.02-Jan-2020 4773.81 4705.23 83.58 4.00 342.22 2772.13
   13:54:00.656.02-Jan-2020 4773.81 4706.19 83.58 4.00 342.42 2772.13
   13:54:00.856.02-Jan-2020 4773.81 4705.50 83.58 4.00 342.62 2772.13
   13:54:01.056.02-Jan-2020 4773.81 4705.41 83.58 4.00 342.82 2772.13
   13:54:01.256.02-Jan-2020 4773.81 4705.34 83.58 4.00 343.02 2772.13
   13:54:01.456.02-Jan-2020 4773.81 4705.34 83.58 4.00 343.22 2772.13
   13:54:01.656.02-Jan-2020 4773.81 4706.28 83.58 4.00 343.42 2772.13
   13:54:01.856.02-Jan-2020 4773.81 4705.64 83.58 4.00 343.62 2772.13
   13:54:02.056.02-Jan-2020 4773.81 4705.54 83.58 4.00 343.82 2772.13
   13:54:02.256.02-Jan-2020 4773.81 4705.43 83.58 4.00 344.02 2772.13
   13:54:02.456.02-Jan-2020 4773.81 4705.43 83.58 4.00 344.22 2772.13
   13:54:02.656.02-Jan-2020 4773.81 4705.42 83.58 4.00 344.42 2772.13
   13:54:02.856.02-Jan-2020 4773.81 4705.90 83.58 4.00 344.62 2772.13
   13:54:03.056.02-Jan-2020 4773.81 4705.60 83.58 4.00 344.82 2772.13
