~Version Information
 VERS.                  2.0:   CWLS log ASCII Standard -VERSION 2.0
 WRAP.                   NO:   One line per depth step
~Well Information Block
#MNEM.UNIT     VALUE/NAME     DESCRIPTION
#---------     -----------    ---------------------------
 STRT.S             13:48:18 02-Jan-20: START TIME 13:48:18 02-Jan-20
 STOP.S             13:56:34 02-Jan-20: STOP TIME  13:56:34 02-Jan-20
 STEP.S                   0.00: STEP TIME
 NULL.                 -999.25: NULL VALUE
 MDS .        Operator Entered:  MAG DATA SOURCE
 UNIT.                     N/a:  LOGGING EQUIPMENT ID
 DCON.         Sperry Drilling:  DIRECTNL CONTR
 CNTY.                    Baku:  COUNTY NAME
 DOE .                     N/a:  DOE NUMBER
 RIG .                     DWG:  RIG NAME
 MWDS.                    Baku:  MWD SHOP
 REGN.                   EESSA:  REGION
 BASE.              Azerbaijan:  LOGGING EQUIPMENT BASE LOCATION
 UWI .                     N/a:  UNIQUE WELL IDENTIFIER
 API .                     N/a:  API NUMBER
 WTYP.                Deviated:  WELL TYPE
 COMP.     BP Exploration (Caspian Sea) Ltd.:  COMPANY
 SRVC.          TURAN DRILLING:  CONTRACTOR
 WELL.           E04 (Slot 23):  WELL NAME
 CTRY.              Azerbaijan:  COUNTRY NAME
 SON .        AZ-XX-0905715376:  JOB NUMBER
 FLD .                     ACG:  FIELD NAME
 PDAT.          Mean Sea Level:  PERMANENT DATUM
 FTOP.          Formation Tops:  FORM TOPS DESC
 ILTD.               Lithology:  INTERP LTH DESC
 SVYD.                  Survey:  SURVEY DESC
 DMOD.             Drill Model:  DRILL MOD DESC
 HPTY.       Minimum Curvature:  HOLE POS TYPE
 NREF.                    Grid:  NORTH REFERENCE
 SPUD.               21-Dec-19:  SPUD DATE
 DATE.      17.57.20 21-Dec-19:  END TIME
 STIM.      17.57.20 21-Dec-19:  START TIME
 DMF .             Drill Floor:  DRILL MEAS FROM
 DFST.                        :  DIST FSL TEXT
 DFWT.                        :  DIST FWL TEXT
 PROV.                        :  PROVINCE
 STAT.                        :  STATE
 LOC .                        :  LOCATION
 LMF .             Drill Floor:  LOG MEASURED FROM
 AGAP.m                  43.16:  AIR GAP
 DEP .m                3172.61:  DEPTH
 APD .m                  43.16:  DEPTH ABOVE PD
 WDMS.m                 176.20:  WD ELEV
 EGL .m                   0.00:  GROUND ELEVATION
 EPD .m                   0.00:  ELEVATION
 AZTC.deg                 6.49:  AZM TOTAL CORR
 GRDC.deg                 0.09:  GRID CORRECTION
 MDEC.deg                 6.58:  MAGNETIC DECL
 MDIP.deg                59.61:  MAGNETIC DIP
 MFLD.nT              50294.00:  MAGNETIC FIELD
 GVFD.g                   1.00:  GRAVITY FIELD
 VSDR.deg               235.12:  VERT SEC DIRECT
 TDD .m                   0.00:  TOTAL DEPTH (DRILLER)
 SDEP.m                   0.00:  START DEPTH
 UTMY.m             4448627.46:  UTM Y
 UTMX.m              514337.95:  UTM X
 LONG.deg                51.17:  LONGITUDE
 LATI.deg                40.17:  LATITUDE
 TVDS.m                  43.16:  TVDSS CORRECTN
 WHEW.m                  -5.41:  WELL HEAD E/W
 WHNS.m                  -0.12:  WELL HEAD N/S
 VSEW.m                  -5.41:  VERT SEC E/W
 VSNS.m                  -0.12:  VERT SEC N/S
 EKB .m                  43.16:  KB ELEVATION
 EDF .m                  43.16:  DF ELEVATION
 MAGU.                 1852276:  MAGUTM CHECKSUM
 VSC .                       0:  VS TO CLOSURE
~Parameter Information Block
#MNEM.UNIT       Value        Description
#---------     -----------    ---------------------------
 TCS .hr                125.29:  Time Ciculation Ended 
 DD1 .      Fakhraddin Guliyev:  Direct Drillr 1 
 DD2 .                   Sanan:  Direct Drillr 2 
 DEFF.%                   0.00:  % Det Eff 
 DRET.      04.26.40 27-Dec-19:  Drill End Time 
 DRST.      04.26.40 27-Dec-19:  Drill Start Tim 
 DTIM.hr                 80.10:  Time Drilling 
 EDEP.m                   0.00:  End Depth 
 ENG1.            Adlet Omarov:  Engineer 1 
 ENG2.         Almaz Almadatov:  Engineer 2 
 ETIM.      04.26.40 27-Dec-19:  End Time 
 HFLO.                      No:  High Flow 
 HPRE.                      No:  High Pressure 
 HTEM.                      No:  High Temp 
 HYDO.m                   1.85:  Hydro Offset 
 IMAX.deg                72.09:  Inc Max 
 IMIN.deg                59.07:  Inc Min 
 IMND.m                3901.43:  Inc Min Depth 
 IMXD.m                4753.85:  Inc Max Depth 
 LETM.      04.26.40 27-Dec-19:  Log End Time 
 LSTM.      04.26.40 27-Dec-19:  Log Start Time 
 OTIM.hr                187.88:  Time Operating 
 PMAX.psia            10202.94:  Press Op, Max 
 RUN .                     300:  Run Number 
 RRUN.                    0300:  Rig Run Number 
 SDEP.m                   0.00:  Start Depth 
 STIM.      04.26.40 27-Dec-19:  Start Time 
 SVER.                    9.20:  Sperry Version 
 MRT .                    HCIM:  Maximum Recorded Temperature 
 TTMX.degC               96.08:  Max Tool Temp 
~Curve Information Block
#MNEM.UNIT                 API CODE     Curve Description
#---------               -----------    ---------------------------
 TIME.HHMMSS            00 000 000 000:  GT Time & Date
 GTDEPTH.m              00 000 000 000:  GT Depth
 GTPQH.psia             00 000 000 000:  GT HR Quartz Pressure
 GTTQ.degC              00 000 000 000:  GT Quartz Temperature
 GTTN.NONE              00 000 000 000:  GT Test Number
 GTET.sec               00 000 000 000:  GT Elapsed Test Time
 GTTVD.m                00 000 000 000:  GT True Vertical Depth
#Other Information
#
#WARRANTY: Halliburton will use its best efforts to furnish customers with 
#accurate information and interpretations that are part of, and incident to, the services 
#provided.  However, Halliburton cannot and does not warrant the accuracy 
#or correctness of such information and interpretations.  Under no circumstances should any 
#such information or interpretation be relied upon as the sole basis for any drilling, 
#completion, production, or financial decision or any procedure involving any risk to the 
#safety of any drilling venture, drilling rig or its crew or any other third party.  The 
#Customer has full responsibility for all drilling, completion and production operation.  
#Halliburton makes no representations or warranties, either expressed or 
#implied, including, but not limited to, the implied warranties of merchantability or fitness 
#for a particular purpose, with respect to the services rendered.  In no event will 
#Halliburton be liable for failure to obtain any particular results or for 
#any damages, including, but not limited to, indirect, special or consequential damages, 
#resulting from the use of any information or interpretation provided by Halliburton.
#
~A           TIME           GTDEPTH  GTPQH  GTTQ  GTTN  GTET   GTTVD  
# ...
   13:52:31.252.02-Jan-2020 4773.81 4707.35 83.62 4.00 253.01 2772.13
   13:52:31.452.02-Jan-2020 4773.81 4707.35 83.62 4.00 253.21 2772.13
   13:52:31.652.02-Jan-2020 4773.81 4707.70 83.62 4.00 253.41 2772.13
   13:52:31.852.02-Jan-2020 4773.81 4707.25 83.62 4.00 253.61 2772.13
   13:52:32.052.02-Jan-2020 4773.81 4707.20 83.62 4.00 253.81 2772.13
   13:52:32.252.02-Jan-2020 4773.81 4705.79 83.62 4.00 254.01 2772.13
   13:52:32.452.02-Jan-2020 4773.81 4705.79 83.62 4.00 254.21 2772.13
   13:52:32.652.02-Jan-2020 4773.81 4707.24 83.62 4.00 254.41 2772.13
   13:52:32.852.02-Jan-2020 4773.81 4707.28 83.62 4.00 254.61 2772.13
   13:52:33.052.02-Jan-2020 4773.81 4707.14 83.62 4.00 254.81 2772.13
   13:52:33.252.02-Jan-2020 4773.81 4707.14 83.62 4.00 255.01 2772.13
   13:52:33.452.02-Jan-2020 4773.81 4707.14 83.62 4.00 255.21 2772.13
   13:52:33.652.02-Jan-2020 4773.81 4707.15 83.62 4.00 255.41 2772.13
   13:52:33.852.02-Jan-2020 4773.81 4707.21 83.62 4.00 255.61 2772.13
   13:52:34.052.02-Jan-2020 4773.81 4706.74 83.62 4.00 255.81 2772.13
   13:52:34.252.02-Jan-2020 4773.81 4708.78 83.62 4.00 256.01 2772.13
   13:52:34.452.02-Jan-2020 4773.81 4708.78 83.62 4.00 256.21 2772.13
   13:52:34.652.02-Jan-2020 4773.81 4708.43 83.62 4.00 256.41 2772.13
   13:52:34.852.02-Jan-2020 4773.81 4708.36 83.62 4.00 256.61 2772.13
   13:52:35.052.02-Jan-2020 4773.81 4708.32 83.62 4.00 256.81 2772.13
   13:52:35.252.02-Jan-2020 4773.81 4706.77 83.62 4.00 257.01 2772.13
   13:52:35.452.02-Jan-2020 4773.81 4706.77 83.62 4.00 257.21 2772.13
   13:52:35.652.02-Jan-2020 4773.81 4708.48 83.62 4.00 257.41 2772.13
   13:52:35.852.02-Jan-2020 4773.81 4708.45 83.62 4.00 257.61 2772.13
   13:52:36.052.02-Jan-2020 4773.81 4708.38 83.62 4.00 257.81 2772.13
   13:52:36.252.02-Jan-2020 4773.81 4706.90 83.62 4.00 258.01 2772.13
   13:52:36.452.02-Jan-2020 4773.81 4706.90 83.62 4.00 258.21 2772.13
   13:52:36.652.02-Jan-2020 4773.81 4708.80 83.61 4.00 258.41 2772.13
   13:52:36.852.02-Jan-2020 4773.81 4708.70 83.61 4.00 258.61 2772.13
   13:52:37.052.02-Jan-2020 4773.81 4708.57 83.61 4.00 258.81 2772.13
   13:52:37.252.02-Jan-2020 4773.81 4708.52 83.61 4.00 259.01 2772.13
   13:52:37.452.02-Jan-2020 4773.81 4708.52 83.61 4.00 259.21 2772.13
   13:52:37.652.02-Jan-2020 4773.81 4708.77 83.61 4.00 259.41 2772.13
   13:52:37.852.02-Jan-2020 4773.81 4708.48 83.61 4.00 259.61 2772.13
   13:52:38.052.02-Jan-2020 4773.81 4708.55 83.61 4.00 259.81 2772.13
   13:52:38.252.02-Jan-2020 4773.81 4706.98 83.61 4.00 260.01 2772.13
   13:52:38.452.02-Jan-2020 4773.81 4706.98 83.61 4.00 260.21 2772.13
   13:52:38.652.02-Jan-2020 4773.81 4708.67 83.61 4.00 260.41 2772.13
   13:52:38.852.02-Jan-2020 4773.81 4707.28 83.61 4.00 260.61 2772.13
   13:52:39.052.02-Jan-2020 4773.81 4708.83 83.61 4.00 260.81 2772.13
   13:52:39.252.02-Jan-2020 4773.81 4708.51 83.61 4.00 261.01 2772.13
   13:52:39.452.02-Jan-2020 4773.81 4708.51 83.61 4.00 261.21 2772.13
   13:52:39.652.02-Jan-2020 4773.81 4707.04 83.61 4.00 261.41 2772.13
   13:52:39.852.02-Jan-2020 4773.81 4708.83 83.61 4.00 261.61 2772.13
   13:52:40.052.02-Jan-2020 4773.81 4708.56 83.61 4.00 261.81 2772.13
   13:52:40.252.02-Jan-2020 4773.81 4708.64 83.61 4.00 262.01 2772.13
   13:52:40.452.02-Jan-2020 4773.81 4708.64 83.61 4.00 262.21 2772.13
   13:52:40.652.02-Jan-2020 4773.81 4708.52 83.61 4.00 262.41 2772.13
   13:52:40.852.02-Jan-2020 4773.81 4708.58 83.61 4.00 262.61 2772.13
   13:52:41.052.02-Jan-2020 4773.81 4708.57 83.61 4.00 262.81 2772.13
   13:52:41.252.02-Jan-2020 4773.81 4708.54 83.61 4.00 263.01 2772.13
   13:52:41.452.02-Jan-2020 4773.81 4708.54 83.61 4.00 263.21 2772.13
   13:52:41.652.02-Jan-2020 4773.81 4709.67 83.61 4.00 263.41 2772.13
   13:52:41.852.02-Jan-2020 4773.81 4709.40 83.61 4.00 263.61 2772.13
   13:52:42.052.02-Jan-2020 4773.81 4709.47 83.61 4.00 263.81 2772.13
   13:52:42.252.02-Jan-2020 4773.81 4709.33 83.61 4.00 264.01 2772.13
   13:52:42.452.02-Jan-2020 4773.81 4709.33 83.61 4.00 264.21 2772.13
   13:52:42.652.02-Jan-2020 4773.81 4707.77 83.61 4.00 264.41 2772.13
   13:52:42.852.02-Jan-2020 4773.81 4710.06 83.61 4.00 264.61 2772.13
   13:52:43.052.02-Jan-2020 4773.81 4709.66 83.61 4.00 264.81 2772.13
   13:52:43.252.02-Jan-2020 4773.81 4709.68 83.61 4.00 265.01 2772.13
   13:52:43.452.02-Jan-2020 4773.81 4709.68 83.61 4.00 265.21 2772.13
   13:52:43.652.02-Jan-2020 4773.81 4708.06 83.61 4.00 265.41 2772.13
   13:52:43.852.02-Jan-2020 4773.81 4709.86 83.61 4.00 265.61 2772.13
   13:52:44.052.02-Jan-2020 4773.81 4709.73 83.61 4.00 265.81 2772.13
   13:52:44.252.02-Jan-2020 4773.81 4709.71 83.61 4.00 266.01 2772.13
   13:52:44.452.02-Jan-2020 4773.81 4709.71 83.61 4.00 266.21 2772.13
   13:52:44.652.02-Jan-2020 4773.81 4709.51 83.61 4.00 266.41 2772.13
   13:52:44.852.02-Jan-2020 4773.81 4708.07 83.61 4.00 266.61 2772.13
   13:52:45.052.02-Jan-2020 4773.81 4709.57 83.61 4.00 266.81 2772.13
   13:52:45.252.02-Jan-2020 4773.81 4709.37 83.61 4.00 267.01 2772.13
   13:52:45.452.02-Jan-2020 4773.81 4709.37 83.61 4.00 267.21 2772.13
   13:52:45.652.02-Jan-2020 4773.81 4707.72 83.61 4.00 267.41 2772.13
   13:52:45.852.02-Jan-2020 4773.81 4709.95 83.61 4.00 267.61 2772.13
   13:52:46.052.02-Jan-2020 4773.81 4709.54 83.61 4.00 267.81 2772.13
   13:52:46.252.02-Jan-2020 4773.81 4708.13 83.61 4.00 268.01 2772.13
   13:52:46.452.02-Jan-2020 4773.81 4708.13 83.61 4.00 268.21 2772.13
   13:52:46.652.02-Jan-2020 4773.81 4709.67 83.61 4.00 268.41 2772.13
   13:52:46.852.02-Jan-2020 4773.81 4709.76 83.61 4.00 268.61 2772.13
   13:52:47.052.02-Jan-2020 4773.81 4708.17 83.61 4.00 268.81 2772.13
   13:52:47.252.02-Jan-2020 4773.81 4709.70 83.61 4.00 269.01 2772.13
   13:52:47.452.02-Jan-2020 4773.81 4709.70 83.61 4.00 269.21 2772.13
   13:52:47.652.02-Jan-2020 4773.81 4709.61 83.61 4.00 269.41 2772.13
   13:52:47.852.02-Jan-2020 4773.81 4709.55 83.61 4.00 269.61 2772.13
   13:52:48.052.02-Jan-2020 4773.81 4709.51 83.61 4.00 269.81 2772.13
   13:52:48.252.02-Jan-2020 4773.81 4709.49 83.61 4.00 270.01 2772.13
   13:52:48.452.02-Jan-2020 4773.81 4709.49 83.61 4.00 270.21 2772.13
   13:52:48.652.02-Jan-2020 4773.81 4709.50 83.61 4.00 270.41 2772.13
   13:52:48.852.02-Jan-2020 4773.81 4708.15 83.61 4.00 270.61 2772.13
   13:52:49.052.02-Jan-2020 4773.81 4710.06 83.61 4.00 270.81 2772.13
   13:52:49.252.02-Jan-2020 4773.81 4709.80 83.61 4.00 271.01 2772.13
   13:52:49.452.02-Jan-2020 4773.81 4709.80 83.61 4.00 271.21 2772.13
   13:52:49.653.02-Jan-2020 4773.81 4709.90 83.61 4.00 271.41 2772.13
   13:52:49.853.02-Jan-2020 4773.81 4709.40 83.61 4.00 271.61 2772.13
   13:52:50.053.02-Jan-2020 4773.81 4709.59 83.61 4.00 271.81 2772.13
   13:52:50.253.02-Jan-2020 4773.81 4709.50 83.61 4.00 272.01 2772.13
   13:52:50.453.02-Jan-2020 4773.81 4709.50 83.61 4.00 272.21 2772.13
   13:52:50.653.02-Jan-2020 4773.81 4708.87 83.61 4.00 272.41 2772.13
   13:52:50.853.02-Jan-2020 4773.81 4710.18 83.61 4.00 272.61 2772.13
   13:52:51.053.02-Jan-2020 4773.81 4709.99 83.61 4.00 272.81 2772.13
   13:52:51.253.02-Jan-2020 4773.81 4710.03 83.61 4.00 273.01 2772.13
   13:52:51.453.02-Jan-2020 4773.81 4710.03 83.61 4.00 273.21 2772.13
   13:52:51.653.02-Jan-2020 4773.81 4708.13 83.61 4.00 273.41 2772.13
   13:52:51.853.02-Jan-2020 4773.81 4710.21 83.61 4.00 273.61 2772.13
   13:52:52.053.02-Jan-2020 4773.81 4709.76 83.61 4.00 273.81 2772.13
   13:52:52.253.02-Jan-2020 4773.81 4709.87 83.61 4.00 274.01 2772.13
   13:52:52.453.02-Jan-2020 4773.81 4709.87 83.61 4.00 274.21 2772.13
   13:52:52.653.02-Jan-2020 4773.81 4709.73 83.61 4.00 274.41 2772.13
   13:52:52.853.02-Jan-2020 4773.81 4709.81 83.61 4.00 274.61 2772.13
   13:52:53.053.02-Jan-2020 4773.81 4709.76 83.61 4.00 274.81 2772.13
   13:52:53.253.02-Jan-2020 4773.81 4709.06 83.61 4.00 275.01 2772.13
   13:52:53.453.02-Jan-2020 4773.81 4709.06 83.61 4.00 275.21 2772.13
   13:52:53.653.02-Jan-2020 4773.81 4709.62 83.61 4.00 275.41 2772.13
   13:52:53.853.02-Jan-2020 4773.81 4709.50 83.61 4.00 275.61 2772.13
   13:52:54.053.02-Jan-2020 4773.81 4707.85 83.61 4.00 275.81 2772.13
