~Version Information
 VERS.                  2.0:   CWLS log ASCII Standard -VERSION 2.0
 WRAP.                   NO:   One line per depth step
~Well Information Block
#MNEM.UNIT     VALUE/NAME     DESCRIPTION
#---------     -----------    ---------------------------
 STRT.S             10:33:43 02-Jan-20: START TIME 10:33:43 02-Jan-20
 STOP.S             10:42:04 02-Jan-20: STOP TIME  10:42:04 02-Jan-20
 STEP.S                   0.00: STEP TIME
 NULL.                 -999.25: NULL VALUE
 MDS .        Operator Entered:  MAG DATA SOURCE
 UNIT.                     N/a:  LOGGING EQUIPMENT ID
 DCON.         Sperry Drilling:  DIRECTNL CONTR
 CNTY.                    Baku:  COUNTY NAME
 DOE .                     N/a:  DOE NUMBER
 RIG .                     DWG:  RIG NAME
 MWDS.                    Baku:  MWD SHOP
 REGN.                   EESSA:  REGION
 BASE.              Azerbaijan:  LOGGING EQUIPMENT BASE LOCATION
 UWI .                     N/a:  UNIQUE WELL IDENTIFIER
 API .                     N/a:  API NUMBER
 WTYP.                Deviated:  WELL TYPE
 COMP.     BP Exploration (Caspian Sea) Ltd.:  COMPANY
 SRVC.          TURAN DRILLING:  CONTRACTOR
 WELL.           E04 (Slot 23):  WELL NAME
 CTRY.              Azerbaijan:  COUNTRY NAME
 SON .        AZ-XX-0905715376:  JOB NUMBER
 FLD .                     ACG:  FIELD NAME
 PDAT.          Mean Sea Level:  PERMANENT DATUM
 FTOP.          Formation Tops:  FORM TOPS DESC
 ILTD.               Lithology:  INTERP LTH DESC
 SVYD.                  Survey:  SURVEY DESC
 DMOD.             Drill Model:  DRILL MOD DESC
 HPTY.       Minimum Curvature:  HOLE POS TYPE
 NREF.                    Grid:  NORTH REFERENCE
 SPUD.               21-Dec-19:  SPUD DATE
 DATE.      17.57.20 21-Dec-19:  END TIME
 STIM.      17.57.20 21-Dec-19:  START TIME
 DMF .             Drill Floor:  DRILL MEAS FROM
 DFST.                        :  DIST FSL TEXT
 DFWT.                        :  DIST FWL TEXT
 PROV.                        :  PROVINCE
 STAT.                        :  STATE
 LOC .                        :  LOCATION
 LMF .             Drill Floor:  LOG MEASURED FROM
 AGAP.m                  43.16:  AIR GAP
 DEP .m                3172.61:  DEPTH
 APD .m                  43.16:  DEPTH ABOVE PD
 WDMS.m                 176.20:  WD ELEV
 EGL .m                   0.00:  GROUND ELEVATION
 EPD .m                   0.00:  ELEVATION
 AZTC.deg                 6.49:  AZM TOTAL CORR
 GRDC.deg                 0.09:  GRID CORRECTION
 MDEC.deg                 6.58:  MAGNETIC DECL
 MDIP.deg                59.61:  MAGNETIC DIP
 MFLD.nT              50294.00:  MAGNETIC FIELD
 GVFD.g                   1.00:  GRAVITY FIELD
 VSDR.deg               235.12:  VERT SEC DIRECT
 TDD .m                   0.00:  TOTAL DEPTH (DRILLER)
 SDEP.m                   0.00:  START DEPTH
 UTMY.m             4448627.46:  UTM Y
 UTMX.m              514337.95:  UTM X
 LONG.deg                51.17:  LONGITUDE
 LATI.deg                40.17:  LATITUDE
 TVDS.m                  43.16:  TVDSS CORRECTN
 WHEW.m                  -5.41:  WELL HEAD E/W
 WHNS.m                  -0.12:  WELL HEAD N/S
 VSEW.m                  -5.41:  VERT SEC E/W
 VSNS.m                  -0.12:  VERT SEC N/S
 EKB .m                  43.16:  KB ELEVATION
 EDF .m                  43.16:  DF ELEVATION
 MAGU.                 1852276:  MAGUTM CHECKSUM
 VSC .                       0:  VS TO CLOSURE
~Parameter Information Block
#MNEM.UNIT       Value        Description
#---------     -----------    ---------------------------
 TCS .hr                125.29:  Time Ciculation Ended 
 DD1 .      Fakhraddin Guliyev:  Direct Drillr 1 
 DD2 .                   Sanan:  Direct Drillr 2 
 DEFF.%                   0.00:  % Det Eff 
 DRET.      04.26.40 27-Dec-19:  Drill End Time 
 DRST.      04.26.40 27-Dec-19:  Drill Start Tim 
 DTIM.hr                 80.10:  Time Drilling 
 EDEP.m                   0.00:  End Depth 
 ENG1.            Adlet Omarov:  Engineer 1 
 ENG2.         Almaz Almadatov:  Engineer 2 
 ETIM.      04.26.40 27-Dec-19:  End Time 
 HFLO.                      No:  High Flow 
 HPRE.                      No:  High Pressure 
 HTEM.                      No:  High Temp 
 HYDO.m                   1.85:  Hydro Offset 
 IMAX.deg                72.09:  Inc Max 
 IMIN.deg                59.07:  Inc Min 
 IMND.m                3901.43:  Inc Min Depth 
 IMXD.m                4753.85:  Inc Max Depth 
 LETM.      04.26.40 27-Dec-19:  Log End Time 
 LSTM.      04.26.40 27-Dec-19:  Log Start Time 
 OTIM.hr                187.88:  Time Operating 
 PMAX.psia            10202.94:  Press Op, Max 
 RUN .                     300:  Run Number 
 RRUN.                    0300:  Rig Run Number 
 SDEP.m                   0.00:  Start Depth 
 STIM.      04.26.40 27-Dec-19:  Start Time 
 SVER.                    9.20:  Sperry Version 
 MRT .                    HCIM:  Maximum Recorded Temperature 
 TTMX.degC               96.08:  Max Tool Temp 
~Curve Information Block
#MNEM.UNIT                 API CODE     Curve Description
#---------               -----------    ---------------------------
 TIME.HHMMSS            00 000 000 000:  GT Time & Date
 GTDEPTH.m              00 000 000 000:  GT Depth
 GTPQH.psia             00 000 000 000:  GT HR Quartz Pressure
 GTTQ.degC              00 000 000 000:  GT Quartz Temperature
 GTTN.NONE              00 000 000 000:  GT Test Number
 GTET.sec               00 000 000 000:  GT Elapsed Test Time
 GTTVD.m                00 000 000 000:  GT True Vertical Depth
#Other Information
#
#WARRANTY: Halliburton will use its best efforts to furnish customers with 
#accurate information and interpretations that are part of, and incident to, the services 
#provided.  However, Halliburton cannot and does not warrant the accuracy 
#or correctness of such information and interpretations.  Under no circumstances should any 
#such information or interpretation be relied upon as the sole basis for any drilling, 
#completion, production, or financial decision or any procedure involving any risk to the 
#safety of any drilling venture, drilling rig or its crew or any other third party.  The 
#Customer has full responsibility for all drilling, completion and production operation.  
#Halliburton makes no representations or warranties, either expressed or 
#implied, including, but not limited to, the implied warranties of merchantability or fitness 
#for a particular purpose, with respect to the services rendered.  In no event will 
#Halliburton be liable for failure to obtain any particular results or for 
#any damages, including, but not limited to, indirect, special or consequential damages, 
#resulting from the use of any information or interpretation provided by Halliburton.
#
~A           TIME           GTDEPTH  GTPQH  GTTQ  GTTN  GTET   GTTVD  
# ...
   10:36:01.705.02-Jan-2020 4788.22 6138.01 85.70 1.00 138.03 2776.61
   10:36:01.905.02-Jan-2020 4788.22 6138.01 85.70 1.00 138.23 2776.61
   10:36:02.105.02-Jan-2020 4788.22 6140.85 85.70 1.00 138.43 2776.61
   10:36:02.305.02-Jan-2020 4788.22 6138.52 85.70 1.00 138.63 2776.61
   10:36:02.505.02-Jan-2020 4788.22 6138.42 85.70 1.00 138.83 2776.61
   10:36:02.705.02-Jan-2020 4788.22 6138.61 85.70 1.00 139.03 2776.61
   10:36:02.905.02-Jan-2020 4788.22 6138.61 85.70 1.00 139.23 2776.61
   10:36:03.105.02-Jan-2020 4788.22 6144.13 85.70 1.00 139.43 2776.61
   10:36:03.305.02-Jan-2020 4788.22 6140.74 85.70 1.00 139.63 2776.61
   10:36:03.505.02-Jan-2020 4788.22 6138.66 85.70 1.00 139.83 2776.61
   10:36:03.705.02-Jan-2020 4788.22 6138.86 85.70 1.00 140.03 2776.61
   10:36:03.905.02-Jan-2020 4788.22 6138.86 85.70 1.00 140.23 2776.61
   10:36:04.105.02-Jan-2020 4788.22 6139.03 85.70 1.00 140.43 2776.61
   10:36:04.305.02-Jan-2020 4788.22 6144.02 85.70 1.00 140.63 2776.61
   10:36:04.506.02-Jan-2020 4788.22 6146.21 85.70 1.00 140.83 2776.61
   10:36:04.706.02-Jan-2020 4788.22 6140.75 85.70 1.00 141.03 2776.61
   10:36:04.906.02-Jan-2020 4788.22 6140.75 85.70 1.00 141.23 2776.61
   10:36:05.106.02-Jan-2020 4788.22 6138.15 85.70 1.00 141.43 2776.61
   10:36:05.306.02-Jan-2020 4788.22 6137.04 85.70 1.00 141.63 2776.61
   10:36:05.506.02-Jan-2020 4788.22 6137.60 85.70 1.00 141.83 2776.61
   10:36:05.706.02-Jan-2020 4788.22 6141.93 85.70 1.00 142.03 2776.61
   10:36:05.906.02-Jan-2020 4788.22 6141.93 85.70 1.00 142.23 2776.61
   10:36:06.106.02-Jan-2020 4788.22 6141.38 85.70 1.00 142.43 2776.61
   10:36:06.306.02-Jan-2020 4788.22 6138.41 85.70 1.00 142.63 2776.61
   10:36:06.506.02-Jan-2020 4788.22 6147.83 85.70 1.00 142.83 2776.61
   10:36:06.706.02-Jan-2020 4788.22 6140.87 85.70 1.00 143.03 2776.61
   10:36:06.906.02-Jan-2020 4788.22 6140.87 85.70 1.00 143.23 2776.61
   10:36:07.106.02-Jan-2020 4788.22 6139.94 85.70 1.00 143.43 2776.61
   10:36:07.306.02-Jan-2020 4788.22 6139.92 85.70 1.00 143.63 2776.61
   10:36:07.506.02-Jan-2020 4788.22 6138.64 85.70 1.00 143.83 2776.61
   10:36:07.706.02-Jan-2020 4788.22 6138.59 85.70 1.00 144.03 2776.61
   10:36:07.906.02-Jan-2020 4788.22 6138.59 85.70 1.00 144.23 2776.61
   10:36:08.106.02-Jan-2020 4788.22 6141.85 85.70 1.00 144.43 2776.61
   10:36:08.306.02-Jan-2020 4788.22 6139.85 85.70 1.00 144.63 2776.61
   10:36:08.506.02-Jan-2020 4788.22 6143.72 85.70 1.00 144.83 2776.61
   10:36:08.706.02-Jan-2020 4788.22 6145.71 85.70 1.00 145.03 2776.61
   10:36:08.907.02-Jan-2020 4788.22 6145.71 85.70 1.00 145.23 2776.61
   10:36:09.107.02-Jan-2020 4788.22 6138.13 85.70 1.00 145.43 2776.61
   10:36:09.307.02-Jan-2020 4788.22 6138.71 85.70 1.00 145.63 2776.61
   10:36:09.507.02-Jan-2020 4788.22 6137.27 85.70 1.00 145.83 2776.61
   10:36:09.707.02-Jan-2020 4788.22 6137.58 85.70 1.00 146.03 2776.61
   10:36:09.907.02-Jan-2020 4788.22 6137.58 85.70 1.00 146.23 2776.61
   10:36:10.107.02-Jan-2020 4788.22 6139.94 85.70 1.00 146.43 2776.61
   10:36:10.307.02-Jan-2020 4788.22 6147.30 85.70 1.00 146.63 2776.61
   10:36:10.507.02-Jan-2020 4788.22 6141.14 85.70 1.00 146.83 2776.61
   10:36:10.707.02-Jan-2020 4788.22 6139.84 85.70 1.00 147.03 2776.61
   10:36:10.907.02-Jan-2020 4788.22 6139.84 85.70 1.00 147.23 2776.61
   10:36:11.107.02-Jan-2020 4788.22 6138.26 85.70 1.00 147.43 2776.61
   10:36:11.307.02-Jan-2020 4788.22 6144.01 85.69 1.00 147.63 2776.61
   10:36:11.507.02-Jan-2020 4788.22 6142.75 85.69 1.00 147.83 2776.61
   10:36:11.707.02-Jan-2020 4788.22 6139.44 85.69 1.00 148.03 2776.61
   10:36:11.907.02-Jan-2020 4788.22 6139.44 85.69 1.00 148.23 2776.61
   10:36:12.107.02-Jan-2020 4788.22 6139.24 85.69 1.00 148.43 2776.61
   10:36:12.307.02-Jan-2020 4788.22 6139.21 85.69 1.00 148.63 2776.61
   10:36:12.507.02-Jan-2020 4788.22 6140.45 85.69 1.00 148.83 2776.61
   10:36:12.707.02-Jan-2020 4788.22 6147.57 85.69 1.00 149.04 2776.61
   10:36:12.907.02-Jan-2020 4788.22 6147.57 85.69 1.00 149.24 2776.61
   10:36:13.108.02-Jan-2020 4788.22 6139.46 85.69 1.00 149.44 2776.61
   10:36:13.308.02-Jan-2020 4788.22 6139.36 85.69 1.00 149.64 2776.61
   10:36:13.508.02-Jan-2020 4788.22 6138.10 85.69 1.00 149.84 2776.61
   10:36:13.708.02-Jan-2020 4788.22 6137.38 85.69 1.00 150.04 2776.61
   10:36:13.908.02-Jan-2020 4788.22 6137.38 85.69 1.00 150.24 2776.61
   10:36:14.108.02-Jan-2020 4788.22 6145.42 85.69 1.00 150.44 2776.61
   10:36:14.308.02-Jan-2020 4788.22 6143.70 85.69 1.00 150.64 2776.61
   10:36:14.508.02-Jan-2020 4788.22 6139.54 85.69 1.00 150.84 2776.61
   10:36:14.708.02-Jan-2020 4788.22 6143.70 85.69 1.00 151.04 2776.61
   10:36:14.908.02-Jan-2020 4788.22 6143.70 85.69 1.00 151.24 2776.61
   10:36:15.108.02-Jan-2020 4788.22 6140.20 85.69 1.00 151.44 2776.61
   10:36:15.308.02-Jan-2020 4788.22 6139.19 85.69 1.00 151.64 2776.61
   10:36:15.508.02-Jan-2020 4788.22 6149.05 85.69 1.00 151.84 2776.61
   10:36:15.708.02-Jan-2020 4788.22 6141.30 85.69 1.00 152.04 2776.61
   10:36:15.908.02-Jan-2020 4788.22 6141.30 85.69 1.00 152.24 2776.61
   10:36:16.108.02-Jan-2020 4788.22 6142.43 85.69 1.00 152.44 2776.61
   10:36:16.308.02-Jan-2020 4788.22 6144.61 85.69 1.00 152.64 2776.61
   10:36:16.508.02-Jan-2020 4788.22 6139.75 85.69 1.00 152.84 2776.61
   10:36:16.708.02-Jan-2020 4788.22 6138.77 85.69 1.00 153.04 2776.61
   10:36:16.908.02-Jan-2020 4788.22 6138.77 85.69 1.00 153.24 2776.61
   10:36:17.108.02-Jan-2020 4788.22 6139.26 85.69 1.00 153.44 2776.61
   10:36:17.309.02-Jan-2020 4788.22 6138.34 85.69 1.00 153.64 2776.61
   10:36:17.509.02-Jan-2020 4788.22 6138.57 85.69 1.00 153.84 2776.61
   10:36:17.709.02-Jan-2020 4788.22 6139.21 85.69 1.00 154.04 2776.61
   10:36:17.909.02-Jan-2020 4788.22 6139.21 85.69 1.00 154.24 2776.61
   10:36:18.109.02-Jan-2020 4788.22 6141.77 85.69 1.00 154.44 2776.61
   10:36:18.309.02-Jan-2020 4788.22 6140.43 85.69 1.00 154.64 2776.61
   10:36:18.509.02-Jan-2020 4788.22 6140.16 85.69 1.00 154.84 2776.61
   10:36:18.709.02-Jan-2020 4788.22 6145.60 85.69 1.00 155.04 2776.61
   10:36:18.909.02-Jan-2020 4788.22 6145.60 85.69 1.00 155.24 2776.61
   10:36:19.109.02-Jan-2020 4788.22 6139.90 85.69 1.00 155.44 2776.61
   10:36:19.309.02-Jan-2020 4788.22 6139.92 85.69 1.00 155.64 2776.61
   10:36:19.509.02-Jan-2020 4788.22 6138.85 85.69 1.00 155.84 2776.61
   10:36:19.709.02-Jan-2020 4788.22 6138.71 85.69 1.00 156.04 2776.61
   10:36:19.909.02-Jan-2020 4788.22 6138.71 85.69 1.00 156.24 2776.61
   10:36:20.109.02-Jan-2020 4788.22 6147.94 85.69 1.00 156.44 2776.61
   10:36:20.309.02-Jan-2020 4788.22 6145.51 85.69 1.00 156.64 2776.61
   10:36:20.509.02-Jan-2020 4788.22 6140.78 85.69 1.00 156.84 2776.61
   10:36:20.709.02-Jan-2020 4788.22 6140.84 85.69 1.00 157.04 2776.61
   10:36:20.909.02-Jan-2020 4788.22 6140.84 85.69 1.00 157.24 2776.61
   10:36:21.109.02-Jan-2020 4788.22 6138.62 85.69 1.00 157.44 2776.61
   10:36:21.309.02-Jan-2020 4788.22 6139.03 85.69 1.00 157.64 2776.61
   10:36:21.510.02-Jan-2020 4788.22 6146.18 85.69 1.00 157.84 2776.61
   10:36:21.710.02-Jan-2020 4788.22 6143.72 85.69 1.00 158.04 2776.61
   10:36:21.910.02-Jan-2020 4788.22 6143.72 85.69 1.00 158.24 2776.61
   10:36:22.110.02-Jan-2020 4788.22 6143.85 85.69 1.00 158.44 2776.61
   10:36:22.310.02-Jan-2020 4788.22 6145.28 85.69 1.00 158.64 2776.61
   10:36:22.510.02-Jan-2020 4788.22 6141.23 85.69 1.00 158.84 2776.61
   10:36:22.710.02-Jan-2020 4788.22 6140.37 85.69 1.00 159.04 2776.61
   10:36:22.910.02-Jan-2020 4788.22 6140.37 85.69 1.00 159.24 2776.61
   10:36:23.110.02-Jan-2020 4788.22 6139.91 85.69 1.00 159.44 2776.61
   10:36:23.310.02-Jan-2020 4788.22 6148.13 85.69 1.00 159.64 2776.61
   10:36:23.510.02-Jan-2020 4788.22 6141.98 85.69 1.00 159.84 2776.61
   10:36:23.710.02-Jan-2020 4788.22 6139.31 85.69 1.00 160.04 2776.61
   10:36:23.910.02-Jan-2020 4788.22 6139.31 85.69 1.00 160.24 2776.61
   10:36:24.110.02-Jan-2020 4788.22 6145.06 85.69 1.00 160.44 2776.61
   10:36:24.310.02-Jan-2020 4788.22 6141.95 85.69 1.00 160.64 2776.61
   10:36:24.510.02-Jan-2020 4788.22 6140.32 85.69 1.00 160.84 2776.61
