~Version Information
 VERS.                  2.0:   CWLS log ASCII Standard -VERSION 2.0
 WRAP.                   NO:   One line per depth step
~Well Information Block
#MNEM.UNIT     VALUE/NAME     DESCRIPTION
#---------     -----------    ---------------------------
 STRT.S             13:48:18 02-Jan-20: START TIME 13:48:18 02-Jan-20
 STOP.S             13:56:34 02-Jan-20: STOP TIME  13:56:34 02-Jan-20
 STEP.S                   0.00: STEP TIME
 NULL.                 -999.25: NULL VALUE
 MDS .        Operator Entered:  MAG DATA SOURCE
 UNIT.                     N/a:  LOGGING EQUIPMENT ID
 DCON.         Sperry Drilling:  DIRECTNL CONTR
 CNTY.                    Baku:  COUNTY NAME
 DOE .                     N/a:  DOE NUMBER
 RIG .                     DWG:  RIG NAME
 MWDS.                    Baku:  MWD SHOP
 REGN.                   EESSA:  REGION
 BASE.              Azerbaijan:  LOGGING EQUIPMENT BASE LOCATION
 UWI .                     N/a:  UNIQUE WELL IDENTIFIER
 API .                     N/a:  API NUMBER
 WTYP.                Deviated:  WELL TYPE
 COMP.     BP Exploration (Caspian Sea) Ltd.:  COMPANY
 SRVC.          TURAN DRILLING:  CONTRACTOR
 WELL.           E04 (Slot 23):  WELL NAME
 CTRY.              Azerbaijan:  COUNTRY NAME
 SON .        AZ-XX-0905715376:  JOB NUMBER
 FLD .                     ACG:  FIELD NAME
 PDAT.          Mean Sea Level:  PERMANENT DATUM
 FTOP.          Formation Tops:  FORM TOPS DESC
 ILTD.               Lithology:  INTERP LTH DESC
 SVYD.                  Survey:  SURVEY DESC
 DMOD.             Drill Model:  DRILL MOD DESC
 HPTY.       Minimum Curvature:  HOLE POS TYPE
 NREF.                    Grid:  NORTH REFERENCE
 SPUD.               21-Dec-19:  SPUD DATE
 DATE.      17.57.20 21-Dec-19:  END TIME
 STIM.      17.57.20 21-Dec-19:  START TIME
 DMF .             Drill Floor:  DRILL MEAS FROM
 DFST.                        :  DIST FSL TEXT
 DFWT.                        :  DIST FWL TEXT
 PROV.                        :  PROVINCE
 STAT.                        :  STATE
 LOC .                        :  LOCATION
 LMF .             Drill Floor:  LOG MEASURED FROM
 AGAP.m                  43.16:  AIR GAP
 DEP .m                3172.61:  DEPTH
 APD .m                  43.16:  DEPTH ABOVE PD
 WDMS.m                 176.20:  WD ELEV
 EGL .m                   0.00:  GROUND ELEVATION
 EPD .m                   0.00:  ELEVATION
 AZTC.deg                 6.49:  AZM TOTAL CORR
 GRDC.deg                 0.09:  GRID CORRECTION
 MDEC.deg                 6.58:  MAGNETIC DECL
 MDIP.deg                59.61:  MAGNETIC DIP
 MFLD.nT              50294.00:  MAGNETIC FIELD
 GVFD.g                   1.00:  GRAVITY FIELD
 VSDR.deg               235.12:  VERT SEC DIRECT
 TDD .m                   0.00:  TOTAL DEPTH (DRILLER)
 SDEP.m                   0.00:  START DEPTH
 UTMY.m             4448627.46:  UTM Y
 UTMX.m              514337.95:  UTM X
 LONG.deg                51.17:  LONGITUDE
 LATI.deg                40.17:  LATITUDE
 TVDS.m                  43.16:  TVDSS CORRECTN
 WHEW.m                  -5.41:  WELL HEAD E/W
 WHNS.m                  -0.12:  WELL HEAD N/S
 VSEW.m                  -5.41:  VERT SEC E/W
 VSNS.m                  -0.12:  VERT SEC N/S
 EKB .m                  43.16:  KB ELEVATION
 EDF .m                  43.16:  DF ELEVATION
 MAGU.                 1852276:  MAGUTM CHECKSUM
 VSC .                       0:  VS TO CLOSURE
~Parameter Information Block
#MNEM.UNIT       Value        Description
#---------     -----------    ---------------------------
 TCS .hr                125.29:  Time Ciculation Ended 
 DD1 .      Fakhraddin Guliyev:  Direct Drillr 1 
 DD2 .                   Sanan:  Direct Drillr 2 
 DEFF.%                   0.00:  % Det Eff 
 DRET.      04.26.40 27-Dec-19:  Drill End Time 
 DRST.      04.26.40 27-Dec-19:  Drill Start Tim 
 DTIM.hr                 80.10:  Time Drilling 
 EDEP.m                   0.00:  End Depth 
 ENG1.            Adlet Omarov:  Engineer 1 
 ENG2.         Almaz Almadatov:  Engineer 2 
 ETIM.      04.26.40 27-Dec-19:  End Time 
 HFLO.                      No:  High Flow 
 HPRE.                      No:  High Pressure 
 HTEM.                      No:  High Temp 
 HYDO.m                   1.85:  Hydro Offset 
 IMAX.deg                72.09:  Inc Max 
 IMIN.deg                59.07:  Inc Min 
 IMND.m                3901.43:  Inc Min Depth 
 IMXD.m                4753.85:  Inc Max Depth 
 LETM.      04.26.40 27-Dec-19:  Log End Time 
 LSTM.      04.26.40 27-Dec-19:  Log Start Time 
 OTIM.hr                187.88:  Time Operating 
 PMAX.psia            10202.94:  Press Op, Max 
 RUN .                     300:  Run Number 
 RRUN.                    0300:  Rig Run Number 
 SDEP.m                   0.00:  Start Depth 
 STIM.      04.26.40 27-Dec-19:  Start Time 
 SVER.                    9.20:  Sperry Version 
 MRT .                    HCIM:  Maximum Recorded Temperature 
 TTMX.degC               96.08:  Max Tool Temp 
~Curve Information Block
#MNEM.UNIT                 API CODE     Curve Description
#---------               -----------    ---------------------------
 TIME.HHMMSS            00 000 000 000:  GT Time & Date
 GTDEPTH.m              00 000 000 000:  GT Depth
 GTPQH.psia             00 000 000 000:  GT HR Quartz Pressure
 GTTQ.degC              00 000 000 000:  GT Quartz Temperature
 GTTN.NONE              00 000 000 000:  GT Test Number
 GTET.sec               00 000 000 000:  GT Elapsed Test Time
 GTTVD.m                00 000 000 000:  GT True Vertical Depth
#Other Information
#
#WARRANTY: Halliburton will use its best efforts to furnish customers with 
#accurate information and interpretations that are part of, and incident to, the services 
#provided.  However, Halliburton cannot and does not warrant the accuracy 
#or correctness of such information and interpretations.  Under no circumstances should any 
#such information or interpretation be relied upon as the sole basis for any drilling, 
#completion, production, or financial decision or any procedure involving any risk to the 
#safety of any drilling venture, drilling rig or its crew or any other third party.  The 
#Customer has full responsibility for all drilling, completion and production operation.  
#Halliburton makes no representations or warranties, either expressed or 
#implied, including, but not limited to, the implied warranties of merchantability or fitness 
#for a particular purpose, with respect to the services rendered.  In no event will 
#Halliburton be liable for failure to obtain any particular results or for 
#any damages, including, but not limited to, indirect, special or consequential damages, 
#resulting from the use of any information or interpretation provided by Halliburton.
#
~A           TIME           GTDEPTH  GTPQH  GTTQ  GTTN  GTET   GTTVD  
# ...
   13:56:21.263.02-Jan-2020 4773.81 6162.02 83.56 4.00 483.02 2772.13
   13:56:21.463.02-Jan-2020 4773.81 6162.02 83.56 4.00 483.22 2772.13
   13:56:21.663.02-Jan-2020 4773.81 6163.68 83.56 4.00 483.42 2772.13
   13:56:21.863.02-Jan-2020 4773.81 6162.24 83.56 4.00 483.62 2772.13
   13:56:22.063.02-Jan-2020 4773.81 6158.69 83.56 4.00 483.82 2772.13
   13:56:22.263.02-Jan-2020 4773.81 6159.20 83.56 4.00 484.02 2772.13
   13:56:22.463.02-Jan-2020 4773.81 6159.20 83.56 4.00 484.22 2772.13
   13:56:22.663.02-Jan-2020 4773.81 6163.16 83.56 4.00 484.42 2772.13
   13:56:22.863.02-Jan-2020 4773.81 6159.48 83.56 4.00 484.62 2772.13
   13:56:23.063.02-Jan-2020 4773.81 6168.00 83.56 4.00 484.82 2772.13
   13:56:23.263.02-Jan-2020 4773.81 6161.36 83.56 4.00 485.02 2772.13
   13:56:23.463.02-Jan-2020 4773.81 6161.36 83.56 4.00 485.22 2772.13
   13:56:23.663.02-Jan-2020 4773.81 6159.68 83.56 4.00 485.42 2772.13
   13:56:23.863.02-Jan-2020 4773.81 6159.54 83.56 4.00 485.62 2772.13
   13:56:24.063.02-Jan-2020 4773.81 6164.24 83.56 4.00 485.82 2772.13
   13:56:24.263.02-Jan-2020 4773.81 6162.79 83.56 4.00 486.02 2772.13
   13:56:24.463.02-Jan-2020 4773.81 6162.79 83.56 4.00 486.22 2772.13
   13:56:24.663.02-Jan-2020 4773.81 6159.00 83.56 4.00 486.42 2772.13
   13:56:24.863.02-Jan-2020 4773.81 6158.21 83.56 4.00 486.62 2772.13
   13:56:25.063.02-Jan-2020 4773.81 6158.33 83.56 4.00 486.82 2772.13
   13:56:25.263.02-Jan-2020 4773.81 6167.79 83.56 4.00 487.02 2772.13
   13:56:25.463.02-Jan-2020 4773.81 6167.79 83.56 4.00 487.22 2772.13
   13:56:25.663.02-Jan-2020 4773.81 6159.11 83.56 4.00 487.42 2772.13
   13:56:25.863.02-Jan-2020 4773.81 6159.45 83.56 4.00 487.62 2772.13
   13:56:26.063.02-Jan-2020 4773.81 6167.61 83.56 4.00 487.82 2772.13
   13:56:26.263.02-Jan-2020 4773.81 6161.09 83.56 4.00 488.02 2772.13
   13:56:26.463.02-Jan-2020 4773.81 6161.09 83.56 4.00 488.22 2772.13
   13:56:26.663.02-Jan-2020 4773.81 6160.60 83.56 4.00 488.42 2772.13
   13:56:26.863.02-Jan-2020 4773.81 6159.69 83.56 4.00 488.62 2772.13
   13:56:27.063.02-Jan-2020 4773.81 6159.53 83.56 4.00 488.82 2772.13
   13:56:27.263.02-Jan-2020 4773.81 6160.58 83.56 4.00 489.02 2772.13
   13:56:27.463.02-Jan-2020 4773.81 6160.58 83.56 4.00 489.22 2772.13
   13:56:27.663.02-Jan-2020 4773.81 6162.91 83.56 4.00 489.42 2772.13
   13:56:27.863.02-Jan-2020 4773.81 6164.22 83.56 4.00 489.62 2772.13
   13:56:28.063.02-Jan-2020 4773.81 6164.33 83.56 4.00 489.82 2772.13
   13:56:28.263.02-Jan-2020 4773.81 6160.83 83.56 4.00 490.02 2772.13
   13:56:28.463.02-Jan-2020 4773.81 6160.83 83.56 4.00 490.22 2772.13
   13:56:28.663.02-Jan-2020 4773.81 6163.61 83.56 4.00 490.42 2772.13
   13:56:28.863.02-Jan-2020 4773.81 6159.35 83.56 4.00 490.62 2772.13
   13:56:29.063.02-Jan-2020 4773.81 6159.70 83.56 4.00 490.82 2772.13
   13:56:29.263.02-Jan-2020 4773.81 6167.74 83.56 4.00 491.02 2772.13
   13:56:29.463.02-Jan-2020 4773.81 6167.74 83.56 4.00 491.22 2772.13
   13:56:29.663.02-Jan-2020 4773.81 6159.11 83.56 4.00 491.42 2772.13
   13:56:29.863.02-Jan-2020 4773.81 6167.66 83.55 4.00 491.62 2772.13
   13:56:30.063.02-Jan-2020 4773.81 6159.83 83.55 4.00 491.82 2772.13
   13:56:30.263.02-Jan-2020 4773.81 6160.09 83.55 4.00 492.02 2772.13
   13:56:30.463.02-Jan-2020 4773.81 6160.09 83.55 4.00 492.22 2772.13
   13:56:30.663.02-Jan-2020 4773.81 6159.36 83.55 4.00 492.42 2772.13
   13:56:30.863.02-Jan-2020 4773.81 6166.91 83.55 4.00 492.62 2772.13
   13:56:31.063.02-Jan-2020 4773.81 6160.93 83.55 4.00 492.82 2772.13
   13:56:31.263.02-Jan-2020 4773.81 6159.45 83.55 4.00 493.02 2772.13
   13:56:31.463.02-Jan-2020 4773.81 6159.45 83.55 4.00 493.22 2772.13
   13:56:31.663.02-Jan-2020 4773.81 6158.20 83.55 4.00 493.42 2772.13
   13:56:31.863.02-Jan-2020 4773.81 6158.35 83.55 4.00 493.62 2772.13
   13:56:32.063.02-Jan-2020 4773.81 6167.75 83.55 4.00 493.82 2772.13
   13:56:32.263.02-Jan-2020 4773.81 6161.04 83.55 4.00 494.02 2772.13
   13:56:32.463.02-Jan-2020 4773.81 6161.04 83.55 4.00 494.22 2772.13
   13:56:32.663.02-Jan-2020 4773.81 6159.06 83.55 4.00 494.42 2772.13
   13:56:32.863.02-Jan-2020 4773.81 6167.33 83.55 4.00 494.62 2772.13
   13:56:33.063.02-Jan-2020 4773.81 6159.65 83.55 4.00 494.82 2772.13
   13:56:33.263.02-Jan-2020 4773.81 6161.12 83.55 4.00 495.02 2772.13
   13:56:33.463.02-Jan-2020 4773.81 6161.12 83.55 4.00 495.22 2772.13
   13:56:33.663.02-Jan-2020 4773.81 6159.10 83.55 4.00 495.42 2772.13
   13:56:33.863.02-Jan-2020 4773.81 6158.80 83.55 4.00 495.62 2772.13
   13:56:34.063.02-Jan-2020 4773.81 6159.54 83.55 4.00 495.82 2772.13
