~Version Information
 VERS.                  2.0:   CWLS log ASCII Standard -VERSION 2.0
 WRAP.                   NO:   One line per depth step
~Well Information Block
#MNEM.UNIT     VALUE/NAME     DESCRIPTION
#---------     -----------    ---------------------------
 STRT.S             13:01:02 02-Jan-20: START TIME 13:01:02 02-Jan-20
 STOP.S             13:09:15 02-Jan-20: STOP TIME  13:09:15 02-Jan-20
 STEP.S                   0.00: STEP TIME
 NULL.                 -999.25: NULL VALUE
 MDS .        Operator Entered:  MAG DATA SOURCE
 UNIT.                     N/a:  LOGGING EQUIPMENT ID
 DCON.         Sperry Drilling:  DIRECTNL CONTR
 CNTY.                    Baku:  COUNTY NAME
 DOE .                     N/a:  DOE NUMBER
 RIG .                     DWG:  RIG NAME
 MWDS.                    Baku:  MWD SHOP
 REGN.                   EESSA:  REGION
 BASE.              Azerbaijan:  LOGGING EQUIPMENT BASE LOCATION
 UWI .                     N/a:  UNIQUE WELL IDENTIFIER
 API .                     N/a:  API NUMBER
 WTYP.                Deviated:  WELL TYPE
 COMP.     BP Exploration (Caspian Sea) Ltd.:  COMPANY
 SRVC.          TURAN DRILLING:  CONTRACTOR
 WELL.           E04 (Slot 23):  WELL NAME
 CTRY.              Azerbaijan:  COUNTRY NAME
 SON .        AZ-XX-0905715376:  JOB NUMBER
 FLD .                     ACG:  FIELD NAME
 PDAT.          Mean Sea Level:  PERMANENT DATUM
 FTOP.          Formation Tops:  FORM TOPS DESC
 ILTD.               Lithology:  INTERP LTH DESC
 SVYD.                  Survey:  SURVEY DESC
 DMOD.             Drill Model:  DRILL MOD DESC
 HPTY.       Minimum Curvature:  HOLE POS TYPE
 NREF.                    Grid:  NORTH REFERENCE
 SPUD.               21-Dec-19:  SPUD DATE
 DATE.      17.57.20 21-Dec-19:  END TIME
 STIM.      17.57.20 21-Dec-19:  START TIME
 DMF .             Drill Floor:  DRILL MEAS FROM
 DFST.                        :  DIST FSL TEXT
 DFWT.                        :  DIST FWL TEXT
 PROV.                        :  PROVINCE
 STAT.                        :  STATE
 LOC .                        :  LOCATION
 LMF .             Drill Floor:  LOG MEASURED FROM
 AGAP.m                  43.16:  AIR GAP
 DEP .m                3172.61:  DEPTH
 APD .m                  43.16:  DEPTH ABOVE PD
 WDMS.m                 176.20:  WD ELEV
 EGL .m                   0.00:  GROUND ELEVATION
 EPD .m                   0.00:  ELEVATION
 AZTC.deg                 6.49:  AZM TOTAL CORR
 GRDC.deg                 0.09:  GRID CORRECTION
 MDEC.deg                 6.58:  MAGNETIC DECL
 MDIP.deg                59.61:  MAGNETIC DIP
 MFLD.nT              50294.00:  MAGNETIC FIELD
 GVFD.g                   1.00:  GRAVITY FIELD
 VSDR.deg               235.12:  VERT SEC DIRECT
 TDD .m                   0.00:  TOTAL DEPTH (DRILLER)
 SDEP.m                   0.00:  START DEPTH
 UTMY.m             4448627.46:  UTM Y
 UTMX.m              514337.95:  UTM X
 LONG.deg                51.17:  LONGITUDE
 LATI.deg                40.17:  LATITUDE
 TVDS.m                  43.16:  TVDSS CORRECTN
 WHEW.m                  -5.41:  WELL HEAD E/W
 WHNS.m                  -0.12:  WELL HEAD N/S
 VSEW.m                  -5.41:  VERT SEC E/W
 VSNS.m                  -0.12:  VERT SEC N/S
 EKB .m                  43.16:  KB ELEVATION
 EDF .m                  43.16:  DF ELEVATION
 MAGU.                 1852276:  MAGUTM CHECKSUM
 VSC .                       0:  VS TO CLOSURE
~Parameter Information Block
#MNEM.UNIT       Value        Description
#---------     -----------    ---------------------------
 TCS .hr                125.29:  Time Ciculation Ended 
 DD1 .      Fakhraddin Guliyev:  Direct Drillr 1 
 DD2 .                   Sanan:  Direct Drillr 2 
 DEFF.%                   0.00:  % Det Eff 
 DRET.      04.26.40 27-Dec-19:  Drill End Time 
 DRST.      04.26.40 27-Dec-19:  Drill Start Tim 
 DTIM.hr                 80.10:  Time Drilling 
 EDEP.m                   0.00:  End Depth 
 ENG1.            Adlet Omarov:  Engineer 1 
 ENG2.         Almaz Almadatov:  Engineer 2 
 ETIM.      04.26.40 27-Dec-19:  End Time 
 HFLO.                      No:  High Flow 
 HPRE.                      No:  High Pressure 
 HTEM.                      No:  High Temp 
 HYDO.m                   1.85:  Hydro Offset 
 IMAX.deg                72.09:  Inc Max 
 IMIN.deg                59.07:  Inc Min 
 IMND.m                3901.43:  Inc Min Depth 
 IMXD.m                4753.85:  Inc Max Depth 
 LETM.      04.26.40 27-Dec-19:  Log End Time 
 LSTM.      04.26.40 27-Dec-19:  Log Start Time 
 OTIM.hr                187.88:  Time Operating 
 PMAX.psia            10202.94:  Press Op, Max 
 RUN .                     300:  Run Number 
 RRUN.                    0300:  Rig Run Number 
 SDEP.m                   0.00:  Start Depth 
 STIM.      04.26.40 27-Dec-19:  Start Time 
 SVER.                    9.20:  Sperry Version 
 MRT .                    HCIM:  Maximum Recorded Temperature 
 TTMX.degC               96.08:  Max Tool Temp 
~Curve Information Block
#MNEM.UNIT                 API CODE     Curve Description
#---------               -----------    ---------------------------
 TIME.HHMMSS            00 000 000 000:  GT Time & Date
 GTDEPTH.m              00 000 000 000:  GT Depth
 GTPQH.psia             00 000 000 000:  GT HR Quartz Pressure
 GTTQ.degC              00 000 000 000:  GT Quartz Temperature
 GTTN.NONE              00 000 000 000:  GT Test Number
 GTET.sec               00 000 000 000:  GT Elapsed Test Time
 GTTVD.m                00 000 000 000:  GT True Vertical Depth
#Other Information
#
#WARRANTY: Halliburton will use its best efforts to furnish customers with 
#accurate information and interpretations that are part of, and incident to, the services 
#provided.  However, Halliburton cannot and does not warrant the accuracy 
#or correctness of such information and interpretations.  Under no circumstances should any 
#such information or interpretation be relied upon as the sole basis for any drilling, 
#completion, production, or financial decision or any procedure involving any risk to the 
#safety of any drilling venture, drilling rig or its crew or any other third party.  The 
#Customer has full responsibility for all drilling, completion and production operation.  
#Halliburton makes no representations or warranties, either expressed or 
#implied, including, but not limited to, the implied warranties of merchantability or fitness 
#for a particular purpose, with respect to the services rendered.  In no event will 
#Halliburton be liable for failure to obtain any particular results or for 
#any damages, including, but not limited to, indirect, special or consequential damages, 
#resulting from the use of any information or interpretation provided by Halliburton.
#
~A           TIME           GTDEPTH  GTPQH  GTTQ  GTTN  GTET   GTTVD  
# ...
   13:05:15.113.02-Jan-2020 4774.33 4297.12 83.91 3.00 253.01 2772.29
   13:05:15.313.02-Jan-2020 4774.33 4297.12 83.91 3.00 253.21 2772.29
   13:05:15.513.02-Jan-2020 4774.33 4305.01 83.91 3.00 253.41 2772.29
   13:05:15.713.02-Jan-2020 4774.33 4308.56 83.91 3.00 253.61 2772.29
   13:05:15.913.02-Jan-2020 4774.33 4311.64 83.91 3.00 253.81 2772.29
   13:05:16.113.02-Jan-2020 4774.33 4313.21 83.91 3.00 254.01 2772.29
   13:05:16.313.02-Jan-2020 4774.33 4313.21 83.91 3.00 254.21 2772.29
   13:05:16.513.02-Jan-2020 4774.33 4322.26 83.91 3.00 254.41 2772.29
   13:05:16.713.02-Jan-2020 4774.33 4323.48 83.91 3.00 254.61 2772.29
   13:05:16.913.02-Jan-2020 4774.33 4329.29 83.91 3.00 254.81 2772.29
   13:05:17.113.02-Jan-2020 4774.33 4332.75 83.91 3.00 255.01 2772.29
   13:05:17.313.02-Jan-2020 4774.33 4332.75 83.91 3.00 255.21 2772.29
   13:05:17.513.02-Jan-2020 4774.33 4337.73 83.91 3.00 255.41 2772.29
   13:05:17.713.02-Jan-2020 4774.33 4343.08 83.91 3.00 255.61 2772.29
   13:05:17.913.02-Jan-2020 4774.33 4346.69 83.91 3.00 255.81 2772.29
   13:05:18.113.02-Jan-2020 4774.33 4350.27 83.91 3.00 256.01 2772.29
   13:05:18.313.02-Jan-2020 4774.33 4350.27 83.91 3.00 256.21 2772.29
   13:05:18.513.02-Jan-2020 4774.33 4356.54 83.91 3.00 256.41 2772.29
   13:05:18.713.02-Jan-2020 4774.33 4359.84 83.90 3.00 256.61 2772.29
   13:05:18.913.02-Jan-2020 4774.33 4363.29 83.90 3.00 256.81 2772.29
   13:05:19.113.02-Jan-2020 4774.33 4363.98 83.90 3.00 257.01 2772.29
   13:05:19.313.02-Jan-2020 4774.33 4363.98 83.90 3.00 257.21 2772.29
   13:05:19.513.02-Jan-2020 4774.33 4372.36 83.90 3.00 257.41 2772.29
   13:05:19.713.02-Jan-2020 4774.33 4373.95 83.90 3.00 257.61 2772.29
   13:05:19.913.02-Jan-2020 4774.33 4378.28 83.90 3.00 257.81 2772.29
   13:05:20.113.02-Jan-2020 4774.33 4382.22 83.90 3.00 258.01 2772.29
   13:05:20.313.02-Jan-2020 4774.33 4382.22 83.90 3.00 258.21 2772.29
   13:05:20.513.02-Jan-2020 4774.33 4388.86 83.90 3.00 258.41 2772.29
   13:05:20.713.02-Jan-2020 4774.33 4392.05 83.90 3.00 258.61 2772.29
   13:05:20.913.02-Jan-2020 4774.33 4394.75 83.90 3.00 258.81 2772.29
   13:05:21.113.02-Jan-2020 4774.33 4397.68 83.90 3.00 259.01 2772.29
   13:05:21.313.02-Jan-2020 4774.33 4397.68 83.90 3.00 259.21 2772.29
   13:05:21.513.02-Jan-2020 4774.33 4401.27 83.90 3.00 259.41 2772.29
   13:05:21.713.02-Jan-2020 4774.33 4406.60 83.90 3.00 259.61 2772.29
   13:05:21.913.02-Jan-2020 4774.33 4409.77 83.90 3.00 259.81 2772.29
   13:05:22.113.02-Jan-2020 4774.33 4410.60 83.90 3.00 260.01 2772.29
   13:05:22.313.02-Jan-2020 4774.33 4410.60 83.90 3.00 260.21 2772.29
   13:05:22.513.02-Jan-2020 4774.33 4418.87 83.90 3.00 260.41 2772.29
   13:05:22.713.02-Jan-2020 4774.33 4422.11 83.90 3.00 260.61 2772.29
   13:05:22.913.02-Jan-2020 4774.33 4425.10 83.90 3.00 260.81 2772.29
   13:05:23.113.02-Jan-2020 4774.33 4427.99 83.90 3.00 261.01 2772.29
   13:05:23.313.02-Jan-2020 4774.33 4427.99 83.90 3.00 261.21 2772.29
   13:05:23.513.02-Jan-2020 4774.33 4431.02 83.90 3.00 261.41 2772.29
   13:05:23.713.02-Jan-2020 4774.33 4436.00 83.90 3.00 261.61 2772.29
   13:05:23.913.02-Jan-2020 4774.33 4438.94 83.90 3.00 261.81 2772.29
   13:05:24.113.02-Jan-2020 4774.33 4442.13 83.90 3.00 262.01 2772.29
   13:05:24.313.02-Jan-2020 4774.33 4442.13 83.90 3.00 262.21 2772.29
   13:05:24.513.02-Jan-2020 4774.33 4448.23 83.90 3.00 262.41 2772.29
   13:05:24.713.02-Jan-2020 4774.33 4451.21 83.90 3.00 262.61 2772.29
   13:05:24.913.02-Jan-2020 4774.33 4454.35 83.90 3.00 262.81 2772.29
   13:05:25.113.02-Jan-2020 4774.33 4454.57 83.90 3.00 263.01 2772.29
   13:05:25.313.02-Jan-2020 4774.33 4454.57 83.90 3.00 263.21 2772.29
   13:05:25.513.02-Jan-2020 4774.33 4462.54 83.90 3.00 263.41 2772.29
   13:05:25.714.02-Jan-2020 4774.33 4465.67 83.90 3.00 263.61 2772.29
   13:05:25.914.02-Jan-2020 4774.33 4468.48 83.90 3.00 263.81 2772.29
   13:05:26.114.02-Jan-2020 4774.33 4469.53 83.90 3.00 264.01 2772.29
   13:05:26.314.02-Jan-2020 4774.33 4469.53 83.90 3.00 264.21 2772.29
   13:05:26.514.02-Jan-2020 4774.33 4476.68 83.90 3.00 264.41 2772.29
   13:05:26.714.02-Jan-2020 4774.33 4479.57 83.90 3.00 264.61 2772.29
   13:05:26.914.02-Jan-2020 4774.33 4479.92 83.90 3.00 264.81 2772.29
   13:05:27.114.02-Jan-2020 4774.33 4485.07 83.90 3.00 265.01 2772.29
   13:05:27.314.02-Jan-2020 4774.33 4485.07 83.90 3.00 265.21 2772.29
   13:05:27.514.02-Jan-2020 4774.33 4490.99 83.90 3.00 265.41 2772.29
   13:05:27.714.02-Jan-2020 4774.33 4493.81 83.90 3.00 265.61 2772.29
   13:05:27.914.02-Jan-2020 4774.33 4496.15 83.90 3.00 265.81 2772.29
   13:05:28.114.02-Jan-2020 4774.33 4498.67 83.90 3.00 266.01 2772.29
   13:05:28.314.02-Jan-2020 4774.33 4498.67 83.90 3.00 266.21 2772.29
   13:05:28.514.02-Jan-2020 4774.33 4501.75 83.90 3.00 266.41 2772.29
   13:05:28.714.02-Jan-2020 4774.33 4505.38 83.90 3.00 266.61 2772.29
   13:05:28.914.02-Jan-2020 4774.33 4508.61 83.90 3.00 266.81 2772.29
   13:05:29.114.02-Jan-2020 4774.33 4511.37 83.90 3.00 267.01 2772.29
   13:05:29.314.02-Jan-2020 4774.33 4511.37 83.90 3.00 267.21 2772.29
   13:05:29.514.02-Jan-2020 4774.33 4516.03 83.90 3.00 267.41 2772.29
   13:05:29.714.02-Jan-2020 4774.33 4516.67 83.90 3.00 267.61 2772.29
   13:05:29.914.02-Jan-2020 4774.33 4521.19 83.90 3.00 267.81 2772.29
   13:05:30.114.02-Jan-2020 4774.33 4523.70 83.90 3.00 268.01 2772.29
   13:05:30.314.02-Jan-2020 4774.33 4523.70 83.90 3.00 268.21 2772.29
   13:05:30.514.02-Jan-2020 4774.33 4528.75 83.90 3.00 268.41 2772.29
   13:05:30.714.02-Jan-2020 4774.33 4531.20 83.90 3.00 268.61 2772.29
   13:05:30.914.02-Jan-2020 4774.33 4531.77 83.90 3.00 268.81 2772.29
   13:05:31.114.02-Jan-2020 4774.33 4535.13 83.90 3.00 269.01 2772.29
   13:05:31.314.02-Jan-2020 4774.33 4535.13 83.90 3.00 269.21 2772.29
   13:05:31.514.02-Jan-2020 4774.33 4540.82 83.90 3.00 269.41 2772.29
   13:05:31.714.02-Jan-2020 4774.33 4542.63 83.90 3.00 269.61 2772.29
   13:05:31.914.02-Jan-2020 4774.33 4543.75 83.90 3.00 269.81 2772.29
   13:05:32.114.02-Jan-2020 4774.33 4548.85 83.90 3.00 270.01 2772.29
   13:05:32.314.02-Jan-2020 4774.33 4548.85 83.90 3.00 270.21 2772.29
   13:05:32.514.02-Jan-2020 4774.33 4553.89 83.90 3.00 270.41 2772.29
   13:05:32.714.02-Jan-2020 4774.33 4553.69 83.90 3.00 270.61 2772.29
   13:05:32.914.02-Jan-2020 4774.33 4558.33 83.90 3.00 270.81 2772.29
   13:05:33.114.02-Jan-2020 4774.33 4561.03 83.90 3.00 271.01 2772.29
   13:05:33.314.02-Jan-2020 4774.33 4561.03 83.90 3.00 271.21 2772.29
   13:05:33.514.02-Jan-2020 4774.33 4566.26 83.90 3.00 271.41 2772.29
   13:05:33.714.02-Jan-2020 4774.33 4568.92 83.90 3.00 271.61 2772.29
   13:05:33.914.02-Jan-2020 4774.33 4568.72 83.90 3.00 271.81 2772.29
   13:05:34.114.02-Jan-2020 4774.33 4573.52 83.90 3.00 272.01 2772.29
   13:05:34.314.02-Jan-2020 4774.33 4573.52 83.90 3.00 272.21 2772.29
   13:05:34.514.02-Jan-2020 4774.33 4578.62 83.90 3.00 272.41 2772.29
   13:05:34.714.02-Jan-2020 4774.33 4578.80 83.90 3.00 272.61 2772.29
   13:05:34.914.02-Jan-2020 4774.33 4583.63 83.90 3.00 272.81 2772.29
   13:05:35.114.02-Jan-2020 4774.33 4586.19 83.90 3.00 273.01 2772.29
   13:05:35.314.02-Jan-2020 4774.33 4586.19 83.90 3.00 273.21 2772.29
   13:05:35.514.02-Jan-2020 4774.33 4591.08 83.90 3.00 273.41 2772.29
   13:05:35.714.02-Jan-2020 4774.33 4593.43 83.90 3.00 273.61 2772.29
   13:05:35.914.02-Jan-2020 4774.33 4595.58 83.90 3.00 273.81 2772.29
   13:05:36.114.02-Jan-2020 4774.33 4597.76 83.90 3.00 274.01 2772.29
   13:05:36.314.02-Jan-2020 4774.33 4597.76 83.90 3.00 274.21 2772.29
   13:05:36.514.02-Jan-2020 4774.33 4601.72 83.90 3.00 274.41 2772.29
   13:05:36.714.02-Jan-2020 4774.33 4605.54 83.90 3.00 274.61 2772.29
   13:05:36.914.02-Jan-2020 4774.33 4608.51 83.90 3.00 274.81 2772.29
   13:05:37.114.02-Jan-2020 4774.33 4611.12 83.90 3.00 275.01 2772.29
   13:05:37.314.02-Jan-2020 4774.33 4611.12 83.90 3.00 275.21 2772.29
   13:05:37.514.02-Jan-2020 4774.33 4613.97 83.90 3.00 275.41 2772.29
   13:05:37.714.02-Jan-2020 4774.33 4618.89 83.90 3.00 275.61 2772.29
   13:05:37.914.02-Jan-2020 4774.33 4621.53 83.90 3.00 275.81 2772.29
