~Version Information
 VERS.                  2.0:   CWLS log ASCII Standard -VERSION 2.0
 WRAP.                   NO:   One line per depth step
~Well Information Block
#MNEM.UNIT     VALUE/NAME     DESCRIPTION
#---------     -----------    ---------------------------
 STRT.S             11:06:01 02-Jan-20: START TIME 11:06:01 02-Jan-20
 STOP.S             11:13:00 02-Jan-20: STOP TIME  11:13:00 02-Jan-20
 STEP.S                   0.00: STEP TIME
 NULL.                 -999.25: NULL VALUE
 MDS .        Operator Entered:  MAG DATA SOURCE
 UNIT.                     N/a:  LOGGING EQUIPMENT ID
 DCON.         Sperry Drilling:  DIRECTNL CONTR
 CNTY.                    Baku:  COUNTY NAME
 DOE .                     N/a:  DOE NUMBER
 RIG .                     DWG:  RIG NAME
 MWDS.                    Baku:  MWD SHOP
 REGN.                   EESSA:  REGION
 BASE.              Azerbaijan:  LOGGING EQUIPMENT BASE LOCATION
 UWI .                     N/a:  UNIQUE WELL IDENTIFIER
 API .                     N/a:  API NUMBER
 WTYP.                Deviated:  WELL TYPE
 COMP.     BP Exploration (Caspian Sea) Ltd.:  COMPANY
 SRVC.          TURAN DRILLING:  CONTRACTOR
 WELL.           E04 (Slot 23):  WELL NAME
 CTRY.              Azerbaijan:  COUNTRY NAME
 SON .        AZ-XX-0905715376:  JOB NUMBER
 FLD .                     ACG:  FIELD NAME
 PDAT.          Mean Sea Level:  PERMANENT DATUM
 FTOP.          Formation Tops:  FORM TOPS DESC
 ILTD.               Lithology:  INTERP LTH DESC
 SVYD.                  Survey:  SURVEY DESC
 DMOD.             Drill Model:  DRILL MOD DESC
 HPTY.       Minimum Curvature:  HOLE POS TYPE
 NREF.                    Grid:  NORTH REFERENCE
 SPUD.               21-Dec-19:  SPUD DATE
 DATE.      17.57.20 21-Dec-19:  END TIME
 STIM.      17.57.20 21-Dec-19:  START TIME
 DMF .             Drill Floor:  DRILL MEAS FROM
 DFST.                        :  DIST FSL TEXT
 DFWT.                        :  DIST FWL TEXT
 PROV.                        :  PROVINCE
 STAT.                        :  STATE
 LOC .                        :  LOCATION
 LMF .             Drill Floor:  LOG MEASURED FROM
 AGAP.m                  43.16:  AIR GAP
 DEP .m                3172.61:  DEPTH
 APD .m                  43.16:  DEPTH ABOVE PD
 WDMS.m                 176.20:  WD ELEV
 EGL .m                   0.00:  GROUND ELEVATION
 EPD .m                   0.00:  ELEVATION
 AZTC.deg                 6.49:  AZM TOTAL CORR
 GRDC.deg                 0.09:  GRID CORRECTION
 MDEC.deg                 6.58:  MAGNETIC DECL
 MDIP.deg                59.61:  MAGNETIC DIP
 MFLD.nT              50294.00:  MAGNETIC FIELD
 GVFD.g                   1.00:  GRAVITY FIELD
 VSDR.deg               235.12:  VERT SEC DIRECT
 TDD .m                   0.00:  TOTAL DEPTH (DRILLER)
 SDEP.m                   0.00:  START DEPTH
 UTMY.m             4448627.46:  UTM Y
 UTMX.m              514337.95:  UTM X
 LONG.deg                51.17:  LONGITUDE
 LATI.deg                40.17:  LATITUDE
 TVDS.m                  43.16:  TVDSS CORRECTN
 WHEW.m                  -5.41:  WELL HEAD E/W
 WHNS.m                  -0.12:  WELL HEAD N/S
 VSEW.m                  -5.41:  VERT SEC E/W
 VSNS.m                  -0.12:  VERT SEC N/S
 EKB .m                  43.16:  KB ELEVATION
 EDF .m                  43.16:  DF ELEVATION
 MAGU.                 1852276:  MAGUTM CHECKSUM
 VSC .                       0:  VS TO CLOSURE
~Parameter Information Block
#MNEM.UNIT       Value        Description
#---------     -----------    ---------------------------
 TCS .hr                125.29:  Time Ciculation Ended 
 DD1 .      Fakhraddin Guliyev:  Direct Drillr 1 
 DD2 .                   Sanan:  Direct Drillr 2 
 DEFF.%                   0.00:  % Det Eff 
 DRET.      04.26.40 27-Dec-19:  Drill End Time 
 DRST.      04.26.40 27-Dec-19:  Drill Start Tim 
 DTIM.hr                 80.10:  Time Drilling 
 EDEP.m                   0.00:  End Depth 
 ENG1.            Adlet Omarov:  Engineer 1 
 ENG2.         Almaz Almadatov:  Engineer 2 
 ETIM.      04.26.40 27-Dec-19:  End Time 
 HFLO.                      No:  High Flow 
 HPRE.                      No:  High Pressure 
 HTEM.                      No:  High Temp 
 HYDO.m                   1.85:  Hydro Offset 
 IMAX.deg                72.09:  Inc Max 
 IMIN.deg                59.07:  Inc Min 
 IMND.m                3901.43:  Inc Min Depth 
 IMXD.m                4753.85:  Inc Max Depth 
 LETM.      04.26.40 27-Dec-19:  Log End Time 
 LSTM.      04.26.40 27-Dec-19:  Log Start Time 
 OTIM.hr                187.88:  Time Operating 
 PMAX.psia            10202.94:  Press Op, Max 
 RUN .                     300:  Run Number 
 RRUN.                    0300:  Rig Run Number 
 SDEP.m                   0.00:  Start Depth 
 STIM.      04.26.40 27-Dec-19:  Start Time 
 SVER.                    9.20:  Sperry Version 
 MRT .                    HCIM:  Maximum Recorded Temperature 
 TTMX.degC               96.08:  Max Tool Temp 
~Curve Information Block
#MNEM.UNIT                 API CODE     Curve Description
#---------               -----------    ---------------------------
 TIME.HHMMSS            00 000 000 000:  GT Time & Date
 GTDEPTH.m              00 000 000 000:  GT Depth
 GTPQH.psia             00 000 000 000:  GT HR Quartz Pressure
 GTTQ.degC              00 000 000 000:  GT Quartz Temperature
 GTTN.NONE              00 000 000 000:  GT Test Number
 GTET.sec               00 000 000 000:  GT Elapsed Test Time
 GTTVD.m                00 000 000 000:  GT True Vertical Depth
#Other Information
#
#WARRANTY: Halliburton will use its best efforts to furnish customers with 
#accurate information and interpretations that are part of, and incident to, the services 
#provided.  However, Halliburton cannot and does not warrant the accuracy 
#or correctness of such information and interpretations.  Under no circumstances should any 
#such information or interpretation be relied upon as the sole basis for any drilling, 
#completion, production, or financial decision or any procedure involving any risk to the 
#safety of any drilling venture, drilling rig or its crew or any other third party.  The 
#Customer has full responsibility for all drilling, completion and production operation.  
#Halliburton makes no representations or warranties, either expressed or 
#implied, including, but not limited to, the implied warranties of merchantability or fitness 
#for a particular purpose, with respect to the services rendered.  In no event will 
#Halliburton be liable for failure to obtain any particular results or for 
#any damages, including, but not limited to, indirect, special or consequential damages, 
#resulting from the use of any information or interpretation provided by Halliburton.
#
~A           TIME           GTDEPTH  GTPQH  GTTQ  GTTN  GTET   GTTVD  
# ...
   11:06:24.133.02-Jan-2020 4790.04 6095.41 85.22 2.00  23.01 2777.18
   11:06:24.333.02-Jan-2020 4790.04 6095.41 85.22 2.00  23.21 2777.18
   11:06:24.533.02-Jan-2020 4790.04 6104.38 85.22 2.00  23.41 2777.18
   11:06:24.733.02-Jan-2020 4790.04 6101.04 85.22 2.00  23.61 2777.18
   11:06:24.933.02-Jan-2020 4790.04 6098.09 85.22 2.00  23.81 2777.18
   11:06:25.133.02-Jan-2020 4790.04 6097.38 85.22 2.00  24.01 2777.18
   11:06:25.333.02-Jan-2020 4790.04 6097.38 85.22 2.00  24.21 2777.18
   11:06:25.534.02-Jan-2020 4790.04 6097.99 85.22 2.00  24.41 2777.18
   11:06:25.734.02-Jan-2020 4790.04 6096.57 85.22 2.00  24.61 2777.18
   11:06:25.934.02-Jan-2020 4790.04 6097.48 85.22 2.00  24.81 2777.18
   11:06:26.134.02-Jan-2020 4790.04 6105.55 85.22 2.00  25.01 2777.18
   11:06:26.334.02-Jan-2020 4790.04 6105.55 85.22 2.00  25.21 2777.18
   11:06:26.534.02-Jan-2020 4790.04 6098.76 85.22 2.00  25.41 2777.18
   11:06:26.734.02-Jan-2020 4790.04 6100.38 85.22 2.00  25.61 2777.18
   11:06:26.934.02-Jan-2020 4790.04 6104.63 85.22 2.00  25.81 2777.18
   11:06:27.134.02-Jan-2020 4790.04 6100.20 85.22 2.00  26.01 2777.18
   11:06:27.334.02-Jan-2020 4790.04 6100.20 85.22 2.00  26.21 2777.18
   11:06:27.534.02-Jan-2020 4790.04 6100.33 85.22 2.00  26.41 2777.18
   11:06:27.734.02-Jan-2020 4790.04 6099.05 85.22 2.00  26.61 2777.18
   11:06:27.934.02-Jan-2020 4790.04 6098.09 85.22 2.00  26.81 2777.18
   11:06:28.134.02-Jan-2020 4790.04 6098.53 85.22 2.00  27.01 2777.18
   11:06:28.334.02-Jan-2020 4790.04 6098.53 85.22 2.00  27.21 2777.18
   11:06:28.534.02-Jan-2020 4790.04 6108.25 85.22 2.00  27.41 2777.18
   11:06:28.734.02-Jan-2020 4790.04 6101.32 85.22 2.00  27.61 2777.18
   11:06:28.934.02-Jan-2020 4790.04 6100.31 85.22 2.00  27.81 2777.18
   11:06:29.134.02-Jan-2020 4790.04 6100.34 85.22 2.00  28.01 2777.18
   11:06:29.334.02-Jan-2020 4790.04 6100.34 85.22 2.00  28.21 2777.18
   11:06:29.534.02-Jan-2020 4790.04 6100.15 85.22 2.00  28.41 2777.18
   11:06:29.735.02-Jan-2020 4790.04 6108.27 85.22 2.00  28.61 2777.18
   11:06:29.935.02-Jan-2020 4790.04 6105.08 85.21 2.00  28.81 2777.18
   11:06:30.135.02-Jan-2020 4790.04 6101.88 85.21 2.00  29.01 2777.18
   11:06:30.335.02-Jan-2020 4790.04 6101.88 85.21 2.00  29.21 2777.18
   11:06:30.535.02-Jan-2020 4790.04 6102.40 85.21 2.00  29.41 2777.18
   11:06:30.735.02-Jan-2020 4790.04 6102.55 85.21 2.00  29.61 2777.18
   11:06:30.935.02-Jan-2020 4790.04 6110.25 85.21 2.00  29.81 2777.18
   11:06:31.135.02-Jan-2020 4790.04 6108.22 85.21 2.00  30.01 2777.18
   11:06:31.335.02-Jan-2020 4790.04 6108.22 85.21 2.00  30.21 2777.18
   11:06:31.535.02-Jan-2020 4790.04 6102.83 85.21 2.00  30.41 2777.18
   11:06:31.735.02-Jan-2020 4790.04 6101.19 85.21 2.00  30.61 2777.18
   11:06:31.935.02-Jan-2020 4790.04 6100.80 85.21 2.00  30.81 2777.18
   11:06:32.135.02-Jan-2020 4790.04 6101.12 85.21 2.00  31.01 2777.18
   11:06:32.335.02-Jan-2020 4790.04 6101.12 85.21 2.00  31.21 2777.18
   11:06:32.535.02-Jan-2020 4790.04 6107.66 85.21 2.00  31.41 2777.18
   11:06:32.735.02-Jan-2020 4790.04 6104.20 85.21 2.00  31.61 2777.18
   11:06:32.935.02-Jan-2020 4790.04 6105.40 85.21 2.00  31.81 2777.18
   11:06:33.135.02-Jan-2020 4790.04 6109.33 85.21 2.00  32.01 2777.18
   11:06:33.335.02-Jan-2020 4790.04 6109.33 85.21 2.00  32.21 2777.18
   11:06:33.535.02-Jan-2020 4790.04 6102.84 85.21 2.00  32.41 2777.18
   11:06:33.735.02-Jan-2020 4790.04 6104.29 85.21 2.00  32.61 2777.18
   11:06:33.935.02-Jan-2020 4790.04 6103.37 85.21 2.00  32.81 2777.18
   11:06:34.136.02-Jan-2020 4790.04 6110.49 85.21 2.00  33.01 2777.18
   11:06:34.336.02-Jan-2020 4790.04 6110.49 85.21 2.00  33.21 2777.18
   11:06:34.536.02-Jan-2020 4790.04 6104.72 85.21 2.00  33.41 2777.18
   11:06:34.736.02-Jan-2020 4790.04 6105.44 85.21 2.00  33.61 2777.18
   11:06:34.936.02-Jan-2020 4790.04 6110.96 85.21 2.00  33.81 2777.18
   11:06:35.136.02-Jan-2020 4790.04 6107.63 85.21 2.00  34.01 2777.18
   11:06:35.336.02-Jan-2020 4790.04 6107.63 85.21 2.00  34.21 2777.18
   11:06:35.536.02-Jan-2020 4790.04 6104.66 85.21 2.00  34.41 2777.18
   11:06:35.736.02-Jan-2020 4790.04 6103.03 85.21 2.00  34.61 2777.18
   11:06:35.936.02-Jan-2020 4790.04 6102.37 85.21 2.00  34.81 2777.18
   11:06:36.136.02-Jan-2020 4790.04 6102.71 85.21 2.00  35.01 2777.18
   11:06:36.336.02-Jan-2020 4790.04 6102.71 85.21 2.00  35.21 2777.18
   11:06:36.536.02-Jan-2020 4790.04 6102.87 85.21 2.00  35.41 2777.18
   11:06:36.736.02-Jan-2020 4790.04 6101.32 85.21 2.00  35.61 2777.18
   11:06:36.936.02-Jan-2020 4790.04 6102.15 85.21 2.00  35.81 2777.18
   11:06:37.136.02-Jan-2020 4790.04 6110.22 85.21 2.00  36.01 2777.18
   11:06:37.336.02-Jan-2020 4790.04 6110.22 85.21 2.00  36.21 2777.18
   11:06:37.536.02-Jan-2020 4790.04 6100.27 85.21 2.00  36.41 2777.18
   11:06:37.736.02-Jan-2020 4790.04 6094.89 85.21 2.00  36.61 2777.18
   11:06:37.936.02-Jan-2020 4790.04 6084.48 85.21 2.00  36.81 2777.18
   11:06:38.136.02-Jan-2020 4790.04 6060.91 85.21 2.00  37.01 2777.18
   11:06:38.337.02-Jan-2020 4790.04 6060.91 85.21 2.00  37.21 2777.18
   11:06:38.537.02-Jan-2020 4790.04 5971.99 85.21 2.00  37.41 2777.18
   11:06:38.737.02-Jan-2020 4790.04 5931.35 85.21 2.00  37.61 2777.18
   11:06:38.937.02-Jan-2020 4790.04 5874.16 85.21 2.00  37.81 2777.18
   11:06:39.137.02-Jan-2020 4790.04 5832.74 85.21 2.00  38.01 2777.18
   11:06:39.337.02-Jan-2020 4790.04 5832.74 85.21 2.00  38.21 2777.18
   11:06:39.537.02-Jan-2020 4790.04 5712.78 85.21 2.00  38.41 2777.18
   11:06:39.737.02-Jan-2020 4790.04 5650.70 85.21 2.00  38.61 2777.18
   11:06:39.937.02-Jan-2020 4790.04 5594.86 85.21 2.00  38.81 2777.18
   11:06:40.137.02-Jan-2020 4790.04 5541.74 85.21 2.00  39.01 2777.18
   11:06:40.337.02-Jan-2020 4790.04 5541.74 85.21 2.00  39.21 2777.18
   11:06:40.537.02-Jan-2020 4790.04 5448.13 85.20 2.00  39.41 2777.18
   11:06:40.737.02-Jan-2020 4790.04 5407.44 85.20 2.00  39.61 2777.18
   11:06:40.937.02-Jan-2020 4790.04 5375.74 85.20 2.00  39.81 2777.18
   11:06:41.137.02-Jan-2020 4790.04 5358.47 85.20 2.00  40.01 2777.18
   11:06:41.337.02-Jan-2020 4790.04 5358.47 85.20 2.00  40.21 2777.18
   11:06:41.537.02-Jan-2020 4790.04 5360.26 85.20 2.00  40.41 2777.18
   11:06:41.737.02-Jan-2020 4790.04 5364.00 85.20 2.00  40.61 2777.18
   11:06:41.937.02-Jan-2020 4790.04 5367.46 85.20 2.00  40.81 2777.18
   11:06:42.137.02-Jan-2020 4790.04 5363.97 85.20 2.00  41.01 2777.18
   11:06:42.337.02-Jan-2020 4790.04 5363.97 85.20 2.00  41.21 2777.18
   11:06:42.538.02-Jan-2020 4790.04 4507.37 85.20 2.00  41.41 2777.18
   11:06:42.738.02-Jan-2020 4790.04 3482.96 85.20 2.00  41.61 2777.18
   11:06:42.938.02-Jan-2020 4790.04 2761.47 85.20 2.00  41.81 2777.18
   11:06:43.138.02-Jan-2020 4790.04 3347.18 85.20 2.00  42.01 2777.18
   11:06:43.338.02-Jan-2020 4790.04 3347.18 85.20 2.00  42.21 2777.18
   11:06:43.538.02-Jan-2020 4790.04 3698.09 85.19 2.00  42.41 2777.18
   11:06:43.738.02-Jan-2020 4790.04 3104.64 85.19 2.00  42.61 2777.18
   11:06:43.938.02-Jan-2020 4790.04 3072.01 85.19 2.00  42.81 2777.18
   11:06:44.138.02-Jan-2020 4790.04 3091.03 85.19 2.00  43.01 2777.18
   11:06:44.338.02-Jan-2020 4790.04 3091.03 85.19 2.00  43.21 2777.18
   11:06:44.538.02-Jan-2020 4790.04 3231.89 85.18 2.00  43.41 2777.18
   11:06:44.738.02-Jan-2020 4790.04 3329.01 85.18 2.00  43.61 2777.18
   11:06:44.938.02-Jan-2020 4790.04 3307.22 85.18 2.00  43.81 2777.18
   11:06:45.138.02-Jan-2020 4790.04 3215.76 85.18 2.00  44.01 2777.18
   11:06:45.338.02-Jan-2020 4790.04 3215.76 85.18 2.00  44.21 2777.18
   11:06:45.538.02-Jan-2020 4790.04 3039.85 85.17 2.00  44.41 2777.18
   11:06:45.738.02-Jan-2020 4790.04 2918.67 85.17 2.00  44.61 2777.18
   11:06:45.938.02-Jan-2020 4790.04 2983.40 85.17 2.00  44.81 2777.18
   11:06:46.138.02-Jan-2020 4790.04 2922.63 85.17 2.00  45.01 2777.18
   11:06:46.338.02-Jan-2020 4790.04 2922.63 85.17 2.00  45.21 2777.18
   11:06:46.538.02-Jan-2020 4790.04 2908.05 85.16 2.00  45.41 2777.18
   11:06:46.739.02-Jan-2020 4790.04 3186.82 85.16 2.00  45.61 2777.18
   11:06:46.939.02-Jan-2020 4790.04 3233.00 85.16 2.00  45.81 2777.18
