~Version Information
 VERS.                  2.0:   CWLS log ASCII Standard -VERSION 2.0
 WRAP.                   NO:   One line per depth step
~Well Information Block
#MNEM.UNIT     VALUE/NAME     DESCRIPTION
#---------     -----------    ---------------------------
 STRT.S             13:48:18 02-Jan-20: START TIME 13:48:18 02-Jan-20
 STOP.S             13:56:34 02-Jan-20: STOP TIME  13:56:34 02-Jan-20
 STEP.S                   0.00: STEP TIME
 NULL.                 -999.25: NULL VALUE
 MDS .        Operator Entered:  MAG DATA SOURCE
 UNIT.                     N/a:  LOGGING EQUIPMENT ID
 DCON.         Sperry Drilling:  DIRECTNL CONTR
 CNTY.                    Baku:  COUNTY NAME
 DOE .                     N/a:  DOE NUMBER
 RIG .                     DWG:  RIG NAME
 MWDS.                    Baku:  MWD SHOP
 REGN.                   EESSA:  REGION
 BASE.              Azerbaijan:  LOGGING EQUIPMENT BASE LOCATION
 UWI .                     N/a:  UNIQUE WELL IDENTIFIER
 API .                     N/a:  API NUMBER
 WTYP.                Deviated:  WELL TYPE
 COMP.     BP Exploration (Caspian Sea) Ltd.:  COMPANY
 SRVC.          TURAN DRILLING:  CONTRACTOR
 WELL.           E04 (Slot 23):  WELL NAME
 CTRY.              Azerbaijan:  COUNTRY NAME
 SON .        AZ-XX-0905715376:  JOB NUMBER
 FLD .                     ACG:  FIELD NAME
 PDAT.          Mean Sea Level:  PERMANENT DATUM
 FTOP.          Formation Tops:  FORM TOPS DESC
 ILTD.               Lithology:  INTERP LTH DESC
 SVYD.                  Survey:  SURVEY DESC
 DMOD.             Drill Model:  DRILL MOD DESC
 HPTY.       Minimum Curvature:  HOLE POS TYPE
 NREF.                    Grid:  NORTH REFERENCE
 SPUD.               21-Dec-19:  SPUD DATE
 DATE.      17.57.20 21-Dec-19:  END TIME
 STIM.      17.57.20 21-Dec-19:  START TIME
 DMF .             Drill Floor:  DRILL MEAS FROM
 DFST.                        :  DIST FSL TEXT
 DFWT.                        :  DIST FWL TEXT
 PROV.                        :  PROVINCE
 STAT.                        :  STATE
 LOC .                        :  LOCATION
 LMF .             Drill Floor:  LOG MEASURED FROM
 AGAP.m                  43.16:  AIR GAP
 DEP .m                3172.61:  DEPTH
 APD .m                  43.16:  DEPTH ABOVE PD
 WDMS.m                 176.20:  WD ELEV
 EGL .m                   0.00:  GROUND ELEVATION
 EPD .m                   0.00:  ELEVATION
 AZTC.deg                 6.49:  AZM TOTAL CORR
 GRDC.deg                 0.09:  GRID CORRECTION
 MDEC.deg                 6.58:  MAGNETIC DECL
 MDIP.deg                59.61:  MAGNETIC DIP
 MFLD.nT              50294.00:  MAGNETIC FIELD
 GVFD.g                   1.00:  GRAVITY FIELD
 VSDR.deg               235.12:  VERT SEC DIRECT
 TDD .m                   0.00:  TOTAL DEPTH (DRILLER)
 SDEP.m                   0.00:  START DEPTH
 UTMY.m             4448627.46:  UTM Y
 UTMX.m              514337.95:  UTM X
 LONG.deg                51.17:  LONGITUDE
 LATI.deg                40.17:  LATITUDE
 TVDS.m                  43.16:  TVDSS CORRECTN
 WHEW.m                  -5.41:  WELL HEAD E/W
 WHNS.m                  -0.12:  WELL HEAD N/S
 VSEW.m                  -5.41:  VERT SEC E/W
 VSNS.m                  -0.12:  VERT SEC N/S
 EKB .m                  43.16:  KB ELEVATION
 EDF .m                  43.16:  DF ELEVATION
 MAGU.                 1852276:  MAGUTM CHECKSUM
 VSC .                       0:  VS TO CLOSURE
~Parameter Information Block
#MNEM.UNIT       Value        Description
#---------     -----------    ---------------------------
 TCS .hr                125.29:  Time Ciculation Ended 
 DD1 .      Fakhraddin Guliyev:  Direct Drillr 1 
 DD2 .                   Sanan:  Direct Drillr 2 
 DEFF.%                   0.00:  % Det Eff 
 DRET.      04.26.40 27-Dec-19:  Drill End Time 
 DRST.      04.26.40 27-Dec-19:  Drill Start Tim 
 DTIM.hr                 80.10:  Time Drilling 
 EDEP.m                   0.00:  End Depth 
 ENG1.            Adlet Omarov:  Engineer 1 
 ENG2.         Almaz Almadatov:  Engineer 2 
 ETIM.      04.26.40 27-Dec-19:  End Time 
 HFLO.                      No:  High Flow 
 HPRE.                      No:  High Pressure 
 HTEM.                      No:  High Temp 
 HYDO.m                   1.85:  Hydro Offset 
 IMAX.deg                72.09:  Inc Max 
 IMIN.deg                59.07:  Inc Min 
 IMND.m                3901.43:  Inc Min Depth 
 IMXD.m                4753.85:  Inc Max Depth 
 LETM.      04.26.40 27-Dec-19:  Log End Time 
 LSTM.      04.26.40 27-Dec-19:  Log Start Time 
 OTIM.hr                187.88:  Time Operating 
 PMAX.psia            10202.94:  Press Op, Max 
 RUN .                     300:  Run Number 
 RRUN.                    0300:  Rig Run Number 
 SDEP.m                   0.00:  Start Depth 
 STIM.      04.26.40 27-Dec-19:  Start Time 
 SVER.                    9.20:  Sperry Version 
 MRT .                    HCIM:  Maximum Recorded Temperature 
 TTMX.degC               96.08:  Max Tool Temp 
~Curve Information Block
#MNEM.UNIT                 API CODE     Curve Description
#---------               -----------    ---------------------------
 TIME.HHMMSS            00 000 000 000:  GT Time & Date
 GTDEPTH.m              00 000 000 000:  GT Depth
 GTPQH.psia             00 000 000 000:  GT HR Quartz Pressure
 GTTQ.degC              00 000 000 000:  GT Quartz Temperature
 GTTN.NONE              00 000 000 000:  GT Test Number
 GTET.sec               00 000 000 000:  GT Elapsed Test Time
 GTTVD.m                00 000 000 000:  GT True Vertical Depth
#Other Information
#
#WARRANTY: Halliburton will use its best efforts to furnish customers with 
#accurate information and interpretations that are part of, and incident to, the services 
#provided.  However, Halliburton cannot and does not warrant the accuracy 
#or correctness of such information and interpretations.  Under no circumstances should any 
#such information or interpretation be relied upon as the sole basis for any drilling, 
#completion, production, or financial decision or any procedure involving any risk to the 
#safety of any drilling venture, drilling rig or its crew or any other third party.  The 
#Customer has full responsibility for all drilling, completion and production operation.  
#Halliburton makes no representations or warranties, either expressed or 
#implied, including, but not limited to, the implied warranties of merchantability or fitness 
#for a particular purpose, with respect to the services rendered.  In no event will 
#Halliburton be liable for failure to obtain any particular results or for 
#any damages, including, but not limited to, indirect, special or consequential damages, 
#resulting from the use of any information or interpretation provided by Halliburton.
#
~A           TIME           GTDEPTH  GTPQH  GTTQ  GTTN  GTET   GTTVD  
# ...
   13:48:41.240.02-Jan-2020 4773.81 6112.34 83.75 4.00  23.00 2772.13
   13:48:41.440.02-Jan-2020 4773.81 6112.34 83.75 4.00  23.20 2772.13
   13:48:41.640.02-Jan-2020 4773.81 6109.15 83.75 4.00  23.40 2772.13
   13:48:41.840.02-Jan-2020 4773.81 6108.07 83.75 4.00  23.60 2772.13
   13:48:42.040.02-Jan-2020 4773.81 6111.23 83.75 4.00  23.80 2772.13
   13:48:42.240.02-Jan-2020 4773.81 6110.53 83.75 4.00  24.00 2772.13
   13:48:42.440.02-Jan-2020 4773.81 6110.53 83.75 4.00  24.20 2772.13
   13:48:42.640.02-Jan-2020 4773.81 6107.58 83.75 4.00  24.40 2772.13
   13:48:42.840.02-Jan-2020 4773.81 6107.23 83.75 4.00  24.60 2772.13
   13:48:43.040.02-Jan-2020 4773.81 6107.35 83.75 4.00  24.80 2772.13
   13:48:43.240.02-Jan-2020 4773.81 6108.68 83.75 4.00  25.00 2772.13
   13:48:43.440.02-Jan-2020 4773.81 6108.68 83.75 4.00  25.20 2772.13
   13:48:43.640.02-Jan-2020 4773.81 6117.53 83.75 4.00  25.40 2772.13
   13:48:43.840.02-Jan-2020 4773.81 6110.11 83.75 4.00  25.60 2772.13
   13:48:44.040.02-Jan-2020 4773.81 6108.73 83.75 4.00  25.80 2772.13
   13:48:44.241.02-Jan-2020 4773.81 6109.40 83.75 4.00  26.00 2772.13
   13:48:44.441.02-Jan-2020 4773.81 6109.40 83.75 4.00  26.20 2772.13
   13:48:44.641.02-Jan-2020 4773.81 6108.98 83.75 4.00  26.40 2772.13
   13:48:44.841.02-Jan-2020 4773.81 6116.98 83.75 4.00  26.60 2772.13
   13:48:45.041.02-Jan-2020 4773.81 6110.93 83.75 4.00  26.80 2772.13
   13:48:45.241.02-Jan-2020 4773.81 6111.84 83.75 4.00  27.00 2772.13
   13:48:45.441.02-Jan-2020 4773.81 6111.84 83.75 4.00  27.20 2772.13
   13:48:45.641.02-Jan-2020 4773.81 6110.14 83.75 4.00  27.40 2772.13
   13:48:45.841.02-Jan-2020 4773.81 6118.77 83.75 4.00  27.60 2772.13
   13:48:46.041.02-Jan-2020 4773.81 6113.34 83.75 4.00  27.80 2772.13
   13:48:46.241.02-Jan-2020 4773.81 6111.78 83.75 4.00  28.00 2772.13
   13:48:46.441.02-Jan-2020 4773.81 6111.78 83.75 4.00  28.20 2772.13
   13:48:46.641.02-Jan-2020 4773.81 6110.49 83.75 4.00  28.40 2772.13
   13:48:46.841.02-Jan-2020 4773.81 6109.74 83.75 4.00  28.60 2772.13
   13:48:47.041.02-Jan-2020 4773.81 6110.59 83.75 4.00  28.80 2772.13
   13:48:47.241.02-Jan-2020 4773.81 6119.60 83.75 4.00  29.00 2772.13
   13:48:47.441.02-Jan-2020 4773.81 6119.60 83.75 4.00  29.20 2772.13
   13:48:47.641.02-Jan-2020 4773.81 6112.23 83.75 4.00  29.40 2772.13
   13:48:47.841.02-Jan-2020 4773.81 6112.74 83.75 4.00  29.60 2772.13
   13:48:48.041.02-Jan-2020 4773.81 6114.04 83.75 4.00  29.80 2772.13
   13:48:48.241.02-Jan-2020 4773.81 6116.49 83.75 4.00  30.00 2772.13
   13:48:48.441.02-Jan-2020 4773.81 6116.49 83.75 4.00  30.20 2772.13
   13:48:48.641.02-Jan-2020 4773.81 6112.49 83.75 4.00  30.40 2772.13
   13:48:48.841.02-Jan-2020 4773.81 6112.54 83.75 4.00  30.60 2772.13
   13:48:49.041.02-Jan-2020 4773.81 6118.49 83.75 4.00  30.80 2772.13
   13:48:49.241.02-Jan-2020 4773.81 6116.79 83.75 4.00  31.00 2772.13
   13:48:49.441.02-Jan-2020 4773.81 6116.79 83.75 4.00  31.20 2772.13
   13:48:49.641.02-Jan-2020 4773.81 6121.19 83.75 4.00  31.40 2772.13
   13:48:49.841.02-Jan-2020 4773.81 6114.59 83.75 4.00  31.60 2772.13
   13:48:50.041.02-Jan-2020 4773.81 6115.43 83.75 4.00  31.80 2772.13
   13:48:50.241.02-Jan-2020 4773.81 6113.98 83.75 4.00  32.00 2772.13
   13:48:50.441.02-Jan-2020 4773.81 6113.98 83.75 4.00  32.20 2772.13
   13:48:50.641.02-Jan-2020 4773.81 6113.01 83.75 4.00  32.40 2772.13
   13:48:50.841.02-Jan-2020 4773.81 6112.65 83.75 4.00  32.60 2772.13
   13:48:51.041.02-Jan-2020 4773.81 6113.43 83.75 4.00  32.80 2772.13
   13:48:51.241.02-Jan-2020 4773.81 6114.25 83.75 4.00  33.00 2772.13
   13:48:51.441.02-Jan-2020 4773.81 6114.25 83.75 4.00  33.20 2772.13
   13:48:51.641.02-Jan-2020 4773.81 6136.10 83.75 4.00  33.40 2772.13
   13:48:51.841.02-Jan-2020 4773.81 6207.51 83.74 4.00  33.60 2772.13
   13:48:52.041.02-Jan-2020 4773.81 6200.38 83.74 4.00  33.80 2772.13
   13:48:52.241.02-Jan-2020 4773.81 6192.51 83.74 4.00  34.00 2772.13
   13:48:52.441.02-Jan-2020 4773.81 6192.51 83.74 4.00  34.20 2772.13
   13:48:52.641.02-Jan-2020 4773.81 6171.53 83.74 4.00  34.40 2772.13
   13:48:52.841.02-Jan-2020 4773.81 6163.46 83.74 4.00  34.60 2772.13
   13:48:53.041.02-Jan-2020 4773.81 6160.58 83.74 4.00  34.80 2772.13
   13:48:53.241.02-Jan-2020 4773.81 6181.63 83.74 4.00  35.00 2772.13
   13:48:53.441.02-Jan-2020 4773.81 6181.63 83.74 4.00  35.20 2772.13
   13:48:53.641.02-Jan-2020 4773.81 6183.73 83.74 4.00  35.40 2772.13
   13:48:53.841.02-Jan-2020 4773.81 6185.48 83.74 4.00  35.60 2772.13
   13:48:54.041.02-Jan-2020 4773.81 6179.35 83.74 4.00  35.80 2772.13
   13:48:54.241.02-Jan-2020 4773.81 6170.92 83.74 4.00  36.00 2772.13
   13:48:54.441.02-Jan-2020 4773.81 6170.92 83.74 4.00  36.20 2772.13
   13:48:54.641.02-Jan-2020 4773.81 6127.93 83.74 4.00  36.40 2772.13
   13:48:54.841.02-Jan-2020 4773.81 6081.86 83.74 4.00  36.60 2772.13
   13:48:55.041.02-Jan-2020 4773.81 6037.67 83.74 4.00  36.80 2772.13
   13:48:55.241.02-Jan-2020 4773.81 5982.83 83.74 4.00  37.00 2772.13
   13:48:55.441.02-Jan-2020 4773.81 5982.83 83.74 4.00  37.20 2772.13
   13:48:55.641.02-Jan-2020 4773.81 5928.81 83.74 4.00  37.40 2772.13
   13:48:55.841.02-Jan-2020 4773.81 5889.65 83.74 4.00  37.60 2772.13
   13:48:56.041.02-Jan-2020 4773.81 5868.11 83.74 4.00  37.80 2772.13
   13:48:56.241.02-Jan-2020 4773.81 5805.11 83.74 4.00  38.00 2772.13
   13:48:56.441.02-Jan-2020 4773.81 5805.11 83.74 4.00  38.20 2772.13
   13:48:56.641.02-Jan-2020 4773.81 5682.23 83.74 4.00  38.40 2772.13
   13:48:56.841.02-Jan-2020 4773.81 5618.11 83.74 4.00  38.60 2772.13
   13:48:57.041.02-Jan-2020 4773.81 5545.07 83.74 4.00  38.80 2772.13
   13:48:57.241.02-Jan-2020 4773.81 5470.50 83.74 4.00  39.00 2772.13
   13:48:57.441.02-Jan-2020 4773.81 5470.50 83.74 4.00  39.20 2772.13
   13:48:57.641.02-Jan-2020 4773.81 5329.50 83.74 4.00  39.40 2772.13
   13:48:57.841.02-Jan-2020 4773.81 5253.97 83.74 4.00  39.60 2772.13
   13:48:58.041.02-Jan-2020 4773.81 5179.40 83.74 4.00  39.80 2772.13
   13:48:58.241.02-Jan-2020 4773.81 5108.32 83.74 4.00  40.00 2772.13
   13:48:58.441.02-Jan-2020 4773.81 5108.32 83.74 4.00  40.20 2772.13
   13:48:58.641.02-Jan-2020 4773.81 4969.75 83.73 4.00  40.40 2772.13
   13:48:58.841.02-Jan-2020 4773.81 4909.55 83.73 4.00  40.60 2772.13
   13:48:59.041.02-Jan-2020 4773.81 4861.20 83.73 4.00  40.80 2772.13
   13:48:59.241.02-Jan-2020 4773.81 4813.18 83.73 4.00  41.00 2772.13
   13:48:59.441.02-Jan-2020 4773.81 4813.18 83.73 4.00  41.20 2772.13
   13:48:59.641.02-Jan-2020 4773.81 4716.22 83.73 4.00  41.40 2772.13
   13:48:59.841.02-Jan-2020 4773.81 4668.63 83.73 4.00  41.60 2772.13
   13:49:00.041.02-Jan-2020 4773.81 4631.23 83.73 4.00  41.80 2772.13
   13:49:00.241.02-Jan-2020 4773.81 4595.62 83.73 4.00  42.00 2772.13
   13:49:00.441.02-Jan-2020 4773.81 4595.62 83.73 4.00  42.20 2772.13
   13:49:00.641.02-Jan-2020 4773.81 4619.09 83.72 4.00  42.40 2772.13
   13:49:00.841.02-Jan-2020 4773.81 4605.29 83.72 4.00  42.60 2772.13
   13:49:01.041.02-Jan-2020 4773.81 4511.35 83.72 4.00  42.80 2772.13
   13:49:01.241.02-Jan-2020 4773.81 3813.15 83.72 4.00  43.00 2772.13
   13:49:01.441.02-Jan-2020 4773.81 3813.15 83.72 4.00  43.20 2772.13
   13:49:01.641.02-Jan-2020 4773.81 2424.66 83.72 4.00  43.40 2772.13
   13:49:01.841.02-Jan-2020 4773.81 2037.68 83.72 4.00  43.60 2772.13
   13:49:02.041.02-Jan-2020 4773.81 2361.03 83.72 4.00  43.80 2772.13
   13:49:02.241.02-Jan-2020 4773.81 2513.22 83.71 4.00  44.00 2772.13
   13:49:02.441.02-Jan-2020 4773.81 2513.22 83.71 4.00  44.20 2772.13
   13:49:02.641.02-Jan-2020 4773.81 1490.94 83.71 4.00  44.40 2772.13
   13:49:02.841.02-Jan-2020 4773.81 1221.86 83.71 4.00  44.60 2772.13
   13:49:03.041.02-Jan-2020 4773.81 1221.20 83.70 4.00  44.80 2772.13
   13:49:03.241.02-Jan-2020 4773.81 1167.18 83.70 4.00  45.00 2772.13
   13:49:03.441.02-Jan-2020 4773.81 1167.18 83.70 4.00  45.20 2772.13
   13:49:03.641.02-Jan-2020 4773.81  922.89 83.70 4.00  45.40 2772.13
   13:49:03.841.02-Jan-2020 4773.81  865.39 83.69 4.00  45.60 2772.13
   13:49:04.041.02-Jan-2020 4773.81  863.12 83.69 4.00  45.80 2772.13
