~Version Information
 VERS.                  2.0:   CWLS log ASCII Standard -VERSION 2.0
 WRAP.                   NO:   One line per depth step
~Well Information Block
#MNEM.UNIT     VALUE/NAME     DESCRIPTION
#---------     -----------    ---------------------------
 STRT.S             13:48:18 02-Jan-20: START TIME 13:48:18 02-Jan-20
 STOP.S             13:56:34 02-Jan-20: STOP TIME  13:56:34 02-Jan-20
 STEP.S                   0.00: STEP TIME
 NULL.                 -999.25: NULL VALUE
 MDS .        Operator Entered:  MAG DATA SOURCE
 UNIT.                     N/a:  LOGGING EQUIPMENT ID
 DCON.         Sperry Drilling:  DIRECTNL CONTR
 CNTY.                    Baku:  COUNTY NAME
 DOE .                     N/a:  DOE NUMBER
 RIG .                     DWG:  RIG NAME
 MWDS.                    Baku:  MWD SHOP
 REGN.                   EESSA:  REGION
 BASE.              Azerbaijan:  LOGGING EQUIPMENT BASE LOCATION
 UWI .                     N/a:  UNIQUE WELL IDENTIFIER
 API .                     N/a:  API NUMBER
 WTYP.                Deviated:  WELL TYPE
 COMP.     BP Exploration (Caspian Sea) Ltd.:  COMPANY
 SRVC.          TURAN DRILLING:  CONTRACTOR
 WELL.           E04 (Slot 23):  WELL NAME
 CTRY.              Azerbaijan:  COUNTRY NAME
 SON .        AZ-XX-0905715376:  JOB NUMBER
 FLD .                     ACG:  FIELD NAME
 PDAT.          Mean Sea Level:  PERMANENT DATUM
 FTOP.          Formation Tops:  FORM TOPS DESC
 ILTD.               Lithology:  INTERP LTH DESC
 SVYD.                  Survey:  SURVEY DESC
 DMOD.             Drill Model:  DRILL MOD DESC
 HPTY.       Minimum Curvature:  HOLE POS TYPE
 NREF.                    Grid:  NORTH REFERENCE
 SPUD.               21-Dec-19:  SPUD DATE
 DATE.      17.57.20 21-Dec-19:  END TIME
 STIM.      17.57.20 21-Dec-19:  START TIME
 DMF .             Drill Floor:  DRILL MEAS FROM
 DFST.                        :  DIST FSL TEXT
 DFWT.                        :  DIST FWL TEXT
 PROV.                        :  PROVINCE
 STAT.                        :  STATE
 LOC .                        :  LOCATION
 LMF .             Drill Floor:  LOG MEASURED FROM
 AGAP.m                  43.16:  AIR GAP
 DEP .m                3172.61:  DEPTH
 APD .m                  43.16:  DEPTH ABOVE PD
 WDMS.m                 176.20:  WD ELEV
 EGL .m                   0.00:  GROUND ELEVATION
 EPD .m                   0.00:  ELEVATION
 AZTC.deg                 6.49:  AZM TOTAL CORR
 GRDC.deg                 0.09:  GRID CORRECTION
 MDEC.deg                 6.58:  MAGNETIC DECL
 MDIP.deg                59.61:  MAGNETIC DIP
 MFLD.nT              50294.00:  MAGNETIC FIELD
 GVFD.g                   1.00:  GRAVITY FIELD
 VSDR.deg               235.12:  VERT SEC DIRECT
 TDD .m                   0.00:  TOTAL DEPTH (DRILLER)
 SDEP.m                   0.00:  START DEPTH
 UTMY.m             4448627.46:  UTM Y
 UTMX.m              514337.95:  UTM X
 LONG.deg                51.17:  LONGITUDE
 LATI.deg                40.17:  LATITUDE
 TVDS.m                  43.16:  TVDSS CORRECTN
 WHEW.m                  -5.41:  WELL HEAD E/W
 WHNS.m                  -0.12:  WELL HEAD N/S
 VSEW.m                  -5.41:  VERT SEC E/W
 VSNS.m                  -0.12:  VERT SEC N/S
 EKB .m                  43.16:  KB ELEVATION
 EDF .m                  43.16:  DF ELEVATION
 MAGU.                 1852276:  MAGUTM CHECKSUM
 VSC .                       0:  VS TO CLOSURE
~Parameter Information Block
#MNEM.UNIT       Value        Description
#---------     -----------    ---------------------------
 TCS .hr                125.29:  Time Ciculation Ended 
 DD1 .      Fakhraddin Guliyev:  Direct Drillr 1 
 DD2 .                   Sanan:  Direct Drillr 2 
 DEFF.%                   0.00:  % Det Eff 
 DRET.      04.26.40 27-Dec-19:  Drill End Time 
 DRST.      04.26.40 27-Dec-19:  Drill Start Tim 
 DTIM.hr                 80.10:  Time Drilling 
 EDEP.m                   0.00:  End Depth 
 ENG1.            Adlet Omarov:  Engineer 1 
 ENG2.         Almaz Almadatov:  Engineer 2 
 ETIM.      04.26.40 27-Dec-19:  End Time 
 HFLO.                      No:  High Flow 
 HPRE.                      No:  High Pressure 
 HTEM.                      No:  High Temp 
 HYDO.m                   1.85:  Hydro Offset 
 IMAX.deg                72.09:  Inc Max 
 IMIN.deg                59.07:  Inc Min 
 IMND.m                3901.43:  Inc Min Depth 
 IMXD.m                4753.85:  Inc Max Depth 
 LETM.      04.26.40 27-Dec-19:  Log End Time 
 LSTM.      04.26.40 27-Dec-19:  Log Start Time 
 OTIM.hr                187.88:  Time Operating 
 PMAX.psia            10202.94:  Press Op, Max 
 RUN .                     300:  Run Number 
 RRUN.                    0300:  Rig Run Number 
 SDEP.m                   0.00:  Start Depth 
 STIM.      04.26.40 27-Dec-19:  Start Time 
 SVER.                    9.20:  Sperry Version 
 MRT .                    HCIM:  Maximum Recorded Temperature 
 TTMX.degC               96.08:  Max Tool Temp 
~Curve Information Block
#MNEM.UNIT                 API CODE     Curve Description
#---------               -----------    ---------------------------
 TIME.HHMMSS            00 000 000 000:  GT Time & Date
 GTDEPTH.m              00 000 000 000:  GT Depth
 GTPQH.psia             00 000 000 000:  GT HR Quartz Pressure
 GTTQ.degC              00 000 000 000:  GT Quartz Temperature
 GTTN.NONE              00 000 000 000:  GT Test Number
 GTET.sec               00 000 000 000:  GT Elapsed Test Time
 GTTVD.m                00 000 000 000:  GT True Vertical Depth
#Other Information
#
#WARRANTY: Halliburton will use its best efforts to furnish customers with 
#accurate information and interpretations that are part of, and incident to, the services 
#provided.  However, Halliburton cannot and does not warrant the accuracy 
#or correctness of such information and interpretations.  Under no circumstances should any 
#such information or interpretation be relied upon as the sole basis for any drilling, 
#completion, production, or financial decision or any procedure involving any risk to the 
#safety of any drilling venture, drilling rig or its crew or any other third party.  The 
#Customer has full responsibility for all drilling, completion and production operation.  
#Halliburton makes no representations or warranties, either expressed or 
#implied, including, but not limited to, the implied warranties of merchantability or fitness 
#for a particular purpose, with respect to the services rendered.  In no event will 
#Halliburton be liable for failure to obtain any particular results or for 
#any damages, including, but not limited to, indirect, special or consequential damages, 
#resulting from the use of any information or interpretation provided by Halliburton.
#
~A           TIME           GTDEPTH  GTPQH  GTTQ  GTTN  GTET   GTTVD  
# ...
   13:50:36.246.02-Jan-2020 4773.81 4682.29 83.67 4.00 138.01 2772.13
   13:50:36.446.02-Jan-2020 4773.81 4682.29 83.67 4.00 138.21 2772.13
   13:50:36.646.02-Jan-2020 4773.81 4682.44 83.67 4.00 138.41 2772.13
   13:50:36.846.02-Jan-2020 4773.81 4683.24 83.67 4.00 138.61 2772.13
   13:50:37.046.02-Jan-2020 4773.81 4683.60 83.67 4.00 138.81 2772.13
   13:50:37.246.02-Jan-2020 4773.81 4683.92 83.67 4.00 139.01 2772.13
   13:50:37.446.02-Jan-2020 4773.81 4683.92 83.67 4.00 139.21 2772.13
   13:50:37.646.02-Jan-2020 4773.81 4682.59 83.67 4.00 139.41 2772.13
   13:50:37.846.02-Jan-2020 4773.81 4684.80 83.67 4.00 139.61 2772.13
   13:50:38.046.02-Jan-2020 4773.81 4685.01 83.67 4.00 139.81 2772.13
   13:50:38.246.02-Jan-2020 4773.81 4685.42 83.67 4.00 140.01 2772.13
   13:50:38.446.02-Jan-2020 4773.81 4685.42 83.67 4.00 140.21 2772.13
   13:50:38.646.02-Jan-2020 4773.81 4685.42 83.67 4.00 140.41 2772.13
   13:50:38.846.02-Jan-2020 4773.81 4686.08 83.67 4.00 140.61 2772.13
   13:50:39.046.02-Jan-2020 4773.81 4686.52 83.67 4.00 140.81 2772.13
   13:50:39.246.02-Jan-2020 4773.81 4686.80 83.67 4.00 141.01 2772.13
   13:50:39.446.02-Jan-2020 4773.81 4686.80 83.67 4.00 141.21 2772.13
   13:50:39.646.02-Jan-2020 4773.81 4687.42 83.67 4.00 141.41 2772.13
   13:50:39.846.02-Jan-2020 4773.81 4687.56 83.67 4.00 141.61 2772.13
   13:50:40.046.02-Jan-2020 4773.81 4687.38 83.67 4.00 141.81 2772.13
   13:50:40.246.02-Jan-2020 4773.81 4686.18 83.67 4.00 142.01 2772.13
   13:50:40.446.02-Jan-2020 4773.81 4686.18 83.67 4.00 142.21 2772.13
   13:50:40.646.02-Jan-2020 4773.81 4688.65 83.67 4.00 142.41 2772.13
   13:50:40.846.02-Jan-2020 4773.81 4688.99 83.67 4.00 142.61 2772.13
   13:50:41.046.02-Jan-2020 4773.81 4689.28 83.67 4.00 142.81 2772.13
   13:50:41.246.02-Jan-2020 4773.81 4689.54 83.67 4.00 143.01 2772.13
   13:50:41.446.02-Jan-2020 4773.81 4689.54 83.67 4.00 143.21 2772.13
   13:50:41.646.02-Jan-2020 4773.81 4690.26 83.67 4.00 143.41 2772.13
   13:50:41.846.02-Jan-2020 4773.81 4688.06 83.67 4.00 143.61 2772.13
   13:50:42.046.02-Jan-2020 4773.81 4690.69 83.67 4.00 143.81 2772.13
   13:50:42.246.02-Jan-2020 4773.81 4690.78 83.67 4.00 144.01 2772.13
   13:50:42.446.02-Jan-2020 4773.81 4690.78 83.67 4.00 144.21 2772.13
   13:50:42.646.02-Jan-2020 4773.81 4691.15 83.66 4.00 144.41 2772.13
   13:50:42.846.02-Jan-2020 4773.81 4690.95 83.66 4.00 144.61 2772.13
   13:50:43.046.02-Jan-2020 4773.81 4691.63 83.66 4.00 144.81 2772.13
   13:50:43.246.02-Jan-2020 4773.81 4691.96 83.66 4.00 145.01 2772.13
   13:50:43.446.02-Jan-2020 4773.81 4691.96 83.66 4.00 145.21 2772.13
   13:50:43.646.02-Jan-2020 4773.81 4692.22 83.66 4.00 145.41 2772.13
   13:50:43.846.02-Jan-2020 4773.81 4692.45 83.66 4.00 145.61 2772.13
   13:50:44.046.02-Jan-2020 4773.81 4692.81 83.66 4.00 145.81 2772.13
   13:50:44.246.02-Jan-2020 4773.81 4693.00 83.66 4.00 146.01 2772.13
   13:50:44.446.02-Jan-2020 4773.81 4693.00 83.66 4.00 146.21 2772.13
   13:50:44.646.02-Jan-2020 4773.81 4692.86 83.66 4.00 146.41 2772.13
   13:50:44.846.02-Jan-2020 4773.81 4693.54 83.66 4.00 146.61 2772.13
   13:50:45.046.02-Jan-2020 4773.81 4693.78 83.66 4.00 146.81 2772.13
   13:50:45.246.02-Jan-2020 4773.81 4693.36 83.66 4.00 147.01 2772.13
   13:50:45.446.02-Jan-2020 4773.81 4693.36 83.66 4.00 147.21 2772.13
   13:50:45.646.02-Jan-2020 4773.81 4694.30 83.66 4.00 147.41 2772.13
   13:50:45.846.02-Jan-2020 4773.81 4694.43 83.66 4.00 147.61 2772.13
   13:50:46.046.02-Jan-2020 4773.81 4694.65 83.66 4.00 147.81 2772.13
   13:50:46.246.02-Jan-2020 4773.81 4692.33 83.66 4.00 148.01 2772.13
   13:50:46.446.02-Jan-2020 4773.81 4692.33 83.66 4.00 148.21 2772.13
   13:50:46.646.02-Jan-2020 4773.81 4695.01 83.66 4.00 148.41 2772.13
   13:50:46.846.02-Jan-2020 4773.81 4695.36 83.66 4.00 148.61 2772.13
   13:50:47.047.02-Jan-2020 4773.81 4693.01 83.66 4.00 148.81 2772.13
   13:50:47.247.02-Jan-2020 4773.81 4695.48 83.66 4.00 149.01 2772.13
   13:50:47.447.02-Jan-2020 4773.81 4695.48 83.66 4.00 149.21 2772.13
   13:50:47.647.02-Jan-2020 4773.81 4695.95 83.66 4.00 149.41 2772.13
   13:50:47.847.02-Jan-2020 4773.81 4696.04 83.66 4.00 149.61 2772.13
   13:50:48.047.02-Jan-2020 4773.81 4696.21 83.66 4.00 149.81 2772.13
   13:50:48.247.02-Jan-2020 4773.81 4696.43 83.66 4.00 150.01 2772.13
   13:50:48.447.02-Jan-2020 4773.81 4696.43 83.66 4.00 150.21 2772.13
   13:50:48.647.02-Jan-2020 4773.81 4694.99 83.66 4.00 150.41 2772.13
   13:50:48.847.02-Jan-2020 4773.81 4696.40 83.66 4.00 150.61 2772.13
   13:50:49.047.02-Jan-2020 4773.81 4697.02 83.66 4.00 150.81 2772.13
   13:50:49.247.02-Jan-2020 4773.81 4697.23 83.66 4.00 151.01 2772.13
   13:50:49.447.02-Jan-2020 4773.81 4697.23 83.66 4.00 151.21 2772.13
   13:50:49.647.02-Jan-2020 4773.81 4695.59 83.66 4.00 151.41 2772.13
   13:50:49.847.02-Jan-2020 4773.81 4697.71 83.66 4.00 151.61 2772.13
   13:50:50.047.02-Jan-2020 4773.81 4697.76 83.66 4.00 151.81 2772.13
   13:50:50.247.02-Jan-2020 4773.81 4697.95 83.66 4.00 152.01 2772.13
   13:50:50.447.02-Jan-2020 4773.81 4697.95 83.66 4.00 152.21 2772.13
   13:50:50.647.02-Jan-2020 4773.81 4698.15 83.66 4.00 152.41 2772.13
   13:50:50.847.02-Jan-2020 4773.81 4698.28 83.66 4.00 152.61 2772.13
   13:50:51.047.02-Jan-2020 4773.81 4698.52 83.66 4.00 152.81 2772.13
   13:50:51.247.02-Jan-2020 4773.81 4698.60 83.66 4.00 153.01 2772.13
   13:50:51.447.02-Jan-2020 4773.81 4698.60 83.66 4.00 153.21 2772.13
   13:50:51.647.02-Jan-2020 4773.81 4698.34 83.66 4.00 153.41 2772.13
   13:50:51.847.02-Jan-2020 4773.81 4698.97 83.66 4.00 153.61 2772.13
   13:50:52.047.02-Jan-2020 4773.81 4699.17 83.66 4.00 153.81 2772.13
   13:50:52.247.02-Jan-2020 4773.81 4698.63 83.66 4.00 154.01 2772.13
   13:50:52.447.02-Jan-2020 4773.81 4698.63 83.66 4.00 154.21 2772.13
   13:50:52.647.02-Jan-2020 4773.81 4699.53 83.66 4.00 154.41 2772.13
   13:50:52.847.02-Jan-2020 4773.81 4699.58 83.66 4.00 154.61 2772.13
   13:50:53.047.02-Jan-2020 4773.81 4697.26 83.66 4.00 154.81 2772.13
   13:50:53.247.02-Jan-2020 4773.81 4699.74 83.66 4.00 155.01 2772.13
   13:50:53.447.02-Jan-2020 4773.81 4699.74 83.66 4.00 155.21 2772.13
   13:50:53.647.02-Jan-2020 4773.81 4697.52 83.66 4.00 155.41 2772.13
   13:50:53.847.02-Jan-2020 4773.81 4700.15 83.66 4.00 155.61 2772.13
   13:50:54.047.02-Jan-2020 4773.81 4700.09 83.66 4.00 155.81 2772.13
   13:50:54.247.02-Jan-2020 4773.81 4700.32 83.66 4.00 156.01 2772.13
   13:50:54.447.02-Jan-2020 4773.81 4700.32 83.66 4.00 156.21 2772.13
   13:50:54.647.02-Jan-2020 4773.81 4700.52 83.66 4.00 156.41 2772.13
   13:50:54.847.02-Jan-2020 4773.81 4700.68 83.66 4.00 156.61 2772.13
   13:50:55.047.02-Jan-2020 4773.81 4700.82 83.66 4.00 156.81 2772.13
   13:50:55.247.02-Jan-2020 4773.81 4700.37 83.66 4.00 157.01 2772.13
   13:50:55.447.02-Jan-2020 4773.81 4700.37 83.66 4.00 157.21 2772.13
   13:50:55.647.02-Jan-2020 4773.81 4701.16 83.66 4.00 157.41 2772.13
   13:50:55.847.02-Jan-2020 4773.81 4701.15 83.66 4.00 157.61 2772.13
   13:50:56.047.02-Jan-2020 4773.81 4701.25 83.66 4.00 157.81 2772.13
   13:50:56.247.02-Jan-2020 4773.81 4701.32 83.66 4.00 158.01 2772.13
   13:50:56.447.02-Jan-2020 4773.81 4701.32 83.66 4.00 158.21 2772.13
   13:50:56.647.02-Jan-2020 4773.81 4699.15 83.66 4.00 158.41 2772.13
   13:50:56.847.02-Jan-2020 4773.81 4701.59 83.66 4.00 158.61 2772.13
   13:50:57.047.02-Jan-2020 4773.81 4701.61 83.66 4.00 158.81 2772.13
   13:50:57.247.02-Jan-2020 4773.81 4701.81 83.66 4.00 159.01 2772.13
   13:50:57.447.02-Jan-2020 4773.81 4701.81 83.66 4.00 159.21 2772.13
   13:50:57.647.02-Jan-2020 4773.81 4701.35 83.66 4.00 159.41 2772.13
   13:50:57.847.02-Jan-2020 4773.81 4701.95 83.66 4.00 159.61 2772.13
   13:50:58.047.02-Jan-2020 4773.81 4702.06 83.66 4.00 159.81 2772.13
   13:50:58.247.02-Jan-2020 4773.81 4702.10 83.66 4.00 160.01 2772.13
   13:50:58.447.02-Jan-2020 4773.81 4702.10 83.66 4.00 160.21 2772.13
   13:50:58.647.02-Jan-2020 4773.81 4699.85 83.66 4.00 160.41 2772.13
   13:50:58.847.02-Jan-2020 4773.81 4702.49 83.66 4.00 160.61 2772.13
   13:50:59.047.02-Jan-2020 4773.81 4702.52 83.66 4.00 160.81 2772.13
