~Version Information
 VERS.                  2.0:   CWLS log ASCII Standard -VERSION 2.0
 WRAP.                   NO:   One line per depth step
~Well Information Block
#MNEM.UNIT     VALUE/NAME     DESCRIPTION
#---------     -----------    ---------------------------
 STRT.S             10:33:43 02-Jan-20: START TIME 10:33:43 02-Jan-20
 STOP.S             10:42:04 02-Jan-20: STOP TIME  10:42:04 02-Jan-20
 STEP.S                   0.00: STEP TIME
 NULL.                 -999.25: NULL VALUE
 MDS .        Operator Entered:  MAG DATA SOURCE
 UNIT.                     N/a:  LOGGING EQUIPMENT ID
 DCON.         Sperry Drilling:  DIRECTNL CONTR
 CNTY.                    Baku:  COUNTY NAME
 DOE .                     N/a:  DOE NUMBER
 RIG .                     DWG:  RIG NAME
 MWDS.                    Baku:  MWD SHOP
 REGN.                   EESSA:  REGION
 BASE.              Azerbaijan:  LOGGING EQUIPMENT BASE LOCATION
 UWI .                     N/a:  UNIQUE WELL IDENTIFIER
 API .                     N/a:  API NUMBER
 WTYP.                Deviated:  WELL TYPE
 COMP.     BP Exploration (Caspian Sea) Ltd.:  COMPANY
 SRVC.          TURAN DRILLING:  CONTRACTOR
 WELL.           E04 (Slot 23):  WELL NAME
 CTRY.              Azerbaijan:  COUNTRY NAME
 SON .        AZ-XX-0905715376:  JOB NUMBER
 FLD .                     ACG:  FIELD NAME
 PDAT.          Mean Sea Level:  PERMANENT DATUM
 FTOP.          Formation Tops:  FORM TOPS DESC
 ILTD.               Lithology:  INTERP LTH DESC
 SVYD.                  Survey:  SURVEY DESC
 DMOD.             Drill Model:  DRILL MOD DESC
 HPTY.       Minimum Curvature:  HOLE POS TYPE
 NREF.                    Grid:  NORTH REFERENCE
 SPUD.               21-Dec-19:  SPUD DATE
 DATE.      17.57.20 21-Dec-19:  END TIME
 STIM.      17.57.20 21-Dec-19:  START TIME
 DMF .             Drill Floor:  DRILL MEAS FROM
 DFST.                        :  DIST FSL TEXT
 DFWT.                        :  DIST FWL TEXT
 PROV.                        :  PROVINCE
 STAT.                        :  STATE
 LOC .                        :  LOCATION
 LMF .             Drill Floor:  LOG MEASURED FROM
 AGAP.m                  43.16:  AIR GAP
 DEP .m                3172.61:  DEPTH
 APD .m                  43.16:  DEPTH ABOVE PD
 WDMS.m                 176.20:  WD ELEV
 EGL .m                   0.00:  GROUND ELEVATION
 EPD .m                   0.00:  ELEVATION
 AZTC.deg                 6.49:  AZM TOTAL CORR
 GRDC.deg                 0.09:  GRID CORRECTION
 MDEC.deg                 6.58:  MAGNETIC DECL
 MDIP.deg                59.61:  MAGNETIC DIP
 MFLD.nT              50294.00:  MAGNETIC FIELD
 GVFD.g                   1.00:  GRAVITY FIELD
 VSDR.deg               235.12:  VERT SEC DIRECT
 TDD .m                   0.00:  TOTAL DEPTH (DRILLER)
 SDEP.m                   0.00:  START DEPTH
 UTMY.m             4448627.46:  UTM Y
 UTMX.m              514337.95:  UTM X
 LONG.deg                51.17:  LONGITUDE
 LATI.deg                40.17:  LATITUDE
 TVDS.m                  43.16:  TVDSS CORRECTN
 WHEW.m                  -5.41:  WELL HEAD E/W
 WHNS.m                  -0.12:  WELL HEAD N/S
 VSEW.m                  -5.41:  VERT SEC E/W
 VSNS.m                  -0.12:  VERT SEC N/S
 EKB .m                  43.16:  KB ELEVATION
 EDF .m                  43.16:  DF ELEVATION
 MAGU.                 1852276:  MAGUTM CHECKSUM
 VSC .                       0:  VS TO CLOSURE
~Parameter Information Block
#MNEM.UNIT       Value        Description
#---------     -----------    ---------------------------
 TCS .hr                125.29:  Time Ciculation Ended 
 DD1 .      Fakhraddin Guliyev:  Direct Drillr 1 
 DD2 .                   Sanan:  Direct Drillr 2 
 DEFF.%                   0.00:  % Det Eff 
 DRET.      04.26.40 27-Dec-19:  Drill End Time 
 DRST.      04.26.40 27-Dec-19:  Drill Start Tim 
 DTIM.hr                 80.10:  Time Drilling 
 EDEP.m                   0.00:  End Depth 
 ENG1.            Adlet Omarov:  Engineer 1 
 ENG2.         Almaz Almadatov:  Engineer 2 
 ETIM.      04.26.40 27-Dec-19:  End Time 
 HFLO.                      No:  High Flow 
 HPRE.                      No:  High Pressure 
 HTEM.                      No:  High Temp 
 HYDO.m                   1.85:  Hydro Offset 
 IMAX.deg                72.09:  Inc Max 
 IMIN.deg                59.07:  Inc Min 
 IMND.m                3901.43:  Inc Min Depth 
 IMXD.m                4753.85:  Inc Max Depth 
 LETM.      04.26.40 27-Dec-19:  Log End Time 
 LSTM.      04.26.40 27-Dec-19:  Log Start Time 
 OTIM.hr                187.88:  Time Operating 
 PMAX.psia            10202.94:  Press Op, Max 
 RUN .                     300:  Run Number 
 RRUN.                    0300:  Rig Run Number 
 SDEP.m                   0.00:  Start Depth 
 STIM.      04.26.40 27-Dec-19:  Start Time 
 SVER.                    9.20:  Sperry Version 
 MRT .                    HCIM:  Maximum Recorded Temperature 
 TTMX.degC               96.08:  Max Tool Temp 
~Curve Information Block
#MNEM.UNIT                 API CODE     Curve Description
#---------               -----------    ---------------------------
 TIME.HHMMSS            00 000 000 000:  GT Time & Date
 GTDEPTH.m              00 000 000 000:  GT Depth
 GTPQH.psia             00 000 000 000:  GT HR Quartz Pressure
 GTTQ.degC              00 000 000 000:  GT Quartz Temperature
 GTTN.NONE              00 000 000 000:  GT Test Number
 GTET.sec               00 000 000 000:  GT Elapsed Test Time
 GTTVD.m                00 000 000 000:  GT True Vertical Depth
#Other Information
#
#WARRANTY: Halliburton will use its best efforts to furnish customers with 
#accurate information and interpretations that are part of, and incident to, the services 
#provided.  However, Halliburton cannot and does not warrant the accuracy 
#or correctness of such information and interpretations.  Under no circumstances should any 
#such information or interpretation be relied upon as the sole basis for any drilling, 
#completion, production, or financial decision or any procedure involving any risk to the 
#safety of any drilling venture, drilling rig or its crew or any other third party.  The 
#Customer has full responsibility for all drilling, completion and production operation.  
#Halliburton makes no representations or warranties, either expressed or 
#implied, including, but not limited to, the implied warranties of merchantability or fitness 
#for a particular purpose, with respect to the services rendered.  In no event will 
#Halliburton be liable for failure to obtain any particular results or for 
#any damages, including, but not limited to, indirect, special or consequential damages, 
#resulting from the use of any information or interpretation provided by Halliburton.
#
~A           TIME           GTDEPTH  GTPQH  GTTQ  GTTN  GTET   GTTVD  
# ...
   10:41:23.781.02-Jan-2020 4788.22 6146.21 85.51 1.00 460.11 2776.61
   10:41:23.981.02-Jan-2020 4788.22 6146.21 85.51 1.00 460.31 2776.61
   10:41:24.181.02-Jan-2020 4788.22 6152.46 85.51 1.00 460.51 2776.61
   10:41:24.381.02-Jan-2020 4788.22 6148.80 85.51 1.00 460.71 2776.61
   10:41:24.581.02-Jan-2020 4788.22 6144.23 85.51 1.00 460.91 2776.61
   10:41:24.781.02-Jan-2020 4788.22 6144.11 85.51 1.00 461.11 2776.61
   10:41:24.981.02-Jan-2020 4788.22 6144.11 85.51 1.00 461.31 2776.61
   10:41:25.181.02-Jan-2020 4788.22 6146.17 85.51 1.00 461.51 2776.61
   10:41:25.381.02-Jan-2020 4788.22 6142.29 85.51 1.00 461.71 2776.61
   10:41:25.581.02-Jan-2020 4788.22 6143.41 85.51 1.00 461.91 2776.61
   10:41:25.781.02-Jan-2020 4788.22 6142.76 85.51 1.00 462.11 2776.61
   10:41:25.981.02-Jan-2020 4788.22 6142.76 85.51 1.00 462.31 2776.61
   10:41:26.181.02-Jan-2020 4788.22 6147.43 85.51 1.00 462.51 2776.61
   10:41:26.381.02-Jan-2020 4788.22 6145.35 85.51 1.00 462.71 2776.61
   10:41:26.581.02-Jan-2020 4788.22 6153.44 85.51 1.00 462.91 2776.61
   10:41:26.781.02-Jan-2020 4788.22 6145.29 85.51 1.00 463.11 2776.61
   10:41:26.981.02-Jan-2020 4788.22 6145.29 85.51 1.00 463.31 2776.61
   10:41:27.181.02-Jan-2020 4788.22 6144.66 85.51 1.00 463.51 2776.61
   10:41:27.381.02-Jan-2020 4788.22 6144.70 85.51 1.00 463.71 2776.61
   10:41:27.581.02-Jan-2020 4788.22 6144.15 85.51 1.00 463.91 2776.61
   10:41:27.781.02-Jan-2020 4788.22 6144.48 85.51 1.00 464.11 2776.61
   10:41:27.982.02-Jan-2020 4788.22 6144.48 85.51 1.00 464.31 2776.61
   10:41:28.182.02-Jan-2020 4788.22 6145.66 85.51 1.00 464.51 2776.61
   10:41:28.382.02-Jan-2020 4788.22 6152.00 85.51 1.00 464.71 2776.61
   10:41:28.582.02-Jan-2020 4788.22 6148.71 85.51 1.00 464.91 2776.61
   10:41:28.782.02-Jan-2020 4788.22 6145.02 85.51 1.00 465.11 2776.61
   10:41:28.982.02-Jan-2020 4788.22 6145.02 85.51 1.00 465.31 2776.61
   10:41:29.182.02-Jan-2020 4788.22 6152.52 85.51 1.00 465.51 2776.61
   10:41:29.382.02-Jan-2020 4788.22 6146.69 85.51 1.00 465.71 2776.61
   10:41:29.582.02-Jan-2020 4788.22 6144.40 85.51 1.00 465.91 2776.61
   10:41:29.782.02-Jan-2020 4788.22 6153.82 85.51 1.00 466.11 2776.61
   10:41:29.982.02-Jan-2020 4788.22 6153.82 85.51 1.00 466.31 2776.61
   10:41:30.182.02-Jan-2020 4788.22 6143.24 85.51 1.00 466.51 2776.61
   10:41:30.382.02-Jan-2020 4788.22 6148.57 85.51 1.00 466.71 2776.61
   10:41:30.582.02-Jan-2020 4788.22 6150.45 85.51 1.00 466.91 2776.61
   10:41:30.782.02-Jan-2020 4788.22 6146.18 85.51 1.00 467.11 2776.61
   10:41:30.982.02-Jan-2020 4788.22 6146.18 85.51 1.00 467.31 2776.61
   10:41:31.182.02-Jan-2020 4788.22 6148.79 85.51 1.00 467.51 2776.61
   10:41:31.382.02-Jan-2020 4788.22 6149.02 85.51 1.00 467.71 2776.61
   10:41:31.582.02-Jan-2020 4788.22 6145.15 85.51 1.00 467.91 2776.61
   10:41:31.782.02-Jan-2020 4788.22 6143.41 85.51 1.00 468.11 2776.61
   10:41:31.982.02-Jan-2020 4788.22 6143.41 85.51 1.00 468.31 2776.61
   10:41:32.183.02-Jan-2020 4788.22 6143.71 85.51 1.00 468.51 2776.61
   10:41:32.383.02-Jan-2020 4788.22 6151.39 85.51 1.00 468.71 2776.61
   10:41:32.583.02-Jan-2020 4788.22 6149.50 85.51 1.00 468.91 2776.61
   10:41:32.783.02-Jan-2020 4788.22 6144.93 85.51 1.00 469.11 2776.61
   10:41:32.983.02-Jan-2020 4788.22 6144.93 85.51 1.00 469.31 2776.61
   10:41:33.183.02-Jan-2020 4788.22 6145.82 85.51 1.00 469.51 2776.61
   10:41:33.383.02-Jan-2020 4788.22 6143.95 85.51 1.00 469.71 2776.61
   10:41:33.583.02-Jan-2020 4788.22 6144.46 85.51 1.00 469.91 2776.61
   10:41:33.783.02-Jan-2020 4788.22 6144.20 85.51 1.00 470.11 2776.61
   10:41:33.983.02-Jan-2020 4788.22 6144.20 85.51 1.00 470.31 2776.61
   10:41:34.183.02-Jan-2020 4788.22 6143.94 85.51 1.00 470.51 2776.61
   10:41:34.383.02-Jan-2020 4788.22 6144.75 85.51 1.00 470.71 2776.61
   10:41:34.583.02-Jan-2020 4788.22 6149.19 85.51 1.00 470.91 2776.61
   10:41:34.783.02-Jan-2020 4788.22 6149.94 85.51 1.00 471.11 2776.61
   10:41:34.983.02-Jan-2020 4788.22 6149.94 85.51 1.00 471.31 2776.61
   10:41:35.183.02-Jan-2020 4788.22 6144.26 85.51 1.00 471.51 2776.61
   10:41:35.383.02-Jan-2020 4788.22 6154.54 85.51 1.00 471.71 2776.61
   10:41:35.583.02-Jan-2020 4788.22 6146.11 85.51 1.00 471.91 2776.61
   10:41:35.783.02-Jan-2020 4788.22 6143.92 85.51 1.00 472.11 2776.61
   10:41:35.983.02-Jan-2020 4788.22 6143.92 85.51 1.00 472.31 2776.61
   10:41:36.183.02-Jan-2020 4788.22 6149.86 85.51 1.00 472.51 2776.61
   10:41:36.384.02-Jan-2020 4788.22 6145.79 85.51 1.00 472.71 2776.61
   10:41:36.584.02-Jan-2020 4788.22 6144.26 85.51 1.00 472.91 2776.61
   10:41:36.784.02-Jan-2020 4788.22 6152.03 85.51 1.00 473.11 2776.61
   10:41:36.984.02-Jan-2020 4788.22 6152.03 85.51 1.00 473.31 2776.61
   10:41:37.184.02-Jan-2020 4788.22 6144.09 85.51 1.00 473.51 2776.61
   10:41:37.384.02-Jan-2020 4788.22 6144.29 85.51 1.00 473.71 2776.61
   10:41:37.584.02-Jan-2020 4788.22 6150.29 85.51 1.00 473.91 2776.61
   10:41:37.784.02-Jan-2020 4788.22 6146.71 85.51 1.00 474.11 2776.61
   10:41:37.984.02-Jan-2020 4788.22 6146.71 85.51 1.00 474.31 2776.61
   10:41:38.184.02-Jan-2020 4788.22 6143.92 85.51 1.00 474.51 2776.61
   10:41:38.384.02-Jan-2020 4788.22 6142.89 85.51 1.00 474.71 2776.61
   10:41:38.584.02-Jan-2020 4788.22 6143.32 85.51 1.00 474.91 2776.61
   10:41:38.784.02-Jan-2020 4788.22 6153.09 85.51 1.00 475.11 2776.61
   10:41:38.984.02-Jan-2020 4788.22 6153.09 85.51 1.00 475.31 2776.61
   10:41:39.184.02-Jan-2020 4788.22 6144.71 85.51 1.00 475.51 2776.61
   10:41:39.384.02-Jan-2020 4788.22 6153.58 85.51 1.00 475.71 2776.61
   10:41:39.584.02-Jan-2020 4788.22 6146.71 85.51 1.00 475.91 2776.61
   10:41:39.784.02-Jan-2020 4788.22 6143.41 85.51 1.00 476.11 2776.61
   10:41:39.984.02-Jan-2020 4788.22 6143.41 85.51 1.00 476.31 2776.61
   10:41:40.184.02-Jan-2020 4788.22 6144.84 85.51 1.00 476.51 2776.61
   10:41:40.384.02-Jan-2020 4788.22 6144.04 85.50 1.00 476.71 2776.61
   10:41:40.585.02-Jan-2020 4788.22 6144.40 85.50 1.00 476.91 2776.61
   10:41:40.785.02-Jan-2020 4788.22 6145.15 85.50 1.00 477.11 2776.61
   10:41:40.985.02-Jan-2020 4788.22 6145.15 85.50 1.00 477.31 2776.61
   10:41:41.185.02-Jan-2020 4788.22 6151.45 85.50 1.00 477.51 2776.61
   10:41:41.385.02-Jan-2020 4788.22 6148.55 85.50 1.00 477.71 2776.61
   10:41:41.585.02-Jan-2020 4788.22 6145.50 85.50 1.00 477.91 2776.61
   10:41:41.785.02-Jan-2020 4788.22 6153.98 85.50 1.00 478.11 2776.61
   10:41:41.985.02-Jan-2020 4788.22 6153.98 85.50 1.00 478.31 2776.61
   10:41:42.185.02-Jan-2020 4788.22 6143.55 85.50 1.00 478.51 2776.61
   10:41:42.385.02-Jan-2020 4788.22 6153.31 85.50 1.00 478.71 2776.61
   10:41:42.585.02-Jan-2020 4788.22 6146.10 85.50 1.00 478.91 2776.61
   10:41:42.785.02-Jan-2020 4788.22 6143.68 85.50 1.00 479.11 2776.61
   10:41:42.985.02-Jan-2020 4788.22 6143.68 85.50 1.00 479.31 2776.61
   10:41:43.185.02-Jan-2020 4788.22 6150.05 85.50 1.00 479.51 2776.61
   10:41:43.385.02-Jan-2020 4788.22 6146.04 85.50 1.00 479.71 2776.61
   10:41:43.585.02-Jan-2020 4788.22 6143.92 85.50 1.00 479.91 2776.61
   10:41:43.785.02-Jan-2020 4788.22 6148.98 85.50 1.00 480.11 2776.61
   10:41:43.985.02-Jan-2020 4788.22 6148.98 85.50 1.00 480.31 2776.61
   10:41:44.185.02-Jan-2020 4788.22 6144.96 85.50 1.00 480.51 2776.61
   10:41:44.385.02-Jan-2020 4788.22 6143.46 85.50 1.00 480.71 2776.61
   10:41:44.585.02-Jan-2020 4788.22 6151.01 85.50 1.00 480.91 2776.61
   10:41:44.785.02-Jan-2020 4788.22 6147.04 85.50 1.00 481.11 2776.61
   10:41:44.986.02-Jan-2020 4788.22 6147.04 85.50 1.00 481.31 2776.61
   10:41:45.186.02-Jan-2020 4788.22 6154.31 85.50 1.00 481.51 2776.61
   10:41:45.386.02-Jan-2020 4788.22 6146.57 85.50 1.00 481.71 2776.61
   10:41:45.586.02-Jan-2020 4788.22 6143.56 85.50 1.00 481.91 2776.61
   10:41:45.786.02-Jan-2020 4788.22 6144.12 85.50 1.00 482.11 2776.61
   10:41:45.986.02-Jan-2020 4788.22 6144.12 85.50 1.00 482.31 2776.61
   10:41:46.186.02-Jan-2020 4788.22 6143.82 85.50 1.00 482.51 2776.61
   10:41:46.386.02-Jan-2020 4788.22 6143.99 85.50 1.00 482.71 2776.61
   10:41:46.586.02-Jan-2020 4788.22 6145.10 85.50 1.00 482.91 2776.61
