~Version Information
 VERS.                  2.0:   CWLS log ASCII Standard -VERSION 2.0
 WRAP.                   NO:   One line per depth step
~Well Information Block
#MNEM.UNIT     VALUE/NAME     DESCRIPTION
#---------     -----------    ---------------------------
 STRT.S             11:06:01 02-Jan-20: START TIME 11:06:01 02-Jan-20
 STOP.S             11:13:00 02-Jan-20: STOP TIME  11:13:00 02-Jan-20
 STEP.S                   0.00: STEP TIME
 NULL.                 -999.25: NULL VALUE
 MDS .        Operator Entered:  MAG DATA SOURCE
 UNIT.                     N/a:  LOGGING EQUIPMENT ID
 DCON.         Sperry Drilling:  DIRECTNL CONTR
 CNTY.                    Baku:  COUNTY NAME
 DOE .                     N/a:  DOE NUMBER
 RIG .                     DWG:  RIG NAME
 MWDS.                    Baku:  MWD SHOP
 REGN.                   EESSA:  REGION
 BASE.              Azerbaijan:  LOGGING EQUIPMENT BASE LOCATION
 UWI .                     N/a:  UNIQUE WELL IDENTIFIER
 API .                     N/a:  API NUMBER
 WTYP.                Deviated:  WELL TYPE
 COMP.     BP Exploration (Caspian Sea) Ltd.:  COMPANY
 SRVC.          TURAN DRILLING:  CONTRACTOR
 WELL.           E04 (Slot 23):  WELL NAME
 CTRY.              Azerbaijan:  COUNTRY NAME
 SON .        AZ-XX-0905715376:  JOB NUMBER
 FLD .                     ACG:  FIELD NAME
 PDAT.          Mean Sea Level:  PERMANENT DATUM
 FTOP.          Formation Tops:  FORM TOPS DESC
 ILTD.               Lithology:  INTERP LTH DESC
 SVYD.                  Survey:  SURVEY DESC
 DMOD.             Drill Model:  DRILL MOD DESC
 HPTY.       Minimum Curvature:  HOLE POS TYPE
 NREF.                    Grid:  NORTH REFERENCE
 SPUD.               21-Dec-19:  SPUD DATE
 DATE.      17.57.20 21-Dec-19:  END TIME
 STIM.      17.57.20 21-Dec-19:  START TIME
 DMF .             Drill Floor:  DRILL MEAS FROM
 DFST.                        :  DIST FSL TEXT
 DFWT.                        :  DIST FWL TEXT
 PROV.                        :  PROVINCE
 STAT.                        :  STATE
 LOC .                        :  LOCATION
 LMF .             Drill Floor:  LOG MEASURED FROM
 AGAP.m                  43.16:  AIR GAP
 DEP .m                3172.61:  DEPTH
 APD .m                  43.16:  DEPTH ABOVE PD
 WDMS.m                 176.20:  WD ELEV
 EGL .m                   0.00:  GROUND ELEVATION
 EPD .m                   0.00:  ELEVATION
 AZTC.deg                 6.49:  AZM TOTAL CORR
 GRDC.deg                 0.09:  GRID CORRECTION
 MDEC.deg                 6.58:  MAGNETIC DECL
 MDIP.deg                59.61:  MAGNETIC DIP
 MFLD.nT              50294.00:  MAGNETIC FIELD
 GVFD.g                   1.00:  GRAVITY FIELD
 VSDR.deg               235.12:  VERT SEC DIRECT
 TDD .m                   0.00:  TOTAL DEPTH (DRILLER)
 SDEP.m                   0.00:  START DEPTH
 UTMY.m             4448627.46:  UTM Y
 UTMX.m              514337.95:  UTM X
 LONG.deg                51.17:  LONGITUDE
 LATI.deg                40.17:  LATITUDE
 TVDS.m                  43.16:  TVDSS CORRECTN
 WHEW.m                  -5.41:  WELL HEAD E/W
 WHNS.m                  -0.12:  WELL HEAD N/S
 VSEW.m                  -5.41:  VERT SEC E/W
 VSNS.m                  -0.12:  VERT SEC N/S
 EKB .m                  43.16:  KB ELEVATION
 EDF .m                  43.16:  DF ELEVATION
 MAGU.                 1852276:  MAGUTM CHECKSUM
 VSC .                       0:  VS TO CLOSURE
~Parameter Information Block
#MNEM.UNIT       Value        Description
#---------     -----------    ---------------------------
 TCS .hr                125.29:  Time Ciculation Ended 
 DD1 .      Fakhraddin Guliyev:  Direct Drillr 1 
 DD2 .                   Sanan:  Direct Drillr 2 
 DEFF.%                   0.00:  % Det Eff 
 DRET.      04.26.40 27-Dec-19:  Drill End Time 
 DRST.      04.26.40 27-Dec-19:  Drill Start Tim 
 DTIM.hr                 80.10:  Time Drilling 
 EDEP.m                   0.00:  End Depth 
 ENG1.            Adlet Omarov:  Engineer 1 
 ENG2.         Almaz Almadatov:  Engineer 2 
 ETIM.      04.26.40 27-Dec-19:  End Time 
 HFLO.                      No:  High Flow 
 HPRE.                      No:  High Pressure 
 HTEM.                      No:  High Temp 
 HYDO.m                   1.85:  Hydro Offset 
 IMAX.deg                72.09:  Inc Max 
 IMIN.deg                59.07:  Inc Min 
 IMND.m                3901.43:  Inc Min Depth 
 IMXD.m                4753.85:  Inc Max Depth 
 LETM.      04.26.40 27-Dec-19:  Log End Time 
 LSTM.      04.26.40 27-Dec-19:  Log Start Time 
 OTIM.hr                187.88:  Time Operating 
 PMAX.psia            10202.94:  Press Op, Max 
 RUN .                     300:  Run Number 
 RRUN.                    0300:  Rig Run Number 
 SDEP.m                   0.00:  Start Depth 
 STIM.      04.26.40 27-Dec-19:  Start Time 
 SVER.                    9.20:  Sperry Version 
 MRT .                    HCIM:  Maximum Recorded Temperature 
 TTMX.degC               96.08:  Max Tool Temp 
~Curve Information Block
#MNEM.UNIT                 API CODE     Curve Description
#---------               -----------    ---------------------------
 TIME.HHMMSS            00 000 000 000:  GT Time & Date
 GTDEPTH.m              00 000 000 000:  GT Depth
 GTPQH.psia             00 000 000 000:  GT HR Quartz Pressure
 GTTQ.degC              00 000 000 000:  GT Quartz Temperature
 GTTN.NONE              00 000 000 000:  GT Test Number
 GTET.sec               00 000 000 000:  GT Elapsed Test Time
 GTTVD.m                00 000 000 000:  GT True Vertical Depth
#Other Information
#
#WARRANTY: Halliburton will use its best efforts to furnish customers with 
#accurate information and interpretations that are part of, and incident to, the services 
#provided.  However, Halliburton cannot and does not warrant the accuracy 
#or correctness of such information and interpretations.  Under no circumstances should any 
#such information or interpretation be relied upon as the sole basis for any drilling, 
#completion, production, or financial decision or any procedure involving any risk to the 
#safety of any drilling venture, drilling rig or its crew or any other third party.  The 
#Customer has full responsibility for all drilling, completion and production operation.  
#Halliburton makes no representations or warranties, either expressed or 
#implied, including, but not limited to, the implied warranties of merchantability or fitness 
#for a particular purpose, with respect to the services rendered.  In no event will 
#Halliburton be liable for failure to obtain any particular results or for 
#any damages, including, but not limited to, indirect, special or consequential damages, 
#resulting from the use of any information or interpretation provided by Halliburton.
#
~A           TIME           GTDEPTH  GTPQH  GTTQ  GTTN  GTET   GTTVD  
# ...
   11:10:37.193.02-Jan-2020 4790.04 3270.85 85.03 2.00 276.06 2777.18
   11:10:37.393.02-Jan-2020 4790.04 3270.85 85.03 2.00 276.26 2777.18
   11:10:37.593.02-Jan-2020 4790.04 3271.90 85.03 2.00 276.46 2777.18
   11:10:37.793.02-Jan-2020 4790.04 3272.04 85.03 2.00 276.67 2777.18
   11:10:37.993.02-Jan-2020 4790.04 3278.13 85.03 2.00 276.87 2777.18
   11:10:38.193.02-Jan-2020 4790.04 3294.19 85.03 2.00 277.07 2777.18
   11:10:38.393.02-Jan-2020 4790.04 3294.19 85.03 2.00 277.27 2777.18
   11:10:38.593.02-Jan-2020 4790.04 3294.23 85.03 2.00 277.47 2777.18
   11:10:38.793.02-Jan-2020 4790.04 3294.26 85.03 2.00 277.67 2777.18
   11:10:38.993.02-Jan-2020 4790.04 3294.31 85.03 2.00 277.87 2777.18
   11:10:39.193.02-Jan-2020 4790.04 3294.47 85.03 2.00 278.07 2777.18
   11:10:39.393.02-Jan-2020 4790.04 3294.47 85.03 2.00 278.27 2777.18
   11:10:39.593.02-Jan-2020 4790.04 3293.47 85.03 2.00 278.47 2777.18
   11:10:39.793.02-Jan-2020 4790.04 3294.48 85.03 2.00 278.67 2777.18
   11:10:39.993.02-Jan-2020 4790.04 3294.71 85.03 2.00 278.87 2777.18
   11:10:40.193.02-Jan-2020 4790.04 3294.90 85.03 2.00 279.07 2777.18
   11:10:40.393.02-Jan-2020 4790.04 3294.90 85.03 2.00 279.27 2777.18
   11:10:40.593.02-Jan-2020 4790.04 3295.02 85.04 2.00 279.47 2777.18
   11:10:40.794.02-Jan-2020 4790.04 3295.14 85.04 2.00 279.67 2777.18
   11:10:40.994.02-Jan-2020 4790.04 3293.73 85.04 2.00 279.87 2777.18
   11:10:41.194.02-Jan-2020 4790.04 3295.37 85.04 2.00 280.07 2777.18
   11:10:41.394.02-Jan-2020 4790.04 3295.37 85.04 2.00 280.27 2777.18
   11:10:41.594.02-Jan-2020 4790.04 3295.57 85.04 2.00 280.47 2777.18
   11:10:41.794.02-Jan-2020 4790.04 3295.12 85.04 2.00 280.67 2777.18
   11:10:41.994.02-Jan-2020 4790.04 3294.61 85.04 2.00 280.87 2777.18
   11:10:42.194.02-Jan-2020 4790.04 3295.95 85.04 2.00 281.07 2777.18
   11:10:42.394.02-Jan-2020 4790.04 3295.95 85.04 2.00 281.27 2777.18
   11:10:42.594.02-Jan-2020 4790.04 3296.06 85.04 2.00 281.47 2777.18
   11:10:42.794.02-Jan-2020 4790.04 3296.09 85.04 2.00 281.67 2777.18
   11:10:42.994.02-Jan-2020 4790.04 3294.62 85.04 2.00 281.87 2777.18
   11:10:43.194.02-Jan-2020 4790.04 3296.50 85.04 2.00 282.07 2777.18
   11:10:43.394.02-Jan-2020 4790.04 3296.50 85.04 2.00 282.27 2777.18
   11:10:43.594.02-Jan-2020 4790.04 3295.36 85.04 2.00 282.47 2777.18
   11:10:43.794.02-Jan-2020 4790.04 3296.46 85.04 2.00 282.67 2777.18
   11:10:43.994.02-Jan-2020 4790.04 3296.69 85.04 2.00 282.87 2777.18
   11:10:44.194.02-Jan-2020 4790.04 3296.92 85.04 2.00 283.07 2777.18
   11:10:44.394.02-Jan-2020 4790.04 3296.92 85.04 2.00 283.27 2777.18
   11:10:44.594.02-Jan-2020 4790.04 3297.03 85.04 2.00 283.47 2777.18
   11:10:44.794.02-Jan-2020 4790.04 3295.70 85.04 2.00 283.67 2777.18
   11:10:44.995.02-Jan-2020 4790.04 3297.50 85.04 2.00 283.87 2777.18
   11:10:45.195.02-Jan-2020 4790.04 3297.55 85.04 2.00 284.07 2777.18
   11:10:45.395.02-Jan-2020 4790.04 3297.55 85.04 2.00 284.27 2777.18
   11:10:45.595.02-Jan-2020 4790.04 3297.56 85.04 2.00 284.47 2777.18
   11:10:45.795.02-Jan-2020 4790.04 3297.80 85.04 2.00 284.67 2777.18
   11:10:45.995.02-Jan-2020 4790.04 3298.06 85.04 2.00 284.87 2777.18
   11:10:46.195.02-Jan-2020 4790.04 3298.08 85.04 2.00 285.07 2777.18
   11:10:46.395.02-Jan-2020 4790.04 3298.08 85.04 2.00 285.27 2777.18
   11:10:46.595.02-Jan-2020 4790.04 3298.28 85.04 2.00 285.47 2777.18
   11:10:46.795.02-Jan-2020 4790.04 3298.43 85.04 2.00 285.67 2777.18
   11:10:46.995.02-Jan-2020 4790.04 3298.60 85.04 2.00 285.87 2777.18
   11:10:47.195.02-Jan-2020 4790.04 3297.11 85.04 2.00 286.07 2777.18
   11:10:47.395.02-Jan-2020 4790.04 3297.11 85.04 2.00 286.27 2777.18
   11:10:47.595.02-Jan-2020 4790.04 3298.89 85.04 2.00 286.47 2777.18
   11:10:47.795.02-Jan-2020 4790.04 3299.05 85.04 2.00 286.67 2777.18
   11:10:47.995.02-Jan-2020 4790.04 3299.06 85.04 2.00 286.87 2777.18
   11:10:48.195.02-Jan-2020 4790.04 3298.67 85.04 2.00 287.07 2777.18
   11:10:48.395.02-Jan-2020 4790.04 3298.67 85.04 2.00 287.27 2777.18
   11:10:48.595.02-Jan-2020 4790.04 3299.44 85.04 2.00 287.47 2777.18
   11:10:48.795.02-Jan-2020 4790.04 3299.39 85.04 2.00 287.67 2777.18
   11:10:48.995.02-Jan-2020 4790.04 3299.51 85.04 2.00 287.87 2777.18
   11:10:49.195.02-Jan-2020 4790.04 3299.58 85.04 2.00 288.07 2777.18
   11:10:49.396.02-Jan-2020 4790.04 3299.58 85.04 2.00 288.27 2777.18
   11:10:49.596.02-Jan-2020 4790.04 3298.84 85.04 2.00 288.47 2777.18
   11:10:49.796.02-Jan-2020 4790.04 3300.15 85.04 2.00 288.67 2777.18
   11:10:49.996.02-Jan-2020 4790.04 3300.06 85.04 2.00 288.87 2777.18
   11:10:50.196.02-Jan-2020 4790.04 3300.16 85.04 2.00 289.07 2777.18
   11:10:50.396.02-Jan-2020 4790.04 3300.16 85.04 2.00 289.27 2777.18
   11:10:50.596.02-Jan-2020 4790.04 3298.73 85.04 2.00 289.47 2777.18
   11:10:50.796.02-Jan-2020 4790.04 3300.44 85.04 2.00 289.67 2777.18
   11:10:50.996.02-Jan-2020 4790.04 3300.42 85.04 2.00 289.87 2777.18
   11:10:51.196.02-Jan-2020 4790.04 3300.17 85.04 2.00 290.07 2777.18
   11:10:51.396.02-Jan-2020 4790.04 3300.17 85.04 2.00 290.27 2777.18
   11:10:51.596.02-Jan-2020 4790.04 3300.89 85.04 2.00 290.47 2777.18
   11:10:51.796.02-Jan-2020 4790.04 3300.89 85.04 2.00 290.67 2777.18
   11:10:51.996.02-Jan-2020 4790.04 3300.98 85.04 2.00 290.87 2777.18
   11:10:52.196.02-Jan-2020 4790.04 3301.05 85.04 2.00 291.07 2777.18
   11:10:52.396.02-Jan-2020 4790.04 3301.05 85.04 2.00 291.27 2777.18
   11:10:52.596.02-Jan-2020 4790.04 3299.76 85.04 2.00 291.47 2777.18
   11:10:52.796.02-Jan-2020 4790.04 3301.63 85.04 2.00 291.67 2777.18
   11:10:52.996.02-Jan-2020 4790.04 3301.50 85.04 2.00 291.87 2777.18
   11:10:53.196.02-Jan-2020 4790.04 3300.35 85.04 2.00 292.07 2777.18
   11:10:53.396.02-Jan-2020 4790.04 3300.35 85.04 2.00 292.27 2777.18
   11:10:53.597.02-Jan-2020 4790.04 3301.73 85.04 2.00 292.47 2777.18
   11:10:53.797.02-Jan-2020 4790.04 3301.93 85.04 2.00 292.67 2777.18
   11:10:53.997.02-Jan-2020 4790.04 3301.99 85.04 2.00 292.87 2777.18
   11:10:54.197.02-Jan-2020 4790.04 3302.02 85.04 2.00 293.07 2777.18
   11:10:54.397.02-Jan-2020 4790.04 3302.02 85.04 2.00 293.27 2777.18
   11:10:54.597.02-Jan-2020 4790.04 3302.29 85.04 2.00 293.47 2777.18
   11:10:54.797.02-Jan-2020 4790.04 3302.40 85.04 2.00 293.67 2777.18
   11:10:54.997.02-Jan-2020 4790.04 3300.94 85.04 2.00 293.87 2777.18
   11:10:55.197.02-Jan-2020 4790.04 3302.75 85.04 2.00 294.07 2777.18
   11:10:55.397.02-Jan-2020 4790.04 3302.75 85.04 2.00 294.27 2777.18
   11:10:55.597.02-Jan-2020 4790.04 3302.41 85.04 2.00 294.47 2777.18
   11:10:55.797.02-Jan-2020 4790.04 3301.74 85.04 2.00 294.67 2777.18
   11:10:55.997.02-Jan-2020 4790.04 3303.01 85.04 2.00 294.87 2777.18
   11:10:56.197.02-Jan-2020 4790.04 3302.98 85.04 2.00 295.07 2777.18
   11:10:56.397.02-Jan-2020 4790.04 3302.98 85.04 2.00 295.27 2777.18
   11:10:56.597.02-Jan-2020 4790.04 3303.16 85.04 2.00 295.47 2777.18
   11:10:56.797.02-Jan-2020 4790.04 3303.25 85.04 2.00 295.67 2777.18
   11:10:56.997.02-Jan-2020 4790.04 3301.84 85.04 2.00 295.87 2777.18
   11:10:57.197.02-Jan-2020 4790.04 3303.71 85.04 2.00 296.07 2777.18
   11:10:57.397.02-Jan-2020 4790.04 3303.71 85.04 2.00 296.27 2777.18
   11:10:57.597.02-Jan-2020 4790.04 3311.42 85.04 2.00 296.47 2777.18
   11:10:57.798.02-Jan-2020 4790.04 3311.40 85.04 2.00 296.67 2777.18
   11:10:57.998.02-Jan-2020 4790.04 3310.14 85.04 2.00 296.87 2777.18
   11:10:58.198.02-Jan-2020 4790.04 3311.29 85.04 2.00 297.07 2777.18
   11:10:58.398.02-Jan-2020 4790.04 3311.29 85.04 2.00 297.27 2777.18
   11:10:58.598.02-Jan-2020 4790.04 3311.60 85.04 2.00 297.47 2777.18
   11:10:58.798.02-Jan-2020 4790.04 3309.98 85.04 2.00 297.67 2777.18
   11:10:58.998.02-Jan-2020 4790.04 3311.74 85.04 2.00 297.87 2777.18
   11:10:59.198.02-Jan-2020 4790.04 3311.71 85.04 2.00 298.07 2777.18
   11:10:59.398.02-Jan-2020 4790.04 3311.71 85.04 2.00 298.27 2777.18
   11:10:59.598.02-Jan-2020 4790.04 3311.87 85.04 2.00 298.47 2777.18
   11:10:59.798.02-Jan-2020 4790.04 3311.96 85.04 2.00 298.67 2777.18
   11:10:59.998.02-Jan-2020 4790.04 3311.64 85.04 2.00 298.87 2777.18
