~Version Information
 VERS.                  2.0:   CWLS log ASCII Standard -VERSION 2.0
 WRAP.                   NO:   One line per depth step
~Well Information Block
#MNEM.UNIT     VALUE/NAME     DESCRIPTION
#---------     -----------    ---------------------------
 STRT.S             13:01:02 02-Jan-20: START TIME 13:01:02 02-Jan-20
 STOP.S             13:09:15 02-Jan-20: STOP TIME  13:09:15 02-Jan-20
 STEP.S                   0.00: STEP TIME
 NULL.                 -999.25: NULL VALUE
 MDS .        Operator Entered:  MAG DATA SOURCE
 UNIT.                     N/a:  LOGGING EQUIPMENT ID
 DCON.         Sperry Drilling:  DIRECTNL CONTR
 CNTY.                    Baku:  COUNTY NAME
 DOE .                     N/a:  DOE NUMBER
 RIG .                     DWG:  RIG NAME
 MWDS.                    Baku:  MWD SHOP
 REGN.                   EESSA:  REGION
 BASE.              Azerbaijan:  LOGGING EQUIPMENT BASE LOCATION
 UWI .                     N/a:  UNIQUE WELL IDENTIFIER
 API .                     N/a:  API NUMBER
 WTYP.                Deviated:  WELL TYPE
 COMP.     BP Exploration (Caspian Sea) Ltd.:  COMPANY
 SRVC.          TURAN DRILLING:  CONTRACTOR
 WELL.           E04 (Slot 23):  WELL NAME
 CTRY.              Azerbaijan:  COUNTRY NAME
 SON .        AZ-XX-0905715376:  JOB NUMBER
 FLD .                     ACG:  FIELD NAME
 PDAT.          Mean Sea Level:  PERMANENT DATUM
 FTOP.          Formation Tops:  FORM TOPS DESC
 ILTD.               Lithology:  INTERP LTH DESC
 SVYD.                  Survey:  SURVEY DESC
 DMOD.             Drill Model:  DRILL MOD DESC
 HPTY.       Minimum Curvature:  HOLE POS TYPE
 NREF.                    Grid:  NORTH REFERENCE
 SPUD.               21-Dec-19:  SPUD DATE
 DATE.      17.57.20 21-Dec-19:  END TIME
 STIM.      17.57.20 21-Dec-19:  START TIME
 DMF .             Drill Floor:  DRILL MEAS FROM
 DFST.                        :  DIST FSL TEXT
 DFWT.                        :  DIST FWL TEXT
 PROV.                        :  PROVINCE
 STAT.                        :  STATE
 LOC .                        :  LOCATION
 LMF .             Drill Floor:  LOG MEASURED FROM
 AGAP.m                  43.16:  AIR GAP
 DEP .m                3172.61:  DEPTH
 APD .m                  43.16:  DEPTH ABOVE PD
 WDMS.m                 176.20:  WD ELEV
 EGL .m                   0.00:  GROUND ELEVATION
 EPD .m                   0.00:  ELEVATION
 AZTC.deg                 6.49:  AZM TOTAL CORR
 GRDC.deg                 0.09:  GRID CORRECTION
 MDEC.deg                 6.58:  MAGNETIC DECL
 MDIP.deg                59.61:  MAGNETIC DIP
 MFLD.nT              50294.00:  MAGNETIC FIELD
 GVFD.g                   1.00:  GRAVITY FIELD
 VSDR.deg               235.12:  VERT SEC DIRECT
 TDD .m                   0.00:  TOTAL DEPTH (DRILLER)
 SDEP.m                   0.00:  START DEPTH
 UTMY.m             4448627.46:  UTM Y
 UTMX.m              514337.95:  UTM X
 LONG.deg                51.17:  LONGITUDE
 LATI.deg                40.17:  LATITUDE
 TVDS.m                  43.16:  TVDSS CORRECTN
 WHEW.m                  -5.41:  WELL HEAD E/W
 WHNS.m                  -0.12:  WELL HEAD N/S
 VSEW.m                  -5.41:  VERT SEC E/W
 VSNS.m                  -0.12:  VERT SEC N/S
 EKB .m                  43.16:  KB ELEVATION
 EDF .m                  43.16:  DF ELEVATION
 MAGU.                 1852276:  MAGUTM CHECKSUM
 VSC .                       0:  VS TO CLOSURE
~Parameter Information Block
#MNEM.UNIT       Value        Description
#---------     -----------    ---------------------------
 TCS .hr                125.29:  Time Ciculation Ended 
 DD1 .      Fakhraddin Guliyev:  Direct Drillr 1 
 DD2 .                   Sanan:  Direct Drillr 2 
 DEFF.%                   0.00:  % Det Eff 
 DRET.      04.26.40 27-Dec-19:  Drill End Time 
 DRST.      04.26.40 27-Dec-19:  Drill Start Tim 
 DTIM.hr                 80.10:  Time Drilling 
 EDEP.m                   0.00:  End Depth 
 ENG1.            Adlet Omarov:  Engineer 1 
 ENG2.         Almaz Almadatov:  Engineer 2 
 ETIM.      04.26.40 27-Dec-19:  End Time 
 HFLO.                      No:  High Flow 
 HPRE.                      No:  High Pressure 
 HTEM.                      No:  High Temp 
 HYDO.m                   1.85:  Hydro Offset 
 IMAX.deg                72.09:  Inc Max 
 IMIN.deg                59.07:  Inc Min 
 IMND.m                3901.43:  Inc Min Depth 
 IMXD.m                4753.85:  Inc Max Depth 
 LETM.      04.26.40 27-Dec-19:  Log End Time 
 LSTM.      04.26.40 27-Dec-19:  Log Start Time 
 OTIM.hr                187.88:  Time Operating 
 PMAX.psia            10202.94:  Press Op, Max 
 RUN .                     300:  Run Number 
 RRUN.                    0300:  Rig Run Number 
 SDEP.m                   0.00:  Start Depth 
 STIM.      04.26.40 27-Dec-19:  Start Time 
 SVER.                    9.20:  Sperry Version 
 MRT .                    HCIM:  Maximum Recorded Temperature 
 TTMX.degC               96.08:  Max Tool Temp 
~Curve Information Block
#MNEM.UNIT                 API CODE     Curve Description
#---------               -----------    ---------------------------
 TIME.HHMMSS            00 000 000 000:  GT Time & Date
 GTDEPTH.m              00 000 000 000:  GT Depth
 GTPQH.psia             00 000 000 000:  GT HR Quartz Pressure
 GTTQ.degC              00 000 000 000:  GT Quartz Temperature
 GTTN.NONE              00 000 000 000:  GT Test Number
 GTET.sec               00 000 000 000:  GT Elapsed Test Time
 GTTVD.m                00 000 000 000:  GT True Vertical Depth
#Other Information
#
#WARRANTY: Halliburton will use its best efforts to furnish customers with 
#accurate information and interpretations that are part of, and incident to, the services 
#provided.  However, Halliburton cannot and does not warrant the accuracy 
#or correctness of such information and interpretations.  Under no circumstances should any 
#such information or interpretation be relied upon as the sole basis for any drilling, 
#completion, production, or financial decision or any procedure involving any risk to the 
#safety of any drilling venture, drilling rig or its crew or any other third party.  The 
#Customer has full responsibility for all drilling, completion and production operation.  
#Halliburton makes no representations or warranties, either expressed or 
#implied, including, but not limited to, the implied warranties of merchantability or fitness 
#for a particular purpose, with respect to the services rendered.  In no event will 
#Halliburton be liable for failure to obtain any particular results or for 
#any damages, including, but not limited to, indirect, special or consequential damages, 
#resulting from the use of any information or interpretation provided by Halliburton.
#
~A           TIME           GTDEPTH  GTPQH  GTTQ  GTTN  GTET   GTTVD  
# ...
   13:02:57.106.02-Jan-2020 4774.33 2480.98 83.92 3.00 115.01 2772.29
   13:02:57.306.02-Jan-2020 4774.33 2480.98 83.92 3.00 115.21 2772.29
   13:02:57.506.02-Jan-2020 4774.33 2481.06 83.92 3.00 115.41 2772.29
   13:02:57.706.02-Jan-2020 4774.33 2479.77 83.92 3.00 115.61 2772.29
   13:02:57.906.02-Jan-2020 4774.33 2480.92 83.92 3.00 115.81 2772.29
   13:02:58.106.02-Jan-2020 4774.33 2481.43 83.92 3.00 116.01 2772.29
   13:02:58.306.02-Jan-2020 4774.33 2481.43 83.92 3.00 116.21 2772.29
   13:02:58.506.02-Jan-2020 4774.33 2479.52 83.92 3.00 116.41 2772.29
   13:02:58.706.02-Jan-2020 4774.33 2481.66 83.92 3.00 116.61 2772.29
   13:02:58.906.02-Jan-2020 4774.33 2481.51 83.92 3.00 116.81 2772.29
   13:02:59.106.02-Jan-2020 4774.33 2481.75 83.92 3.00 117.01 2772.29
   13:02:59.306.02-Jan-2020 4774.33 2481.75 83.92 3.00 117.21 2772.29
   13:02:59.506.02-Jan-2020 4774.33 2481.79 83.92 3.00 117.41 2772.29
   13:02:59.706.02-Jan-2020 4774.33 2481.89 83.92 3.00 117.61 2772.29
   13:02:59.906.02-Jan-2020 4774.33 2504.17 83.92 3.00 117.81 2772.29
   13:03:00.106.02-Jan-2020 4774.33 2508.48 83.92 3.00 118.01 2772.29
   13:03:00.306.02-Jan-2020 4774.33 2508.48 83.92 3.00 118.21 2772.29
   13:03:00.506.02-Jan-2020 4774.33 2508.79 83.92 3.00 118.41 2772.29
   13:03:00.706.02-Jan-2020 4774.33 2508.70 83.92 3.00 118.61 2772.29
   13:03:00.906.02-Jan-2020 4774.33 2506.84 83.92 3.00 118.81 2772.29
   13:03:01.106.02-Jan-2020 4774.33 2508.74 83.92 3.00 119.01 2772.29
   13:03:01.306.02-Jan-2020 4774.33 2508.74 83.92 3.00 119.21 2772.29
   13:03:01.506.02-Jan-2020 4774.33 2508.81 83.92 3.00 119.41 2772.29
   13:03:01.706.02-Jan-2020 4774.33 2508.85 83.92 3.00 119.61 2772.29
   13:03:01.906.02-Jan-2020 4774.33 2508.90 83.92 3.00 119.81 2772.29
   13:03:02.106.02-Jan-2020 4774.33 2507.06 83.92 3.00 120.01 2772.29
   13:03:02.306.02-Jan-2020 4774.33 2507.06 83.92 3.00 120.21 2772.29
   13:03:02.507.02-Jan-2020 4774.33 2508.98 83.92 3.00 120.41 2772.29
   13:03:02.707.02-Jan-2020 4774.33 2509.08 83.92 3.00 120.61 2772.29
   13:03:02.907.02-Jan-2020 4774.33 2508.71 83.92 3.00 120.81 2772.29
   13:03:03.107.02-Jan-2020 4774.33 2507.54 83.92 3.00 121.01 2772.29
   13:03:03.307.02-Jan-2020 4774.33 2507.54 83.92 3.00 121.21 2772.29
   13:03:03.507.02-Jan-2020 4774.33 2509.11 83.92 3.00 121.41 2772.29
   13:03:03.707.02-Jan-2020 4774.33 2507.70 83.92 3.00 121.61 2772.29
   13:03:03.907.02-Jan-2020 4774.33 2508.69 83.92 3.00 121.81 2772.29
   13:03:04.107.02-Jan-2020 4774.33 2509.15 83.92 3.00 122.01 2772.29
   13:03:04.307.02-Jan-2020 4774.33 2509.15 83.92 3.00 122.21 2772.29
   13:03:04.507.02-Jan-2020 4774.33 2507.77 83.92 3.00 122.41 2772.29
   13:03:04.707.02-Jan-2020 4774.33 2509.41 83.92 3.00 122.61 2772.29
   13:03:04.907.02-Jan-2020 4774.33 2509.34 83.92 3.00 122.81 2772.29
   13:03:05.107.02-Jan-2020 4774.33 2509.09 83.92 3.00 123.01 2772.29
   13:03:05.307.02-Jan-2020 4774.33 2509.09 83.92 3.00 123.21 2772.29
   13:03:05.507.02-Jan-2020 4774.33 2509.57 83.92 3.00 123.41 2772.29
   13:03:05.707.02-Jan-2020 4774.33 2509.51 83.92 3.00 123.61 2772.29
   13:03:05.907.02-Jan-2020 4774.33 2509.59 83.92 3.00 123.81 2772.29
   13:03:06.107.02-Jan-2020 4774.33 2509.65 83.92 3.00 124.01 2772.29
   13:03:06.307.02-Jan-2020 4774.33 2509.65 83.92 3.00 124.21 2772.29
   13:03:06.507.02-Jan-2020 4774.33 2509.78 83.92 3.00 124.41 2772.29
   13:03:06.707.02-Jan-2020 4774.33 2509.88 83.92 3.00 124.61 2772.29
   13:03:06.907.02-Jan-2020 4774.33 2507.98 83.92 3.00 124.81 2772.29
   13:03:07.107.02-Jan-2020 4774.33 2510.21 83.92 3.00 125.01 2772.29
   13:03:07.307.02-Jan-2020 4774.33 2510.21 83.92 3.00 125.21 2772.29
   13:03:07.507.02-Jan-2020 4774.33 2510.08 83.92 3.00 125.41 2772.29
   13:03:07.707.02-Jan-2020 4774.33 2508.85 83.92 3.00 125.61 2772.29
   13:03:07.907.02-Jan-2020 4774.33 2509.94 83.92 3.00 125.81 2772.29
   13:03:08.107.02-Jan-2020 4774.33 2510.43 83.92 3.00 126.01 2772.29
   13:03:08.307.02-Jan-2020 4774.33 2510.43 83.92 3.00 126.21 2772.29
   13:03:08.507.02-Jan-2020 4774.33 2510.50 83.92 3.00 126.41 2772.29
   13:03:08.707.02-Jan-2020 4774.33 2510.57 83.92 3.00 126.61 2772.29
   13:03:08.907.02-Jan-2020 4774.33 2510.28 83.92 3.00 126.81 2772.29
   13:03:09.107.02-Jan-2020 4774.33 2509.23 83.92 3.00 127.01 2772.29
   13:03:09.307.02-Jan-2020 4774.33 2509.23 83.92 3.00 127.21 2772.29
   13:03:09.507.02-Jan-2020 4774.33 2510.82 83.92 3.00 127.41 2772.29
   13:03:09.707.02-Jan-2020 4774.33 2510.88 83.92 3.00 127.61 2772.29
   13:03:09.907.02-Jan-2020 4774.33 2509.53 83.92 3.00 127.81 2772.29
   13:03:10.107.02-Jan-2020 4774.33 2510.61 83.92 3.00 128.01 2772.29
   13:03:10.307.02-Jan-2020 4774.33 2510.61 83.92 3.00 128.21 2772.29
   13:03:10.507.02-Jan-2020 4774.33 2511.18 83.92 3.00 128.41 2772.29
   13:03:10.707.02-Jan-2020 4774.33 2509.21 83.92 3.00 128.61 2772.29
   13:03:10.907.02-Jan-2020 4774.33 2511.49 83.92 3.00 128.81 2772.29
   13:03:11.107.02-Jan-2020 4774.33 2511.39 83.92 3.00 129.01 2772.29
   13:03:11.307.02-Jan-2020 4774.33 2511.39 83.92 3.00 129.21 2772.29
   13:03:11.507.02-Jan-2020 4774.33 2510.07 83.92 3.00 129.41 2772.29
   13:03:11.707.02-Jan-2020 4774.33 2511.11 83.92 3.00 129.61 2772.29
   13:03:11.907.02-Jan-2020 4774.33 2511.62 83.92 3.00 129.81 2772.29
   13:03:12.107.02-Jan-2020 4774.33 2511.75 83.92 3.00 130.01 2772.29
   13:03:12.307.02-Jan-2020 4774.33 2511.75 83.92 3.00 130.21 2772.29
   13:03:12.507.02-Jan-2020 4774.33 2512.08 83.92 3.00 130.41 2772.29
   13:03:12.707.02-Jan-2020 4774.33 2511.93 83.92 3.00 130.61 2772.29
   13:03:12.907.02-Jan-2020 4774.33 2512.06 83.92 3.00 130.81 2772.29
   13:03:13.107.02-Jan-2020 4774.33 2512.11 83.92 3.00 131.01 2772.29
   13:03:13.307.02-Jan-2020 4774.33 2512.11 83.92 3.00 131.21 2772.29
   13:03:13.507.02-Jan-2020 4774.33 2512.17 83.92 3.00 131.41 2772.29
   13:03:13.707.02-Jan-2020 4774.33 2512.27 83.92 3.00 131.61 2772.29
   13:03:13.907.02-Jan-2020 4774.33 2511.92 83.92 3.00 131.81 2772.29
   13:03:14.107.02-Jan-2020 4774.33 2510.97 83.92 3.00 132.01 2772.29
   13:03:14.307.02-Jan-2020 4774.33 2510.97 83.92 3.00 132.21 2772.29
   13:03:14.507.02-Jan-2020 4774.33 2512.50 83.92 3.00 132.41 2772.29
   13:03:14.707.02-Jan-2020 4774.33 2512.61 83.92 3.00 132.61 2772.29
   13:03:14.907.02-Jan-2020 4774.33 2512.66 83.92 3.00 132.81 2772.29
   13:03:15.107.02-Jan-2020 4774.33 2510.77 83.92 3.00 133.01 2772.29
   13:03:15.307.02-Jan-2020 4774.33 2510.77 83.92 3.00 133.21 2772.29
   13:03:15.507.02-Jan-2020 4774.33 2512.72 83.92 3.00 133.41 2772.29
   13:03:15.707.02-Jan-2020 4774.33 2512.87 83.92 3.00 133.61 2772.29
   13:03:15.907.02-Jan-2020 4774.33 2511.04 83.92 3.00 133.81 2772.29
   13:03:16.107.02-Jan-2020 4774.33 2512.93 83.92 3.00 134.01 2772.29
   13:03:16.307.02-Jan-2020 4774.33 2512.93 83.92 3.00 134.21 2772.29
   13:03:16.507.02-Jan-2020 4774.33 2513.19 83.92 3.00 134.41 2772.29
   13:03:16.707.02-Jan-2020 4774.33 2513.16 83.92 3.00 134.61 2772.29
   13:03:16.907.02-Jan-2020 4774.33 2511.41 83.92 3.00 134.81 2772.29
   13:03:17.107.02-Jan-2020 4774.33 2513.36 83.92 3.00 135.01 2772.29
   13:03:17.307.02-Jan-2020 4774.33 2513.36 83.92 3.00 135.21 2772.29
   13:03:17.507.02-Jan-2020 4774.33 2513.11 83.92 3.00 135.41 2772.29
   13:03:17.707.02-Jan-2020 4774.33 2512.00 83.92 3.00 135.61 2772.29
   13:03:17.907.02-Jan-2020 4774.33 2513.67 83.92 3.00 135.81 2772.29
   13:03:18.107.02-Jan-2020 4774.33 2513.67 83.92 3.00 136.01 2772.29
   13:03:18.307.02-Jan-2020 4774.33 2513.67 83.92 3.00 136.21 2772.29
   13:03:18.507.02-Jan-2020 4774.33 2513.77 83.92 3.00 136.41 2772.29
   13:03:18.707.02-Jan-2020 4774.33 2513.81 83.92 3.00 136.61 2772.29
   13:03:18.907.02-Jan-2020 4774.33 2512.05 83.92 3.00 136.81 2772.29
   13:03:19.107.02-Jan-2020 4774.33 2514.06 83.92 3.00 137.01 2772.29
   13:03:19.307.02-Jan-2020 4774.33 2514.06 83.92 3.00 137.21 2772.29
   13:03:19.507.02-Jan-2020 4774.33 2513.73 83.92 3.00 137.41 2772.29
   13:03:19.707.02-Jan-2020 4774.33 2512.63 83.92 3.00 137.61 2772.29
   13:03:19.907.02-Jan-2020 4774.33 2514.24 83.92 3.00 137.81 2772.29
