~Version Information
 VERS.                  2.0:   CWLS log ASCII Standard -VERSION 2.0
 WRAP.                   NO:   One line per depth step
~Well Information Block
#MNEM.UNIT     VALUE/NAME     DESCRIPTION
#---------     -----------    ---------------------------
 STRT.S             11:06:01 02-Jan-20: START TIME 11:06:01 02-Jan-20
 STOP.S             11:13:00 02-Jan-20: STOP TIME  11:13:00 02-Jan-20
 STEP.S                   0.00: STEP TIME
 NULL.                 -999.25: NULL VALUE
 MDS .        Operator Entered:  MAG DATA SOURCE
 UNIT.                     N/a:  LOGGING EQUIPMENT ID
 DCON.         Sperry Drilling:  DIRECTNL CONTR
 CNTY.                    Baku:  COUNTY NAME
 DOE .                     N/a:  DOE NUMBER
 RIG .                     DWG:  RIG NAME
 MWDS.                    Baku:  MWD SHOP
 REGN.                   EESSA:  REGION
 BASE.              Azerbaijan:  LOGGING EQUIPMENT BASE LOCATION
 UWI .                     N/a:  UNIQUE WELL IDENTIFIER
 API .                     N/a:  API NUMBER
 WTYP.                Deviated:  WELL TYPE
 COMP.     BP Exploration (Caspian Sea) Ltd.:  COMPANY
 SRVC.          TURAN DRILLING:  CONTRACTOR
 WELL.           E04 (Slot 23):  WELL NAME
 CTRY.              Azerbaijan:  COUNTRY NAME
 SON .        AZ-XX-0905715376:  JOB NUMBER
 FLD .                     ACG:  FIELD NAME
 PDAT.          Mean Sea Level:  PERMANENT DATUM
 FTOP.          Formation Tops:  FORM TOPS DESC
 ILTD.               Lithology:  INTERP LTH DESC
 SVYD.                  Survey:  SURVEY DESC
 DMOD.             Drill Model:  DRILL MOD DESC
 HPTY.       Minimum Curvature:  HOLE POS TYPE
 NREF.                    Grid:  NORTH REFERENCE
 SPUD.               21-Dec-19:  SPUD DATE
 DATE.      17.57.20 21-Dec-19:  END TIME
 STIM.      17.57.20 21-Dec-19:  START TIME
 DMF .             Drill Floor:  DRILL MEAS FROM
 DFST.                        :  DIST FSL TEXT
 DFWT.                        :  DIST FWL TEXT
 PROV.                        :  PROVINCE
 STAT.                        :  STATE
 LOC .                        :  LOCATION
 LMF .             Drill Floor:  LOG MEASURED FROM
 AGAP.m                  43.16:  AIR GAP
 DEP .m                3172.61:  DEPTH
 APD .m                  43.16:  DEPTH ABOVE PD
 WDMS.m                 176.20:  WD ELEV
 EGL .m                   0.00:  GROUND ELEVATION
 EPD .m                   0.00:  ELEVATION
 AZTC.deg                 6.49:  AZM TOTAL CORR
 GRDC.deg                 0.09:  GRID CORRECTION
 MDEC.deg                 6.58:  MAGNETIC DECL
 MDIP.deg                59.61:  MAGNETIC DIP
 MFLD.nT              50294.00:  MAGNETIC FIELD
 GVFD.g                   1.00:  GRAVITY FIELD
 VSDR.deg               235.12:  VERT SEC DIRECT
 TDD .m                   0.00:  TOTAL DEPTH (DRILLER)
 SDEP.m                   0.00:  START DEPTH
 UTMY.m             4448627.46:  UTM Y
 UTMX.m              514337.95:  UTM X
 LONG.deg                51.17:  LONGITUDE
 LATI.deg                40.17:  LATITUDE
 TVDS.m                  43.16:  TVDSS CORRECTN
 WHEW.m                  -5.41:  WELL HEAD E/W
 WHNS.m                  -0.12:  WELL HEAD N/S
 VSEW.m                  -5.41:  VERT SEC E/W
 VSNS.m                  -0.12:  VERT SEC N/S
 EKB .m                  43.16:  KB ELEVATION
 EDF .m                  43.16:  DF ELEVATION
 MAGU.                 1852276:  MAGUTM CHECKSUM
 VSC .                       0:  VS TO CLOSURE
~Parameter Information Block
#MNEM.UNIT       Value        Description
#---------     -----------    ---------------------------
 TCS .hr                125.29:  Time Ciculation Ended 
 DD1 .      Fakhraddin Guliyev:  Direct Drillr 1 
 DD2 .                   Sanan:  Direct Drillr 2 
 DEFF.%                   0.00:  % Det Eff 
 DRET.      04.26.40 27-Dec-19:  Drill End Time 
 DRST.      04.26.40 27-Dec-19:  Drill Start Tim 
 DTIM.hr                 80.10:  Time Drilling 
 EDEP.m                   0.00:  End Depth 
 ENG1.            Adlet Omarov:  Engineer 1 
 ENG2.         Almaz Almadatov:  Engineer 2 
 ETIM.      04.26.40 27-Dec-19:  End Time 
 HFLO.                      No:  High Flow 
 HPRE.                      No:  High Pressure 
 HTEM.                      No:  High Temp 
 HYDO.m                   1.85:  Hydro Offset 
 IMAX.deg                72.09:  Inc Max 
 IMIN.deg                59.07:  Inc Min 
 IMND.m                3901.43:  Inc Min Depth 
 IMXD.m                4753.85:  Inc Max Depth 
 LETM.      04.26.40 27-Dec-19:  Log End Time 
 LSTM.      04.26.40 27-Dec-19:  Log Start Time 
 OTIM.hr                187.88:  Time Operating 
 PMAX.psia            10202.94:  Press Op, Max 
 RUN .                     300:  Run Number 
 RRUN.                    0300:  Rig Run Number 
 SDEP.m                   0.00:  Start Depth 
 STIM.      04.26.40 27-Dec-19:  Start Time 
 SVER.                    9.20:  Sperry Version 
 MRT .                    HCIM:  Maximum Recorded Temperature 
 TTMX.degC               96.08:  Max Tool Temp 
~Curve Information Block
#MNEM.UNIT                 API CODE     Curve Description
#---------               -----------    ---------------------------
 TIME.HHMMSS            00 000 000 000:  GT Time & Date
 GTDEPTH.m              00 000 000 000:  GT Depth
 GTPQH.psia             00 000 000 000:  GT HR Quartz Pressure
 GTTQ.degC              00 000 000 000:  GT Quartz Temperature
 GTTN.NONE              00 000 000 000:  GT Test Number
 GTET.sec               00 000 000 000:  GT Elapsed Test Time
 GTTVD.m                00 000 000 000:  GT True Vertical Depth
#Other Information
#
#WARRANTY: Halliburton will use its best efforts to furnish customers with 
#accurate information and interpretations that are part of, and incident to, the services 
#provided.  However, Halliburton cannot and does not warrant the accuracy 
#or correctness of such information and interpretations.  Under no circumstances should any 
#such information or interpretation be relied upon as the sole basis for any drilling, 
#completion, production, or financial decision or any procedure involving any risk to the 
#safety of any drilling venture, drilling rig or its crew or any other third party.  The 
#Customer has full responsibility for all drilling, completion and production operation.  
#Halliburton makes no representations or warranties, either expressed or 
#implied, including, but not limited to, the implied warranties of merchantability or fitness 
#for a particular purpose, with respect to the services rendered.  In no event will 
#Halliburton be liable for failure to obtain any particular results or for 
#any damages, including, but not limited to, indirect, special or consequential damages, 
#resulting from the use of any information or interpretation provided by Halliburton.
#
~A           TIME           GTDEPTH  GTPQH  GTTQ  GTTN  GTET   GTTVD  
# ...
   11:07:10.144.02-Jan-2020 4790.04 5177.96 85.16 2.00  69.02 2777.18
   11:07:10.344.02-Jan-2020 4790.04 5177.96 85.16 2.00  69.22 2777.18
   11:07:10.544.02-Jan-2020 4790.04 5193.50 85.16 2.00  69.42 2777.18
   11:07:10.744.02-Jan-2020 4790.04 5194.47 85.16 2.00  69.62 2777.18
   11:07:10.944.02-Jan-2020 4790.04 5193.58 85.16 2.00  69.82 2777.18
   11:07:11.144.02-Jan-2020 4790.04 5192.60 85.16 2.00  70.02 2777.18
   11:07:11.344.02-Jan-2020 4790.04 5192.60 85.16 2.00  70.22 2777.18
   11:07:11.544.02-Jan-2020 4790.04 5191.90 85.16 2.00  70.42 2777.18
   11:07:11.744.02-Jan-2020 4790.04 5191.31 85.16 2.00  70.62 2777.18
   11:07:11.944.02-Jan-2020 4790.04 5190.85 85.16 2.00  70.82 2777.18
   11:07:12.144.02-Jan-2020 4790.04 5190.34 85.16 2.00  71.02 2777.18
   11:07:12.345.02-Jan-2020 4790.04 5190.34 85.16 2.00  71.22 2777.18
   11:07:12.545.02-Jan-2020 4790.04 5189.45 85.16 2.00  71.42 2777.18
   11:07:12.745.02-Jan-2020 4790.04 5189.10 85.16 2.00  71.62 2777.18
   11:07:12.945.02-Jan-2020 4790.04 5186.84 85.16 2.00  71.82 2777.18
   11:07:13.145.02-Jan-2020 4790.04 5188.43 85.16 2.00  72.02 2777.18
   11:07:13.345.02-Jan-2020 4790.04 5188.43 85.16 2.00  72.22 2777.18
   11:07:13.545.02-Jan-2020 4790.04 5187.67 85.16 2.00  72.42 2777.18
   11:07:13.745.02-Jan-2020 4790.04 5187.22 85.16 2.00  72.62 2777.18
   11:07:13.945.02-Jan-2020 4790.04 5185.33 85.16 2.00  72.82 2777.18
   11:07:14.145.02-Jan-2020 4790.04 5186.15 85.16 2.00  73.02 2777.18
   11:07:14.345.02-Jan-2020 4790.04 5186.15 85.16 2.00  73.22 2777.18
   11:07:14.545.02-Jan-2020 4790.04 5185.91 85.17 2.00  73.42 2777.18
   11:07:14.745.02-Jan-2020 4790.04 5185.45 85.17 2.00  73.62 2777.18
   11:07:14.945.02-Jan-2020 4790.04 5185.16 85.17 2.00  73.82 2777.18
   11:07:15.145.02-Jan-2020 4790.04 5182.99 85.17 2.00  74.02 2777.18
   11:07:15.345.02-Jan-2020 4790.04 5182.99 85.17 2.00  74.22 2777.18
   11:07:15.545.02-Jan-2020 4790.04 5184.26 85.17 2.00  74.42 2777.18
   11:07:15.745.02-Jan-2020 4790.04 5184.03 85.17 2.00  74.62 2777.18
   11:07:15.945.02-Jan-2020 4790.04 5181.72 85.17 2.00  74.82 2777.18
   11:07:16.145.02-Jan-2020 4790.04 5183.43 85.17 2.00  75.02 2777.18
   11:07:16.345.02-Jan-2020 4790.04 5183.43 85.17 2.00  75.22 2777.18
   11:07:16.546.02-Jan-2020 4790.04 5182.92 85.17 2.00  75.42 2777.18
   11:07:16.746.02-Jan-2020 4790.04 5180.70 85.17 2.00  75.62 2777.18
   11:07:16.946.02-Jan-2020 4790.04 5182.49 85.17 2.00  75.82 2777.18
   11:07:17.146.02-Jan-2020 4790.04 5182.17 85.17 2.00  76.02 2777.18
   11:07:17.346.02-Jan-2020 4790.04 5182.17 85.17 2.00  76.22 2777.18
   11:07:17.546.02-Jan-2020 4790.04 5181.74 85.17 2.00  76.42 2777.18
   11:07:17.746.02-Jan-2020 4790.04 5181.49 85.17 2.00  76.62 2777.18
   11:07:17.946.02-Jan-2020 4790.04 5179.40 85.17 2.00  76.82 2777.18
   11:07:18.146.02-Jan-2020 4790.04 5181.32 85.17 2.00  77.02 2777.18
   11:07:18.346.02-Jan-2020 4790.04 5181.32 85.17 2.00  77.22 2777.18
   11:07:18.546.02-Jan-2020 4790.04 5179.23 85.17 2.00  77.42 2777.18
   11:07:18.746.02-Jan-2020 4790.04 5180.27 85.17 2.00  77.62 2777.18
   11:07:18.946.02-Jan-2020 4790.04 5180.25 85.17 2.00  77.82 2777.18
   11:07:19.146.02-Jan-2020 4790.04 5180.29 85.17 2.00  78.02 2777.18
   11:07:19.346.02-Jan-2020 4790.04 5180.29 85.17 2.00  78.22 2777.18
   11:07:19.546.02-Jan-2020 4790.04 5179.86 85.17 2.00  78.42 2777.18
   11:07:19.746.02-Jan-2020 4790.04 5179.68 85.17 2.00  78.62 2777.18
   11:07:19.946.02-Jan-2020 4790.04 5179.53 85.17 2.00  78.82 2777.18
   11:07:20.146.02-Jan-2020 4790.04 5179.37 85.17 2.00  79.02 2777.18
   11:07:20.346.02-Jan-2020 4790.04 5179.37 85.17 2.00  79.22 2777.18
   11:07:20.546.02-Jan-2020 4790.04 5179.15 85.17 2.00  79.42 2777.18
   11:07:20.746.02-Jan-2020 4790.04 5178.88 85.17 2.00  79.62 2777.18
   11:07:20.947.02-Jan-2020 4790.04 5178.86 85.17 2.00  79.82 2777.18
   11:07:21.147.02-Jan-2020 4790.04 5178.49 85.17 2.00  80.02 2777.18
   11:07:21.347.02-Jan-2020 4790.04 5178.49 85.17 2.00  80.22 2777.18
   11:07:21.547.02-Jan-2020 4790.04 5178.33 85.17 2.00  80.42 2777.18
   11:07:21.747.02-Jan-2020 4790.04 5177.99 85.17 2.00  80.62 2777.18
   11:07:21.947.02-Jan-2020 4790.04 5177.99 85.17 2.00  80.82 2777.18
   11:07:22.147.02-Jan-2020 4790.04 5177.68 85.17 2.00  81.02 2777.18
   11:07:22.347.02-Jan-2020 4790.04 5177.68 85.17 2.00  81.22 2777.18
   11:07:22.547.02-Jan-2020 4790.04 5177.31 85.17 2.00  81.42 2777.18
   11:07:22.747.02-Jan-2020 4790.04 5177.51 85.17 2.00  81.62 2777.18
   11:07:22.947.02-Jan-2020 4790.04 5177.52 85.17 2.00  81.82 2777.18
   11:07:23.147.02-Jan-2020 4790.04 5177.30 85.17 2.00  82.02 2777.18
   11:07:23.347.02-Jan-2020 4790.04 5177.30 85.17 2.00  82.22 2777.18
   11:07:23.547.02-Jan-2020 4790.04 5175.65 85.17 2.00  82.42 2777.18
   11:07:23.747.02-Jan-2020 4790.04 5177.36 85.17 2.00  82.62 2777.18
   11:07:23.947.02-Jan-2020 4790.04 5177.07 85.17 2.00  82.82 2777.18
   11:07:24.147.02-Jan-2020 4790.04 5175.45 85.17 2.00  83.02 2777.18
   11:07:24.347.02-Jan-2020 4790.04 5175.45 85.17 2.00  83.22 2777.18
   11:07:24.547.02-Jan-2020 4790.04 5176.93 85.17 2.00  83.42 2777.18
   11:07:24.747.02-Jan-2020 4790.04 5177.08 85.17 2.00  83.62 2777.18
   11:07:24.947.02-Jan-2020 4790.04 5176.82 85.17 2.00  83.82 2777.18
   11:07:25.148.02-Jan-2020 4790.04 5176.77 85.17 2.00  84.02 2777.18
   11:07:25.348.02-Jan-2020 4790.04 5176.77 85.17 2.00  84.22 2777.18
   11:07:25.548.02-Jan-2020 4790.04 5174.77 85.17 2.00  84.42 2777.18
   11:07:25.748.02-Jan-2020 4790.04 5177.08 85.17 2.00  84.62 2777.18
   11:07:25.948.02-Jan-2020 4790.04 5176.74 85.17 2.00  84.82 2777.18
   11:07:26.148.02-Jan-2020 4790.04 5176.27 85.17 2.00  85.02 2777.18
   11:07:26.348.02-Jan-2020 4790.04 5176.27 85.17 2.00  85.22 2777.18
   11:07:26.548.02-Jan-2020 4790.04 5176.79 85.17 2.00  85.42 2777.18
   11:07:26.748.02-Jan-2020 4790.04 5176.61 85.17 2.00  85.62 2777.18
   11:07:26.948.02-Jan-2020 4790.04 5176.59 85.17 2.00  85.82 2777.18
   11:07:27.148.02-Jan-2020 4790.04 5176.40 85.17 2.00  86.02 2777.18
   11:07:27.348.02-Jan-2020 4790.04 5176.40 85.17 2.00  86.22 2777.18
   11:07:27.548.02-Jan-2020 4790.04 5176.36 85.17 2.00  86.42 2777.18
   11:07:27.748.02-Jan-2020 4790.04 5176.31 85.17 2.00  86.62 2777.18
   11:07:27.948.02-Jan-2020 4790.04 5174.18 85.17 2.00  86.82 2777.18
   11:07:28.148.02-Jan-2020 4790.04 5176.42 85.17 2.00  87.02 2777.18
   11:07:28.348.02-Jan-2020 4790.04 5176.42 85.17 2.00  87.22 2777.18
   11:07:28.548.02-Jan-2020 4790.04 5174.65 85.16 2.00  87.42 2777.18
   11:07:28.748.02-Jan-2020 4790.04 5175.78 85.16 2.00  87.62 2777.18
   11:07:28.948.02-Jan-2020 4790.04 5176.06 85.16 2.00  87.82 2777.18
   11:07:29.148.02-Jan-2020 4790.04 5176.09 85.16 2.00  88.02 2777.18
   11:07:29.349.02-Jan-2020 4790.04 5176.09 85.16 2.00  88.22 2777.18
   11:07:29.549.02-Jan-2020 4790.04 5174.28 85.16 2.00  88.42 2777.18
   11:07:29.749.02-Jan-2020 4790.04 5175.63 85.16 2.00  88.62 2777.18
   11:07:29.949.02-Jan-2020 4790.04 5175.92 85.16 2.00  88.82 2777.18
   11:07:30.149.02-Jan-2020 4790.04 5176.02 85.16 2.00  89.02 2777.18
   11:07:30.349.02-Jan-2020 4790.04 5176.02 85.16 2.00  89.22 2777.18
   11:07:30.549.02-Jan-2020 4790.04 5175.25 85.16 2.00  89.42 2777.18
   11:07:30.749.02-Jan-2020 4790.04 5174.15 85.16 2.00  89.62 2777.18
   11:07:30.949.02-Jan-2020 4790.04 5175.90 85.16 2.00  89.82 2777.18
   11:07:31.149.02-Jan-2020 4790.04 5175.69 85.16 2.00  90.02 2777.18
   11:07:31.349.02-Jan-2020 4790.04 5175.69 85.16 2.00  90.22 2777.18
   11:07:31.549.02-Jan-2020 4790.04 5173.98 85.16 2.00  90.42 2777.18
   11:07:31.749.02-Jan-2020 4790.04 5175.95 85.16 2.00  90.62 2777.18
   11:07:31.949.02-Jan-2020 4790.04 5176.27 85.16 2.00  90.82 2777.18
   11:07:32.149.02-Jan-2020 4790.04 5176.32 85.16 2.00  91.02 2777.18
   11:07:32.349.02-Jan-2020 4790.04 5176.32 85.16 2.00  91.22 2777.18
   11:07:32.549.02-Jan-2020 4790.04 5176.10 85.16 2.00  91.42 2777.18
   11:07:32.749.02-Jan-2020 4790.04 5175.38 85.16 2.00  91.62 2777.18
   11:07:32.949.02-Jan-2020 4790.04 5177.32 85.16 2.00  91.82 2777.18
