~Version Information
 VERS.                  2.0:   CWLS log ASCII Standard -VERSION 2.0
 WRAP.                   NO:   One line per depth step
~Well Information Block
#MNEM.UNIT     VALUE/NAME     DESCRIPTION
#---------     -----------    ---------------------------
 STRT.S             10:33:43 02-Jan-20: START TIME 10:33:43 02-Jan-20
 STOP.S             10:42:04 02-Jan-20: STOP TIME  10:42:04 02-Jan-20
 STEP.S                   0.00: STEP TIME
 NULL.                 -999.25: NULL VALUE
 MDS .        Operator Entered:  MAG DATA SOURCE
 UNIT.                     N/a:  LOGGING EQUIPMENT ID
 DCON.         Sperry Drilling:  DIRECTNL CONTR
 CNTY.                    Baku:  COUNTY NAME
 DOE .                     N/a:  DOE NUMBER
 RIG .                     DWG:  RIG NAME
 MWDS.                    Baku:  MWD SHOP
 REGN.                   EESSA:  REGION
 BASE.              Azerbaijan:  LOGGING EQUIPMENT BASE LOCATION
 UWI .                     N/a:  UNIQUE WELL IDENTIFIER
 API .                     N/a:  API NUMBER
 WTYP.                Deviated:  WELL TYPE
 COMP.     BP Exploration (Caspian Sea) Ltd.:  COMPANY
 SRVC.          TURAN DRILLING:  CONTRACTOR
 WELL.           E04 (Slot 23):  WELL NAME
 CTRY.              Azerbaijan:  COUNTRY NAME
 SON .        AZ-XX-0905715376:  JOB NUMBER
 FLD .                     ACG:  FIELD NAME
 PDAT.          Mean Sea Level:  PERMANENT DATUM
 FTOP.          Formation Tops:  FORM TOPS DESC
 ILTD.               Lithology:  INTERP LTH DESC
 SVYD.                  Survey:  SURVEY DESC
 DMOD.             Drill Model:  DRILL MOD DESC
 HPTY.       Minimum Curvature:  HOLE POS TYPE
 NREF.                    Grid:  NORTH REFERENCE
 SPUD.               21-Dec-19:  SPUD DATE
 DATE.      17.57.20 21-Dec-19:  END TIME
 STIM.      17.57.20 21-Dec-19:  START TIME
 DMF .             Drill Floor:  DRILL MEAS FROM
 DFST.                        :  DIST FSL TEXT
 DFWT.                        :  DIST FWL TEXT
 PROV.                        :  PROVINCE
 STAT.                        :  STATE
 LOC .                        :  LOCATION
 LMF .             Drill Floor:  LOG MEASURED FROM
 AGAP.m                  43.16:  AIR GAP
 DEP .m                3172.61:  DEPTH
 APD .m                  43.16:  DEPTH ABOVE PD
 WDMS.m                 176.20:  WD ELEV
 EGL .m                   0.00:  GROUND ELEVATION
 EPD .m                   0.00:  ELEVATION
 AZTC.deg                 6.49:  AZM TOTAL CORR
 GRDC.deg                 0.09:  GRID CORRECTION
 MDEC.deg                 6.58:  MAGNETIC DECL
 MDIP.deg                59.61:  MAGNETIC DIP
 MFLD.nT              50294.00:  MAGNETIC FIELD
 GVFD.g                   1.00:  GRAVITY FIELD
 VSDR.deg               235.12:  VERT SEC DIRECT
 TDD .m                   0.00:  TOTAL DEPTH (DRILLER)
 SDEP.m                   0.00:  START DEPTH
 UTMY.m             4448627.46:  UTM Y
 UTMX.m              514337.95:  UTM X
 LONG.deg                51.17:  LONGITUDE
 LATI.deg                40.17:  LATITUDE
 TVDS.m                  43.16:  TVDSS CORRECTN
 WHEW.m                  -5.41:  WELL HEAD E/W
 WHNS.m                  -0.12:  WELL HEAD N/S
 VSEW.m                  -5.41:  VERT SEC E/W
 VSNS.m                  -0.12:  VERT SEC N/S
 EKB .m                  43.16:  KB ELEVATION
 EDF .m                  43.16:  DF ELEVATION
 MAGU.                 1852276:  MAGUTM CHECKSUM
 VSC .                       0:  VS TO CLOSURE
~Parameter Information Block
#MNEM.UNIT       Value        Description
#---------     -----------    ---------------------------
 TCS .hr                125.29:  Time Ciculation Ended 
 DD1 .      Fakhraddin Guliyev:  Direct Drillr 1 
 DD2 .                   Sanan:  Direct Drillr 2 
 DEFF.%                   0.00:  % Det Eff 
 DRET.      04.26.40 27-Dec-19:  Drill End Time 
 DRST.      04.26.40 27-Dec-19:  Drill Start Tim 
 DTIM.hr                 80.10:  Time Drilling 
 EDEP.m                   0.00:  End Depth 
 ENG1.            Adlet Omarov:  Engineer 1 
 ENG2.         Almaz Almadatov:  Engineer 2 
 ETIM.      04.26.40 27-Dec-19:  End Time 
 HFLO.                      No:  High Flow 
 HPRE.                      No:  High Pressure 
 HTEM.                      No:  High Temp 
 HYDO.m                   1.85:  Hydro Offset 
 IMAX.deg                72.09:  Inc Max 
 IMIN.deg                59.07:  Inc Min 
 IMND.m                3901.43:  Inc Min Depth 
 IMXD.m                4753.85:  Inc Max Depth 
 LETM.      04.26.40 27-Dec-19:  Log End Time 
 LSTM.      04.26.40 27-Dec-19:  Log Start Time 
 OTIM.hr                187.88:  Time Operating 
 PMAX.psia            10202.94:  Press Op, Max 
 RUN .                     300:  Run Number 
 RRUN.                    0300:  Rig Run Number 
 SDEP.m                   0.00:  Start Depth 
 STIM.      04.26.40 27-Dec-19:  Start Time 
 SVER.                    9.20:  Sperry Version 
 MRT .                    HCIM:  Maximum Recorded Temperature 
 TTMX.degC               96.08:  Max Tool Temp 
~Curve Information Block
#MNEM.UNIT                 API CODE     Curve Description
#---------               -----------    ---------------------------
 TIME.HHMMSS            00 000 000 000:  GT Time & Date
 GTDEPTH.m              00 000 000 000:  GT Depth
 GTPQH.psia             00 000 000 000:  GT HR Quartz Pressure
 GTTQ.degC              00 000 000 000:  GT Quartz Temperature
 GTTN.NONE              00 000 000 000:  GT Test Number
 GTET.sec               00 000 000 000:  GT Elapsed Test Time
 GTTVD.m                00 000 000 000:  GT True Vertical Depth
#Other Information
#
#WARRANTY: Halliburton will use its best efforts to furnish customers with 
#accurate information and interpretations that are part of, and incident to, the services 
#provided.  However, Halliburton cannot and does not warrant the accuracy 
#or correctness of such information and interpretations.  Under no circumstances should any 
#such information or interpretation be relied upon as the sole basis for any drilling, 
#completion, production, or financial decision or any procedure involving any risk to the 
#safety of any drilling venture, drilling rig or its crew or any other third party.  The 
#Customer has full responsibility for all drilling, completion and production operation.  
#Halliburton makes no representations or warranties, either expressed or 
#implied, including, but not limited to, the implied warranties of merchantability or fitness 
#for a particular purpose, with respect to the services rendered.  In no event will 
#Halliburton be liable for failure to obtain any particular results or for 
#any damages, including, but not limited to, indirect, special or consequential damages, 
#resulting from the use of any information or interpretation provided by Halliburton.
#
~A           TIME           GTDEPTH  GTPQH  GTTQ  GTTN  GTET   GTTVD  
# ...
   10:40:14.764.02-Jan-2020 4788.22 6146.96 85.55 1.00 391.09 2776.61
   10:40:14.964.02-Jan-2020 4788.22 6146.96 85.55 1.00 391.29 2776.61
   10:40:15.164.02-Jan-2020 4788.22 6144.39 85.55 1.00 391.49 2776.61
   10:40:15.364.02-Jan-2020 4788.22 6142.63 85.55 1.00 391.69 2776.61
   10:40:15.565.02-Jan-2020 4788.22 6143.47 85.55 1.00 391.89 2776.61
   10:40:15.765.02-Jan-2020 4788.22 6143.05 85.55 1.00 392.09 2776.61
   10:40:15.965.02-Jan-2020 4788.22 6143.05 85.55 1.00 392.29 2776.61
   10:40:16.165.02-Jan-2020 4788.22 6143.98 85.55 1.00 392.49 2776.61
   10:40:16.365.02-Jan-2020 4788.22 6144.73 85.55 1.00 392.69 2776.61
   10:40:16.565.02-Jan-2020 4788.22 6151.94 85.55 1.00 392.89 2776.61
   10:40:16.765.02-Jan-2020 4788.22 6145.46 85.55 1.00 393.09 2776.61
   10:40:16.965.02-Jan-2020 4788.22 6145.46 85.55 1.00 393.29 2776.61
   10:40:17.165.02-Jan-2020 4788.22 6143.88 85.55 1.00 393.49 2776.61
   10:40:17.365.02-Jan-2020 4788.22 6142.78 85.55 1.00 393.69 2776.61
   10:40:17.565.02-Jan-2020 4788.22 6141.97 85.55 1.00 393.89 2776.61
   10:40:17.765.02-Jan-2020 4788.22 6142.66 85.55 1.00 394.09 2776.61
   10:40:17.965.02-Jan-2020 4788.22 6142.66 85.55 1.00 394.29 2776.61
   10:40:18.165.02-Jan-2020 4788.22 6147.81 85.55 1.00 394.49 2776.61
   10:40:18.365.02-Jan-2020 4788.22 6143.69 85.55 1.00 394.69 2776.61
   10:40:18.565.02-Jan-2020 4788.22 6143.81 85.55 1.00 394.89 2776.61
   10:40:18.765.02-Jan-2020 4788.22 6143.45 85.55 1.00 395.09 2776.61
   10:40:18.965.02-Jan-2020 4788.22 6143.45 85.55 1.00 395.29 2776.61
   10:40:19.165.02-Jan-2020 4788.22 6144.10 85.55 1.00 395.49 2776.61
   10:40:19.365.02-Jan-2020 4788.22 6150.94 85.55 1.00 395.69 2776.61
   10:40:19.565.02-Jan-2020 4788.22 6147.88 85.55 1.00 395.89 2776.61
   10:40:19.766.02-Jan-2020 4788.22 6143.14 85.55 1.00 396.09 2776.61
   10:40:19.966.02-Jan-2020 4788.22 6143.14 85.55 1.00 396.29 2776.61
   10:40:20.166.02-Jan-2020 4788.22 6142.70 85.55 1.00 396.49 2776.61
   10:40:20.366.02-Jan-2020 4788.22 6142.97 85.55 1.00 396.69 2776.61
   10:40:20.566.02-Jan-2020 4788.22 6144.49 85.55 1.00 396.89 2776.61
   10:40:20.766.02-Jan-2020 4788.22 6152.06 85.55 1.00 397.09 2776.61
   10:40:20.966.02-Jan-2020 4788.22 6152.06 85.55 1.00 397.29 2776.61
   10:40:21.166.02-Jan-2020 4788.22 6143.13 85.55 1.00 397.49 2776.61
   10:40:21.366.02-Jan-2020 4788.22 6146.91 85.55 1.00 397.69 2776.61
   10:40:21.566.02-Jan-2020 4788.22 6146.92 85.55 1.00 397.89 2776.61
   10:40:21.766.02-Jan-2020 4788.22 6143.35 85.55 1.00 398.09 2776.61
   10:40:21.966.02-Jan-2020 4788.22 6143.35 85.55 1.00 398.29 2776.61
   10:40:22.166.02-Jan-2020 4788.22 6142.75 85.55 1.00 398.49 2776.61
   10:40:22.366.02-Jan-2020 4788.22 6144.71 85.55 1.00 398.69 2776.61
   10:40:22.566.02-Jan-2020 4788.22 6141.50 85.55 1.00 398.89 2776.61
   10:40:22.766.02-Jan-2020 4788.22 6141.93 85.55 1.00 399.09 2776.61
   10:40:22.966.02-Jan-2020 4788.22 6141.93 85.55 1.00 399.29 2776.61
   10:40:23.166.02-Jan-2020 4788.22 6145.38 85.55 1.00 399.49 2776.61
   10:40:23.366.02-Jan-2020 4788.22 6142.79 85.55 1.00 399.69 2776.61
   10:40:23.566.02-Jan-2020 4788.22 6144.02 85.55 1.00 399.89 2776.61
   10:40:23.766.02-Jan-2020 4788.22 6143.01 85.55 1.00 400.09 2776.61
   10:40:23.966.02-Jan-2020 4788.22 6143.01 85.55 1.00 400.29 2776.61
   10:40:24.167.02-Jan-2020 4788.22 6142.40 85.55 1.00 400.49 2776.61
   10:40:24.367.02-Jan-2020 4788.22 6143.48 85.55 1.00 400.69 2776.61
   10:40:24.567.02-Jan-2020 4788.22 6153.10 85.55 1.00 400.89 2776.61
   10:40:24.767.02-Jan-2020 4788.22 6146.14 85.55 1.00 401.09 2776.61
   10:40:24.967.02-Jan-2020 4788.22 6146.14 85.55 1.00 401.29 2776.61
   10:40:25.167.02-Jan-2020 4788.22 6143.89 85.55 1.00 401.49 2776.61
   10:40:25.367.02-Jan-2020 4788.22 6143.41 85.55 1.00 401.69 2776.61
   10:40:25.567.02-Jan-2020 4788.22 6143.03 85.55 1.00 401.89 2776.61
   10:40:25.767.02-Jan-2020 4788.22 6147.64 85.55 1.00 402.09 2776.61
   10:40:25.967.02-Jan-2020 4788.22 6147.64 85.55 1.00 402.29 2776.61
   10:40:26.167.02-Jan-2020 4788.22 6146.08 85.55 1.00 402.49 2776.61
   10:40:26.367.02-Jan-2020 4788.22 6143.63 85.55 1.00 402.69 2776.61
   10:40:26.567.02-Jan-2020 4788.22 6144.04 85.54 1.00 402.89 2776.61
   10:40:26.767.02-Jan-2020 4788.22 6143.72 85.55 1.00 403.09 2776.61
   10:40:26.967.02-Jan-2020 4788.22 6143.72 85.55 1.00 403.29 2776.61
   10:40:27.167.02-Jan-2020 4788.22 6148.88 85.54 1.00 403.49 2776.61
   10:40:27.367.02-Jan-2020 4788.22 6149.77 85.54 1.00 403.69 2776.61
   10:40:27.567.02-Jan-2020 4788.22 6144.86 85.54 1.00 403.89 2776.61
   10:40:27.767.02-Jan-2020 4788.22 6142.20 85.54 1.00 404.09 2776.61
   10:40:27.967.02-Jan-2020 4788.22 6142.20 85.54 1.00 404.30 2776.61
   10:40:28.167.02-Jan-2020 4788.22 6142.24 85.54 1.00 404.50 2776.61
   10:40:28.368.02-Jan-2020 4788.22 6142.61 85.54 1.00 404.70 2776.61
   10:40:28.568.02-Jan-2020 4788.22 6147.85 85.54 1.00 404.90 2776.61
   10:40:28.768.02-Jan-2020 4788.22 6150.24 85.54 1.00 405.10 2776.61
   10:40:28.968.02-Jan-2020 4788.22 6150.24 85.54 1.00 405.30 2776.61
   10:40:29.168.02-Jan-2020 4788.22 6142.40 85.54 1.00 405.50 2776.61
   10:40:29.368.02-Jan-2020 4788.22 6152.11 85.54 1.00 405.70 2776.61
   10:40:29.568.02-Jan-2020 4788.22 6144.38 85.54 1.00 405.90 2776.61
   10:40:29.768.02-Jan-2020 4788.22 6142.76 85.54 1.00 406.10 2776.61
   10:40:29.968.02-Jan-2020 4788.22 6142.76 85.54 1.00 406.30 2776.61
   10:40:30.168.02-Jan-2020 4788.22 6144.00 85.54 1.00 406.50 2776.61
   10:40:30.368.02-Jan-2020 4788.22 6150.87 85.54 1.00 406.70 2776.61
   10:40:30.568.02-Jan-2020 4788.22 6145.23 85.54 1.00 406.90 2776.61
   10:40:30.768.02-Jan-2020 4788.22 6143.30 85.54 1.00 407.10 2776.61
   10:40:30.968.02-Jan-2020 4788.22 6143.30 85.54 1.00 407.30 2776.61
   10:40:31.168.02-Jan-2020 4788.22 6148.20 85.54 1.00 407.50 2776.61
   10:40:31.368.02-Jan-2020 4788.22 6144.52 85.54 1.00 407.70 2776.61
   10:40:31.568.02-Jan-2020 4788.22 6143.52 85.54 1.00 407.90 2776.61
   10:40:31.768.02-Jan-2020 4788.22 6143.71 85.54 1.00 408.10 2776.61
   10:40:31.968.02-Jan-2020 4788.22 6143.71 85.54 1.00 408.30 2776.61
   10:40:32.168.02-Jan-2020 4788.22 6141.08 85.54 1.00 408.50 2776.61
   10:40:32.368.02-Jan-2020 4788.22 6141.86 85.54 1.00 408.70 2776.61
   10:40:32.569.02-Jan-2020 4788.22 6143.15 85.54 1.00 408.90 2776.61
   10:40:32.769.02-Jan-2020 4788.22 6151.46 85.54 1.00 409.10 2776.61
   10:40:32.969.02-Jan-2020 4788.22 6151.46 85.54 1.00 409.30 2776.61
   10:40:33.169.02-Jan-2020 4788.22 6143.56 85.54 1.00 409.50 2776.61
   10:40:33.369.02-Jan-2020 4788.22 6143.83 85.54 1.00 409.70 2776.61
   10:40:33.569.02-Jan-2020 4788.22 6143.12 85.54 1.00 409.90 2776.61
   10:40:33.769.02-Jan-2020 4788.22 6149.29 85.54 1.00 410.10 2776.61
   10:40:33.969.02-Jan-2020 4788.22 6149.29 85.54 1.00 410.30 2776.61
   10:40:34.169.02-Jan-2020 4788.22 6144.03 85.54 1.00 410.50 2776.61
   10:40:34.369.02-Jan-2020 4788.22 6152.15 85.54 1.00 410.70 2776.61
   10:40:34.569.02-Jan-2020 4788.22 6145.87 85.54 1.00 410.90 2776.61
   10:40:34.769.02-Jan-2020 4788.22 6143.85 85.54 1.00 411.10 2776.61
   10:40:34.969.02-Jan-2020 4788.22 6143.85 85.54 1.00 411.30 2776.61
   10:40:35.169.02-Jan-2020 4788.22 6146.84 85.54 1.00 411.50 2776.61
   10:40:35.369.02-Jan-2020 4788.22 6142.97 85.54 1.00 411.70 2776.61
   10:40:35.569.02-Jan-2020 4788.22 6142.56 85.54 1.00 411.90 2776.61
   10:40:35.769.02-Jan-2020 4788.22 6152.30 85.54 1.00 412.10 2776.61
   10:40:35.969.02-Jan-2020 4788.22 6152.30 85.54 1.00 412.30 2776.61
   10:40:36.169.02-Jan-2020 4788.22 6141.43 85.54 1.00 412.50 2776.61
   10:40:36.369.02-Jan-2020 4788.22 6141.92 85.54 1.00 412.70 2776.61
   10:40:36.569.02-Jan-2020 4788.22 6146.26 85.54 1.00 412.90 2776.61
   10:40:36.770.02-Jan-2020 4788.22 6147.10 85.54 1.00 413.10 2776.61
   10:40:36.970.02-Jan-2020 4788.22 6147.10 85.54 1.00 413.30 2776.61
   10:40:37.170.02-Jan-2020 4788.22 6143.03 85.54 1.00 413.50 2776.61
   10:40:37.370.02-Jan-2020 4788.22 6150.12 85.54 1.00 413.70 2776.61
   10:40:37.570.02-Jan-2020 4788.22 6146.07 85.54 1.00 413.90 2776.61
