~Version Information
 VERS.                  2.0:   CWLS log ASCII Standard -VERSION 2.0
 WRAP.                   NO:   One line per depth step
~Well Information Block
#MNEM.UNIT     VALUE/NAME     DESCRIPTION
#---------     -----------    ---------------------------
 STRT.S             13:01:02 02-Jan-20: START TIME 13:01:02 02-Jan-20
 STOP.S             13:09:15 02-Jan-20: STOP TIME  13:09:15 02-Jan-20
 STEP.S                   0.00: STEP TIME
 NULL.                 -999.25: NULL VALUE
 MDS .        Operator Entered:  MAG DATA SOURCE
 UNIT.                     N/a:  LOGGING EQUIPMENT ID
 DCON.         Sperry Drilling:  DIRECTNL CONTR
 CNTY.                    Baku:  COUNTY NAME
 DOE .                     N/a:  DOE NUMBER
 RIG .                     DWG:  RIG NAME
 MWDS.                    Baku:  MWD SHOP
 REGN.                   EESSA:  REGION
 BASE.              Azerbaijan:  LOGGING EQUIPMENT BASE LOCATION
 UWI .                     N/a:  UNIQUE WELL IDENTIFIER
 API .                     N/a:  API NUMBER
 WTYP.                Deviated:  WELL TYPE
 COMP.     BP Exploration (Caspian Sea) Ltd.:  COMPANY
 SRVC.          TURAN DRILLING:  CONTRACTOR
 WELL.           E04 (Slot 23):  WELL NAME
 CTRY.              Azerbaijan:  COUNTRY NAME
 SON .        AZ-XX-0905715376:  JOB NUMBER
 FLD .                     ACG:  FIELD NAME
 PDAT.          Mean Sea Level:  PERMANENT DATUM
 FTOP.          Formation Tops:  FORM TOPS DESC
 ILTD.               Lithology:  INTERP LTH DESC
 SVYD.                  Survey:  SURVEY DESC
 DMOD.             Drill Model:  DRILL MOD DESC
 HPTY.       Minimum Curvature:  HOLE POS TYPE
 NREF.                    Grid:  NORTH REFERENCE
 SPUD.               21-Dec-19:  SPUD DATE
 DATE.      17.57.20 21-Dec-19:  END TIME
 STIM.      17.57.20 21-Dec-19:  START TIME
 DMF .             Drill Floor:  DRILL MEAS FROM
 DFST.                        :  DIST FSL TEXT
 DFWT.                        :  DIST FWL TEXT
 PROV.                        :  PROVINCE
 STAT.                        :  STATE
 LOC .                        :  LOCATION
 LMF .             Drill Floor:  LOG MEASURED FROM
 AGAP.m                  43.16:  AIR GAP
 DEP .m                3172.61:  DEPTH
 APD .m                  43.16:  DEPTH ABOVE PD
 WDMS.m                 176.20:  WD ELEV
 EGL .m                   0.00:  GROUND ELEVATION
 EPD .m                   0.00:  ELEVATION
 AZTC.deg                 6.49:  AZM TOTAL CORR
 GRDC.deg                 0.09:  GRID CORRECTION
 MDEC.deg                 6.58:  MAGNETIC DECL
 MDIP.deg                59.61:  MAGNETIC DIP
 MFLD.nT              50294.00:  MAGNETIC FIELD
 GVFD.g                   1.00:  GRAVITY FIELD
 VSDR.deg               235.12:  VERT SEC DIRECT
 TDD .m                   0.00:  TOTAL DEPTH (DRILLER)
 SDEP.m                   0.00:  START DEPTH
 UTMY.m             4448627.46:  UTM Y
 UTMX.m              514337.95:  UTM X
 LONG.deg                51.17:  LONGITUDE
 LATI.deg                40.17:  LATITUDE
 TVDS.m                  43.16:  TVDSS CORRECTN
 WHEW.m                  -5.41:  WELL HEAD E/W
 WHNS.m                  -0.12:  WELL HEAD N/S
 VSEW.m                  -5.41:  VERT SEC E/W
 VSNS.m                  -0.12:  VERT SEC N/S
 EKB .m                  43.16:  KB ELEVATION
 EDF .m                  43.16:  DF ELEVATION
 MAGU.                 1852276:  MAGUTM CHECKSUM
 VSC .                       0:  VS TO CLOSURE
~Parameter Information Block
#MNEM.UNIT       Value        Description
#---------     -----------    ---------------------------
 TCS .hr                125.29:  Time Ciculation Ended 
 DD1 .      Fakhraddin Guliyev:  Direct Drillr 1 
 DD2 .                   Sanan:  Direct Drillr 2 
 DEFF.%                   0.00:  % Det Eff 
 DRET.      04.26.40 27-Dec-19:  Drill End Time 
 DRST.      04.26.40 27-Dec-19:  Drill Start Tim 
 DTIM.hr                 80.10:  Time Drilling 
 EDEP.m                   0.00:  End Depth 
 ENG1.            Adlet Omarov:  Engineer 1 
 ENG2.         Almaz Almadatov:  Engineer 2 
 ETIM.      04.26.40 27-Dec-19:  End Time 
 HFLO.                      No:  High Flow 
 HPRE.                      No:  High Pressure 
 HTEM.                      No:  High Temp 
 HYDO.m                   1.85:  Hydro Offset 
 IMAX.deg                72.09:  Inc Max 
 IMIN.deg                59.07:  Inc Min 
 IMND.m                3901.43:  Inc Min Depth 
 IMXD.m                4753.85:  Inc Max Depth 
 LETM.      04.26.40 27-Dec-19:  Log End Time 
 LSTM.      04.26.40 27-Dec-19:  Log Start Time 
 OTIM.hr                187.88:  Time Operating 
 PMAX.psia            10202.94:  Press Op, Max 
 RUN .                     300:  Run Number 
 RRUN.                    0300:  Rig Run Number 
 SDEP.m                   0.00:  Start Depth 
 STIM.      04.26.40 27-Dec-19:  Start Time 
 SVER.                    9.20:  Sperry Version 
 MRT .                    HCIM:  Maximum Recorded Temperature 
 TTMX.degC               96.08:  Max Tool Temp 
~Curve Information Block
#MNEM.UNIT                 API CODE     Curve Description
#---------               -----------    ---------------------------
 TIME.HHMMSS            00 000 000 000:  GT Time & Date
 GTDEPTH.m              00 000 000 000:  GT Depth
 GTPQH.psia             00 000 000 000:  GT HR Quartz Pressure
 GTTQ.degC              00 000 000 000:  GT Quartz Temperature
 GTTN.NONE              00 000 000 000:  GT Test Number
 GTET.sec               00 000 000 000:  GT Elapsed Test Time
 GTTVD.m                00 000 000 000:  GT True Vertical Depth
#Other Information
#
#WARRANTY: Halliburton will use its best efforts to furnish customers with 
#accurate information and interpretations that are part of, and incident to, the services 
#provided.  However, Halliburton cannot and does not warrant the accuracy 
#or correctness of such information and interpretations.  Under no circumstances should any 
#such information or interpretation be relied upon as the sole basis for any drilling, 
#completion, production, or financial decision or any procedure involving any risk to the 
#safety of any drilling venture, drilling rig or its crew or any other third party.  The 
#Customer has full responsibility for all drilling, completion and production operation.  
#Halliburton makes no representations or warranties, either expressed or 
#implied, including, but not limited to, the implied warranties of merchantability or fitness 
#for a particular purpose, with respect to the services rendered.  In no event will 
#Halliburton be liable for failure to obtain any particular results or for 
#any damages, including, but not limited to, indirect, special or consequential damages, 
#resulting from the use of any information or interpretation provided by Halliburton.
#
~A           TIME           GTDEPTH  GTPQH  GTTQ  GTTN  GTET   GTTVD  
# ...
   13:07:33.120.02-Jan-2020 4774.33 4706.78 83.84 3.00 391.02 2772.29
   13:07:33.320.02-Jan-2020 4774.33 4706.78 83.84 3.00 391.22 2772.29
   13:07:33.520.02-Jan-2020 4774.33 4705.14 83.84 3.00 391.42 2772.29
   13:07:33.720.02-Jan-2020 4774.33 4707.19 83.84 3.00 391.62 2772.29
   13:07:33.920.02-Jan-2020 4774.33 4706.84 83.84 3.00 391.82 2772.29
   13:07:34.120.02-Jan-2020 4774.33 4706.97 83.84 3.00 392.02 2772.29
   13:07:34.320.02-Jan-2020 4774.33 4706.97 83.84 3.00 392.22 2772.29
   13:07:34.520.02-Jan-2020 4774.33 4706.93 83.84 3.00 392.42 2772.29
   13:07:34.720.02-Jan-2020 4774.33 4707.14 83.84 3.00 392.62 2772.29
   13:07:34.920.02-Jan-2020 4774.33 4706.49 83.84 3.00 392.82 2772.29
   13:07:35.120.02-Jan-2020 4774.33 4705.99 83.84 3.00 393.02 2772.29
   13:07:35.320.02-Jan-2020 4774.33 4705.99 83.84 3.00 393.22 2772.29
   13:07:35.520.02-Jan-2020 4774.33 4707.03 83.84 3.00 393.42 2772.29
   13:07:35.720.02-Jan-2020 4774.33 4705.52 83.84 3.00 393.62 2772.29
   13:07:35.920.02-Jan-2020 4774.33 4707.05 83.84 3.00 393.82 2772.29
   13:07:36.120.02-Jan-2020 4774.33 4707.17 83.84 3.00 394.02 2772.29
   13:07:36.320.02-Jan-2020 4774.33 4707.17 83.84 3.00 394.22 2772.29
   13:07:36.520.02-Jan-2020 4774.33 4707.02 83.84 3.00 394.42 2772.29
   13:07:36.720.02-Jan-2020 4774.33 4706.95 83.84 3.00 394.62 2772.29
   13:07:36.920.02-Jan-2020 4774.33 4706.96 83.84 3.00 394.82 2772.29
   13:07:37.120.02-Jan-2020 4774.33 4706.95 83.84 3.00 395.02 2772.29
   13:07:37.320.02-Jan-2020 4774.33 4706.95 83.84 3.00 395.22 2772.29
   13:07:37.520.02-Jan-2020 4774.33 4705.61 83.84 3.00 395.42 2772.29
   13:07:37.720.02-Jan-2020 4774.33 4707.21 83.83 3.00 395.62 2772.29
   13:07:37.920.02-Jan-2020 4774.33 4707.09 83.83 3.00 395.82 2772.29
   13:07:38.120.02-Jan-2020 4774.33 4707.10 83.83 3.00 396.02 2772.29
   13:07:38.320.02-Jan-2020 4774.33 4707.10 83.83 3.00 396.22 2772.29
   13:07:38.520.02-Jan-2020 4774.33 4705.39 83.83 3.00 396.42 2772.29
   13:07:38.720.02-Jan-2020 4774.33 4707.48 83.83 3.00 396.62 2772.29
   13:07:38.920.02-Jan-2020 4774.33 4707.13 83.83 3.00 396.82 2772.29
   13:07:39.120.02-Jan-2020 4774.33 4707.26 83.83 3.00 397.02 2772.29
   13:07:39.320.02-Jan-2020 4774.33 4707.26 83.83 3.00 397.22 2772.29
   13:07:39.520.02-Jan-2020 4774.33 4705.53 83.83 3.00 397.42 2772.29
   13:07:39.720.02-Jan-2020 4774.33 4707.14 83.83 3.00 397.62 2772.29
   13:07:39.920.02-Jan-2020 4774.33 4707.32 83.83 3.00 397.82 2772.29
   13:07:40.120.02-Jan-2020 4774.33 4707.23 83.83 3.00 398.02 2772.29
   13:07:40.320.02-Jan-2020 4774.33 4707.23 83.83 3.00 398.22 2772.29
   13:07:40.520.02-Jan-2020 4774.33 4707.03 83.83 3.00 398.42 2772.29
   13:07:40.720.02-Jan-2020 4774.33 4705.66 83.83 3.00 398.62 2772.29
   13:07:40.920.02-Jan-2020 4774.33 4707.26 83.83 3.00 398.82 2772.29
   13:07:41.120.02-Jan-2020 4774.33 4707.15 83.83 3.00 399.02 2772.29
   13:07:41.320.02-Jan-2020 4774.33 4707.15 83.83 3.00 399.22 2772.29
   13:07:41.520.02-Jan-2020 4774.33 4705.50 83.83 3.00 399.42 2772.29
   13:07:41.720.02-Jan-2020 4774.33 4707.49 83.83 3.00 399.62 2772.29
   13:07:41.920.02-Jan-2020 4774.33 4707.13 83.83 3.00 399.82 2772.29
   13:07:42.120.02-Jan-2020 4774.33 4705.73 83.83 3.00 400.02 2772.29
   13:07:42.320.02-Jan-2020 4774.33 4705.73 83.83 3.00 400.22 2772.29
   13:07:42.520.02-Jan-2020 4774.33 4707.35 83.83 3.00 400.42 2772.29
   13:07:42.720.02-Jan-2020 4774.33 4706.77 83.83 3.00 400.62 2772.29
   13:07:42.920.02-Jan-2020 4774.33 4706.27 83.83 3.00 400.82 2772.29
   13:07:43.120.02-Jan-2020 4774.33 4707.57 83.83 3.00 401.02 2772.29
   13:07:43.320.02-Jan-2020 4774.33 4707.57 83.83 3.00 401.22 2772.29
   13:07:43.520.02-Jan-2020 4774.33 4707.22 83.83 3.00 401.42 2772.29
   13:07:43.720.02-Jan-2020 4774.33 4707.22 83.83 3.00 401.62 2772.29
   13:07:43.920.02-Jan-2020 4774.33 4707.19 83.83 3.00 401.82 2772.29
   13:07:44.120.02-Jan-2020 4774.33 4707.17 83.83 3.00 402.02 2772.29
   13:07:44.320.02-Jan-2020 4774.33 4707.17 83.83 3.00 402.22 2772.29
   13:07:44.520.02-Jan-2020 4774.33 4705.52 83.83 3.00 402.42 2772.29
   13:07:44.720.02-Jan-2020 4774.33 4707.56 83.83 3.00 402.62 2772.29
   13:07:44.920.02-Jan-2020 4774.33 4707.25 83.83 3.00 402.82 2772.29
   13:07:45.120.02-Jan-2020 4774.33 4707.36 83.83 3.00 403.02 2772.29
   13:07:45.320.02-Jan-2020 4774.33 4707.36 83.83 3.00 403.22 2772.29
   13:07:45.520.02-Jan-2020 4774.33 4707.34 83.83 3.00 403.42 2772.29
   13:07:45.720.02-Jan-2020 4774.33 4707.47 83.83 3.00 403.62 2772.29
   13:07:45.920.02-Jan-2020 4774.33 4707.37 83.83 3.00 403.82 2772.29
   13:07:46.120.02-Jan-2020 4774.33 4707.28 83.83 3.00 404.02 2772.29
   13:07:46.320.02-Jan-2020 4774.33 4707.28 83.83 3.00 404.22 2772.29
   13:07:46.520.02-Jan-2020 4774.33 4706.30 83.83 3.00 404.42 2772.29
   13:07:46.720.02-Jan-2020 4774.33 4707.66 83.83 3.00 404.62 2772.29
   13:07:46.920.02-Jan-2020 4774.33 4707.34 83.83 3.00 404.82 2772.29
   13:07:47.120.02-Jan-2020 4774.33 4707.30 83.83 3.00 405.02 2772.29
   13:07:47.320.02-Jan-2020 4774.33 4707.30 83.83 3.00 405.22 2772.29
   13:07:47.520.02-Jan-2020 4774.33 4705.62 83.83 3.00 405.42 2772.29
   13:07:47.720.02-Jan-2020 4774.33 4707.68 83.83 3.00 405.62 2772.29
   13:07:47.920.02-Jan-2020 4774.33 4707.26 83.83 3.00 405.82 2772.29
   13:07:48.120.02-Jan-2020 4774.33 4707.38 83.83 3.00 406.02 2772.29
   13:07:48.320.02-Jan-2020 4774.33 4707.38 83.83 3.00 406.22 2772.29
   13:07:48.520.02-Jan-2020 4774.33 4707.30 83.83 3.00 406.42 2772.29
   13:07:48.720.02-Jan-2020 4774.33 4707.53 83.83 3.00 406.62 2772.29
   13:07:48.921.02-Jan-2020 4774.33 4706.85 83.83 3.00 406.82 2772.29
   13:07:49.121.02-Jan-2020 4774.33 4706.06 83.83 3.00 407.02 2772.29
   13:07:49.321.02-Jan-2020 4774.33 4706.06 83.83 3.00 407.22 2772.29
   13:07:49.521.02-Jan-2020 4774.33 4707.06 83.83 3.00 407.42 2772.29
   13:07:49.721.02-Jan-2020 4774.33 4705.40 83.83 3.00 407.62 2772.29
   13:07:49.921.02-Jan-2020 4774.33 4707.36 83.83 3.00 407.82 2772.29
   13:07:50.121.02-Jan-2020 4774.33 4707.03 83.83 3.00 408.02 2772.29
   13:07:50.321.02-Jan-2020 4774.33 4707.03 83.83 3.00 408.22 2772.29
   13:07:50.521.02-Jan-2020 4774.33 4707.16 83.83 3.00 408.42 2772.29
   13:07:50.721.02-Jan-2020 4774.33 4707.12 83.83 3.00 408.62 2772.29
   13:07:50.921.02-Jan-2020 4774.33 4707.15 83.83 3.00 408.82 2772.29
   13:07:51.121.02-Jan-2020 4774.33 4707.13 83.83 3.00 409.02 2772.29
   13:07:51.321.02-Jan-2020 4774.33 4707.13 83.83 3.00 409.22 2772.29
   13:07:51.521.02-Jan-2020 4774.33 4706.22 83.83 3.00 409.42 2772.29
   13:07:51.721.02-Jan-2020 4774.33 4707.58 83.83 3.00 409.62 2772.29
   13:07:51.921.02-Jan-2020 4774.33 4707.27 83.83 3.00 409.82 2772.29
   13:07:52.121.02-Jan-2020 4774.33 4707.21 83.83 3.00 410.02 2772.29
   13:07:52.321.02-Jan-2020 4774.33 4707.21 83.83 3.00 410.22 2772.29
   13:07:52.521.02-Jan-2020 4774.33 4707.21 83.82 3.00 410.42 2772.29
   13:07:52.721.02-Jan-2020 4774.33 4705.89 83.82 3.00 410.62 2772.29
   13:07:52.921.02-Jan-2020 4774.33 4707.40 83.82 3.00 410.82 2772.29
   13:07:53.121.02-Jan-2020 4774.33 4707.31 83.82 3.00 411.02 2772.29
   13:07:53.321.02-Jan-2020 4774.33 4707.31 83.82 3.00 411.22 2772.29
   13:07:53.521.02-Jan-2020 4774.33 4707.26 83.82 3.00 411.42 2772.29
   13:07:53.721.02-Jan-2020 4774.33 4705.59 83.82 3.00 411.62 2772.29
   13:07:53.921.02-Jan-2020 4774.33 4707.71 83.82 3.00 411.82 2772.29
   13:07:54.121.02-Jan-2020 4774.33 4707.33 83.82 3.00 412.02 2772.29
   13:07:54.321.02-Jan-2020 4774.33 4707.33 83.82 3.00 412.22 2772.29
   13:07:54.521.02-Jan-2020 4774.33 4707.31 83.82 3.00 412.42 2772.29
   13:07:54.721.02-Jan-2020 4774.33 4706.73 83.82 3.00 412.62 2772.29
   13:07:54.921.02-Jan-2020 4774.33 4706.37 83.82 3.00 412.82 2772.29
   13:07:55.121.02-Jan-2020 4774.33 4707.69 83.82 3.00 413.02 2772.29
   13:07:55.321.02-Jan-2020 4774.33 4707.69 83.82 3.00 413.22 2772.29
   13:07:55.521.02-Jan-2020 4774.33 4707.29 83.82 3.00 413.42 2772.29
   13:07:55.721.02-Jan-2020 4774.33 4705.98 83.82 3.00 413.62 2772.29
   13:07:55.921.02-Jan-2020 4774.33 4707.56 83.82 3.00 413.82 2772.29
