~Version Information
 VERS.                  2.0:   CWLS log ASCII Standard -VERSION 2.0
 WRAP.                   NO:   One line per depth step
~Well Information Block
#MNEM.UNIT     VALUE/NAME     DESCRIPTION
#---------     -----------    ---------------------------
 STRT.S             11:06:01 02-Jan-20: START TIME 11:06:01 02-Jan-20
 STOP.S             11:13:00 02-Jan-20: STOP TIME  11:13:00 02-Jan-20
 STEP.S                   0.00: STEP TIME
 NULL.                 -999.25: NULL VALUE
 MDS .        Operator Entered:  MAG DATA SOURCE
 UNIT.                     N/a:  LOGGING EQUIPMENT ID
 DCON.         Sperry Drilling:  DIRECTNL CONTR
 CNTY.                    Baku:  COUNTY NAME
 DOE .                     N/a:  DOE NUMBER
 RIG .                     DWG:  RIG NAME
 MWDS.                    Baku:  MWD SHOP
 REGN.                   EESSA:  REGION
 BASE.              Azerbaijan:  LOGGING EQUIPMENT BASE LOCATION
 UWI .                     N/a:  UNIQUE WELL IDENTIFIER
 API .                     N/a:  API NUMBER
 WTYP.                Deviated:  WELL TYPE
 COMP.     BP Exploration (Caspian Sea) Ltd.:  COMPANY
 SRVC.          TURAN DRILLING:  CONTRACTOR
 WELL.           E04 (Slot 23):  WELL NAME
 CTRY.              Azerbaijan:  COUNTRY NAME
 SON .        AZ-XX-0905715376:  JOB NUMBER
 FLD .                     ACG:  FIELD NAME
 PDAT.          Mean Sea Level:  PERMANENT DATUM
 FTOP.          Formation Tops:  FORM TOPS DESC
 ILTD.               Lithology:  INTERP LTH DESC
 SVYD.                  Survey:  SURVEY DESC
 DMOD.             Drill Model:  DRILL MOD DESC
 HPTY.       Minimum Curvature:  HOLE POS TYPE
 NREF.                    Grid:  NORTH REFERENCE
 SPUD.               21-Dec-19:  SPUD DATE
 DATE.      17.57.20 21-Dec-19:  END TIME
 STIM.      17.57.20 21-Dec-19:  START TIME
 DMF .             Drill Floor:  DRILL MEAS FROM
 DFST.                        :  DIST FSL TEXT
 DFWT.                        :  DIST FWL TEXT
 PROV.                        :  PROVINCE
 STAT.                        :  STATE
 LOC .                        :  LOCATION
 LMF .             Drill Floor:  LOG MEASURED FROM
 AGAP.m                  43.16:  AIR GAP
 DEP .m                3172.61:  DEPTH
 APD .m                  43.16:  DEPTH ABOVE PD
 WDMS.m                 176.20:  WD ELEV
 EGL .m                   0.00:  GROUND ELEVATION
 EPD .m                   0.00:  ELEVATION
 AZTC.deg                 6.49:  AZM TOTAL CORR
 GRDC.deg                 0.09:  GRID CORRECTION
 MDEC.deg                 6.58:  MAGNETIC DECL
 MDIP.deg                59.61:  MAGNETIC DIP
 MFLD.nT              50294.00:  MAGNETIC FIELD
 GVFD.g                   1.00:  GRAVITY FIELD
 VSDR.deg               235.12:  VERT SEC DIRECT
 TDD .m                   0.00:  TOTAL DEPTH (DRILLER)
 SDEP.m                   0.00:  START DEPTH
 UTMY.m             4448627.46:  UTM Y
 UTMX.m              514337.95:  UTM X
 LONG.deg                51.17:  LONGITUDE
 LATI.deg                40.17:  LATITUDE
 TVDS.m                  43.16:  TVDSS CORRECTN
 WHEW.m                  -5.41:  WELL HEAD E/W
 WHNS.m                  -0.12:  WELL HEAD N/S
 VSEW.m                  -5.41:  VERT SEC E/W
 VSNS.m                  -0.12:  VERT SEC N/S
 EKB .m                  43.16:  KB ELEVATION
 EDF .m                  43.16:  DF ELEVATION
 MAGU.                 1852276:  MAGUTM CHECKSUM
 VSC .                       0:  VS TO CLOSURE
~Parameter Information Block
#MNEM.UNIT       Value        Description
#---------     -----------    ---------------------------
 TCS .hr                125.29:  Time Ciculation Ended 
 DD1 .      Fakhraddin Guliyev:  Direct Drillr 1 
 DD2 .                   Sanan:  Direct Drillr 2 
 DEFF.%                   0.00:  % Det Eff 
 DRET.      04.26.40 27-Dec-19:  Drill End Time 
 DRST.      04.26.40 27-Dec-19:  Drill Start Tim 
 DTIM.hr                 80.10:  Time Drilling 
 EDEP.m                   0.00:  End Depth 
 ENG1.            Adlet Omarov:  Engineer 1 
 ENG2.         Almaz Almadatov:  Engineer 2 
 ETIM.      04.26.40 27-Dec-19:  End Time 
 HFLO.                      No:  High Flow 
 HPRE.                      No:  High Pressure 
 HTEM.                      No:  High Temp 
 HYDO.m                   1.85:  Hydro Offset 
 IMAX.deg                72.09:  Inc Max 
 IMIN.deg                59.07:  Inc Min 
 IMND.m                3901.43:  Inc Min Depth 
 IMXD.m                4753.85:  Inc Max Depth 
 LETM.      04.26.40 27-Dec-19:  Log End Time 
 LSTM.      04.26.40 27-Dec-19:  Log Start Time 
 OTIM.hr                187.88:  Time Operating 
 PMAX.psia            10202.94:  Press Op, Max 
 RUN .                     300:  Run Number 
 RRUN.                    0300:  Rig Run Number 
 SDEP.m                   0.00:  Start Depth 
 STIM.      04.26.40 27-Dec-19:  Start Time 
 SVER.                    9.20:  Sperry Version 
 MRT .                    HCIM:  Maximum Recorded Temperature 
 TTMX.degC               96.08:  Max Tool Temp 
~Curve Information Block
#MNEM.UNIT                 API CODE     Curve Description
#---------               -----------    ---------------------------
 TIME.HHMMSS            00 000 000 000:  GT Time & Date
 GTDEPTH.m              00 000 000 000:  GT Depth
 GTPQH.psia             00 000 000 000:  GT HR Quartz Pressure
 GTTQ.degC              00 000 000 000:  GT Quartz Temperature
 GTTN.NONE              00 000 000 000:  GT Test Number
 GTET.sec               00 000 000 000:  GT Elapsed Test Time
 GTTVD.m                00 000 000 000:  GT True Vertical Depth
#Other Information
#
#WARRANTY: Halliburton will use its best efforts to furnish customers with 
#accurate information and interpretations that are part of, and incident to, the services 
#provided.  However, Halliburton cannot and does not warrant the accuracy 
#or correctness of such information and interpretations.  Under no circumstances should any 
#such information or interpretation be relied upon as the sole basis for any drilling, 
#completion, production, or financial decision or any procedure involving any risk to the 
#safety of any drilling venture, drilling rig or its crew or any other third party.  The 
#Customer has full responsibility for all drilling, completion and production operation.  
#Halliburton makes no representations or warranties, either expressed or 
#implied, including, but not limited to, the implied warranties of merchantability or fitness 
#for a particular purpose, with respect to the services rendered.  In no event will 
#Halliburton be liable for failure to obtain any particular results or for 
#any damages, including, but not limited to, indirect, special or consequential damages, 
#resulting from the use of any information or interpretation provided by Halliburton.
#
~A           TIME           GTDEPTH  GTPQH  GTTQ  GTTN  GTET   GTTVD  
# ...
   11:11:23.203.02-Jan-2020 4790.04 3346.76 85.04 2.00 322.08 2777.18
   11:11:23.404.02-Jan-2020 4790.04 3346.76 85.04 2.00 322.28 2777.18
   11:11:23.604.02-Jan-2020 4790.04 3348.04 85.04 2.00 322.48 2777.18
   11:11:23.804.02-Jan-2020 4790.04 3348.26 85.04 2.00 322.68 2777.18
   11:11:24.004.02-Jan-2020 4790.04 3348.26 85.04 2.00 322.88 2777.18
   11:11:24.204.02-Jan-2020 4790.04 3348.33 85.04 2.00 323.08 2777.18
   11:11:24.404.02-Jan-2020 4790.04 3348.33 85.04 2.00 323.28 2777.18
   11:11:24.604.02-Jan-2020 4790.04 3348.44 85.04 2.00 323.48 2777.18
   11:11:24.804.02-Jan-2020 4790.04 3348.58 85.04 2.00 323.68 2777.18
   11:11:25.004.02-Jan-2020 4790.04 3346.99 85.04 2.00 323.88 2777.18
   11:11:25.204.02-Jan-2020 4790.04 3348.84 85.04 2.00 324.08 2777.18
   11:11:25.404.02-Jan-2020 4790.04 3348.84 85.04 2.00 324.28 2777.18
   11:11:25.604.02-Jan-2020 4790.04 3348.88 85.04 2.00 324.48 2777.18
   11:11:25.804.02-Jan-2020 4790.04 3347.24 85.04 2.00 324.68 2777.18
   11:11:26.004.02-Jan-2020 4790.04 3348.91 85.04 2.00 324.88 2777.18
   11:11:26.204.02-Jan-2020 4790.04 3348.83 85.04 2.00 325.08 2777.18
   11:11:26.404.02-Jan-2020 4790.04 3348.83 85.04 2.00 325.28 2777.18
   11:11:26.604.02-Jan-2020 4790.04 3349.03 85.04 2.00 325.48 2777.18
   11:11:26.804.02-Jan-2020 4790.04 3349.17 85.04 2.00 325.68 2777.18
   11:11:27.004.02-Jan-2020 4790.04 3349.13 85.04 2.00 325.88 2777.18
   11:11:27.204.02-Jan-2020 4790.04 3349.28 85.04 2.00 326.08 2777.18
   11:11:27.404.02-Jan-2020 4790.04 3349.28 85.04 2.00 326.28 2777.18
   11:11:27.605.02-Jan-2020 4790.04 3348.82 85.04 2.00 326.48 2777.18
   11:11:27.805.02-Jan-2020 4790.04 3348.29 85.04 2.00 326.68 2777.18
   11:11:28.005.02-Jan-2020 4790.04 3349.58 85.04 2.00 326.88 2777.18
   11:11:28.205.02-Jan-2020 4790.04 3349.42 85.04 2.00 327.08 2777.18
   11:11:28.405.02-Jan-2020 4790.04 3349.42 85.04 2.00 327.28 2777.18
   11:11:28.605.02-Jan-2020 4790.04 3349.53 85.04 2.00 327.48 2777.18
   11:11:28.805.02-Jan-2020 4790.04 3349.47 85.04 2.00 327.68 2777.18
   11:11:29.005.02-Jan-2020 4790.04 3349.68 85.04 2.00 327.88 2777.18
   11:11:29.205.02-Jan-2020 4790.04 3348.37 85.04 2.00 328.08 2777.18
   11:11:29.405.02-Jan-2020 4790.04 3348.37 85.04 2.00 328.28 2777.18
   11:11:29.605.02-Jan-2020 4790.04 3349.74 85.04 2.00 328.48 2777.18
   11:11:29.805.02-Jan-2020 4790.04 3349.90 85.04 2.00 328.68 2777.18
   11:11:30.005.02-Jan-2020 4790.04 3348.25 85.04 2.00 328.88 2777.18
   11:11:30.205.02-Jan-2020 4790.04 3350.01 85.04 2.00 329.08 2777.18
   11:11:30.405.02-Jan-2020 4790.04 3350.01 85.04 2.00 329.28 2777.18
   11:11:30.605.02-Jan-2020 4790.04 3350.08 85.04 2.00 329.48 2777.18
   11:11:30.805.02-Jan-2020 4790.04 3350.07 85.04 2.00 329.68 2777.18
   11:11:31.005.02-Jan-2020 4790.04 3350.04 85.04 2.00 329.88 2777.18
   11:11:31.205.02-Jan-2020 4790.04 3350.16 85.04 2.00 330.08 2777.18
   11:11:31.405.02-Jan-2020 4790.04 3350.16 85.04 2.00 330.28 2777.18
   11:11:31.605.02-Jan-2020 4790.04 3348.97 85.04 2.00 330.48 2777.18
   11:11:31.806.02-Jan-2020 4790.04 3350.22 85.04 2.00 330.68 2777.18
   11:11:32.006.02-Jan-2020 4790.04 3350.37 85.04 2.00 330.88 2777.18
   11:11:32.206.02-Jan-2020 4790.04 3350.53 85.04 2.00 331.08 2777.18
   11:11:32.406.02-Jan-2020 4790.04 3350.53 85.04 2.00 331.28 2777.18
   11:11:32.606.02-Jan-2020 4790.04 3350.05 85.04 2.00 331.48 2777.18
   11:11:32.806.02-Jan-2020 4790.04 3349.50 85.04 2.00 331.68 2777.18
   11:11:33.006.02-Jan-2020 4790.04 3350.79 85.04 2.00 331.88 2777.18
   11:11:33.206.02-Jan-2020 4790.04 3350.71 85.04 2.00 332.08 2777.18
   11:11:33.406.02-Jan-2020 4790.04 3350.71 85.04 2.00 332.28 2777.18
   11:11:33.606.02-Jan-2020 4790.04 3350.54 85.04 2.00 332.48 2777.18
   11:11:33.806.02-Jan-2020 4790.04 3350.76 85.04 2.00 332.68 2777.18
   11:11:34.006.02-Jan-2020 4790.04 3350.97 85.04 2.00 332.88 2777.18
   11:11:34.206.02-Jan-2020 4790.04 3350.92 85.04 2.00 333.08 2777.18
   11:11:34.406.02-Jan-2020 4790.04 3350.92 85.04 2.00 333.28 2777.18
   11:11:34.606.02-Jan-2020 4790.04 3349.51 85.04 2.00 333.48 2777.18
   11:11:34.806.02-Jan-2020 4790.04 3351.33 85.04 2.00 333.68 2777.18
   11:11:35.006.02-Jan-2020 4790.04 3351.27 85.04 2.00 333.88 2777.18
   11:11:35.206.02-Jan-2020 4790.04 3350.86 85.04 2.00 334.08 2777.18
   11:11:35.406.02-Jan-2020 4790.04 3350.86 85.04 2.00 334.28 2777.18
   11:11:35.606.02-Jan-2020 4790.04 3351.50 85.04 2.00 334.48 2777.18
   11:11:35.806.02-Jan-2020 4790.04 3351.43 85.04 2.00 334.68 2777.18
   11:11:36.006.02-Jan-2020 4790.04 3351.55 85.04 2.00 334.88 2777.18
   11:11:36.207.02-Jan-2020 4790.04 3351.51 85.04 2.00 335.08 2777.18
   11:11:36.407.02-Jan-2020 4790.04 3351.51 85.04 2.00 335.28 2777.18
   11:11:36.607.02-Jan-2020 4790.04 3350.04 85.04 2.00 335.48 2777.18
   11:11:36.807.02-Jan-2020 4790.04 3351.92 85.04 2.00 335.68 2777.18
   11:11:37.007.02-Jan-2020 4790.04 3351.76 85.04 2.00 335.88 2777.18
   11:11:37.207.02-Jan-2020 4790.04 3350.34 85.04 2.00 336.08 2777.18
   11:11:37.407.02-Jan-2020 4790.04 3350.34 85.04 2.00 336.28 2777.18
   11:11:37.607.02-Jan-2020 4790.04 3351.97 85.04 2.00 336.48 2777.18
   11:11:37.807.02-Jan-2020 4790.04 3352.22 85.04 2.00 336.68 2777.18
   11:11:38.007.02-Jan-2020 4790.04 3352.26 85.04 2.00 336.88 2777.18
   11:11:38.207.02-Jan-2020 4790.04 3352.30 85.04 2.00 337.08 2777.18
   11:11:38.407.02-Jan-2020 4790.04 3352.30 85.04 2.00 337.28 2777.18
   11:11:38.607.02-Jan-2020 4790.04 3352.46 85.04 2.00 337.48 2777.18
   11:11:38.807.02-Jan-2020 4790.04 3352.12 85.04 2.00 337.68 2777.18
   11:11:39.007.02-Jan-2020 4790.04 3351.59 85.04 2.00 337.88 2777.18
   11:11:39.207.02-Jan-2020 4790.04 3352.89 85.04 2.00 338.08 2777.18
   11:11:39.407.02-Jan-2020 4790.04 3352.89 85.04 2.00 338.28 2777.18
   11:11:39.607.02-Jan-2020 4790.04 3352.89 85.04 2.00 338.48 2777.18
   11:11:39.807.02-Jan-2020 4790.04 3352.90 85.04 2.00 338.68 2777.18
   11:11:40.007.02-Jan-2020 4790.04 3352.94 85.04 2.00 338.88 2777.18
   11:11:40.207.02-Jan-2020 4790.04 3351.30 85.04 2.00 339.08 2777.18
   11:11:40.408.02-Jan-2020 4790.04 3351.30 85.04 2.00 339.28 2777.18
   11:11:40.608.02-Jan-2020 4790.04 3353.03 85.04 2.00 339.48 2777.18
   11:11:40.808.02-Jan-2020 4790.04 3352.63 85.04 2.00 339.68 2777.18
   11:11:41.008.02-Jan-2020 4790.04 3352.00 85.04 2.00 339.88 2777.18
   11:11:41.208.02-Jan-2020 4790.04 3353.24 85.04 2.00 340.08 2777.18
   11:11:41.408.02-Jan-2020 4790.04 3353.24 85.04 2.00 340.28 2777.18
   11:11:41.608.02-Jan-2020 4790.04 3353.32 85.04 2.00 340.48 2777.18
   11:11:41.808.02-Jan-2020 4790.04 3353.28 85.04 2.00 340.68 2777.18
   11:11:42.008.02-Jan-2020 4790.04 3352.02 85.04 2.00 340.88 2777.18
   11:11:42.208.02-Jan-2020 4790.04 3353.22 85.04 2.00 341.08 2777.18
   11:11:42.408.02-Jan-2020 4790.04 3353.22 85.04 2.00 341.28 2777.18
   11:11:42.608.02-Jan-2020 4790.04 3353.45 85.04 2.00 341.48 2777.18
   11:11:42.808.02-Jan-2020 4790.04 3352.34 85.04 2.00 341.68 2777.18
   11:11:43.008.02-Jan-2020 4790.04 3354.83 85.04 2.00 341.88 2777.18
   11:11:43.208.02-Jan-2020 4790.04 3354.76 85.04 2.00 342.08 2777.18
   11:11:43.408.02-Jan-2020 4790.04 3354.76 85.04 2.00 342.28 2777.18
   11:11:43.608.02-Jan-2020 4790.04 3353.24 85.04 2.00 342.48 2777.18
   11:11:43.808.02-Jan-2020 4790.04 3354.86 85.04 2.00 342.68 2777.18
   11:11:44.008.02-Jan-2020 4790.04 3354.82 85.04 2.00 342.88 2777.18
   11:11:44.208.02-Jan-2020 4790.04 3353.74 85.04 2.00 343.08 2777.18
   11:11:44.408.02-Jan-2020 4790.04 3353.74 85.04 2.00 343.28 2777.18
   11:11:44.609.02-Jan-2020 4790.04 3354.97 85.04 2.00 343.48 2777.18
   11:11:44.809.02-Jan-2020 4790.04 3355.18 85.04 2.00 343.68 2777.18
   11:11:45.009.02-Jan-2020 4790.04 3355.18 85.04 2.00 343.88 2777.18
   11:11:45.209.02-Jan-2020 4790.04 3355.27 85.04 2.00 344.08 2777.18
   11:11:45.409.02-Jan-2020 4790.04 3355.27 85.04 2.00 344.28 2777.18
   11:11:45.609.02-Jan-2020 4790.04 3355.34 85.04 2.00 344.48 2777.18
   11:11:45.809.02-Jan-2020 4790.04 3355.45 85.04 2.00 344.68 2777.18
   11:11:46.009.02-Jan-2020 4790.04 3353.86 85.04 2.00 344.88 2777.18
