~Version Information
 VERS.                  2.0:   CWLS log ASCII Standard -VERSION 2.0
 WRAP.                   NO:   One line per depth step
~Well Information Block
#MNEM.UNIT     VALUE/NAME     DESCRIPTION
#---------     -----------    ---------------------------
 STRT.S             13:48:18 02-Jan-20: START TIME 13:48:18 02-Jan-20
 STOP.S             13:56:34 02-Jan-20: STOP TIME  13:56:34 02-Jan-20
 STEP.S                   0.00: STEP TIME
 NULL.                 -999.25: NULL VALUE
 MDS .        Operator Entered:  MAG DATA SOURCE
 UNIT.                     N/a:  LOGGING EQUIPMENT ID
 DCON.         Sperry Drilling:  DIRECTNL CONTR
 CNTY.                    Baku:  COUNTY NAME
 DOE .                     N/a:  DOE NUMBER
 RIG .                     DWG:  RIG NAME
 MWDS.                    Baku:  MWD SHOP
 REGN.                   EESSA:  REGION
 BASE.              Azerbaijan:  LOGGING EQUIPMENT BASE LOCATION
 UWI .                     N/a:  UNIQUE WELL IDENTIFIER
 API .                     N/a:  API NUMBER
 WTYP.                Deviated:  WELL TYPE
 COMP.     BP Exploration (Caspian Sea) Ltd.:  COMPANY
 SRVC.          TURAN DRILLING:  CONTRACTOR
 WELL.           E04 (Slot 23):  WELL NAME
 CTRY.              Azerbaijan:  COUNTRY NAME
 SON .        AZ-XX-0905715376:  JOB NUMBER
 FLD .                     ACG:  FIELD NAME
 PDAT.          Mean Sea Level:  PERMANENT DATUM
 FTOP.          Formation Tops:  FORM TOPS DESC
 ILTD.               Lithology:  INTERP LTH DESC
 SVYD.                  Survey:  SURVEY DESC
 DMOD.             Drill Model:  DRILL MOD DESC
 HPTY.       Minimum Curvature:  HOLE POS TYPE
 NREF.                    Grid:  NORTH REFERENCE
 SPUD.               21-Dec-19:  SPUD DATE
 DATE.      17.57.20 21-Dec-19:  END TIME
 STIM.      17.57.20 21-Dec-19:  START TIME
 DMF .             Drill Floor:  DRILL MEAS FROM
 DFST.                        :  DIST FSL TEXT
 DFWT.                        :  DIST FWL TEXT
 PROV.                        :  PROVINCE
 STAT.                        :  STATE
 LOC .                        :  LOCATION
 LMF .             Drill Floor:  LOG MEASURED FROM
 AGAP.m                  43.16:  AIR GAP
 DEP .m                3172.61:  DEPTH
 APD .m                  43.16:  DEPTH ABOVE PD
 WDMS.m                 176.20:  WD ELEV
 EGL .m                   0.00:  GROUND ELEVATION
 EPD .m                   0.00:  ELEVATION
 AZTC.deg                 6.49:  AZM TOTAL CORR
 GRDC.deg                 0.09:  GRID CORRECTION
 MDEC.deg                 6.58:  MAGNETIC DECL
 MDIP.deg                59.61:  MAGNETIC DIP
 MFLD.nT              50294.00:  MAGNETIC FIELD
 GVFD.g                   1.00:  GRAVITY FIELD
 VSDR.deg               235.12:  VERT SEC DIRECT
 TDD .m                   0.00:  TOTAL DEPTH (DRILLER)
 SDEP.m                   0.00:  START DEPTH
 UTMY.m             4448627.46:  UTM Y
 UTMX.m              514337.95:  UTM X
 LONG.deg                51.17:  LONGITUDE
 LATI.deg                40.17:  LATITUDE
 TVDS.m                  43.16:  TVDSS CORRECTN
 WHEW.m                  -5.41:  WELL HEAD E/W
 WHNS.m                  -0.12:  WELL HEAD N/S
 VSEW.m                  -5.41:  VERT SEC E/W
 VSNS.m                  -0.12:  VERT SEC N/S
 EKB .m                  43.16:  KB ELEVATION
 EDF .m                  43.16:  DF ELEVATION
 MAGU.                 1852276:  MAGUTM CHECKSUM
 VSC .                       0:  VS TO CLOSURE
~Parameter Information Block
#MNEM.UNIT       Value        Description
#---------     -----------    ---------------------------
 TCS .hr                125.29:  Time Ciculation Ended 
 DD1 .      Fakhraddin Guliyev:  Direct Drillr 1 
 DD2 .                   Sanan:  Direct Drillr 2 
 DEFF.%                   0.00:  % Det Eff 
 DRET.      04.26.40 27-Dec-19:  Drill End Time 
 DRST.      04.26.40 27-Dec-19:  Drill Start Tim 
 DTIM.hr                 80.10:  Time Drilling 
 EDEP.m                   0.00:  End Depth 
 ENG1.            Adlet Omarov:  Engineer 1 
 ENG2.         Almaz Almadatov:  Engineer 2 
 ETIM.      04.26.40 27-Dec-19:  End Time 
 HFLO.                      No:  High Flow 
 HPRE.                      No:  High Pressure 
 HTEM.                      No:  High Temp 
 HYDO.m                   1.85:  Hydro Offset 
 IMAX.deg                72.09:  Inc Max 
 IMIN.deg                59.07:  Inc Min 
 IMND.m                3901.43:  Inc Min Depth 
 IMXD.m                4753.85:  Inc Max Depth 
 LETM.      04.26.40 27-Dec-19:  Log End Time 
 LSTM.      04.26.40 27-Dec-19:  Log Start Time 
 OTIM.hr                187.88:  Time Operating 
 PMAX.psia            10202.94:  Press Op, Max 
 RUN .                     300:  Run Number 
 RRUN.                    0300:  Rig Run Number 
 SDEP.m                   0.00:  Start Depth 
 STIM.      04.26.40 27-Dec-19:  Start Time 
 SVER.                    9.20:  Sperry Version 
 MRT .                    HCIM:  Maximum Recorded Temperature 
 TTMX.degC               96.08:  Max Tool Temp 
~Curve Information Block
#MNEM.UNIT                 API CODE     Curve Description
#---------               -----------    ---------------------------
 TIME.HHMMSS            00 000 000 000:  GT Time & Date
 GTDEPTH.m              00 000 000 000:  GT Depth
 GTPQH.psia             00 000 000 000:  GT HR Quartz Pressure
 GTTQ.degC              00 000 000 000:  GT Quartz Temperature
 GTTN.NONE              00 000 000 000:  GT Test Number
 GTET.sec               00 000 000 000:  GT Elapsed Test Time
 GTTVD.m                00 000 000 000:  GT True Vertical Depth
#Other Information
#
#WARRANTY: Halliburton will use its best efforts to furnish customers with 
#accurate information and interpretations that are part of, and incident to, the services 
#provided.  However, Halliburton cannot and does not warrant the accuracy 
#or correctness of such information and interpretations.  Under no circumstances should any 
#such information or interpretation be relied upon as the sole basis for any drilling, 
#completion, production, or financial decision or any procedure involving any risk to the 
#safety of any drilling venture, drilling rig or its crew or any other third party.  The 
#Customer has full responsibility for all drilling, completion and production operation.  
#Halliburton makes no representations or warranties, either expressed or 
#implied, including, but not limited to, the implied warranties of merchantability or fitness 
#for a particular purpose, with respect to the services rendered.  In no event will 
#Halliburton be liable for failure to obtain any particular results or for 
#any damages, including, but not limited to, indirect, special or consequential damages, 
#resulting from the use of any information or interpretation provided by Halliburton.
#
~A           TIME           GTDEPTH  GTPQH  GTTQ  GTTN  GTET   GTTVD  
# ...
   13:52:08.250.02-Jan-2020 4773.81 4706.86 83.63 4.00 230.01 2772.13
   13:52:08.450.02-Jan-2020 4773.81 4706.86 83.63 4.00 230.21 2772.13
   13:52:08.650.02-Jan-2020 4773.81 4706.81 83.63 4.00 230.41 2772.13
   13:52:08.851.02-Jan-2020 4773.81 4707.51 83.63 4.00 230.61 2772.13
   13:52:09.051.02-Jan-2020 4773.81 4706.81 83.63 4.00 230.81 2772.13
   13:52:09.251.02-Jan-2020 4773.81 4706.89 83.63 4.00 231.01 2772.13
   13:52:09.451.02-Jan-2020 4773.81 4706.89 83.63 4.00 231.21 2772.13
   13:52:09.651.02-Jan-2020 4773.81 4707.98 83.63 4.00 231.41 2772.13
   13:52:09.851.02-Jan-2020 4773.81 4706.99 83.63 4.00 231.61 2772.13
   13:52:10.051.02-Jan-2020 4773.81 4706.41 83.63 4.00 231.81 2772.13
   13:52:10.251.02-Jan-2020 4773.81 4707.36 83.63 4.00 232.01 2772.13
   13:52:10.451.02-Jan-2020 4773.81 4707.36 83.63 4.00 232.21 2772.13
   13:52:10.651.02-Jan-2020 4773.81 4706.91 83.63 4.00 232.41 2772.13
   13:52:10.851.02-Jan-2020 4773.81 4706.91 83.63 4.00 232.61 2772.13
   13:52:11.051.02-Jan-2020 4773.81 4707.20 83.63 4.00 232.81 2772.13
   13:52:11.251.02-Jan-2020 4773.81 4706.86 83.63 4.00 233.01 2772.13
   13:52:11.451.02-Jan-2020 4773.81 4706.86 83.63 4.00 233.21 2772.13
   13:52:11.651.02-Jan-2020 4773.81 4706.96 83.63 4.00 233.41 2772.13
   13:52:11.851.02-Jan-2020 4773.81 4706.94 83.63 4.00 233.61 2772.13
   13:52:12.051.02-Jan-2020 4773.81 4706.91 83.63 4.00 233.81 2772.13
   13:52:12.251.02-Jan-2020 4773.81 4706.94 83.63 4.00 234.01 2772.13
   13:52:12.451.02-Jan-2020 4773.81 4706.94 83.63 4.00 234.21 2772.13
   13:52:12.651.02-Jan-2020 4773.81 4708.39 83.63 4.00 234.41 2772.13
   13:52:12.851.02-Jan-2020 4773.81 4707.11 83.63 4.00 234.61 2772.13
   13:52:13.051.02-Jan-2020 4773.81 4706.94 83.63 4.00 234.81 2772.13
   13:52:13.251.02-Jan-2020 4773.81 4706.88 83.63 4.00 235.01 2772.13
   13:52:13.451.02-Jan-2020 4773.81 4706.88 83.63 4.00 235.21 2772.13
   13:52:13.651.02-Jan-2020 4773.81 4707.58 83.63 4.00 235.41 2772.13
   13:52:13.851.02-Jan-2020 4773.81 4707.30 83.63 4.00 235.61 2772.13
   13:52:14.051.02-Jan-2020 4773.81 4706.94 83.63 4.00 235.81 2772.13
   13:52:14.251.02-Jan-2020 4773.81 4706.89 83.63 4.00 236.01 2772.13
   13:52:14.451.02-Jan-2020 4773.81 4706.89 83.63 4.00 236.21 2772.13
   13:52:14.651.02-Jan-2020 4773.81 4706.93 83.63 4.00 236.41 2772.13
   13:52:14.851.02-Jan-2020 4773.81 4707.52 83.63 4.00 236.61 2772.13
   13:52:15.051.02-Jan-2020 4773.81 4707.02 83.63 4.00 236.81 2772.13
   13:52:15.251.02-Jan-2020 4773.81 4706.96 83.63 4.00 237.01 2772.13
   13:52:15.451.02-Jan-2020 4773.81 4706.96 83.63 4.00 237.21 2772.13
   13:52:15.651.02-Jan-2020 4773.81 4706.02 83.63 4.00 237.41 2772.13
   13:52:15.851.02-Jan-2020 4773.81 4708.36 83.62 4.00 237.61 2772.13
   13:52:16.051.02-Jan-2020 4773.81 4707.12 83.62 4.00 237.81 2772.13
   13:52:16.251.02-Jan-2020 4773.81 4706.92 83.62 4.00 238.01 2772.13
   13:52:16.451.02-Jan-2020 4773.81 4706.92 83.62 4.00 238.21 2772.13
   13:52:16.651.02-Jan-2020 4773.81 4707.52 83.62 4.00 238.41 2772.13
   13:52:16.851.02-Jan-2020 4773.81 4707.38 83.62 4.00 238.61 2772.13
   13:52:17.051.02-Jan-2020 4773.81 4706.93 83.62 4.00 238.81 2772.13
   13:52:17.251.02-Jan-2020 4773.81 4706.64 83.62 4.00 239.01 2772.13
   13:52:17.451.02-Jan-2020 4773.81 4706.64 83.62 4.00 239.21 2772.13
   13:52:17.651.02-Jan-2020 4773.81 4706.97 83.62 4.00 239.41 2772.13
   13:52:17.851.02-Jan-2020 4773.81 4706.25 83.62 4.00 239.61 2772.13
   13:52:18.051.02-Jan-2020 4773.81 4707.98 83.62 4.00 239.81 2772.13
   13:52:18.251.02-Jan-2020 4773.81 4706.91 83.62 4.00 240.01 2772.13
   13:52:18.451.02-Jan-2020 4773.81 4706.91 83.62 4.00 240.21 2772.13
   13:52:18.651.02-Jan-2020 4773.81 4706.95 83.62 4.00 240.41 2772.13
   13:52:18.851.02-Jan-2020 4773.81 4706.94 83.62 4.00 240.61 2772.13
   13:52:19.051.02-Jan-2020 4773.81 4706.95 83.62 4.00 240.81 2772.13
   13:52:19.251.02-Jan-2020 4773.81 4706.94 83.62 4.00 241.01 2772.13
   13:52:19.451.02-Jan-2020 4773.81 4706.94 83.62 4.00 241.21 2772.13
   13:52:19.651.02-Jan-2020 4773.81 4707.38 83.62 4.00 241.41 2772.13
   13:52:19.851.02-Jan-2020 4773.81 4707.57 83.62 4.00 241.61 2772.13
   13:52:20.051.02-Jan-2020 4773.81 4707.05 83.62 4.00 241.81 2772.13
   13:52:20.251.02-Jan-2020 4773.81 4706.92 83.62 4.00 242.01 2772.13
   13:52:20.451.02-Jan-2020 4773.81 4706.92 83.62 4.00 242.21 2772.13
   13:52:20.651.02-Jan-2020 4773.81 4706.55 83.62 4.00 242.41 2772.13
   13:52:20.851.02-Jan-2020 4773.81 4707.78 83.62 4.00 242.61 2772.13
   13:52:21.051.02-Jan-2020 4773.81 4707.16 83.62 4.00 242.81 2772.13
   13:52:21.251.02-Jan-2020 4773.81 4707.10 83.62 4.00 243.01 2772.13
   13:52:21.451.02-Jan-2020 4773.81 4707.10 83.62 4.00 243.21 2772.13
   13:52:21.651.02-Jan-2020 4773.81 4706.02 83.62 4.00 243.41 2772.13
   13:52:21.851.02-Jan-2020 4773.81 4708.37 83.62 4.00 243.61 2772.13
   13:52:22.051.02-Jan-2020 4773.81 4707.39 83.62 4.00 243.81 2772.13
   13:52:22.251.02-Jan-2020 4773.81 4707.30 83.62 4.00 244.01 2772.13
   13:52:22.451.02-Jan-2020 4773.81 4707.30 83.62 4.00 244.21 2772.13
   13:52:22.651.02-Jan-2020 4773.81 4706.31 83.62 4.00 244.41 2772.13
   13:52:22.851.02-Jan-2020 4773.81 4707.04 83.62 4.00 244.61 2772.13
   13:52:23.051.02-Jan-2020 4773.81 4707.38 83.62 4.00 244.81 2772.13
   13:52:23.251.02-Jan-2020 4773.81 4706.88 83.62 4.00 245.01 2772.13
   13:52:23.451.02-Jan-2020 4773.81 4706.88 83.62 4.00 245.21 2772.13
   13:52:23.651.02-Jan-2020 4773.81 4706.20 83.62 4.00 245.41 2772.13
   13:52:23.851.02-Jan-2020 4773.81 4707.59 83.62 4.00 245.61 2772.13
   13:52:24.051.02-Jan-2020 4773.81 4707.03 83.62 4.00 245.81 2772.13
   13:52:24.251.02-Jan-2020 4773.81 4705.83 83.62 4.00 246.01 2772.13
   13:52:24.451.02-Jan-2020 4773.81 4705.83 83.62 4.00 246.21 2772.13
   13:52:24.651.02-Jan-2020 4773.81 4706.88 83.62 4.00 246.41 2772.13
   13:52:24.851.02-Jan-2020 4773.81 4705.56 83.62 4.00 246.61 2772.13
   13:52:25.051.02-Jan-2020 4773.81 4707.63 83.62 4.00 246.81 2772.13
   13:52:25.251.02-Jan-2020 4773.81 4706.94 83.62 4.00 247.01 2772.13
   13:52:25.451.02-Jan-2020 4773.81 4706.94 83.62 4.00 247.21 2772.13
   13:52:25.651.02-Jan-2020 4773.81 4706.65 83.62 4.00 247.41 2772.13
   13:52:25.851.02-Jan-2020 4773.81 4706.68 83.62 4.00 247.61 2772.13
   13:52:26.051.02-Jan-2020 4773.81 4706.66 83.62 4.00 247.81 2772.13
   13:52:26.251.02-Jan-2020 4773.81 4706.65 83.62 4.00 248.01 2772.13
   13:52:26.451.02-Jan-2020 4773.81 4706.65 83.62 4.00 248.21 2772.13
   13:52:26.651.02-Jan-2020 4773.81 4706.17 83.62 4.00 248.41 2772.13
   13:52:26.851.02-Jan-2020 4773.81 4707.93 83.62 4.00 248.61 2772.13
   13:52:27.051.02-Jan-2020 4773.81 4707.40 83.62 4.00 248.81 2772.13
   13:52:27.251.02-Jan-2020 4773.81 4707.35 83.62 4.00 249.01 2772.13
   13:52:27.451.02-Jan-2020 4773.81 4707.35 83.62 4.00 249.21 2772.13
   13:52:27.651.02-Jan-2020 4773.81 4707.15 83.62 4.00 249.41 2772.13
   13:52:27.851.02-Jan-2020 4773.81 4705.87 83.62 4.00 249.61 2772.13
   13:52:28.051.02-Jan-2020 4773.81 4707.98 83.62 4.00 249.81 2772.13
   13:52:28.251.02-Jan-2020 4773.81 4707.16 83.62 4.00 250.01 2772.13
   13:52:28.451.02-Jan-2020 4773.81 4707.16 83.62 4.00 250.21 2772.13
   13:52:28.651.02-Jan-2020 4773.81 4707.06 83.62 4.00 250.41 2772.13
   13:52:28.851.02-Jan-2020 4773.81 4705.61 83.62 4.00 250.61 2772.13
   13:52:29.051.02-Jan-2020 4773.81 4707.89 83.62 4.00 250.81 2772.13
   13:52:29.252.02-Jan-2020 4773.81 4707.37 83.62 4.00 251.01 2772.13
   13:52:29.452.02-Jan-2020 4773.81 4707.37 83.62 4.00 251.21 2772.13
   13:52:29.652.02-Jan-2020 4773.81 4707.21 83.62 4.00 251.41 2772.13
   13:52:29.852.02-Jan-2020 4773.81 4707.16 83.62 4.00 251.61 2772.13
   13:52:30.052.02-Jan-2020 4773.81 4706.14 83.62 4.00 251.81 2772.13
   13:52:30.252.02-Jan-2020 4773.81 4707.76 83.62 4.00 252.01 2772.13
   13:52:30.452.02-Jan-2020 4773.81 4707.76 83.62 4.00 252.21 2772.13
   13:52:30.652.02-Jan-2020 4773.81 4707.47 83.62 4.00 252.41 2772.13
   13:52:30.852.02-Jan-2020 4773.81 4705.97 83.62 4.00 252.61 2772.13
   13:52:31.052.02-Jan-2020 4773.81 4707.98 83.62 4.00 252.81 2772.13
