~Version Information
 VERS.                  2.0:   CWLS log ASCII Standard -VERSION 2.0
 WRAP.                   NO:   One line per depth step
~Well Information Block
#MNEM.UNIT     VALUE/NAME     DESCRIPTION
#---------     -----------    ---------------------------
 STRT.S             11:06:01 02-Jan-20: START TIME 11:06:01 02-Jan-20
 STOP.S             11:13:00 02-Jan-20: STOP TIME  11:13:00 02-Jan-20
 STEP.S                   0.00: STEP TIME
 NULL.                 -999.25: NULL VALUE
 MDS .        Operator Entered:  MAG DATA SOURCE
 UNIT.                     N/a:  LOGGING EQUIPMENT ID
 DCON.         Sperry Drilling:  DIRECTNL CONTR
 CNTY.                    Baku:  COUNTY NAME
 DOE .                     N/a:  DOE NUMBER
 RIG .                     DWG:  RIG NAME
 MWDS.                    Baku:  MWD SHOP
 REGN.                   EESSA:  REGION
 BASE.              Azerbaijan:  LOGGING EQUIPMENT BASE LOCATION
 UWI .                     N/a:  UNIQUE WELL IDENTIFIER
 API .                     N/a:  API NUMBER
 WTYP.                Deviated:  WELL TYPE
 COMP.     BP Exploration (Caspian Sea) Ltd.:  COMPANY
 SRVC.          TURAN DRILLING:  CONTRACTOR
 WELL.           E04 (Slot 23):  WELL NAME
 CTRY.              Azerbaijan:  COUNTRY NAME
 SON .        AZ-XX-0905715376:  JOB NUMBER
 FLD .                     ACG:  FIELD NAME
 PDAT.          Mean Sea Level:  PERMANENT DATUM
 FTOP.          Formation Tops:  FORM TOPS DESC
 ILTD.               Lithology:  INTERP LTH DESC
 SVYD.                  Survey:  SURVEY DESC
 DMOD.             Drill Model:  DRILL MOD DESC
 HPTY.       Minimum Curvature:  HOLE POS TYPE
 NREF.                    Grid:  NORTH REFERENCE
 SPUD.               21-Dec-19:  SPUD DATE
 DATE.      17.57.20 21-Dec-19:  END TIME
 STIM.      17.57.20 21-Dec-19:  START TIME
 DMF .             Drill Floor:  DRILL MEAS FROM
 DFST.                        :  DIST FSL TEXT
 DFWT.                        :  DIST FWL TEXT
 PROV.                        :  PROVINCE
 STAT.                        :  STATE
 LOC .                        :  LOCATION
 LMF .             Drill Floor:  LOG MEASURED FROM
 AGAP.m                  43.16:  AIR GAP
 DEP .m                3172.61:  DEPTH
 APD .m                  43.16:  DEPTH ABOVE PD
 WDMS.m                 176.20:  WD ELEV
 EGL .m                   0.00:  GROUND ELEVATION
 EPD .m                   0.00:  ELEVATION
 AZTC.deg                 6.49:  AZM TOTAL CORR
 GRDC.deg                 0.09:  GRID CORRECTION
 MDEC.deg                 6.58:  MAGNETIC DECL
 MDIP.deg                59.61:  MAGNETIC DIP
 MFLD.nT              50294.00:  MAGNETIC FIELD
 GVFD.g                   1.00:  GRAVITY FIELD
 VSDR.deg               235.12:  VERT SEC DIRECT
 TDD .m                   0.00:  TOTAL DEPTH (DRILLER)
 SDEP.m                   0.00:  START DEPTH
 UTMY.m             4448627.46:  UTM Y
 UTMX.m              514337.95:  UTM X
 LONG.deg                51.17:  LONGITUDE
 LATI.deg                40.17:  LATITUDE
 TVDS.m                  43.16:  TVDSS CORRECTN
 WHEW.m                  -5.41:  WELL HEAD E/W
 WHNS.m                  -0.12:  WELL HEAD N/S
 VSEW.m                  -5.41:  VERT SEC E/W
 VSNS.m                  -0.12:  VERT SEC N/S
 EKB .m                  43.16:  KB ELEVATION
 EDF .m                  43.16:  DF ELEVATION
 MAGU.                 1852276:  MAGUTM CHECKSUM
 VSC .                       0:  VS TO CLOSURE
~Parameter Information Block
#MNEM.UNIT       Value        Description
#---------     -----------    ---------------------------
 TCS .hr                125.29:  Time Ciculation Ended 
 DD1 .      Fakhraddin Guliyev:  Direct Drillr 1 
 DD2 .                   Sanan:  Direct Drillr 2 
 DEFF.%                   0.00:  % Det Eff 
 DRET.      04.26.40 27-Dec-19:  Drill End Time 
 DRST.      04.26.40 27-Dec-19:  Drill Start Tim 
 DTIM.hr                 80.10:  Time Drilling 
 EDEP.m                   0.00:  End Depth 
 ENG1.            Adlet Omarov:  Engineer 1 
 ENG2.         Almaz Almadatov:  Engineer 2 
 ETIM.      04.26.40 27-Dec-19:  End Time 
 HFLO.                      No:  High Flow 
 HPRE.                      No:  High Pressure 
 HTEM.                      No:  High Temp 
 HYDO.m                   1.85:  Hydro Offset 
 IMAX.deg                72.09:  Inc Max 
 IMIN.deg                59.07:  Inc Min 
 IMND.m                3901.43:  Inc Min Depth 
 IMXD.m                4753.85:  Inc Max Depth 
 LETM.      04.26.40 27-Dec-19:  Log End Time 
 LSTM.      04.26.40 27-Dec-19:  Log Start Time 
 OTIM.hr                187.88:  Time Operating 
 PMAX.psia            10202.94:  Press Op, Max 
 RUN .                     300:  Run Number 
 RRUN.                    0300:  Rig Run Number 
 SDEP.m                   0.00:  Start Depth 
 STIM.      04.26.40 27-Dec-19:  Start Time 
 SVER.                    9.20:  Sperry Version 
 MRT .                    HCIM:  Maximum Recorded Temperature 
 TTMX.degC               96.08:  Max Tool Temp 
~Curve Information Block
#MNEM.UNIT                 API CODE     Curve Description
#---------               -----------    ---------------------------
 TIME.HHMMSS            00 000 000 000:  GT Time & Date
 GTDEPTH.m              00 000 000 000:  GT Depth
 GTPQH.psia             00 000 000 000:  GT HR Quartz Pressure
 GTTQ.degC              00 000 000 000:  GT Quartz Temperature
 GTTN.NONE              00 000 000 000:  GT Test Number
 GTET.sec               00 000 000 000:  GT Elapsed Test Time
 GTTVD.m                00 000 000 000:  GT True Vertical Depth
#Other Information
#
#WARRANTY: Halliburton will use its best efforts to furnish customers with 
#accurate information and interpretations that are part of, and incident to, the services 
#provided.  However, Halliburton cannot and does not warrant the accuracy 
#or correctness of such information and interpretations.  Under no circumstances should any 
#such information or interpretation be relied upon as the sole basis for any drilling, 
#completion, production, or financial decision or any procedure involving any risk to the 
#safety of any drilling venture, drilling rig or its crew or any other third party.  The 
#Customer has full responsibility for all drilling, completion and production operation.  
#Halliburton makes no representations or warranties, either expressed or 
#implied, including, but not limited to, the implied warranties of merchantability or fitness 
#for a particular purpose, with respect to the services rendered.  In no event will 
#Halliburton be liable for failure to obtain any particular results or for 
#any damages, including, but not limited to, indirect, special or consequential damages, 
#resulting from the use of any information or interpretation provided by Halliburton.
#
~A           TIME           GTDEPTH  GTPQH  GTTQ  GTTN  GTET   GTTVD  
# ...
   11:12:32.220.02-Jan-2020 4790.04 6148.08 85.08 2.00 391.09 2777.18
   11:12:32.420.02-Jan-2020 4790.04 6148.08 85.08 2.00 391.29 2777.18
   11:12:32.620.02-Jan-2020 4790.04 6153.58 85.08 2.00 391.49 2777.18
   11:12:32.820.02-Jan-2020 4790.04 6148.29 85.08 2.00 391.69 2777.18
   11:12:33.020.02-Jan-2020 4790.04 6156.65 85.08 2.00 391.89 2777.18
   11:12:33.220.02-Jan-2020 4790.04 6151.82 85.08 2.00 392.09 2777.18
   11:12:33.420.02-Jan-2020 4790.04 6151.82 85.08 2.00 392.29 2777.18
   11:12:33.620.02-Jan-2020 4790.04 6148.61 85.08 2.00 392.49 2777.18
   11:12:33.820.02-Jan-2020 4790.04 6149.09 85.08 2.00 392.69 2777.18
   11:12:34.020.02-Jan-2020 4790.04 6147.71 85.08 2.00 392.89 2777.18
   11:12:34.220.02-Jan-2020 4790.04 6148.24 85.08 2.00 393.09 2777.18
   11:12:34.420.02-Jan-2020 4790.04 6148.24 85.08 2.00 393.29 2777.18
   11:12:34.620.02-Jan-2020 4790.04 6151.30 85.08 2.00 393.49 2777.18
   11:12:34.820.02-Jan-2020 4790.04 6156.18 85.08 2.00 393.69 2777.18
   11:12:35.020.02-Jan-2020 4790.04 6153.95 85.08 2.00 393.89 2777.18
   11:12:35.220.02-Jan-2020 4790.04 6150.82 85.08 2.00 394.09 2777.18
   11:12:35.420.02-Jan-2020 4790.04 6150.82 85.08 2.00 394.29 2777.18
   11:12:35.621.02-Jan-2020 4790.04 6149.36 85.08 2.00 394.49 2777.18
   11:12:35.821.02-Jan-2020 4790.04 6151.59 85.08 2.00 394.69 2777.18
   11:12:36.021.02-Jan-2020 4790.04 6155.96 85.08 2.00 394.89 2777.18
   11:12:36.221.02-Jan-2020 4790.04 6152.44 85.08 2.00 395.09 2777.18
   11:12:36.421.02-Jan-2020 4790.04 6152.44 85.08 2.00 395.29 2777.18
   11:12:36.621.02-Jan-2020 4790.04 6156.18 85.08 2.00 395.49 2777.18
   11:12:36.821.02-Jan-2020 4790.04 6153.41 85.08 2.00 395.69 2777.18
   11:12:37.021.02-Jan-2020 4790.04 6150.06 85.08 2.00 395.89 2777.18
   11:12:37.221.02-Jan-2020 4790.04 6159.67 85.08 2.00 396.09 2777.18
   11:12:37.421.02-Jan-2020 4790.04 6159.67 85.08 2.00 396.29 2777.18
   11:12:37.621.02-Jan-2020 4790.04 6149.60 85.08 2.00 396.49 2777.18
   11:12:37.821.02-Jan-2020 4790.04 6150.13 85.08 2.00 396.69 2777.18
   11:12:38.021.02-Jan-2020 4790.04 6159.03 85.08 2.00 396.89 2777.18
   11:12:38.221.02-Jan-2020 4790.04 6150.97 85.08 2.00 397.09 2777.18
   11:12:38.421.02-Jan-2020 4790.04 6150.97 85.08 2.00 397.29 2777.18
   11:12:38.621.02-Jan-2020 4790.04 6150.05 85.08 2.00 397.49 2777.18
   11:12:38.821.02-Jan-2020 4790.04 6149.78 85.08 2.00 397.69 2777.18
   11:12:39.021.02-Jan-2020 4790.04 6149.44 85.08 2.00 397.89 2777.18
   11:12:39.221.02-Jan-2020 4790.04 6158.27 85.08 2.00 398.09 2777.18
   11:12:39.421.02-Jan-2020 4790.04 6158.27 85.08 2.00 398.29 2777.18
   11:12:39.621.02-Jan-2020 4790.04 6149.69 85.08 2.00 398.49 2777.18
   11:12:39.821.02-Jan-2020 4790.04 6148.63 85.08 2.00 398.69 2777.18
   11:12:40.022.02-Jan-2020 4790.04 6155.64 85.08 2.00 398.89 2777.18
   11:12:40.222.02-Jan-2020 4790.04 6153.67 85.08 2.00 399.09 2777.18
   11:12:40.422.02-Jan-2020 4790.04 6153.67 85.08 2.00 399.29 2777.18
   11:12:40.622.02-Jan-2020 4790.04 6150.44 85.08 2.00 399.49 2777.18
   11:12:40.822.02-Jan-2020 4790.04 6149.57 85.08 2.00 399.69 2777.18
   11:12:41.022.02-Jan-2020 4790.04 6148.61 85.08 2.00 399.89 2777.18
   11:12:41.222.02-Jan-2020 4790.04 6150.00 85.08 2.00 400.09 2777.18
   11:12:41.422.02-Jan-2020 4790.04 6150.00 85.08 2.00 400.29 2777.18
   11:12:41.622.02-Jan-2020 4790.04 6158.25 85.08 2.00 400.49 2777.18
   11:12:41.822.02-Jan-2020 4790.04 6152.63 85.08 2.00 400.69 2777.18
   11:12:42.022.02-Jan-2020 4790.04 6149.94 85.08 2.00 400.89 2777.18
   11:12:42.222.02-Jan-2020 4790.04 6150.52 85.07 2.00 401.09 2777.18
   11:12:42.422.02-Jan-2020 4790.04 6150.52 85.07 2.00 401.29 2777.18
   11:12:42.622.02-Jan-2020 4790.04 6151.40 85.07 2.00 401.49 2777.18
   11:12:42.822.02-Jan-2020 4790.04 6155.73 85.07 2.00 401.69 2777.18
   11:12:43.022.02-Jan-2020 4790.04 6152.16 85.07 2.00 401.89 2777.18
   11:12:43.222.02-Jan-2020 4790.04 6149.60 85.07 2.00 402.09 2777.18
   11:12:43.422.02-Jan-2020 4790.04 6149.60 85.07 2.00 402.29 2777.18
   11:12:43.622.02-Jan-2020 4790.04 6152.99 85.07 2.00 402.49 2777.18
   11:12:43.822.02-Jan-2020 4790.04 6149.60 85.07 2.00 402.69 2777.18
   11:12:44.022.02-Jan-2020 4790.04 6159.43 85.07 2.00 402.89 2777.18
   11:12:44.223.02-Jan-2020 4790.04 6151.83 85.07 2.00 403.09 2777.18
   11:12:44.423.02-Jan-2020 4790.04 6151.83 85.07 2.00 403.29 2777.18
   11:12:44.623.02-Jan-2020 4790.04 6149.76 85.07 2.00 403.49 2777.18
   11:12:44.823.02-Jan-2020 4790.04 6158.52 85.07 2.00 403.69 2777.18
   11:12:45.023.02-Jan-2020 4790.04 6150.56 85.07 2.00 403.89 2777.18
   11:12:45.223.02-Jan-2020 4790.04 6148.68 85.07 2.00 404.09 2777.18
   11:12:45.423.02-Jan-2020 4790.04 6148.68 85.07 2.00 404.30 2777.18
   11:12:45.623.02-Jan-2020 4790.04 6152.32 85.07 2.00 404.50 2777.18
   11:12:45.823.02-Jan-2020 4790.04 6148.55 85.07 2.00 404.70 2777.18
   11:12:46.023.02-Jan-2020 4790.04 6152.05 85.07 2.00 404.90 2777.18
   11:12:46.223.02-Jan-2020 4790.04 6156.17 85.07 2.00 405.10 2777.18
   11:12:46.423.02-Jan-2020 4790.04 6156.17 85.07 2.00 405.30 2777.18
   11:12:46.623.02-Jan-2020 4790.04 6148.33 85.07 2.00 405.50 2777.18
   11:12:46.823.02-Jan-2020 4790.04 6149.97 85.07 2.00 405.70 2777.18
   11:12:47.023.02-Jan-2020 4790.04 6149.19 85.07 2.00 405.90 2777.18
   11:12:47.223.02-Jan-2020 4790.04 6148.91 85.07 2.00 406.10 2777.18
   11:12:47.423.02-Jan-2020 4790.04 6148.91 85.07 2.00 406.30 2777.18
   11:12:47.623.02-Jan-2020 4790.04 6150.57 85.07 2.00 406.50 2777.18
   11:12:47.823.02-Jan-2020 4790.04 6158.76 85.07 2.00 406.70 2777.18
   11:12:48.023.02-Jan-2020 4790.04 6151.79 85.07 2.00 406.90 2777.18
   11:12:48.223.02-Jan-2020 4790.04 6150.63 85.07 2.00 407.10 2777.18
   11:12:48.424.02-Jan-2020 4790.04 6150.63 85.07 2.00 407.30 2777.18
   11:12:48.624.02-Jan-2020 4790.04 6149.49 85.07 2.00 407.50 2777.18
   11:12:48.824.02-Jan-2020 4790.04 6149.55 85.07 2.00 407.70 2777.18
   11:12:49.024.02-Jan-2020 4790.04 6157.13 85.07 2.00 407.90 2777.18
   11:12:49.224.02-Jan-2020 4790.04 6155.84 85.07 2.00 408.10 2777.18
   11:12:49.424.02-Jan-2020 4790.04 6155.84 85.07 2.00 408.30 2777.18
   11:12:49.624.02-Jan-2020 4790.04 6159.86 85.07 2.00 408.50 2777.18
   11:12:49.824.02-Jan-2020 4790.04 6152.43 85.07 2.00 408.70 2777.18
   11:12:50.024.02-Jan-2020 4790.04 6150.34 85.07 2.00 408.90 2777.18
   11:12:50.224.02-Jan-2020 4790.04 6159.01 85.07 2.00 409.10 2777.18
   11:12:50.424.02-Jan-2020 4790.04 6159.01 85.07 2.00 409.30 2777.18
   11:12:50.624.02-Jan-2020 4790.04 6149.23 85.07 2.00 409.50 2777.18
   11:12:50.824.02-Jan-2020 4790.04 6148.81 85.07 2.00 409.70 2777.18
   11:12:51.024.02-Jan-2020 4790.04 6157.33 85.07 2.00 409.90 2777.18
   11:12:51.224.02-Jan-2020 4790.04 6151.24 85.07 2.00 410.10 2777.18
   11:12:51.424.02-Jan-2020 4790.04 6151.24 85.07 2.00 410.30 2777.18
   11:12:51.624.02-Jan-2020 4790.04 6149.20 85.07 2.00 410.50 2777.18
   11:12:51.824.02-Jan-2020 4790.04 6150.01 85.07 2.00 410.70 2777.18
   11:12:52.024.02-Jan-2020 4790.04 6149.75 85.07 2.00 410.90 2777.18
   11:12:52.224.02-Jan-2020 4790.04 6152.23 85.07 2.00 411.10 2777.18
   11:12:52.424.02-Jan-2020 4790.04 6152.23 85.07 2.00 411.30 2777.18
   11:12:52.624.02-Jan-2020 4790.04 6151.70 85.06 2.00 411.50 2777.18
   11:12:52.825.02-Jan-2020 4790.04 6148.47 85.06 2.00 411.70 2777.18
   11:12:53.025.02-Jan-2020 4790.04 6158.34 85.06 2.00 411.90 2777.18
   11:12:53.225.02-Jan-2020 4790.04 6151.44 85.06 2.00 412.10 2777.18
   11:12:53.425.02-Jan-2020 4790.04 6151.44 85.06 2.00 412.30 2777.18
   11:12:53.625.02-Jan-2020 4790.04 6150.47 85.06 2.00 412.50 2777.18
   11:12:53.825.02-Jan-2020 4790.04 6150.32 85.06 2.00 412.70 2777.18
   11:12:54.025.02-Jan-2020 4790.04 6148.94 85.06 2.00 412.90 2777.18
   11:12:54.225.02-Jan-2020 4790.04 6149.98 85.06 2.00 413.10 2777.18
   11:12:54.425.02-Jan-2020 4790.04 6149.98 85.06 2.00 413.30 2777.18
   11:12:54.625.02-Jan-2020 4790.04 6152.75 85.06 2.00 413.50 2777.18
   11:12:54.825.02-Jan-2020 4790.04 6155.31 85.06 2.00 413.70 2777.18
   11:12:55.025.02-Jan-2020 4790.04 6151.71 85.06 2.00 413.90 2777.18
