~Version Information
 VERS.                  2.0:   CWLS log ASCII Standard -VERSION 2.0
 WRAP.                   NO:   One line per depth step
~Well Information Block
#MNEM.UNIT     VALUE/NAME     DESCRIPTION
#---------     -----------    ---------------------------
 STRT.S             13:01:02 02-Jan-20: START TIME 13:01:02 02-Jan-20
 STOP.S             13:09:15 02-Jan-20: STOP TIME  13:09:15 02-Jan-20
 STEP.S                   0.00: STEP TIME
 NULL.                 -999.25: NULL VALUE
 MDS .        Operator Entered:  MAG DATA SOURCE
 UNIT.                     N/a:  LOGGING EQUIPMENT ID
 DCON.         Sperry Drilling:  DIRECTNL CONTR
 CNTY.                    Baku:  COUNTY NAME
 DOE .                     N/a:  DOE NUMBER
 RIG .                     DWG:  RIG NAME
 MWDS.                    Baku:  MWD SHOP
 REGN.                   EESSA:  REGION
 BASE.              Azerbaijan:  LOGGING EQUIPMENT BASE LOCATION
 UWI .                     N/a:  UNIQUE WELL IDENTIFIER
 API .                     N/a:  API NUMBER
 WTYP.                Deviated:  WELL TYPE
 COMP.     BP Exploration (Caspian Sea) Ltd.:  COMPANY
 SRVC.          TURAN DRILLING:  CONTRACTOR
 WELL.           E04 (Slot 23):  WELL NAME
 CTRY.              Azerbaijan:  COUNTRY NAME
 SON .        AZ-XX-0905715376:  JOB NUMBER
 FLD .                     ACG:  FIELD NAME
 PDAT.          Mean Sea Level:  PERMANENT DATUM
 FTOP.          Formation Tops:  FORM TOPS DESC
 ILTD.               Lithology:  INTERP LTH DESC
 SVYD.                  Survey:  SURVEY DESC
 DMOD.             Drill Model:  DRILL MOD DESC
 HPTY.       Minimum Curvature:  HOLE POS TYPE
 NREF.                    Grid:  NORTH REFERENCE
 SPUD.               21-Dec-19:  SPUD DATE
 DATE.      17.57.20 21-Dec-19:  END TIME
 STIM.      17.57.20 21-Dec-19:  START TIME
 DMF .             Drill Floor:  DRILL MEAS FROM
 DFST.                        :  DIST FSL TEXT
 DFWT.                        :  DIST FWL TEXT
 PROV.                        :  PROVINCE
 STAT.                        :  STATE
 LOC .                        :  LOCATION
 LMF .             Drill Floor:  LOG MEASURED FROM
 AGAP.m                  43.16:  AIR GAP
 DEP .m                3172.61:  DEPTH
 APD .m                  43.16:  DEPTH ABOVE PD
 WDMS.m                 176.20:  WD ELEV
 EGL .m                   0.00:  GROUND ELEVATION
 EPD .m                   0.00:  ELEVATION
 AZTC.deg                 6.49:  AZM TOTAL CORR
 GRDC.deg                 0.09:  GRID CORRECTION
 MDEC.deg                 6.58:  MAGNETIC DECL
 MDIP.deg                59.61:  MAGNETIC DIP
 MFLD.nT              50294.00:  MAGNETIC FIELD
 GVFD.g                   1.00:  GRAVITY FIELD
 VSDR.deg               235.12:  VERT SEC DIRECT
 TDD .m                   0.00:  TOTAL DEPTH (DRILLER)
 SDEP.m                   0.00:  START DEPTH
 UTMY.m             4448627.46:  UTM Y
 UTMX.m              514337.95:  UTM X
 LONG.deg                51.17:  LONGITUDE
 LATI.deg                40.17:  LATITUDE
 TVDS.m                  43.16:  TVDSS CORRECTN
 WHEW.m                  -5.41:  WELL HEAD E/W
 WHNS.m                  -0.12:  WELL HEAD N/S
 VSEW.m                  -5.41:  VERT SEC E/W
 VSNS.m                  -0.12:  VERT SEC N/S
 EKB .m                  43.16:  KB ELEVATION
 EDF .m                  43.16:  DF ELEVATION
 MAGU.                 1852276:  MAGUTM CHECKSUM
 VSC .                       0:  VS TO CLOSURE
~Parameter Information Block
#MNEM.UNIT       Value        Description
#---------     -----------    ---------------------------
 TCS .hr                125.29:  Time Ciculation Ended 
 DD1 .      Fakhraddin Guliyev:  Direct Drillr 1 
 DD2 .                   Sanan:  Direct Drillr 2 
 DEFF.%                   0.00:  % Det Eff 
 DRET.      04.26.40 27-Dec-19:  Drill End Time 
 DRST.      04.26.40 27-Dec-19:  Drill Start Tim 
 DTIM.hr                 80.10:  Time Drilling 
 EDEP.m                   0.00:  End Depth 
 ENG1.            Adlet Omarov:  Engineer 1 
 ENG2.         Almaz Almadatov:  Engineer 2 
 ETIM.      04.26.40 27-Dec-19:  End Time 
 HFLO.                      No:  High Flow 
 HPRE.                      No:  High Pressure 
 HTEM.                      No:  High Temp 
 HYDO.m                   1.85:  Hydro Offset 
 IMAX.deg                72.09:  Inc Max 
 IMIN.deg                59.07:  Inc Min 
 IMND.m                3901.43:  Inc Min Depth 
 IMXD.m                4753.85:  Inc Max Depth 
 LETM.      04.26.40 27-Dec-19:  Log End Time 
 LSTM.      04.26.40 27-Dec-19:  Log Start Time 
 OTIM.hr                187.88:  Time Operating 
 PMAX.psia            10202.94:  Press Op, Max 
 RUN .                     300:  Run Number 
 RRUN.                    0300:  Rig Run Number 
 SDEP.m                   0.00:  Start Depth 
 STIM.      04.26.40 27-Dec-19:  Start Time 
 SVER.                    9.20:  Sperry Version 
 MRT .                    HCIM:  Maximum Recorded Temperature 
 TTMX.degC               96.08:  Max Tool Temp 
~Curve Information Block
#MNEM.UNIT                 API CODE     Curve Description
#---------               -----------    ---------------------------
 TIME.HHMMSS            00 000 000 000:  GT Time & Date
 GTDEPTH.m              00 000 000 000:  GT Depth
 GTPQH.psia             00 000 000 000:  GT HR Quartz Pressure
 GTTQ.degC              00 000 000 000:  GT Quartz Temperature
 GTTN.NONE              00 000 000 000:  GT Test Number
 GTET.sec               00 000 000 000:  GT Elapsed Test Time
 GTTVD.m                00 000 000 000:  GT True Vertical Depth
#Other Information
#
#WARRANTY: Halliburton will use its best efforts to furnish customers with 
#accurate information and interpretations that are part of, and incident to, the services 
#provided.  However, Halliburton cannot and does not warrant the accuracy 
#or correctness of such information and interpretations.  Under no circumstances should any 
#such information or interpretation be relied upon as the sole basis for any drilling, 
#completion, production, or financial decision or any procedure involving any risk to the 
#safety of any drilling venture, drilling rig or its crew or any other third party.  The 
#Customer has full responsibility for all drilling, completion and production operation.  
#Halliburton makes no representations or warranties, either expressed or 
#implied, including, but not limited to, the implied warranties of merchantability or fitness 
#for a particular purpose, with respect to the services rendered.  In no event will 
#Halliburton be liable for failure to obtain any particular results or for 
#any damages, including, but not limited to, indirect, special or consequential damages, 
#resulting from the use of any information or interpretation provided by Halliburton.
#
~A           TIME           GTDEPTH  GTPQH  GTTQ  GTTN  GTET   GTTVD  
# ...
   13:08:42.123.02-Jan-2020 4774.33 6154.88 83.82 3.00 460.02 2772.29
   13:08:42.323.02-Jan-2020 4774.33 6154.88 83.82 3.00 460.22 2772.29
   13:08:42.523.02-Jan-2020 4774.33 6155.30 83.83 3.00 460.42 2772.29
   13:08:42.723.02-Jan-2020 4774.33 6155.61 83.83 3.00 460.62 2772.29
   13:08:42.923.02-Jan-2020 4774.33 6161.81 83.83 3.00 460.82 2772.29
   13:08:43.123.02-Jan-2020 4774.33 6159.47 83.83 3.00 461.02 2772.29
   13:08:43.323.02-Jan-2020 4774.33 6159.47 83.83 3.00 461.22 2772.29
   13:08:43.523.02-Jan-2020 4774.33 6155.29 83.83 3.00 461.42 2772.29
   13:08:43.723.02-Jan-2020 4774.33 6154.67 83.83 3.00 461.62 2772.29
   13:08:43.923.02-Jan-2020 4774.33 6154.70 83.83 3.00 461.82 2772.29
   13:08:44.123.02-Jan-2020 4774.33 6164.38 83.83 3.00 462.02 2772.29
   13:08:44.323.02-Jan-2020 4774.33 6164.38 83.83 3.00 462.22 2772.29
   13:08:44.523.02-Jan-2020 4774.33 6155.76 83.83 3.00 462.42 2772.29
   13:08:44.723.02-Jan-2020 4774.33 6157.93 83.83 3.00 462.62 2772.29
   13:08:44.923.02-Jan-2020 4774.33 6159.93 83.83 3.00 462.82 2772.29
   13:08:45.123.02-Jan-2020 4774.33 6159.31 83.83 3.00 463.02 2772.29
   13:08:45.323.02-Jan-2020 4774.33 6159.31 83.83 3.00 463.22 2772.29
   13:08:45.523.02-Jan-2020 4774.33 6163.08 83.83 3.00 463.42 2772.29
   13:08:45.723.02-Jan-2020 4774.33 6159.86 83.83 3.00 463.62 2772.29
   13:08:45.923.02-Jan-2020 4774.33 6155.04 83.83 3.00 463.82 2772.29
   13:08:46.123.02-Jan-2020 4774.33 6155.07 83.83 3.00 464.02 2772.29
   13:08:46.323.02-Jan-2020 4774.33 6155.07 83.83 3.00 464.22 2772.29
   13:08:46.523.02-Jan-2020 4774.33 6158.56 83.83 3.00 464.42 2772.29
   13:08:46.723.02-Jan-2020 4774.33 6158.69 83.83 3.00 464.62 2772.29
   13:08:46.923.02-Jan-2020 4774.33 6156.20 83.83 3.00 464.82 2772.29
   13:08:47.123.02-Jan-2020 4774.33 6162.46 83.83 3.00 465.02 2772.29
   13:08:47.323.02-Jan-2020 4774.33 6162.46 83.83 3.00 465.22 2772.29
   13:08:47.523.02-Jan-2020 4774.33 6154.46 83.83 3.00 465.42 2772.29
   13:08:47.723.02-Jan-2020 4774.33 6163.44 83.83 3.00 465.62 2772.29
   13:08:47.923.02-Jan-2020 4774.33 6156.92 83.83 3.00 465.82 2772.29
   13:08:48.123.02-Jan-2020 4774.33 6154.24 83.83 3.00 466.02 2772.29
   13:08:48.323.02-Jan-2020 4774.33 6154.24 83.83 3.00 466.22 2772.29
   13:08:48.523.02-Jan-2020 4774.33 6155.78 83.83 3.00 466.42 2772.29
   13:08:48.723.02-Jan-2020 4774.33 6155.11 83.83 3.00 466.62 2772.29
   13:08:48.923.02-Jan-2020 4774.33 6155.76 83.83 3.00 466.82 2772.29
   13:08:49.123.02-Jan-2020 4774.33 6156.75 83.83 3.00 467.02 2772.29
   13:08:49.323.02-Jan-2020 4774.33 6156.75 83.83 3.00 467.22 2772.29
   13:08:49.523.02-Jan-2020 4774.33 6161.32 83.83 3.00 467.42 2772.29
   13:08:49.723.02-Jan-2020 4774.33 6160.23 83.83 3.00 467.62 2772.29
   13:08:49.923.02-Jan-2020 4774.33 6156.04 83.83 3.00 467.82 2772.29
   13:08:50.123.02-Jan-2020 4774.33 6155.49 83.83 3.00 468.02 2772.29
   13:08:50.324.02-Jan-2020 4774.33 6155.49 83.83 3.00 468.22 2772.29
   13:08:50.524.02-Jan-2020 4774.33 6155.18 83.83 3.00 468.42 2772.29
   13:08:50.724.02-Jan-2020 4774.33 6162.35 83.83 3.00 468.62 2772.29
   13:08:50.924.02-Jan-2020 4774.33 6160.32 83.83 3.00 468.82 2772.29
   13:08:51.124.02-Jan-2020 4774.33 6156.01 83.83 3.00 469.02 2772.29
   13:08:51.324.02-Jan-2020 4774.33 6156.01 83.83 3.00 469.22 2772.29
   13:08:51.524.02-Jan-2020 4774.33 6160.63 83.83 3.00 469.42 2772.29
   13:08:51.724.02-Jan-2020 4774.33 6159.90 83.83 3.00 469.62 2772.29
   13:08:51.924.02-Jan-2020 4774.33 6156.41 83.83 3.00 469.82 2772.29
   13:08:52.124.02-Jan-2020 4774.33 6162.78 83.83 3.00 470.02 2772.29
   13:08:52.324.02-Jan-2020 4774.33 6162.78 83.83 3.00 470.22 2772.29
   13:08:52.524.02-Jan-2020 4774.33 6155.37 83.83 3.00 470.42 2772.29
   13:08:52.724.02-Jan-2020 4774.33 6155.68 83.83 3.00 470.62 2772.29
   13:08:52.924.02-Jan-2020 4774.33 6158.38 83.83 3.00 470.82 2772.29
   13:08:53.124.02-Jan-2020 4774.33 6159.85 83.83 3.00 471.02 2772.29
   13:08:53.324.02-Jan-2020 4774.33 6159.85 83.83 3.00 471.22 2772.29
   13:08:53.524.02-Jan-2020 4774.33 6157.12 83.83 3.00 471.42 2772.29
   13:08:53.724.02-Jan-2020 4774.33 6156.79 83.82 3.00 471.62 2772.29
   13:08:53.924.02-Jan-2020 4774.33 6161.59 83.82 3.00 471.82 2772.29
   13:08:54.124.02-Jan-2020 4774.33 6159.43 83.82 3.00 472.02 2772.29
   13:08:54.324.02-Jan-2020 4774.33 6159.43 83.82 3.00 472.22 2772.29
   13:08:54.524.02-Jan-2020 4774.33 6164.69 83.82 3.00 472.42 2772.29
   13:08:54.724.02-Jan-2020 4774.33 6157.77 83.82 3.00 472.62 2772.29
   13:08:54.924.02-Jan-2020 4774.33 6155.03 83.82 3.00 472.82 2772.29
   13:08:55.124.02-Jan-2020 4774.33 6156.04 83.82 3.00 473.02 2772.29
   13:08:55.324.02-Jan-2020 4774.33 6156.04 83.82 3.00 473.22 2772.29
   13:08:55.524.02-Jan-2020 4774.33 6154.97 83.82 3.00 473.42 2772.29
   13:08:55.724.02-Jan-2020 4774.33 6155.54 83.82 3.00 473.62 2772.29
   13:08:55.924.02-Jan-2020 4774.33 6156.51 83.82 3.00 473.82 2772.29
   13:08:56.124.02-Jan-2020 4774.33 6158.95 83.82 3.00 474.02 2772.29
   13:08:56.324.02-Jan-2020 4774.33 6158.95 83.82 3.00 474.22 2772.29
   13:08:56.524.02-Jan-2020 4774.33 6159.67 83.82 3.00 474.42 2772.29
   13:08:56.724.02-Jan-2020 4774.33 6155.79 83.82 3.00 474.62 2772.29
   13:08:56.924.02-Jan-2020 4774.33 6155.80 83.82 3.00 474.82 2772.29
   13:08:57.124.02-Jan-2020 4774.33 6161.86 83.82 3.00 475.02 2772.29
   13:08:57.324.02-Jan-2020 4774.33 6161.86 83.82 3.00 475.22 2772.29
   13:08:57.524.02-Jan-2020 4774.33 6156.12 83.82 3.00 475.42 2772.29
   13:08:57.724.02-Jan-2020 4774.33 6155.99 83.82 3.00 475.62 2772.29
   13:08:57.924.02-Jan-2020 4774.33 6163.98 83.82 3.00 475.82 2772.29
   13:08:58.124.02-Jan-2020 4774.33 6157.41 83.82 3.00 476.02 2772.29
   13:08:58.324.02-Jan-2020 4774.33 6157.41 83.82 3.00 476.22 2772.29
   13:08:58.524.02-Jan-2020 4774.33 6165.04 83.82 3.00 476.42 2772.29
   13:08:58.724.02-Jan-2020 4774.33 6157.48 83.82 3.00 476.62 2772.29
   13:08:58.924.02-Jan-2020 4774.33 6156.92 83.82 3.00 476.82 2772.29
   13:08:59.124.02-Jan-2020 4774.33 6155.84 83.82 3.00 477.02 2772.29
   13:08:59.324.02-Jan-2020 4774.33 6155.84 83.82 3.00 477.22 2772.29
   13:08:59.524.02-Jan-2020 4774.33 6163.76 83.82 3.00 477.42 2772.29
   13:08:59.724.02-Jan-2020 4774.33 6157.55 83.82 3.00 477.62 2772.29
   13:08:59.924.02-Jan-2020 4774.33 6155.52 83.82 3.00 477.82 2772.29
   13:09:00.124.02-Jan-2020 4774.33 6156.10 83.82 3.00 478.02 2772.29
   13:09:00.324.02-Jan-2020 4774.33 6156.10 83.82 3.00 478.22 2772.29
   13:09:00.524.02-Jan-2020 4774.33 6154.96 83.82 3.00 478.42 2772.29
   13:09:00.724.02-Jan-2020 4774.33 6164.14 83.82 3.00 478.62 2772.29
   13:09:00.924.02-Jan-2020 4774.33 6158.08 83.82 3.00 478.82 2772.29
   13:09:01.124.02-Jan-2020 4774.33 6158.22 83.82 3.00 479.02 2772.29
   13:09:01.324.02-Jan-2020 4774.33 6158.22 83.82 3.00 479.22 2772.29
   13:09:01.524.02-Jan-2020 4774.33 6163.95 83.82 3.00 479.42 2772.29
   13:09:01.724.02-Jan-2020 4774.33 6157.20 83.82 3.00 479.62 2772.29
   13:09:01.924.02-Jan-2020 4774.33 6155.82 83.82 3.00 479.82 2772.29
   13:09:02.124.02-Jan-2020 4774.33 6156.48 83.82 3.00 480.02 2772.29
   13:09:02.324.02-Jan-2020 4774.33 6156.48 83.82 3.00 480.22 2772.29
   13:09:02.524.02-Jan-2020 4774.33 6155.48 83.82 3.00 480.42 2772.29
   13:09:02.724.02-Jan-2020 4774.33 6156.27 83.82 3.00 480.62 2772.29
   13:09:02.924.02-Jan-2020 4774.33 6156.65 83.82 3.00 480.82 2772.29
   13:09:03.124.02-Jan-2020 4774.33 6158.66 83.82 3.00 481.02 2772.29
   13:09:03.324.02-Jan-2020 4774.33 6158.66 83.82 3.00 481.22 2772.29
   13:09:03.524.02-Jan-2020 4774.33 6160.48 83.82 3.00 481.42 2772.29
   13:09:03.724.02-Jan-2020 4774.33 6156.87 83.82 3.00 481.62 2772.29
   13:09:03.924.02-Jan-2020 4774.33 6156.34 83.82 3.00 481.82 2772.29
   13:09:04.124.02-Jan-2020 4774.33 6155.47 83.82 3.00 482.02 2772.29
   13:09:04.324.02-Jan-2020 4774.33 6155.47 83.82 3.00 482.22 2772.29
   13:09:04.524.02-Jan-2020 4774.33 6160.04 83.82 3.00 482.42 2772.29
   13:09:04.724.02-Jan-2020 4774.33 6156.29 83.82 3.00 482.62 2772.29
   13:09:04.924.02-Jan-2020 4774.33 6158.83 83.82 3.00 482.82 2772.29
