~Version Information
 VERS.                  2.0:   CWLS log ASCII Standard -VERSION 2.0
 WRAP.                   NO:   One line per depth step
~Well Information Block
#MNEM.UNIT     VALUE/NAME     DESCRIPTION
#---------     -----------    ---------------------------
 STRT.S             11:06:01 02-Jan-20: START TIME 11:06:01 02-Jan-20
 STOP.S             11:13:00 02-Jan-20: STOP TIME  11:13:00 02-Jan-20
 STEP.S                   0.00: STEP TIME
 NULL.                 -999.25: NULL VALUE
 MDS .        Operator Entered:  MAG DATA SOURCE
 UNIT.                     N/a:  LOGGING EQUIPMENT ID
 DCON.         Sperry Drilling:  DIRECTNL CONTR
 CNTY.                    Baku:  COUNTY NAME
 DOE .                     N/a:  DOE NUMBER
 RIG .                     DWG:  RIG NAME
 MWDS.                    Baku:  MWD SHOP
 REGN.                   EESSA:  REGION
 BASE.              Azerbaijan:  LOGGING EQUIPMENT BASE LOCATION
 UWI .                     N/a:  UNIQUE WELL IDENTIFIER
 API .                     N/a:  API NUMBER
 WTYP.                Deviated:  WELL TYPE
 COMP.     BP Exploration (Caspian Sea) Ltd.:  COMPANY
 SRVC.          TURAN DRILLING:  CONTRACTOR
 WELL.           E04 (Slot 23):  WELL NAME
 CTRY.              Azerbaijan:  COUNTRY NAME
 SON .        AZ-XX-0905715376:  JOB NUMBER
 FLD .                     ACG:  FIELD NAME
 PDAT.          Mean Sea Level:  PERMANENT DATUM
 FTOP.          Formation Tops:  FORM TOPS DESC
 ILTD.               Lithology:  INTERP LTH DESC
 SVYD.                  Survey:  SURVEY DESC
 DMOD.             Drill Model:  DRILL MOD DESC
 HPTY.       Minimum Curvature:  HOLE POS TYPE
 NREF.                    Grid:  NORTH REFERENCE
 SPUD.               21-Dec-19:  SPUD DATE
 DATE.      17.57.20 21-Dec-19:  END TIME
 STIM.      17.57.20 21-Dec-19:  START TIME
 DMF .             Drill Floor:  DRILL MEAS FROM
 DFST.                        :  DIST FSL TEXT
 DFWT.                        :  DIST FWL TEXT
 PROV.                        :  PROVINCE
 STAT.                        :  STATE
 LOC .                        :  LOCATION
 LMF .             Drill Floor:  LOG MEASURED FROM
 AGAP.m                  43.16:  AIR GAP
 DEP .m                3172.61:  DEPTH
 APD .m                  43.16:  DEPTH ABOVE PD
 WDMS.m                 176.20:  WD ELEV
 EGL .m                   0.00:  GROUND ELEVATION
 EPD .m                   0.00:  ELEVATION
 AZTC.deg                 6.49:  AZM TOTAL CORR
 GRDC.deg                 0.09:  GRID CORRECTION
 MDEC.deg                 6.58:  MAGNETIC DECL
 MDIP.deg                59.61:  MAGNETIC DIP
 MFLD.nT              50294.00:  MAGNETIC FIELD
 GVFD.g                   1.00:  GRAVITY FIELD
 VSDR.deg               235.12:  VERT SEC DIRECT
 TDD .m                   0.00:  TOTAL DEPTH (DRILLER)
 SDEP.m                   0.00:  START DEPTH
 UTMY.m             4448627.46:  UTM Y
 UTMX.m              514337.95:  UTM X
 LONG.deg                51.17:  LONGITUDE
 LATI.deg                40.17:  LATITUDE
 TVDS.m                  43.16:  TVDSS CORRECTN
 WHEW.m                  -5.41:  WELL HEAD E/W
 WHNS.m                  -0.12:  WELL HEAD N/S
 VSEW.m                  -5.41:  VERT SEC E/W
 VSNS.m                  -0.12:  VERT SEC N/S
 EKB .m                  43.16:  KB ELEVATION
 EDF .m                  43.16:  DF ELEVATION
 MAGU.                 1852276:  MAGUTM CHECKSUM
 VSC .                       0:  VS TO CLOSURE
~Parameter Information Block
#MNEM.UNIT       Value        Description
#---------     -----------    ---------------------------
 TCS .hr                125.29:  Time Ciculation Ended 
 DD1 .      Fakhraddin Guliyev:  Direct Drillr 1 
 DD2 .                   Sanan:  Direct Drillr 2 
 DEFF.%                   0.00:  % Det Eff 
 DRET.      04.26.40 27-Dec-19:  Drill End Time 
 DRST.      04.26.40 27-Dec-19:  Drill Start Tim 
 DTIM.hr                 80.10:  Time Drilling 
 EDEP.m                   0.00:  End Depth 
 ENG1.            Adlet Omarov:  Engineer 1 
 ENG2.         Almaz Almadatov:  Engineer 2 
 ETIM.      04.26.40 27-Dec-19:  End Time 
 HFLO.                      No:  High Flow 
 HPRE.                      No:  High Pressure 
 HTEM.                      No:  High Temp 
 HYDO.m                   1.85:  Hydro Offset 
 IMAX.deg                72.09:  Inc Max 
 IMIN.deg                59.07:  Inc Min 
 IMND.m                3901.43:  Inc Min Depth 
 IMXD.m                4753.85:  Inc Max Depth 
 LETM.      04.26.40 27-Dec-19:  Log End Time 
 LSTM.      04.26.40 27-Dec-19:  Log Start Time 
 OTIM.hr                187.88:  Time Operating 
 PMAX.psia            10202.94:  Press Op, Max 
 RUN .                     300:  Run Number 
 RRUN.                    0300:  Rig Run Number 
 SDEP.m                   0.00:  Start Depth 
 STIM.      04.26.40 27-Dec-19:  Start Time 
 SVER.                    9.20:  Sperry Version 
 MRT .                    HCIM:  Maximum Recorded Temperature 
 TTMX.degC               96.08:  Max Tool Temp 
~Curve Information Block
#MNEM.UNIT                 API CODE     Curve Description
#---------               -----------    ---------------------------
 TIME.HHMMSS            00 000 000 000:  GT Time & Date
 GTDEPTH.m              00 000 000 000:  GT Depth
 GTPQH.psia             00 000 000 000:  GT HR Quartz Pressure
 GTTQ.degC              00 000 000 000:  GT Quartz Temperature
 GTTN.NONE              00 000 000 000:  GT Test Number
 GTET.sec               00 000 000 000:  GT Elapsed Test Time
 GTTVD.m                00 000 000 000:  GT True Vertical Depth
#Other Information
#
#WARRANTY: Halliburton will use its best efforts to furnish customers with 
#accurate information and interpretations that are part of, and incident to, the services 
#provided.  However, Halliburton cannot and does not warrant the accuracy 
#or correctness of such information and interpretations.  Under no circumstances should any 
#such information or interpretation be relied upon as the sole basis for any drilling, 
#completion, production, or financial decision or any procedure involving any risk to the 
#safety of any drilling venture, drilling rig or its crew or any other third party.  The 
#Customer has full responsibility for all drilling, completion and production operation.  
#Halliburton makes no representations or warranties, either expressed or 
#implied, including, but not limited to, the implied warranties of merchantability or fitness 
#for a particular purpose, with respect to the services rendered.  In no event will 
#Halliburton be liable for failure to obtain any particular results or for 
#any damages, including, but not limited to, indirect, special or consequential damages, 
#resulting from the use of any information or interpretation provided by Halliburton.
#
~A           TIME           GTDEPTH  GTPQH  GTTQ  GTTN  GTET   GTTVD  
# ...
   11:08:42.166.02-Jan-2020 4790.04 3939.71 85.10 2.00 161.04 2777.18
   11:08:42.366.02-Jan-2020 4790.04 3939.71 85.10 2.00 161.24 2777.18
   11:08:42.566.02-Jan-2020 4790.04 3944.03 85.10 2.00 161.44 2777.18
   11:08:42.766.02-Jan-2020 4790.04 3973.51 85.10 2.00 161.64 2777.18
   11:08:42.966.02-Jan-2020 4790.04 3974.79 85.10 2.00 161.84 2777.18
   11:08:43.166.02-Jan-2020 4790.04 3974.69 85.10 2.00 162.04 2777.18
   11:08:43.366.02-Jan-2020 4790.04 3974.69 85.10 2.00 162.24 2777.18
   11:08:43.566.02-Jan-2020 4790.04 3980.77 85.10 2.00 162.44 2777.18
   11:08:43.766.02-Jan-2020 4790.04 3981.20 85.10 2.00 162.64 2777.18
   11:08:43.966.02-Jan-2020 4790.04 3980.09 85.10 2.00 162.84 2777.18
   11:08:44.166.02-Jan-2020 4790.04 4017.41 85.10 2.00 163.04 2777.18
   11:08:44.366.02-Jan-2020 4790.04 4017.41 85.10 2.00 163.24 2777.18
   11:08:44.566.02-Jan-2020 4790.04 4462.09 85.10 2.00 163.44 2777.18
   11:08:44.766.02-Jan-2020 4790.04 4470.76 85.10 2.00 163.64 2777.18
   11:08:44.966.02-Jan-2020 4790.04 4475.23 85.10 2.00 163.84 2777.18
   11:08:45.166.02-Jan-2020 4790.04 4474.21 85.10 2.00 164.04 2777.18
   11:08:45.366.02-Jan-2020 4790.04 4474.21 85.10 2.00 164.24 2777.18
   11:08:45.566.02-Jan-2020 4790.04 4472.34 85.10 2.00 164.44 2777.18
   11:08:45.766.02-Jan-2020 4790.04 4470.02 85.10 2.00 164.64 2777.18
   11:08:45.967.02-Jan-2020 4790.04 4470.83 85.10 2.00 164.84 2777.18
   11:08:46.167.02-Jan-2020 4790.04 4470.29 85.10 2.00 165.04 2777.18
   11:08:46.367.02-Jan-2020 4790.04 4470.29 85.10 2.00 165.24 2777.18
   11:08:46.567.02-Jan-2020 4790.04 4469.57 85.10 2.00 165.44 2777.18
   11:08:46.767.02-Jan-2020 4790.04 4467.44 85.10 2.00 165.64 2777.18
   11:08:46.967.02-Jan-2020 4790.04 4469.05 85.10 2.00 165.84 2777.18
   11:08:47.167.02-Jan-2020 4790.04 4468.65 85.10 2.00 166.04 2777.18
   11:08:47.367.02-Jan-2020 4790.04 4468.65 85.10 2.00 166.24 2777.18
   11:08:47.567.02-Jan-2020 4790.04 4468.07 85.10 2.00 166.44 2777.18
   11:08:47.767.02-Jan-2020 4790.04 4467.84 85.10 2.00 166.64 2777.18
   11:08:47.967.02-Jan-2020 4790.04 4465.84 85.10 2.00 166.84 2777.18
   11:08:48.167.02-Jan-2020 4790.04 4467.53 85.10 2.00 167.04 2777.18
   11:08:48.367.02-Jan-2020 4790.04 4467.53 85.10 2.00 167.24 2777.18
   11:08:48.567.02-Jan-2020 4790.04 4466.99 85.10 2.00 167.44 2777.18
   11:08:48.767.02-Jan-2020 4790.04 4466.74 85.10 2.00 167.64 2777.18
   11:08:48.967.02-Jan-2020 4790.04 4466.56 85.10 2.00 167.84 2777.18
   11:08:49.167.02-Jan-2020 4790.04 4464.96 85.10 2.00 168.04 2777.18
   11:08:49.367.02-Jan-2020 4790.04 4464.96 85.10 2.00 168.24 2777.18
   11:08:49.567.02-Jan-2020 4790.04 4466.00 85.10 2.00 168.44 2777.18
   11:08:49.767.02-Jan-2020 4790.04 4465.96 85.10 2.00 168.64 2777.18
   11:08:49.967.02-Jan-2020 4790.04 4463.85 85.11 2.00 168.84 2777.18
   11:08:50.168.02-Jan-2020 4790.04 4465.65 85.11 2.00 169.04 2777.18
   11:08:50.368.02-Jan-2020 4790.04 4465.65 85.11 2.00 169.24 2777.18
   11:08:50.568.02-Jan-2020 4790.04 4465.36 85.11 2.00 169.44 2777.18
   11:08:50.768.02-Jan-2020 4790.04 4465.14 85.11 2.00 169.64 2777.18
   11:08:50.968.02-Jan-2020 4790.04 4465.01 85.11 2.00 169.84 2777.18
   11:08:51.168.02-Jan-2020 4790.04 4463.12 85.11 2.00 170.04 2777.18
   11:08:51.368.02-Jan-2020 4790.04 4463.12 85.11 2.00 170.24 2777.18
   11:08:51.568.02-Jan-2020 4790.04 4465.02 85.11 2.00 170.44 2777.18
   11:08:51.768.02-Jan-2020 4790.04 4464.20 85.11 2.00 170.64 2777.18
   11:08:51.968.02-Jan-2020 4790.04 4463.20 85.11 2.00 170.84 2777.18
   11:08:52.168.02-Jan-2020 4790.04 4464.63 85.11 2.00 171.04 2777.18
   11:08:52.368.02-Jan-2020 4790.04 4464.63 85.11 2.00 171.24 2777.18
   11:08:52.568.02-Jan-2020 4790.04 4464.39 85.11 2.00 171.44 2777.18
   11:08:52.768.02-Jan-2020 4790.04 4464.21 85.11 2.00 171.64 2777.18
   11:08:52.968.02-Jan-2020 4790.04 4464.15 85.11 2.00 171.84 2777.18
   11:08:53.168.02-Jan-2020 4790.04 4464.11 85.11 2.00 172.04 2777.18
   11:08:53.368.02-Jan-2020 4790.04 4464.11 85.11 2.00 172.24 2777.18
   11:08:53.568.02-Jan-2020 4790.04 4462.20 85.11 2.00 172.44 2777.18
   11:08:53.768.02-Jan-2020 4790.04 4464.20 85.11 2.00 172.64 2777.18
   11:08:53.968.02-Jan-2020 4790.04 4464.06 85.11 2.00 172.84 2777.18
   11:08:54.168.02-Jan-2020 4790.04 4464.09 85.11 2.00 173.04 2777.18
   11:08:54.368.02-Jan-2020 4790.04 4464.09 85.11 2.00 173.24 2777.18
   11:08:54.569.02-Jan-2020 4790.04 4462.38 85.11 2.00 173.44 2777.18
   11:08:54.769.02-Jan-2020 4790.04 4463.56 85.11 2.00 173.64 2777.18
   11:08:54.969.02-Jan-2020 4790.04 4463.76 85.11 2.00 173.84 2777.18
   11:08:55.169.02-Jan-2020 4790.04 4463.81 85.11 2.00 174.04 2777.18
   11:08:55.369.02-Jan-2020 4790.04 4463.81 85.11 2.00 174.24 2777.18
   11:08:55.569.02-Jan-2020 4790.04 4463.69 85.11 2.00 174.44 2777.18
   11:08:55.769.02-Jan-2020 4790.04 4463.67 85.11 2.00 174.64 2777.18
   11:08:55.969.02-Jan-2020 4790.04 4461.86 85.11 2.00 174.84 2777.18
   11:08:56.169.02-Jan-2020 4790.04 4463.85 85.11 2.00 175.04 2777.18
   11:08:56.369.02-Jan-2020 4790.04 4463.85 85.11 2.00 175.24 2777.18
   11:08:56.569.02-Jan-2020 4790.04 4463.60 85.11 2.00 175.44 2777.18
   11:08:56.769.02-Jan-2020 4790.04 4461.58 85.11 2.00 175.64 2777.18
   11:08:56.969.02-Jan-2020 4790.04 4463.55 85.11 2.00 175.84 2777.18
   11:08:57.169.02-Jan-2020 4790.04 4463.36 85.11 2.00 176.04 2777.18
   11:08:57.369.02-Jan-2020 4790.04 4463.36 85.11 2.00 176.24 2777.18
   11:08:57.569.02-Jan-2020 4790.04 4462.02 85.11 2.00 176.44 2777.18
   11:08:57.769.02-Jan-2020 4790.04 4463.49 85.11 2.00 176.64 2777.18
   11:08:57.969.02-Jan-2020 4790.04 4463.40 85.11 2.00 176.84 2777.18
   11:08:58.169.02-Jan-2020 4790.04 4463.39 85.11 2.00 177.04 2777.18
   11:08:58.369.02-Jan-2020 4790.04 4463.39 85.11 2.00 177.24 2777.18
   11:08:58.569.02-Jan-2020 4790.04 4463.04 85.11 2.00 177.44 2777.18
   11:08:58.770.02-Jan-2020 4790.04 4463.29 85.11 2.00 177.64 2777.18
   11:08:58.970.02-Jan-2020 4790.04 4463.40 85.11 2.00 177.84 2777.18
   11:08:59.170.02-Jan-2020 4790.04 4461.38 85.11 2.00 178.04 2777.18
   11:08:59.370.02-Jan-2020 4790.04 4461.38 85.11 2.00 178.24 2777.18
   11:08:59.570.02-Jan-2020 4790.04 4463.19 85.11 2.00 178.44 2777.18
   11:08:59.770.02-Jan-2020 4790.04 4463.31 85.11 2.00 178.64 2777.18
   11:08:59.970.02-Jan-2020 4790.04 4463.23 85.11 2.00 178.84 2777.18
   11:09:00.170.02-Jan-2020 4790.04 4463.20 85.11 2.00 179.04 2777.18
   11:09:00.370.02-Jan-2020 4790.04 4463.20 85.11 2.00 179.24 2777.18
   11:09:00.570.02-Jan-2020 4790.04 4463.22 85.11 2.00 179.44 2777.18
   11:09:00.770.02-Jan-2020 4790.04 4461.75 85.11 2.00 179.64 2777.18
   11:09:00.970.02-Jan-2020 4790.04 4463.07 85.11 2.00 179.84 2777.18
   11:09:01.170.02-Jan-2020 4790.04 4463.30 85.11 2.00 180.04 2777.18
   11:09:01.370.02-Jan-2020 4790.04 4463.30 85.11 2.00 180.24 2777.18
   11:09:01.570.02-Jan-2020 4790.04 4462.04 85.11 2.00 180.44 2777.18
   11:09:01.770.02-Jan-2020 4790.04 4463.59 85.11 2.00 180.64 2777.18
   11:09:01.970.02-Jan-2020 4790.04 4463.42 85.11 2.00 180.84 2777.18
   11:09:02.170.02-Jan-2020 4790.04 4463.48 85.11 2.00 181.04 2777.18
   11:09:02.370.02-Jan-2020 4790.04 4463.48 85.11 2.00 181.24 2777.18
   11:09:02.570.02-Jan-2020 4790.04 4463.49 85.11 2.00 181.44 2777.18
   11:09:02.770.02-Jan-2020 4790.04 4462.06 85.11 2.00 181.64 2777.18
   11:09:02.971.02-Jan-2020 4790.04 4463.48 85.11 2.00 181.84 2777.18
   11:09:03.171.02-Jan-2020 4790.04 4463.71 85.11 2.00 182.04 2777.18
   11:09:03.371.02-Jan-2020 4790.04 4463.71 85.11 2.00 182.24 2777.18
   11:09:03.571.02-Jan-2020 4790.04 4462.28 85.11 2.00 182.44 2777.18
   11:09:03.771.02-Jan-2020 4790.04 4464.96 85.11 2.00 182.64 2777.18
   11:09:03.971.02-Jan-2020 4790.04 4464.85 85.11 2.00 182.84 2777.18
   11:09:04.171.02-Jan-2020 4790.04 4464.98 85.11 2.00 183.04 2777.18
   11:09:04.371.02-Jan-2020 4790.04 4464.98 85.11 2.00 183.24 2777.18
   11:09:04.571.02-Jan-2020 4790.04 4465.07 85.11 2.00 183.44 2777.18
   11:09:04.771.02-Jan-2020 4790.04 4465.01 85.11 2.00 183.64 2777.18
   11:09:04.971.02-Jan-2020 4790.04 4465.19 85.11 2.00 183.84 2777.18
