~Version Information
 VERS.                  2.0:   CWLS log ASCII Standard -VERSION 2.0
 WRAP.                   NO:   One line per depth step
~Well Information Block
#MNEM.UNIT     VALUE/NAME     DESCRIPTION
#---------     -----------    ---------------------------
 STRT.S             13:01:02 02-Jan-20: START TIME 13:01:02 02-Jan-20
 STOP.S             13:09:15 02-Jan-20: STOP TIME  13:09:15 02-Jan-20
 STEP.S                   0.00: STEP TIME
 NULL.                 -999.25: NULL VALUE
 MDS .        Operator Entered:  MAG DATA SOURCE
 UNIT.                     N/a:  LOGGING EQUIPMENT ID
 DCON.         Sperry Drilling:  DIRECTNL CONTR
 CNTY.                    Baku:  COUNTY NAME
 DOE .                     N/a:  DOE NUMBER
 RIG .                     DWG:  RIG NAME
 MWDS.                    Baku:  MWD SHOP
 REGN.                   EESSA:  REGION
 BASE.              Azerbaijan:  LOGGING EQUIPMENT BASE LOCATION
 UWI .                     N/a:  UNIQUE WELL IDENTIFIER
 API .                     N/a:  API NUMBER
 WTYP.                Deviated:  WELL TYPE
 COMP.     BP Exploration (Caspian Sea) Ltd.:  COMPANY
 SRVC.          TURAN DRILLING:  CONTRACTOR
 WELL.           E04 (Slot 23):  WELL NAME
 CTRY.              Azerbaijan:  COUNTRY NAME
 SON .        AZ-XX-0905715376:  JOB NUMBER
 FLD .                     ACG:  FIELD NAME
 PDAT.          Mean Sea Level:  PERMANENT DATUM
 FTOP.          Formation Tops:  FORM TOPS DESC
 ILTD.               Lithology:  INTERP LTH DESC
 SVYD.                  Survey:  SURVEY DESC
 DMOD.             Drill Model:  DRILL MOD DESC
 HPTY.       Minimum Curvature:  HOLE POS TYPE
 NREF.                    Grid:  NORTH REFERENCE
 SPUD.               21-Dec-19:  SPUD DATE
 DATE.      17.57.20 21-Dec-19:  END TIME
 STIM.      17.57.20 21-Dec-19:  START TIME
 DMF .             Drill Floor:  DRILL MEAS FROM
 DFST.                        :  DIST FSL TEXT
 DFWT.                        :  DIST FWL TEXT
 PROV.                        :  PROVINCE
 STAT.                        :  STATE
 LOC .                        :  LOCATION
 LMF .             Drill Floor:  LOG MEASURED FROM
 AGAP.m                  43.16:  AIR GAP
 DEP .m                3172.61:  DEPTH
 APD .m                  43.16:  DEPTH ABOVE PD
 WDMS.m                 176.20:  WD ELEV
 EGL .m                   0.00:  GROUND ELEVATION
 EPD .m                   0.00:  ELEVATION
 AZTC.deg                 6.49:  AZM TOTAL CORR
 GRDC.deg                 0.09:  GRID CORRECTION
 MDEC.deg                 6.58:  MAGNETIC DECL
 MDIP.deg                59.61:  MAGNETIC DIP
 MFLD.nT              50294.00:  MAGNETIC FIELD
 GVFD.g                   1.00:  GRAVITY FIELD
 VSDR.deg               235.12:  VERT SEC DIRECT
 TDD .m                   0.00:  TOTAL DEPTH (DRILLER)
 SDEP.m                   0.00:  START DEPTH
 UTMY.m             4448627.46:  UTM Y
 UTMX.m              514337.95:  UTM X
 LONG.deg                51.17:  LONGITUDE
 LATI.deg                40.17:  LATITUDE
 TVDS.m                  43.16:  TVDSS CORRECTN
 WHEW.m                  -5.41:  WELL HEAD E/W
 WHNS.m                  -0.12:  WELL HEAD N/S
 VSEW.m                  -5.41:  VERT SEC E/W
 VSNS.m                  -0.12:  VERT SEC N/S
 EKB .m                  43.16:  KB ELEVATION
 EDF .m                  43.16:  DF ELEVATION
 MAGU.                 1852276:  MAGUTM CHECKSUM
 VSC .                       0:  VS TO CLOSURE
~Parameter Information Block
#MNEM.UNIT       Value        Description
#---------     -----------    ---------------------------
 TCS .hr                125.29:  Time Ciculation Ended 
 DD1 .      Fakhraddin Guliyev:  Direct Drillr 1 
 DD2 .                   Sanan:  Direct Drillr 2 
 DEFF.%                   0.00:  % Det Eff 
 DRET.      04.26.40 27-Dec-19:  Drill End Time 
 DRST.      04.26.40 27-Dec-19:  Drill Start Tim 
 DTIM.hr                 80.10:  Time Drilling 
 EDEP.m                   0.00:  End Depth 
 ENG1.            Adlet Omarov:  Engineer 1 
 ENG2.         Almaz Almadatov:  Engineer 2 
 ETIM.      04.26.40 27-Dec-19:  End Time 
 HFLO.                      No:  High Flow 
 HPRE.                      No:  High Pressure 
 HTEM.                      No:  High Temp 
 HYDO.m                   1.85:  Hydro Offset 
 IMAX.deg                72.09:  Inc Max 
 IMIN.deg                59.07:  Inc Min 
 IMND.m                3901.43:  Inc Min Depth 
 IMXD.m                4753.85:  Inc Max Depth 
 LETM.      04.26.40 27-Dec-19:  Log End Time 
 LSTM.      04.26.40 27-Dec-19:  Log Start Time 
 OTIM.hr                187.88:  Time Operating 
 PMAX.psia            10202.94:  Press Op, Max 
 RUN .                     300:  Run Number 
 RRUN.                    0300:  Rig Run Number 
 SDEP.m                   0.00:  Start Depth 
 STIM.      04.26.40 27-Dec-19:  Start Time 
 SVER.                    9.20:  Sperry Version 
 MRT .                    HCIM:  Maximum Recorded Temperature 
 TTMX.degC               96.08:  Max Tool Temp 
~Curve Information Block
#MNEM.UNIT                 API CODE     Curve Description
#---------               -----------    ---------------------------
 TIME.HHMMSS            00 000 000 000:  GT Time & Date
 GTDEPTH.m              00 000 000 000:  GT Depth
 GTPQH.psia             00 000 000 000:  GT HR Quartz Pressure
 GTTQ.degC              00 000 000 000:  GT Quartz Temperature
 GTTN.NONE              00 000 000 000:  GT Test Number
 GTET.sec               00 000 000 000:  GT Elapsed Test Time
 GTTVD.m                00 000 000 000:  GT True Vertical Depth
#Other Information
#
#WARRANTY: Halliburton will use its best efforts to furnish customers with 
#accurate information and interpretations that are part of, and incident to, the services 
#provided.  However, Halliburton cannot and does not warrant the accuracy 
#or correctness of such information and interpretations.  Under no circumstances should any 
#such information or interpretation be relied upon as the sole basis for any drilling, 
#completion, production, or financial decision or any procedure involving any risk to the 
#safety of any drilling venture, drilling rig or its crew or any other third party.  The 
#Customer has full responsibility for all drilling, completion and production operation.  
#Halliburton makes no representations or warranties, either expressed or 
#implied, including, but not limited to, the implied warranties of merchantability or fitness 
#for a particular purpose, with respect to the services rendered.  In no event will 
#Halliburton be liable for failure to obtain any particular results or for 
#any damages, including, but not limited to, indirect, special or consequential damages, 
#resulting from the use of any information or interpretation provided by Halliburton.
#
~A           TIME           GTDEPTH  GTPQH  GTTQ  GTTN  GTET   GTTVD  
# ...
   13:06:47.117.02-Jan-2020 4774.33 3754.82 83.83 3.00 345.02 2772.29
   13:06:47.317.02-Jan-2020 4774.33 3754.82 83.83 3.00 345.22 2772.29
   13:06:47.518.02-Jan-2020 4774.33 3774.02 83.83 3.00 345.42 2772.29
   13:06:47.718.02-Jan-2020 4774.33 3783.49 83.83 3.00 345.62 2772.29
   13:06:47.918.02-Jan-2020 4774.33 3792.68 83.83 3.00 345.82 2772.29
   13:06:48.118.02-Jan-2020 4774.33 3802.01 83.83 3.00 346.02 2772.29
   13:06:48.318.02-Jan-2020 4774.33 3802.01 83.83 3.00 346.22 2772.29
   13:06:48.518.02-Jan-2020 4774.33 3817.82 83.83 3.00 346.42 2772.29
   13:06:48.718.02-Jan-2020 4774.33 3829.06 83.83 3.00 346.62 2772.29
   13:06:48.918.02-Jan-2020 4774.33 3838.58 83.83 3.00 346.82 2772.29
   13:06:49.118.02-Jan-2020 4774.33 3845.85 83.83 3.00 347.02 2772.29
   13:06:49.318.02-Jan-2020 4774.33 3845.85 83.83 3.00 347.22 2772.29
   13:06:49.518.02-Jan-2020 4774.33 3864.79 83.83 3.00 347.42 2772.29
   13:06:49.718.02-Jan-2020 4774.33 3873.64 83.83 3.00 347.62 2772.29
   13:06:49.918.02-Jan-2020 4774.33 3882.06 83.83 3.00 347.82 2772.29
   13:06:50.118.02-Jan-2020 4774.33 3888.04 83.83 3.00 348.02 2772.29
   13:06:50.318.02-Jan-2020 4774.33 3888.04 83.83 3.00 348.22 2772.29
   13:06:50.518.02-Jan-2020 4774.33 3906.81 83.83 3.00 348.42 2772.29
   13:06:50.718.02-Jan-2020 4774.33 3915.36 83.83 3.00 348.62 2772.29
   13:06:50.918.02-Jan-2020 4774.33 3922.32 83.83 3.00 348.82 2772.29
   13:06:51.118.02-Jan-2020 4774.33 3929.13 83.83 3.00 349.02 2772.29
   13:06:51.318.02-Jan-2020 4774.33 3929.13 83.83 3.00 349.22 2772.29
   13:06:51.518.02-Jan-2020 4774.33 3946.99 83.84 3.00 349.42 2772.29
   13:06:51.718.02-Jan-2020 4774.33 3954.07 83.84 3.00 349.62 2772.29
   13:06:51.918.02-Jan-2020 4774.33 3961.03 83.84 3.00 349.82 2772.29
   13:06:52.118.02-Jan-2020 4774.33 3970.57 83.84 3.00 350.02 2772.29
   13:06:52.318.02-Jan-2020 4774.33 3970.57 83.84 3.00 350.22 2772.29
   13:06:52.518.02-Jan-2020 4774.33 3985.62 83.84 3.00 350.42 2772.29
   13:06:52.718.02-Jan-2020 4774.33 3990.73 83.84 3.00 350.62 2772.29
   13:06:52.918.02-Jan-2020 4774.33 4000.11 83.84 3.00 350.82 2772.29
   13:06:53.118.02-Jan-2020 4774.33 4007.71 83.84 3.00 351.02 2772.29
   13:06:53.318.02-Jan-2020 4774.33 4007.71 83.84 3.00 351.22 2772.29
   13:06:53.518.02-Jan-2020 4774.33 4019.88 83.84 3.00 351.42 2772.29
   13:06:53.718.02-Jan-2020 4774.33 4028.79 83.84 3.00 351.62 2772.29
   13:06:53.918.02-Jan-2020 4774.33 4035.92 83.84 3.00 351.82 2772.29
   13:06:54.118.02-Jan-2020 4774.33 4043.11 83.84 3.00 352.02 2772.29
   13:06:54.318.02-Jan-2020 4774.33 4043.11 83.84 3.00 352.22 2772.29
   13:06:54.518.02-Jan-2020 4774.33 4056.71 83.84 3.00 352.42 2772.29
   13:06:54.718.02-Jan-2020 4774.33 4063.40 83.84 3.00 352.62 2772.29
   13:06:54.918.02-Jan-2020 4774.33 4069.67 83.84 3.00 352.82 2772.29
   13:06:55.118.02-Jan-2020 4774.33 4073.96 83.84 3.00 353.02 2772.29
   13:06:55.318.02-Jan-2020 4774.33 4073.96 83.84 3.00 353.22 2772.29
   13:06:55.518.02-Jan-2020 4774.33 4089.07 83.84 3.00 353.42 2772.29
   13:06:55.718.02-Jan-2020 4774.33 4095.86 83.84 3.00 353.62 2772.29
   13:06:55.918.02-Jan-2020 4774.33 4102.04 83.84 3.00 353.82 2772.29
   13:06:56.118.02-Jan-2020 4774.33 4106.59 83.84 3.00 354.02 2772.29
   13:06:56.318.02-Jan-2020 4774.33 4106.59 83.84 3.00 354.22 2772.29
   13:06:56.518.02-Jan-2020 4774.33 4120.57 83.84 3.00 354.42 2772.29
   13:06:56.718.02-Jan-2020 4774.33 4127.12 83.84 3.00 354.62 2772.29
   13:06:56.918.02-Jan-2020 4774.33 4133.19 83.84 3.00 354.82 2772.29
   13:06:57.118.02-Jan-2020 4774.33 4138.89 83.84 3.00 355.02 2772.29
   13:06:57.318.02-Jan-2020 4774.33 4138.89 83.84 3.00 355.22 2772.29
   13:06:57.518.02-Jan-2020 4774.33 4150.65 83.84 3.00 355.42 2772.29
   13:06:57.718.02-Jan-2020 4774.33 4156.68 83.84 3.00 355.62 2772.29
   13:06:57.918.02-Jan-2020 4774.33 4162.88 83.84 3.00 355.82 2772.29
   13:06:58.118.02-Jan-2020 4774.33 4168.48 83.84 3.00 356.02 2772.29
   13:06:58.318.02-Jan-2020 4774.33 4168.48 83.84 3.00 356.22 2772.29
   13:06:58.518.02-Jan-2020 4774.33 4177.43 83.84 3.00 356.42 2772.29
   13:06:58.718.02-Jan-2020 4774.33 4185.17 83.84 3.00 356.62 2772.29
   13:06:58.918.02-Jan-2020 4774.33 4191.20 83.84 3.00 356.82 2772.29
   13:06:59.118.02-Jan-2020 4774.33 4197.35 83.84 3.00 357.02 2772.29
   13:06:59.318.02-Jan-2020 4774.33 4197.35 83.84 3.00 357.22 2772.29
   13:06:59.518.02-Jan-2020 4774.33 4208.08 83.84 3.00 357.42 2772.29
   13:06:59.718.02-Jan-2020 4774.33 4214.20 83.84 3.00 357.62 2772.29
   13:06:59.918.02-Jan-2020 4774.33 4217.74 83.84 3.00 357.82 2772.29
   13:07:00.118.02-Jan-2020 4774.33 4225.33 83.84 3.00 358.02 2772.29
   13:07:00.318.02-Jan-2020 4774.33 4225.33 83.84 3.00 358.22 2772.29
   13:07:00.518.02-Jan-2020 4774.33 4235.08 83.84 3.00 358.42 2772.29
   13:07:00.718.02-Jan-2020 4774.33 4241.41 83.84 3.00 358.62 2772.29
   13:07:00.918.02-Jan-2020 4774.33 4247.41 83.84 3.00 358.82 2772.29
   13:07:01.118.02-Jan-2020 4774.33 4253.13 83.84 3.00 359.02 2772.29
   13:07:01.318.02-Jan-2020 4774.33 4253.13 83.84 3.00 359.22 2772.29
   13:07:01.518.02-Jan-2020 4774.33 4263.54 83.84 3.00 359.42 2772.29
   13:07:01.718.02-Jan-2020 4774.33 4268.70 83.84 3.00 359.62 2772.29
   13:07:01.918.02-Jan-2020 4774.33 4273.93 83.84 3.00 359.82 2772.29
   13:07:02.118.02-Jan-2020 4774.33 4279.01 83.84 3.00 360.02 2772.29
   13:07:02.318.02-Jan-2020 4774.33 4279.01 83.84 3.00 360.22 2772.29
   13:07:02.518.02-Jan-2020 4774.33 4288.05 83.84 3.00 360.42 2772.29
   13:07:02.718.02-Jan-2020 4774.33 4293.38 83.84 3.00 360.62 2772.29
   13:07:02.918.02-Jan-2020 4774.33 4298.74 83.84 3.00 360.82 2772.29
   13:07:03.118.02-Jan-2020 4774.33 4301.14 83.84 3.00 361.02 2772.29
   13:07:03.318.02-Jan-2020 4774.33 4301.14 83.84 3.00 361.22 2772.29
   13:07:03.518.02-Jan-2020 4774.33 4313.04 83.84 3.00 361.42 2772.29
   13:07:03.718.02-Jan-2020 4774.33 4318.32 83.84 3.00 361.62 2772.29
   13:07:03.918.02-Jan-2020 4774.33 4323.30 83.84 3.00 361.82 2772.29
   13:07:04.118.02-Jan-2020 4774.33 4327.91 83.84 3.00 362.02 2772.29
   13:07:04.318.02-Jan-2020 4774.33 4327.91 83.84 3.00 362.22 2772.29
   13:07:04.518.02-Jan-2020 4774.33 4334.74 83.84 3.00 362.42 2772.29
   13:07:04.718.02-Jan-2020 4774.33 4341.50 83.84 3.00 362.62 2772.29
   13:07:04.918.02-Jan-2020 4774.33 4346.42 83.84 3.00 362.82 2772.29
   13:07:05.118.02-Jan-2020 4774.33 4351.40 83.84 3.00 363.02 2772.29
   13:07:05.318.02-Jan-2020 4774.33 4351.40 83.84 3.00 363.22 2772.29
   13:07:05.518.02-Jan-2020 4774.33 4360.41 83.84 3.00 363.42 2772.29
   13:07:05.718.02-Jan-2020 4774.33 4364.73 83.84 3.00 363.62 2772.29
   13:07:05.918.02-Jan-2020 4774.33 4366.84 83.84 3.00 363.82 2772.29
   13:07:06.118.02-Jan-2020 4774.33 4373.43 83.84 3.00 364.02 2772.29
   13:07:06.318.02-Jan-2020 4774.33 4373.43 83.84 3.00 364.22 2772.29
   13:07:06.518.02-Jan-2020 4774.33 4383.15 83.84 3.00 364.42 2772.29
   13:07:06.718.02-Jan-2020 4774.33 4384.90 83.84 3.00 364.62 2772.29
   13:07:06.918.02-Jan-2020 4774.33 4391.33 83.84 3.00 364.82 2772.29
   13:07:07.118.02-Jan-2020 4774.33 4396.02 83.84 3.00 365.02 2772.29
   13:07:07.318.02-Jan-2020 4774.33 4396.02 83.84 3.00 365.22 2772.29
   13:07:07.518.02-Jan-2020 4774.33 4405.13 83.84 3.00 365.42 2772.29
   13:07:07.718.02-Jan-2020 4774.33 4409.37 83.84 3.00 365.62 2772.29
   13:07:07.919.02-Jan-2020 4774.33 4410.83 83.84 3.00 365.82 2772.29
   13:07:08.119.02-Jan-2020 4774.33 4417.18 83.84 3.00 366.02 2772.29
   13:07:08.319.02-Jan-2020 4774.33 4417.18 83.84 3.00 366.22 2772.29
   13:07:08.519.02-Jan-2020 4774.33 4424.44 83.84 3.00 366.42 2772.29
   13:07:08.719.02-Jan-2020 4774.33 4429.90 83.84 3.00 366.62 2772.29
   13:07:08.919.02-Jan-2020 4774.33 4434.93 83.84 3.00 366.82 2772.29
   13:07:09.119.02-Jan-2020 4774.33 4439.55 83.84 3.00 367.02 2772.29
   13:07:09.319.02-Jan-2020 4774.33 4439.55 83.84 3.00 367.22 2772.29
   13:07:09.519.02-Jan-2020 4774.33 4447.71 83.84 3.00 367.42 2772.29
   13:07:09.719.02-Jan-2020 4774.33 4451.86 83.84 3.00 367.62 2772.29
   13:07:09.919.02-Jan-2020 4774.33 4456.06 83.84 3.00 367.82 2772.29
