~Version Information
 VERS.                  2.0:   CWLS log ASCII Standard -VERSION 2.0
 WRAP.                   NO:   One line per depth step
~Well Information Block
#MNEM.UNIT     VALUE/NAME     DESCRIPTION
#---------     -----------    ---------------------------
 STRT.S             13:01:02 02-Jan-20: START TIME 13:01:02 02-Jan-20
 STOP.S             13:09:15 02-Jan-20: STOP TIME  13:09:15 02-Jan-20
 STEP.S                   0.00: STEP TIME
 NULL.                 -999.25: NULL VALUE
 MDS .        Operator Entered:  MAG DATA SOURCE
 UNIT.                     N/a:  LOGGING EQUIPMENT ID
 DCON.         Sperry Drilling:  DIRECTNL CONTR
 CNTY.                    Baku:  COUNTY NAME
 DOE .                     N/a:  DOE NUMBER
 RIG .                     DWG:  RIG NAME
 MWDS.                    Baku:  MWD SHOP
 REGN.                   EESSA:  REGION
 BASE.              Azerbaijan:  LOGGING EQUIPMENT BASE LOCATION
 UWI .                     N/a:  UNIQUE WELL IDENTIFIER
 API .                     N/a:  API NUMBER
 WTYP.                Deviated:  WELL TYPE
 COMP.     BP Exploration (Caspian Sea) Ltd.:  COMPANY
 SRVC.          TURAN DRILLING:  CONTRACTOR
 WELL.           E04 (Slot 23):  WELL NAME
 CTRY.              Azerbaijan:  COUNTRY NAME
 SON .        AZ-XX-0905715376:  JOB NUMBER
 FLD .                     ACG:  FIELD NAME
 PDAT.          Mean Sea Level:  PERMANENT DATUM
 FTOP.          Formation Tops:  FORM TOPS DESC
 ILTD.               Lithology:  INTERP LTH DESC
 SVYD.                  Survey:  SURVEY DESC
 DMOD.             Drill Model:  DRILL MOD DESC
 HPTY.       Minimum Curvature:  HOLE POS TYPE
 NREF.                    Grid:  NORTH REFERENCE
 SPUD.               21-Dec-19:  SPUD DATE
 DATE.      17.57.20 21-Dec-19:  END TIME
 STIM.      17.57.20 21-Dec-19:  START TIME
 DMF .             Drill Floor:  DRILL MEAS FROM
 DFST.                        :  DIST FSL TEXT
 DFWT.                        :  DIST FWL TEXT
 PROV.                        :  PROVINCE
 STAT.                        :  STATE
 LOC .                        :  LOCATION
 LMF .             Drill Floor:  LOG MEASURED FROM
 AGAP.m                  43.16:  AIR GAP
 DEP .m                3172.61:  DEPTH
 APD .m                  43.16:  DEPTH ABOVE PD
 WDMS.m                 176.20:  WD ELEV
 EGL .m                   0.00:  GROUND ELEVATION
 EPD .m                   0.00:  ELEVATION
 AZTC.deg                 6.49:  AZM TOTAL CORR
 GRDC.deg                 0.09:  GRID CORRECTION
 MDEC.deg                 6.58:  MAGNETIC DECL
 MDIP.deg                59.61:  MAGNETIC DIP
 MFLD.nT              50294.00:  MAGNETIC FIELD
 GVFD.g                   1.00:  GRAVITY FIELD
 VSDR.deg               235.12:  VERT SEC DIRECT
 TDD .m                   0.00:  TOTAL DEPTH (DRILLER)
 SDEP.m                   0.00:  START DEPTH
 UTMY.m             4448627.46:  UTM Y
 UTMX.m              514337.95:  UTM X
 LONG.deg                51.17:  LONGITUDE
 LATI.deg                40.17:  LATITUDE
 TVDS.m                  43.16:  TVDSS CORRECTN
 WHEW.m                  -5.41:  WELL HEAD E/W
 WHNS.m                  -0.12:  WELL HEAD N/S
 VSEW.m                  -5.41:  VERT SEC E/W
 VSNS.m                  -0.12:  VERT SEC N/S
 EKB .m                  43.16:  KB ELEVATION
 EDF .m                  43.16:  DF ELEVATION
 MAGU.                 1852276:  MAGUTM CHECKSUM
 VSC .                       0:  VS TO CLOSURE
~Parameter Information Block
#MNEM.UNIT       Value        Description
#---------     -----------    ---------------------------
 TCS .hr                125.29:  Time Ciculation Ended 
 DD1 .      Fakhraddin Guliyev:  Direct Drillr 1 
 DD2 .                   Sanan:  Direct Drillr 2 
 DEFF.%                   0.00:  % Det Eff 
 DRET.      04.26.40 27-Dec-19:  Drill End Time 
 DRST.      04.26.40 27-Dec-19:  Drill Start Tim 
 DTIM.hr                 80.10:  Time Drilling 
 EDEP.m                   0.00:  End Depth 
 ENG1.            Adlet Omarov:  Engineer 1 
 ENG2.         Almaz Almadatov:  Engineer 2 
 ETIM.      04.26.40 27-Dec-19:  End Time 
 HFLO.                      No:  High Flow 
 HPRE.                      No:  High Pressure 
 HTEM.                      No:  High Temp 
 HYDO.m                   1.85:  Hydro Offset 
 IMAX.deg                72.09:  Inc Max 
 IMIN.deg                59.07:  Inc Min 
 IMND.m                3901.43:  Inc Min Depth 
 IMXD.m                4753.85:  Inc Max Depth 
 LETM.      04.26.40 27-Dec-19:  Log End Time 
 LSTM.      04.26.40 27-Dec-19:  Log Start Time 
 OTIM.hr                187.88:  Time Operating 
 PMAX.psia            10202.94:  Press Op, Max 
 RUN .                     300:  Run Number 
 RRUN.                    0300:  Rig Run Number 
 SDEP.m                   0.00:  Start Depth 
 STIM.      04.26.40 27-Dec-19:  Start Time 
 SVER.                    9.20:  Sperry Version 
 MRT .                    HCIM:  Maximum Recorded Temperature 
 TTMX.degC               96.08:  Max Tool Temp 
~Curve Information Block
#MNEM.UNIT                 API CODE     Curve Description
#---------               -----------    ---------------------------
 TIME.HHMMSS            00 000 000 000:  GT Time & Date
 GTDEPTH.m              00 000 000 000:  GT Depth
 GTPQH.psia             00 000 000 000:  GT HR Quartz Pressure
 GTTQ.degC              00 000 000 000:  GT Quartz Temperature
 GTTN.NONE              00 000 000 000:  GT Test Number
 GTET.sec               00 000 000 000:  GT Elapsed Test Time
 GTTVD.m                00 000 000 000:  GT True Vertical Depth
#Other Information
#
#WARRANTY: Halliburton will use its best efforts to furnish customers with 
#accurate information and interpretations that are part of, and incident to, the services 
#provided.  However, Halliburton cannot and does not warrant the accuracy 
#or correctness of such information and interpretations.  Under no circumstances should any 
#such information or interpretation be relied upon as the sole basis for any drilling, 
#completion, production, or financial decision or any procedure involving any risk to the 
#safety of any drilling venture, drilling rig or its crew or any other third party.  The 
#Customer has full responsibility for all drilling, completion and production operation.  
#Halliburton makes no representations or warranties, either expressed or 
#implied, including, but not limited to, the implied warranties of merchantability or fitness 
#for a particular purpose, with respect to the services rendered.  In no event will 
#Halliburton be liable for failure to obtain any particular results or for 
#any damages, including, but not limited to, indirect, special or consequential damages, 
#resulting from the use of any information or interpretation provided by Halliburton.
#
~A           TIME           GTDEPTH  GTPQH  GTTQ  GTTN  GTET   GTTVD  
# ...
   13:01:25.102.02-Jan-2020 4774.33 6114.39 84.05 3.00  23.00 2772.29
   13:01:25.302.02-Jan-2020 4774.33 6114.39 84.05 3.00  23.20 2772.29
   13:01:25.502.02-Jan-2020 4774.33 6118.15 84.05 3.00  23.40 2772.29
   13:01:25.702.02-Jan-2020 4774.33 6114.64 84.05 3.00  23.60 2772.29
   13:01:25.902.02-Jan-2020 4774.33 6114.62 84.05 3.00  23.80 2772.29
   13:01:26.102.02-Jan-2020 4774.33 6114.40 84.05 3.00  24.00 2772.29
   13:01:26.302.02-Jan-2020 4774.33 6114.40 84.05 3.00  24.20 2772.29
   13:01:26.502.02-Jan-2020 4774.33 6116.92 84.05 3.00  24.40 2772.29
   13:01:26.702.02-Jan-2020 4774.33 6115.62 84.05 3.00  24.60 2772.29
   13:01:26.902.02-Jan-2020 4774.33 6115.69 84.05 3.00  24.80 2772.29
   13:01:27.102.02-Jan-2020 4774.33 6115.46 84.05 3.00  25.00 2772.29
   13:01:27.302.02-Jan-2020 4774.33 6115.46 84.05 3.00  25.20 2772.29
   13:01:27.502.02-Jan-2020 4774.33 6120.19 84.05 3.00  25.40 2772.29
   13:01:27.702.02-Jan-2020 4774.33 6117.42 84.05 3.00  25.60 2772.29
   13:01:27.902.02-Jan-2020 4774.33 6116.95 84.05 3.00  25.80 2772.29
   13:01:28.102.02-Jan-2020 4774.33 6116.41 84.05 3.00  26.00 2772.29
   13:01:28.302.02-Jan-2020 4774.33 6116.41 84.05 3.00  26.20 2772.29
   13:01:28.502.02-Jan-2020 4774.33 6116.83 84.05 3.00  26.40 2772.29
   13:01:28.702.02-Jan-2020 4774.33 6123.46 84.05 3.00  26.60 2772.29
   13:01:28.902.02-Jan-2020 4774.33 6120.30 84.05 3.00  26.80 2772.29
   13:01:29.102.02-Jan-2020 4774.33 6116.62 84.05 3.00  27.00 2772.29
   13:01:29.302.02-Jan-2020 4774.33 6116.62 84.05 3.00  27.20 2772.29
   13:01:29.502.02-Jan-2020 4774.33 6124.54 84.05 3.00  27.40 2772.29
   13:01:29.702.02-Jan-2020 4774.33 6118.17 84.05 3.00  27.60 2772.29
   13:01:29.902.02-Jan-2020 4774.33 6119.36 84.05 3.00  27.80 2772.29
   13:01:30.102.02-Jan-2020 4774.33 6117.67 84.04 3.00  28.00 2772.29
   13:01:30.302.02-Jan-2020 4774.33 6117.67 84.04 3.00  28.20 2772.29
   13:01:30.502.02-Jan-2020 4774.33 6122.70 84.04 3.00  28.40 2772.29
   13:01:30.702.02-Jan-2020 4774.33 6122.26 84.04 3.00  28.60 2772.29
   13:01:30.902.02-Jan-2020 4774.33 6118.98 84.04 3.00  28.80 2772.29
   13:01:31.102.02-Jan-2020 4774.33 6126.31 84.04 3.00  29.00 2772.29
   13:01:31.302.02-Jan-2020 4774.33 6126.31 84.04 3.00  29.20 2772.29
   13:01:31.502.02-Jan-2020 4774.33 6121.74 84.04 3.00  29.40 2772.29
   13:01:31.702.02-Jan-2020 4774.33 6120.27 84.04 3.00  29.60 2772.29
   13:01:31.902.02-Jan-2020 4774.33 6120.20 84.04 3.00  29.80 2772.29
   13:01:32.102.02-Jan-2020 4774.33 6119.04 84.04 3.00  30.00 2772.29
   13:01:32.302.02-Jan-2020 4774.33 6119.04 84.04 3.00  30.20 2772.29
   13:01:32.502.02-Jan-2020 4774.33 6120.79 84.04 3.00  30.40 2772.29
   13:01:32.702.02-Jan-2020 4774.33 6121.67 84.04 3.00  30.60 2772.29
   13:01:32.902.02-Jan-2020 4774.33 6127.41 84.04 3.00  30.80 2772.29
   13:01:33.102.02-Jan-2020 4774.33 6125.01 84.04 3.00  31.00 2772.29
   13:01:33.302.02-Jan-2020 4774.33 6125.01 84.04 3.00  31.20 2772.29
   13:01:33.502.02-Jan-2020 4774.33 6121.96 84.04 3.00  31.40 2772.29
   13:01:33.702.02-Jan-2020 4774.33 6121.63 84.04 3.00  31.60 2772.29
   13:01:33.902.02-Jan-2020 4774.33 6129.88 84.04 3.00  31.80 2772.29
   13:01:34.102.02-Jan-2020 4774.33 6123.92 84.04 3.00  32.00 2772.29
   13:01:34.302.02-Jan-2020 4774.33 6123.92 84.04 3.00  32.20 2772.29
   13:01:34.502.02-Jan-2020 4774.33 6122.55 84.04 3.00  32.40 2772.29
   13:01:34.702.02-Jan-2020 4774.33 6122.10 84.04 3.00  32.60 2772.29
   13:01:34.902.02-Jan-2020 4774.33 6129.14 84.04 3.00  32.80 2772.29
   13:01:35.102.02-Jan-2020 4774.33 6125.16 84.04 3.00  33.00 2772.29
   13:01:35.302.02-Jan-2020 4774.33 6125.16 84.04 3.00  33.20 2772.29
   13:01:35.502.02-Jan-2020 4774.33 6126.86 84.04 3.00  33.40 2772.29
   13:01:35.702.02-Jan-2020 4774.33 6123.43 84.04 3.00  33.60 2772.29
   13:01:35.902.02-Jan-2020 4774.33 6122.87 84.04 3.00  33.80 2772.29
   13:01:36.102.02-Jan-2020 4774.33 6122.92 84.04 3.00  34.00 2772.29
   13:01:36.302.02-Jan-2020 4774.33 6122.92 84.04 3.00  34.20 2772.29
   13:01:36.502.02-Jan-2020 4774.33 6124.83 84.04 3.00  34.40 2772.29
   13:01:36.702.02-Jan-2020 4774.33 6125.48 84.04 3.00  34.60 2772.29
   13:01:36.902.02-Jan-2020 4774.33 6123.84 84.04 3.00  34.80 2772.29
   13:01:37.102.02-Jan-2020 4774.33 6124.22 84.04 3.00  35.00 2772.29
   13:01:37.302.02-Jan-2020 4774.33 6124.22 84.04 3.00  35.20 2772.29
   13:01:37.502.02-Jan-2020 4774.33 6127.90 84.04 3.00  35.40 2772.29
   13:01:37.702.02-Jan-2020 4774.33 6124.50 84.04 3.00  35.60 2772.29
   13:01:37.902.02-Jan-2020 4774.33 6125.13 84.04 3.00  35.80 2772.29
   13:01:38.102.02-Jan-2020 4774.33 6124.80 84.04 3.00  36.00 2772.29
   13:01:38.302.02-Jan-2020 4774.33 6124.80 84.04 3.00  36.20 2772.29
   13:01:38.502.02-Jan-2020 4774.33 6133.67 84.04 3.00  36.40 2772.29
   13:01:38.702.02-Jan-2020 4774.33 6127.28 84.04 3.00  36.60 2772.29
   13:01:38.902.02-Jan-2020 4774.33 6125.26 84.04 3.00  36.80 2772.29
   13:01:39.102.02-Jan-2020 4774.33 6125.11 84.04 3.00  37.00 2772.29
   13:01:39.302.02-Jan-2020 4774.33 6125.11 84.04 3.00  37.20 2772.29
   13:01:39.502.02-Jan-2020 4774.33 6129.32 84.04 3.00  37.40 2772.29
   13:01:39.702.02-Jan-2020 4774.33 6125.24 84.04 3.00  37.60 2772.29
   13:01:39.902.02-Jan-2020 4774.33 6125.24 84.03 3.00  37.80 2772.29
   13:01:40.102.02-Jan-2020 4774.33 6124.52 84.03 3.00  38.00 2772.29
   13:01:40.302.02-Jan-2020 4774.33 6124.52 84.03 3.00  38.20 2772.29
   13:01:40.503.02-Jan-2020 4774.33 6121.26 84.03 3.00  38.40 2772.29
   13:01:40.703.02-Jan-2020 4774.33 6113.85 84.03 3.00  38.60 2772.29
   13:01:40.903.02-Jan-2020 4774.33 6096.69 84.03 3.00  38.80 2772.29
   13:01:41.103.02-Jan-2020 4774.33 6078.95 84.03 3.00  39.00 2772.29
   13:01:41.303.02-Jan-2020 4774.33 6078.95 84.03 3.00  39.20 2772.29
   13:01:41.503.02-Jan-2020 4774.33 6039.30 84.03 3.00  39.40 2772.29
   13:01:41.703.02-Jan-2020 4774.33 5992.78 84.03 3.00  39.60 2772.29
   13:01:41.903.02-Jan-2020 4774.33 5953.46 84.03 3.00  39.80 2772.29
   13:01:42.103.02-Jan-2020 4774.33 5901.58 84.03 3.00  40.00 2772.29
   13:01:42.303.02-Jan-2020 4774.33 5901.58 84.03 3.00  40.20 2772.29
   13:01:42.503.02-Jan-2020 4774.33 5782.53 84.03 3.00  40.40 2772.29
   13:01:42.703.02-Jan-2020 4774.33 5726.91 84.03 3.00  40.60 2772.29
   13:01:42.903.02-Jan-2020 4774.33 5661.13 84.03 3.00  40.80 2772.29
   13:01:43.103.02-Jan-2020 4774.33 5591.53 84.03 3.00  41.00 2772.29
   13:01:43.303.02-Jan-2020 4774.33 5591.53 84.03 3.00  41.20 2772.29
   13:01:43.503.02-Jan-2020 4774.33 5496.46 84.03 3.00  41.40 2772.29
   13:01:43.703.02-Jan-2020 4774.33 5515.23 84.03 3.00  41.60 2772.29
   13:01:43.903.02-Jan-2020 4774.33 5448.75 84.03 3.00  41.80 2772.29
   13:01:44.103.02-Jan-2020 4774.33 5415.26 84.03 3.00  42.00 2772.29
   13:01:44.303.02-Jan-2020 4774.33 5415.26 84.03 3.00  42.20 2772.29
   13:01:44.503.02-Jan-2020 4774.33 5339.45 84.03 3.00  42.40 2772.29
   13:01:44.703.02-Jan-2020 4774.33 5360.21 84.03 3.00  42.60 2772.29
   13:01:44.903.02-Jan-2020 4774.33 5370.95 84.03 3.00  42.80 2772.29
   13:01:45.103.02-Jan-2020 4774.33 5323.94 84.03 3.00  43.00 2772.29
   13:01:45.303.02-Jan-2020 4774.33 5323.94 84.03 3.00  43.20 2772.29
   13:01:45.503.02-Jan-2020 4774.33 5268.88 84.02 3.00  43.40 2772.29
   13:01:45.703.02-Jan-2020 4774.33 5269.96 84.02 3.00  43.60 2772.29
   13:01:45.903.02-Jan-2020 4774.33 5225.67 84.02 3.00  43.80 2772.29
   13:01:46.103.02-Jan-2020 4774.33 5011.26 84.02 3.00  44.00 2772.29
   13:01:46.303.02-Jan-2020 4774.33 5011.26 84.02 3.00  44.20 2772.29
   13:01:46.503.02-Jan-2020 4774.33 3782.27 84.02 3.00  44.40 2772.29
   13:01:46.703.02-Jan-2020 4774.33 3392.72 84.02 3.00  44.60 2772.29
   13:01:46.903.02-Jan-2020 4774.33 3065.73 84.02 3.00  44.80 2772.29
   13:01:47.103.02-Jan-2020 4774.33 3032.90 84.02 3.00  45.00 2772.29
   13:01:47.303.02-Jan-2020 4774.33 3032.90 84.02 3.00  45.20 2772.29
   13:01:47.503.02-Jan-2020 4774.33 3406.87 84.01 3.00  45.40 2772.29
   13:01:47.703.02-Jan-2020 4774.33 3774.71 84.01 3.00  45.60 2772.29
   13:01:47.903.02-Jan-2020 4774.33 3829.14 84.01 3.00  45.80 2772.29
