~Version Information
 VERS.                  2.0:   CWLS log ASCII Standard -VERSION 2.0
 WRAP.                   NO:   One line per depth step
~Well Information Block
#MNEM.UNIT     VALUE/NAME     DESCRIPTION
#---------     -----------    ---------------------------
 STRT.S             13:48:18 02-Jan-20: START TIME 13:48:18 02-Jan-20
 STOP.S             13:56:34 02-Jan-20: STOP TIME  13:56:34 02-Jan-20
 STEP.S                   0.00: STEP TIME
 NULL.                 -999.25: NULL VALUE
 MDS .        Operator Entered:  MAG DATA SOURCE
 UNIT.                     N/a:  LOGGING EQUIPMENT ID
 DCON.         Sperry Drilling:  DIRECTNL CONTR
 CNTY.                    Baku:  COUNTY NAME
 DOE .                     N/a:  DOE NUMBER
 RIG .                     DWG:  RIG NAME
 MWDS.                    Baku:  MWD SHOP
 REGN.                   EESSA:  REGION
 BASE.              Azerbaijan:  LOGGING EQUIPMENT BASE LOCATION
 UWI .                     N/a:  UNIQUE WELL IDENTIFIER
 API .                     N/a:  API NUMBER
 WTYP.                Deviated:  WELL TYPE
 COMP.     BP Exploration (Caspian Sea) Ltd.:  COMPANY
 SRVC.          TURAN DRILLING:  CONTRACTOR
 WELL.           E04 (Slot 23):  WELL NAME
 CTRY.              Azerbaijan:  COUNTRY NAME
 SON .        AZ-XX-0905715376:  JOB NUMBER
 FLD .                     ACG:  FIELD NAME
 PDAT.          Mean Sea Level:  PERMANENT DATUM
 FTOP.          Formation Tops:  FORM TOPS DESC
 ILTD.               Lithology:  INTERP LTH DESC
 SVYD.                  Survey:  SURVEY DESC
 DMOD.             Drill Model:  DRILL MOD DESC
 HPTY.       Minimum Curvature:  HOLE POS TYPE
 NREF.                    Grid:  NORTH REFERENCE
 SPUD.               21-Dec-19:  SPUD DATE
 DATE.      17.57.20 21-Dec-19:  END TIME
 STIM.      17.57.20 21-Dec-19:  START TIME
 DMF .             Drill Floor:  DRILL MEAS FROM
 DFST.                        :  DIST FSL TEXT
 DFWT.                        :  DIST FWL TEXT
 PROV.                        :  PROVINCE
 STAT.                        :  STATE
 LOC .                        :  LOCATION
 LMF .             Drill Floor:  LOG MEASURED FROM
 AGAP.m                  43.16:  AIR GAP
 DEP .m                3172.61:  DEPTH
 APD .m                  43.16:  DEPTH ABOVE PD
 WDMS.m                 176.20:  WD ELEV
 EGL .m                   0.00:  GROUND ELEVATION
 EPD .m                   0.00:  ELEVATION
 AZTC.deg                 6.49:  AZM TOTAL CORR
 GRDC.deg                 0.09:  GRID CORRECTION
 MDEC.deg                 6.58:  MAGNETIC DECL
 MDIP.deg                59.61:  MAGNETIC DIP
 MFLD.nT              50294.00:  MAGNETIC FIELD
 GVFD.g                   1.00:  GRAVITY FIELD
 VSDR.deg               235.12:  VERT SEC DIRECT
 TDD .m                   0.00:  TOTAL DEPTH (DRILLER)
 SDEP.m                   0.00:  START DEPTH
 UTMY.m             4448627.46:  UTM Y
 UTMX.m              514337.95:  UTM X
 LONG.deg                51.17:  LONGITUDE
 LATI.deg                40.17:  LATITUDE
 TVDS.m                  43.16:  TVDSS CORRECTN
 WHEW.m                  -5.41:  WELL HEAD E/W
 WHNS.m                  -0.12:  WELL HEAD N/S
 VSEW.m                  -5.41:  VERT SEC E/W
 VSNS.m                  -0.12:  VERT SEC N/S
 EKB .m                  43.16:  KB ELEVATION
 EDF .m                  43.16:  DF ELEVATION
 MAGU.                 1852276:  MAGUTM CHECKSUM
 VSC .                       0:  VS TO CLOSURE
~Parameter Information Block
#MNEM.UNIT       Value        Description
#---------     -----------    ---------------------------
 TCS .hr                125.29:  Time Ciculation Ended 
 DD1 .      Fakhraddin Guliyev:  Direct Drillr 1 
 DD2 .                   Sanan:  Direct Drillr 2 
 DEFF.%                   0.00:  % Det Eff 
 DRET.      04.26.40 27-Dec-19:  Drill End Time 
 DRST.      04.26.40 27-Dec-19:  Drill Start Tim 
 DTIM.hr                 80.10:  Time Drilling 
 EDEP.m                   0.00:  End Depth 
 ENG1.            Adlet Omarov:  Engineer 1 
 ENG2.         Almaz Almadatov:  Engineer 2 
 ETIM.      04.26.40 27-Dec-19:  End Time 
 HFLO.                      No:  High Flow 
 HPRE.                      No:  High Pressure 
 HTEM.                      No:  High Temp 
 HYDO.m                   1.85:  Hydro Offset 
 IMAX.deg                72.09:  Inc Max 
 IMIN.deg                59.07:  Inc Min 
 IMND.m                3901.43:  Inc Min Depth 
 IMXD.m                4753.85:  Inc Max Depth 
 LETM.      04.26.40 27-Dec-19:  Log End Time 
 LSTM.      04.26.40 27-Dec-19:  Log Start Time 
 OTIM.hr                187.88:  Time Operating 
 PMAX.psia            10202.94:  Press Op, Max 
 RUN .                     300:  Run Number 
 RRUN.                    0300:  Rig Run Number 
 SDEP.m                   0.00:  Start Depth 
 STIM.      04.26.40 27-Dec-19:  Start Time 
 SVER.                    9.20:  Sperry Version 
 MRT .                    HCIM:  Maximum Recorded Temperature 
 TTMX.degC               96.08:  Max Tool Temp 
~Curve Information Block
#MNEM.UNIT                 API CODE     Curve Description
#---------               -----------    ---------------------------
 TIME.HHMMSS            00 000 000 000:  GT Time & Date
 GTDEPTH.m              00 000 000 000:  GT Depth
 GTPQH.psia             00 000 000 000:  GT HR Quartz Pressure
 GTTQ.degC              00 000 000 000:  GT Quartz Temperature
 GTTN.NONE              00 000 000 000:  GT Test Number
 GTET.sec               00 000 000 000:  GT Elapsed Test Time
 GTTVD.m                00 000 000 000:  GT True Vertical Depth
#Other Information
#
#WARRANTY: Halliburton will use its best efforts to furnish customers with 
#accurate information and interpretations that are part of, and incident to, the services 
#provided.  However, Halliburton cannot and does not warrant the accuracy 
#or correctness of such information and interpretations.  Under no circumstances should any 
#such information or interpretation be relied upon as the sole basis for any drilling, 
#completion, production, or financial decision or any procedure involving any risk to the 
#safety of any drilling venture, drilling rig or its crew or any other third party.  The 
#Customer has full responsibility for all drilling, completion and production operation.  
#Halliburton makes no representations or warranties, either expressed or 
#implied, including, but not limited to, the implied warranties of merchantability or fitness 
#for a particular purpose, with respect to the services rendered.  In no event will 
#Halliburton be liable for failure to obtain any particular results or for 
#any damages, including, but not limited to, indirect, special or consequential damages, 
#resulting from the use of any information or interpretation provided by Halliburton.
#
~A           TIME           GTDEPTH  GTPQH  GTTQ  GTTN  GTET   GTTVD  
# ...
   13:50:59.247.02-Jan-2020 4773.81 4702.69 83.66 4.00 161.01 2772.13
   13:50:59.447.02-Jan-2020 4773.81 4702.69 83.66 4.00 161.21 2772.13
   13:50:59.647.02-Jan-2020 4773.81 4702.87 83.66 4.00 161.41 2772.13
   13:50:59.847.02-Jan-2020 4773.81 4702.78 83.66 4.00 161.61 2772.13
   13:51:00.047.02-Jan-2020 4773.81 4702.96 83.66 4.00 161.81 2772.13
   13:51:00.247.02-Jan-2020 4773.81 4701.04 83.66 4.00 162.01 2772.13
   13:51:00.447.02-Jan-2020 4773.81 4701.04 83.66 4.00 162.21 2772.13
   13:51:00.647.02-Jan-2020 4773.81 4703.17 83.66 4.00 162.41 2772.13
   13:51:00.847.02-Jan-2020 4773.81 4703.34 83.65 4.00 162.61 2772.13
   13:51:01.047.02-Jan-2020 4773.81 4700.87 83.65 4.00 162.81 2772.13
   13:51:01.247.02-Jan-2020 4773.81 4703.49 83.65 4.00 163.01 2772.13
   13:51:01.447.02-Jan-2020 4773.81 4703.49 83.65 4.00 163.21 2772.13
   13:51:01.647.02-Jan-2020 4773.81 4703.70 83.65 4.00 163.41 2772.13
   13:51:01.847.02-Jan-2020 4773.81 4703.68 83.65 4.00 163.61 2772.13
   13:51:02.047.02-Jan-2020 4773.81 4703.75 83.65 4.00 163.81 2772.13
   13:51:02.247.02-Jan-2020 4773.81 4703.80 83.65 4.00 164.01 2772.13
   13:51:02.447.02-Jan-2020 4773.81 4703.80 83.65 4.00 164.21 2772.13
   13:51:02.647.02-Jan-2020 4773.81 4703.43 83.65 4.00 164.41 2772.13
   13:51:02.847.02-Jan-2020 4773.81 4702.18 83.65 4.00 164.61 2772.13
   13:51:03.047.02-Jan-2020 4773.81 4704.48 83.65 4.00 164.81 2772.13
   13:51:03.247.02-Jan-2020 4773.81 4704.52 83.65 4.00 165.01 2772.13
   13:51:03.447.02-Jan-2020 4773.81 4704.52 83.65 4.00 165.21 2772.13
   13:51:03.647.02-Jan-2020 4773.81 4702.21 83.65 4.00 165.41 2772.13
   13:51:03.847.02-Jan-2020 4773.81 4704.69 83.65 4.00 165.61 2772.13
   13:51:04.047.02-Jan-2020 4773.81 4704.73 83.65 4.00 165.81 2772.13
   13:51:04.247.02-Jan-2020 4773.81 4704.90 83.65 4.00 166.01 2772.13
   13:51:04.447.02-Jan-2020 4773.81 4704.90 83.65 4.00 166.21 2772.13
   13:51:04.647.02-Jan-2020 4773.81 4702.44 83.65 4.00 166.41 2772.13
   13:51:04.847.02-Jan-2020 4773.81 4704.92 83.65 4.00 166.61 2772.13
   13:51:05.047.02-Jan-2020 4773.81 4704.91 83.65 4.00 166.81 2772.13
   13:51:05.247.02-Jan-2020 4773.81 4705.06 83.65 4.00 167.01 2772.13
   13:51:05.447.02-Jan-2020 4773.81 4705.06 83.65 4.00 167.21 2772.13
   13:51:05.647.02-Jan-2020 4773.81 4703.16 83.65 4.00 167.41 2772.13
   13:51:05.847.02-Jan-2020 4773.81 4704.54 83.65 4.00 167.61 2772.13
   13:51:06.047.02-Jan-2020 4773.81 4705.24 83.65 4.00 167.81 2772.13
   13:51:06.247.02-Jan-2020 4773.81 4705.33 83.65 4.00 168.01 2772.13
   13:51:06.447.02-Jan-2020 4773.81 4705.33 83.65 4.00 168.21 2772.13
   13:51:06.647.02-Jan-2020 4773.81 4703.47 83.65 4.00 168.41 2772.13
   13:51:06.847.02-Jan-2020 4773.81 4705.58 83.65 4.00 168.61 2772.13
   13:51:07.047.02-Jan-2020 4773.81 4705.59 83.65 4.00 168.81 2772.13
   13:51:07.247.02-Jan-2020 4773.81 4705.62 83.65 4.00 169.01 2772.13
   13:51:07.448.02-Jan-2020 4773.81 4705.62 83.65 4.00 169.21 2772.13
   13:51:07.648.02-Jan-2020 4773.81 4705.67 83.65 4.00 169.41 2772.13
   13:51:07.848.02-Jan-2020 4773.81 4703.29 83.65 4.00 169.61 2772.13
   13:51:08.048.02-Jan-2020 4773.81 4705.70 83.65 4.00 169.81 2772.13
   13:51:08.248.02-Jan-2020 4773.81 4705.64 83.65 4.00 170.01 2772.13
   13:51:08.448.02-Jan-2020 4773.81 4705.64 83.65 4.00 170.21 2772.13
   13:51:08.648.02-Jan-2020 4773.81 4705.75 83.65 4.00 170.41 2772.13
   13:51:08.848.02-Jan-2020 4773.81 4705.81 83.65 4.00 170.61 2772.13
   13:51:09.048.02-Jan-2020 4773.81 4706.09 83.65 4.00 170.81 2772.13
   13:51:09.248.02-Jan-2020 4773.81 4706.04 83.65 4.00 171.01 2772.13
   13:51:09.448.02-Jan-2020 4773.81 4706.04 83.65 4.00 171.21 2772.13
   13:51:09.648.02-Jan-2020 4773.81 4706.14 83.65 4.00 171.41 2772.13
   13:51:09.848.02-Jan-2020 4773.81 4706.21 83.65 4.00 171.61 2772.13
   13:51:10.048.02-Jan-2020 4773.81 4705.71 83.65 4.00 171.81 2772.13
   13:51:10.248.02-Jan-2020 4773.81 4704.58 83.65 4.00 172.01 2772.13
   13:51:10.448.02-Jan-2020 4773.81 4704.58 83.65 4.00 172.21 2772.13
   13:51:10.648.02-Jan-2020 4773.81 4706.65 83.65 4.00 172.41 2772.13
   13:51:10.848.02-Jan-2020 4773.81 4704.40 83.65 4.00 172.61 2772.13
   13:51:11.048.02-Jan-2020 4773.81 4706.75 83.65 4.00 172.81 2772.13
   13:51:11.248.02-Jan-2020 4773.81 4706.80 83.65 4.00 173.01 2772.13
   13:51:11.448.02-Jan-2020 4773.81 4706.80 83.65 4.00 173.21 2772.13
   13:51:11.648.02-Jan-2020 4773.81 4706.94 83.65 4.00 173.41 2772.13
   13:51:11.848.02-Jan-2020 4773.81 4704.73 83.65 4.00 173.61 2772.13
   13:51:12.048.02-Jan-2020 4773.81 4707.23 83.65 4.00 173.81 2772.13
   13:51:12.248.02-Jan-2020 4773.81 4707.09 83.65 4.00 174.01 2772.13
   13:51:12.448.02-Jan-2020 4773.81 4707.09 83.65 4.00 174.21 2772.13
   13:51:12.648.02-Jan-2020 4773.81 4707.11 83.65 4.00 174.41 2772.13
   13:51:12.848.02-Jan-2020 4773.81 4706.54 83.65 4.00 174.61 2772.13
   13:51:13.048.02-Jan-2020 4773.81 4705.41 83.65 4.00 174.81 2772.13
   13:51:13.248.02-Jan-2020 4773.81 4707.26 83.65 4.00 175.01 2772.13
   13:51:13.448.02-Jan-2020 4773.81 4707.26 83.65 4.00 175.21 2772.13
   13:51:13.648.02-Jan-2020 4773.81 4707.06 83.65 4.00 175.41 2772.13
   13:51:13.848.02-Jan-2020 4773.81 4704.90 83.65 4.00 175.61 2772.13
   13:51:14.048.02-Jan-2020 4773.81 4707.27 83.65 4.00 175.81 2772.13
   13:51:14.248.02-Jan-2020 4773.81 4707.20 83.65 4.00 176.01 2772.13
   13:51:14.448.02-Jan-2020 4773.81 4707.20 83.65 4.00 176.21 2772.13
   13:51:14.648.02-Jan-2020 4773.81 4707.55 83.65 4.00 176.41 2772.13
   13:51:14.848.02-Jan-2020 4773.81 4707.23 83.65 4.00 176.61 2772.13
   13:51:15.048.02-Jan-2020 4773.81 4707.32 83.65 4.00 176.81 2772.13
   13:51:15.248.02-Jan-2020 4773.81 4705.26 83.65 4.00 177.01 2772.13
   13:51:15.448.02-Jan-2020 4773.81 4705.26 83.65 4.00 177.21 2772.13
   13:51:15.648.02-Jan-2020 4773.81 4707.35 83.65 4.00 177.41 2772.13
   13:51:15.848.02-Jan-2020 4773.81 4707.37 83.65 4.00 177.61 2772.13
   13:51:16.048.02-Jan-2020 4773.81 4707.28 83.65 4.00 177.81 2772.13
   13:51:16.248.02-Jan-2020 4773.81 4707.20 83.65 4.00 178.01 2772.13
   13:51:16.448.02-Jan-2020 4773.81 4707.20 83.65 4.00 178.21 2772.13
   13:51:16.648.02-Jan-2020 4773.81 4707.20 83.65 4.00 178.41 2772.13
   13:51:16.848.02-Jan-2020 4773.81 4705.40 83.65 4.00 178.61 2772.13
   13:51:17.048.02-Jan-2020 4773.81 4707.06 83.65 4.00 178.81 2772.13
   13:51:17.248.02-Jan-2020 4773.81 4707.41 83.65 4.00 179.01 2772.13
   13:51:17.448.02-Jan-2020 4773.81 4707.41 83.65 4.00 179.21 2772.13
   13:51:17.648.02-Jan-2020 4773.81 4121.44 83.65 4.00 179.41 2772.13
   13:51:17.848.02-Jan-2020 4773.81 3562.31 83.65 4.00 179.61 2772.13
   13:51:18.048.02-Jan-2020 4773.81 3063.19 83.65 4.00 179.81 2772.13
   13:51:18.248.02-Jan-2020 4773.81 2614.90 83.65 4.00 180.01 2772.13
   13:51:18.448.02-Jan-2020 4773.81 2614.90 83.65 4.00 180.21 2772.13
   13:51:18.648.02-Jan-2020 4773.81 1916.56 83.64 4.00 180.41 2772.13
   13:51:18.848.02-Jan-2020 4773.81 1620.77 83.64 4.00 180.61 2772.13
   13:51:19.048.02-Jan-2020 4773.81 1415.54 83.64 4.00 180.81 2772.13
   13:51:19.248.02-Jan-2020 4773.81 1283.78 83.64 4.00 181.01 2772.13
   13:51:19.448.02-Jan-2020 4773.81 1283.78 83.64 4.00 181.21 2772.13
   13:51:19.648.02-Jan-2020 4773.81 1072.62 83.64 4.00 181.41 2772.13
   13:51:19.848.02-Jan-2020 4773.81 1021.63 83.63 4.00 181.61 2772.13
   13:51:20.048.02-Jan-2020 4773.81  936.92 83.63 4.00 181.81 2772.13
   13:51:20.248.02-Jan-2020 4773.81  833.49 83.63 4.00 182.01 2772.13
   13:51:20.448.02-Jan-2020 4773.81  833.49 83.63 4.00 182.21 2772.13
   13:51:20.648.02-Jan-2020 4773.81  702.75 83.62 4.00 182.41 2772.13
   13:51:20.848.02-Jan-2020 4773.81  665.10 83.62 4.00 182.61 2772.13
   13:51:21.048.02-Jan-2020 4773.81  581.22 83.62 4.00 182.81 2772.13
   13:51:21.248.02-Jan-2020 4773.81  532.71 83.61 4.00 183.01 2772.13
   13:51:21.448.02-Jan-2020 4773.81  532.71 83.61 4.00 183.21 2772.13
   13:51:21.648.02-Jan-2020 4773.81  420.34 83.61 4.00 183.41 2772.13
   13:51:21.848.02-Jan-2020 4773.81  334.62 83.60 4.00 183.61 2772.13
   13:51:22.048.02-Jan-2020 4773.81  289.35 83.60 4.00 183.81 2772.13
