~Version Information
 VERS.                  2.0:   CWLS log ASCII Standard -VERSION 2.0
 WRAP.                   NO:   One line per depth step
~Well Information Block
#MNEM.UNIT     VALUE/NAME     DESCRIPTION
#---------     -----------    ---------------------------
 STRT.S             13:48:18 02-Jan-20: START TIME 13:48:18 02-Jan-20
 STOP.S             13:56:34 02-Jan-20: STOP TIME  13:56:34 02-Jan-20
 STEP.S                   0.00: STEP TIME
 NULL.                 -999.25: NULL VALUE
 MDS .        Operator Entered:  MAG DATA SOURCE
 UNIT.                     N/a:  LOGGING EQUIPMENT ID
 DCON.         Sperry Drilling:  DIRECTNL CONTR
 CNTY.                    Baku:  COUNTY NAME
 DOE .                     N/a:  DOE NUMBER
 RIG .                     DWG:  RIG NAME
 MWDS.                    Baku:  MWD SHOP
 REGN.                   EESSA:  REGION
 BASE.              Azerbaijan:  LOGGING EQUIPMENT BASE LOCATION
 UWI .                     N/a:  UNIQUE WELL IDENTIFIER
 API .                     N/a:  API NUMBER
 WTYP.                Deviated:  WELL TYPE
 COMP.     BP Exploration (Caspian Sea) Ltd.:  COMPANY
 SRVC.          TURAN DRILLING:  CONTRACTOR
 WELL.           E04 (Slot 23):  WELL NAME
 CTRY.              Azerbaijan:  COUNTRY NAME
 SON .        AZ-XX-0905715376:  JOB NUMBER
 FLD .                     ACG:  FIELD NAME
 PDAT.          Mean Sea Level:  PERMANENT DATUM
 FTOP.          Formation Tops:  FORM TOPS DESC
 ILTD.               Lithology:  INTERP LTH DESC
 SVYD.                  Survey:  SURVEY DESC
 DMOD.             Drill Model:  DRILL MOD DESC
 HPTY.       Minimum Curvature:  HOLE POS TYPE
 NREF.                    Grid:  NORTH REFERENCE
 SPUD.               21-Dec-19:  SPUD DATE
 DATE.      17.57.20 21-Dec-19:  END TIME
 STIM.      17.57.20 21-Dec-19:  START TIME
 DMF .             Drill Floor:  DRILL MEAS FROM
 DFST.                        :  DIST FSL TEXT
 DFWT.                        :  DIST FWL TEXT
 PROV.                        :  PROVINCE
 STAT.                        :  STATE
 LOC .                        :  LOCATION
 LMF .             Drill Floor:  LOG MEASURED FROM
 AGAP.m                  43.16:  AIR GAP
 DEP .m                3172.61:  DEPTH
 APD .m                  43.16:  DEPTH ABOVE PD
 WDMS.m                 176.20:  WD ELEV
 EGL .m                   0.00:  GROUND ELEVATION
 EPD .m                   0.00:  ELEVATION
 AZTC.deg                 6.49:  AZM TOTAL CORR
 GRDC.deg                 0.09:  GRID CORRECTION
 MDEC.deg                 6.58:  MAGNETIC DECL
 MDIP.deg                59.61:  MAGNETIC DIP
 MFLD.nT              50294.00:  MAGNETIC FIELD
 GVFD.g                   1.00:  GRAVITY FIELD
 VSDR.deg               235.12:  VERT SEC DIRECT
 TDD .m                   0.00:  TOTAL DEPTH (DRILLER)
 SDEP.m                   0.00:  START DEPTH
 UTMY.m             4448627.46:  UTM Y
 UTMX.m              514337.95:  UTM X
 LONG.deg                51.17:  LONGITUDE
 LATI.deg                40.17:  LATITUDE
 TVDS.m                  43.16:  TVDSS CORRECTN
 WHEW.m                  -5.41:  WELL HEAD E/W
 WHNS.m                  -0.12:  WELL HEAD N/S
 VSEW.m                  -5.41:  VERT SEC E/W
 VSNS.m                  -0.12:  VERT SEC N/S
 EKB .m                  43.16:  KB ELEVATION
 EDF .m                  43.16:  DF ELEVATION
 MAGU.                 1852276:  MAGUTM CHECKSUM
 VSC .                       0:  VS TO CLOSURE
~Parameter Information Block
#MNEM.UNIT       Value        Description
#---------     -----------    ---------------------------
 TCS .hr                125.29:  Time Ciculation Ended 
 DD1 .      Fakhraddin Guliyev:  Direct Drillr 1 
 DD2 .                   Sanan:  Direct Drillr 2 
 DEFF.%                   0.00:  % Det Eff 
 DRET.      04.26.40 27-Dec-19:  Drill End Time 
 DRST.      04.26.40 27-Dec-19:  Drill Start Tim 
 DTIM.hr                 80.10:  Time Drilling 
 EDEP.m                   0.00:  End Depth 
 ENG1.            Adlet Omarov:  Engineer 1 
 ENG2.         Almaz Almadatov:  Engineer 2 
 ETIM.      04.26.40 27-Dec-19:  End Time 
 HFLO.                      No:  High Flow 
 HPRE.                      No:  High Pressure 
 HTEM.                      No:  High Temp 
 HYDO.m                   1.85:  Hydro Offset 
 IMAX.deg                72.09:  Inc Max 
 IMIN.deg                59.07:  Inc Min 
 IMND.m                3901.43:  Inc Min Depth 
 IMXD.m                4753.85:  Inc Max Depth 
 LETM.      04.26.40 27-Dec-19:  Log End Time 
 LSTM.      04.26.40 27-Dec-19:  Log Start Time 
 OTIM.hr                187.88:  Time Operating 
 PMAX.psia            10202.94:  Press Op, Max 
 RUN .                     300:  Run Number 
 RRUN.                    0300:  Rig Run Number 
 SDEP.m                   0.00:  Start Depth 
 STIM.      04.26.40 27-Dec-19:  Start Time 
 SVER.                    9.20:  Sperry Version 
 MRT .                    HCIM:  Maximum Recorded Temperature 
 TTMX.degC               96.08:  Max Tool Temp 
~Curve Information Block
#MNEM.UNIT                 API CODE     Curve Description
#---------               -----------    ---------------------------
 TIME.HHMMSS            00 000 000 000:  GT Time & Date
 GTDEPTH.m              00 000 000 000:  GT Depth
 GTPQH.psia             00 000 000 000:  GT HR Quartz Pressure
 GTTQ.degC              00 000 000 000:  GT Quartz Temperature
 GTTN.NONE              00 000 000 000:  GT Test Number
 GTET.sec               00 000 000 000:  GT Elapsed Test Time
 GTTVD.m                00 000 000 000:  GT True Vertical Depth
#Other Information
#
#WARRANTY: Halliburton will use its best efforts to furnish customers with 
#accurate information and interpretations that are part of, and incident to, the services 
#provided.  However, Halliburton cannot and does not warrant the accuracy 
#or correctness of such information and interpretations.  Under no circumstances should any 
#such information or interpretation be relied upon as the sole basis for any drilling, 
#completion, production, or financial decision or any procedure involving any risk to the 
#safety of any drilling venture, drilling rig or its crew or any other third party.  The 
#Customer has full responsibility for all drilling, completion and production operation.  
#Halliburton makes no representations or warranties, either expressed or 
#implied, including, but not limited to, the implied warranties of merchantability or fitness 
#for a particular purpose, with respect to the services rendered.  In no event will 
#Halliburton be liable for failure to obtain any particular results or for 
#any damages, including, but not limited to, indirect, special or consequential damages, 
#resulting from the use of any information or interpretation provided by Halliburton.
#
~A           TIME           GTDEPTH  GTPQH  GTTQ  GTTN  GTET   GTTVD  
   13:48:18.239.02-Jan-2020 4773.81 6083.47 83.78 4.00   0.00 2772.13
   13:48:18.439.02-Jan-2020 4773.81 6083.47 83.78 4.00   0.20 2772.13
   13:48:18.639.02-Jan-2020 4773.81 6088.16 83.78 4.00   0.40 2772.13
   13:48:18.839.02-Jan-2020 4773.81 6085.39 83.78 4.00   0.60 2772.13
   13:48:19.039.02-Jan-2020 4773.81 6085.60 83.77 4.00   0.80 2772.13
   13:48:19.239.02-Jan-2020 4773.81 6090.56 83.77 4.00   1.00 2772.13
   13:48:19.439.02-Jan-2020 4773.81 6090.56 83.77 4.00   1.20 2772.13
   13:48:19.639.02-Jan-2020 4773.81 6085.92 83.77 4.00   1.40 2772.13
   13:48:19.839.02-Jan-2020 4773.81 6087.01 83.77 4.00   1.60 2772.13
   13:48:20.039.02-Jan-2020 4773.81 6092.88 83.77 4.00   1.80 2772.13
   13:48:20.239.02-Jan-2020 4773.81 6091.30 83.77 4.00   2.00 2772.13
   13:48:20.439.02-Jan-2020 4773.81 6091.30 83.77 4.00   2.20 2772.13
   13:48:20.639.02-Jan-2020 4773.81 6091.34 83.77 4.00   2.40 2772.13
   13:48:20.839.02-Jan-2020 4773.81 6093.66 83.77 4.00   2.60 2772.13
   13:48:21.039.02-Jan-2020 4773.81 6092.85 83.77 4.00   2.80 2772.13
   13:48:21.239.02-Jan-2020 4773.81 6090.55 83.77 4.00   3.00 2772.13
   13:48:21.439.02-Jan-2020 4773.81 6090.55 83.77 4.00   3.20 2772.13
   13:48:21.639.02-Jan-2020 4773.81 6088.86 83.77 4.00   3.40 2772.13
   13:48:21.839.02-Jan-2020 4773.81 6093.09 83.77 4.00   3.60 2772.13
   13:48:22.039.02-Jan-2020 4773.81 6091.07 83.77 4.00   3.80 2772.13
   13:48:22.239.02-Jan-2020 4773.81 6087.59 83.77 4.00   4.00 2772.13
   13:48:22.439.02-Jan-2020 4773.81 6087.59 83.77 4.00   4.20 2772.13
   13:48:22.639.02-Jan-2020 4773.81 6086.22 83.77 4.00   4.40 2772.13
   13:48:22.839.02-Jan-2020 4773.81 6086.07 83.77 4.00   4.60 2772.13
   13:48:23.039.02-Jan-2020 4773.81 6093.64 83.77 4.00   4.80 2772.13
   13:48:23.239.02-Jan-2020 4773.81 6088.26 83.77 4.00   5.00 2772.13
   13:48:23.439.02-Jan-2020 4773.81 6088.26 83.77 4.00   5.20 2772.13
   13:48:23.640.02-Jan-2020 4773.81 6087.22 83.77 4.00   5.40 2772.13
   13:48:23.840.02-Jan-2020 4773.81 6087.83 83.77 4.00   5.60 2772.13
   13:48:24.040.02-Jan-2020 4773.81 6088.38 83.77 4.00   5.80 2772.13
   13:48:24.240.02-Jan-2020 4773.81 6096.39 83.77 4.00   6.00 2772.13
   13:48:24.440.02-Jan-2020 4773.81 6096.39 83.77 4.00   6.20 2772.13
   13:48:24.640.02-Jan-2020 4773.81 6092.81 83.77 4.00   6.40 2772.13
   13:48:24.840.02-Jan-2020 4773.81 6091.49 83.77 4.00   6.60 2772.13
   13:48:25.040.02-Jan-2020 4773.81 6091.89 83.77 4.00   6.80 2772.13
   13:48:25.240.02-Jan-2020 4773.81 6093.47 83.77 4.00   7.00 2772.13
   13:48:25.440.02-Jan-2020 4773.81 6093.47 83.77 4.00   7.20 2772.13
   13:48:25.640.02-Jan-2020 4773.81 6096.64 83.77 4.00   7.40 2772.13
   13:48:25.840.02-Jan-2020 4773.81 6094.09 83.77 4.00   7.60 2772.13
   13:48:26.040.02-Jan-2020 4773.81 6094.34 83.77 4.00   7.80 2772.13
   13:48:26.240.02-Jan-2020 4773.81 6095.49 83.77 4.00   8.00 2772.13
   13:48:26.440.02-Jan-2020 4773.81 6095.49 83.77 4.00   8.20 2772.13
   13:48:26.640.02-Jan-2020 4773.81 6097.93 83.77 4.00   8.40 2772.13
   13:48:26.840.02-Jan-2020 4773.81 6094.05 83.77 4.00   8.60 2772.13
   13:48:27.040.02-Jan-2020 4773.81 6093.99 83.77 4.00   8.80 2772.13
   13:48:27.240.02-Jan-2020 4773.81 6094.17 83.77 4.00   9.00 2772.13
   13:48:27.440.02-Jan-2020 4773.81 6094.17 83.77 4.00   9.20 2772.13
   13:48:27.640.02-Jan-2020 4773.81 6094.56 83.77 4.00   9.40 2772.13
   13:48:27.840.02-Jan-2020 4773.81 6094.38 83.77 4.00   9.60 2772.13
   13:48:28.040.02-Jan-2020 4773.81 6094.07 83.77 4.00   9.80 2772.13
   13:48:28.240.02-Jan-2020 4773.81 6094.53 83.77 4.00  10.00 2772.13
   13:48:28.440.02-Jan-2020 4773.81 6094.53 83.77 4.00  10.20 2772.13
   13:48:28.640.02-Jan-2020 4773.81 6100.36 83.77 4.00  10.40 2772.13
   13:48:28.840.02-Jan-2020 4773.81 6099.26 83.77 4.00  10.60 2772.13
   13:48:29.040.02-Jan-2020 4773.81 6095.33 83.77 4.00  10.80 2772.13
   13:48:29.240.02-Jan-2020 4773.81 6095.48 83.77 4.00  11.00 2772.13
   13:48:29.440.02-Jan-2020 4773.81 6095.48 83.77 4.00  11.20 2772.13
   13:48:29.640.02-Jan-2020 4773.81 6095.48 83.77 4.00  11.40 2772.13
   13:48:29.840.02-Jan-2020 4773.81 6101.49 83.77 4.00  11.60 2772.13
   13:48:30.040.02-Jan-2020 4773.81 6099.46 83.77 4.00  11.80 2772.13
   13:48:30.240.02-Jan-2020 4773.81 6095.91 83.76 4.00  12.00 2772.13
   13:48:30.440.02-Jan-2020 4773.81 6095.91 83.76 4.00  12.20 2772.13
   13:48:30.640.02-Jan-2020 4773.81 6097.93 83.76 4.00  12.40 2772.13
   13:48:30.840.02-Jan-2020 4773.81 6096.01 83.76 4.00  12.60 2772.13
   13:48:31.040.02-Jan-2020 4773.81 6097.81 83.76 4.00  12.80 2772.13
   13:48:31.240.02-Jan-2020 4773.81 6100.78 83.76 4.00  13.00 2772.13
   13:48:31.440.02-Jan-2020 4773.81 6100.78 83.76 4.00  13.20 2772.13
   13:48:31.640.02-Jan-2020 4773.81 6096.01 83.76 4.00  13.40 2772.13
   13:48:31.840.02-Jan-2020 4773.81 6096.40 83.76 4.00  13.60 2772.13
   13:48:32.040.02-Jan-2020 4773.81 6096.48 83.76 4.00  13.80 2772.13
   13:48:32.240.02-Jan-2020 4773.81 6096.26 83.76 4.00  14.00 2772.13
   13:48:32.440.02-Jan-2020 4773.81 6096.26 83.76 4.00  14.20 2772.13
   13:48:32.640.02-Jan-2020 4773.81 6102.53 83.76 4.00  14.40 2772.13
   13:48:32.840.02-Jan-2020 4773.81 6099.18 83.76 4.00  14.60 2772.13
   13:48:33.040.02-Jan-2020 4773.81 6098.78 83.76 4.00  14.80 2772.13
   13:48:33.240.02-Jan-2020 4773.81 6107.00 83.76 4.00  15.00 2772.13
   13:48:33.440.02-Jan-2020 4773.81 6107.00 83.76 4.00  15.20 2772.13
   13:48:33.640.02-Jan-2020 4773.81 6099.90 83.76 4.00  15.40 2772.13
   13:48:33.840.02-Jan-2020 4773.81 6100.62 83.76 4.00  15.60 2772.13
   13:48:34.040.02-Jan-2020 4773.81 6100.45 83.76 4.00  15.80 2772.13
   13:48:34.240.02-Jan-2020 4773.81 6105.76 83.76 4.00  16.00 2772.13
   13:48:34.440.02-Jan-2020 4773.81 6105.76 83.76 4.00  16.20 2772.13
   13:48:34.640.02-Jan-2020 4773.81 6102.41 83.76 4.00  16.40 2772.13
   13:48:34.840.02-Jan-2020 4773.81 6101.77 83.76 4.00  16.60 2772.13
   13:48:35.040.02-Jan-2020 4773.81 6101.11 83.76 4.00  16.80 2772.13
   13:48:35.240.02-Jan-2020 4773.81 6101.32 83.76 4.00  17.00 2772.13
   13:48:35.440.02-Jan-2020 4773.81 6101.32 83.76 4.00  17.20 2772.13
   13:48:35.640.02-Jan-2020 4773.81 6102.17 83.76 4.00  17.40 2772.13
   13:48:35.840.02-Jan-2020 4773.81 6108.50 83.76 4.00  17.60 2772.13
   13:48:36.040.02-Jan-2020 4773.81 6102.14 83.76 4.00  17.80 2772.13
   13:48:36.240.02-Jan-2020 4773.81 6103.65 83.76 4.00  18.00 2772.13
   13:48:36.440.02-Jan-2020 4773.81 6103.65 83.76 4.00  18.20 2772.13
   13:48:36.640.02-Jan-2020 4773.81 6102.17 83.76 4.00  18.40 2772.13
   13:48:36.840.02-Jan-2020 4773.81 6101.92 83.76 4.00  18.60 2772.13
   13:48:37.040.02-Jan-2020 4773.81 6103.94 83.76 4.00  18.80 2772.13
   13:48:37.240.02-Jan-2020 4773.81 6107.85 83.76 4.00  19.00 2772.13
   13:48:37.440.02-Jan-2020 4773.81 6107.85 83.76 4.00  19.20 2772.13
   13:48:37.640.02-Jan-2020 4773.81 6102.95 83.76 4.00  19.40 2772.13
   13:48:37.840.02-Jan-2020 4773.81 6104.61 83.76 4.00  19.60 2772.13
   13:48:38.040.02-Jan-2020 4773.81 6108.01 83.76 4.00  19.80 2772.13
   13:48:38.240.02-Jan-2020 4773.81 6107.74 83.76 4.00  20.00 2772.13
   13:48:38.440.02-Jan-2020 4773.81 6107.74 83.76 4.00  20.20 2772.13
   13:48:38.640.02-Jan-2020 4773.81 6105.31 83.76 4.00  20.40 2772.13
   13:48:38.840.02-Jan-2020 4773.81 6104.65 83.76 4.00  20.60 2772.13
   13:48:39.040.02-Jan-2020 4773.81 6104.02 83.76 4.00  20.80 2772.13
   13:48:39.240.02-Jan-2020 4773.81 6106.25 83.76 4.00  21.00 2772.13
   13:48:39.440.02-Jan-2020 4773.81 6106.25 83.76 4.00  21.20 2772.13
   13:48:39.640.02-Jan-2020 4773.81 6107.85 83.76 4.00  21.40 2772.13
   13:48:39.840.02-Jan-2020 4773.81 6104.59 83.76 4.00  21.60 2772.13
   13:48:40.040.02-Jan-2020 4773.81 6105.74 83.76 4.00  21.80 2772.13
   13:48:40.240.02-Jan-2020 4773.81 6113.86 83.76 4.00  22.00 2772.13
   13:48:40.440.02-Jan-2020 4773.81 6113.86 83.76 4.00  22.20 2772.13
   13:48:40.640.02-Jan-2020 4773.81 6105.32 83.76 4.00  22.40 2772.13
   13:48:40.840.02-Jan-2020 4773.81 6105.42 83.75 4.00  22.60 2772.13
   13:48:41.040.02-Jan-2020 4773.81 6105.11 83.75 4.00  22.80 2772.13
