~Version Information
 VERS.                  2.0:   CWLS log ASCII Standard -VERSION 2.0
 WRAP.                   NO:   One line per depth step
~Well Information Block
#MNEM.UNIT     VALUE/NAME     DESCRIPTION
#---------     -----------    ---------------------------
 STRT.S             13:01:02 02-Jan-20: START TIME 13:01:02 02-Jan-20
 STOP.S             13:09:15 02-Jan-20: STOP TIME  13:09:15 02-Jan-20
 STEP.S                   0.00: STEP TIME
 NULL.                 -999.25: NULL VALUE
 MDS .        Operator Entered:  MAG DATA SOURCE
 UNIT.                     N/a:  LOGGING EQUIPMENT ID
 DCON.         Sperry Drilling:  DIRECTNL CONTR
 CNTY.                    Baku:  COUNTY NAME
 DOE .                     N/a:  DOE NUMBER
 RIG .                     DWG:  RIG NAME
 MWDS.                    Baku:  MWD SHOP
 REGN.                   EESSA:  REGION
 BASE.              Azerbaijan:  LOGGING EQUIPMENT BASE LOCATION
 UWI .                     N/a:  UNIQUE WELL IDENTIFIER
 API .                     N/a:  API NUMBER
 WTYP.                Deviated:  WELL TYPE
 COMP.     BP Exploration (Caspian Sea) Ltd.:  COMPANY
 SRVC.          TURAN DRILLING:  CONTRACTOR
 WELL.           E04 (Slot 23):  WELL NAME
 CTRY.              Azerbaijan:  COUNTRY NAME
 SON .        AZ-XX-0905715376:  JOB NUMBER
 FLD .                     ACG:  FIELD NAME
 PDAT.          Mean Sea Level:  PERMANENT DATUM
 FTOP.          Formation Tops:  FORM TOPS DESC
 ILTD.               Lithology:  INTERP LTH DESC
 SVYD.                  Survey:  SURVEY DESC
 DMOD.             Drill Model:  DRILL MOD DESC
 HPTY.       Minimum Curvature:  HOLE POS TYPE
 NREF.                    Grid:  NORTH REFERENCE
 SPUD.               21-Dec-19:  SPUD DATE
 DATE.      17.57.20 21-Dec-19:  END TIME
 STIM.      17.57.20 21-Dec-19:  START TIME
 DMF .             Drill Floor:  DRILL MEAS FROM
 DFST.                        :  DIST FSL TEXT
 DFWT.                        :  DIST FWL TEXT
 PROV.                        :  PROVINCE
 STAT.                        :  STATE
 LOC .                        :  LOCATION
 LMF .             Drill Floor:  LOG MEASURED FROM
 AGAP.m                  43.16:  AIR GAP
 DEP .m                3172.61:  DEPTH
 APD .m                  43.16:  DEPTH ABOVE PD
 WDMS.m                 176.20:  WD ELEV
 EGL .m                   0.00:  GROUND ELEVATION
 EPD .m                   0.00:  ELEVATION
 AZTC.deg                 6.49:  AZM TOTAL CORR
 GRDC.deg                 0.09:  GRID CORRECTION
 MDEC.deg                 6.58:  MAGNETIC DECL
 MDIP.deg                59.61:  MAGNETIC DIP
 MFLD.nT              50294.00:  MAGNETIC FIELD
 GVFD.g                   1.00:  GRAVITY FIELD
 VSDR.deg               235.12:  VERT SEC DIRECT
 TDD .m                   0.00:  TOTAL DEPTH (DRILLER)
 SDEP.m                   0.00:  START DEPTH
 UTMY.m             4448627.46:  UTM Y
 UTMX.m              514337.95:  UTM X
 LONG.deg                51.17:  LONGITUDE
 LATI.deg                40.17:  LATITUDE
 TVDS.m                  43.16:  TVDSS CORRECTN
 WHEW.m                  -5.41:  WELL HEAD E/W
 WHNS.m                  -0.12:  WELL HEAD N/S
 VSEW.m                  -5.41:  VERT SEC E/W
 VSNS.m                  -0.12:  VERT SEC N/S
 EKB .m                  43.16:  KB ELEVATION
 EDF .m                  43.16:  DF ELEVATION
 MAGU.                 1852276:  MAGUTM CHECKSUM
 VSC .                       0:  VS TO CLOSURE
~Parameter Information Block
#MNEM.UNIT       Value        Description
#---------     -----------    ---------------------------
 TCS .hr                125.29:  Time Ciculation Ended 
 DD1 .      Fakhraddin Guliyev:  Direct Drillr 1 
 DD2 .                   Sanan:  Direct Drillr 2 
 DEFF.%                   0.00:  % Det Eff 
 DRET.      04.26.40 27-Dec-19:  Drill End Time 
 DRST.      04.26.40 27-Dec-19:  Drill Start Tim 
 DTIM.hr                 80.10:  Time Drilling 
 EDEP.m                   0.00:  End Depth 
 ENG1.            Adlet Omarov:  Engineer 1 
 ENG2.         Almaz Almadatov:  Engineer 2 
 ETIM.      04.26.40 27-Dec-19:  End Time 
 HFLO.                      No:  High Flow 
 HPRE.                      No:  High Pressure 
 HTEM.                      No:  High Temp 
 HYDO.m                   1.85:  Hydro Offset 
 IMAX.deg                72.09:  Inc Max 
 IMIN.deg                59.07:  Inc Min 
 IMND.m                3901.43:  Inc Min Depth 
 IMXD.m                4753.85:  Inc Max Depth 
 LETM.      04.26.40 27-Dec-19:  Log End Time 
 LSTM.      04.26.40 27-Dec-19:  Log Start Time 
 OTIM.hr                187.88:  Time Operating 
 PMAX.psia            10202.94:  Press Op, Max 
 RUN .                     300:  Run Number 
 RRUN.                    0300:  Rig Run Number 
 SDEP.m                   0.00:  Start Depth 
 STIM.      04.26.40 27-Dec-19:  Start Time 
 SVER.                    9.20:  Sperry Version 
 MRT .                    HCIM:  Maximum Recorded Temperature 
 TTMX.degC               96.08:  Max Tool Temp 
~Curve Information Block
#MNEM.UNIT                 API CODE     Curve Description
#---------               -----------    ---------------------------
 TIME.HHMMSS            00 000 000 000:  GT Time & Date
 GTDEPTH.m              00 000 000 000:  GT Depth
 GTPQH.psia             00 000 000 000:  GT HR Quartz Pressure
 GTTQ.degC              00 000 000 000:  GT Quartz Temperature
 GTTN.NONE              00 000 000 000:  GT Test Number
 GTET.sec               00 000 000 000:  GT Elapsed Test Time
 GTTVD.m                00 000 000 000:  GT True Vertical Depth
#Other Information
#
#WARRANTY: Halliburton will use its best efforts to furnish customers with 
#accurate information and interpretations that are part of, and incident to, the services 
#provided.  However, Halliburton cannot and does not warrant the accuracy 
#or correctness of such information and interpretations.  Under no circumstances should any 
#such information or interpretation be relied upon as the sole basis for any drilling, 
#completion, production, or financial decision or any procedure involving any risk to the 
#safety of any drilling venture, drilling rig or its crew or any other third party.  The 
#Customer has full responsibility for all drilling, completion and production operation.  
#Halliburton makes no representations or warranties, either expressed or 
#implied, including, but not limited to, the implied warranties of merchantability or fitness 
#for a particular purpose, with respect to the services rendered.  In no event will 
#Halliburton be liable for failure to obtain any particular results or for 
#any damages, including, but not limited to, indirect, special or consequential damages, 
#resulting from the use of any information or interpretation provided by Halliburton.
#
~A           TIME           GTDEPTH  GTPQH  GTTQ  GTTN  GTET   GTTVD  
# ...
   13:05:38.114.02-Jan-2020 4774.33 4624.01 83.90 3.00 276.01 2772.29
   13:05:38.314.02-Jan-2020 4774.33 4624.01 83.90 3.00 276.21 2772.29
   13:05:38.514.02-Jan-2020 4774.33 4629.83 83.90 3.00 276.41 2772.29
   13:05:38.714.02-Jan-2020 4774.33 4633.94 83.90 3.00 276.61 2772.29
   13:05:38.914.02-Jan-2020 4774.33 4636.89 83.90 3.00 276.81 2772.29
   13:05:39.114.02-Jan-2020 4774.33 4652.02 83.90 3.00 277.01 2772.29
   13:05:39.314.02-Jan-2020 4774.33 4652.02 83.90 3.00 277.21 2772.29
   13:05:39.514.02-Jan-2020 4774.33 4671.81 83.89 3.00 277.41 2772.29
   13:05:39.714.02-Jan-2020 4774.33 4678.72 83.89 3.00 277.61 2772.29
   13:05:39.914.02-Jan-2020 4774.33 4684.05 83.89 3.00 277.81 2772.29
   13:05:40.114.02-Jan-2020 4774.33 4688.23 83.89 3.00 278.01 2772.29
   13:05:40.314.02-Jan-2020 4774.33 4688.23 83.89 3.00 278.21 2772.29
   13:05:40.514.02-Jan-2020 4774.33 4694.66 83.89 3.00 278.41 2772.29
   13:05:40.714.02-Jan-2020 4774.33 4696.62 83.89 3.00 278.61 2772.29
   13:05:40.914.02-Jan-2020 4774.33 4698.51 83.89 3.00 278.81 2772.29
   13:05:41.114.02-Jan-2020 4774.33 4698.36 83.89 3.00 279.01 2772.29
   13:05:41.314.02-Jan-2020 4774.33 4698.36 83.89 3.00 279.21 2772.29
   13:05:41.514.02-Jan-2020 4774.33 4702.35 83.89 3.00 279.41 2772.29
   13:05:41.714.02-Jan-2020 4774.33 4703.24 83.89 3.00 279.61 2772.29
   13:05:41.914.02-Jan-2020 4774.33 4703.76 83.89 3.00 279.81 2772.29
   13:05:42.114.02-Jan-2020 4774.33 4704.20 83.89 3.00 280.01 2772.29
   13:05:42.314.02-Jan-2020 4774.33 4704.20 83.89 3.00 280.21 2772.29
   13:05:42.514.02-Jan-2020 4774.33 4705.09 83.89 3.00 280.41 2772.29
   13:05:42.714.02-Jan-2020 4774.33 4704.88 83.89 3.00 280.61 2772.29
   13:05:42.914.02-Jan-2020 4774.33 4704.85 83.89 3.00 280.81 2772.29
   13:05:43.114.02-Jan-2020 4774.33 4706.48 83.89 3.00 281.01 2772.29
   13:05:43.314.02-Jan-2020 4774.33 4706.48 83.89 3.00 281.21 2772.29
   13:05:43.514.02-Jan-2020 4774.33 4706.34 83.89 3.00 281.41 2772.29
   13:05:43.714.02-Jan-2020 4774.33 4705.07 83.89 3.00 281.61 2772.29
   13:05:43.914.02-Jan-2020 4774.33 4706.81 83.89 3.00 281.81 2772.29
   13:05:44.114.02-Jan-2020 4774.33 4706.72 83.89 3.00 282.01 2772.29
   13:05:44.314.02-Jan-2020 4774.33 4706.72 83.89 3.00 282.21 2772.29
   13:05:44.514.02-Jan-2020 4774.33 4706.83 83.89 3.00 282.41 2772.29
   13:05:44.714.02-Jan-2020 4774.33 4706.77 83.89 3.00 282.61 2772.29
   13:05:44.914.02-Jan-2020 4774.33 4705.42 83.89 3.00 282.81 2772.29
   13:05:45.114.02-Jan-2020 4774.33 4707.26 83.89 3.00 283.01 2772.29
   13:05:45.314.02-Jan-2020 4774.33 4707.26 83.89 3.00 283.21 2772.29
   13:05:45.514.02-Jan-2020 4774.33 4707.30 83.89 3.00 283.41 2772.29
   13:05:45.714.02-Jan-2020 4774.33 4707.12 83.89 3.00 283.61 2772.29
   13:05:45.914.02-Jan-2020 4774.33 4705.62 83.89 3.00 283.81 2772.29
   13:05:46.115.02-Jan-2020 4774.33 4707.36 83.89 3.00 284.01 2772.29
   13:05:46.315.02-Jan-2020 4774.33 4707.36 83.89 3.00 284.21 2772.29
   13:05:46.515.02-Jan-2020 4774.33 4707.36 83.89 3.00 284.41 2772.29
   13:05:46.715.02-Jan-2020 4774.33 4706.72 83.89 3.00 284.61 2772.29
   13:05:46.915.02-Jan-2020 4774.33 4706.32 83.89 3.00 284.81 2772.29
   13:05:47.115.02-Jan-2020 4774.33 4707.79 83.89 3.00 285.01 2772.29
   13:05:47.315.02-Jan-2020 4774.33 4707.79 83.89 3.00 285.21 2772.29
   13:05:47.515.02-Jan-2020 4774.33 4707.28 83.89 3.00 285.41 2772.29
   13:05:47.715.02-Jan-2020 4774.33 4707.26 83.89 3.00 285.61 2772.29
   13:05:47.915.02-Jan-2020 4774.33 4707.23 83.89 3.00 285.81 2772.29
   13:05:48.115.02-Jan-2020 4774.33 4706.00 83.89 3.00 286.01 2772.29
   13:05:48.315.02-Jan-2020 4774.33 4706.00 83.89 3.00 286.21 2772.29
   13:05:48.515.02-Jan-2020 4774.33 4707.35 83.89 3.00 286.41 2772.29
   13:05:48.715.02-Jan-2020 4774.33 4706.85 83.89 3.00 286.61 2772.29
   13:05:48.915.02-Jan-2020 4774.33 4706.48 83.89 3.00 286.81 2772.29
   13:05:49.115.02-Jan-2020 4774.33 4707.87 83.89 3.00 287.01 2772.29
   13:05:49.315.02-Jan-2020 4774.33 4707.87 83.89 3.00 287.21 2772.29
   13:05:49.515.02-Jan-2020 4774.33 4707.40 83.89 3.00 287.41 2772.29
   13:05:49.715.02-Jan-2020 4774.33 4707.31 83.89 3.00 287.61 2772.29
   13:05:49.915.02-Jan-2020 4774.33 4707.31 83.89 3.00 287.81 2772.29
   13:05:50.115.02-Jan-2020 4774.33 4707.35 83.89 3.00 288.01 2772.29
   13:05:50.315.02-Jan-2020 4774.33 4707.35 83.89 3.00 288.21 2772.29
   13:05:50.515.02-Jan-2020 4774.33 4705.76 83.89 3.00 288.41 2772.29
   13:05:50.715.02-Jan-2020 4774.33 4707.89 83.89 3.00 288.61 2772.29
   13:05:50.915.02-Jan-2020 4774.33 4707.54 83.89 3.00 288.81 2772.29
   13:05:51.115.02-Jan-2020 4774.33 4707.59 83.89 3.00 289.01 2772.29
   13:05:51.315.02-Jan-2020 4774.33 4707.59 83.89 3.00 289.21 2772.29
   13:05:51.515.02-Jan-2020 4774.33 4705.88 83.89 3.00 289.41 2772.29
   13:05:51.715.02-Jan-2020 4774.33 4707.54 83.89 3.00 289.61 2772.29
   13:05:51.915.02-Jan-2020 4774.33 4707.66 83.89 3.00 289.81 2772.29
   13:05:52.115.02-Jan-2020 4774.33 4707.59 83.89 3.00 290.01 2772.29
   13:05:52.315.02-Jan-2020 4774.33 4707.59 83.89 3.00 290.21 2772.29
   13:05:52.515.02-Jan-2020 4774.33 4706.88 83.89 3.00 290.41 2772.29
   13:05:52.715.02-Jan-2020 4774.33 4706.59 83.89 3.00 290.61 2772.29
   13:05:52.915.02-Jan-2020 4774.33 4708.01 83.89 3.00 290.81 2772.29
   13:05:53.115.02-Jan-2020 4774.33 4707.60 83.89 3.00 291.01 2772.29
   13:05:53.315.02-Jan-2020 4774.33 4707.60 83.89 3.00 291.21 2772.29
   13:05:53.515.02-Jan-2020 4774.33 4707.37 83.89 3.00 291.41 2772.29
   13:05:53.715.02-Jan-2020 4774.33 4705.81 83.89 3.00 291.61 2772.29
   13:05:53.915.02-Jan-2020 4774.33 4707.95 83.89 3.00 291.81 2772.29
   13:05:54.115.02-Jan-2020 4774.33 4707.53 83.89 3.00 292.01 2772.29
   13:05:54.315.02-Jan-2020 4774.33 4707.53 83.89 3.00 292.21 2772.29
   13:05:54.515.02-Jan-2020 4774.33 4706.01 83.89 3.00 292.41 2772.29
   13:05:54.715.02-Jan-2020 4774.33 4707.71 83.89 3.00 292.61 2772.29
   13:05:54.915.02-Jan-2020 4774.33 4707.88 83.89 3.00 292.81 2772.29
   13:05:55.115.02-Jan-2020 4774.33 4707.19 83.88 3.00 293.01 2772.29
   13:05:55.315.02-Jan-2020 4774.33 4707.19 83.88 3.00 293.21 2772.29
   13:05:55.515.02-Jan-2020 4774.33 4707.99 83.88 3.00 293.41 2772.29
   13:05:55.715.02-Jan-2020 4774.33 4707.58 83.88 3.00 293.61 2772.29
   13:05:55.915.02-Jan-2020 4774.33 4706.31 83.88 3.00 293.81 2772.29
   13:05:56.115.02-Jan-2020 4774.33 4707.84 83.88 3.00 294.01 2772.29
   13:05:56.315.02-Jan-2020 4774.33 4707.84 83.88 3.00 294.21 2772.29
   13:05:56.515.02-Jan-2020 4774.33 4707.64 83.88 3.00 294.41 2772.29
   13:05:56.715.02-Jan-2020 4774.33 4707.59 83.88 3.00 294.61 2772.29
   13:05:56.915.02-Jan-2020 4774.33 4707.55 83.88 3.00 294.81 2772.29
   13:05:57.115.02-Jan-2020 4774.33 4707.49 83.88 3.00 295.01 2772.29
   13:05:57.315.02-Jan-2020 4774.33 4707.49 83.88 3.00 295.21 2772.29
   13:05:57.515.02-Jan-2020 4774.33 4706.02 83.88 3.00 295.41 2772.29
   13:05:57.715.02-Jan-2020 4774.33 4707.72 83.88 3.00 295.61 2772.29
   13:05:57.915.02-Jan-2020 4774.33 4707.87 83.88 3.00 295.81 2772.29
   13:05:58.115.02-Jan-2020 4774.33 4707.74 83.88 3.00 296.01 2772.29
   13:05:58.315.02-Jan-2020 4774.33 4707.74 83.88 3.00 296.21 2772.29
   13:05:58.515.02-Jan-2020 4774.33 4707.50 83.88 3.00 296.41 2772.29
   13:05:58.715.02-Jan-2020 4774.33 4707.00 83.88 3.00 296.61 2772.29
   13:05:58.915.02-Jan-2020 4774.33 4706.68 83.88 3.00 296.81 2772.29
   13:05:59.115.02-Jan-2020 4774.33 4708.12 83.88 3.00 297.01 2772.29
   13:05:59.315.02-Jan-2020 4774.33 4708.12 83.88 3.00 297.21 2772.29
   13:05:59.515.02-Jan-2020 4774.33 4707.57 83.88 3.00 297.41 2772.29
   13:05:59.715.02-Jan-2020 4774.33 4707.54 83.88 3.00 297.61 2772.29
   13:05:59.915.02-Jan-2020 4774.33 4706.29 83.88 3.00 297.81 2772.29
   13:06:00.115.02-Jan-2020 4774.33 4707.92 83.88 3.00 298.01 2772.29
   13:06:00.315.02-Jan-2020 4774.33 4707.92 83.88 3.00 298.21 2772.29
   13:06:00.515.02-Jan-2020 4774.33 4707.67 83.88 3.00 298.41 2772.29
   13:06:00.715.02-Jan-2020 4774.33 4707.59 83.88 3.00 298.61 2772.29
   13:06:00.915.02-Jan-2020 4774.33 4706.08 83.88 3.00 298.81 2772.29
