~Version Information
 VERS.                  2.0:   CWLS log ASCII Standard -VERSION 2.0
 WRAP.                   NO:   One line per depth step
~Well Information Block
#MNEM.UNIT     VALUE/NAME     DESCRIPTION
#---------     -----------    ---------------------------
 STRT.S             13:01:02 02-Jan-20: START TIME 13:01:02 02-Jan-20
 STOP.S             13:09:15 02-Jan-20: STOP TIME  13:09:15 02-Jan-20
 STEP.S                   0.00: STEP TIME
 NULL.                 -999.25: NULL VALUE
 MDS .        Operator Entered:  MAG DATA SOURCE
 UNIT.                     N/a:  LOGGING EQUIPMENT ID
 DCON.         Sperry Drilling:  DIRECTNL CONTR
 CNTY.                    Baku:  COUNTY NAME
 DOE .                     N/a:  DOE NUMBER
 RIG .                     DWG:  RIG NAME
 MWDS.                    Baku:  MWD SHOP
 REGN.                   EESSA:  REGION
 BASE.              Azerbaijan:  LOGGING EQUIPMENT BASE LOCATION
 UWI .                     N/a:  UNIQUE WELL IDENTIFIER
 API .                     N/a:  API NUMBER
 WTYP.                Deviated:  WELL TYPE
 COMP.     BP Exploration (Caspian Sea) Ltd.:  COMPANY
 SRVC.          TURAN DRILLING:  CONTRACTOR
 WELL.           E04 (Slot 23):  WELL NAME
 CTRY.              Azerbaijan:  COUNTRY NAME
 SON .        AZ-XX-0905715376:  JOB NUMBER
 FLD .                     ACG:  FIELD NAME
 PDAT.          Mean Sea Level:  PERMANENT DATUM
 FTOP.          Formation Tops:  FORM TOPS DESC
 ILTD.               Lithology:  INTERP LTH DESC
 SVYD.                  Survey:  SURVEY DESC
 DMOD.             Drill Model:  DRILL MOD DESC
 HPTY.       Minimum Curvature:  HOLE POS TYPE
 NREF.                    Grid:  NORTH REFERENCE
 SPUD.               21-Dec-19:  SPUD DATE
 DATE.      17.57.20 21-Dec-19:  END TIME
 STIM.      17.57.20 21-Dec-19:  START TIME
 DMF .             Drill Floor:  DRILL MEAS FROM
 DFST.                        :  DIST FSL TEXT
 DFWT.                        :  DIST FWL TEXT
 PROV.                        :  PROVINCE
 STAT.                        :  STATE
 LOC .                        :  LOCATION
 LMF .             Drill Floor:  LOG MEASURED FROM
 AGAP.m                  43.16:  AIR GAP
 DEP .m                3172.61:  DEPTH
 APD .m                  43.16:  DEPTH ABOVE PD
 WDMS.m                 176.20:  WD ELEV
 EGL .m                   0.00:  GROUND ELEVATION
 EPD .m                   0.00:  ELEVATION
 AZTC.deg                 6.49:  AZM TOTAL CORR
 GRDC.deg                 0.09:  GRID CORRECTION
 MDEC.deg                 6.58:  MAGNETIC DECL
 MDIP.deg                59.61:  MAGNETIC DIP
 MFLD.nT              50294.00:  MAGNETIC FIELD
 GVFD.g                   1.00:  GRAVITY FIELD
 VSDR.deg               235.12:  VERT SEC DIRECT
 TDD .m                   0.00:  TOTAL DEPTH (DRILLER)
 SDEP.m                   0.00:  START DEPTH
 UTMY.m             4448627.46:  UTM Y
 UTMX.m              514337.95:  UTM X
 LONG.deg                51.17:  LONGITUDE
 LATI.deg                40.17:  LATITUDE
 TVDS.m                  43.16:  TVDSS CORRECTN
 WHEW.m                  -5.41:  WELL HEAD E/W
 WHNS.m                  -0.12:  WELL HEAD N/S
 VSEW.m                  -5.41:  VERT SEC E/W
 VSNS.m                  -0.12:  VERT SEC N/S
 EKB .m                  43.16:  KB ELEVATION
 EDF .m                  43.16:  DF ELEVATION
 MAGU.                 1852276:  MAGUTM CHECKSUM
 VSC .                       0:  VS TO CLOSURE
~Parameter Information Block
#MNEM.UNIT       Value        Description
#---------     -----------    ---------------------------
 TCS .hr                125.29:  Time Ciculation Ended 
 DD1 .      Fakhraddin Guliyev:  Direct Drillr 1 
 DD2 .                   Sanan:  Direct Drillr 2 
 DEFF.%                   0.00:  % Det Eff 
 DRET.      04.26.40 27-Dec-19:  Drill End Time 
 DRST.      04.26.40 27-Dec-19:  Drill Start Tim 
 DTIM.hr                 80.10:  Time Drilling 
 EDEP.m                   0.00:  End Depth 
 ENG1.            Adlet Omarov:  Engineer 1 
 ENG2.         Almaz Almadatov:  Engineer 2 
 ETIM.      04.26.40 27-Dec-19:  End Time 
 HFLO.                      No:  High Flow 
 HPRE.                      No:  High Pressure 
 HTEM.                      No:  High Temp 
 HYDO.m                   1.85:  Hydro Offset 
 IMAX.deg                72.09:  Inc Max 
 IMIN.deg                59.07:  Inc Min 
 IMND.m                3901.43:  Inc Min Depth 
 IMXD.m                4753.85:  Inc Max Depth 
 LETM.      04.26.40 27-Dec-19:  Log End Time 
 LSTM.      04.26.40 27-Dec-19:  Log Start Time 
 OTIM.hr                187.88:  Time Operating 
 PMAX.psia            10202.94:  Press Op, Max 
 RUN .                     300:  Run Number 
 RRUN.                    0300:  Rig Run Number 
 SDEP.m                   0.00:  Start Depth 
 STIM.      04.26.40 27-Dec-19:  Start Time 
 SVER.                    9.20:  Sperry Version 
 MRT .                    HCIM:  Maximum Recorded Temperature 
 TTMX.degC               96.08:  Max Tool Temp 
~Curve Information Block
#MNEM.UNIT                 API CODE     Curve Description
#---------               -----------    ---------------------------
 TIME.HHMMSS            00 000 000 000:  GT Time & Date
 GTDEPTH.m              00 000 000 000:  GT Depth
 GTPQH.psia             00 000 000 000:  GT HR Quartz Pressure
 GTTQ.degC              00 000 000 000:  GT Quartz Temperature
 GTTN.NONE              00 000 000 000:  GT Test Number
 GTET.sec               00 000 000 000:  GT Elapsed Test Time
 GTTVD.m                00 000 000 000:  GT True Vertical Depth
#Other Information
#
#WARRANTY: Halliburton will use its best efforts to furnish customers with 
#accurate information and interpretations that are part of, and incident to, the services 
#provided.  However, Halliburton cannot and does not warrant the accuracy 
#or correctness of such information and interpretations.  Under no circumstances should any 
#such information or interpretation be relied upon as the sole basis for any drilling, 
#completion, production, or financial decision or any procedure involving any risk to the 
#safety of any drilling venture, drilling rig or its crew or any other third party.  The 
#Customer has full responsibility for all drilling, completion and production operation.  
#Halliburton makes no representations or warranties, either expressed or 
#implied, including, but not limited to, the implied warranties of merchantability or fitness 
#for a particular purpose, with respect to the services rendered.  In no event will 
#Halliburton be liable for failure to obtain any particular results or for 
#any damages, including, but not limited to, indirect, special or consequential damages, 
#resulting from the use of any information or interpretation provided by Halliburton.
#
~A           TIME           GTDEPTH  GTPQH  GTTQ  GTTN  GTET   GTTVD  
# ...
   13:02:11.104.02-Jan-2020 4774.33 2309.82 83.92 3.00  69.00 2772.29
   13:02:11.304.02-Jan-2020 4774.33 2309.82 83.92 3.00  69.20 2772.29
   13:02:11.504.02-Jan-2020 4774.33 2312.09 83.92 3.00  69.40 2772.29
   13:02:11.704.02-Jan-2020 4774.33 2312.53 83.92 3.00  69.60 2772.29
   13:02:11.904.02-Jan-2020 4774.33 2312.84 83.92 3.00  69.80 2772.29
   13:02:12.104.02-Jan-2020 4774.33 2313.26 83.92 3.00  70.00 2772.29
   13:02:12.304.02-Jan-2020 4774.33 2313.26 83.92 3.00  70.20 2772.29
   13:02:12.504.02-Jan-2020 4774.33 2314.20 83.92 3.00  70.40 2772.29
   13:02:12.704.02-Jan-2020 4774.33 2314.43 83.92 3.00  70.60 2772.29
   13:02:12.904.02-Jan-2020 4774.33 2314.83 83.92 3.00  70.80 2772.29
   13:02:13.104.02-Jan-2020 4774.33 2313.37 83.92 3.00  71.00 2772.29
   13:02:13.304.02-Jan-2020 4774.33 2313.37 83.92 3.00  71.20 2772.29
   13:02:13.504.02-Jan-2020 4774.33 2315.76 83.92 3.00  71.40 2772.29
   13:02:13.704.02-Jan-2020 4774.33 2315.89 83.92 3.00  71.60 2772.29
   13:02:13.904.02-Jan-2020 4774.33 2315.23 83.92 3.00  71.80 2772.29
   13:02:14.104.02-Jan-2020 4774.33 2317.09 83.92 3.00  72.00 2772.29
   13:02:14.304.02-Jan-2020 4774.33 2317.09 83.92 3.00  72.20 2772.29
   13:02:14.504.02-Jan-2020 4774.33 2315.93 83.92 3.00  72.40 2772.29
   13:02:14.704.02-Jan-2020 4774.33 2318.07 83.92 3.00  72.60 2772.29
   13:02:14.904.02-Jan-2020 4774.33 2318.30 83.92 3.00  72.80 2772.29
   13:02:15.104.02-Jan-2020 4774.33 2318.36 83.92 3.00  73.00 2772.29
   13:02:15.304.02-Jan-2020 4774.33 2318.36 83.92 3.00  73.20 2772.29
   13:02:15.504.02-Jan-2020 4774.33 2319.41 83.92 3.00  73.40 2772.29
   13:02:15.704.02-Jan-2020 4774.33 2319.60 83.92 3.00  73.60 2772.29
   13:02:15.904.02-Jan-2020 4774.33 2319.94 83.92 3.00  73.80 2772.29
   13:02:16.104.02-Jan-2020 4774.33 2320.23 83.92 3.00  74.00 2772.29
   13:02:16.304.02-Jan-2020 4774.33 2320.23 83.92 3.00  74.20 2772.29
   13:02:16.504.02-Jan-2020 4774.33 2320.92 83.92 3.00  74.40 2772.29
   13:02:16.704.02-Jan-2020 4774.33 2321.20 83.92 3.00  74.60 2772.29
   13:02:16.904.02-Jan-2020 4774.33 2319.66 83.92 3.00  74.80 2772.29
   13:02:17.104.02-Jan-2020 4774.33 2322.02 83.92 3.00  75.00 2772.29
   13:02:17.304.02-Jan-2020 4774.33 2322.02 83.92 3.00  75.20 2772.29
   13:02:17.504.02-Jan-2020 4774.33 2322.51 83.92 3.00  75.40 2772.29
   13:02:17.704.02-Jan-2020 4774.33 2322.74 83.92 3.00  75.60 2772.29
   13:02:17.904.02-Jan-2020 4774.33 2323.05 83.92 3.00  75.80 2772.29
   13:02:18.104.02-Jan-2020 4774.33 2322.06 83.92 3.00  76.00 2772.29
   13:02:18.304.02-Jan-2020 4774.33 2322.06 83.92 3.00  76.20 2772.29
   13:02:18.504.02-Jan-2020 4774.33 2324.12 83.92 3.00  76.40 2772.29
   13:02:18.704.02-Jan-2020 4774.33 2324.05 83.92 3.00  76.60 2772.29
   13:02:18.904.02-Jan-2020 4774.33 2323.14 83.92 3.00  76.80 2772.29
   13:02:19.104.02-Jan-2020 4774.33 2325.02 83.92 3.00  77.00 2772.29
   13:02:19.304.02-Jan-2020 4774.33 2325.02 83.92 3.00  77.20 2772.29
   13:02:19.504.02-Jan-2020 4774.33 2325.46 83.92 3.00  77.40 2772.29
   13:02:19.704.02-Jan-2020 4774.33 2323.95 83.92 3.00  77.60 2772.29
   13:02:19.904.02-Jan-2020 4774.33 2325.99 83.92 3.00  77.80 2772.29
   13:02:20.104.02-Jan-2020 4774.33 2326.16 83.92 3.00  78.00 2772.29
   13:02:20.304.02-Jan-2020 4774.33 2326.16 83.92 3.00  78.20 2772.29
   13:02:20.504.02-Jan-2020 4774.33 2325.25 83.92 3.00  78.40 2772.29
   13:02:20.704.02-Jan-2020 4774.33 2327.05 83.92 3.00  78.60 2772.29
   13:02:20.904.02-Jan-2020 4774.33 2327.22 83.92 3.00  78.80 2772.29
   13:02:21.104.02-Jan-2020 4774.33 2327.51 83.92 3.00  79.00 2772.29
   13:02:21.304.02-Jan-2020 4774.33 2327.51 83.92 3.00  79.20 2772.29
   13:02:21.505.02-Jan-2020 4774.33 2327.96 83.92 3.00  79.40 2772.29
   13:02:21.705.02-Jan-2020 4774.33 2326.45 83.92 3.00  79.60 2772.29
   13:02:21.905.02-Jan-2020 4774.33 2328.58 83.92 3.00  79.80 2772.29
   13:02:22.105.02-Jan-2020 4774.33 2328.69 83.92 3.00  80.00 2772.29
   13:02:22.305.02-Jan-2020 4774.33 2328.69 83.92 3.00  80.20 2772.29
   13:02:22.505.02-Jan-2020 4774.33 2335.05 83.92 3.00  80.40 2772.29
   13:02:22.705.02-Jan-2020 4774.33 2355.16 83.92 3.00  80.60 2772.29
   13:02:22.905.02-Jan-2020 4774.33 2355.27 83.92 3.00  80.80 2772.29
   13:02:23.105.02-Jan-2020 4774.33 2355.33 83.92 3.00  81.00 2772.29
   13:02:23.305.02-Jan-2020 4774.33 2355.33 83.92 3.00  81.20 2772.29
   13:02:23.505.02-Jan-2020 4774.33 2355.61 83.92 3.00  81.40 2772.29
   13:02:23.705.02-Jan-2020 4774.33 2355.79 83.92 3.00  81.60 2772.29
   13:02:23.905.02-Jan-2020 4774.33 2355.99 83.92 3.00  81.80 2772.29
   13:02:24.105.02-Jan-2020 4774.33 2354.30 83.92 3.00  82.00 2772.29
   13:02:24.305.02-Jan-2020 4774.33 2354.30 83.92 3.00  82.20 2772.29
   13:02:24.505.02-Jan-2020 4774.33 2356.34 83.92 3.00  82.40 2772.29
   13:02:24.705.02-Jan-2020 4774.33 2356.62 83.92 3.00  82.60 2772.29
   13:02:24.905.02-Jan-2020 4774.33 2356.73 83.92 3.00  82.80 2772.29
   13:02:25.105.02-Jan-2020 4774.33 2355.01 83.92 3.00  83.00 2772.29
   13:02:25.305.02-Jan-2020 4774.33 2355.01 83.92 3.00  83.20 2772.29
   13:02:25.505.02-Jan-2020 4774.33 2362.09 83.92 3.00  83.40 2772.29
   13:02:25.705.02-Jan-2020 4774.33 2362.37 83.92 3.00  83.60 2772.29
   13:02:25.905.02-Jan-2020 4774.33 2361.06 83.92 3.00  83.80 2772.29
   13:02:26.105.02-Jan-2020 4774.33 2362.27 83.92 3.00  84.00 2772.29
   13:02:26.305.02-Jan-2020 4774.33 2362.27 83.92 3.00  84.20 2772.29
   13:02:26.505.02-Jan-2020 4774.33 2363.09 83.92 3.00  84.40 2772.29
   13:02:26.705.02-Jan-2020 4774.33 2362.86 83.92 3.00  84.60 2772.29
   13:02:26.905.02-Jan-2020 4774.33 2361.91 83.92 3.00  84.80 2772.29
   13:02:27.105.02-Jan-2020 4774.33 2363.67 83.92 3.00  85.00 2772.29
   13:02:27.305.02-Jan-2020 4774.33 2363.67 83.92 3.00  85.20 2772.29
   13:02:27.505.02-Jan-2020 4774.33 2362.57 83.92 3.00  85.40 2772.29
   13:02:27.705.02-Jan-2020 4774.33 2363.74 83.92 3.00  85.60 2772.29
   13:02:27.905.02-Jan-2020 4774.33 2364.35 83.92 3.00  85.80 2772.29
   13:02:28.105.02-Jan-2020 4774.33 2364.55 83.92 3.00  86.00 2772.29
   13:02:28.305.02-Jan-2020 4774.33 2364.55 83.92 3.00  86.20 2772.29
   13:02:28.505.02-Jan-2020 4774.33 2364.89 83.92 3.00  86.40 2772.29
   13:02:28.705.02-Jan-2020 4774.33 2364.68 83.92 3.00  86.60 2772.29
   13:02:28.905.02-Jan-2020 4774.33 2363.82 83.92 3.00  86.80 2772.29
   13:02:29.105.02-Jan-2020 4774.33 2365.57 83.92 3.00  87.00 2772.29
   13:02:29.305.02-Jan-2020 4774.33 2365.57 83.92 3.00  87.20 2772.29
   13:02:29.505.02-Jan-2020 4774.33 2365.42 83.92 3.00  87.40 2772.29
   13:02:29.705.02-Jan-2020 4774.33 2364.50 83.92 3.00  87.60 2772.29
   13:02:29.905.02-Jan-2020 4774.33 2366.27 83.92 3.00  87.80 2772.29
   13:02:30.105.02-Jan-2020 4774.33 2366.31 83.92 3.00  88.00 2772.29
   13:02:30.305.02-Jan-2020 4774.33 2366.31 83.92 3.00  88.20 2772.29
   13:02:30.505.02-Jan-2020 4774.33 2411.50 83.92 3.00  88.40 2772.29
   13:02:30.705.02-Jan-2020 4774.33 2411.42 83.92 3.00  88.60 2772.29
   13:02:30.905.02-Jan-2020 4774.33 2411.47 83.92 3.00  88.80 2772.29
   13:02:31.105.02-Jan-2020 4774.33 2411.52 83.92 3.00  89.00 2772.29
   13:02:31.305.02-Jan-2020 4774.33 2411.52 83.92 3.00  89.20 2772.29
   13:02:31.505.02-Jan-2020 4774.33 2411.67 83.92 3.00  89.40 2772.29
   13:02:31.705.02-Jan-2020 4774.33 2411.59 83.92 3.00  89.60 2772.29
   13:02:31.905.02-Jan-2020 4774.33 2411.76 83.92 3.00  89.80 2772.29
   13:02:32.105.02-Jan-2020 4774.33 2411.85 83.92 3.00  90.00 2772.29
   13:02:32.305.02-Jan-2020 4774.33 2411.85 83.92 3.00  90.20 2772.29
   13:02:32.505.02-Jan-2020 4774.33 2411.53 83.92 3.00  90.40 2772.29
   13:02:32.705.02-Jan-2020 4774.33 2412.12 83.92 3.00  90.60 2772.29
   13:02:32.905.02-Jan-2020 4774.33 2412.22 83.92 3.00  90.80 2772.29
   13:02:33.105.02-Jan-2020 4774.33 2412.27 83.92 3.00  91.00 2772.29
   13:02:33.305.02-Jan-2020 4774.33 2412.27 83.92 3.00  91.20 2772.29
   13:02:33.505.02-Jan-2020 4774.33 2412.10 83.92 3.00  91.40 2772.29
   13:02:33.705.02-Jan-2020 4774.33 2411.16 83.92 3.00  91.60 2772.29
   13:02:33.905.02-Jan-2020 4774.33 2427.33 83.92 3.00  91.80 2772.29
