~Version Information
 VERS.                  2.0:   CWLS log ASCII Standard -VERSION 2.0
 WRAP.                   NO:   One line per depth step
~Well Information Block
#MNEM.UNIT     VALUE/NAME     DESCRIPTION
#---------     -----------    ---------------------------
 STRT.S             10:33:43 02-Jan-20: START TIME 10:33:43 02-Jan-20
 STOP.S             10:42:04 02-Jan-20: STOP TIME  10:42:04 02-Jan-20
 STEP.S                   0.00: STEP TIME
 NULL.                 -999.25: NULL VALUE
 MDS .        Operator Entered:  MAG DATA SOURCE
 UNIT.                     N/a:  LOGGING EQUIPMENT ID
 DCON.         Sperry Drilling:  DIRECTNL CONTR
 CNTY.                    Baku:  COUNTY NAME
 DOE .                     N/a:  DOE NUMBER
 RIG .                     DWG:  RIG NAME
 MWDS.                    Baku:  MWD SHOP
 REGN.                   EESSA:  REGION
 BASE.              Azerbaijan:  LOGGING EQUIPMENT BASE LOCATION
 UWI .                     N/a:  UNIQUE WELL IDENTIFIER
 API .                     N/a:  API NUMBER
 WTYP.                Deviated:  WELL TYPE
 COMP.     BP Exploration (Caspian Sea) Ltd.:  COMPANY
 SRVC.          TURAN DRILLING:  CONTRACTOR
 WELL.           E04 (Slot 23):  WELL NAME
 CTRY.              Azerbaijan:  COUNTRY NAME
 SON .        AZ-XX-0905715376:  JOB NUMBER
 FLD .                     ACG:  FIELD NAME
 PDAT.          Mean Sea Level:  PERMANENT DATUM
 FTOP.          Formation Tops:  FORM TOPS DESC
 ILTD.               Lithology:  INTERP LTH DESC
 SVYD.                  Survey:  SURVEY DESC
 DMOD.             Drill Model:  DRILL MOD DESC
 HPTY.       Minimum Curvature:  HOLE POS TYPE
 NREF.                    Grid:  NORTH REFERENCE
 SPUD.               21-Dec-19:  SPUD DATE
 DATE.      17.57.20 21-Dec-19:  END TIME
 STIM.      17.57.20 21-Dec-19:  START TIME
 DMF .             Drill Floor:  DRILL MEAS FROM
 DFST.                        :  DIST FSL TEXT
 DFWT.                        :  DIST FWL TEXT
 PROV.                        :  PROVINCE
 STAT.                        :  STATE
 LOC .                        :  LOCATION
 LMF .             Drill Floor:  LOG MEASURED FROM
 AGAP.m                  43.16:  AIR GAP
 DEP .m                3172.61:  DEPTH
 APD .m                  43.16:  DEPTH ABOVE PD
 WDMS.m                 176.20:  WD ELEV
 EGL .m                   0.00:  GROUND ELEVATION
 EPD .m                   0.00:  ELEVATION
 AZTC.deg                 6.49:  AZM TOTAL CORR
 GRDC.deg                 0.09:  GRID CORRECTION
 MDEC.deg                 6.58:  MAGNETIC DECL
 MDIP.deg                59.61:  MAGNETIC DIP
 MFLD.nT              50294.00:  MAGNETIC FIELD
 GVFD.g                   1.00:  GRAVITY FIELD
 VSDR.deg               235.12:  VERT SEC DIRECT
 TDD .m                   0.00:  TOTAL DEPTH (DRILLER)
 SDEP.m                   0.00:  START DEPTH
 UTMY.m             4448627.46:  UTM Y
 UTMX.m              514337.95:  UTM X
 LONG.deg                51.17:  LONGITUDE
 LATI.deg                40.17:  LATITUDE
 TVDS.m                  43.16:  TVDSS CORRECTN
 WHEW.m                  -5.41:  WELL HEAD E/W
 WHNS.m                  -0.12:  WELL HEAD N/S
 VSEW.m                  -5.41:  VERT SEC E/W
 VSNS.m                  -0.12:  VERT SEC N/S
 EKB .m                  43.16:  KB ELEVATION
 EDF .m                  43.16:  DF ELEVATION
 MAGU.                 1852276:  MAGUTM CHECKSUM
 VSC .                       0:  VS TO CLOSURE
~Parameter Information Block
#MNEM.UNIT       Value        Description
#---------     -----------    ---------------------------
 TCS .hr                125.29:  Time Ciculation Ended 
 DD1 .      Fakhraddin Guliyev:  Direct Drillr 1 
 DD2 .                   Sanan:  Direct Drillr 2 
 DEFF.%                   0.00:  % Det Eff 
 DRET.      04.26.40 27-Dec-19:  Drill End Time 
 DRST.      04.26.40 27-Dec-19:  Drill Start Tim 
 DTIM.hr                 80.10:  Time Drilling 
 EDEP.m                   0.00:  End Depth 
 ENG1.            Adlet Omarov:  Engineer 1 
 ENG2.         Almaz Almadatov:  Engineer 2 
 ETIM.      04.26.40 27-Dec-19:  End Time 
 HFLO.                      No:  High Flow 
 HPRE.                      No:  High Pressure 
 HTEM.                      No:  High Temp 
 HYDO.m                   1.85:  Hydro Offset 
 IMAX.deg                72.09:  Inc Max 
 IMIN.deg                59.07:  Inc Min 
 IMND.m                3901.43:  Inc Min Depth 
 IMXD.m                4753.85:  Inc Max Depth 
 LETM.      04.26.40 27-Dec-19:  Log End Time 
 LSTM.      04.26.40 27-Dec-19:  Log Start Time 
 OTIM.hr                187.88:  Time Operating 
 PMAX.psia            10202.94:  Press Op, Max 
 RUN .                     300:  Run Number 
 RRUN.                    0300:  Rig Run Number 
 SDEP.m                   0.00:  Start Depth 
 STIM.      04.26.40 27-Dec-19:  Start Time 
 SVER.                    9.20:  Sperry Version 
 MRT .                    HCIM:  Maximum Recorded Temperature 
 TTMX.degC               96.08:  Max Tool Temp 
~Curve Information Block
#MNEM.UNIT                 API CODE     Curve Description
#---------               -----------    ---------------------------
 TIME.HHMMSS            00 000 000 000:  GT Time & Date
 GTDEPTH.m              00 000 000 000:  GT Depth
 GTPQH.psia             00 000 000 000:  GT HR Quartz Pressure
 GTTQ.degC              00 000 000 000:  GT Quartz Temperature
 GTTN.NONE              00 000 000 000:  GT Test Number
 GTET.sec               00 000 000 000:  GT Elapsed Test Time
 GTTVD.m                00 000 000 000:  GT True Vertical Depth
#Other Information
#
#WARRANTY: Halliburton will use its best efforts to furnish customers with 
#accurate information and interpretations that are part of, and incident to, the services 
#provided.  However, Halliburton cannot and does not warrant the accuracy 
#or correctness of such information and interpretations.  Under no circumstances should any 
#such information or interpretation be relied upon as the sole basis for any drilling, 
#completion, production, or financial decision or any procedure involving any risk to the 
#safety of any drilling venture, drilling rig or its crew or any other third party.  The 
#Customer has full responsibility for all drilling, completion and production operation.  
#Halliburton makes no representations or warranties, either expressed or 
#implied, including, but not limited to, the implied warranties of merchantability or fitness 
#for a particular purpose, with respect to the services rendered.  In no event will 
#Halliburton be liable for failure to obtain any particular results or for 
#any damages, including, but not limited to, indirect, special or consequential damages, 
#resulting from the use of any information or interpretation provided by Halliburton.
#
~A           TIME           GTDEPTH  GTPQH  GTTQ  GTTN  GTET   GTTVD  
# ...
   10:36:24.710.02-Jan-2020 4788.22 6140.08 85.69 1.00 161.04 2776.61
   10:36:24.910.02-Jan-2020 4788.22 6140.08 85.69 1.00 161.24 2776.61
   10:36:25.110.02-Jan-2020 4788.22 6138.39 85.69 1.00 161.44 2776.61
   10:36:25.310.02-Jan-2020 4788.22 6139.23 85.69 1.00 161.64 2776.61
   10:36:25.510.02-Jan-2020 4788.22 6140.24 85.69 1.00 161.84 2776.61
   10:36:25.710.02-Jan-2020 4788.22 6148.24 85.69 1.00 162.04 2776.61
   10:36:25.911.02-Jan-2020 4788.22 6148.24 85.69 1.00 162.24 2776.61
   10:36:26.111.02-Jan-2020 4788.22 6140.07 85.69 1.00 162.44 2776.61
   10:36:26.311.02-Jan-2020 4788.22 6140.07 85.68 1.00 162.64 2776.61
   10:36:26.511.02-Jan-2020 4788.22 6139.30 85.68 1.00 162.84 2776.61
   10:36:26.711.02-Jan-2020 4788.22 6145.28 85.68 1.00 163.04 2776.61
   10:36:26.911.02-Jan-2020 4788.22 6145.28 85.68 1.00 163.24 2776.61
   10:36:27.111.02-Jan-2020 4788.22 6140.03 85.68 1.00 163.44 2776.61
   10:36:27.311.02-Jan-2020 4788.22 6140.07 85.68 1.00 163.64 2776.61
   10:36:27.511.02-Jan-2020 4788.22 6139.74 85.68 1.00 163.84 2776.61
   10:36:27.711.02-Jan-2020 4788.22 6140.15 85.68 1.00 164.04 2776.61
   10:36:27.911.02-Jan-2020 4788.22 6140.15 85.68 1.00 164.24 2776.61
   10:36:28.111.02-Jan-2020 4788.22 6149.43 85.68 1.00 164.44 2776.61
   10:36:28.311.02-Jan-2020 4788.22 6146.45 85.68 1.00 164.64 2776.61
   10:36:28.511.02-Jan-2020 4788.22 6141.06 85.68 1.00 164.84 2776.61
   10:36:28.711.02-Jan-2020 4788.22 6140.87 85.68 1.00 165.04 2776.61
   10:36:28.911.02-Jan-2020 4788.22 6140.87 85.68 1.00 165.24 2776.61
   10:36:29.111.02-Jan-2020 4788.22 6138.89 85.68 1.00 165.44 2776.61
   10:36:29.311.02-Jan-2020 4788.22 6139.25 85.68 1.00 165.64 2776.61
   10:36:29.511.02-Jan-2020 4788.22 6146.46 85.68 1.00 165.84 2776.61
   10:36:29.711.02-Jan-2020 4788.22 6144.56 85.68 1.00 166.04 2776.61
   10:36:29.911.02-Jan-2020 4788.22 6144.56 85.68 1.00 166.24 2776.61
   10:36:30.112.02-Jan-2020 4788.22 6144.13 85.68 1.00 166.44 2776.61
   10:36:30.312.02-Jan-2020 4788.22 6145.37 85.68 1.00 166.64 2776.61
   10:36:30.512.02-Jan-2020 4788.22 6141.45 85.68 1.00 166.84 2776.61
   10:36:30.712.02-Jan-2020 4788.22 6139.98 85.68 1.00 167.04 2776.61
   10:36:30.912.02-Jan-2020 4788.22 6139.98 85.68 1.00 167.24 2776.61
   10:36:31.112.02-Jan-2020 4788.22 6141.96 85.68 1.00 167.44 2776.61
   10:36:31.312.02-Jan-2020 4788.22 6138.93 85.68 1.00 167.64 2776.61
   10:36:31.512.02-Jan-2020 4788.22 6143.14 85.68 1.00 167.84 2776.61
   10:36:31.712.02-Jan-2020 4788.22 6145.15 85.68 1.00 168.04 2776.61
   10:36:31.912.02-Jan-2020 4788.22 6145.15 85.68 1.00 168.24 2776.61
   10:36:32.112.02-Jan-2020 4788.22 6139.48 85.68 1.00 168.44 2776.61
   10:36:32.312.02-Jan-2020 4788.22 6140.95 85.68 1.00 168.64 2776.61
   10:36:32.512.02-Jan-2020 4788.22 6140.06 85.68 1.00 168.84 2776.61
   10:36:32.712.02-Jan-2020 4788.22 6138.92 85.68 1.00 169.04 2776.61
   10:36:32.912.02-Jan-2020 4788.22 6138.92 85.68 1.00 169.24 2776.61
   10:36:33.112.02-Jan-2020 4788.22 6139.77 85.68 1.00 169.44 2776.61
   10:36:33.312.02-Jan-2020 4788.22 6147.97 85.68 1.00 169.64 2776.61
   10:36:33.512.02-Jan-2020 4788.22 6142.45 85.68 1.00 169.84 2776.61
   10:36:33.712.02-Jan-2020 4788.22 6141.26 85.68 1.00 170.04 2776.61
   10:36:33.912.02-Jan-2020 4788.22 6141.26 85.68 1.00 170.24 2776.61
   10:36:34.112.02-Jan-2020 4788.22 6140.27 85.68 1.00 170.44 2776.61
   10:36:34.313.02-Jan-2020 4788.22 6148.97 85.68 1.00 170.64 2776.61
   10:36:34.513.02-Jan-2020 4788.22 6143.49 85.68 1.00 170.84 2776.61
   10:36:34.713.02-Jan-2020 4788.22 6141.15 85.68 1.00 171.04 2776.61
   10:36:34.913.02-Jan-2020 4788.22 6141.15 85.68 1.00 171.24 2776.61
   10:36:35.113.02-Jan-2020 4788.22 6140.37 85.68 1.00 171.44 2776.61
   10:36:35.313.02-Jan-2020 4788.22 6140.24 85.68 1.00 171.64 2776.61
   10:36:35.513.02-Jan-2020 4788.22 6141.48 85.68 1.00 171.84 2776.61
   10:36:35.713.02-Jan-2020 4788.22 6151.66 85.68 1.00 172.04 2776.61
   10:36:35.913.02-Jan-2020 4788.22 6151.66 85.68 1.00 172.24 2776.61
   10:36:36.113.02-Jan-2020 4788.22 6141.04 85.68 1.00 172.44 2776.61
   10:36:36.313.02-Jan-2020 4788.22 6140.21 85.68 1.00 172.64 2776.61
   10:36:36.513.02-Jan-2020 4788.22 6139.61 85.68 1.00 172.84 2776.61
   10:36:36.713.02-Jan-2020 4788.22 6138.62 85.68 1.00 173.04 2776.61
   10:36:36.913.02-Jan-2020 4788.22 6138.62 85.68 1.00 173.24 2776.61
   10:36:37.113.02-Jan-2020 4788.22 6149.01 85.68 1.00 173.44 2776.61
   10:36:37.313.02-Jan-2020 4788.22 6143.40 85.68 1.00 173.64 2776.61
   10:36:37.513.02-Jan-2020 4788.22 6140.39 85.68 1.00 173.84 2776.61
   10:36:37.713.02-Jan-2020 4788.22 6139.89 85.68 1.00 174.04 2776.61
   10:36:37.913.02-Jan-2020 4788.22 6139.89 85.68 1.00 174.24 2776.61
   10:36:38.113.02-Jan-2020 4788.22 6141.99 85.68 1.00 174.44 2776.61
   10:36:38.313.02-Jan-2020 4788.22 6141.14 85.68 1.00 174.64 2776.61
   10:36:38.514.02-Jan-2020 4788.22 6142.14 85.68 1.00 174.84 2776.61
   10:36:38.714.02-Jan-2020 4788.22 6141.12 85.68 1.00 175.04 2776.61
   10:36:38.914.02-Jan-2020 4788.22 6141.12 85.68 1.00 175.24 2776.61
   10:36:39.114.02-Jan-2020 4788.22 6139.82 85.68 1.00 175.44 2776.61
   10:36:39.314.02-Jan-2020 4788.22 6146.95 85.68 1.00 175.64 2776.61
   10:36:39.514.02-Jan-2020 4788.22 6144.58 85.68 1.00 175.84 2776.61
   10:36:39.714.02-Jan-2020 4788.22 6140.73 85.68 1.00 176.04 2776.61
   10:36:39.914.02-Jan-2020 4788.22 6140.73 85.68 1.00 176.24 2776.61
   10:36:40.114.02-Jan-2020 4788.22 6143.89 85.68 1.00 176.44 2776.61
   10:36:40.314.02-Jan-2020 4788.22 6140.22 85.68 1.00 176.64 2776.61
   10:36:40.514.02-Jan-2020 4788.22 6139.95 85.68 1.00 176.84 2776.61
   10:36:40.714.02-Jan-2020 4788.22 6139.97 85.68 1.00 177.04 2776.61
   10:36:40.914.02-Jan-2020 4788.22 6139.97 85.68 1.00 177.24 2776.61
   10:36:41.114.02-Jan-2020 4788.22 6139.53 85.68 1.00 177.44 2776.61
   10:36:41.314.02-Jan-2020 4788.22 6140.86 85.68 1.00 177.64 2776.61
   10:36:41.514.02-Jan-2020 4788.22 6141.28 85.68 1.00 177.84 2776.61
   10:36:41.714.02-Jan-2020 4788.22 6147.03 85.68 1.00 178.04 2776.61
   10:36:41.914.02-Jan-2020 4788.22 6147.03 85.68 1.00 178.24 2776.61
   10:36:42.114.02-Jan-2020 4788.22 6141.50 85.67 1.00 178.44 2776.61
   10:36:42.314.02-Jan-2020 4788.22 6141.18 85.67 1.00 178.64 2776.61
   10:36:42.514.02-Jan-2020 4788.22 6139.49 85.67 1.00 178.84 2776.61
   10:36:42.714.02-Jan-2020 4788.22 6142.88 85.67 1.00 179.04 2776.61
   10:36:42.915.02-Jan-2020 4788.22 6142.88 85.67 1.00 179.24 2776.61
   10:36:43.115.02-Jan-2020 4788.22 6142.70 85.67 1.00 179.44 2776.61
   10:36:43.315.02-Jan-2020 4788.22 6140.79 85.67 1.00 179.64 2776.61
   10:36:43.515.02-Jan-2020 4788.22 6140.92 85.67 1.00 179.84 2776.61
   10:36:43.715.02-Jan-2020 4788.22 6140.43 85.67 1.00 180.04 2776.61
   10:36:43.915.02-Jan-2020 4788.22 6140.43 85.67 1.00 180.24 2776.61
   10:36:44.115.02-Jan-2020 4788.22 6145.54 85.67 1.00 180.44 2776.61
   10:36:44.315.02-Jan-2020 4788.22 6147.79 85.67 1.00 180.64 2776.61
   10:36:44.515.02-Jan-2020 4788.22 6143.39 85.67 1.00 180.84 2776.61
   10:36:44.715.02-Jan-2020 4788.22 6140.35 85.67 1.00 181.04 2776.61
   10:36:44.915.02-Jan-2020 4788.22 6140.35 85.67 1.00 181.24 2776.61
   10:36:45.115.02-Jan-2020 4788.22 6139.23 85.67 1.00 181.44 2776.61
   10:36:45.315.02-Jan-2020 4788.22 6139.51 85.67 1.00 181.64 2776.61
   10:36:45.515.02-Jan-2020 4788.22 6144.58 85.67 1.00 181.84 2776.61
   10:36:45.715.02-Jan-2020 4788.22 6148.07 85.67 1.00 182.04 2776.61
   10:36:45.915.02-Jan-2020 4788.22 6148.07 85.67 1.00 182.24 2776.61
   10:36:46.115.02-Jan-2020 4788.22 6141.35 85.67 1.00 182.44 2776.61
   10:36:46.315.02-Jan-2020 4788.22 6150.29 85.67 1.00 182.64 2776.61
   10:36:46.515.02-Jan-2020 4788.22 6142.26 85.67 1.00 182.84 2776.61
   10:36:46.715.02-Jan-2020 4788.22 6140.03 85.67 1.00 183.04 2776.61
   10:36:46.915.02-Jan-2020 4788.22 6140.03 85.67 1.00 183.24 2776.61
   10:36:47.116.02-Jan-2020 4788.22 6141.71 85.67 1.00 183.44 2776.61
   10:36:47.316.02-Jan-2020 4788.22 6140.55 85.67 1.00 183.64 2776.61
   10:36:47.516.02-Jan-2020 4788.22 6148.73 85.67 1.00 183.84 2776.61
