~Version Information
 VERS.                  2.0:   CWLS log ASCII Standard -VERSION 2.0
 WRAP.                   NO:   One line per depth step
~Well Information Block
#MNEM.UNIT     VALUE/NAME     DESCRIPTION
#---------     -----------    ---------------------------
 STRT.S             13:01:02 02-Jan-20: START TIME 13:01:02 02-Jan-20
 STOP.S             13:09:15 02-Jan-20: STOP TIME  13:09:15 02-Jan-20
 STEP.S                   0.00: STEP TIME
 NULL.                 -999.25: NULL VALUE
 MDS .        Operator Entered:  MAG DATA SOURCE
 UNIT.                     N/a:  LOGGING EQUIPMENT ID
 DCON.         Sperry Drilling:  DIRECTNL CONTR
 CNTY.                    Baku:  COUNTY NAME
 DOE .                     N/a:  DOE NUMBER
 RIG .                     DWG:  RIG NAME
 MWDS.                    Baku:  MWD SHOP
 REGN.                   EESSA:  REGION
 BASE.              Azerbaijan:  LOGGING EQUIPMENT BASE LOCATION
 UWI .                     N/a:  UNIQUE WELL IDENTIFIER
 API .                     N/a:  API NUMBER
 WTYP.                Deviated:  WELL TYPE
 COMP.     BP Exploration (Caspian Sea) Ltd.:  COMPANY
 SRVC.          TURAN DRILLING:  CONTRACTOR
 WELL.           E04 (Slot 23):  WELL NAME
 CTRY.              Azerbaijan:  COUNTRY NAME
 SON .        AZ-XX-0905715376:  JOB NUMBER
 FLD .                     ACG:  FIELD NAME
 PDAT.          Mean Sea Level:  PERMANENT DATUM
 FTOP.          Formation Tops:  FORM TOPS DESC
 ILTD.               Lithology:  INTERP LTH DESC
 SVYD.                  Survey:  SURVEY DESC
 DMOD.             Drill Model:  DRILL MOD DESC
 HPTY.       Minimum Curvature:  HOLE POS TYPE
 NREF.                    Grid:  NORTH REFERENCE
 SPUD.               21-Dec-19:  SPUD DATE
 DATE.      17.57.20 21-Dec-19:  END TIME
 STIM.      17.57.20 21-Dec-19:  START TIME
 DMF .             Drill Floor:  DRILL MEAS FROM
 DFST.                        :  DIST FSL TEXT
 DFWT.                        :  DIST FWL TEXT
 PROV.                        :  PROVINCE
 STAT.                        :  STATE
 LOC .                        :  LOCATION
 LMF .             Drill Floor:  LOG MEASURED FROM
 AGAP.m                  43.16:  AIR GAP
 DEP .m                3172.61:  DEPTH
 APD .m                  43.16:  DEPTH ABOVE PD
 WDMS.m                 176.20:  WD ELEV
 EGL .m                   0.00:  GROUND ELEVATION
 EPD .m                   0.00:  ELEVATION
 AZTC.deg                 6.49:  AZM TOTAL CORR
 GRDC.deg                 0.09:  GRID CORRECTION
 MDEC.deg                 6.58:  MAGNETIC DECL
 MDIP.deg                59.61:  MAGNETIC DIP
 MFLD.nT              50294.00:  MAGNETIC FIELD
 GVFD.g                   1.00:  GRAVITY FIELD
 VSDR.deg               235.12:  VERT SEC DIRECT
 TDD .m                   0.00:  TOTAL DEPTH (DRILLER)
 SDEP.m                   0.00:  START DEPTH
 UTMY.m             4448627.46:  UTM Y
 UTMX.m              514337.95:  UTM X
 LONG.deg                51.17:  LONGITUDE
 LATI.deg                40.17:  LATITUDE
 TVDS.m                  43.16:  TVDSS CORRECTN
 WHEW.m                  -5.41:  WELL HEAD E/W
 WHNS.m                  -0.12:  WELL HEAD N/S
 VSEW.m                  -5.41:  VERT SEC E/W
 VSNS.m                  -0.12:  VERT SEC N/S
 EKB .m                  43.16:  KB ELEVATION
 EDF .m                  43.16:  DF ELEVATION
 MAGU.                 1852276:  MAGUTM CHECKSUM
 VSC .                       0:  VS TO CLOSURE
~Parameter Information Block
#MNEM.UNIT       Value        Description
#---------     -----------    ---------------------------
 TCS .hr                125.29:  Time Ciculation Ended 
 DD1 .      Fakhraddin Guliyev:  Direct Drillr 1 
 DD2 .                   Sanan:  Direct Drillr 2 
 DEFF.%                   0.00:  % Det Eff 
 DRET.      04.26.40 27-Dec-19:  Drill End Time 
 DRST.      04.26.40 27-Dec-19:  Drill Start Tim 
 DTIM.hr                 80.10:  Time Drilling 
 EDEP.m                   0.00:  End Depth 
 ENG1.            Adlet Omarov:  Engineer 1 
 ENG2.         Almaz Almadatov:  Engineer 2 
 ETIM.      04.26.40 27-Dec-19:  End Time 
 HFLO.                      No:  High Flow 
 HPRE.                      No:  High Pressure 
 HTEM.                      No:  High Temp 
 HYDO.m                   1.85:  Hydro Offset 
 IMAX.deg                72.09:  Inc Max 
 IMIN.deg                59.07:  Inc Min 
 IMND.m                3901.43:  Inc Min Depth 
 IMXD.m                4753.85:  Inc Max Depth 
 LETM.      04.26.40 27-Dec-19:  Log End Time 
 LSTM.      04.26.40 27-Dec-19:  Log Start Time 
 OTIM.hr                187.88:  Time Operating 
 PMAX.psia            10202.94:  Press Op, Max 
 RUN .                     300:  Run Number 
 RRUN.                    0300:  Rig Run Number 
 SDEP.m                   0.00:  Start Depth 
 STIM.      04.26.40 27-Dec-19:  Start Time 
 SVER.                    9.20:  Sperry Version 
 MRT .                    HCIM:  Maximum Recorded Temperature 
 TTMX.degC               96.08:  Max Tool Temp 
~Curve Information Block
#MNEM.UNIT                 API CODE     Curve Description
#---------               -----------    ---------------------------
 TIME.HHMMSS            00 000 000 000:  GT Time & Date
 GTDEPTH.m              00 000 000 000:  GT Depth
 GTPQH.psia             00 000 000 000:  GT HR Quartz Pressure
 GTTQ.degC              00 000 000 000:  GT Quartz Temperature
 GTTN.NONE              00 000 000 000:  GT Test Number
 GTET.sec               00 000 000 000:  GT Elapsed Test Time
 GTTVD.m                00 000 000 000:  GT True Vertical Depth
#Other Information
#
#WARRANTY: Halliburton will use its best efforts to furnish customers with 
#accurate information and interpretations that are part of, and incident to, the services 
#provided.  However, Halliburton cannot and does not warrant the accuracy 
#or correctness of such information and interpretations.  Under no circumstances should any 
#such information or interpretation be relied upon as the sole basis for any drilling, 
#completion, production, or financial decision or any procedure involving any risk to the 
#safety of any drilling venture, drilling rig or its crew or any other third party.  The 
#Customer has full responsibility for all drilling, completion and production operation.  
#Halliburton makes no representations or warranties, either expressed or 
#implied, including, but not limited to, the implied warranties of merchantability or fitness 
#for a particular purpose, with respect to the services rendered.  In no event will 
#Halliburton be liable for failure to obtain any particular results or for 
#any damages, including, but not limited to, indirect, special or consequential damages, 
#resulting from the use of any information or interpretation provided by Halliburton.
#
~A           TIME           GTDEPTH  GTPQH  GTTQ  GTTN  GTET   GTTVD  
# ...
   13:04:06.110.02-Jan-2020 4774.33  804.76 83.89 3.00 184.01 2772.29
   13:04:06.310.02-Jan-2020 4774.33  804.76 83.89 3.00 184.21 2772.29
   13:04:06.510.02-Jan-2020 4774.33  945.16 83.88 3.00 184.41 2772.29
   13:04:06.710.02-Jan-2020 4774.33  871.30 83.88 3.00 184.61 2772.29
   13:04:06.910.02-Jan-2020 4774.33  864.11 83.88 3.00 184.81 2772.29
   13:04:07.110.02-Jan-2020 4774.33  950.55 83.88 3.00 185.01 2772.29
   13:04:07.310.02-Jan-2020 4774.33  950.55 83.88 3.00 185.21 2772.29
   13:04:07.510.02-Jan-2020 4774.33  992.83 83.88 3.00 185.41 2772.29
   13:04:07.710.02-Jan-2020 4774.33  934.84 83.88 3.00 185.61 2772.29
   13:04:07.910.02-Jan-2020 4774.33  782.05 83.87 3.00 185.81 2772.29
   13:04:08.110.02-Jan-2020 4774.33  718.40 83.87 3.00 186.01 2772.29
   13:04:08.310.02-Jan-2020 4774.33  718.40 83.87 3.00 186.21 2772.29
   13:04:08.510.02-Jan-2020 4774.33  586.07 83.87 3.00 186.41 2772.29
   13:04:08.710.02-Jan-2020 4774.33  535.20 83.87 3.00 186.61 2772.29
   13:04:08.910.02-Jan-2020 4774.33  503.88 83.87 3.00 186.81 2772.29
   13:04:09.110.02-Jan-2020 4774.33  549.92 83.87 3.00 187.01 2772.29
   13:04:09.310.02-Jan-2020 4774.33  549.92 83.87 3.00 187.21 2772.29
   13:04:09.510.02-Jan-2020 4774.33  736.21 83.87 3.00 187.41 2772.29
   13:04:09.710.02-Jan-2020 4774.33  833.72 83.87 3.00 187.61 2772.29
   13:04:09.910.02-Jan-2020 4774.33  869.69 83.86 3.00 187.81 2772.29
   13:04:10.110.02-Jan-2020 4774.33  963.33 83.86 3.00 188.01 2772.29
   13:04:10.310.02-Jan-2020 4774.33  963.33 83.86 3.00 188.21 2772.29
   13:04:10.510.02-Jan-2020 4774.33  896.09 83.86 3.00 188.41 2772.29
   13:04:10.710.02-Jan-2020 4774.33  838.98 83.86 3.00 188.61 2772.29
   13:04:10.910.02-Jan-2020 4774.33  805.05 83.86 3.00 188.81 2772.29
   13:04:11.110.02-Jan-2020 4774.33  875.35 83.86 3.00 189.01 2772.29
   13:04:11.310.02-Jan-2020 4774.33  875.35 83.86 3.00 189.21 2772.29
   13:04:11.510.02-Jan-2020 4774.33 1315.08 83.86 3.00 189.41 2772.29
   13:04:11.710.02-Jan-2020 4774.33 1487.38 83.86 3.00 189.61 2772.29
   13:04:11.910.02-Jan-2020 4774.33 1527.92 83.86 3.00 189.81 2772.29
   13:04:12.110.02-Jan-2020 4774.33 1566.65 83.86 3.00 190.01 2772.29
   13:04:12.310.02-Jan-2020 4774.33 1566.65 83.86 3.00 190.21 2772.29
   13:04:12.510.02-Jan-2020 4774.33 1629.89 83.86 3.00 190.41 2772.29
   13:04:12.710.02-Jan-2020 4774.33 1657.48 83.86 3.00 190.61 2772.29
   13:04:12.910.02-Jan-2020 4774.33 1695.80 83.86 3.00 190.81 2772.29
   13:04:13.110.02-Jan-2020 4774.33 1729.63 83.86 3.00 191.01 2772.29
   13:04:13.310.02-Jan-2020 4774.33 1729.63 83.86 3.00 191.21 2772.29
   13:04:13.510.02-Jan-2020 4774.33 1788.24 83.86 3.00 191.41 2772.29
   13:04:13.710.02-Jan-2020 4774.33 1814.99 83.86 3.00 191.61 2772.29
   13:04:13.910.02-Jan-2020 4774.33 1838.73 83.86 3.00 191.81 2772.29
   13:04:14.110.02-Jan-2020 4774.33 1867.65 83.86 3.00 192.01 2772.29
   13:04:14.310.02-Jan-2020 4774.33 1867.65 83.86 3.00 192.21 2772.29
   13:04:14.510.02-Jan-2020 4774.33 1916.41 83.86 3.00 192.41 2772.29
   13:04:14.710.02-Jan-2020 4774.33 1941.33 83.86 3.00 192.61 2772.29
   13:04:14.910.02-Jan-2020 4774.33 1964.75 83.86 3.00 192.81 2772.29
   13:04:15.110.02-Jan-2020 4774.33 1987.40 83.86 3.00 193.01 2772.29
   13:04:15.310.02-Jan-2020 4774.33 1987.40 83.86 3.00 193.21 2772.29
   13:04:15.510.02-Jan-2020 4774.33 2029.50 83.86 3.00 193.41 2772.29
   13:04:15.710.02-Jan-2020 4774.33 2050.06 83.86 3.00 193.61 2772.29
   13:04:15.910.02-Jan-2020 4774.33 2069.01 83.86 3.00 193.81 2772.29
   13:04:16.110.02-Jan-2020 4774.33 2088.38 83.86 3.00 194.01 2772.29
   13:04:16.310.02-Jan-2020 4774.33 2088.38 83.86 3.00 194.21 2772.29
   13:04:16.510.02-Jan-2020 4774.33 2125.05 83.86 3.00 194.41 2772.29
   13:04:16.710.02-Jan-2020 4774.33 2143.05 83.87 3.00 194.61 2772.29
   13:04:16.910.02-Jan-2020 4774.33 2161.32 83.87 3.00 194.81 2772.29
   13:04:17.110.02-Jan-2020 4774.33 2178.68 83.87 3.00 195.01 2772.29
   13:04:17.310.02-Jan-2020 4774.33 2178.68 83.87 3.00 195.21 2772.29
   13:04:17.510.02-Jan-2020 4774.33 2211.88 83.87 3.00 195.41 2772.29
   13:04:17.710.02-Jan-2020 4774.33 2229.09 83.87 3.00 195.61 2772.29
   13:04:17.910.02-Jan-2020 4774.33 2245.39 83.87 3.00 195.81 2772.29
   13:04:18.110.02-Jan-2020 4774.33 2259.12 83.87 3.00 196.01 2772.29
   13:04:18.310.02-Jan-2020 4774.33 2259.12 83.87 3.00 196.21 2772.29
   13:04:18.510.02-Jan-2020 4774.33 2293.04 83.87 3.00 196.41 2772.29
   13:04:18.710.02-Jan-2020 4774.33 2308.94 83.87 3.00 196.61 2772.29
   13:04:18.910.02-Jan-2020 4774.33 2323.92 83.87 3.00 196.81 2772.29
   13:04:19.110.02-Jan-2020 4774.33 2337.67 83.87 3.00 197.01 2772.29
   13:04:19.310.02-Jan-2020 4774.33 2337.67 83.87 3.00 197.21 2772.29
   13:04:19.510.02-Jan-2020 4774.33 2368.55 83.87 3.00 197.41 2772.29
   13:04:19.710.02-Jan-2020 4774.33 2382.39 83.87 3.00 197.61 2772.29
   13:04:19.910.02-Jan-2020 4774.33 2394.91 83.88 3.00 197.81 2772.29
   13:04:20.110.02-Jan-2020 4774.33 2411.18 83.88 3.00 198.01 2772.29
   13:04:20.310.02-Jan-2020 4774.33 2411.18 83.88 3.00 198.21 2772.29
   13:04:20.510.02-Jan-2020 4774.33 2439.12 83.88 3.00 198.41 2772.29
   13:04:20.710.02-Jan-2020 4774.33 2452.37 83.88 3.00 198.61 2772.29
   13:04:20.910.02-Jan-2020 4774.33 2463.39 83.88 3.00 198.81 2772.29
   13:04:21.110.02-Jan-2020 4774.33 2478.80 83.88 3.00 199.01 2772.29
   13:04:21.310.02-Jan-2020 4774.33 2478.80 83.88 3.00 199.21 2772.29
   13:04:21.510.02-Jan-2020 4774.33 2503.55 83.88 3.00 199.41 2772.29
   13:04:21.710.02-Jan-2020 4774.33 2517.09 83.88 3.00 199.61 2772.29
   13:04:21.910.02-Jan-2020 4774.33 2531.13 83.88 3.00 199.81 2772.29
   13:04:22.110.02-Jan-2020 4774.33 2543.65 83.88 3.00 200.01 2772.29
   13:04:22.310.02-Jan-2020 4774.33 2543.65 83.88 3.00 200.21 2772.29
   13:04:22.510.02-Jan-2020 4774.33 2569.20 83.88 3.00 200.41 2772.29
   13:04:22.710.02-Jan-2020 4774.33 2581.63 83.88 3.00 200.61 2772.29
   13:04:22.910.02-Jan-2020 4774.33 2594.49 83.88 3.00 200.81 2772.29
   13:04:23.110.02-Jan-2020 4774.33 2605.81 83.88 3.00 201.01 2772.29
   13:04:23.310.02-Jan-2020 4774.33 2605.81 83.88 3.00 201.21 2772.29
   13:04:23.510.02-Jan-2020 4774.33 2630.06 83.89 3.00 201.41 2772.29
   13:04:23.710.02-Jan-2020 4774.33 2642.28 83.89 3.00 201.61 2772.29
   13:04:23.910.02-Jan-2020 4774.33 2654.62 83.89 3.00 201.81 2772.29
   13:04:24.110.02-Jan-2020 4774.33 2664.09 83.89 3.00 202.01 2772.29
   13:04:24.311.02-Jan-2020 4774.33 2664.09 83.89 3.00 202.21 2772.29
   13:04:24.511.02-Jan-2020 4774.33 2690.27 83.89 3.00 202.41 2772.29
   13:04:24.711.02-Jan-2020 4774.33 2702.16 83.89 3.00 202.61 2772.29
   13:04:24.911.02-Jan-2020 4774.33 2714.25 83.89 3.00 202.81 2772.29
   13:04:25.111.02-Jan-2020 4774.33 2725.38 83.89 3.00 203.01 2772.29
   13:04:25.311.02-Jan-2020 4774.33 2725.38 83.89 3.00 203.21 2772.29
   13:04:25.511.02-Jan-2020 4774.33 2748.12 83.89 3.00 203.41 2772.29
   13:04:25.711.02-Jan-2020 4774.33 2759.88 83.89 3.00 203.61 2772.29
   13:04:25.911.02-Jan-2020 4774.33 2771.08 83.89 3.00 203.81 2772.29
   13:04:26.111.02-Jan-2020 4774.33 2782.84 83.89 3.00 204.01 2772.29
   13:04:26.311.02-Jan-2020 4774.33 2782.84 83.89 3.00 204.21 2772.29
   13:04:26.511.02-Jan-2020 4774.33 2804.53 83.89 3.00 204.41 2772.29
   13:04:26.711.02-Jan-2020 4774.33 2812.98 83.89 3.00 204.61 2772.29
   13:04:26.911.02-Jan-2020 4774.33 2825.41 83.89 3.00 204.81 2772.29
   13:04:27.111.02-Jan-2020 4774.33 2836.79 83.89 3.00 205.01 2772.29
   13:04:27.311.02-Jan-2020 4774.33 2836.79 83.89 3.00 205.21 2772.29
   13:04:27.511.02-Jan-2020 4774.33 2855.99 83.89 3.00 205.41 2772.29
   13:04:27.711.02-Jan-2020 4774.33 2868.98 83.89 3.00 205.61 2772.29
   13:04:27.911.02-Jan-2020 4774.33 2879.76 83.89 3.00 205.81 2772.29
   13:04:28.111.02-Jan-2020 4774.33 2890.48 83.89 3.00 206.01 2772.29
   13:04:28.311.02-Jan-2020 4774.33 2890.48 83.89 3.00 206.21 2772.29
   13:04:28.511.02-Jan-2020 4774.33 2908.67 83.90 3.00 206.41 2772.29
   13:04:28.711.02-Jan-2020 4774.33 2922.14 83.90 3.00 206.61 2772.29
   13:04:28.911.02-Jan-2020 4774.33 2933.92 83.90 3.00 206.81 2772.29
