~Version Information
 VERS.                  2.0:   CWLS log ASCII Standard -VERSION 2.0
 WRAP.                   NO:   One line per depth step
~Well Information Block
#MNEM.UNIT     VALUE/NAME     DESCRIPTION
#---------     -----------    ---------------------------
 STRT.S             10:33:43 02-Jan-20: START TIME 10:33:43 02-Jan-20
 STOP.S             10:42:04 02-Jan-20: STOP TIME  10:42:04 02-Jan-20
 STEP.S                   0.00: STEP TIME
 NULL.                 -999.25: NULL VALUE
 MDS .        Operator Entered:  MAG DATA SOURCE
 UNIT.                     N/a:  LOGGING EQUIPMENT ID
 DCON.         Sperry Drilling:  DIRECTNL CONTR
 CNTY.                    Baku:  COUNTY NAME
 DOE .                     N/a:  DOE NUMBER
 RIG .                     DWG:  RIG NAME
 MWDS.                    Baku:  MWD SHOP
 REGN.                   EESSA:  REGION
 BASE.              Azerbaijan:  LOGGING EQUIPMENT BASE LOCATION
 UWI .                     N/a:  UNIQUE WELL IDENTIFIER
 API .                     N/a:  API NUMBER
 WTYP.                Deviated:  WELL TYPE
 COMP.     BP Exploration (Caspian Sea) Ltd.:  COMPANY
 SRVC.          TURAN DRILLING:  CONTRACTOR
 WELL.           E04 (Slot 23):  WELL NAME
 CTRY.              Azerbaijan:  COUNTRY NAME
 SON .        AZ-XX-0905715376:  JOB NUMBER
 FLD .                     ACG:  FIELD NAME
 PDAT.          Mean Sea Level:  PERMANENT DATUM
 FTOP.          Formation Tops:  FORM TOPS DESC
 ILTD.               Lithology:  INTERP LTH DESC
 SVYD.                  Survey:  SURVEY DESC
 DMOD.             Drill Model:  DRILL MOD DESC
 HPTY.       Minimum Curvature:  HOLE POS TYPE
 NREF.                    Grid:  NORTH REFERENCE
 SPUD.               21-Dec-19:  SPUD DATE
 DATE.      17.57.20 21-Dec-19:  END TIME
 STIM.      17.57.20 21-Dec-19:  START TIME
 DMF .             Drill Floor:  DRILL MEAS FROM
 DFST.                        :  DIST FSL TEXT
 DFWT.                        :  DIST FWL TEXT
 PROV.                        :  PROVINCE
 STAT.                        :  STATE
 LOC .                        :  LOCATION
 LMF .             Drill Floor:  LOG MEASURED FROM
 AGAP.m                  43.16:  AIR GAP
 DEP .m                3172.61:  DEPTH
 APD .m                  43.16:  DEPTH ABOVE PD
 WDMS.m                 176.20:  WD ELEV
 EGL .m                   0.00:  GROUND ELEVATION
 EPD .m                   0.00:  ELEVATION
 AZTC.deg                 6.49:  AZM TOTAL CORR
 GRDC.deg                 0.09:  GRID CORRECTION
 MDEC.deg                 6.58:  MAGNETIC DECL
 MDIP.deg                59.61:  MAGNETIC DIP
 MFLD.nT              50294.00:  MAGNETIC FIELD
 GVFD.g                   1.00:  GRAVITY FIELD
 VSDR.deg               235.12:  VERT SEC DIRECT
 TDD .m                   0.00:  TOTAL DEPTH (DRILLER)
 SDEP.m                   0.00:  START DEPTH
 UTMY.m             4448627.46:  UTM Y
 UTMX.m              514337.95:  UTM X
 LONG.deg                51.17:  LONGITUDE
 LATI.deg                40.17:  LATITUDE
 TVDS.m                  43.16:  TVDSS CORRECTN
 WHEW.m                  -5.41:  WELL HEAD E/W
 WHNS.m                  -0.12:  WELL HEAD N/S
 VSEW.m                  -5.41:  VERT SEC E/W
 VSNS.m                  -0.12:  VERT SEC N/S
 EKB .m                  43.16:  KB ELEVATION
 EDF .m                  43.16:  DF ELEVATION
 MAGU.                 1852276:  MAGUTM CHECKSUM
 VSC .                       0:  VS TO CLOSURE
~Parameter Information Block
#MNEM.UNIT       Value        Description
#---------     -----------    ---------------------------
 TCS .hr                125.29:  Time Ciculation Ended 
 DD1 .      Fakhraddin Guliyev:  Direct Drillr 1 
 DD2 .                   Sanan:  Direct Drillr 2 
 DEFF.%                   0.00:  % Det Eff 
 DRET.      04.26.40 27-Dec-19:  Drill End Time 
 DRST.      04.26.40 27-Dec-19:  Drill Start Tim 
 DTIM.hr                 80.10:  Time Drilling 
 EDEP.m                   0.00:  End Depth 
 ENG1.            Adlet Omarov:  Engineer 1 
 ENG2.         Almaz Almadatov:  Engineer 2 
 ETIM.      04.26.40 27-Dec-19:  End Time 
 HFLO.                      No:  High Flow 
 HPRE.                      No:  High Pressure 
 HTEM.                      No:  High Temp 
 HYDO.m                   1.85:  Hydro Offset 
 IMAX.deg                72.09:  Inc Max 
 IMIN.deg                59.07:  Inc Min 
 IMND.m                3901.43:  Inc Min Depth 
 IMXD.m                4753.85:  Inc Max Depth 
 LETM.      04.26.40 27-Dec-19:  Log End Time 
 LSTM.      04.26.40 27-Dec-19:  Log Start Time 
 OTIM.hr                187.88:  Time Operating 
 PMAX.psia            10202.94:  Press Op, Max 
 RUN .                     300:  Run Number 
 RRUN.                    0300:  Rig Run Number 
 SDEP.m                   0.00:  Start Depth 
 STIM.      04.26.40 27-Dec-19:  Start Time 
 SVER.                    9.20:  Sperry Version 
 MRT .                    HCIM:  Maximum Recorded Temperature 
 TTMX.degC               96.08:  Max Tool Temp 
~Curve Information Block
#MNEM.UNIT                 API CODE     Curve Description
#---------               -----------    ---------------------------
 TIME.HHMMSS            00 000 000 000:  GT Time & Date
 GTDEPTH.m              00 000 000 000:  GT Depth
 GTPQH.psia             00 000 000 000:  GT HR Quartz Pressure
 GTTQ.degC              00 000 000 000:  GT Quartz Temperature
 GTTN.NONE              00 000 000 000:  GT Test Number
 GTET.sec               00 000 000 000:  GT Elapsed Test Time
 GTTVD.m                00 000 000 000:  GT True Vertical Depth
#Other Information
#
#WARRANTY: Halliburton will use its best efforts to furnish customers with 
#accurate information and interpretations that are part of, and incident to, the services 
#provided.  However, Halliburton cannot and does not warrant the accuracy 
#or correctness of such information and interpretations.  Under no circumstances should any 
#such information or interpretation be relied upon as the sole basis for any drilling, 
#completion, production, or financial decision or any procedure involving any risk to the 
#safety of any drilling venture, drilling rig or its crew or any other third party.  The 
#Customer has full responsibility for all drilling, completion and production operation.  
#Halliburton makes no representations or warranties, either expressed or 
#implied, including, but not limited to, the implied warranties of merchantability or fitness 
#for a particular purpose, with respect to the services rendered.  In no event will 
#Halliburton be liable for failure to obtain any particular results or for 
#any damages, including, but not limited to, indirect, special or consequential damages, 
#resulting from the use of any information or interpretation provided by Halliburton.
#
~A           TIME           GTDEPTH  GTPQH  GTTQ  GTTN  GTET   GTTVD  
# ...
   10:36:47.716.02-Jan-2020 4788.22 6143.27 85.67 1.00 184.04 2776.61
   10:36:47.916.02-Jan-2020 4788.22 6143.27 85.67 1.00 184.24 2776.61
   10:36:48.116.02-Jan-2020 4788.22 6144.00 85.67 1.00 184.44 2776.61
   10:36:48.316.02-Jan-2020 4788.22 6146.26 85.67 1.00 184.64 2776.61
   10:36:48.516.02-Jan-2020 4788.22 6142.27 85.67 1.00 184.84 2776.61
   10:36:48.716.02-Jan-2020 4788.22 6140.57 85.67 1.00 185.04 2776.61
   10:36:48.916.02-Jan-2020 4788.22 6140.57 85.67 1.00 185.24 2776.61
   10:36:49.116.02-Jan-2020 4788.22 6139.11 85.67 1.00 185.44 2776.61
   10:36:49.316.02-Jan-2020 4788.22 6139.20 85.67 1.00 185.64 2776.61
   10:36:49.516.02-Jan-2020 4788.22 6140.54 85.67 1.00 185.84 2776.61
   10:36:49.716.02-Jan-2020 4788.22 6141.96 85.67 1.00 186.04 2776.61
   10:36:49.916.02-Jan-2020 4788.22 6141.96 85.67 1.00 186.24 2776.61
   10:36:50.116.02-Jan-2020 4788.22 6143.42 85.67 1.00 186.44 2776.61
   10:36:50.316.02-Jan-2020 4788.22 6142.11 85.67 1.00 186.64 2776.61
   10:36:50.516.02-Jan-2020 4788.22 6142.30 85.67 1.00 186.84 2776.61
   10:36:50.716.02-Jan-2020 4788.22 6141.02 85.67 1.00 187.04 2776.61
   10:36:50.916.02-Jan-2020 4788.22 6141.02 85.67 1.00 187.24 2776.61
   10:36:51.116.02-Jan-2020 4788.22 6144.96 85.67 1.00 187.44 2776.61
   10:36:51.317.02-Jan-2020 4788.22 6141.62 85.67 1.00 187.64 2776.61
   10:36:51.517.02-Jan-2020 4788.22 6150.32 85.67 1.00 187.84 2776.61
   10:36:51.717.02-Jan-2020 4788.22 6143.59 85.67 1.00 188.04 2776.61
   10:36:51.917.02-Jan-2020 4788.22 6143.59 85.67 1.00 188.24 2776.61
   10:36:52.117.02-Jan-2020 4788.22 6151.25 85.67 1.00 188.44 2776.61
   10:36:52.317.02-Jan-2020 4788.22 6144.34 85.67 1.00 188.64 2776.61
   10:36:52.517.02-Jan-2020 4788.22 6140.19 85.67 1.00 188.84 2776.61
   10:36:52.717.02-Jan-2020 4788.22 6139.92 85.67 1.00 189.04 2776.61
   10:36:52.917.02-Jan-2020 4788.22 6139.92 85.67 1.00 189.24 2776.61
   10:36:53.117.02-Jan-2020 4788.22 6142.17 85.67 1.00 189.44 2776.61
   10:36:53.317.02-Jan-2020 4788.22 6138.70 85.67 1.00 189.64 2776.61
   10:36:53.517.02-Jan-2020 4788.22 6139.28 85.67 1.00 189.84 2776.61
   10:36:53.717.02-Jan-2020 4788.22 6143.45 85.67 1.00 190.04 2776.61
   10:36:53.917.02-Jan-2020 4788.22 6143.45 85.67 1.00 190.24 2776.61
   10:36:54.117.02-Jan-2020 4788.22 6142.41 85.67 1.00 190.44 2776.61
   10:36:54.317.02-Jan-2020 4788.22 6141.10 85.67 1.00 190.64 2776.61
   10:36:54.517.02-Jan-2020 4788.22 6148.01 85.67 1.00 190.84 2776.61
   10:36:54.717.02-Jan-2020 4788.22 6143.93 85.67 1.00 191.04 2776.61
   10:36:54.917.02-Jan-2020 4788.22 6143.93 85.67 1.00 191.24 2776.61
   10:36:55.117.02-Jan-2020 4788.22 6141.68 85.67 1.00 191.44 2776.61
   10:36:55.317.02-Jan-2020 4788.22 6141.31 85.67 1.00 191.65 2776.61
   10:36:55.518.02-Jan-2020 4788.22 6140.80 85.67 1.00 191.85 2776.61
   10:36:55.718.02-Jan-2020 4788.22 6142.22 85.67 1.00 192.05 2776.61
   10:36:55.918.02-Jan-2020 4788.22 6142.22 85.67 1.00 192.25 2776.61
   10:36:56.118.02-Jan-2020 4788.22 6152.16 85.67 1.00 192.45 2776.61
   10:36:56.318.02-Jan-2020 4788.22 6145.35 85.67 1.00 192.65 2776.61
   10:36:56.518.02-Jan-2020 4788.22 6142.22 85.67 1.00 192.85 2776.61
   10:36:56.718.02-Jan-2020 4788.22 6141.83 85.67 1.00 193.05 2776.61
   10:36:56.918.02-Jan-2020 4788.22 6141.83 85.67 1.00 193.25 2776.61
   10:36:57.118.02-Jan-2020 4788.22 6140.97 85.67 1.00 193.45 2776.61
   10:36:57.318.02-Jan-2020 4788.22 6145.40 85.67 1.00 193.65 2776.61
   10:36:57.518.02-Jan-2020 4788.22 6147.66 85.66 1.00 193.85 2776.61
   10:36:57.718.02-Jan-2020 4788.22 6143.60 85.66 1.00 194.05 2776.61
   10:36:57.918.02-Jan-2020 4788.22 6143.60 85.66 1.00 194.25 2776.61
   10:36:58.118.02-Jan-2020 4788.22 6148.02 85.66 1.00 194.45 2776.61
   10:36:58.318.02-Jan-2020 4788.22 6144.96 85.66 1.00 194.65 2776.61
   10:36:58.518.02-Jan-2020 4788.22 6141.78 85.66 1.00 194.85 2776.61
   10:36:58.718.02-Jan-2020 4788.22 6150.47 85.66 1.00 195.05 2776.61
   10:36:58.918.02-Jan-2020 4788.22 6150.47 85.66 1.00 195.25 2776.61
   10:36:59.118.02-Jan-2020 4788.22 6140.27 85.66 1.00 195.45 2776.61
   10:36:59.318.02-Jan-2020 4788.22 6140.38 85.66 1.00 195.65 2776.61
   10:36:59.518.02-Jan-2020 4788.22 6148.69 85.66 1.00 195.85 2776.61
   10:36:59.718.02-Jan-2020 4788.22 6142.62 85.66 1.00 196.05 2776.61
   10:36:59.919.02-Jan-2020 4788.22 6142.62 85.66 1.00 196.25 2776.61
   10:37:00.119.02-Jan-2020 4788.22 6142.43 85.66 1.00 196.45 2776.61
   10:37:00.319.02-Jan-2020 4788.22 6142.61 85.66 1.00 196.65 2776.61
   10:37:00.519.02-Jan-2020 4788.22 6150.33 85.66 1.00 196.85 2776.61
   10:37:00.719.02-Jan-2020 4788.22 6143.67 85.66 1.00 197.05 2776.61
   10:37:00.919.02-Jan-2020 4788.22 6143.67 85.66 1.00 197.25 2776.61
   10:37:01.119.02-Jan-2020 4788.22 6140.72 85.66 1.00 197.45 2776.61
   10:37:01.319.02-Jan-2020 4788.22 6146.58 85.66 1.00 197.65 2776.61
   10:37:01.519.02-Jan-2020 4788.22 6144.42 85.66 1.00 197.85 2776.61
   10:37:01.719.02-Jan-2020 4788.22 6141.52 85.66 1.00 198.05 2776.61
   10:37:01.919.02-Jan-2020 4788.22 6141.52 85.66 1.00 198.25 2776.61
   10:37:02.119.02-Jan-2020 4788.22 6140.84 85.66 1.00 198.45 2776.61
   10:37:02.319.02-Jan-2020 4788.22 6140.25 85.66 1.00 198.65 2776.61
   10:37:02.519.02-Jan-2020 4788.22 6141.02 85.66 1.00 198.85 2776.61
   10:37:02.719.02-Jan-2020 4788.22 6142.36 85.66 1.00 199.05 2776.61
   10:37:02.919.02-Jan-2020 4788.22 6142.36 85.66 1.00 199.25 2776.61
   10:37:03.119.02-Jan-2020 4788.22 6143.40 85.66 1.00 199.45 2776.61
   10:37:03.319.02-Jan-2020 4788.22 6141.18 85.66 1.00 199.65 2776.61
   10:37:03.519.02-Jan-2020 4788.22 6141.60 85.66 1.00 199.85 2776.61
   10:37:03.719.02-Jan-2020 4788.22 6141.59 85.66 1.00 200.05 2776.61
   10:37:03.919.02-Jan-2020 4788.22 6141.59 85.66 1.00 200.25 2776.61
   10:37:04.120.02-Jan-2020 4788.22 6141.16 85.66 1.00 200.45 2776.61
   10:37:04.320.02-Jan-2020 4788.22 6150.22 85.66 1.00 200.65 2776.61
   10:37:04.520.02-Jan-2020 4788.22 6144.54 85.66 1.00 200.85 2776.61
   10:37:04.720.02-Jan-2020 4788.22 6141.89 85.66 1.00 201.05 2776.61
   10:37:04.920.02-Jan-2020 4788.22 6141.89 85.66 1.00 201.25 2776.61
   10:37:05.120.02-Jan-2020 4788.22 6141.13 85.66 1.00 201.45 2776.61
   10:37:05.320.02-Jan-2020 4788.22 6141.13 85.66 1.00 201.65 2776.61
   10:37:05.520.02-Jan-2020 4788.22 6141.90 85.66 1.00 201.85 2776.61
   10:37:05.720.02-Jan-2020 4788.22 6150.61 85.66 1.00 202.05 2776.61
   10:37:05.920.02-Jan-2020 4788.22 6150.61 85.66 1.00 202.25 2776.61
   10:37:06.120.02-Jan-2020 4788.22 6141.81 85.66 1.00 202.45 2776.61
   10:37:06.320.02-Jan-2020 4788.22 6141.43 85.66 1.00 202.65 2776.61
   10:37:06.520.02-Jan-2020 4788.22 6141.14 85.66 1.00 202.85 2776.61
   10:37:06.720.02-Jan-2020 4788.22 6140.60 85.66 1.00 203.05 2776.61
   10:37:06.920.02-Jan-2020 4788.22 6140.60 85.66 1.00 203.25 2776.61
   10:37:07.120.02-Jan-2020 4788.22 6151.37 85.66 1.00 203.45 2776.61
   10:37:07.320.02-Jan-2020 4788.22 6145.07 85.66 1.00 203.65 2776.61
   10:37:07.520.02-Jan-2020 4788.22 6142.03 85.66 1.00 203.85 2776.61
   10:37:07.720.02-Jan-2020 4788.22 6141.60 85.66 1.00 204.05 2776.61
   10:37:07.920.02-Jan-2020 4788.22 6141.60 85.66 1.00 204.25 2776.61
   10:37:08.120.02-Jan-2020 4788.22 6144.77 85.66 1.00 204.45 2776.61
   10:37:08.321.02-Jan-2020 4788.22 6141.88 85.66 1.00 204.65 2776.61
   10:37:08.521.02-Jan-2020 4788.22 6146.69 85.66 1.00 204.85 2776.61
   10:37:08.721.02-Jan-2020 4788.22 6147.33 85.66 1.00 205.05 2776.61
   10:37:08.921.02-Jan-2020 4788.22 6147.33 85.66 1.00 205.25 2776.61
   10:37:09.121.02-Jan-2020 4788.22 6140.10 85.66 1.00 205.45 2776.61
   10:37:09.321.02-Jan-2020 4788.22 6149.12 85.66 1.00 205.65 2776.61
   10:37:09.521.02-Jan-2020 4788.22 6141.86 85.66 1.00 205.85 2776.61
   10:37:09.721.02-Jan-2020 4788.22 6140.59 85.66 1.00 206.05 2776.61
   10:37:09.921.02-Jan-2020 4788.22 6140.59 85.66 1.00 206.25 2776.61
   10:37:10.121.02-Jan-2020 4788.22 6141.81 85.66 1.00 206.45 2776.61
   10:37:10.321.02-Jan-2020 4788.22 6140.40 85.66 1.00 206.65 2776.61
   10:37:10.521.02-Jan-2020 4788.22 6140.26 85.66 1.00 206.85 2776.61
