~Version Information
 VERS.                  2.0:   CWLS log ASCII Standard -VERSION 2.0
 WRAP.                   NO:   One line per depth step
~Well Information Block
#MNEM.UNIT     VALUE/NAME     DESCRIPTION
#---------     -----------    ---------------------------
 STRT.S             13:48:18 02-Jan-20: START TIME 13:48:18 02-Jan-20
 STOP.S             13:56:34 02-Jan-20: STOP TIME  13:56:34 02-Jan-20
 STEP.S                   0.00: STEP TIME
 NULL.                 -999.25: NULL VALUE
 MDS .        Operator Entered:  MAG DATA SOURCE
 UNIT.                     N/a:  LOGGING EQUIPMENT ID
 DCON.         Sperry Drilling:  DIRECTNL CONTR
 CNTY.                    Baku:  COUNTY NAME
 DOE .                     N/a:  DOE NUMBER
 RIG .                     DWG:  RIG NAME
 MWDS.                    Baku:  MWD SHOP
 REGN.                   EESSA:  REGION
 BASE.              Azerbaijan:  LOGGING EQUIPMENT BASE LOCATION
 UWI .                     N/a:  UNIQUE WELL IDENTIFIER
 API .                     N/a:  API NUMBER
 WTYP.                Deviated:  WELL TYPE
 COMP.     BP Exploration (Caspian Sea) Ltd.:  COMPANY
 SRVC.          TURAN DRILLING:  CONTRACTOR
 WELL.           E04 (Slot 23):  WELL NAME
 CTRY.              Azerbaijan:  COUNTRY NAME
 SON .        AZ-XX-0905715376:  JOB NUMBER
 FLD .                     ACG:  FIELD NAME
 PDAT.          Mean Sea Level:  PERMANENT DATUM
 FTOP.          Formation Tops:  FORM TOPS DESC
 ILTD.               Lithology:  INTERP LTH DESC
 SVYD.                  Survey:  SURVEY DESC
 DMOD.             Drill Model:  DRILL MOD DESC
 HPTY.       Minimum Curvature:  HOLE POS TYPE
 NREF.                    Grid:  NORTH REFERENCE
 SPUD.               21-Dec-19:  SPUD DATE
 DATE.      17.57.20 21-Dec-19:  END TIME
 STIM.      17.57.20 21-Dec-19:  START TIME
 DMF .             Drill Floor:  DRILL MEAS FROM
 DFST.                        :  DIST FSL TEXT
 DFWT.                        :  DIST FWL TEXT
 PROV.                        :  PROVINCE
 STAT.                        :  STATE
 LOC .                        :  LOCATION
 LMF .             Drill Floor:  LOG MEASURED FROM
 AGAP.m                  43.16:  AIR GAP
 DEP .m                3172.61:  DEPTH
 APD .m                  43.16:  DEPTH ABOVE PD
 WDMS.m                 176.20:  WD ELEV
 EGL .m                   0.00:  GROUND ELEVATION
 EPD .m                   0.00:  ELEVATION
 AZTC.deg                 6.49:  AZM TOTAL CORR
 GRDC.deg                 0.09:  GRID CORRECTION
 MDEC.deg                 6.58:  MAGNETIC DECL
 MDIP.deg                59.61:  MAGNETIC DIP
 MFLD.nT              50294.00:  MAGNETIC FIELD
 GVFD.g                   1.00:  GRAVITY FIELD
 VSDR.deg               235.12:  VERT SEC DIRECT
 TDD .m                   0.00:  TOTAL DEPTH (DRILLER)
 SDEP.m                   0.00:  START DEPTH
 UTMY.m             4448627.46:  UTM Y
 UTMX.m              514337.95:  UTM X
 LONG.deg                51.17:  LONGITUDE
 LATI.deg                40.17:  LATITUDE
 TVDS.m                  43.16:  TVDSS CORRECTN
 WHEW.m                  -5.41:  WELL HEAD E/W
 WHNS.m                  -0.12:  WELL HEAD N/S
 VSEW.m                  -5.41:  VERT SEC E/W
 VSNS.m                  -0.12:  VERT SEC N/S
 EKB .m                  43.16:  KB ELEVATION
 EDF .m                  43.16:  DF ELEVATION
 MAGU.                 1852276:  MAGUTM CHECKSUM
 VSC .                       0:  VS TO CLOSURE
~Parameter Information Block
#MNEM.UNIT       Value        Description
#---------     -----------    ---------------------------
 TCS .hr                125.29:  Time Ciculation Ended 
 DD1 .      Fakhraddin Guliyev:  Direct Drillr 1 
 DD2 .                   Sanan:  Direct Drillr 2 
 DEFF.%                   0.00:  % Det Eff 
 DRET.      04.26.40 27-Dec-19:  Drill End Time 
 DRST.      04.26.40 27-Dec-19:  Drill Start Tim 
 DTIM.hr                 80.10:  Time Drilling 
 EDEP.m                   0.00:  End Depth 
 ENG1.            Adlet Omarov:  Engineer 1 
 ENG2.         Almaz Almadatov:  Engineer 2 
 ETIM.      04.26.40 27-Dec-19:  End Time 
 HFLO.                      No:  High Flow 
 HPRE.                      No:  High Pressure 
 HTEM.                      No:  High Temp 
 HYDO.m                   1.85:  Hydro Offset 
 IMAX.deg                72.09:  Inc Max 
 IMIN.deg                59.07:  Inc Min 
 IMND.m                3901.43:  Inc Min Depth 
 IMXD.m                4753.85:  Inc Max Depth 
 LETM.      04.26.40 27-Dec-19:  Log End Time 
 LSTM.      04.26.40 27-Dec-19:  Log Start Time 
 OTIM.hr                187.88:  Time Operating 
 PMAX.psia            10202.94:  Press Op, Max 
 RUN .                     300:  Run Number 
 RRUN.                    0300:  Rig Run Number 
 SDEP.m                   0.00:  Start Depth 
 STIM.      04.26.40 27-Dec-19:  Start Time 
 SVER.                    9.20:  Sperry Version 
 MRT .                    HCIM:  Maximum Recorded Temperature 
 TTMX.degC               96.08:  Max Tool Temp 
~Curve Information Block
#MNEM.UNIT                 API CODE     Curve Description
#---------               -----------    ---------------------------
 TIME.HHMMSS            00 000 000 000:  GT Time & Date
 GTDEPTH.m              00 000 000 000:  GT Depth
 GTPQH.psia             00 000 000 000:  GT HR Quartz Pressure
 GTTQ.degC              00 000 000 000:  GT Quartz Temperature
 GTTN.NONE              00 000 000 000:  GT Test Number
 GTET.sec               00 000 000 000:  GT Elapsed Test Time
 GTTVD.m                00 000 000 000:  GT True Vertical Depth
#Other Information
#
#WARRANTY: Halliburton will use its best efforts to furnish customers with 
#accurate information and interpretations that are part of, and incident to, the services 
#provided.  However, Halliburton cannot and does not warrant the accuracy 
#or correctness of such information and interpretations.  Under no circumstances should any 
#such information or interpretation be relied upon as the sole basis for any drilling, 
#completion, production, or financial decision or any procedure involving any risk to the 
#safety of any drilling venture, drilling rig or its crew or any other third party.  The 
#Customer has full responsibility for all drilling, completion and production operation.  
#Halliburton makes no representations or warranties, either expressed or 
#implied, including, but not limited to, the implied warranties of merchantability or fitness 
#for a particular purpose, with respect to the services rendered.  In no event will 
#Halliburton be liable for failure to obtain any particular results or for 
#any damages, including, but not limited to, indirect, special or consequential damages, 
#resulting from the use of any information or interpretation provided by Halliburton.
#
~A           TIME           GTDEPTH  GTPQH  GTTQ  GTTN  GTET   GTTVD  
# ...
   13:55:58.262.02-Jan-2020 4773.81 6163.06 83.56 4.00 460.02 2772.13
   13:55:58.462.02-Jan-2020 4773.81 6163.06 83.56 4.00 460.22 2772.13
   13:55:58.662.02-Jan-2020 4773.81 6159.15 83.56 4.00 460.42 2772.13
   13:55:58.862.02-Jan-2020 4773.81 6159.71 83.56 4.00 460.62 2772.13
   13:55:59.062.02-Jan-2020 4773.81 6159.31 83.56 4.00 460.82 2772.13
   13:55:59.262.02-Jan-2020 4773.81 6159.25 83.56 4.00 461.02 2772.13
   13:55:59.462.02-Jan-2020 4773.81 6159.25 83.56 4.00 461.22 2772.13
   13:55:59.662.02-Jan-2020 4773.81 6167.64 83.56 4.00 461.42 2772.13
   13:55:59.862.02-Jan-2020 4773.81 6160.61 83.56 4.00 461.62 2772.13
   13:56:00.062.02-Jan-2020 4773.81 6162.00 83.57 4.00 461.82 2772.13
   13:56:00.262.02-Jan-2020 4773.81 6159.98 83.57 4.00 462.02 2772.13
   13:56:00.462.02-Jan-2020 4773.81 6159.98 83.57 4.00 462.22 2772.13
   13:56:00.662.02-Jan-2020 4773.81 6161.62 83.57 4.00 462.42 2772.13
   13:56:00.862.02-Jan-2020 4773.81 6164.78 83.57 4.00 462.62 2772.13
   13:56:01.062.02-Jan-2020 4773.81 6164.42 83.57 4.00 462.82 2772.13
   13:56:01.262.02-Jan-2020 4773.81 6160.25 83.57 4.00 463.02 2772.13
   13:56:01.462.02-Jan-2020 4773.81 6160.25 83.57 4.00 463.22 2772.13
   13:56:01.662.02-Jan-2020 4773.81 6162.48 83.57 4.00 463.42 2772.13
   13:56:01.862.02-Jan-2020 4773.81 6164.69 83.57 4.00 463.62 2772.13
   13:56:02.062.02-Jan-2020 4773.81 6165.09 83.57 4.00 463.82 2772.13
   13:56:02.262.02-Jan-2020 4773.81 6161.39 83.57 4.00 464.02 2772.13
   13:56:02.462.02-Jan-2020 4773.81 6161.39 83.57 4.00 464.22 2772.13
   13:56:02.662.02-Jan-2020 4773.81 6160.23 83.57 4.00 464.42 2772.13
   13:56:02.862.02-Jan-2020 4773.81 6160.15 83.57 4.00 464.62 2772.13
   13:56:03.062.02-Jan-2020 4773.81 6166.50 83.57 4.00 464.82 2772.13
   13:56:03.262.02-Jan-2020 4773.81 6164.05 83.57 4.00 465.02 2772.13
   13:56:03.462.02-Jan-2020 4773.81 6164.05 83.57 4.00 465.22 2772.13
   13:56:03.662.02-Jan-2020 4773.81 6159.69 83.57 4.00 465.42 2772.13
   13:56:03.862.02-Jan-2020 4773.81 6168.54 83.57 4.00 465.62 2772.13
   13:56:04.062.02-Jan-2020 4773.81 6161.77 83.57 4.00 465.82 2772.13
   13:56:04.262.02-Jan-2020 4773.81 6159.58 83.57 4.00 466.02 2772.13
   13:56:04.462.02-Jan-2020 4773.81 6159.58 83.57 4.00 466.22 2772.13
   13:56:04.662.02-Jan-2020 4773.81 6160.30 83.57 4.00 466.42 2772.13
   13:56:04.862.02-Jan-2020 4773.81 6160.85 83.57 4.00 466.62 2772.13
   13:56:05.062.02-Jan-2020 4773.81 6159.84 83.57 4.00 466.82 2772.13
   13:56:05.262.02-Jan-2020 4773.81 6167.92 83.57 4.00 467.02 2772.13
   13:56:05.462.02-Jan-2020 4773.81 6167.92 83.57 4.00 467.22 2772.13
   13:56:05.662.02-Jan-2020 4773.81 6161.02 83.57 4.00 467.42 2772.13
   13:56:05.862.02-Jan-2020 4773.81 6160.27 83.57 4.00 467.62 2772.13
   13:56:06.062.02-Jan-2020 4773.81 6160.55 83.57 4.00 467.82 2772.13
   13:56:06.262.02-Jan-2020 4773.81 6159.66 83.57 4.00 468.02 2772.13
   13:56:06.462.02-Jan-2020 4773.81 6159.66 83.57 4.00 468.22 2772.13
   13:56:06.662.02-Jan-2020 4773.81 6160.15 83.57 4.00 468.42 2772.13
   13:56:06.862.02-Jan-2020 4773.81 6160.47 83.57 4.00 468.62 2772.13
   13:56:07.062.02-Jan-2020 4773.81 6166.63 83.57 4.00 468.82 2772.13
   13:56:07.262.02-Jan-2020 4773.81 6164.65 83.57 4.00 469.02 2772.13
   13:56:07.462.02-Jan-2020 4773.81 6164.65 83.57 4.00 469.22 2772.13
   13:56:07.662.02-Jan-2020 4773.81 6160.14 83.57 4.00 469.42 2772.13
   13:56:07.862.02-Jan-2020 4773.81 6159.64 83.57 4.00 469.62 2772.13
   13:56:08.062.02-Jan-2020 4773.81 6159.58 83.57 4.00 469.82 2772.13
   13:56:08.262.02-Jan-2020 4773.81 6168.65 83.57 4.00 470.02 2772.13
   13:56:08.462.02-Jan-2020 4773.81 6168.65 83.57 4.00 470.22 2772.13
   13:56:08.662.02-Jan-2020 4773.81 6160.49 83.57 4.00 470.42 2772.13
   13:56:08.862.02-Jan-2020 4773.81 6160.04 83.57 4.00 470.62 2772.13
   13:56:09.062.02-Jan-2020 4773.81 6168.04 83.57 4.00 470.82 2772.13
   13:56:09.262.02-Jan-2020 4773.81 6161.95 83.57 4.00 471.02 2772.13
   13:56:09.462.02-Jan-2020 4773.81 6161.95 83.57 4.00 471.22 2772.13
   13:56:09.662.02-Jan-2020 4773.81 6169.60 83.57 4.00 471.42 2772.13
   13:56:09.862.02-Jan-2020 4773.81 6161.33 83.57 4.00 471.62 2772.13
   13:56:10.062.02-Jan-2020 4773.81 6160.74 83.57 4.00 471.82 2772.13
   13:56:10.262.02-Jan-2020 4773.81 6158.89 83.57 4.00 472.02 2772.13
   13:56:10.462.02-Jan-2020 4773.81 6158.89 83.57 4.00 472.22 2772.13
   13:56:10.662.02-Jan-2020 4773.81 6166.27 83.57 4.00 472.42 2772.13
   13:56:10.862.02-Jan-2020 4773.81 6160.77 83.57 4.00 472.62 2772.13
   13:56:11.062.02-Jan-2020 4773.81 6159.88 83.57 4.00 472.82 2772.13
   13:56:11.262.02-Jan-2020 4773.81 6160.38 83.57 4.00 473.02 2772.13
   13:56:11.462.02-Jan-2020 4773.81 6160.38 83.57 4.00 473.22 2772.13
   13:56:11.662.02-Jan-2020 4773.81 6166.32 83.57 4.00 473.42 2772.13
   13:56:11.862.02-Jan-2020 4773.81 6160.21 83.57 4.00 473.62 2772.13
   13:56:12.062.02-Jan-2020 4773.81 6161.57 83.57 4.00 473.82 2772.13
   13:56:12.262.02-Jan-2020 4773.81 6161.86 83.57 4.00 474.02 2772.13
   13:56:12.462.02-Jan-2020 4773.81 6161.86 83.57 4.00 474.22 2772.13
   13:56:12.662.02-Jan-2020 4773.81 6162.70 83.57 4.00 474.42 2772.13
   13:56:12.862.02-Jan-2020 4773.81 6159.46 83.57 4.00 474.62 2772.13
   13:56:13.062.02-Jan-2020 4773.81 6159.97 83.57 4.00 474.82 2772.13
   13:56:13.262.02-Jan-2020 4773.81 6159.93 83.57 4.00 475.02 2772.13
   13:56:13.462.02-Jan-2020 4773.81 6159.93 83.57 4.00 475.22 2772.13
   13:56:13.662.02-Jan-2020 4773.81 6160.66 83.57 4.00 475.42 2772.13
   13:56:13.862.02-Jan-2020 4773.81 6161.25 83.57 4.00 475.62 2772.13
   13:56:14.062.02-Jan-2020 4773.81 6169.13 83.57 4.00 475.82 2772.13
   13:56:14.263.02-Jan-2020 4773.81 6162.03 83.57 4.00 476.02 2772.13
   13:56:14.463.02-Jan-2020 4773.81 6162.03 83.57 4.00 476.22 2772.13
   13:56:14.663.02-Jan-2020 4773.81 6168.19 83.57 4.00 476.42 2772.13
   13:56:14.863.02-Jan-2020 4773.81 6160.24 83.57 4.00 476.62 2772.13
   13:56:15.063.02-Jan-2020 4773.81 6160.03 83.57 4.00 476.82 2772.13
   13:56:15.263.02-Jan-2020 4773.81 6158.39 83.57 4.00 477.02 2772.13
   13:56:15.463.02-Jan-2020 4773.81 6158.39 83.57 4.00 477.22 2772.13
   13:56:15.663.02-Jan-2020 4773.81 6162.79 83.57 4.00 477.42 2772.13
   13:56:15.863.02-Jan-2020 4773.81 6163.10 83.57 4.00 477.62 2772.13
   13:56:16.063.02-Jan-2020 4773.81 6159.80 83.57 4.00 477.82 2772.13
   13:56:16.263.02-Jan-2020 4773.81 6166.38 83.57 4.00 478.02 2772.13
   13:56:16.463.02-Jan-2020 4773.81 6166.38 83.57 4.00 478.22 2772.13
   13:56:16.663.02-Jan-2020 4773.81 6160.30 83.56 4.00 478.42 2772.13
   13:56:16.863.02-Jan-2020 4773.81 6160.76 83.56 4.00 478.62 2772.13
   13:56:17.063.02-Jan-2020 4773.81 6162.94 83.56 4.00 478.82 2772.13
   13:56:17.263.02-Jan-2020 4773.81 6163.81 83.56 4.00 479.02 2772.13
   13:56:17.463.02-Jan-2020 4773.81 6163.81 83.56 4.00 479.22 2772.13
   13:56:17.663.02-Jan-2020 4773.81 6159.73 83.56 4.00 479.42 2772.13
   13:56:17.863.02-Jan-2020 4773.81 6159.40 83.56 4.00 479.62 2772.13
   13:56:18.063.02-Jan-2020 4773.81 6159.20 83.56 4.00 479.82 2772.13
   13:56:18.263.02-Jan-2020 4773.81 6160.11 83.56 4.00 480.02 2772.13
   13:56:18.463.02-Jan-2020 4773.81 6160.11 83.56 4.00 480.22 2772.13
   13:56:18.663.02-Jan-2020 4773.81 6165.64 83.56 4.00 480.42 2772.13
   13:56:18.863.02-Jan-2020 4773.81 6161.13 83.56 4.00 480.62 2772.13
   13:56:19.063.02-Jan-2020 4773.81 6160.44 83.56 4.00 480.82 2772.13
   13:56:19.263.02-Jan-2020 4773.81 6165.73 83.56 4.00 481.02 2772.13
   13:56:19.463.02-Jan-2020 4773.81 6165.73 83.56 4.00 481.22 2772.13
   13:56:19.663.02-Jan-2020 4773.81 6160.06 83.56 4.00 481.42 2772.13
   13:56:19.863.02-Jan-2020 4773.81 6160.26 83.56 4.00 481.62 2772.13
   13:56:20.063.02-Jan-2020 4773.81 6159.38 83.56 4.00 481.82 2772.13
   13:56:20.263.02-Jan-2020 4773.81 6158.79 83.56 4.00 482.02 2772.13
   13:56:20.463.02-Jan-2020 4773.81 6158.79 83.56 4.00 482.22 2772.13
   13:56:20.663.02-Jan-2020 4773.81 6159.95 83.56 4.00 482.42 2772.13
   13:56:20.863.02-Jan-2020 4773.81 6167.44 83.56 4.00 482.62 2772.13
   13:56:21.063.02-Jan-2020 4773.81 6160.35 83.56 4.00 482.82 2772.13
