~Version Information
 VERS.                  2.0:   CWLS log ASCII Standard -VERSION 2.0
 WRAP.                   NO:   One line per depth step
~Well Information Block
#MNEM.UNIT     VALUE/NAME     DESCRIPTION
#---------     -----------    ---------------------------
 STRT.S             10:33:43 02-Jan-20: START TIME 10:33:43 02-Jan-20
 STOP.S             10:42:04 02-Jan-20: STOP TIME  10:42:04 02-Jan-20
 STEP.S                   0.00: STEP TIME
 NULL.                 -999.25: NULL VALUE
 MDS .        Operator Entered:  MAG DATA SOURCE
 UNIT.                     N/a:  LOGGING EQUIPMENT ID
 DCON.         Sperry Drilling:  DIRECTNL CONTR
 CNTY.                    Baku:  COUNTY NAME
 DOE .                     N/a:  DOE NUMBER
 RIG .                     DWG:  RIG NAME
 MWDS.                    Baku:  MWD SHOP
 REGN.                   EESSA:  REGION
 BASE.              Azerbaijan:  LOGGING EQUIPMENT BASE LOCATION
 UWI .                     N/a:  UNIQUE WELL IDENTIFIER
 API .                     N/a:  API NUMBER
 WTYP.                Deviated:  WELL TYPE
 COMP.     BP Exploration (Caspian Sea) Ltd.:  COMPANY
 SRVC.          TURAN DRILLING:  CONTRACTOR
 WELL.           E04 (Slot 23):  WELL NAME
 CTRY.              Azerbaijan:  COUNTRY NAME
 SON .        AZ-XX-0905715376:  JOB NUMBER
 FLD .                     ACG:  FIELD NAME
 PDAT.          Mean Sea Level:  PERMANENT DATUM
 FTOP.          Formation Tops:  FORM TOPS DESC
 ILTD.               Lithology:  INTERP LTH DESC
 SVYD.                  Survey:  SURVEY DESC
 DMOD.             Drill Model:  DRILL MOD DESC
 HPTY.       Minimum Curvature:  HOLE POS TYPE
 NREF.                    Grid:  NORTH REFERENCE
 SPUD.               21-Dec-19:  SPUD DATE
 DATE.      17.57.20 21-Dec-19:  END TIME
 STIM.      17.57.20 21-Dec-19:  START TIME
 DMF .             Drill Floor:  DRILL MEAS FROM
 DFST.                        :  DIST FSL TEXT
 DFWT.                        :  DIST FWL TEXT
 PROV.                        :  PROVINCE
 STAT.                        :  STATE
 LOC .                        :  LOCATION
 LMF .             Drill Floor:  LOG MEASURED FROM
 AGAP.m                  43.16:  AIR GAP
 DEP .m                3172.61:  DEPTH
 APD .m                  43.16:  DEPTH ABOVE PD
 WDMS.m                 176.20:  WD ELEV
 EGL .m                   0.00:  GROUND ELEVATION
 EPD .m                   0.00:  ELEVATION
 AZTC.deg                 6.49:  AZM TOTAL CORR
 GRDC.deg                 0.09:  GRID CORRECTION
 MDEC.deg                 6.58:  MAGNETIC DECL
 MDIP.deg                59.61:  MAGNETIC DIP
 MFLD.nT              50294.00:  MAGNETIC FIELD
 GVFD.g                   1.00:  GRAVITY FIELD
 VSDR.deg               235.12:  VERT SEC DIRECT
 TDD .m                   0.00:  TOTAL DEPTH (DRILLER)
 SDEP.m                   0.00:  START DEPTH
 UTMY.m             4448627.46:  UTM Y
 UTMX.m              514337.95:  UTM X
 LONG.deg                51.17:  LONGITUDE
 LATI.deg                40.17:  LATITUDE
 TVDS.m                  43.16:  TVDSS CORRECTN
 WHEW.m                  -5.41:  WELL HEAD E/W
 WHNS.m                  -0.12:  WELL HEAD N/S
 VSEW.m                  -5.41:  VERT SEC E/W
 VSNS.m                  -0.12:  VERT SEC N/S
 EKB .m                  43.16:  KB ELEVATION
 EDF .m                  43.16:  DF ELEVATION
 MAGU.                 1852276:  MAGUTM CHECKSUM
 VSC .                       0:  VS TO CLOSURE
~Parameter Information Block
#MNEM.UNIT       Value        Description
#---------     -----------    ---------------------------
 TCS .hr                125.29:  Time Ciculation Ended 
 DD1 .      Fakhraddin Guliyev:  Direct Drillr 1 
 DD2 .                   Sanan:  Direct Drillr 2 
 DEFF.%                   0.00:  % Det Eff 
 DRET.      04.26.40 27-Dec-19:  Drill End Time 
 DRST.      04.26.40 27-Dec-19:  Drill Start Tim 
 DTIM.hr                 80.10:  Time Drilling 
 EDEP.m                   0.00:  End Depth 
 ENG1.            Adlet Omarov:  Engineer 1 
 ENG2.         Almaz Almadatov:  Engineer 2 
 ETIM.      04.26.40 27-Dec-19:  End Time 
 HFLO.                      No:  High Flow 
 HPRE.                      No:  High Pressure 
 HTEM.                      No:  High Temp 
 HYDO.m                   1.85:  Hydro Offset 
 IMAX.deg                72.09:  Inc Max 
 IMIN.deg                59.07:  Inc Min 
 IMND.m                3901.43:  Inc Min Depth 
 IMXD.m                4753.85:  Inc Max Depth 
 LETM.      04.26.40 27-Dec-19:  Log End Time 
 LSTM.      04.26.40 27-Dec-19:  Log Start Time 
 OTIM.hr                187.88:  Time Operating 
 PMAX.psia            10202.94:  Press Op, Max 
 RUN .                     300:  Run Number 
 RRUN.                    0300:  Rig Run Number 
 SDEP.m                   0.00:  Start Depth 
 STIM.      04.26.40 27-Dec-19:  Start Time 
 SVER.                    9.20:  Sperry Version 
 MRT .                    HCIM:  Maximum Recorded Temperature 
 TTMX.degC               96.08:  Max Tool Temp 
~Curve Information Block
#MNEM.UNIT                 API CODE     Curve Description
#---------               -----------    ---------------------------
 TIME.HHMMSS            00 000 000 000:  GT Time & Date
 GTDEPTH.m              00 000 000 000:  GT Depth
 GTPQH.psia             00 000 000 000:  GT HR Quartz Pressure
 GTTQ.degC              00 000 000 000:  GT Quartz Temperature
 GTTN.NONE              00 000 000 000:  GT Test Number
 GTET.sec               00 000 000 000:  GT Elapsed Test Time
 GTTVD.m                00 000 000 000:  GT True Vertical Depth
#Other Information
#
#WARRANTY: Halliburton will use its best efforts to furnish customers with 
#accurate information and interpretations that are part of, and incident to, the services 
#provided.  However, Halliburton cannot and does not warrant the accuracy 
#or correctness of such information and interpretations.  Under no circumstances should any 
#such information or interpretation be relied upon as the sole basis for any drilling, 
#completion, production, or financial decision or any procedure involving any risk to the 
#safety of any drilling venture, drilling rig or its crew or any other third party.  The 
#Customer has full responsibility for all drilling, completion and production operation.  
#Halliburton makes no representations or warranties, either expressed or 
#implied, including, but not limited to, the implied warranties of merchantability or fitness 
#for a particular purpose, with respect to the services rendered.  In no event will 
#Halliburton be liable for failure to obtain any particular results or for 
#any damages, including, but not limited to, indirect, special or consequential damages, 
#resulting from the use of any information or interpretation provided by Halliburton.
#
~A           TIME           GTDEPTH  GTPQH  GTTQ  GTTN  GTET   GTTVD  
# ...
   10:35:15.694.02-Jan-2020 4788.22 6132.97 85.74 1.00  92.02 2776.61
   10:35:15.894.02-Jan-2020 4788.22 6132.97 85.74 1.00  92.22 2776.61
   10:35:16.094.02-Jan-2020 4788.22 6130.20 85.74 1.00  92.42 2776.61
   10:35:16.294.02-Jan-2020 4788.22 6130.90 85.74 1.00  92.62 2776.61
   10:35:16.494.02-Jan-2020 4788.22 6131.06 85.73 1.00  92.82 2776.61
   10:35:16.694.02-Jan-2020 4788.22 6131.79 85.74 1.00  93.02 2776.61
   10:35:16.894.02-Jan-2020 4788.22 6131.79 85.74 1.00  93.22 2776.61
   10:35:17.094.02-Jan-2020 4788.22 6136.21 85.73 1.00  93.42 2776.61
   10:35:17.294.02-Jan-2020 4788.22 6130.89 85.73 1.00  93.62 2776.61
   10:35:17.494.02-Jan-2020 4788.22 6130.44 85.73 1.00  93.82 2776.61
   10:35:17.695.02-Jan-2020 4788.22 6129.53 85.73 1.00  94.02 2776.61
   10:35:17.895.02-Jan-2020 4788.22 6129.53 85.73 1.00  94.22 2776.61
   10:35:18.095.02-Jan-2020 4788.22 6130.54 85.73 1.00  94.42 2776.61
   10:35:18.295.02-Jan-2020 4788.22 6138.56 85.73 1.00  94.62 2776.61
   10:35:18.495.02-Jan-2020 4788.22 6136.52 85.73 1.00  94.82 2776.61
   10:35:18.695.02-Jan-2020 4788.22 6131.59 85.73 1.00  95.02 2776.61
   10:35:18.895.02-Jan-2020 4788.22 6131.59 85.73 1.00  95.22 2776.61
   10:35:19.095.02-Jan-2020 4788.22 6136.54 85.73 1.00  95.42 2776.61
   10:35:19.295.02-Jan-2020 4788.22 6132.12 85.73 1.00  95.62 2776.61
   10:35:19.495.02-Jan-2020 4788.22 6131.10 85.73 1.00  95.82 2776.61
   10:35:19.695.02-Jan-2020 4788.22 6132.61 85.73 1.00  96.02 2776.61
   10:35:19.895.02-Jan-2020 4788.22 6132.61 85.73 1.00  96.22 2776.61
   10:35:20.095.02-Jan-2020 4788.22 6131.15 85.73 1.00  96.42 2776.61
   10:35:20.295.02-Jan-2020 4788.22 6140.38 85.73 1.00  96.62 2776.61
   10:35:20.495.02-Jan-2020 4788.22 6134.37 85.73 1.00  96.82 2776.61
   10:35:20.695.02-Jan-2020 4788.22 6131.39 85.73 1.00  97.02 2776.61
   10:35:20.895.02-Jan-2020 4788.22 6131.39 85.73 1.00  97.22 2776.61
   10:35:21.095.02-Jan-2020 4788.22 6137.57 85.73 1.00  97.42 2776.61
   10:35:21.295.02-Jan-2020 4788.22 6133.31 85.73 1.00  97.62 2776.61
   10:35:21.495.02-Jan-2020 4788.22 6130.35 85.73 1.00  97.82 2776.61
   10:35:21.695.02-Jan-2020 4788.22 6130.58 85.73 1.00  98.02 2776.61
   10:35:21.895.02-Jan-2020 4788.22 6130.58 85.73 1.00  98.22 2776.61
   10:35:22.096.02-Jan-2020 4788.22 6130.05 85.73 1.00  98.42 2776.61
   10:35:22.296.02-Jan-2020 4788.22 6131.44 85.73 1.00  98.62 2776.61
   10:35:22.496.02-Jan-2020 4788.22 6132.40 85.73 1.00  98.82 2776.61
   10:35:22.696.02-Jan-2020 4788.22 6139.94 85.73 1.00  99.02 2776.61
   10:35:22.896.02-Jan-2020 4788.22 6139.94 85.73 1.00  99.22 2776.61
   10:35:23.096.02-Jan-2020 4788.22 6132.42 85.73 1.00  99.42 2776.61
   10:35:23.296.02-Jan-2020 4788.22 6132.24 85.73 1.00  99.62 2776.61
   10:35:23.496.02-Jan-2020 4788.22 6140.07 85.73 1.00  99.82 2776.61
   10:35:23.696.02-Jan-2020 4788.22 6132.99 85.73 1.00 100.02 2776.61
   10:35:23.896.02-Jan-2020 4788.22 6132.99 85.73 1.00 100.22 2776.61
   10:35:24.096.02-Jan-2020 4788.22 6131.70 85.73 1.00 100.42 2776.61
   10:35:24.296.02-Jan-2020 4788.22 6131.98 85.73 1.00 100.62 2776.61
   10:35:24.496.02-Jan-2020 4788.22 6131.79 85.73 1.00 100.82 2776.61
   10:35:24.696.02-Jan-2020 4788.22 6132.34 85.73 1.00 101.02 2776.61
   10:35:24.896.02-Jan-2020 4788.22 6132.34 85.73 1.00 101.22 2776.61
   10:35:25.096.02-Jan-2020 4788.22 6135.87 85.73 1.00 101.42 2776.61
   10:35:25.296.02-Jan-2020 4788.22 6132.53 85.73 1.00 101.62 2776.61
   10:35:25.496.02-Jan-2020 4788.22 6132.19 85.73 1.00 101.82 2776.61
   10:35:25.696.02-Jan-2020 4788.22 6132.00 85.73 1.00 102.02 2776.61
   10:35:25.896.02-Jan-2020 4788.22 6132.00 85.73 1.00 102.22 2776.61
   10:35:26.096.02-Jan-2020 4788.22 6131.55 85.73 1.00 102.42 2776.61
   10:35:26.297.02-Jan-2020 4788.22 6140.12 85.73 1.00 102.62 2776.61
   10:35:26.497.02-Jan-2020 4788.22 6134.23 85.73 1.00 102.82 2776.61
   10:35:26.697.02-Jan-2020 4788.22 6132.35 85.73 1.00 103.02 2776.61
   10:35:26.897.02-Jan-2020 4788.22 6132.35 85.73 1.00 103.22 2776.61
   10:35:27.097.02-Jan-2020 4788.22 6138.99 85.73 1.00 103.42 2776.61
   10:35:27.297.02-Jan-2020 4788.22 6136.03 85.73 1.00 103.62 2776.61
   10:35:27.497.02-Jan-2020 4788.22 6132.48 85.73 1.00 103.82 2776.61
   10:35:27.697.02-Jan-2020 4788.22 6133.46 85.73 1.00 104.02 2776.61
   10:35:27.897.02-Jan-2020 4788.22 6133.46 85.73 1.00 104.22 2776.61
   10:35:28.097.02-Jan-2020 4788.22 6133.50 85.73 1.00 104.42 2776.61
   10:35:28.297.02-Jan-2020 4788.22 6132.03 85.73 1.00 104.62 2776.61
   10:35:28.497.02-Jan-2020 4788.22 6141.25 85.73 1.00 104.82 2776.61
   10:35:28.697.02-Jan-2020 4788.22 6134.24 85.73 1.00 105.02 2776.61
   10:35:28.897.02-Jan-2020 4788.22 6134.24 85.73 1.00 105.22 2776.61
   10:35:29.097.02-Jan-2020 4788.22 6132.74 85.73 1.00 105.42 2776.61
   10:35:29.297.02-Jan-2020 4788.22 6133.16 85.73 1.00 105.62 2776.61
   10:35:29.497.02-Jan-2020 4788.22 6131.64 85.72 1.00 105.82 2776.61
   10:35:29.697.02-Jan-2020 4788.22 6130.95 85.72 1.00 106.02 2776.61
   10:35:29.897.02-Jan-2020 4788.22 6130.95 85.72 1.00 106.22 2776.61
   10:35:30.097.02-Jan-2020 4788.22 6132.55 85.72 1.00 106.43 2776.61
   10:35:30.297.02-Jan-2020 4788.22 6139.22 85.72 1.00 106.63 2776.61
   10:35:30.498.02-Jan-2020 4788.22 6137.68 85.72 1.00 106.83 2776.61
   10:35:30.698.02-Jan-2020 4788.22 6133.98 85.72 1.00 107.03 2776.61
   10:35:30.898.02-Jan-2020 4788.22 6133.98 85.72 1.00 107.23 2776.61
   10:35:31.098.02-Jan-2020 4788.22 6136.93 85.72 1.00 107.43 2776.61
   10:35:31.298.02-Jan-2020 4788.22 6138.77 85.72 1.00 107.63 2776.61
   10:35:31.498.02-Jan-2020 4788.22 6135.82 85.72 1.00 107.83 2776.61
   10:35:31.698.02-Jan-2020 4788.22 6133.37 85.72 1.00 108.03 2776.61
   10:35:31.898.02-Jan-2020 4788.22 6133.37 85.72 1.00 108.23 2776.61
   10:35:32.098.02-Jan-2020 4788.22 6132.32 85.72 1.00 108.43 2776.61
   10:35:32.298.02-Jan-2020 4788.22 6133.06 85.72 1.00 108.63 2776.61
   10:35:32.498.02-Jan-2020 4788.22 6143.52 85.72 1.00 108.83 2776.61
   10:35:32.698.02-Jan-2020 4788.22 6137.97 85.72 1.00 109.03 2776.61
   10:35:32.898.02-Jan-2020 4788.22 6137.97 85.72 1.00 109.23 2776.61
   10:35:33.098.02-Jan-2020 4788.22 6133.66 85.72 1.00 109.43 2776.61
   10:35:33.298.02-Jan-2020 4788.22 6133.11 85.72 1.00 109.63 2776.61
   10:35:33.498.02-Jan-2020 4788.22 6131.99 85.72 1.00 109.83 2776.61
   10:35:33.698.02-Jan-2020 4788.22 6132.39 85.72 1.00 110.03 2776.61
   10:35:33.898.02-Jan-2020 4788.22 6132.39 85.72 1.00 110.23 2776.61
   10:35:34.098.02-Jan-2020 4788.22 6135.90 85.72 1.00 110.43 2776.61
   10:35:34.298.02-Jan-2020 4788.22 6133.21 85.72 1.00 110.63 2776.61
   10:35:34.498.02-Jan-2020 4788.22 6132.95 85.72 1.00 110.83 2776.61
   10:35:34.699.02-Jan-2020 4788.22 6141.54 85.72 1.00 111.03 2776.61
   10:35:34.899.02-Jan-2020 4788.22 6141.54 85.72 1.00 111.23 2776.61
   10:35:35.099.02-Jan-2020 4788.22 6134.07 85.72 1.00 111.43 2776.61
   10:35:35.299.02-Jan-2020 4788.22 6144.23 85.72 1.00 111.63 2776.61
   10:35:35.499.02-Jan-2020 4788.22 6137.28 85.72 1.00 111.83 2776.61
   10:35:35.699.02-Jan-2020 4788.22 6133.04 85.72 1.00 112.03 2776.61
   10:35:35.899.02-Jan-2020 4788.22 6133.04 85.72 1.00 112.23 2776.61
   10:35:36.099.02-Jan-2020 4788.22 6139.31 85.72 1.00 112.43 2776.61
   10:35:36.299.02-Jan-2020 4788.22 6134.74 85.72 1.00 112.63 2776.61
   10:35:36.499.02-Jan-2020 4788.22 6133.20 85.72 1.00 112.83 2776.61
   10:35:36.699.02-Jan-2020 4788.22 6135.26 85.72 1.00 113.03 2776.61
   10:35:36.899.02-Jan-2020 4788.22 6135.26 85.72 1.00 113.23 2776.61
   10:35:37.099.02-Jan-2020 4788.22 6133.94 85.72 1.00 113.43 2776.61
   10:35:37.299.02-Jan-2020 4788.22 6133.88 85.72 1.00 113.63 2776.61
   10:35:37.499.02-Jan-2020 4788.22 6134.42 85.72 1.00 113.83 2776.61
   10:35:37.699.02-Jan-2020 4788.22 6142.03 85.72 1.00 114.03 2776.61
   10:35:37.899.02-Jan-2020 4788.22 6142.03 85.72 1.00 114.23 2776.61
   10:35:38.099.02-Jan-2020 4788.22 6135.09 85.72 1.00 114.43 2776.61
   10:35:38.299.02-Jan-2020 4788.22 6135.15 85.72 1.00 114.63 2776.61
   10:35:38.499.02-Jan-2020 4788.22 6134.57 85.72 1.00 114.83 2776.61
