~Version Information
 VERS.                  2.0:   CWLS log ASCII Standard -VERSION 2.0
 WRAP.                   NO:   One line per depth step
~Well Information Block
#MNEM.UNIT     VALUE/NAME     DESCRIPTION
#---------     -----------    ---------------------------
 STRT.S             13:48:18 02-Jan-20: START TIME 13:48:18 02-Jan-20
 STOP.S             13:56:34 02-Jan-20: STOP TIME  13:56:34 02-Jan-20
 STEP.S                   0.00: STEP TIME
 NULL.                 -999.25: NULL VALUE
 MDS .        Operator Entered:  MAG DATA SOURCE
 UNIT.                     N/a:  LOGGING EQUIPMENT ID
 DCON.         Sperry Drilling:  DIRECTNL CONTR
 CNTY.                    Baku:  COUNTY NAME
 DOE .                     N/a:  DOE NUMBER
 RIG .                     DWG:  RIG NAME
 MWDS.                    Baku:  MWD SHOP
 REGN.                   EESSA:  REGION
 BASE.              Azerbaijan:  LOGGING EQUIPMENT BASE LOCATION
 UWI .                     N/a:  UNIQUE WELL IDENTIFIER
 API .                     N/a:  API NUMBER
 WTYP.                Deviated:  WELL TYPE
 COMP.     BP Exploration (Caspian Sea) Ltd.:  COMPANY
 SRVC.          TURAN DRILLING:  CONTRACTOR
 WELL.           E04 (Slot 23):  WELL NAME
 CTRY.              Azerbaijan:  COUNTRY NAME
 SON .        AZ-XX-0905715376:  JOB NUMBER
 FLD .                     ACG:  FIELD NAME
 PDAT.          Mean Sea Level:  PERMANENT DATUM
 FTOP.          Formation Tops:  FORM TOPS DESC
 ILTD.               Lithology:  INTERP LTH DESC
 SVYD.                  Survey:  SURVEY DESC
 DMOD.             Drill Model:  DRILL MOD DESC
 HPTY.       Minimum Curvature:  HOLE POS TYPE
 NREF.                    Grid:  NORTH REFERENCE
 SPUD.               21-Dec-19:  SPUD DATE
 DATE.      17.57.20 21-Dec-19:  END TIME
 STIM.      17.57.20 21-Dec-19:  START TIME
 DMF .             Drill Floor:  DRILL MEAS FROM
 DFST.                        :  DIST FSL TEXT
 DFWT.                        :  DIST FWL TEXT
 PROV.                        :  PROVINCE
 STAT.                        :  STATE
 LOC .                        :  LOCATION
 LMF .             Drill Floor:  LOG MEASURED FROM
 AGAP.m                  43.16:  AIR GAP
 DEP .m                3172.61:  DEPTH
 APD .m                  43.16:  DEPTH ABOVE PD
 WDMS.m                 176.20:  WD ELEV
 EGL .m                   0.00:  GROUND ELEVATION
 EPD .m                   0.00:  ELEVATION
 AZTC.deg                 6.49:  AZM TOTAL CORR
 GRDC.deg                 0.09:  GRID CORRECTION
 MDEC.deg                 6.58:  MAGNETIC DECL
 MDIP.deg                59.61:  MAGNETIC DIP
 MFLD.nT              50294.00:  MAGNETIC FIELD
 GVFD.g                   1.00:  GRAVITY FIELD
 VSDR.deg               235.12:  VERT SEC DIRECT
 TDD .m                   0.00:  TOTAL DEPTH (DRILLER)
 SDEP.m                   0.00:  START DEPTH
 UTMY.m             4448627.46:  UTM Y
 UTMX.m              514337.95:  UTM X
 LONG.deg                51.17:  LONGITUDE
 LATI.deg                40.17:  LATITUDE
 TVDS.m                  43.16:  TVDSS CORRECTN
 WHEW.m                  -5.41:  WELL HEAD E/W
 WHNS.m                  -0.12:  WELL HEAD N/S
 VSEW.m                  -5.41:  VERT SEC E/W
 VSNS.m                  -0.12:  VERT SEC N/S
 EKB .m                  43.16:  KB ELEVATION
 EDF .m                  43.16:  DF ELEVATION
 MAGU.                 1852276:  MAGUTM CHECKSUM
 VSC .                       0:  VS TO CLOSURE
~Parameter Information Block
#MNEM.UNIT       Value        Description
#---------     -----------    ---------------------------
 TCS .hr                125.29:  Time Ciculation Ended 
 DD1 .      Fakhraddin Guliyev:  Direct Drillr 1 
 DD2 .                   Sanan:  Direct Drillr 2 
 DEFF.%                   0.00:  % Det Eff 
 DRET.      04.26.40 27-Dec-19:  Drill End Time 
 DRST.      04.26.40 27-Dec-19:  Drill Start Tim 
 DTIM.hr                 80.10:  Time Drilling 
 EDEP.m                   0.00:  End Depth 
 ENG1.            Adlet Omarov:  Engineer 1 
 ENG2.         Almaz Almadatov:  Engineer 2 
 ETIM.      04.26.40 27-Dec-19:  End Time 
 HFLO.                      No:  High Flow 
 HPRE.                      No:  High Pressure 
 HTEM.                      No:  High Temp 
 HYDO.m                   1.85:  Hydro Offset 
 IMAX.deg                72.09:  Inc Max 
 IMIN.deg                59.07:  Inc Min 
 IMND.m                3901.43:  Inc Min Depth 
 IMXD.m                4753.85:  Inc Max Depth 
 LETM.      04.26.40 27-Dec-19:  Log End Time 
 LSTM.      04.26.40 27-Dec-19:  Log Start Time 
 OTIM.hr                187.88:  Time Operating 
 PMAX.psia            10202.94:  Press Op, Max 
 RUN .                     300:  Run Number 
 RRUN.                    0300:  Rig Run Number 
 SDEP.m                   0.00:  Start Depth 
 STIM.      04.26.40 27-Dec-19:  Start Time 
 SVER.                    9.20:  Sperry Version 
 MRT .                    HCIM:  Maximum Recorded Temperature 
 TTMX.degC               96.08:  Max Tool Temp 
~Curve Information Block
#MNEM.UNIT                 API CODE     Curve Description
#---------               -----------    ---------------------------
 TIME.HHMMSS            00 000 000 000:  GT Time & Date
 GTDEPTH.m              00 000 000 000:  GT Depth
 GTPQH.psia             00 000 000 000:  GT HR Quartz Pressure
 GTTQ.degC              00 000 000 000:  GT Quartz Temperature
 GTTN.NONE              00 000 000 000:  GT Test Number
 GTET.sec               00 000 000 000:  GT Elapsed Test Time
 GTTVD.m                00 000 000 000:  GT True Vertical Depth
#Other Information
#
#WARRANTY: Halliburton will use its best efforts to furnish customers with 
#accurate information and interpretations that are part of, and incident to, the services 
#provided.  However, Halliburton cannot and does not warrant the accuracy 
#or correctness of such information and interpretations.  Under no circumstances should any 
#such information or interpretation be relied upon as the sole basis for any drilling, 
#completion, production, or financial decision or any procedure involving any risk to the 
#safety of any drilling venture, drilling rig or its crew or any other third party.  The 
#Customer has full responsibility for all drilling, completion and production operation.  
#Halliburton makes no representations or warranties, either expressed or 
#implied, including, but not limited to, the implied warranties of merchantability or fitness 
#for a particular purpose, with respect to the services rendered.  In no event will 
#Halliburton be liable for failure to obtain any particular results or for 
#any damages, including, but not limited to, indirect, special or consequential damages, 
#resulting from the use of any information or interpretation provided by Halliburton.
#
~A           TIME           GTDEPTH  GTPQH  GTTQ  GTTN  GTET   GTTVD  
# ...
   13:53:17.254.02-Jan-2020 4773.81 4710.04 83.60 4.00 299.01 2772.13
   13:53:17.454.02-Jan-2020 4773.81 4710.04 83.60 4.00 299.21 2772.13
   13:53:17.654.02-Jan-2020 4773.81 4710.38 83.60 4.00 299.41 2772.13
   13:53:17.854.02-Jan-2020 4773.81 4710.13 83.60 4.00 299.61 2772.13
   13:53:18.054.02-Jan-2020 4773.81 4710.22 83.60 4.00 299.81 2772.13
   13:53:18.254.02-Jan-2020 4773.81 4708.37 83.60 4.00 300.01 2772.13
   13:53:18.454.02-Jan-2020 4773.81 4708.37 83.60 4.00 300.21 2772.13
   13:53:18.654.02-Jan-2020 4773.81 4710.21 83.60 4.00 300.41 2772.13
   13:53:18.854.02-Jan-2020 4773.81 4710.31 83.60 4.00 300.61 2772.13
   13:53:19.054.02-Jan-2020 4773.81 4710.20 83.60 4.00 300.81 2772.13
   13:53:19.254.02-Jan-2020 4773.81 4709.60 83.60 4.00 301.01 2772.13
   13:53:19.454.02-Jan-2020 4773.81 4709.60 83.60 4.00 301.21 2772.13
   13:53:19.654.02-Jan-2020 4773.81 4710.25 83.60 4.00 301.41 2772.13
   13:53:19.854.02-Jan-2020 4773.81 4710.13 83.60 4.00 301.61 2772.13
   13:53:20.054.02-Jan-2020 4773.81 4710.06 83.60 4.00 301.81 2772.13
   13:53:20.254.02-Jan-2020 4773.81 4710.06 83.60 4.00 302.01 2772.13
   13:53:20.454.02-Jan-2020 4773.81 4710.06 83.60 4.00 302.21 2772.13
   13:53:20.654.02-Jan-2020 4773.81 4710.28 83.60 4.00 302.41 2772.13
   13:53:20.854.02-Jan-2020 4773.81 4709.90 83.60 4.00 302.61 2772.13
   13:53:21.054.02-Jan-2020 4773.81 4709.95 83.60 4.00 302.81 2772.13
   13:53:21.254.02-Jan-2020 4773.81 4708.30 83.60 4.00 303.01 2772.13
   13:53:21.454.02-Jan-2020 4773.81 4708.30 83.60 4.00 303.21 2772.13
   13:53:21.654.02-Jan-2020 4773.81 4709.97 83.60 4.00 303.41 2772.13
   13:53:21.854.02-Jan-2020 4773.81 4710.02 83.60 4.00 303.61 2772.13
   13:53:22.054.02-Jan-2020 4773.81 4709.36 83.59 4.00 303.81 2772.13
   13:53:22.254.02-Jan-2020 4773.81 4708.92 83.59 4.00 304.01 2772.13
   13:53:22.454.02-Jan-2020 4773.81 4708.92 83.59 4.00 304.21 2772.13
   13:53:22.654.02-Jan-2020 4773.81 4710.02 83.59 4.00 304.41 2772.13
   13:53:22.854.02-Jan-2020 4773.81 4708.21 83.59 4.00 304.61 2772.13
   13:53:23.054.02-Jan-2020 4773.81 4710.25 83.59 4.00 304.81 2772.13
   13:53:23.254.02-Jan-2020 4773.81 4709.85 83.59 4.00 305.01 2772.13
   13:53:23.454.02-Jan-2020 4773.81 4709.85 83.59 4.00 305.21 2772.13
   13:53:23.654.02-Jan-2020 4773.81 4709.94 83.59 4.00 305.41 2772.13
   13:53:23.854.02-Jan-2020 4773.81 4709.86 83.59 4.00 305.61 2772.13
   13:53:24.054.02-Jan-2020 4773.81 4709.87 83.59 4.00 305.81 2772.13
   13:53:24.254.02-Jan-2020 4773.81 4709.88 83.59 4.00 306.01 2772.13
   13:53:24.454.02-Jan-2020 4773.81 4709.88 83.59 4.00 306.21 2772.13
   13:53:24.654.02-Jan-2020 4773.81 4709.07 83.59 4.00 306.41 2772.13
   13:53:24.854.02-Jan-2020 4773.81 4710.20 83.59 4.00 306.61 2772.13
   13:53:25.054.02-Jan-2020 4773.81 4710.01 83.59 4.00 306.81 2772.13
   13:53:25.254.02-Jan-2020 4773.81 4710.03 83.59 4.00 307.02 2772.13
   13:53:25.454.02-Jan-2020 4773.81 4710.03 83.59 4.00 307.22 2772.13
   13:53:25.654.02-Jan-2020 4773.81 4708.34 83.59 4.00 307.42 2772.13
   13:53:25.854.02-Jan-2020 4773.81 4710.22 83.59 4.00 307.62 2772.13
   13:53:26.054.02-Jan-2020 4773.81 4710.00 83.59 4.00 307.82 2772.13
   13:53:26.254.02-Jan-2020 4773.81 4710.11 83.59 4.00 308.02 2772.13
   13:53:26.454.02-Jan-2020 4773.81 4710.11 83.59 4.00 308.22 2772.13
   13:53:26.654.02-Jan-2020 4773.81 4708.32 83.59 4.00 308.42 2772.13
   13:53:26.854.02-Jan-2020 4773.81 4710.09 83.59 4.00 308.62 2772.13
   13:53:27.054.02-Jan-2020 4773.81 4710.16 83.59 4.00 308.82 2772.13
   13:53:27.254.02-Jan-2020 4773.81 4710.23 83.59 4.00 309.02 2772.13
   13:53:27.454.02-Jan-2020 4773.81 4710.23 83.59 4.00 309.22 2772.13
   13:53:27.654.02-Jan-2020 4773.81 4710.06 83.59 4.00 309.42 2772.13
   13:53:27.854.02-Jan-2020 4773.81 4708.52 83.59 4.00 309.62 2772.13
   13:53:28.054.02-Jan-2020 4773.81 4710.33 83.59 4.00 309.82 2772.13
   13:53:28.254.02-Jan-2020 4773.81 4710.11 83.59 4.00 310.02 2772.13
   13:53:28.454.02-Jan-2020 4773.81 4710.11 83.59 4.00 310.22 2772.13
   13:53:28.654.02-Jan-2020 4773.81 4708.35 83.59 4.00 310.42 2772.13
   13:53:28.854.02-Jan-2020 4773.81 4710.46 83.59 4.00 310.62 2772.13
   13:53:29.054.02-Jan-2020 4773.81 4710.17 83.59 4.00 310.82 2772.13
   13:53:29.254.02-Jan-2020 4773.81 4710.19 83.59 4.00 311.02 2772.13
   13:53:29.454.02-Jan-2020 4773.81 4710.19 83.59 4.00 311.22 2772.13
   13:53:29.654.02-Jan-2020 4773.81 4710.02 83.59 4.00 311.42 2772.13
   13:53:29.854.02-Jan-2020 4773.81 4709.95 83.59 4.00 311.62 2772.13
   13:53:30.054.02-Jan-2020 4773.81 4709.42 83.59 4.00 311.82 2772.13
   13:53:30.254.02-Jan-2020 4773.81 4708.90 83.59 4.00 312.02 2772.13
   13:53:30.454.02-Jan-2020 4773.81 4708.90 83.59 4.00 312.22 2772.13
   13:53:30.655.02-Jan-2020 4773.81 4709.76 83.59 4.00 312.42 2772.13
   13:53:30.855.02-Jan-2020 4773.81 4709.76 83.59 4.00 312.62 2772.13
   13:53:31.055.02-Jan-2020 4773.81 4709.75 83.59 4.00 312.82 2772.13
   13:53:31.255.02-Jan-2020 4773.81 4709.71 83.59 4.00 313.02 2772.13
   13:53:31.455.02-Jan-2020 4773.81 4709.71 83.59 4.00 313.22 2772.13
   13:53:31.655.02-Jan-2020 4773.81 4709.73 83.59 4.00 313.42 2772.13
   13:53:31.855.02-Jan-2020 4773.81 4708.07 83.59 4.00 313.62 2772.13
   13:53:32.055.02-Jan-2020 4773.81 4710.04 83.59 4.00 313.82 2772.13
   13:53:32.255.02-Jan-2020 4773.81 4709.65 83.59 4.00 314.02 2772.13
   13:53:32.455.02-Jan-2020 4773.81 4709.65 83.59 4.00 314.22 2772.13
   13:53:32.655.02-Jan-2020 4773.81 4709.70 83.59 4.00 314.42 2772.13
   13:53:32.855.02-Jan-2020 4773.81 4709.61 83.59 4.00 314.62 2772.13
   13:53:33.055.02-Jan-2020 4773.81 4709.57 83.59 4.00 314.82 2772.13
   13:53:33.255.02-Jan-2020 4773.81 4709.54 83.59 4.00 315.02 2772.13
   13:53:33.455.02-Jan-2020 4773.81 4709.54 83.59 4.00 315.22 2772.13
   13:53:33.655.02-Jan-2020 4773.81 4708.27 83.59 4.00 315.42 2772.13
   13:53:33.855.02-Jan-2020 4773.81 4710.46 83.59 4.00 315.62 2772.13
   13:53:34.055.02-Jan-2020 4773.81 4710.26 83.59 4.00 315.82 2772.13
   13:53:34.255.02-Jan-2020 4773.81 4710.36 83.59 4.00 316.02 2772.13
   13:53:34.455.02-Jan-2020 4773.81 4710.36 83.59 4.00 316.22 2772.13
   13:53:34.655.02-Jan-2020 4773.81 4708.68 83.59 4.00 316.42 2772.13
   13:53:34.855.02-Jan-2020 4773.81 4691.10 83.59 4.00 316.62 2772.13
   13:53:35.055.02-Jan-2020 4773.81 4411.30 83.59 4.00 316.82 2772.13
   13:53:35.255.02-Jan-2020 4773.81 4330.15 83.59 4.00 317.02 2772.13
   13:53:35.455.02-Jan-2020 4773.81 4330.15 83.59 4.00 317.22 2772.13
   13:53:35.655.02-Jan-2020 4773.81 4298.12 83.59 4.00 317.42 2772.13
   13:53:35.855.02-Jan-2020 4773.81 4294.55 83.59 4.00 317.62 2772.13
   13:53:36.055.02-Jan-2020 4773.81 4266.06 83.59 4.00 317.82 2772.13
   13:53:36.255.02-Jan-2020 4773.81 4220.62 83.59 4.00 318.02 2772.13
   13:53:36.455.02-Jan-2020 4773.81 4220.62 83.59 4.00 318.22 2772.13
   13:53:36.655.02-Jan-2020 4773.81 4077.78 83.59 4.00 318.42 2772.13
   13:53:36.855.02-Jan-2020 4773.81 4015.31 83.59 4.00 318.62 2772.13
   13:53:37.055.02-Jan-2020 4773.81 3998.27 83.59 4.00 318.82 2772.13
   13:53:37.255.02-Jan-2020 4773.81 3936.98 83.59 4.00 319.02 2772.13
   13:53:37.455.02-Jan-2020 4773.81 3936.98 83.59 4.00 319.22 2772.13
   13:53:37.655.02-Jan-2020 4773.81 3839.35 83.59 4.00 319.42 2772.13
   13:53:37.855.02-Jan-2020 4773.81 3770.84 83.58 4.00 319.62 2772.13
   13:53:38.055.02-Jan-2020 4773.81 3719.12 83.58 4.00 319.82 2772.13
   13:53:38.255.02-Jan-2020 4773.81 3657.65 83.58 4.00 320.02 2772.13
   13:53:38.455.02-Jan-2020 4773.81 3657.65 83.58 4.00 320.22 2772.13
   13:53:38.655.02-Jan-2020 4773.81 3551.15 83.58 4.00 320.42 2772.13
   13:53:38.855.02-Jan-2020 4773.81 3493.97 83.58 4.00 320.62 2772.13
   13:53:39.055.02-Jan-2020 4773.81 3443.85 83.58 4.00 320.82 2772.13
   13:53:39.255.02-Jan-2020 4773.81 3379.72 83.58 4.00 321.02 2772.13
   13:53:39.455.02-Jan-2020 4773.81 3379.72 83.58 4.00 321.22 2772.13
   13:53:39.655.02-Jan-2020 4773.81 3179.85 83.58 4.00 321.42 2772.13
   13:53:39.855.02-Jan-2020 4773.81 3131.85 83.58 4.00 321.62 2772.13
   13:53:40.055.02-Jan-2020 4773.81 2996.25 83.58 4.00 321.82 2772.13
