~Version Information
 VERS.                  2.0:   CWLS log ASCII Standard -VERSION 2.0
 WRAP.                   NO:   One line per depth step
~Well Information Block
#MNEM.UNIT     VALUE/NAME     DESCRIPTION
#---------     -----------    ---------------------------
 STRT.S             10:33:43 02-Jan-20: START TIME 10:33:43 02-Jan-20
 STOP.S             10:42:04 02-Jan-20: STOP TIME  10:42:04 02-Jan-20
 STEP.S                   0.00: STEP TIME
 NULL.                 -999.25: NULL VALUE
 MDS .        Operator Entered:  MAG DATA SOURCE
 UNIT.                     N/a:  LOGGING EQUIPMENT ID
 DCON.         Sperry Drilling:  DIRECTNL CONTR
 CNTY.                    Baku:  COUNTY NAME
 DOE .                     N/a:  DOE NUMBER
 RIG .                     DWG:  RIG NAME
 MWDS.                    Baku:  MWD SHOP
 REGN.                   EESSA:  REGION
 BASE.              Azerbaijan:  LOGGING EQUIPMENT BASE LOCATION
 UWI .                     N/a:  UNIQUE WELL IDENTIFIER
 API .                     N/a:  API NUMBER
 WTYP.                Deviated:  WELL TYPE
 COMP.     BP Exploration (Caspian Sea) Ltd.:  COMPANY
 SRVC.          TURAN DRILLING:  CONTRACTOR
 WELL.           E04 (Slot 23):  WELL NAME
 CTRY.              Azerbaijan:  COUNTRY NAME
 SON .        AZ-XX-0905715376:  JOB NUMBER
 FLD .                     ACG:  FIELD NAME
 PDAT.          Mean Sea Level:  PERMANENT DATUM
 FTOP.          Formation Tops:  FORM TOPS DESC
 ILTD.               Lithology:  INTERP LTH DESC
 SVYD.                  Survey:  SURVEY DESC
 DMOD.             Drill Model:  DRILL MOD DESC
 HPTY.       Minimum Curvature:  HOLE POS TYPE
 NREF.                    Grid:  NORTH REFERENCE
 SPUD.               21-Dec-19:  SPUD DATE
 DATE.      17.57.20 21-Dec-19:  END TIME
 STIM.      17.57.20 21-Dec-19:  START TIME
 DMF .             Drill Floor:  DRILL MEAS FROM
 DFST.                        :  DIST FSL TEXT
 DFWT.                        :  DIST FWL TEXT
 PROV.                        :  PROVINCE
 STAT.                        :  STATE
 LOC .                        :  LOCATION
 LMF .             Drill Floor:  LOG MEASURED FROM
 AGAP.m                  43.16:  AIR GAP
 DEP .m                3172.61:  DEPTH
 APD .m                  43.16:  DEPTH ABOVE PD
 WDMS.m                 176.20:  WD ELEV
 EGL .m                   0.00:  GROUND ELEVATION
 EPD .m                   0.00:  ELEVATION
 AZTC.deg                 6.49:  AZM TOTAL CORR
 GRDC.deg                 0.09:  GRID CORRECTION
 MDEC.deg                 6.58:  MAGNETIC DECL
 MDIP.deg                59.61:  MAGNETIC DIP
 MFLD.nT              50294.00:  MAGNETIC FIELD
 GVFD.g                   1.00:  GRAVITY FIELD
 VSDR.deg               235.12:  VERT SEC DIRECT
 TDD .m                   0.00:  TOTAL DEPTH (DRILLER)
 SDEP.m                   0.00:  START DEPTH
 UTMY.m             4448627.46:  UTM Y
 UTMX.m              514337.95:  UTM X
 LONG.deg                51.17:  LONGITUDE
 LATI.deg                40.17:  LATITUDE
 TVDS.m                  43.16:  TVDSS CORRECTN
 WHEW.m                  -5.41:  WELL HEAD E/W
 WHNS.m                  -0.12:  WELL HEAD N/S
 VSEW.m                  -5.41:  VERT SEC E/W
 VSNS.m                  -0.12:  VERT SEC N/S
 EKB .m                  43.16:  KB ELEVATION
 EDF .m                  43.16:  DF ELEVATION
 MAGU.                 1852276:  MAGUTM CHECKSUM
 VSC .                       0:  VS TO CLOSURE
~Parameter Information Block
#MNEM.UNIT       Value        Description
#---------     -----------    ---------------------------
 TCS .hr                125.29:  Time Ciculation Ended 
 DD1 .      Fakhraddin Guliyev:  Direct Drillr 1 
 DD2 .                   Sanan:  Direct Drillr 2 
 DEFF.%                   0.00:  % Det Eff 
 DRET.      04.26.40 27-Dec-19:  Drill End Time 
 DRST.      04.26.40 27-Dec-19:  Drill Start Tim 
 DTIM.hr                 80.10:  Time Drilling 
 EDEP.m                   0.00:  End Depth 
 ENG1.            Adlet Omarov:  Engineer 1 
 ENG2.         Almaz Almadatov:  Engineer 2 
 ETIM.      04.26.40 27-Dec-19:  End Time 
 HFLO.                      No:  High Flow 
 HPRE.                      No:  High Pressure 
 HTEM.                      No:  High Temp 
 HYDO.m                   1.85:  Hydro Offset 
 IMAX.deg                72.09:  Inc Max 
 IMIN.deg                59.07:  Inc Min 
 IMND.m                3901.43:  Inc Min Depth 
 IMXD.m                4753.85:  Inc Max Depth 
 LETM.      04.26.40 27-Dec-19:  Log End Time 
 LSTM.      04.26.40 27-Dec-19:  Log Start Time 
 OTIM.hr                187.88:  Time Operating 
 PMAX.psia            10202.94:  Press Op, Max 
 RUN .                     300:  Run Number 
 RRUN.                    0300:  Rig Run Number 
 SDEP.m                   0.00:  Start Depth 
 STIM.      04.26.40 27-Dec-19:  Start Time 
 SVER.                    9.20:  Sperry Version 
 MRT .                    HCIM:  Maximum Recorded Temperature 
 TTMX.degC               96.08:  Max Tool Temp 
~Curve Information Block
#MNEM.UNIT                 API CODE     Curve Description
#---------               -----------    ---------------------------
 TIME.HHMMSS            00 000 000 000:  GT Time & Date
 GTDEPTH.m              00 000 000 000:  GT Depth
 GTPQH.psia             00 000 000 000:  GT HR Quartz Pressure
 GTTQ.degC              00 000 000 000:  GT Quartz Temperature
 GTTN.NONE              00 000 000 000:  GT Test Number
 GTET.sec               00 000 000 000:  GT Elapsed Test Time
 GTTVD.m                00 000 000 000:  GT True Vertical Depth
#Other Information
#
#WARRANTY: Halliburton will use its best efforts to furnish customers with 
#accurate information and interpretations that are part of, and incident to, the services 
#provided.  However, Halliburton cannot and does not warrant the accuracy 
#or correctness of such information and interpretations.  Under no circumstances should any 
#such information or interpretation be relied upon as the sole basis for any drilling, 
#completion, production, or financial decision or any procedure involving any risk to the 
#safety of any drilling venture, drilling rig or its crew or any other third party.  The 
#Customer has full responsibility for all drilling, completion and production operation.  
#Halliburton makes no representations or warranties, either expressed or 
#implied, including, but not limited to, the implied warranties of merchantability or fitness 
#for a particular purpose, with respect to the services rendered.  In no event will 
#Halliburton be liable for failure to obtain any particular results or for 
#any damages, including, but not limited to, indirect, special or consequential damages, 
#resulting from the use of any information or interpretation provided by Halliburton.
#
~A           TIME           GTDEPTH  GTPQH  GTTQ  GTTN  GTET   GTTVD  
# ...
   10:38:42.743.02-Jan-2020 4788.22 6142.66 85.60 1.00 299.07 2776.61
   10:38:42.943.02-Jan-2020 4788.22 6142.66 85.60 1.00 299.27 2776.61
   10:38:43.143.02-Jan-2020 4788.22 6141.89 85.60 1.00 299.47 2776.61
   10:38:43.343.02-Jan-2020 4788.22 6141.88 85.60 1.00 299.67 2776.61
   10:38:43.543.02-Jan-2020 4788.22 6143.32 85.60 1.00 299.87 2776.61
   10:38:43.743.02-Jan-2020 4788.22 6151.38 85.60 1.00 300.07 2776.61
   10:38:43.943.02-Jan-2020 4788.22 6151.38 85.60 1.00 300.27 2776.61
   10:38:44.143.02-Jan-2020 4788.22 6143.40 85.60 1.00 300.47 2776.61
   10:38:44.343.02-Jan-2020 4788.22 6147.37 85.60 1.00 300.67 2776.61
   10:38:44.543.02-Jan-2020 4788.22 6148.09 85.60 1.00 300.87 2776.61
   10:38:44.743.02-Jan-2020 4788.22 6143.77 85.60 1.00 301.07 2776.61
   10:38:44.943.02-Jan-2020 4788.22 6143.77 85.60 1.00 301.27 2776.61
   10:38:45.143.02-Jan-2020 4788.22 6153.30 85.60 1.00 301.47 2776.61
   10:38:45.343.02-Jan-2020 4788.22 6145.33 85.60 1.00 301.67 2776.61
   10:38:45.543.02-Jan-2020 4788.22 6142.47 85.60 1.00 301.87 2776.61
   10:38:45.743.02-Jan-2020 4788.22 6142.98 85.60 1.00 302.07 2776.61
   10:38:45.943.02-Jan-2020 4788.22 6142.98 85.60 1.00 302.27 2776.61
   10:38:46.144.02-Jan-2020 4788.22 6146.35 85.60 1.00 302.47 2776.61
   10:38:46.344.02-Jan-2020 4788.22 6143.17 85.60 1.00 302.67 2776.61
   10:38:46.544.02-Jan-2020 4788.22 6144.31 85.60 1.00 302.87 2776.61
   10:38:46.744.02-Jan-2020 4788.22 6143.19 85.60 1.00 303.07 2776.61
   10:38:46.944.02-Jan-2020 4788.22 6143.19 85.60 1.00 303.27 2776.61
   10:38:47.144.02-Jan-2020 4788.22 6141.90 85.60 1.00 303.47 2776.61
   10:38:47.344.02-Jan-2020 4788.22 6142.86 85.60 1.00 303.67 2776.61
   10:38:47.544.02-Jan-2020 4788.22 6152.12 85.60 1.00 303.87 2776.61
   10:38:47.744.02-Jan-2020 4788.22 6145.46 85.60 1.00 304.07 2776.61
   10:38:47.944.02-Jan-2020 4788.22 6145.46 85.60 1.00 304.27 2776.61
   10:38:48.144.02-Jan-2020 4788.22 6143.42 85.60 1.00 304.47 2776.61
   10:38:48.344.02-Jan-2020 4788.22 6143.29 85.60 1.00 304.67 2776.61
   10:38:48.544.02-Jan-2020 4788.22 6142.81 85.60 1.00 304.87 2776.61
   10:38:48.744.02-Jan-2020 4788.22 6143.44 85.60 1.00 305.07 2776.61
   10:38:48.944.02-Jan-2020 4788.22 6143.44 85.60 1.00 305.27 2776.61
   10:38:49.144.02-Jan-2020 4788.22 6146.86 85.60 1.00 305.47 2776.61
   10:38:49.344.02-Jan-2020 4788.22 6144.26 85.60 1.00 305.67 2776.61
   10:38:49.544.02-Jan-2020 4788.22 6143.87 85.60 1.00 305.87 2776.61
   10:38:49.744.02-Jan-2020 4788.22 6143.92 85.60 1.00 306.07 2776.61
   10:38:49.944.02-Jan-2020 4788.22 6143.92 85.60 1.00 306.27 2776.61
   10:38:50.144.02-Jan-2020 4788.22 6144.29 85.60 1.00 306.47 2776.61
   10:38:50.344.02-Jan-2020 4788.22 6152.44 85.60 1.00 306.67 2776.61
   10:38:50.545.02-Jan-2020 4788.22 6145.86 85.60 1.00 306.87 2776.61
   10:38:50.745.02-Jan-2020 4788.22 6142.82 85.60 1.00 307.07 2776.61
   10:38:50.945.02-Jan-2020 4788.22 6142.82 85.60 1.00 307.27 2776.61
   10:38:51.145.02-Jan-2020 4788.22 6142.18 85.60 1.00 307.47 2776.61
   10:38:51.345.02-Jan-2020 4788.22 6141.78 85.60 1.00 307.67 2776.61
   10:38:51.545.02-Jan-2020 4788.22 6142.83 85.60 1.00 307.87 2776.61
   10:38:51.745.02-Jan-2020 4788.22 6152.48 85.60 1.00 308.07 2776.61
   10:38:51.945.02-Jan-2020 4788.22 6152.48 85.60 1.00 308.27 2776.61
   10:38:52.145.02-Jan-2020 4788.22 6143.02 85.60 1.00 308.47 2776.61
   10:38:52.345.02-Jan-2020 4788.22 6142.63 85.60 1.00 308.67 2776.61
   10:38:52.545.02-Jan-2020 4788.22 6149.00 85.60 1.00 308.87 2776.61
   10:38:52.745.02-Jan-2020 4788.22 6146.30 85.60 1.00 309.07 2776.61
   10:38:52.945.02-Jan-2020 4788.22 6146.30 85.60 1.00 309.27 2776.61
   10:38:53.145.02-Jan-2020 4788.22 6148.11 85.60 1.00 309.47 2776.61
   10:38:53.345.02-Jan-2020 4788.22 6148.61 85.60 1.00 309.67 2776.61
   10:38:53.545.02-Jan-2020 4788.22 6143.70 85.60 1.00 309.87 2776.61
   10:38:53.745.02-Jan-2020 4788.22 6142.01 85.60 1.00 310.07 2776.61
   10:38:53.945.02-Jan-2020 4788.22 6142.01 85.60 1.00 310.27 2776.61
   10:38:54.145.02-Jan-2020 4788.22 6144.51 85.60 1.00 310.47 2776.61
   10:38:54.345.02-Jan-2020 4788.22 6142.80 85.60 1.00 310.67 2776.61
   10:38:54.545.02-Jan-2020 4788.22 6143.74 85.60 1.00 310.87 2776.61
   10:38:54.746.02-Jan-2020 4788.22 6143.42 85.60 1.00 311.07 2776.61
   10:38:54.946.02-Jan-2020 4788.22 6143.42 85.60 1.00 311.27 2776.61
   10:38:55.146.02-Jan-2020 4788.22 6141.46 85.60 1.00 311.47 2776.61
   10:38:55.346.02-Jan-2020 4788.22 6142.30 85.60 1.00 311.67 2776.61
   10:38:55.546.02-Jan-2020 4788.22 6146.62 85.60 1.00 311.87 2776.61
   10:38:55.746.02-Jan-2020 4788.22 6148.44 85.60 1.00 312.07 2776.61
   10:38:55.946.02-Jan-2020 4788.22 6148.44 85.60 1.00 312.27 2776.61
   10:38:56.146.02-Jan-2020 4788.22 6143.43 85.60 1.00 312.47 2776.61
   10:38:56.346.02-Jan-2020 4788.22 6143.76 85.60 1.00 312.67 2776.61
   10:38:56.546.02-Jan-2020 4788.22 6142.81 85.60 1.00 312.87 2776.61
   10:38:56.746.02-Jan-2020 4788.22 6143.40 85.60 1.00 313.07 2776.61
   10:38:56.946.02-Jan-2020 4788.22 6143.40 85.60 1.00 313.27 2776.61
   10:38:57.146.02-Jan-2020 4788.22 6147.07 85.59 1.00 313.47 2776.61
   10:38:57.346.02-Jan-2020 4788.22 6144.23 85.59 1.00 313.67 2776.61
   10:38:57.546.02-Jan-2020 4788.22 6144.08 85.59 1.00 313.87 2776.61
   10:38:57.746.02-Jan-2020 4788.22 6144.57 85.59 1.00 314.07 2776.61
   10:38:57.946.02-Jan-2020 4788.22 6144.57 85.59 1.00 314.27 2776.61
   10:38:58.146.02-Jan-2020 4788.22 6144.95 85.59 1.00 314.47 2776.61
   10:38:58.346.02-Jan-2020 4788.22 6154.06 85.59 1.00 314.67 2776.61
   10:38:58.546.02-Jan-2020 4788.22 6146.72 85.59 1.00 314.87 2776.61
   10:38:58.746.02-Jan-2020 4788.22 6142.85 85.59 1.00 315.07 2776.61
   10:38:58.947.02-Jan-2020 4788.22 6142.85 85.59 1.00 315.27 2776.61
   10:38:59.147.02-Jan-2020 4788.22 6142.72 85.59 1.00 315.47 2776.61
   10:38:59.347.02-Jan-2020 4788.22 6142.15 85.59 1.00 315.67 2776.61
   10:38:59.547.02-Jan-2020 4788.22 6142.83 85.59 1.00 315.87 2776.61
   10:38:59.747.02-Jan-2020 4788.22 6153.28 85.59 1.00 316.07 2776.61
   10:38:59.947.02-Jan-2020 4788.22 6153.28 85.59 1.00 316.27 2776.61
   10:39:00.147.02-Jan-2020 4788.22 6142.71 85.59 1.00 316.47 2776.61
   10:39:00.347.02-Jan-2020 4788.22 6142.10 85.59 1.00 316.67 2776.61
   10:39:00.547.02-Jan-2020 4788.22 6150.60 85.59 1.00 316.87 2776.61
   10:39:00.747.02-Jan-2020 4788.22 6144.43 85.59 1.00 317.07 2776.61
   10:39:00.947.02-Jan-2020 4788.22 6144.43 85.59 1.00 317.27 2776.61
   10:39:01.147.02-Jan-2020 4788.22 6143.77 85.59 1.00 317.47 2776.61
   10:39:01.347.02-Jan-2020 4788.22 6150.18 85.59 1.00 317.67 2776.61
   10:39:01.547.02-Jan-2020 4788.22 6146.47 85.59 1.00 317.87 2776.61
   10:39:01.747.02-Jan-2020 4788.22 6142.52 85.59 1.00 318.07 2776.61
   10:39:01.947.02-Jan-2020 4788.22 6142.52 85.59 1.00 318.27 2776.61
   10:39:02.147.02-Jan-2020 4788.22 6145.18 85.59 1.00 318.47 2776.61
   10:39:02.347.02-Jan-2020 4788.22 6142.36 85.59 1.00 318.67 2776.61
   10:39:02.547.02-Jan-2020 4788.22 6143.63 85.59 1.00 318.87 2776.61
   10:39:02.747.02-Jan-2020 4788.22 6144.12 85.59 1.00 319.07 2776.61
   10:39:02.947.02-Jan-2020 4788.22 6144.12 85.59 1.00 319.28 2776.61
   10:39:03.147.02-Jan-2020 4788.22 6141.73 85.59 1.00 319.48 2776.61
   10:39:03.348.02-Jan-2020 4788.22 6142.33 85.59 1.00 319.68 2776.61
   10:39:03.548.02-Jan-2020 4788.22 6142.58 85.59 1.00 319.88 2776.61
   10:39:03.748.02-Jan-2020 4788.22 6149.22 85.59 1.00 320.08 2776.61
   10:39:03.948.02-Jan-2020 4788.22 6149.22 85.59 1.00 320.28 2776.61
   10:39:04.148.02-Jan-2020 4788.22 6143.34 85.59 1.00 320.48 2776.61
   10:39:04.348.02-Jan-2020 4788.22 6143.42 85.59 1.00 320.68 2776.61
   10:39:04.548.02-Jan-2020 4788.22 6142.53 85.59 1.00 320.88 2776.61
   10:39:04.748.02-Jan-2020 4788.22 6150.77 85.59 1.00 321.08 2776.61
   10:39:04.948.02-Jan-2020 4788.22 6150.77 85.59 1.00 321.28 2776.61
   10:39:05.148.02-Jan-2020 4788.22 6144.18 85.59 1.00 321.48 2776.61
   10:39:05.348.02-Jan-2020 4788.22 6153.03 85.59 1.00 321.68 2776.61
   10:39:05.548.02-Jan-2020 4788.22 6145.58 85.59 1.00 321.88 2776.61
