~Version Information
 VERS.                  2.0:   CWLS log ASCII Standard -VERSION 2.0
 WRAP.                   NO:   One line per depth step
~Well Information Block
#MNEM.UNIT     VALUE/NAME     DESCRIPTION
#---------     -----------    ---------------------------
 STRT.S             11:06:01 02-Jan-20: START TIME 11:06:01 02-Jan-20
 STOP.S             11:13:00 02-Jan-20: STOP TIME  11:13:00 02-Jan-20
 STEP.S                   0.00: STEP TIME
 NULL.                 -999.25: NULL VALUE
 MDS .        Operator Entered:  MAG DATA SOURCE
 UNIT.                     N/a:  LOGGING EQUIPMENT ID
 DCON.         Sperry Drilling:  DIRECTNL CONTR
 CNTY.                    Baku:  COUNTY NAME
 DOE .                     N/a:  DOE NUMBER
 RIG .                     DWG:  RIG NAME
 MWDS.                    Baku:  MWD SHOP
 REGN.                   EESSA:  REGION
 BASE.              Azerbaijan:  LOGGING EQUIPMENT BASE LOCATION
 UWI .                     N/a:  UNIQUE WELL IDENTIFIER
 API .                     N/a:  API NUMBER
 WTYP.                Deviated:  WELL TYPE
 COMP.     BP Exploration (Caspian Sea) Ltd.:  COMPANY
 SRVC.          TURAN DRILLING:  CONTRACTOR
 WELL.           E04 (Slot 23):  WELL NAME
 CTRY.              Azerbaijan:  COUNTRY NAME
 SON .        AZ-XX-0905715376:  JOB NUMBER
 FLD .                     ACG:  FIELD NAME
 PDAT.          Mean Sea Level:  PERMANENT DATUM
 FTOP.          Formation Tops:  FORM TOPS DESC
 ILTD.               Lithology:  INTERP LTH DESC
 SVYD.                  Survey:  SURVEY DESC
 DMOD.             Drill Model:  DRILL MOD DESC
 HPTY.       Minimum Curvature:  HOLE POS TYPE
 NREF.                    Grid:  NORTH REFERENCE
 SPUD.               21-Dec-19:  SPUD DATE
 DATE.      17.57.20 21-Dec-19:  END TIME
 STIM.      17.57.20 21-Dec-19:  START TIME
 DMF .             Drill Floor:  DRILL MEAS FROM
 DFST.                        :  DIST FSL TEXT
 DFWT.                        :  DIST FWL TEXT
 PROV.                        :  PROVINCE
 STAT.                        :  STATE
 LOC .                        :  LOCATION
 LMF .             Drill Floor:  LOG MEASURED FROM
 AGAP.m                  43.16:  AIR GAP
 DEP .m                3172.61:  DEPTH
 APD .m                  43.16:  DEPTH ABOVE PD
 WDMS.m                 176.20:  WD ELEV
 EGL .m                   0.00:  GROUND ELEVATION
 EPD .m                   0.00:  ELEVATION
 AZTC.deg                 6.49:  AZM TOTAL CORR
 GRDC.deg                 0.09:  GRID CORRECTION
 MDEC.deg                 6.58:  MAGNETIC DECL
 MDIP.deg                59.61:  MAGNETIC DIP
 MFLD.nT              50294.00:  MAGNETIC FIELD
 GVFD.g                   1.00:  GRAVITY FIELD
 VSDR.deg               235.12:  VERT SEC DIRECT
 TDD .m                   0.00:  TOTAL DEPTH (DRILLER)
 SDEP.m                   0.00:  START DEPTH
 UTMY.m             4448627.46:  UTM Y
 UTMX.m              514337.95:  UTM X
 LONG.deg                51.17:  LONGITUDE
 LATI.deg                40.17:  LATITUDE
 TVDS.m                  43.16:  TVDSS CORRECTN
 WHEW.m                  -5.41:  WELL HEAD E/W
 WHNS.m                  -0.12:  WELL HEAD N/S
 VSEW.m                  -5.41:  VERT SEC E/W
 VSNS.m                  -0.12:  VERT SEC N/S
 EKB .m                  43.16:  KB ELEVATION
 EDF .m                  43.16:  DF ELEVATION
 MAGU.                 1852276:  MAGUTM CHECKSUM
 VSC .                       0:  VS TO CLOSURE
~Parameter Information Block
#MNEM.UNIT       Value        Description
#---------     -----------    ---------------------------
 TCS .hr                125.29:  Time Ciculation Ended 
 DD1 .      Fakhraddin Guliyev:  Direct Drillr 1 
 DD2 .                   Sanan:  Direct Drillr 2 
 DEFF.%                   0.00:  % Det Eff 
 DRET.      04.26.40 27-Dec-19:  Drill End Time 
 DRST.      04.26.40 27-Dec-19:  Drill Start Tim 
 DTIM.hr                 80.10:  Time Drilling 
 EDEP.m                   0.00:  End Depth 
 ENG1.            Adlet Omarov:  Engineer 1 
 ENG2.         Almaz Almadatov:  Engineer 2 
 ETIM.      04.26.40 27-Dec-19:  End Time 
 HFLO.                      No:  High Flow 
 HPRE.                      No:  High Pressure 
 HTEM.                      No:  High Temp 
 HYDO.m                   1.85:  Hydro Offset 
 IMAX.deg                72.09:  Inc Max 
 IMIN.deg                59.07:  Inc Min 
 IMND.m                3901.43:  Inc Min Depth 
 IMXD.m                4753.85:  Inc Max Depth 
 LETM.      04.26.40 27-Dec-19:  Log End Time 
 LSTM.      04.26.40 27-Dec-19:  Log Start Time 
 OTIM.hr                187.88:  Time Operating 
 PMAX.psia            10202.94:  Press Op, Max 
 RUN .                     300:  Run Number 
 RRUN.                    0300:  Rig Run Number 
 SDEP.m                   0.00:  Start Depth 
 STIM.      04.26.40 27-Dec-19:  Start Time 
 SVER.                    9.20:  Sperry Version 
 MRT .                    HCIM:  Maximum Recorded Temperature 
 TTMX.degC               96.08:  Max Tool Temp 
~Curve Information Block
#MNEM.UNIT                 API CODE     Curve Description
#---------               -----------    ---------------------------
 TIME.HHMMSS            00 000 000 000:  GT Time & Date
 GTDEPTH.m              00 000 000 000:  GT Depth
 GTPQH.psia             00 000 000 000:  GT HR Quartz Pressure
 GTTQ.degC              00 000 000 000:  GT Quartz Temperature
 GTTN.NONE              00 000 000 000:  GT Test Number
 GTET.sec               00 000 000 000:  GT Elapsed Test Time
 GTTVD.m                00 000 000 000:  GT True Vertical Depth
#Other Information
#
#WARRANTY: Halliburton will use its best efforts to furnish customers with 
#accurate information and interpretations that are part of, and incident to, the services 
#provided.  However, Halliburton cannot and does not warrant the accuracy 
#or correctness of such information and interpretations.  Under no circumstances should any 
#such information or interpretation be relied upon as the sole basis for any drilling, 
#completion, production, or financial decision or any procedure involving any risk to the 
#safety of any drilling venture, drilling rig or its crew or any other third party.  The 
#Customer has full responsibility for all drilling, completion and production operation.  
#Halliburton makes no representations or warranties, either expressed or 
#implied, including, but not limited to, the implied warranties of merchantability or fitness 
#for a particular purpose, with respect to the services rendered.  In no event will 
#Halliburton be liable for failure to obtain any particular results or for 
#any damages, including, but not limited to, indirect, special or consequential damages, 
#resulting from the use of any information or interpretation provided by Halliburton.
#
~A           TIME           GTDEPTH  GTPQH  GTTQ  GTTN  GTET   GTTVD  
   11:06:01.128.02-Jan-2020 4790.04 6074.10 85.24 2.00   0.00 2777.18
   11:06:01.328.02-Jan-2020 4790.04 6074.10 85.24 2.00   0.20 2777.18
   11:06:01.528.02-Jan-2020 4790.04 6074.38 85.24 2.00   0.40 2777.18
   11:06:01.728.02-Jan-2020 4790.04 6080.68 85.24 2.00   0.60 2777.18
   11:06:01.928.02-Jan-2020 4790.04 6076.62 85.24 2.00   0.80 2777.18
   11:06:02.128.02-Jan-2020 4790.04 6074.96 85.24 2.00   1.00 2777.18
   11:06:02.328.02-Jan-2020 4790.04 6074.96 85.24 2.00   1.20 2777.18
   11:06:02.528.02-Jan-2020 4790.04 6075.68 85.24 2.00   1.40 2777.18
   11:06:02.728.02-Jan-2020 4790.04 6076.17 85.24 2.00   1.60 2777.18
   11:06:02.928.02-Jan-2020 4790.04 6079.38 85.24 2.00   1.80 2777.18
   11:06:03.128.02-Jan-2020 4790.04 6085.15 85.24 2.00   2.00 2777.18
   11:06:03.328.02-Jan-2020 4790.04 6085.15 85.24 2.00   2.20 2777.18
   11:06:03.528.02-Jan-2020 4790.04 6078.60 85.24 2.00   2.40 2777.18
   11:06:03.728.02-Jan-2020 4790.04 6079.00 85.24 2.00   2.60 2777.18
   11:06:03.928.02-Jan-2020 4790.04 6085.01 85.24 2.00   2.80 2777.18
   11:06:04.128.02-Jan-2020 4790.04 6083.71 85.24 2.00   3.00 2777.18
   11:06:04.329.02-Jan-2020 4790.04 6083.71 85.24 2.00   3.20 2777.18
   11:06:04.529.02-Jan-2020 4790.04 6088.78 85.23 2.00   3.40 2777.18
   11:06:04.729.02-Jan-2020 4790.04 6080.05 85.23 2.00   3.60 2777.18
   11:06:04.929.02-Jan-2020 4790.04 6077.80 85.23 2.00   3.80 2777.18
   11:06:05.129.02-Jan-2020 4790.04 6078.11 85.23 2.00   4.00 2777.18
   11:06:05.329.02-Jan-2020 4790.04 6078.11 85.23 2.00   4.20 2777.18
   11:06:05.529.02-Jan-2020 4790.04 6078.11 85.23 2.00   4.40 2777.18
   11:06:05.729.02-Jan-2020 4790.04 6076.46 85.23 2.00   4.60 2777.18
   11:06:05.929.02-Jan-2020 4790.04 6077.65 85.23 2.00   4.80 2777.18
   11:06:06.129.02-Jan-2020 4790.04 6078.20 85.23 2.00   5.00 2777.18
   11:06:06.329.02-Jan-2020 4790.04 6078.20 85.23 2.00   5.20 2777.18
   11:06:06.529.02-Jan-2020 4790.04 6077.65 85.23 2.00   5.40 2777.18
   11:06:06.729.02-Jan-2020 4790.04 6087.04 85.23 2.00   5.60 2777.18
   11:06:06.929.02-Jan-2020 4790.04 6080.81 85.23 2.00   5.80 2777.18
   11:06:07.129.02-Jan-2020 4790.04 6080.05 85.23 2.00   6.00 2777.18
   11:06:07.329.02-Jan-2020 4790.04 6080.05 85.23 2.00   6.20 2777.18
   11:06:07.529.02-Jan-2020 4790.04 6080.26 85.23 2.00   6.40 2777.18
   11:06:07.729.02-Jan-2020 4790.04 6086.43 85.23 2.00   6.60 2777.18
   11:06:07.929.02-Jan-2020 4790.04 6085.17 85.23 2.00   6.80 2777.18
   11:06:08.129.02-Jan-2020 4790.04 6082.75 85.23 2.00   7.00 2777.18
   11:06:08.329.02-Jan-2020 4790.04 6082.75 85.23 2.00   7.20 2777.18
   11:06:08.530.02-Jan-2020 4790.04 6082.14 85.23 2.00   7.40 2777.18
   11:06:08.730.02-Jan-2020 4790.04 6091.20 85.23 2.00   7.60 2777.18
   11:06:08.930.02-Jan-2020 4790.04 6085.76 85.23 2.00   7.80 2777.18
   11:06:09.130.02-Jan-2020 4790.04 6084.47 85.23 2.00   8.00 2777.18
   11:06:09.330.02-Jan-2020 4790.04 6084.47 85.23 2.00   8.20 2777.18
   11:06:09.530.02-Jan-2020 4790.04 6085.70 85.23 2.00   8.40 2777.18
   11:06:09.730.02-Jan-2020 4790.04 6082.55 85.23 2.00   8.60 2777.18
   11:06:09.930.02-Jan-2020 4790.04 6082.90 85.23 2.00   8.80 2777.18
   11:06:10.130.02-Jan-2020 4790.04 6082.94 85.23 2.00   9.00 2777.18
   11:06:10.330.02-Jan-2020 4790.04 6082.94 85.23 2.00   9.20 2777.18
   11:06:10.530.02-Jan-2020 4790.04 6084.83 85.23 2.00   9.40 2777.18
   11:06:10.730.02-Jan-2020 4790.04 6084.72 85.23 2.00   9.60 2777.18
   11:06:10.930.02-Jan-2020 4790.04 6085.30 85.23 2.00   9.80 2777.18
   11:06:11.130.02-Jan-2020 4790.04 6084.23 85.23 2.00  10.00 2777.18
   11:06:11.330.02-Jan-2020 4790.04 6084.23 85.23 2.00  10.20 2777.18
   11:06:11.530.02-Jan-2020 4790.04 6090.88 85.23 2.00  10.40 2777.18
   11:06:11.730.02-Jan-2020 4790.04 6089.52 85.23 2.00  10.60 2777.18
   11:06:11.930.02-Jan-2020 4790.04 6086.02 85.23 2.00  10.80 2777.18
   11:06:12.130.02-Jan-2020 4790.04 6086.90 85.23 2.00  11.00 2777.18
   11:06:12.330.02-Jan-2020 4790.04 6086.90 85.23 2.00  11.20 2777.18
   11:06:12.530.02-Jan-2020 4790.04 6086.96 85.23 2.00  11.40 2777.18
   11:06:12.731.02-Jan-2020 4790.04 6085.48 85.23 2.00  11.60 2777.18
   11:06:12.931.02-Jan-2020 4790.04 6086.55 85.23 2.00  11.80 2777.18
   11:06:13.131.02-Jan-2020 4790.04 6085.57 85.23 2.00  12.00 2777.18
   11:06:13.331.02-Jan-2020 4790.04 6085.57 85.23 2.00  12.20 2777.18
   11:06:13.531.02-Jan-2020 4790.04 6087.55 85.23 2.00  12.40 2777.18
   11:06:13.731.02-Jan-2020 4790.04 6087.76 85.23 2.00  12.60 2777.18
   11:06:13.931.02-Jan-2020 4790.04 6095.44 85.23 2.00  12.80 2777.18
   11:06:14.131.02-Jan-2020 4790.04 6088.08 85.23 2.00  13.00 2777.18
   11:06:14.331.02-Jan-2020 4790.04 6088.08 85.23 2.00  13.20 2777.18
   11:06:14.531.02-Jan-2020 4790.04 6094.65 85.23 2.00  13.40 2777.18
   11:06:14.731.02-Jan-2020 4790.04 6090.47 85.23 2.00  13.60 2777.18
   11:06:14.931.02-Jan-2020 4790.04 6086.67 85.23 2.00  13.80 2777.18
   11:06:15.131.02-Jan-2020 4790.04 6086.74 85.23 2.00  14.00 2777.18
   11:06:15.331.02-Jan-2020 4790.04 6086.74 85.23 2.00  14.20 2777.18
   11:06:15.531.02-Jan-2020 4790.04 6088.76 85.23 2.00  14.40 2777.18
   11:06:15.731.02-Jan-2020 4790.04 6094.43 85.23 2.00  14.60 2777.18
   11:06:15.931.02-Jan-2020 4790.04 6091.83 85.23 2.00  14.80 2777.18
   11:06:16.131.02-Jan-2020 4790.04 6089.89 85.23 2.00  15.00 2777.18
   11:06:16.331.02-Jan-2020 4790.04 6089.89 85.23 2.00  15.20 2777.18
   11:06:16.531.02-Jan-2020 4790.04 6089.76 85.23 2.00  15.40 2777.18
   11:06:16.731.02-Jan-2020 4790.04 6090.46 85.23 2.00  15.60 2777.18
   11:06:16.931.02-Jan-2020 4790.04 6093.07 85.23 2.00  15.80 2777.18
   11:06:17.132.02-Jan-2020 4790.04 6097.76 85.23 2.00  16.00 2777.18
   11:06:17.332.02-Jan-2020 4790.04 6097.76 85.23 2.00  16.20 2777.18
   11:06:17.532.02-Jan-2020 4790.04 6090.42 85.22 2.00  16.40 2777.18
   11:06:17.732.02-Jan-2020 4790.04 6097.95 85.22 2.00  16.60 2777.18
   11:06:17.932.02-Jan-2020 4790.04 6093.86 85.22 2.00  16.80 2777.18
   11:06:18.132.02-Jan-2020 4790.04 6091.69 85.22 2.00  17.00 2777.18
   11:06:18.332.02-Jan-2020 4790.04 6091.69 85.22 2.00  17.20 2777.18
   11:06:18.532.02-Jan-2020 4790.04 6098.60 85.22 2.00  17.40 2777.18
   11:06:18.732.02-Jan-2020 4790.04 6094.08 85.22 2.00  17.60 2777.18
   11:06:18.932.02-Jan-2020 4790.04 6091.43 85.22 2.00  17.80 2777.18
   11:06:19.132.02-Jan-2020 4790.04 6098.48 85.22 2.00  18.00 2777.18
   11:06:19.332.02-Jan-2020 4790.04 6098.48 85.22 2.00  18.20 2777.18
   11:06:19.532.02-Jan-2020 4790.04 6091.48 85.22 2.00  18.40 2777.18
   11:06:19.732.02-Jan-2020 4790.04 6092.65 85.22 2.00  18.60 2777.18
   11:06:19.932.02-Jan-2020 4790.04 6092.68 85.22 2.00  18.80 2777.18
   11:06:20.132.02-Jan-2020 4790.04 6091.98 85.22 2.00  19.00 2777.18
   11:06:20.332.02-Jan-2020 4790.04 6091.98 85.22 2.00  19.20 2777.18
   11:06:20.532.02-Jan-2020 4790.04 6092.83 85.22 2.00  19.40 2777.18
   11:06:20.732.02-Jan-2020 4790.04 6099.96 85.22 2.00  19.60 2777.18
   11:06:20.932.02-Jan-2020 4790.04 6096.38 85.22 2.00  19.80 2777.18
   11:06:21.132.02-Jan-2020 4790.04 6094.47 85.22 2.00  20.00 2777.18
   11:06:21.333.02-Jan-2020 4790.04 6094.47 85.22 2.00  20.20 2777.18
   11:06:21.533.02-Jan-2020 4790.04 6094.36 85.22 2.00  20.40 2777.18
   11:06:21.733.02-Jan-2020 4790.04 6094.15 85.22 2.00  20.60 2777.18
   11:06:21.933.02-Jan-2020 4790.04 6095.27 85.22 2.00  20.80 2777.18
   11:06:22.133.02-Jan-2020 4790.04 6104.87 85.22 2.00  21.00 2777.18
   11:06:22.333.02-Jan-2020 4790.04 6104.87 85.22 2.00  21.20 2777.18
   11:06:22.533.02-Jan-2020 4790.04 6095.90 85.22 2.00  21.41 2777.18
   11:06:22.733.02-Jan-2020 4790.04 6095.99 85.22 2.00  21.61 2777.18
   11:06:22.933.02-Jan-2020 4790.04 6096.04 85.22 2.00  21.81 2777.18
   11:06:23.133.02-Jan-2020 4790.04 6102.89 85.22 2.00  22.01 2777.18
   11:06:23.333.02-Jan-2020 4790.04 6102.89 85.22 2.00  22.21 2777.18
   11:06:23.533.02-Jan-2020 4790.04 6097.54 85.22 2.00  22.41 2777.18
   11:06:23.733.02-Jan-2020 4790.04 6096.51 85.22 2.00  22.61 2777.18
   11:06:23.933.02-Jan-2020 4790.04 6096.19 85.22 2.00  22.81 2777.18
