~Version Information
 VERS.                  2.0:   CWLS log ASCII Standard -VERSION 2.0
 WRAP.                   NO:   One line per depth step
~Well Information Block
#MNEM.UNIT     VALUE/NAME     DESCRIPTION
#---------     -----------    ---------------------------
 STRT.S             13:01:02 02-Jan-20: START TIME 13:01:02 02-Jan-20
 STOP.S             13:09:15 02-Jan-20: STOP TIME  13:09:15 02-Jan-20
 STEP.S                   0.00: STEP TIME
 NULL.                 -999.25: NULL VALUE
 MDS .        Operator Entered:  MAG DATA SOURCE
 UNIT.                     N/a:  LOGGING EQUIPMENT ID
 DCON.         Sperry Drilling:  DIRECTNL CONTR
 CNTY.                    Baku:  COUNTY NAME
 DOE .                     N/a:  DOE NUMBER
 RIG .                     DWG:  RIG NAME
 MWDS.                    Baku:  MWD SHOP
 REGN.                   EESSA:  REGION
 BASE.              Azerbaijan:  LOGGING EQUIPMENT BASE LOCATION
 UWI .                     N/a:  UNIQUE WELL IDENTIFIER
 API .                     N/a:  API NUMBER
 WTYP.                Deviated:  WELL TYPE
 COMP.     BP Exploration (Caspian Sea) Ltd.:  COMPANY
 SRVC.          TURAN DRILLING:  CONTRACTOR
 WELL.           E04 (Slot 23):  WELL NAME
 CTRY.              Azerbaijan:  COUNTRY NAME
 SON .        AZ-XX-0905715376:  JOB NUMBER
 FLD .                     ACG:  FIELD NAME
 PDAT.          Mean Sea Level:  PERMANENT DATUM
 FTOP.          Formation Tops:  FORM TOPS DESC
 ILTD.               Lithology:  INTERP LTH DESC
 SVYD.                  Survey:  SURVEY DESC
 DMOD.             Drill Model:  DRILL MOD DESC
 HPTY.       Minimum Curvature:  HOLE POS TYPE
 NREF.                    Grid:  NORTH REFERENCE
 SPUD.               21-Dec-19:  SPUD DATE
 DATE.      17.57.20 21-Dec-19:  END TIME
 STIM.      17.57.20 21-Dec-19:  START TIME
 DMF .             Drill Floor:  DRILL MEAS FROM
 DFST.                        :  DIST FSL TEXT
 DFWT.                        :  DIST FWL TEXT
 PROV.                        :  PROVINCE
 STAT.                        :  STATE
 LOC .                        :  LOCATION
 LMF .             Drill Floor:  LOG MEASURED FROM
 AGAP.m                  43.16:  AIR GAP
 DEP .m                3172.61:  DEPTH
 APD .m                  43.16:  DEPTH ABOVE PD
 WDMS.m                 176.20:  WD ELEV
 EGL .m                   0.00:  GROUND ELEVATION
 EPD .m                   0.00:  ELEVATION
 AZTC.deg                 6.49:  AZM TOTAL CORR
 GRDC.deg                 0.09:  GRID CORRECTION
 MDEC.deg                 6.58:  MAGNETIC DECL
 MDIP.deg                59.61:  MAGNETIC DIP
 MFLD.nT              50294.00:  MAGNETIC FIELD
 GVFD.g                   1.00:  GRAVITY FIELD
 VSDR.deg               235.12:  VERT SEC DIRECT
 TDD .m                   0.00:  TOTAL DEPTH (DRILLER)
 SDEP.m                   0.00:  START DEPTH
 UTMY.m             4448627.46:  UTM Y
 UTMX.m              514337.95:  UTM X
 LONG.deg                51.17:  LONGITUDE
 LATI.deg                40.17:  LATITUDE
 TVDS.m                  43.16:  TVDSS CORRECTN
 WHEW.m                  -5.41:  WELL HEAD E/W
 WHNS.m                  -0.12:  WELL HEAD N/S
 VSEW.m                  -5.41:  VERT SEC E/W
 VSNS.m                  -0.12:  VERT SEC N/S
 EKB .m                  43.16:  KB ELEVATION
 EDF .m                  43.16:  DF ELEVATION
 MAGU.                 1852276:  MAGUTM CHECKSUM
 VSC .                       0:  VS TO CLOSURE
~Parameter Information Block
#MNEM.UNIT       Value        Description
#---------     -----------    ---------------------------
 TCS .hr                125.29:  Time Ciculation Ended 
 DD1 .      Fakhraddin Guliyev:  Direct Drillr 1 
 DD2 .                   Sanan:  Direct Drillr 2 
 DEFF.%                   0.00:  % Det Eff 
 DRET.      04.26.40 27-Dec-19:  Drill End Time 
 DRST.      04.26.40 27-Dec-19:  Drill Start Tim 
 DTIM.hr                 80.10:  Time Drilling 
 EDEP.m                   0.00:  End Depth 
 ENG1.            Adlet Omarov:  Engineer 1 
 ENG2.         Almaz Almadatov:  Engineer 2 
 ETIM.      04.26.40 27-Dec-19:  End Time 
 HFLO.                      No:  High Flow 
 HPRE.                      No:  High Pressure 
 HTEM.                      No:  High Temp 
 HYDO.m                   1.85:  Hydro Offset 
 IMAX.deg                72.09:  Inc Max 
 IMIN.deg                59.07:  Inc Min 
 IMND.m                3901.43:  Inc Min Depth 
 IMXD.m                4753.85:  Inc Max Depth 
 LETM.      04.26.40 27-Dec-19:  Log End Time 
 LSTM.      04.26.40 27-Dec-19:  Log Start Time 
 OTIM.hr                187.88:  Time Operating 
 PMAX.psia            10202.94:  Press Op, Max 
 RUN .                     300:  Run Number 
 RRUN.                    0300:  Rig Run Number 
 SDEP.m                   0.00:  Start Depth 
 STIM.      04.26.40 27-Dec-19:  Start Time 
 SVER.                    9.20:  Sperry Version 
 MRT .                    HCIM:  Maximum Recorded Temperature 
 TTMX.degC               96.08:  Max Tool Temp 
~Curve Information Block
#MNEM.UNIT                 API CODE     Curve Description
#---------               -----------    ---------------------------
 TIME.HHMMSS            00 000 000 000:  GT Time & Date
 GTDEPTH.m              00 000 000 000:  GT Depth
 GTPQH.psia             00 000 000 000:  GT HR Quartz Pressure
 GTTQ.degC              00 000 000 000:  GT Quartz Temperature
 GTTN.NONE              00 000 000 000:  GT Test Number
 GTET.sec               00 000 000 000:  GT Elapsed Test Time
 GTTVD.m                00 000 000 000:  GT True Vertical Depth
#Other Information
#
#WARRANTY: Halliburton will use its best efforts to furnish customers with 
#accurate information and interpretations that are part of, and incident to, the services 
#provided.  However, Halliburton cannot and does not warrant the accuracy 
#or correctness of such information and interpretations.  Under no circumstances should any 
#such information or interpretation be relied upon as the sole basis for any drilling, 
#completion, production, or financial decision or any procedure involving any risk to the 
#safety of any drilling venture, drilling rig or its crew or any other third party.  The 
#Customer has full responsibility for all drilling, completion and production operation.  
#Halliburton makes no representations or warranties, either expressed or 
#implied, including, but not limited to, the implied warranties of merchantability or fitness 
#for a particular purpose, with respect to the services rendered.  In no event will 
#Halliburton be liable for failure to obtain any particular results or for 
#any damages, including, but not limited to, indirect, special or consequential damages, 
#resulting from the use of any information or interpretation provided by Halliburton.
#
~A           TIME           GTDEPTH  GTPQH  GTTQ  GTTN  GTET   GTTVD  
# ...
   13:07:10.119.02-Jan-2020 4774.33 4460.08 83.84 3.00 368.02 2772.29
   13:07:10.319.02-Jan-2020 4774.33 4460.08 83.84 3.00 368.22 2772.29
   13:07:10.519.02-Jan-2020 4774.33 4467.42 83.84 3.00 368.42 2772.29
   13:07:10.719.02-Jan-2020 4774.33 4472.36 83.84 3.00 368.62 2772.29
   13:07:10.919.02-Jan-2020 4774.33 4477.30 83.84 3.00 368.82 2772.29
   13:07:11.119.02-Jan-2020 4774.33 4479.29 83.84 3.00 369.02 2772.29
   13:07:11.319.02-Jan-2020 4774.33 4479.29 83.84 3.00 369.22 2772.29
   13:07:11.519.02-Jan-2020 4774.33 4490.36 83.84 3.00 369.42 2772.29
   13:07:11.719.02-Jan-2020 4774.33 4494.94 83.84 3.00 369.62 2772.29
   13:07:11.919.02-Jan-2020 4774.33 4499.31 83.84 3.00 369.82 2772.29
   13:07:12.119.02-Jan-2020 4774.33 4500.73 83.84 3.00 370.02 2772.29
   13:07:12.319.02-Jan-2020 4774.33 4500.73 83.84 3.00 370.22 2772.29
   13:07:12.519.02-Jan-2020 4774.33 4511.71 83.84 3.00 370.42 2772.29
   13:07:12.719.02-Jan-2020 4774.33 4516.10 83.84 3.00 370.62 2772.29
   13:07:12.919.02-Jan-2020 4774.33 4517.66 83.84 3.00 370.82 2772.29
   13:07:13.119.02-Jan-2020 4774.33 4523.92 83.84 3.00 371.02 2772.29
   13:07:13.319.02-Jan-2020 4774.33 4523.92 83.84 3.00 371.22 2772.29
   13:07:13.519.02-Jan-2020 4774.33 4532.45 83.84 3.00 371.42 2772.29
   13:07:13.719.02-Jan-2020 4774.33 4533.90 83.84 3.00 371.62 2772.29
   13:07:13.919.02-Jan-2020 4774.33 4540.01 83.84 3.00 371.82 2772.29
   13:07:14.119.02-Jan-2020 4774.33 4544.32 83.84 3.00 372.02 2772.29
   13:07:14.319.02-Jan-2020 4774.33 4544.32 83.84 3.00 372.22 2772.29
   13:07:14.519.02-Jan-2020 4774.33 4552.37 83.84 3.00 372.42 2772.29
   13:07:14.719.02-Jan-2020 4774.33 4558.33 83.84 3.00 372.62 2772.29
   13:07:14.919.02-Jan-2020 4774.33 4563.40 83.84 3.00 372.82 2772.29
   13:07:15.119.02-Jan-2020 4774.33 4565.40 83.84 3.00 373.02 2772.29
   13:07:15.319.02-Jan-2020 4774.33 4565.40 83.84 3.00 373.22 2772.29
   13:07:15.519.02-Jan-2020 4774.33 4577.42 83.84 3.00 373.42 2772.29
   13:07:15.719.02-Jan-2020 4774.33 4582.13 83.84 3.00 373.62 2772.29
   13:07:15.919.02-Jan-2020 4774.33 4586.34 83.84 3.00 373.82 2772.29
   13:07:16.119.02-Jan-2020 4774.33 4590.27 83.84 3.00 374.02 2772.29
   13:07:16.319.02-Jan-2020 4774.33 4590.27 83.84 3.00 374.22 2772.29
   13:07:16.519.02-Jan-2020 4774.33 4597.60 83.84 3.00 374.42 2772.29
   13:07:16.719.02-Jan-2020 4774.33 4600.78 83.84 3.00 374.62 2772.29
   13:07:16.919.02-Jan-2020 4774.33 4603.77 83.84 3.00 374.82 2772.29
   13:07:17.119.02-Jan-2020 4774.33 4612.90 83.84 3.00 375.02 2772.29
   13:07:17.319.02-Jan-2020 4774.33 4612.90 83.84 3.00 375.22 2772.29
   13:07:17.519.02-Jan-2020 4774.33 4623.69 83.84 3.00 375.42 2772.29
   13:07:17.719.02-Jan-2020 4774.33 4628.30 83.84 3.00 375.62 2772.29
   13:07:17.919.02-Jan-2020 4774.33 4633.08 83.84 3.00 375.82 2772.29
   13:07:18.119.02-Jan-2020 4774.33 4635.27 83.84 3.00 376.02 2772.29
   13:07:18.319.02-Jan-2020 4774.33 4635.27 83.84 3.00 376.22 2772.29
   13:07:18.519.02-Jan-2020 4774.33 4656.21 83.84 3.00 376.42 2772.29
   13:07:18.719.02-Jan-2020 4774.33 4663.75 83.84 3.00 376.62 2772.29
   13:07:18.919.02-Jan-2020 4774.33 4668.71 83.84 3.00 376.82 2772.29
   13:07:19.119.02-Jan-2020 4774.33 4675.36 83.84 3.00 377.02 2772.29
   13:07:19.319.02-Jan-2020 4774.33 4675.36 83.84 3.00 377.22 2772.29
   13:07:19.519.02-Jan-2020 4774.33 4684.17 83.84 3.00 377.42 2772.29
   13:07:19.719.02-Jan-2020 4774.33 4687.33 83.84 3.00 377.62 2772.29
   13:07:19.919.02-Jan-2020 4774.33 4688.23 83.84 3.00 377.82 2772.29
   13:07:20.119.02-Jan-2020 4774.33 4692.12 83.84 3.00 378.02 2772.29
   13:07:20.319.02-Jan-2020 4774.33 4692.12 83.84 3.00 378.22 2772.29
   13:07:20.519.02-Jan-2020 4774.33 4695.82 83.84 3.00 378.42 2772.29
   13:07:20.719.02-Jan-2020 4774.33 4695.62 83.84 3.00 378.62 2772.29
   13:07:20.919.02-Jan-2020 4774.33 4698.84 83.84 3.00 378.82 2772.29
   13:07:21.119.02-Jan-2020 4774.33 4699.58 83.84 3.00 379.02 2772.29
   13:07:21.319.02-Jan-2020 4774.33 4699.58 83.84 3.00 379.22 2772.29
   13:07:21.519.02-Jan-2020 4774.33 4699.68 83.84 3.00 379.42 2772.29
   13:07:21.719.02-Jan-2020 4774.33 4701.85 83.84 3.00 379.62 2772.29
   13:07:21.919.02-Jan-2020 4774.33 4702.53 83.84 3.00 379.82 2772.29
   13:07:22.119.02-Jan-2020 4774.33 4702.97 83.84 3.00 380.02 2772.29
   13:07:22.319.02-Jan-2020 4774.33 4702.97 83.84 3.00 380.22 2772.29
   13:07:22.519.02-Jan-2020 4774.33 4703.68 83.84 3.00 380.42 2772.29
   13:07:22.719.02-Jan-2020 4774.33 4704.15 83.84 3.00 380.62 2772.29
   13:07:22.919.02-Jan-2020 4774.33 4704.37 83.84 3.00 380.82 2772.29
   13:07:23.119.02-Jan-2020 4774.33 4704.45 83.84 3.00 381.02 2772.29
   13:07:23.319.02-Jan-2020 4774.33 4704.45 83.84 3.00 381.22 2772.29
   13:07:23.519.02-Jan-2020 4774.33 4704.73 83.84 3.00 381.42 2772.29
   13:07:23.719.02-Jan-2020 4774.33 4704.93 83.84 3.00 381.62 2772.29
   13:07:23.919.02-Jan-2020 4774.33 4705.09 83.84 3.00 381.82 2772.29
   13:07:24.119.02-Jan-2020 4774.33 4703.88 83.84 3.00 382.02 2772.29
   13:07:24.319.02-Jan-2020 4774.33 4703.88 83.84 3.00 382.22 2772.29
   13:07:24.519.02-Jan-2020 4774.33 4705.56 83.84 3.00 382.42 2772.29
   13:07:24.719.02-Jan-2020 4774.33 4704.01 83.84 3.00 382.62 2772.29
   13:07:24.919.02-Jan-2020 4774.33 4706.11 83.84 3.00 382.82 2772.29
   13:07:25.119.02-Jan-2020 4774.33 4705.73 83.84 3.00 383.02 2772.29
   13:07:25.319.02-Jan-2020 4774.33 4705.73 83.84 3.00 383.22 2772.29
   13:07:25.519.02-Jan-2020 4774.33 4704.99 83.84 3.00 383.42 2772.29
   13:07:25.719.02-Jan-2020 4774.33 4706.37 83.84 3.00 383.62 2772.29
   13:07:25.919.02-Jan-2020 4774.33 4706.03 83.84 3.00 383.82 2772.29
   13:07:26.119.02-Jan-2020 4774.33 4706.09 83.84 3.00 384.02 2772.29
   13:07:26.319.02-Jan-2020 4774.33 4706.09 83.84 3.00 384.22 2772.29
   13:07:26.519.02-Jan-2020 4774.33 4704.79 83.84 3.00 384.42 2772.29
   13:07:26.719.02-Jan-2020 4774.33 4706.44 83.84 3.00 384.62 2772.29
   13:07:26.919.02-Jan-2020 4774.33 4706.36 83.84 3.00 384.82 2772.29
   13:07:27.119.02-Jan-2020 4774.33 4706.38 83.84 3.00 385.02 2772.29
   13:07:27.319.02-Jan-2020 4774.33 4706.38 83.84 3.00 385.22 2772.29
   13:07:27.519.02-Jan-2020 4774.33 4706.70 83.84 3.00 385.42 2772.29
   13:07:27.719.02-Jan-2020 4774.33 4706.40 83.84 3.00 385.62 2772.29
   13:07:27.919.02-Jan-2020 4774.33 4706.54 83.84 3.00 385.82 2772.29
   13:07:28.119.02-Jan-2020 4774.33 4706.45 83.84 3.00 386.02 2772.29
   13:07:28.320.02-Jan-2020 4774.33 4706.45 83.84 3.00 386.22 2772.29
   13:07:28.520.02-Jan-2020 4774.33 4706.58 83.84 3.00 386.42 2772.29
   13:07:28.720.02-Jan-2020 4774.33 4706.76 83.84 3.00 386.62 2772.29
   13:07:28.920.02-Jan-2020 4774.33 4706.11 83.84 3.00 386.82 2772.29
   13:07:29.120.02-Jan-2020 4774.33 4705.53 83.84 3.00 387.02 2772.29
   13:07:29.320.02-Jan-2020 4774.33 4705.53 83.84 3.00 387.22 2772.29
   13:07:29.520.02-Jan-2020 4774.33 4706.62 83.84 3.00 387.42 2772.29
   13:07:29.720.02-Jan-2020 4774.33 4706.60 83.84 3.00 387.62 2772.29
   13:07:29.920.02-Jan-2020 4774.33 4706.56 83.84 3.00 387.82 2772.29
   13:07:30.120.02-Jan-2020 4774.33 4706.53 83.84 3.00 388.02 2772.29
   13:07:30.320.02-Jan-2020 4774.33 4706.53 83.84 3.00 388.22 2772.29
   13:07:30.520.02-Jan-2020 4774.33 4706.59 83.84 3.00 388.42 2772.29
   13:07:30.720.02-Jan-2020 4774.33 4704.96 83.84 3.00 388.62 2772.29
   13:07:30.920.02-Jan-2020 4774.33 4707.01 83.84 3.00 388.82 2772.29
   13:07:31.120.02-Jan-2020 4774.33 4706.65 83.84 3.00 389.02 2772.29
   13:07:31.320.02-Jan-2020 4774.33 4706.65 83.84 3.00 389.22 2772.29
   13:07:31.520.02-Jan-2020 4774.33 4706.79 83.84 3.00 389.42 2772.29
   13:07:31.720.02-Jan-2020 4774.33 4706.92 83.84 3.00 389.62 2772.29
   13:07:31.920.02-Jan-2020 4774.33 4706.83 83.84 3.00 389.82 2772.29
   13:07:32.120.02-Jan-2020 4774.33 4706.68 83.84 3.00 390.02 2772.29
   13:07:32.320.02-Jan-2020 4774.33 4706.68 83.84 3.00 390.22 2772.29
   13:07:32.520.02-Jan-2020 4774.33 4705.76 83.84 3.00 390.42 2772.29
   13:07:32.720.02-Jan-2020 4774.33 4707.12 83.84 3.00 390.62 2772.29
   13:07:32.920.02-Jan-2020 4774.33 4706.83 83.84 3.00 390.82 2772.29
