~Version Information
 VERS.                  2.0:   CWLS log ASCII Standard -VERSION 2.0
 WRAP.                   NO:   One line per depth step
~Well Information Block
#MNEM.UNIT     VALUE/NAME     DESCRIPTION
#---------     -----------    ---------------------------
 STRT.S             16:55:55 16-Jul-20: START TIME 16:55:55 16-Jul-20
 STOP.S             17:02:47 16-Jul-20: STOP TIME  17:02:47 16-Jul-20
 STEP.S                   0.00: STEP TIME
 NULL.                 -999.25: NULL VALUE
 MDS .        Operator Entered:  MAG DATA SOURCE
 UNIT.                     N/A:  LOGGING EQUIPMENT ID
 DCON.         Sperry Drilling:  DIRECTNL CONTR
 DOE .                     N/A:  DOE NUMBER
 RIG .               EastAzeri:  RIG NAME
 JOBN.        AZ-XX-0906363297:  JOB TICKET NUMB
 MWDS.                    Baku:  MWD SHOP
 SRVC.     Turan Drilling & Engineering:  CONTRACTOR
 PROV.                    Baku:  PROVINCE
 STAT.                    Baku:  STATE NAME
 REGN.                   EESSA:  REGION
 BASE.              Azerbaijan:  LOGGING EQUIPMENT BASE LOCATION
 WTYP.                Deviated:  WELL TYPE
 UWI .                     N/A:  UNIQUE WELL IDENTIFIER
 API .                     N/A:  API NUMBER
 COMP.     BP Exploration (Caspian Sea) ltd.:  COMPANY
 WELL.                    D07z:  WELL NAME
 CTRY.              Azerbaijan:  COUNTRY NAME
 SON .        AZ-XX-0906363297:  JOB NUMBER
 FLD .                     ACG:  FIELD NAME
 PDAT.          Mean Sea Level:  PERMANENT DATUM
 FTOP.          Formation Tops:  FORM TOPS DESC
 ILTD.               Lithology:  INTERP LTH DESC
 SVYD.                  Survey:  SURVEY DESC
 DMOD.             Drill Model:  DRILL MOD DESC
 HPTY.       Minimum Curvature:  HOLE POS TYPE
 NREF.                    Grid:  NORTH REFERENCE
 SPUD.               28-Jun-20:  SPUD DATE
 DATE.      18.27.12 28-Jun-20:  END TIME
 STIM.      18.27.12 28-Jun-20:  START TIME
 DMF .             Drill Floor:  DRILL MEAS FROM
 DFST.                        :  DIST FSL TEXT
 DFWT.                        :  DIST FWL TEXT
 CNTY.                        :  COUNTY
 LOC .                        :  LOCATION
 LMF .             Drill Floor:  LOG MEASURED FROM
 VSNS.m                  -7.75:  VERT SEC N/S
 VSEW.m                  -9.19:  VERT SEC E/W
 MMDE.m                   0.00:  MAGUTM CALC DEP
 AGAP.m                  43.60:  AIR GAP
 DEP .m                4058.99:  DEPTH
 APD .m                  43.60:  DEPTH ABOVE PD
 WDMS.m                 151.80:  WD ELEV
 EGL .m                   0.00:  GROUND ELEVATION
 EPD .m                   0.00:  ELEVATION
 AZTC.deg                 6.19:  AZM TOTAL CORR
 GRDC.deg                 0.27:  GRID CORRECTION
 MDEC.deg                 6.46:  MAGNETIC DECL
 MDIP.deg                59.47:  MAGNETIC DIP
 MFLD.nT              50279.00:  MAGNETIC FIELD
 GVFD.g                   1.00:  GRAVITY FIELD
 VSDR.deg               249.96:  VERT SEC DIRECT
 TDD .m                   0.00:  TOTAL DEPTH (DRILLER)
 SDEP.m                   0.00:  START DEPTH
 DFSL.m                   0.00:  DISTANCE FSL
 DFWL.m                   0.00:  DISTANCE FWL
 UTMY.m             4431880.20:  UTM Y
 UTMX.m              538763.98:  UTM X
 WHEW.m                  -9.19:  WELL HEAD E/W
 WHNS.m                  -7.75:  WELL HEAD N/S
 LONG.deg                51.45:  LONGITUDE
 LATI.deg                40.02:  LATITUDE
 TVDS.m                  43.60:  TVDSS CORRECTN
 EKB .m                  43.60:  KB ELEVATION
 EDF .m                  43.60:  DF ELEVATION
 TDL .m                 248.00:  TOTAL DEPTH (LOGGER)
 MAGU.                 1849075:  MAGUTM CHECKSUM
 VSC .                       0:  VS TO CLOSURE
~Parameter Information Block
#MNEM.UNIT       Value        Description
#---------     -----------    ---------------------------
 AV  .mps                 6.34:  Ann Velocity 
 AVMX.mps                 7.00:  Max Ann Veloc 
 AZIF.deg               260.29:  Azm, Final 
 BHAT.        Rotary Steerable:  BHA Type 
 BROT.°/30m               1.20:  Build Rotating 
 BS  .in                  8.50:  Bit Size 
 BSZ .in                  8.50:  Bit Size 
 BTPL.psig              620.00:  Bit Press Loss 
 CABU.                     Yes:  Customer Abuse 
 COMM.                     3z:  Run Comments 1 
 TCS .hr                 56.22:  Time Ciculation Ended 
 CV  .mps                 3.05:  Crit Velocity 
 CVMX.mps                 3.20:  Max Crit Veloc 
 DD1 .            Musa Ahmadov:  Direct Drillr 1 
 DDSV.                 iCruise:  DD Service 
 DEFF.%                  98.00:  % Det Eff 
 DLRX.°/30m               2.78:  Dogleg Rot Max 
 DLSO.°/30m               0.00:  Dogleg Oriented 
 DLSX.°/30m               0.00:  Dogleg Str Max 
 DRET.      05.20.48 16-Jul-20:  Drill End Time 
 DRST.      10.20.48 13-Jul-20:  Drill Start Tim 
 DTIM.hr                 14.25:  Time Drilling 
 EDEP.m                4326.01:  End Depth 
 ENG1.      Artemiy Matviyanov:  Engineer 1 
 ENG2.           Amrah Tahirov:  Engineer 2 
 ETIM.      22.30.00 18-Jul-20:  End Time 
 FLOI.gpm               550.00:  Flow In 
 FLON.gpm               450.00:  Flow In Min 
 FLOS.cptm                0.00:  Fluid Loss 
 FLOX.gpm               600.00:  Flow In Max 
 HFLO.                      No:  High Flow 
 HPRE.                      No:  High Pressure 
 HTEM.                      No:  High Temp 
 HYDO.m                   1.80:  Hydro Offset 
 IFIN.deg                65.41:  Inc, Final 
 IMAX.deg                65.14:  Inc Max 
 IMIN.deg                58.89:  Inc Min 
 IMND.m                4104.92:  Inc Min Depth 
 IMXD.m                4303.89:  Inc Max Depth 
 JARR.                      No:  Jarring 
 LETM.      10.20.48 17-Jul-20:  Log End Time 
 LOST.hr                     0:  Lost Rig Time 
 LSTM.      10.20.48 13-Jul-20:  Log Start Time 
 MDCL.ppm             37000.00:  Mud Chlorides 
 MDES.     Inversion Oil/Synthetic:  Mud Desc 
 DFD .sg                  1.52:  Mud Density 
 MDMN.sg                  1.52:  Dens Mud Min 
 MDMX.sg                  1.52:  Dens Mud Max 
 MOIL.                   52.70:  Run Mud Oil % 
 MOWR.                   68:32:  Run Mud OWR 
 MSND.                     0.2:  Run Mud Sand % 
 MSOL.                    21.6:  Run Mud Solids% 
 DFV .spqt               79.00:  Mud Viscosity 
 MWOD.in                  6.75:  MWD Tool OD 
 MWSI.                      No:  Serv Intrp, MWD 
 OTIM.hr                114.04:  Time Operating 
 PCON.          Wear / Scratch:  Pad Condition 
 PMAX.psia            11782.92:  Press Op, Max 
 PV  .cP                 49.00:  Mud PV 
 RUN .                     600:  Run Number 
 ROPA.m/hr               20.00:  ROP Avg 
 ROPN.m/hr               15.00:  ROP Min 
 ROPX.m/hr               22.00:  ROP Max 
 RPMA.rpm               120.00:  RPM Surface Avg 
 RPMN.rpm                90.00:  RPM Surface Min 
 RPMX.rpm               140.00:  RPM Surface Max 
 RRUN.                     600:  Rig Run Number 
 SAZI.deg               260.29:  Azm, Start 
 SDEP.m                4078.01:  Start Depth 
 SIDD.                      No:  Serv Intrp, DD 
 SINC.deg                58.89:  Inc, Start 
 SPPA.psig             4560.00:  SPP Avg 
 SPPN.psig             3600.00:  SPP Min 
 SPPX.psig             4800.00:  SPP Max 
 STIM.      10.20.48 13-Jul-20:  Start Time 
 SVCS.                 DD, MWD:  Services 
 SVER.                    9.20:  Sperry Version 
 TDAT.m                4378.01:  Tot Depth Attmp 
 TDDF.                      No:  Trip for DD 
 TDLG.m                 248.00:  Tot Depth Loggd 
 TFF .                      No:  Trip for Fail 
 TQAA.f-kp               18.00:  Torque Abs Avg 
 TQAN.f-kp               15.00:  Torque Abs Min 
 TQAX.f-kp               20.00:  Torque Abs Max 
 TRRT.°/30m               0.70:  Turn Rotating 
 MRT .                    HCIM:  Maximum Recorded Temperature 
 TTMX.degC               86.00:  Max Tool Temp 
 WBMN.klb                 3.00:  WOB Min 
 WOBA.klb                 5.00:  WOB Avg 
 WOBX.klb                 9.00:  WOB Max 
 YP  .lhf2               32.00:  Yield Point 
~Curve Information Block
#MNEM.UNIT                 API CODE     Curve Description
#---------               -----------    ---------------------------
 TIME.HHMMSS            00 000 000 000:  GT Time & Date
 GTDEPTH.m              00 000 000 000:  GT Depth
 GTPQH.psia             00 000 000 000:  GT HR Quartz Pressure
 GTTQ.degC              00 000 000 000:  GT Quartz Temperature
 GTTN.NONE              00 000 000 000:  GT Test Number
 GTET.sec               00 000 000 000:  GT Elapsed Test Time
 GTTVD.m                00 000 000 000:  GT True Vertical Depth
#Other Information
#
#WARRANTY: Halliburton will use its best efforts to furnish customers with 
#accurate information and interpretations that are part of, and incident to, the services 
#provided.  However, Halliburton cannot and does not warrant the accuracy 
#or correctness of such information and interpretations.  Under no circumstances should any 
#such information or interpretation be relied upon as the sole basis for any drilling, 
#completion, production, or financial decision or any procedure involving any risk to the 
#safety of any drilling venture, drilling rig or its crew or any other third party.  The 
#Customer has full responsibility for all drilling, completion and production operation.  
#Halliburton makes no representations or warranties, either expressed or 
#implied, including, but not limited to, the implied warranties of merchantability or fitness 
#for a particular purpose, with respect to the services rendered.  In no event will 
#Halliburton be liable for failure to obtain any particular results or for 
#any damages, including, but not limited to, indirect, special or consequential damages, 
#resulting from the use of any information or interpretation provided by Halliburton.
#
~A           TIME           GTDEPTH  GTPQH  GTTQ  GTTN  GTET   GTTVD  
# ...
   16:56:18.387.16-Jul-2020 4261.01 7034.30 80.17 2.00  23.00 2855.56
   16:56:18.587.16-Jul-2020 4261.01 7034.30 80.17 2.00  23.20 2855.56
   16:56:18.787.16-Jul-2020 4261.01 7052.36 80.17 2.00  23.40 2855.56
   16:56:18.987.16-Jul-2020 4261.01 7041.35 80.17 2.00  23.60 2855.56
   16:56:19.187.16-Jul-2020 4261.01 7034.90 80.17 2.00  23.80 2855.56
   16:56:19.387.16-Jul-2020 4261.01 7039.68 80.17 2.00  24.00 2855.56
   16:56:19.587.16-Jul-2020 4261.01 7039.68 80.17 2.00  24.20 2855.56
   16:56:19.787.16-Jul-2020 4261.01 7039.74 80.17 2.00  24.41 2855.56
   16:56:19.987.16-Jul-2020 4261.01 7049.94 80.17 2.00  24.61 2855.56
   16:56:20.187.16-Jul-2020 4261.01 7042.13 80.17 2.00  24.81 2855.56
   16:56:20.387.16-Jul-2020 4261.01 7036.91 80.17 2.00  25.01 2855.56
   16:56:20.587.16-Jul-2020 4261.01 7036.91 80.17 2.00  25.21 2855.56
   16:56:20.787.16-Jul-2020 4261.01 7043.42 80.17 2.00  25.41 2855.56
   16:56:20.987.16-Jul-2020 4261.01 7039.60 80.17 2.00  25.61 2855.56
   16:56:21.188.16-Jul-2020 4261.01 7040.16 80.17 2.00  25.81 2855.56
   16:56:21.388.16-Jul-2020 4261.01 7040.74 80.17 2.00  26.01 2855.56
   16:56:21.588.16-Jul-2020 4261.01 7040.74 80.17 2.00  26.21 2855.56
   16:56:21.788.16-Jul-2020 4261.01 7041.16 80.17 2.00  26.41 2855.56
   16:56:21.988.16-Jul-2020 4261.01 7042.59 80.17 2.00  26.61 2855.56
   16:56:22.188.16-Jul-2020 4261.01 7041.94 80.17 2.00  26.81 2855.56
   16:56:22.388.16-Jul-2020 4261.01 7042.15 80.17 2.00  27.01 2855.56
   16:56:22.588.16-Jul-2020 4261.01 7042.15 80.17 2.00  27.21 2855.56
   16:56:22.788.16-Jul-2020 4261.01 7058.69 80.17 2.00  27.41 2855.56
   16:56:22.988.16-Jul-2020 4261.01 7039.83 80.17 2.00  27.61 2855.56
   16:56:23.188.16-Jul-2020 4261.01 7039.12 80.17 2.00  27.81 2855.56
   16:56:23.388.16-Jul-2020 4261.01 7045.68 80.17 2.00  28.01 2855.56
   16:56:23.588.16-Jul-2020 4261.01 7045.68 80.17 2.00  28.21 2855.56
   16:56:23.788.16-Jul-2020 4261.01 7042.58 80.17 2.00  28.41 2855.56
   16:56:23.988.16-Jul-2020 4261.01 7042.12 80.17 2.00  28.61 2855.56
   16:56:24.188.16-Jul-2020 4261.01 7042.20 80.17 2.00  28.81 2855.56
   16:56:24.388.16-Jul-2020 4261.01 7043.98 80.17 2.00  29.01 2855.56
   16:56:24.588.16-Jul-2020 4261.01 7043.98 80.17 2.00  29.21 2855.56
   16:56:24.788.16-Jul-2020 4261.01 7045.25 80.17 2.00  29.41 2855.56
   16:56:24.988.16-Jul-2020 4261.01 7043.28 80.17 2.00  29.61 2855.56
   16:56:25.188.16-Jul-2020 4261.01 7043.07 80.17 2.00  29.81 2855.56
   16:56:25.388.16-Jul-2020 4261.01 7043.84 80.17 2.00  30.01 2855.56
   16:56:25.588.16-Jul-2020 4261.01 7046.12 80.17 2.00  30.21 2855.56
   16:56:25.788.16-Jul-2020 4261.01 7045.16 80.17 2.00  30.41 2855.56
   16:56:25.988.16-Jul-2020 4261.01 7055.56 80.17 2.00  30.61 2855.56
   16:56:26.189.16-Jul-2020 4261.01 7045.06 80.17 2.00  30.81 2855.56
   16:56:26.389.16-Jul-2020 4261.01 7042.02 80.17 2.00  31.01 2855.56
   16:56:26.589.16-Jul-2020 4261.01 7042.02 80.17 2.00  31.21 2855.56
   16:56:26.789.16-Jul-2020 4261.01 7048.34 80.17 2.00  31.41 2855.56
   16:56:26.989.16-Jul-2020 4261.01 7061.19 80.17 2.00  31.61 2855.56
   16:56:27.189.16-Jul-2020 4261.01 7042.41 80.17 2.00  31.81 2855.56
   16:56:27.389.16-Jul-2020 4261.01 7059.36 80.17 2.00  32.01 2855.56
   16:56:27.589.16-Jul-2020 4261.01 7059.36 80.17 2.00  32.21 2855.56
   16:56:27.789.16-Jul-2020 4261.01 7504.81 80.17 2.00  32.41 2855.56
   16:56:27.989.16-Jul-2020 4261.01 7546.53 80.17 2.00  32.61 2855.56
   16:56:28.189.16-Jul-2020 4261.01 7552.27 80.17 2.00  32.81 2855.56
   16:56:28.389.16-Jul-2020 4261.01 7556.81 80.17 2.00  33.01 2855.56
   16:56:28.589.16-Jul-2020 4261.01 7556.81 80.17 2.00  33.21 2855.56
   16:56:28.789.16-Jul-2020 4261.01 7576.19 80.17 2.00  33.41 2855.56
   16:56:28.989.16-Jul-2020 4261.01 7565.76 80.17 2.00  33.61 2855.56
   16:56:29.189.16-Jul-2020 4261.01 7398.30 80.17 2.00  33.81 2855.56
   16:56:29.389.16-Jul-2020 4261.01 7275.28 80.17 2.00  34.01 2855.56
   16:56:29.589.16-Jul-2020 4261.01 7275.28 80.17 2.00  34.21 2855.56
   16:56:29.789.16-Jul-2020 4261.01 7109.15 80.17 2.00  34.41 2855.56
   16:56:29.989.16-Jul-2020 4261.01 7058.71 80.17 2.00  34.61 2855.56
   16:56:30.189.16-Jul-2020 4261.01 7031.86 80.17 2.00  34.81 2855.56
   16:56:30.389.16-Jul-2020 4261.01 7017.09 80.17 2.00  35.01 2855.56
   16:56:30.589.16-Jul-2020 4261.01 7008.62 80.17 2.00  35.21 2855.56
   16:56:30.789.16-Jul-2020 4261.01 6999.33 80.17 2.00  35.41 2855.56
   16:56:30.990.16-Jul-2020 4261.01 6993.17 80.17 2.00  35.61 2855.56
   16:56:31.190.16-Jul-2020 4261.01 6987.16 80.17 2.00  35.81 2855.56
   16:56:31.390.16-Jul-2020 4261.01 6980.28 80.17 2.00  36.01 2855.56
   16:56:31.590.16-Jul-2020 4261.01 6974.85 80.17 2.00  36.21 2855.56
   16:56:31.790.16-Jul-2020 4261.01 6967.31 80.17 2.00  36.41 2855.56
   16:56:31.990.16-Jul-2020 4261.01 6962.00 80.17 2.00  36.61 2855.56
   16:56:32.190.16-Jul-2020 4261.01 6956.96 80.17 2.00  36.81 2855.56
   16:56:32.390.16-Jul-2020 4261.01 6951.03 80.17 2.00  37.01 2855.56
   16:56:32.590.16-Jul-2020 4261.01 6942.33 80.17 2.00  37.21 2855.56
   16:56:32.790.16-Jul-2020 4261.01 6938.58 80.17 2.00  37.41 2855.56
   16:56:32.990.16-Jul-2020 4261.01 6929.54 80.17 2.00  37.61 2855.56
   16:56:33.190.16-Jul-2020 4261.01 6619.96 80.17 2.00  37.81 2855.56
   16:56:33.390.16-Jul-2020 4261.01 5695.21 80.17 2.00  38.01 2855.56
   16:56:33.590.16-Jul-2020 4261.01 5695.21 80.17 2.00  38.21 2855.56
   16:56:33.790.16-Jul-2020 4261.01 4616.36 80.16 2.00  38.41 2855.56
   16:56:33.990.16-Jul-2020 4261.01 4565.30 80.16 2.00  38.61 2855.56
   16:56:34.190.16-Jul-2020 4261.01 4505.30 80.16 2.00  38.81 2855.56
   16:56:34.390.16-Jul-2020 4261.01 4477.26 80.16 2.00  39.01 2855.56
   16:56:34.590.16-Jul-2020 4261.01 4469.82 80.16 2.00  39.21 2855.56
   16:56:34.790.16-Jul-2020 4261.01 4472.14 80.16 2.00  39.41 2855.56
   16:56:34.990.16-Jul-2020 4261.01 4466.62 80.15 2.00  39.61 2855.56
   16:56:35.190.16-Jul-2020 4261.01 4462.46 80.15 2.00  39.81 2855.56
   16:56:35.390.16-Jul-2020 4261.01 4465.97 80.15 2.00  40.01 2855.56
   16:56:35.590.16-Jul-2020 4261.01 4462.52 80.15 2.00  40.21 2855.56
   16:56:35.791.16-Jul-2020 4261.01 4457.68 80.14 2.00  40.41 2855.56
   16:56:35.991.16-Jul-2020 4261.01 4457.07 80.14 2.00  40.61 2855.56
   16:56:36.191.16-Jul-2020 4261.01 4454.71 80.14 2.00  40.81 2855.56
   16:56:36.391.16-Jul-2020 4261.01 4456.19 80.13 2.00  41.01 2855.56
   16:56:36.591.16-Jul-2020 4261.01 4449.11 80.13 2.00  41.21 2855.56
   16:56:36.791.16-Jul-2020 4261.01 4446.76 80.13 2.00  41.41 2855.56
   16:56:36.991.16-Jul-2020 4261.01 4444.51 80.13 2.00  41.61 2855.56
   16:56:37.191.16-Jul-2020 4261.01 4425.05 80.12 2.00  41.81 2855.56
   16:56:37.391.16-Jul-2020 4261.01 4426.65 80.12 2.00  42.01 2855.56
   16:56:37.591.16-Jul-2020 4261.01 4426.65 80.12 2.00  42.21 2855.56
   16:56:37.791.16-Jul-2020 4261.01 4447.22 80.11 2.00  42.41 2855.56
   16:56:37.991.16-Jul-2020 4261.01 4456.08 80.11 2.00  42.61 2855.56
   16:56:38.191.16-Jul-2020 4261.01 4440.30 80.11 2.00  42.81 2855.56
   16:56:38.391.16-Jul-2020 4261.01 4422.25 80.10 2.00  43.01 2855.56
   16:56:38.591.16-Jul-2020 4261.01 4422.25 80.10 2.00  43.21 2855.56
   16:56:38.791.16-Jul-2020 4261.01 4393.58 80.10 2.00  43.41 2855.56
   16:56:38.991.16-Jul-2020 4261.01 4399.50 80.10 2.00  43.61 2855.56
   16:56:39.191.16-Jul-2020 4261.01 4401.73 80.09 2.00  43.81 2855.56
   16:56:39.391.16-Jul-2020 4261.01 4369.67 80.09 2.00  44.01 2855.56
   16:56:39.591.16-Jul-2020 4261.01 4369.67 80.09 2.00  44.21 2855.56
   16:56:39.791.16-Jul-2020 4261.01 4370.36 80.09 2.00  44.41 2855.56
   16:56:39.991.16-Jul-2020 4261.01 4365.45 80.09 2.00  44.61 2855.56
   16:56:40.191.16-Jul-2020 4261.01 4376.46 80.08 2.00  44.81 2855.56
   16:56:40.391.16-Jul-2020 4261.01 4348.44 80.08 2.00  45.01 2855.56
   16:56:40.592.16-Jul-2020 4261.01 4336.81 80.08 2.00  45.21 2855.56
   16:56:40.792.16-Jul-2020 4261.01 4335.92 80.08 2.00  45.41 2855.56
   16:56:40.992.16-Jul-2020 4261.01 4332.19 80.08 2.00  45.61 2855.56
   16:56:41.192.16-Jul-2020 4261.01 4336.08 80.07 2.00  45.81 2855.56
