~Version Information
 VERS.                  2.0:   CWLS log ASCII Standard -VERSION 2.0
 WRAP.                   NO:   One line per depth step
~Well Information Block
#MNEM.UNIT     VALUE/NAME     DESCRIPTION
#---------     -----------    ---------------------------
 STRT.S             17:17:21 16-Jul-20: START TIME 17:17:21 16-Jul-20
 STOP.S             17:24:07 16-Jul-20: STOP TIME  17:24:07 16-Jul-20
 STEP.S                   0.00: STEP TIME
 NULL.                 -999.25: NULL VALUE
 MDS .        Operator Entered:  MAG DATA SOURCE
 UNIT.                     N/A:  LOGGING EQUIPMENT ID
 DCON.         Sperry Drilling:  DIRECTNL CONTR
 DOE .                     N/A:  DOE NUMBER
 RIG .               EastAzeri:  RIG NAME
 JOBN.        AZ-XX-0906363297:  JOB TICKET NUMB
 MWDS.                    Baku:  MWD SHOP
 SRVC.     Turan Drilling & Engineering:  CONTRACTOR
 PROV.                    Baku:  PROVINCE
 STAT.                    Baku:  STATE NAME
 REGN.                   EESSA:  REGION
 BASE.              Azerbaijan:  LOGGING EQUIPMENT BASE LOCATION
 WTYP.                Deviated:  WELL TYPE
 UWI .                     N/A:  UNIQUE WELL IDENTIFIER
 API .                     N/A:  API NUMBER
 COMP.     BP Exploration (Caspian Sea) ltd.:  COMPANY
 WELL.                    D07z:  WELL NAME
 CTRY.              Azerbaijan:  COUNTRY NAME
 SON .        AZ-XX-0906363297:  JOB NUMBER
 FLD .                     ACG:  FIELD NAME
 PDAT.          Mean Sea Level:  PERMANENT DATUM
 FTOP.          Formation Tops:  FORM TOPS DESC
 ILTD.               Lithology:  INTERP LTH DESC
 SVYD.                  Survey:  SURVEY DESC
 DMOD.             Drill Model:  DRILL MOD DESC
 HPTY.       Minimum Curvature:  HOLE POS TYPE
 NREF.                    Grid:  NORTH REFERENCE
 SPUD.               28-Jun-20:  SPUD DATE
 DATE.      18.27.12 28-Jun-20:  END TIME
 STIM.      18.27.12 28-Jun-20:  START TIME
 DMF .             Drill Floor:  DRILL MEAS FROM
 DFST.                        :  DIST FSL TEXT
 DFWT.                        :  DIST FWL TEXT
 CNTY.                        :  COUNTY
 LOC .                        :  LOCATION
 LMF .             Drill Floor:  LOG MEASURED FROM
 VSNS.m                  -7.75:  VERT SEC N/S
 VSEW.m                  -9.19:  VERT SEC E/W
 MMDE.m                   0.00:  MAGUTM CALC DEP
 AGAP.m                  43.60:  AIR GAP
 DEP .m                4058.99:  DEPTH
 APD .m                  43.60:  DEPTH ABOVE PD
 WDMS.m                 151.80:  WD ELEV
 EGL .m                   0.00:  GROUND ELEVATION
 EPD .m                   0.00:  ELEVATION
 AZTC.deg                 6.19:  AZM TOTAL CORR
 GRDC.deg                 0.27:  GRID CORRECTION
 MDEC.deg                 6.46:  MAGNETIC DECL
 MDIP.deg                59.47:  MAGNETIC DIP
 MFLD.nT              50279.00:  MAGNETIC FIELD
 GVFD.g                   1.00:  GRAVITY FIELD
 VSDR.deg               249.96:  VERT SEC DIRECT
 TDD .m                   0.00:  TOTAL DEPTH (DRILLER)
 SDEP.m                   0.00:  START DEPTH
 DFSL.m                   0.00:  DISTANCE FSL
 DFWL.m                   0.00:  DISTANCE FWL
 UTMY.m             4431880.20:  UTM Y
 UTMX.m              538763.98:  UTM X
 WHEW.m                  -9.19:  WELL HEAD E/W
 WHNS.m                  -7.75:  WELL HEAD N/S
 LONG.deg                51.45:  LONGITUDE
 LATI.deg                40.02:  LATITUDE
 TVDS.m                  43.60:  TVDSS CORRECTN
 EKB .m                  43.60:  KB ELEVATION
 EDF .m                  43.60:  DF ELEVATION
 TDL .m                 248.00:  TOTAL DEPTH (LOGGER)
 MAGU.                 1849075:  MAGUTM CHECKSUM
 VSC .                       0:  VS TO CLOSURE
~Parameter Information Block
#MNEM.UNIT       Value        Description
#---------     -----------    ---------------------------
 AV  .mps                 6.34:  Ann Velocity 
 AVMX.mps                 7.00:  Max Ann Veloc 
 AZIF.deg               260.29:  Azm, Final 
 BHAT.        Rotary Steerable:  BHA Type 
 BROT.°/30m               1.20:  Build Rotating 
 BS  .in                  8.50:  Bit Size 
 BSZ .in                  8.50:  Bit Size 
 BTPL.psig              620.00:  Bit Press Loss 
 CABU.                     Yes:  Customer Abuse 
 COMM.                     fb:  Run Comments 1 
 TCS .hr                 56.22:  Time Ciculation Ended 
 CV  .mps                 3.05:  Crit Velocity 
 CVMX.mps                 3.20:  Max Crit Veloc 
 DD1 .            Musa Ahmadov:  Direct Drillr 1 
 DDSV.                 iCruise:  DD Service 
 DEFF.%                  98.00:  % Det Eff 
 DLRX.°/30m               2.78:  Dogleg Rot Max 
 DLSO.°/30m               0.00:  Dogleg Oriented 
 DLSX.°/30m               0.00:  Dogleg Str Max 
 DRET.      05.20.48 16-Jul-20:  Drill End Time 
 DRST.      10.20.48 13-Jul-20:  Drill Start Tim 
 DTIM.hr                 14.25:  Time Drilling 
 EDEP.m                4326.01:  End Depth 
 ENG1.      Artemiy Matviyanov:  Engineer 1 
 ENG2.           Amrah Tahirov:  Engineer 2 
 ETIM.      22.30.00 18-Jul-20:  End Time 
 FLOI.gpm               550.00:  Flow In 
 FLON.gpm               450.00:  Flow In Min 
 FLOS.cptm                0.00:  Fluid Loss 
 FLOX.gpm               600.00:  Flow In Max 
 HFLO.                      No:  High Flow 
 HPRE.                      No:  High Pressure 
 HTEM.                      No:  High Temp 
 HYDO.m                   1.80:  Hydro Offset 
 IFIN.deg                65.41:  Inc, Final 
 IMAX.deg                65.14:  Inc Max 
 IMIN.deg                58.89:  Inc Min 
 IMND.m                4104.92:  Inc Min Depth 
 IMXD.m                4303.89:  Inc Max Depth 
 JARR.                      No:  Jarring 
 LETM.      10.20.48 17-Jul-20:  Log End Time 
 LOST.hr                     0:  Lost Rig Time 
 LSTM.      10.20.48 13-Jul-20:  Log Start Time 
 MDCL.ppm             37000.00:  Mud Chlorides 
 MDES.     Inversion Oil/Synthetic:  Mud Desc 
 DFD .sg                  1.52:  Mud Density 
 MDMN.sg                  1.52:  Dens Mud Min 
 MDMX.sg                  1.52:  Dens Mud Max 
 MOIL.                   52.70:  Run Mud Oil % 
 MOWR.                   68:32:  Run Mud OWR 
 MSND.                     0.2:  Run Mud Sand % 
 MSOL.                    21.6:  Run Mud Solids% 
 DFV .spqt               79.00:  Mud Viscosity 
 MWOD.in                  6.75:  MWD Tool OD 
 MWSI.                      No:  Serv Intrp, MWD 
 OTIM.hr                114.04:  Time Operating 
 PCON.          Wear / Scratch:  Pad Condition 
 PMAX.psia            11782.92:  Press Op, Max 
 PV  .cP                 49.00:  Mud PV 
 RUN .                     600:  Run Number 
 ROPA.m/hr               20.00:  ROP Avg 
 ROPN.m/hr               15.00:  ROP Min 
 ROPX.m/hr               22.00:  ROP Max 
 RPMA.rpm               120.00:  RPM Surface Avg 
 RPMN.rpm                90.00:  RPM Surface Min 
 RPMX.rpm               140.00:  RPM Surface Max 
 RRUN.                     600:  Rig Run Number 
 SAZI.deg               260.29:  Azm, Start 
 SDEP.m                4078.01:  Start Depth 
 SIDD.                      No:  Serv Intrp, DD 
 SINC.deg                58.89:  Inc, Start 
 SPPA.psig             4560.00:  SPP Avg 
 SPPN.psig             3600.00:  SPP Min 
 SPPX.psig             4800.00:  SPP Max 
 STIM.      10.20.48 13-Jul-20:  Start Time 
 SVCS.                 DD, MWD:  Services 
 SVER.                    9.20:  Sperry Version 
 TDAT.m                4378.01:  Tot Depth Attmp 
 TDDF.                      No:  Trip for DD 
 TDLG.m                 248.00:  Tot Depth Loggd 
 TFF .                      No:  Trip for Fail 
 TQAA.f-kp               18.00:  Torque Abs Avg 
 TQAN.f-kp               15.00:  Torque Abs Min 
 TQAX.f-kp               20.00:  Torque Abs Max 
 TRRT.°/30m               0.70:  Turn Rotating 
 MRT .                    HCIM:  Maximum Recorded Temperature 
 TTMX.degC               86.00:  Max Tool Temp 
 WBMN.klb                 3.00:  WOB Min 
 WOBA.klb                 5.00:  WOB Avg 
 WOBX.klb                 9.00:  WOB Max 
 YP  .lhf2               32.00:  Yield Point 
~Curve Information Block
#MNEM.UNIT                 API CODE     Curve Description
#---------               -----------    ---------------------------
 TIME.HHMMSS            00 000 000 000:  GT Time & Date
 GTDEPTH.m              00 000 000 000:  GT Depth
 GTPQH.psia             00 000 000 000:  GT HR Quartz Pressure
 GTTQ.degC              00 000 000 000:  GT Quartz Temperature
 GTTN.NONE              00 000 000 000:  GT Test Number
 GTET.sec               00 000 000 000:  GT Elapsed Test Time
 GTTVD.m                00 000 000 000:  GT True Vertical Depth
#Other Information
#
#WARRANTY: Halliburton will use its best efforts to furnish customers with 
#accurate information and interpretations that are part of, and incident to, the services 
#provided.  However, Halliburton cannot and does not warrant the accuracy 
#or correctness of such information and interpretations.  Under no circumstances should any 
#such information or interpretation be relied upon as the sole basis for any drilling, 
#completion, production, or financial decision or any procedure involving any risk to the 
#safety of any drilling venture, drilling rig or its crew or any other third party.  The 
#Customer has full responsibility for all drilling, completion and production operation.  
#Halliburton makes no representations or warranties, either expressed or 
#implied, including, but not limited to, the implied warranties of merchantability or fitness 
#for a particular purpose, with respect to the services rendered.  In no event will 
#Halliburton be liable for failure to obtain any particular results or for 
#any damages, including, but not limited to, indirect, special or consequential damages, 
#resulting from the use of any information or interpretation provided by Halliburton.
#
~A           TIME           GTDEPTH  GTPQH  GTTQ  GTTN  GTET   GTTVD  
# ...
   17:23:06.718.16-Jul-2020 4251.01 4628.42 79.86 3.00 345.07 2851.33
   17:23:06.918.16-Jul-2020 4251.01 4628.42 79.86 3.00 345.27 2851.33
   17:23:07.118.16-Jul-2020 4251.01 4628.38 79.86 3.00 345.47 2851.33
   17:23:07.318.16-Jul-2020 4251.01 4628.39 79.86 3.00 345.67 2851.33
   17:23:07.518.16-Jul-2020 4251.01 4628.43 79.86 3.00 345.87 2851.33
   17:23:07.718.16-Jul-2020 4251.01 4628.38 79.86 3.00 346.07 2851.33
   17:23:07.918.16-Jul-2020 4251.01 4628.39 79.86 3.00 346.27 2851.33
   17:23:08.118.16-Jul-2020 4251.01 4628.44 79.86 3.00 346.47 2851.33
   17:23:08.318.16-Jul-2020 4251.01 4628.44 79.86 3.00 346.67 2851.33
   17:23:08.518.16-Jul-2020 4251.01 4628.38 79.86 3.00 346.87 2851.33
   17:23:08.718.16-Jul-2020 4251.01 4628.46 79.86 3.00 347.07 2851.33
   17:23:08.918.16-Jul-2020 4251.01 4628.38 79.86 3.00 347.27 2851.33
   17:23:09.119.16-Jul-2020 4251.01 4628.38 79.86 3.00 347.47 2851.33
   17:23:09.319.16-Jul-2020 4251.01 4628.40 79.86 3.00 347.67 2851.33
   17:23:09.519.16-Jul-2020 4251.01 4628.40 79.86 3.00 347.87 2851.33
   17:23:09.719.16-Jul-2020 4251.01 4628.36 79.86 3.00 348.07 2851.33
   17:23:09.919.16-Jul-2020 4251.01 4628.44 79.86 3.00 348.27 2851.33
   17:23:10.119.16-Jul-2020 4251.01 4628.44 79.86 3.00 348.47 2851.33
   17:23:10.319.16-Jul-2020 4251.01 4628.40 79.86 3.00 348.67 2851.33
   17:23:10.519.16-Jul-2020 4251.01 4628.40 79.86 3.00 348.87 2851.33
   17:23:10.719.16-Jul-2020 4251.01 4628.40 79.86 3.00 349.07 2851.33
   17:23:10.919.16-Jul-2020 4251.01 4628.41 79.86 3.00 349.27 2851.33
   17:23:11.119.16-Jul-2020 4251.01 4628.40 79.86 3.00 349.47 2851.33
   17:23:11.319.16-Jul-2020 4251.01 4628.40 79.86 3.00 349.67 2851.33
   17:23:11.519.16-Jul-2020 4251.01 4628.40 79.86 3.00 349.87 2851.33
   17:23:11.719.16-Jul-2020 4251.01 4628.40 79.86 3.00 350.07 2851.33
   17:23:11.919.16-Jul-2020 4251.01 4628.39 79.86 3.00 350.27 2851.33
   17:23:12.119.16-Jul-2020 4251.01 4628.40 79.86 3.00 350.47 2851.33
   17:23:12.319.16-Jul-2020 4251.01 4628.44 79.86 3.00 350.67 2851.33
   17:23:12.519.16-Jul-2020 4251.01 4628.38 79.86 3.00 350.87 2851.33
   17:23:12.719.16-Jul-2020 4251.01 4628.45 79.86 3.00 351.07 2851.33
   17:23:12.919.16-Jul-2020 4251.01 4628.39 79.86 3.00 351.27 2851.33
   17:23:13.119.16-Jul-2020 4251.01 4628.38 79.86 3.00 351.47 2851.33
   17:23:13.319.16-Jul-2020 4251.01 4628.39 79.86 3.00 351.67 2851.33
   17:23:13.519.16-Jul-2020 4251.01 4628.40 79.86 3.00 351.87 2851.33
   17:23:13.719.16-Jul-2020 4251.01 4628.41 79.86 3.00 352.07 2851.33
   17:23:13.920.16-Jul-2020 4251.01 4628.41 79.86 3.00 352.27 2851.33
   17:23:14.120.16-Jul-2020 4251.01 4628.40 79.86 3.00 352.47 2851.33
   17:23:14.320.16-Jul-2020 4251.01 4628.40 79.86 3.00 352.67 2851.33
   17:23:14.520.16-Jul-2020 4251.01 4628.40 79.86 3.00 352.87 2851.33
   17:23:14.720.16-Jul-2020 4251.01 4628.39 79.86 3.00 353.07 2851.33
   17:23:14.920.16-Jul-2020 4251.01 4628.39 79.86 3.00 353.27 2851.33
   17:23:15.120.16-Jul-2020 4251.01 4628.40 79.86 3.00 353.47 2851.33
   17:23:15.320.16-Jul-2020 4251.01 4628.39 79.86 3.00 353.67 2851.33
   17:23:15.520.16-Jul-2020 4251.01 4628.46 79.86 3.00 353.87 2851.33
   17:23:15.720.16-Jul-2020 4251.01 4628.37 79.86 3.00 354.07 2851.33
   17:23:15.920.16-Jul-2020 4251.01 4628.46 79.86 3.00 354.27 2851.33
   17:23:16.120.16-Jul-2020 4251.01 4628.42 79.86 3.00 354.47 2851.33
   17:23:16.320.16-Jul-2020 4251.01 4628.35 79.86 3.00 354.67 2851.33
   17:23:16.520.16-Jul-2020 4251.01 4628.44 79.86 3.00 354.87 2851.33
   17:23:16.720.16-Jul-2020 4251.01 4628.40 79.86 3.00 355.07 2851.33
   17:23:16.920.16-Jul-2020 4251.01 4628.39 79.86 3.00 355.27 2851.33
   17:23:17.120.16-Jul-2020 4251.01 4628.39 79.86 3.00 355.47 2851.33
   17:23:17.320.16-Jul-2020 4251.01 4628.39 79.86 3.00 355.67 2851.33
   17:23:17.520.16-Jul-2020 4251.01 4628.38 79.86 3.00 355.87 2851.33
   17:23:17.720.16-Jul-2020 4251.01 4627.87 79.86 3.00 356.07 2851.33
   17:23:17.920.16-Jul-2020 4251.01 4627.87 79.86 3.00 356.27 2851.33
   17:23:18.120.16-Jul-2020 4251.01 4664.11 79.86 3.00 356.47 2851.33
   17:23:18.320.16-Jul-2020 4251.01 7045.76 79.86 3.00 356.67 2851.33
   17:23:18.520.16-Jul-2020 4251.01 7030.03 79.86 3.00 356.87 2851.33
   17:23:18.720.16-Jul-2020 4251.01 7031.34 79.86 3.00 357.07 2851.33
   17:23:18.921.16-Jul-2020 4251.01 7031.34 79.86 3.00 357.27 2851.33
   17:23:19.121.16-Jul-2020 4251.01 7037.03 79.86 3.00 357.47 2851.33
   17:23:19.321.16-Jul-2020 4251.01 7035.31 79.86 3.00 357.67 2851.33
   17:23:19.521.16-Jul-2020 4251.01 7034.60 79.87 3.00 357.87 2851.33
   17:23:19.721.16-Jul-2020 4251.01 7038.06 79.87 3.00 358.07 2851.33
   17:23:19.921.16-Jul-2020 4251.01 7037.34 79.87 3.00 358.27 2851.33
   17:23:20.121.16-Jul-2020 4251.01 7038.02 79.87 3.00 358.47 2851.33
   17:23:20.321.16-Jul-2020 4251.01 7037.21 79.87 3.00 358.67 2851.33
   17:23:20.521.16-Jul-2020 4251.01 7038.28 79.88 3.00 358.87 2851.33
   17:23:20.721.16-Jul-2020 4251.01 7039.19 79.88 3.00 359.07 2851.33
   17:23:20.921.16-Jul-2020 4251.01 7045.76 79.88 3.00 359.27 2851.33
   17:23:21.121.16-Jul-2020 4251.01 7040.02 79.88 3.00 359.47 2851.33
   17:23:21.321.16-Jul-2020 4251.01 7037.70 79.89 3.00 359.67 2851.33
   17:23:21.521.16-Jul-2020 4251.01 7041.31 79.89 3.00 359.87 2851.33
   17:23:21.721.16-Jul-2020 4251.01 7041.98 79.89 3.00 360.07 2851.33
   17:23:21.921.16-Jul-2020 4251.01 7041.98 79.89 3.00 360.27 2851.33
   17:23:22.121.16-Jul-2020 4251.01 7039.55 79.90 3.00 360.47 2851.33
   17:23:22.321.16-Jul-2020 4251.01 7040.03 79.90 3.00 360.67 2851.33
   17:23:22.521.16-Jul-2020 4251.01 7040.83 79.90 3.00 360.87 2851.33
   17:23:22.721.16-Jul-2020 4251.01 7039.29 79.90 3.00 361.07 2851.33
   17:23:22.921.16-Jul-2020 4251.01 7039.29 79.91 3.00 361.27 2851.33
   17:23:23.121.16-Jul-2020 4251.01 7040.09 79.91 3.00 361.47 2851.33
   17:23:23.321.16-Jul-2020 4251.01 7040.48 79.91 3.00 361.67 2851.33
   17:23:23.521.16-Jul-2020 4251.01 7039.26 79.91 3.00 361.87 2851.33
   17:23:23.722.16-Jul-2020 4251.01 7040.44 79.92 3.00 362.07 2851.33
   17:23:23.922.16-Jul-2020 4251.01 7040.48 79.92 3.00 362.27 2851.33
   17:23:24.122.16-Jul-2020 4251.01 7046.33 79.92 3.00 362.47 2851.33
   17:23:24.322.16-Jul-2020 4251.01 7041.20 79.92 3.00 362.67 2851.33
   17:23:24.522.16-Jul-2020 4251.01 7039.81 79.92 3.00 362.87 2851.33
   17:23:24.722.16-Jul-2020 4251.01 7049.93 79.93 3.00 363.07 2851.33
   17:23:24.922.16-Jul-2020 4251.01 7042.89 79.93 3.00 363.27 2851.33
   17:23:25.122.16-Jul-2020 4251.01 7040.27 79.93 3.00 363.47 2851.33
   17:23:25.322.16-Jul-2020 4251.01 7042.32 79.93 3.00 363.67 2851.33
   17:23:25.522.16-Jul-2020 4251.01 7044.09 79.93 3.00 363.87 2851.33
   17:23:25.722.16-Jul-2020 4251.01 7054.84 79.93 3.00 364.07 2851.33
   17:23:25.922.16-Jul-2020 4251.01 7054.84 79.93 3.00 364.27 2851.33
   17:23:26.122.16-Jul-2020 4251.01 7043.74 79.94 3.00 364.48 2851.33
   17:23:26.322.16-Jul-2020 4251.01 7042.06 79.94 3.00 364.68 2851.33
   17:23:26.522.16-Jul-2020 4251.01 7043.19 79.94 3.00 364.88 2851.33
   17:23:26.722.16-Jul-2020 4251.01 7040.78 79.94 3.00 365.08 2851.33
   17:23:26.922.16-Jul-2020 4251.01 7040.78 79.94 3.00 365.28 2851.33
   17:23:27.122.16-Jul-2020 4251.01 7048.85 79.94 3.00 365.48 2851.33
   17:23:27.322.16-Jul-2020 4251.01 7043.06 79.94 3.00 365.68 2851.33
   17:23:27.522.16-Jul-2020 4251.01 7043.73 79.94 3.00 365.88 2851.33
   17:23:27.722.16-Jul-2020 4251.01 7043.25 79.94 3.00 366.08 2851.33
   17:23:27.922.16-Jul-2020 4251.01 7043.25 79.94 3.00 366.28 2851.33
   17:23:28.122.16-Jul-2020 4251.01 7040.56 79.95 3.00 366.48 2851.33
   17:23:28.322.16-Jul-2020 4251.01 7042.35 79.95 3.00 366.68 2851.33
   17:23:28.523.16-Jul-2020 4251.01 7041.89 79.95 3.00 366.88 2851.33
   17:23:28.723.16-Jul-2020 4251.01 7041.68 79.95 3.00 367.08 2851.33
   17:23:28.923.16-Jul-2020 4251.01 7041.49 79.95 3.00 367.28 2851.33
   17:23:29.123.16-Jul-2020 4251.01 7040.61 79.95 3.00 367.48 2851.33
   17:23:29.323.16-Jul-2020 4251.01 7042.48 79.95 3.00 367.68 2851.33
   17:23:29.523.16-Jul-2020 4251.01 7040.54 79.95 3.00 367.88 2851.33
