~Version Information
 VERS.                  2.0:   CWLS log ASCII Standard -VERSION 2.0
 WRAP.                   NO:   One line per depth step
~Well Information Block
#MNEM.UNIT     VALUE/NAME     DESCRIPTION
#---------     -----------    ---------------------------
 STRT.S             22:12:50 16-Jul-20: START TIME 22:12:50 16-Jul-20
 STOP.S             22:19:40 16-Jul-20: STOP TIME  22:19:40 16-Jul-20
 STEP.S                   0.00: STEP TIME
 NULL.                 -999.25: NULL VALUE
 MDS .        Operator Entered:  MAG DATA SOURCE
 UNIT.                     N/A:  LOGGING EQUIPMENT ID
 DCON.         Sperry Drilling:  DIRECTNL CONTR
 DOE .                     N/A:  DOE NUMBER
 RIG .               EastAzeri:  RIG NAME
 JOBN.        AZ-XX-0906363297:  JOB TICKET NUMB
 MWDS.                    Baku:  MWD SHOP
 SRVC.     Turan Drilling & Engineering:  CONTRACTOR
 PROV.                    Baku:  PROVINCE
 STAT.                    Baku:  STATE NAME
 REGN.                   EESSA:  REGION
 BASE.              Azerbaijan:  LOGGING EQUIPMENT BASE LOCATION
 WTYP.                Deviated:  WELL TYPE
 UWI .                     N/A:  UNIQUE WELL IDENTIFIER
 API .                     N/A:  API NUMBER
 COMP.     BP Exploration (Caspian Sea) ltd.:  COMPANY
 WELL.                    D07z:  WELL NAME
 CTRY.              Azerbaijan:  COUNTRY NAME
 SON .        AZ-XX-0906363297:  JOB NUMBER
 FLD .                     ACG:  FIELD NAME
 PDAT.          Mean Sea Level:  PERMANENT DATUM
 FTOP.          Formation Tops:  FORM TOPS DESC
 ILTD.               Lithology:  INTERP LTH DESC
 SVYD.                  Survey:  SURVEY DESC
 DMOD.             Drill Model:  DRILL MOD DESC
 HPTY.       Minimum Curvature:  HOLE POS TYPE
 NREF.                    Grid:  NORTH REFERENCE
 SPUD.               28-Jun-20:  SPUD DATE
 DATE.      18.27.12 28-Jun-20:  END TIME
 STIM.      18.27.12 28-Jun-20:  START TIME
 DMF .             Drill Floor:  DRILL MEAS FROM
 DFST.                        :  DIST FSL TEXT
 DFWT.                        :  DIST FWL TEXT
 CNTY.                        :  COUNTY
 LOC .                        :  LOCATION
 LMF .             Drill Floor:  LOG MEASURED FROM
 VSNS.m                  -7.75:  VERT SEC N/S
 VSEW.m                  -9.19:  VERT SEC E/W
 MMDE.m                   0.00:  MAGUTM CALC DEP
 AGAP.m                  43.60:  AIR GAP
 DEP .m                4058.99:  DEPTH
 APD .m                  43.60:  DEPTH ABOVE PD
 WDMS.m                 151.80:  WD ELEV
 EGL .m                   0.00:  GROUND ELEVATION
 EPD .m                   0.00:  ELEVATION
 AZTC.deg                 6.19:  AZM TOTAL CORR
 GRDC.deg                 0.27:  GRID CORRECTION
 MDEC.deg                 6.46:  MAGNETIC DECL
 MDIP.deg                59.47:  MAGNETIC DIP
 MFLD.nT              50279.00:  MAGNETIC FIELD
 GVFD.g                   1.00:  GRAVITY FIELD
 VSDR.deg               249.96:  VERT SEC DIRECT
 TDD .m                   0.00:  TOTAL DEPTH (DRILLER)
 SDEP.m                   0.00:  START DEPTH
 DFSL.m                   0.00:  DISTANCE FSL
 DFWL.m                   0.00:  DISTANCE FWL
 UTMY.m             4431880.20:  UTM Y
 UTMX.m              538763.98:  UTM X
 WHEW.m                  -9.19:  WELL HEAD E/W
 WHNS.m                  -7.75:  WELL HEAD N/S
 LONG.deg                51.45:  LONGITUDE
 LATI.deg                40.02:  LATITUDE
 TVDS.m                  43.60:  TVDSS CORRECTN
 EKB .m                  43.60:  KB ELEVATION
 EDF .m                  43.60:  DF ELEVATION
 TDL .m                 248.00:  TOTAL DEPTH (LOGGER)
 MAGU.                 1849075:  MAGUTM CHECKSUM
 VSC .                       0:  VS TO CLOSURE
~Parameter Information Block
#MNEM.UNIT       Value        Description
#---------     -----------    ---------------------------
 AV  .mps                 6.34:  Ann Velocity 
 AVMX.mps                 7.00:  Max Ann Veloc 
 AZIF.deg               260.29:  Azm, Final 
 BHAT.        Rotary Steerable:  BHA Type 
 BROT.°/30m               1.20:  Build Rotating 
 BS  .in                  8.50:  Bit Size 
 BSZ .in                  8.50:  Bit Size 
 BTPL.psig              620.00:  Bit Press Loss 
 CABU.                     Yes:  Customer Abuse 
 TCS .hr                 56.22:  Time Ciculation Ended 
 CV  .mps                 3.05:  Crit Velocity 
 CVMX.mps                 3.20:  Max Crit Veloc 
 DD1 .            Musa Ahmadov:  Direct Drillr 1 
 DDSV.                 iCruise:  DD Service 
 DEFF.%                  98.00:  % Det Eff 
 DLRX.°/30m               2.78:  Dogleg Rot Max 
 DLSO.°/30m               0.00:  Dogleg Oriented 
 DLSX.°/30m               0.00:  Dogleg Str Max 
 DRET.      05.20.48 16-Jul-20:  Drill End Time 
 DRST.      10.20.48 13-Jul-20:  Drill Start Tim 
 DTIM.hr                 14.25:  Time Drilling 
 EDEP.m                4326.01:  End Depth 
 ENG1.      Artemiy Matviyanov:  Engineer 1 
 ENG2.           Amrah Tahirov:  Engineer 2 
 ETIM.      22.30.00 18-Jul-20:  End Time 
 FLOI.gpm               550.00:  Flow In 
 FLON.gpm               450.00:  Flow In Min 
 FLOS.cptm                0.00:  Fluid Loss 
 FLOX.gpm               600.00:  Flow In Max 
 HFLO.                      No:  High Flow 
 HPRE.                      No:  High Pressure 
 HTEM.                      No:  High Temp 
 HYDO.m                   1.80:  Hydro Offset 
 IFIN.deg                65.41:  Inc, Final 
 IMAX.deg                65.14:  Inc Max 
 IMIN.deg                58.89:  Inc Min 
 IMND.m                4104.92:  Inc Min Depth 
 IMXD.m                4303.89:  Inc Max Depth 
 JARR.                      No:  Jarring 
 LETM.      10.20.48 17-Jul-20:  Log End Time 
 LOST.hr                     0:  Lost Rig Time 
 LSTM.      10.20.48 13-Jul-20:  Log Start Time 
 MDCL.ppm             37000.00:  Mud Chlorides 
 MDES.     Inversion Oil/Synthetic:  Mud Desc 
 DFD .sg                  1.52:  Mud Density 
 MDMN.sg                  1.52:  Dens Mud Min 
 MDMX.sg                  1.52:  Dens Mud Max 
 MOIL.                   52.70:  Run Mud Oil % 
 MOWR.                   68:32:  Run Mud OWR 
 MSND.                     0.2:  Run Mud Sand % 
 MSOL.                    21.6:  Run Mud Solids% 
 DFV .spqt               79.00:  Mud Viscosity 
 MWOD.in                  6.75:  MWD Tool OD 
 MWSI.                      No:  Serv Intrp, MWD 
 OTIM.hr                114.04:  Time Operating 
 PCON.          Wear / Scratch:  Pad Condition 
 PMAX.psia            11782.92:  Press Op, Max 
 PV  .cP                 49.00:  Mud PV 
 RUN .                     600:  Run Number 
 ROPA.m/hr               20.00:  ROP Avg 
 ROPN.m/hr               15.00:  ROP Min 
 ROPX.m/hr               22.00:  ROP Max 
 RPMA.rpm               120.00:  RPM Surface Avg 
 RPMN.rpm                90.00:  RPM Surface Min 
 RPMX.rpm               140.00:  RPM Surface Max 
 RRUN.                     600:  Rig Run Number 
 SAZI.deg               260.29:  Azm, Start 
 SDEP.m                4078.01:  Start Depth 
 SIDD.                      No:  Serv Intrp, DD 
 SINC.deg                58.89:  Inc, Start 
 SPPA.psig             4560.00:  SPP Avg 
 SPPN.psig             3600.00:  SPP Min 
 SPPX.psig             4800.00:  SPP Max 
 STIM.      10.20.48 13-Jul-20:  Start Time 
 SVCS.                 DD, MWD:  Services 
 SVER.                    9.20:  Sperry Version 
 TDAT.m                4378.01:  Tot Depth Attmp 
 TDDF.                      No:  Trip for DD 
 TDLG.m                 248.00:  Tot Depth Loggd 
 TFF .                      No:  Trip for Fail 
 TQAA.f-kp               18.00:  Torque Abs Avg 
 TQAN.f-kp               15.00:  Torque Abs Min 
 TQAX.f-kp               20.00:  Torque Abs Max 
 TRRT.°/30m               0.70:  Turn Rotating 
 MRT .                    HCIM:  Maximum Recorded Temperature 
 TTMX.degC               86.00:  Max Tool Temp 
 WBMN.klb                 3.00:  WOB Min 
 WOBA.klb                 5.00:  WOB Avg 
 WOBX.klb                 9.00:  WOB Max 
 YP  .lhf2               32.00:  Yield Point 
~Curve Information Block
#MNEM.UNIT                 API CODE     Curve Description
#---------               -----------    ---------------------------
 TIME.HHMMSS            00 000 000 000:  GT Time & Date
 GTDEPTH.m              00 000 000 000:  GT Depth
 GTPQH.psia             00 000 000 000:  GT HR Quartz Pressure
 GTTQ.degC              00 000 000 000:  GT Quartz Temperature
 GTTN.NONE              00 000 000 000:  GT Test Number
 GTET.sec               00 000 000 000:  GT Elapsed Test Time
 GTTVD.m                00 000 000 000:  GT True Vertical Depth
#Other Information
#
#WARRANTY: Halliburton will use its best efforts to furnish customers with 
#accurate information and interpretations that are part of, and incident to, the services 
#provided.  However, Halliburton cannot and does not warrant the accuracy 
#or correctness of such information and interpretations.  Under no circumstances should any 
#such information or interpretation be relied upon as the sole basis for any drilling, 
#completion, production, or financial decision or any procedure involving any risk to the 
#safety of any drilling venture, drilling rig or its crew or any other third party.  The 
#Customer has full responsibility for all drilling, completion and production operation.  
#Halliburton makes no representations or warranties, either expressed or 
#implied, including, but not limited to, the implied warranties of merchantability or fitness 
#for a particular purpose, with respect to the services rendered.  In no event will 
#Halliburton be liable for failure to obtain any particular results or for 
#any damages, including, but not limited to, indirect, special or consequential damages, 
#resulting from the use of any information or interpretation provided by Halliburton.
#
~A           TIME           GTDEPTH  GTPQH  GTTQ  GTTN  GTET   GTTVD  
# ...
   22:17:03.390.16-Jul-2020 4093.01 4639.82 76.39 8.00 253.10 2778.38
   22:17:03.590.16-Jul-2020 4093.01 4639.83 76.39 8.00 253.30 2778.38
   22:17:03.790.16-Jul-2020 4093.01 4640.12 76.39 8.00 253.50 2778.38
   22:17:03.991.16-Jul-2020 4093.01 4640.08 76.39 8.00 253.70 2778.38
   22:17:04.191.16-Jul-2020 4093.01 4640.02 76.39 8.00 253.90 2778.38
   22:17:04.391.16-Jul-2020 4093.01 4639.69 76.39 8.00 254.10 2778.38
   22:17:04.591.16-Jul-2020 4093.01 4639.88 76.39 8.00 254.30 2778.38
   22:17:04.791.16-Jul-2020 4093.01 4640.01 76.39 8.00 254.50 2778.38
   22:17:04.991.16-Jul-2020 4093.01 4639.93 76.39 8.00 254.70 2778.38
   22:17:05.191.16-Jul-2020 4093.01 4639.92 76.39 8.00 254.90 2778.38
   22:17:05.391.16-Jul-2020 4093.01 4640.12 76.39 8.00 255.10 2778.38
   22:17:05.591.16-Jul-2020 4093.01 4640.12 76.39 8.00 255.30 2778.38
   22:17:05.791.16-Jul-2020 4093.01 4639.88 76.39 8.00 255.50 2778.38
   22:17:05.991.16-Jul-2020 4093.01 4640.02 76.39 8.00 255.70 2778.38
   22:17:06.191.16-Jul-2020 4093.01 4639.62 76.39 8.00 255.90 2778.38
   22:17:06.391.16-Jul-2020 4093.01 4639.68 76.39 8.00 256.10 2778.38
   22:17:06.592.16-Jul-2020 4093.01 4639.99 76.39 8.00 256.30 2778.38
   22:17:06.792.16-Jul-2020 4093.01 4639.80 76.39 8.00 256.50 2778.38
   22:17:06.992.16-Jul-2020 4093.01 4640.27 76.39 8.00 256.70 2778.38
   22:17:07.192.16-Jul-2020 4093.01 4645.91 76.39 8.00 256.90 2778.38
   22:17:07.392.16-Jul-2020 4093.01 4652.52 76.39 8.00 257.10 2778.38
   22:17:07.592.16-Jul-2020 4093.01 4652.52 76.39 8.00 257.30 2778.38
   22:17:07.792.16-Jul-2020 4093.01 4652.61 76.39 8.00 257.50 2778.38
   22:17:07.992.16-Jul-2020 4093.01 4652.62 76.39 8.00 257.70 2778.38
   22:17:08.192.16-Jul-2020 4093.01 4652.63 76.39 8.00 257.90 2778.38
   22:17:08.392.16-Jul-2020 4093.01 4652.82 76.39 8.00 258.10 2778.38
   22:17:08.592.16-Jul-2020 4093.01 4652.82 76.39 8.00 258.30 2778.38
   22:17:08.792.16-Jul-2020 4093.01 4652.72 76.39 8.00 258.50 2778.38
   22:17:08.992.16-Jul-2020 4093.01 4652.73 76.39 8.00 258.70 2778.38
   22:17:09.192.16-Jul-2020 4093.01 4652.73 76.39 8.00 258.90 2778.38
   22:17:09.393.16-Jul-2020 4093.01 4652.74 76.39 8.00 259.10 2778.38
   22:17:09.593.16-Jul-2020 4093.01 4652.74 76.39 8.00 259.30 2778.38
   22:17:09.793.16-Jul-2020 4093.01 4652.74 76.39 8.00 259.50 2778.38
   22:17:09.993.16-Jul-2020 4093.01 4652.74 76.39 8.00 259.70 2778.38
   22:17:10.193.16-Jul-2020 4093.01 4652.75 76.39 8.00 259.90 2778.38
   22:17:10.393.16-Jul-2020 4093.01 4652.73 76.39 8.00 260.10 2778.38
   22:17:10.593.16-Jul-2020 4093.01 4652.73 76.39 8.00 260.30 2778.38
   22:17:10.793.16-Jul-2020 4093.01 4652.75 76.39 8.00 260.50 2778.38
   22:17:10.993.16-Jul-2020 4093.01 4652.85 76.39 8.00 260.70 2778.38
   22:17:11.193.16-Jul-2020 4093.01 4652.72 76.39 8.00 260.90 2778.38
   22:17:11.393.16-Jul-2020 4093.01 4652.77 76.39 8.00 261.10 2778.38
   22:17:11.593.16-Jul-2020 4093.01 4652.78 76.39 8.00 261.30 2778.38
   22:17:11.793.16-Jul-2020 4093.01 4652.75 76.39 8.00 261.50 2778.38
   22:17:11.994.16-Jul-2020 4093.01 4652.77 76.39 8.00 261.70 2778.38
   22:17:12.194.16-Jul-2020 4093.01 4652.77 76.39 8.00 261.90 2778.38
   22:17:12.394.16-Jul-2020 4093.01 4652.78 76.39 8.00 262.10 2778.38
   22:17:12.594.16-Jul-2020 4093.01 4652.78 76.39 8.00 262.30 2778.38
   22:17:12.794.16-Jul-2020 4093.01 4652.77 76.39 8.00 262.50 2778.38
   22:17:12.994.16-Jul-2020 4093.01 4652.77 76.39 8.00 262.70 2778.38
   22:17:13.194.16-Jul-2020 4093.01 4652.77 76.39 8.00 262.90 2778.38
   22:17:13.394.16-Jul-2020 4093.01 4652.79 76.39 8.00 263.10 2778.38
   22:17:13.594.16-Jul-2020 4093.01 4652.79 76.39 8.00 263.30 2778.38
   22:17:13.794.16-Jul-2020 4093.01 4652.77 76.39 8.00 263.50 2778.38
   22:17:13.994.16-Jul-2020 4093.01 4652.78 76.39 8.00 263.70 2778.38
   22:17:14.194.16-Jul-2020 4093.01 4652.88 76.39 8.00 263.90 2778.38
   22:17:14.394.16-Jul-2020 4093.01 4652.74 76.39 8.00 264.10 2778.38
   22:17:14.595.16-Jul-2020 4093.01 4652.74 76.39 8.00 264.30 2778.38
   22:17:14.795.16-Jul-2020 4093.01 4652.79 76.39 8.00 264.50 2778.38
   22:17:14.995.16-Jul-2020 4093.01 4652.86 76.39 8.00 264.70 2778.38
   22:17:15.195.16-Jul-2020 4093.01 4652.76 76.39 8.00 264.90 2778.38
   22:17:15.395.16-Jul-2020 4093.01 4652.77 76.39 8.00 265.10 2778.38
   22:17:15.595.16-Jul-2020 4093.01 4652.80 76.39 8.00 265.30 2778.38
   22:17:15.795.16-Jul-2020 4093.01 4652.74 76.39 8.00 265.50 2778.38
   22:17:15.995.16-Jul-2020 4093.01 4652.90 76.39 8.00 265.70 2778.38
   22:17:16.195.16-Jul-2020 4093.01 4652.77 76.39 8.00 265.90 2778.38
   22:17:16.395.16-Jul-2020 4093.01 4652.79 76.39 8.00 266.10 2778.38
   22:17:16.595.16-Jul-2020 4093.01 4652.79 76.39 8.00 266.30 2778.38
   22:17:16.795.16-Jul-2020 4093.01 4652.76 76.39 8.00 266.50 2778.38
   22:17:16.995.16-Jul-2020 4093.01 4652.79 76.39 8.00 266.70 2778.38
   22:17:17.196.16-Jul-2020 4093.01 4652.80 76.39 8.00 266.90 2778.38
   22:17:17.396.16-Jul-2020 4093.01 4652.78 76.39 8.00 267.10 2778.38
   22:17:17.596.16-Jul-2020 4093.01 4652.78 76.39 8.00 267.30 2778.38
   22:17:17.796.16-Jul-2020 4093.01 4652.80 76.39 8.00 267.50 2778.38
   22:17:17.996.16-Jul-2020 4093.01 4652.79 76.39 8.00 267.70 2778.38
   22:17:18.196.16-Jul-2020 4093.01 4652.80 76.39 8.00 267.90 2778.38
   22:17:18.396.16-Jul-2020 4093.01 4652.78 76.39 8.00 268.10 2778.38
   22:17:18.596.16-Jul-2020 4093.01 4652.80 76.39 8.00 268.30 2778.38
   22:17:18.796.16-Jul-2020 4093.01 4652.80 76.39 8.00 268.50 2778.38
   22:17:18.996.16-Jul-2020 4093.01 4652.80 76.39 8.00 268.70 2778.38
   22:17:19.196.16-Jul-2020 4093.01 4652.89 76.39 8.00 268.90 2778.38
   22:17:19.396.16-Jul-2020 4093.01 4652.74 76.39 8.00 269.10 2778.38
   22:17:19.596.16-Jul-2020 4093.01 4652.74 76.39 8.00 269.30 2778.38
   22:17:19.796.16-Jul-2020 4093.01 4652.81 76.39 8.00 269.50 2778.38
   22:17:19.997.16-Jul-2020 4093.01 4652.77 76.39 8.00 269.70 2778.38
   22:17:20.197.16-Jul-2020 4093.01 4652.82 76.39 8.00 269.90 2778.38
   22:17:20.397.16-Jul-2020 4093.01 4652.79 76.39 8.00 270.10 2778.38
   22:17:20.597.16-Jul-2020 4093.01 4652.80 76.39 8.00 270.30 2778.38
   22:17:20.797.16-Jul-2020 4093.01 4652.80 76.39 8.00 270.50 2778.38
   22:17:20.997.16-Jul-2020 4093.01 4652.80 76.39 8.00 270.70 2778.38
   22:17:21.197.16-Jul-2020 4093.01 4652.80 76.39 8.00 270.90 2778.38
   22:17:21.397.16-Jul-2020 4093.01 4652.80 76.39 8.00 271.10 2778.38
   22:17:21.597.16-Jul-2020 4093.01 4652.80 76.39 8.00 271.30 2778.38
   22:17:21.797.16-Jul-2020 4093.01 4652.81 76.39 8.00 271.50 2778.38
   22:17:21.997.16-Jul-2020 4093.01 4652.79 76.39 8.00 271.70 2778.38
   22:17:22.197.16-Jul-2020 4093.01 4652.79 76.39 8.00 271.90 2778.38
   22:17:22.397.16-Jul-2020 4093.01 4652.90 76.39 8.00 272.10 2778.38
   22:17:22.598.16-Jul-2020 4093.01 4652.90 76.39 8.00 272.30 2778.38
   22:17:22.798.16-Jul-2020 4093.01 4652.79 76.39 8.00 272.50 2778.38
   22:17:22.998.16-Jul-2020 4093.01 4652.81 76.39 8.00 272.70 2778.38
   22:17:23.198.16-Jul-2020 4093.01 4652.74 76.39 8.00 272.90 2778.38
   22:17:23.398.16-Jul-2020 4093.01 4652.91 76.39 8.00 273.10 2778.38
   22:17:23.598.16-Jul-2020 4093.01 4652.78 76.39 8.00 273.30 2778.38
   22:17:23.798.16-Jul-2020 4093.01 4652.79 76.39 8.00 273.50 2778.38
   22:17:23.998.16-Jul-2020 4093.01 4652.90 76.39 8.00 273.70 2778.38
   22:17:24.198.16-Jul-2020 4093.01 4652.75 76.39 8.00 273.90 2778.38
   22:17:24.398.16-Jul-2020 4093.01 4652.80 76.39 8.00 274.10 2778.38
   22:17:24.598.16-Jul-2020 4093.01 4652.81 76.39 8.00 274.30 2778.38
   22:17:24.798.16-Jul-2020 4093.01 4652.79 76.39 8.00 274.50 2778.38
   22:17:24.998.16-Jul-2020 4093.01 4652.80 76.39 8.00 274.70 2778.38
   22:17:25.199.16-Jul-2020 4093.01 4652.76 76.39 8.00 274.90 2778.38
   22:17:25.399.16-Jul-2020 4093.01 4652.91 76.39 8.00 275.10 2778.38
   22:17:25.599.16-Jul-2020 4093.01 4652.91 76.39 8.00 275.30 2778.38
   22:17:25.799.16-Jul-2020 4093.01 4652.80 76.39 8.00 275.50 2778.38
   22:17:25.999.16-Jul-2020 4093.01 4652.81 76.39 8.00 275.70 2778.38
   22:17:26.199.16-Jul-2020 4093.01 4652.80 76.39 8.00 275.90 2778.38
