~Version Information
 VERS.                  2.0:   CWLS log ASCII Standard -VERSION 2.0
 WRAP.                   NO:   One line per depth step
~Well Information Block
#MNEM.UNIT     VALUE/NAME     DESCRIPTION
#---------     -----------    ---------------------------
 STRT.S             21:08:23 16-Jul-20: START TIME 21:08:23 16-Jul-20
 STOP.S             21:15:15 16-Jul-20: STOP TIME  21:15:15 16-Jul-20
 STEP.S                   0.00: STEP TIME
 NULL.                 -999.25: NULL VALUE
 MDS .        Operator Entered:  MAG DATA SOURCE
 UNIT.                     N/A:  LOGGING EQUIPMENT ID
 DCON.         Sperry Drilling:  DIRECTNL CONTR
 DOE .                     N/A:  DOE NUMBER
 RIG .               EastAzeri:  RIG NAME
 JOBN.        AZ-XX-0906363297:  JOB TICKET NUMB
 MWDS.                    Baku:  MWD SHOP
 SRVC.     Turan Drilling & Engineering:  CONTRACTOR
 PROV.                    Baku:  PROVINCE
 STAT.                    Baku:  STATE NAME
 REGN.                   EESSA:  REGION
 BASE.              Azerbaijan:  LOGGING EQUIPMENT BASE LOCATION
 WTYP.                Deviated:  WELL TYPE
 UWI .                     N/A:  UNIQUE WELL IDENTIFIER
 API .                     N/A:  API NUMBER
 COMP.     BP Exploration (Caspian Sea) ltd.:  COMPANY
 WELL.                    D07z:  WELL NAME
 CTRY.              Azerbaijan:  COUNTRY NAME
 SON .        AZ-XX-0906363297:  JOB NUMBER
 FLD .                     ACG:  FIELD NAME
 PDAT.          Mean Sea Level:  PERMANENT DATUM
 FTOP.          Formation Tops:  FORM TOPS DESC
 ILTD.               Lithology:  INTERP LTH DESC
 SVYD.                  Survey:  SURVEY DESC
 DMOD.             Drill Model:  DRILL MOD DESC
 HPTY.       Minimum Curvature:  HOLE POS TYPE
 NREF.                    Grid:  NORTH REFERENCE
 SPUD.               28-Jun-20:  SPUD DATE
 DATE.      18.27.12 28-Jun-20:  END TIME
 STIM.      18.27.12 28-Jun-20:  START TIME
 DMF .             Drill Floor:  DRILL MEAS FROM
 DFST.                        :  DIST FSL TEXT
 DFWT.                        :  DIST FWL TEXT
 CNTY.                        :  COUNTY
 LOC .                        :  LOCATION
 LMF .             Drill Floor:  LOG MEASURED FROM
 VSNS.m                  -7.75:  VERT SEC N/S
 VSEW.m                  -9.19:  VERT SEC E/W
 MMDE.m                   0.00:  MAGUTM CALC DEP
 AGAP.m                  43.60:  AIR GAP
 DEP .m                4058.99:  DEPTH
 APD .m                  43.60:  DEPTH ABOVE PD
 WDMS.m                 151.80:  WD ELEV
 EGL .m                   0.00:  GROUND ELEVATION
 EPD .m                   0.00:  ELEVATION
 AZTC.deg                 6.19:  AZM TOTAL CORR
 GRDC.deg                 0.27:  GRID CORRECTION
 MDEC.deg                 6.46:  MAGNETIC DECL
 MDIP.deg                59.47:  MAGNETIC DIP
 MFLD.nT              50279.00:  MAGNETIC FIELD
 GVFD.g                   1.00:  GRAVITY FIELD
 VSDR.deg               249.96:  VERT SEC DIRECT
 TDD .m                   0.00:  TOTAL DEPTH (DRILLER)
 SDEP.m                   0.00:  START DEPTH
 DFSL.m                   0.00:  DISTANCE FSL
 DFWL.m                   0.00:  DISTANCE FWL
 UTMY.m             4431880.20:  UTM Y
 UTMX.m              538763.98:  UTM X
 WHEW.m                  -9.19:  WELL HEAD E/W
 WHNS.m                  -7.75:  WELL HEAD N/S
 LONG.deg                51.45:  LONGITUDE
 LATI.deg                40.02:  LATITUDE
 TVDS.m                  43.60:  TVDSS CORRECTN
 EKB .m                  43.60:  KB ELEVATION
 EDF .m                  43.60:  DF ELEVATION
 TDL .m                 248.00:  TOTAL DEPTH (LOGGER)
 MAGU.                 1849075:  MAGUTM CHECKSUM
 VSC .                       0:  VS TO CLOSURE
~Parameter Information Block
#MNEM.UNIT       Value        Description
#---------     -----------    ---------------------------
 AV  .mps                 6.34:  Ann Velocity 
 AVMX.mps                 7.00:  Max Ann Veloc 
 AZIF.deg               260.29:  Azm, Final 
 BHAT.        Rotary Steerable:  BHA Type 
 BROT.°/30m               1.20:  Build Rotating 
 BS  .in                  8.50:  Bit Size 
 BSZ .in                  8.50:  Bit Size 
 BTPL.psig              620.00:  Bit Press Loss 
 CABU.                     Yes:  Customer Abuse 
 COMM.                     Äá„:  Run Comments 1 
 TCS .hr                 56.22:  Time Ciculation Ended 
 CV  .mps                 3.05:  Crit Velocity 
 CVMX.mps                 3.20:  Max Crit Veloc 
 DD1 .            Musa Ahmadov:  Direct Drillr 1 
 DDSV.                 iCruise:  DD Service 
 DEFF.%                  98.00:  % Det Eff 
 DLRX.°/30m               2.78:  Dogleg Rot Max 
 DLSO.°/30m               0.00:  Dogleg Oriented 
 DLSX.°/30m               0.00:  Dogleg Str Max 
 DRET.      05.20.48 16-Jul-20:  Drill End Time 
 DRST.      10.20.48 13-Jul-20:  Drill Start Tim 
 DTIM.hr                 14.25:  Time Drilling 
 EDEP.m                4326.01:  End Depth 
 ENG1.      Artemiy Matviyanov:  Engineer 1 
 ENG2.           Amrah Tahirov:  Engineer 2 
 ETIM.      22.30.00 18-Jul-20:  End Time 
 FLOI.gpm               550.00:  Flow In 
 FLON.gpm               450.00:  Flow In Min 
 FLOS.cptm                0.00:  Fluid Loss 
 FLOX.gpm               600.00:  Flow In Max 
 HFLO.                      No:  High Flow 
 HPRE.                      No:  High Pressure 
 HTEM.                      No:  High Temp 
 HYDO.m                   1.80:  Hydro Offset 
 IFIN.deg                65.41:  Inc, Final 
 IMAX.deg                65.14:  Inc Max 
 IMIN.deg                58.89:  Inc Min 
 IMND.m                4104.92:  Inc Min Depth 
 IMXD.m                4303.89:  Inc Max Depth 
 JARR.                      No:  Jarring 
 LETM.      10.20.48 17-Jul-20:  Log End Time 
 LOST.hr                     0:  Lost Rig Time 
 LSTM.      10.20.48 13-Jul-20:  Log Start Time 
 MDCL.ppm             37000.00:  Mud Chlorides 
 MDES.     Inversion Oil/Synthetic:  Mud Desc 
 DFD .sg                  1.52:  Mud Density 
 MDMN.sg                  1.52:  Dens Mud Min 
 MDMX.sg                  1.52:  Dens Mud Max 
 MOIL.                   52.70:  Run Mud Oil % 
 MOWR.                   68:32:  Run Mud OWR 
 MSND.                     0.2:  Run Mud Sand % 
 MSOL.                    21.6:  Run Mud Solids% 
 DFV .spqt               79.00:  Mud Viscosity 
 MWOD.in                  6.75:  MWD Tool OD 
 MWSI.                      No:  Serv Intrp, MWD 
 OTIM.hr                114.04:  Time Operating 
 PCON.          Wear / Scratch:  Pad Condition 
 PMAX.psia            11782.92:  Press Op, Max 
 PV  .cP                 49.00:  Mud PV 
 RUN .                     600:  Run Number 
 ROPA.m/hr               20.00:  ROP Avg 
 ROPN.m/hr               15.00:  ROP Min 
 ROPX.m/hr               22.00:  ROP Max 
 RPMA.rpm               120.00:  RPM Surface Avg 
 RPMN.rpm                90.00:  RPM Surface Min 
 RPMX.rpm               140.00:  RPM Surface Max 
 RRUN.                     600:  Rig Run Number 
 SAZI.deg               260.29:  Azm, Start 
 SDEP.m                4078.01:  Start Depth 
 SIDD.                      No:  Serv Intrp, DD 
 SINC.deg                58.89:  Inc, Start 
 SPPA.psig             4560.00:  SPP Avg 
 SPPN.psig             3600.00:  SPP Min 
 SPPX.psig             4800.00:  SPP Max 
 STIM.      10.20.48 13-Jul-20:  Start Time 
 SVCS.                 DD, MWD:  Services 
 SVER.                    9.20:  Sperry Version 
 TDAT.m                4378.01:  Tot Depth Attmp 
 TDDF.                      No:  Trip for DD 
 TDLG.m                 248.00:  Tot Depth Loggd 
 TFF .                      No:  Trip for Fail 
 TQAA.f-kp               18.00:  Torque Abs Avg 
 TQAN.f-kp               15.00:  Torque Abs Min 
 TQAX.f-kp               20.00:  Torque Abs Max 
 TRRT.°/30m               0.70:  Turn Rotating 
 MRT .                    HCIM:  Maximum Recorded Temperature 
 TTMX.degC               86.00:  Max Tool Temp 
 WBMN.klb                 3.00:  WOB Min 
 WOBA.klb                 5.00:  WOB Avg 
 WOBX.klb                 9.00:  WOB Max 
 YP  .lhf2               32.00:  Yield Point 
~Curve Information Block
#MNEM.UNIT                 API CODE     Curve Description
#---------               -----------    ---------------------------
 TIME.HHMMSS            00 000 000 000:  GT Time & Date
 GTDEPTH.m              00 000 000 000:  GT Depth
 GTPQH.psia             00 000 000 000:  GT HR Quartz Pressure
 GTTQ.degC              00 000 000 000:  GT Quartz Temperature
 GTTN.NONE              00 000 000 000:  GT Test Number
 GTET.sec               00 000 000 000:  GT Elapsed Test Time
 GTTVD.m                00 000 000 000:  GT True Vertical Depth
#Other Information
#
#WARRANTY: Halliburton will use its best efforts to furnish customers with 
#accurate information and interpretations that are part of, and incident to, the services 
#provided.  However, Halliburton cannot and does not warrant the accuracy 
#or correctness of such information and interpretations.  Under no circumstances should any 
#such information or interpretation be relied upon as the sole basis for any drilling, 
#completion, production, or financial decision or any procedure involving any risk to the 
#safety of any drilling venture, drilling rig or its crew or any other third party.  The 
#Customer has full responsibility for all drilling, completion and production operation.  
#Halliburton makes no representations or warranties, either expressed or 
#implied, including, but not limited to, the implied warranties of merchantability or fitness 
#for a particular purpose, with respect to the services rendered.  In no event will 
#Halliburton be liable for failure to obtain any particular results or for 
#any damages, including, but not limited to, indirect, special or consequential damages, 
#resulting from the use of any information or interpretation provided by Halliburton.
#
~A           TIME           GTDEPTH  GTPQH  GTTQ  GTTN  GTET   GTTVD  
# ...
   21:08:46.030.16-Jul-2020 4135.51 6879.77 77.21 7.00  23.01 2799.87
   21:08:46.230.16-Jul-2020 4135.51 6880.65 77.21 7.00  23.21 2799.87
   21:08:46.430.16-Jul-2020 4135.51 6887.43 77.21 7.00  23.41 2799.87
   21:08:46.630.16-Jul-2020 4135.51 6881.16 77.21 7.00  23.61 2799.87
   21:08:46.831.16-Jul-2020 4135.51 6880.37 77.21 7.00  23.81 2799.87
   21:08:47.031.16-Jul-2020 4135.51 6882.99 77.21 7.00  24.01 2799.87
   21:08:47.231.16-Jul-2020 4135.51 6882.99 77.21 7.00  24.21 2799.87
   21:08:47.431.16-Jul-2020 4135.51 6881.79 77.20 7.00  24.41 2799.87
   21:08:47.631.16-Jul-2020 4135.51 6890.72 77.20 7.00  24.61 2799.87
   21:08:47.831.16-Jul-2020 4135.51 6881.29 77.20 7.00  24.81 2799.87
   21:08:48.031.16-Jul-2020 4135.51 6883.33 77.20 7.00  25.01 2799.87
   21:08:48.231.16-Jul-2020 4135.51 6883.33 77.20 7.00  25.21 2799.87
   21:08:48.431.16-Jul-2020 4135.51 6882.96 77.20 7.00  25.41 2799.87
   21:08:48.632.16-Jul-2020 4135.51 6892.23 77.20 7.00  25.61 2799.87
   21:08:48.832.16-Jul-2020 4135.51 6882.30 77.20 7.00  25.81 2799.87
   21:08:49.032.16-Jul-2020 4135.51 6884.60 77.20 7.00  26.01 2799.87
   21:08:49.232.16-Jul-2020 4135.51 6884.60 77.20 7.00  26.21 2799.87
   21:08:49.432.16-Jul-2020 4135.51 6885.81 77.20 7.00  26.41 2799.87
   21:08:49.632.16-Jul-2020 4135.51 6885.91 77.20 7.00  26.62 2799.87
   21:08:49.832.16-Jul-2020 4135.51 6884.96 77.20 7.00  26.82 2799.87
   21:08:50.032.16-Jul-2020 4135.51 6884.85 77.20 7.00  27.02 2799.87
   21:08:50.233.16-Jul-2020 4135.51 6884.85 77.20 7.00  27.22 2799.87
   21:08:50.433.16-Jul-2020 4135.51 6885.62 77.20 7.00  27.42 2799.87
   21:08:50.633.16-Jul-2020 4135.51 6884.98 77.20 7.00  27.62 2799.87
   21:08:50.833.16-Jul-2020 4135.51 6885.99 77.20 7.00  27.82 2799.87
   21:08:51.033.16-Jul-2020 4135.51 6884.56 77.20 7.00  28.02 2799.87
   21:08:51.233.16-Jul-2020 4135.51 6884.56 77.20 7.00  28.22 2799.87
   21:08:51.433.16-Jul-2020 4135.51 6899.52 77.20 7.00  28.42 2799.87
   21:08:51.633.16-Jul-2020 4135.51 6880.81 77.20 7.00  28.62 2799.87
   21:08:51.833.16-Jul-2020 4135.51 6886.22 77.20 7.00  28.82 2799.87
   21:08:52.034.16-Jul-2020 4135.51 6887.23 77.20 7.00  29.02 2799.87
   21:08:52.234.16-Jul-2020 4135.51 6887.23 77.20 7.00  29.22 2799.87
   21:08:52.434.16-Jul-2020 4135.51 6886.73 77.20 7.00  29.42 2799.87
   21:08:52.634.16-Jul-2020 4135.51 6887.30 77.20 7.00  29.62 2799.87
   21:08:52.834.16-Jul-2020 4135.51 6885.60 77.20 7.00  29.82 2799.87
   21:08:53.034.16-Jul-2020 4135.51 6887.32 77.20 7.00  30.02 2799.87
   21:08:53.234.16-Jul-2020 4135.51 6887.32 77.20 7.00  30.22 2799.87
   21:08:53.434.16-Jul-2020 4135.51 6887.24 77.20 7.00  30.42 2799.87
   21:08:53.634.16-Jul-2020 4135.51 6887.50 77.20 7.00  30.62 2799.87
   21:08:53.835.16-Jul-2020 4135.51 6886.60 77.20 7.00  30.82 2799.87
   21:08:54.035.16-Jul-2020 4135.51 6887.79 77.20 7.00  31.02 2799.87
   21:08:54.235.16-Jul-2020 4135.51 6886.26 77.20 7.00  31.22 2799.87
   21:08:54.435.16-Jul-2020 4135.51 6888.41 77.20 7.00  31.42 2799.87
   21:08:54.635.16-Jul-2020 4135.51 6902.02 77.20 7.00  31.62 2799.87
   21:08:54.835.16-Jul-2020 4135.51 6883.66 77.20 7.00  31.82 2799.87
   21:08:55.035.16-Jul-2020 4135.51 6888.94 77.20 7.00  32.02 2799.87
   21:08:55.235.16-Jul-2020 4135.51 6888.94 77.20 7.00  32.22 2799.87
   21:08:55.435.16-Jul-2020 4135.51 6888.13 77.20 7.00  32.42 2799.87
   21:08:55.636.16-Jul-2020 4135.51 6889.98 77.20 7.00  32.62 2799.87
   21:08:55.836.16-Jul-2020 4135.51 6898.20 77.20 7.00  32.82 2799.87
   21:08:56.036.16-Jul-2020 4135.51 6889.12 77.20 7.00  33.02 2799.87
   21:08:56.236.16-Jul-2020 4135.51 6889.12 77.20 7.00  33.22 2799.87
   21:08:56.436.16-Jul-2020 4135.51 7235.19 77.20 7.00  33.42 2799.87
   21:08:56.636.16-Jul-2020 4135.51 7238.05 77.20 7.00  33.62 2799.87
   21:08:56.836.16-Jul-2020 4135.51 7207.36 77.20 7.00  33.82 2799.87
   21:08:57.036.16-Jul-2020 4135.51 7199.79 77.20 7.00  34.02 2799.87
   21:08:57.236.16-Jul-2020 4135.51 7199.79 77.20 7.00  34.22 2799.87
   21:08:57.437.16-Jul-2020 4135.51 7062.89 77.20 7.00  34.42 2799.87
   21:08:57.637.16-Jul-2020 4135.51 7010.92 77.20 7.00  34.62 2799.87
   21:08:57.837.16-Jul-2020 4135.51 6963.08 77.20 7.00  34.82 2799.87
   21:08:58.037.16-Jul-2020 4135.51 6920.49 77.20 7.00  35.02 2799.87
   21:08:58.237.16-Jul-2020 4135.51 6894.00 77.20 7.00  35.22 2799.87
   21:08:58.437.16-Jul-2020 4135.51 6879.60 77.20 7.00  35.42 2799.87
   21:08:58.637.16-Jul-2020 4135.51 6869.63 77.20 7.00  35.62 2799.87
   21:08:58.837.16-Jul-2020 4135.51 6863.87 77.20 7.00  35.82 2799.87
   21:08:59.038.16-Jul-2020 4135.51 6863.87 77.20 7.00  36.02 2799.87
   21:08:59.238.16-Jul-2020 4135.51 6859.05 77.20 7.00  36.22 2799.87
   21:08:59.438.16-Jul-2020 4135.51 6859.05 77.20 7.00  36.42 2799.87
   21:08:59.638.16-Jul-2020 4135.51 6848.53 77.20 7.00  36.62 2799.87
   21:08:59.838.16-Jul-2020 4135.51 6845.58 77.20 7.00  36.82 2799.87
   21:09:00.038.16-Jul-2020 4135.51 6841.57 77.20 7.00  37.02 2799.87
   21:09:00.238.16-Jul-2020 4135.51 6841.57 77.20 7.00  37.22 2799.87
   21:09:00.438.16-Jul-2020 4135.51 6831.77 77.20 7.00  37.42 2799.87
   21:09:00.638.16-Jul-2020 4135.51 6826.92 77.20 7.00  37.62 2799.87
   21:09:00.839.16-Jul-2020 4135.51 6824.07 77.20 7.00  37.82 2799.87
   21:09:01.039.16-Jul-2020 4135.51 6820.58 77.20 7.00  38.02 2799.87
   21:09:01.239.16-Jul-2020 4135.51 6820.58 77.20 7.00  38.22 2799.87
   21:09:01.439.16-Jul-2020 4135.51 6817.38 77.20 7.00  38.42 2799.87
   21:09:01.639.16-Jul-2020 4135.51 6743.55 77.20 7.00  38.62 2799.87
   21:09:01.839.16-Jul-2020 4135.51 6124.39 77.20 7.00  38.82 2799.87
   21:09:02.039.16-Jul-2020 4135.51 5122.05 77.19 7.00  39.02 2799.87
   21:09:02.239.16-Jul-2020 4135.51 4700.58 77.19 7.00  39.22 2799.87
   21:09:02.439.16-Jul-2020 4135.51 4674.10 77.19 7.00  39.42 2799.87
   21:09:02.640.16-Jul-2020 4135.51 4645.84 77.19 7.00  39.62 2799.87
   21:09:02.840.16-Jul-2020 4135.51 4615.33 77.19 7.00  39.82 2799.87
   21:09:03.040.16-Jul-2020 4135.51 4598.42 77.19 7.00  40.02 2799.87
   21:09:03.240.16-Jul-2020 4135.51 4598.42 77.19 7.00  40.22 2799.87
   21:09:03.440.16-Jul-2020 4135.51 4631.08 77.19 7.00  40.42 2799.87
   21:09:03.640.16-Jul-2020 4135.51 4622.55 77.18 7.00  40.62 2799.87
   21:09:03.840.16-Jul-2020 4135.51 4598.49 77.18 7.00  40.82 2799.87
   21:09:04.040.16-Jul-2020 4135.51 4599.62 77.18 7.00  41.02 2799.87
   21:09:04.240.16-Jul-2020 4135.51 4599.62 77.18 7.00  41.22 2799.87
   21:09:04.441.16-Jul-2020 4135.51 4607.61 77.17 7.00  41.42 2799.87
   21:09:04.641.16-Jul-2020 4135.51 4624.52 77.17 7.00  41.62 2799.87
   21:09:04.841.16-Jul-2020 4135.51 4623.47 77.17 7.00  41.82 2799.87
   21:09:05.041.16-Jul-2020 4135.51 4607.52 77.17 7.00  42.02 2799.87
   21:09:05.241.16-Jul-2020 4135.51 4607.52 77.17 7.00  42.22 2799.87
   21:09:05.441.16-Jul-2020 4135.51 4599.25 77.16 7.00  42.42 2799.87
   21:09:05.641.16-Jul-2020 4135.51 4599.29 77.16 7.00  42.62 2799.87
   21:09:05.841.16-Jul-2020 4135.51 4595.73 77.16 7.00  42.82 2799.87
   21:09:06.041.16-Jul-2020 4135.51 4595.50 77.15 7.00  43.02 2799.87
   21:09:06.242.16-Jul-2020 4135.51 4621.00 77.15 7.00  43.22 2799.87
   21:09:06.442.16-Jul-2020 4135.51 4597.68 77.15 7.00  43.42 2799.87
   21:09:06.642.16-Jul-2020 4135.51 4617.49 77.15 7.00  43.62 2799.87
   21:09:06.842.16-Jul-2020 4135.51 4613.96 77.14 7.00  43.82 2799.87
   21:09:07.042.16-Jul-2020 4135.51 4602.82 77.14 7.00  44.02 2799.87
   21:09:07.242.16-Jul-2020 4135.51 4602.82 77.14 7.00  44.23 2799.87
   21:09:07.442.16-Jul-2020 4135.51 4609.76 77.14 7.00  44.43 2799.87
   21:09:07.642.16-Jul-2020 4135.51 4607.56 77.13 7.00  44.63 2799.87
   21:09:07.842.16-Jul-2020 4135.51 4618.33 77.13 7.00  44.83 2799.87
   21:09:08.043.16-Jul-2020 4135.51 4597.18 77.13 7.00  45.03 2799.87
   21:09:08.243.16-Jul-2020 4135.51 4597.18 77.13 7.00  45.23 2799.87
   21:09:08.443.16-Jul-2020 4135.51 4637.84 77.13 7.00  45.43 2799.87
   21:09:08.643.16-Jul-2020 4135.51 4638.10 77.13 7.00  45.63 2799.87
   21:09:08.843.16-Jul-2020 4135.51 4639.94 77.12 7.00  45.83 2799.87
