~Version Information
 VERS.                  2.0:   CWLS log ASCII Standard -VERSION 2.0
 WRAP.                   NO:   One line per depth step
~Well Information Block
#MNEM.UNIT     VALUE/NAME     DESCRIPTION
#---------     -----------    ---------------------------
 STRT.S             22:12:50 16-Jul-20: START TIME 22:12:50 16-Jul-20
 STOP.S             22:19:40 16-Jul-20: STOP TIME  22:19:40 16-Jul-20
 STEP.S                   0.00: STEP TIME
 NULL.                 -999.25: NULL VALUE
 MDS .        Operator Entered:  MAG DATA SOURCE
 UNIT.                     N/A:  LOGGING EQUIPMENT ID
 DCON.         Sperry Drilling:  DIRECTNL CONTR
 DOE .                     N/A:  DOE NUMBER
 RIG .               EastAzeri:  RIG NAME
 JOBN.        AZ-XX-0906363297:  JOB TICKET NUMB
 MWDS.                    Baku:  MWD SHOP
 SRVC.     Turan Drilling & Engineering:  CONTRACTOR
 PROV.                    Baku:  PROVINCE
 STAT.                    Baku:  STATE NAME
 REGN.                   EESSA:  REGION
 BASE.              Azerbaijan:  LOGGING EQUIPMENT BASE LOCATION
 WTYP.                Deviated:  WELL TYPE
 UWI .                     N/A:  UNIQUE WELL IDENTIFIER
 API .                     N/A:  API NUMBER
 COMP.     BP Exploration (Caspian Sea) ltd.:  COMPANY
 WELL.                    D07z:  WELL NAME
 CTRY.              Azerbaijan:  COUNTRY NAME
 SON .        AZ-XX-0906363297:  JOB NUMBER
 FLD .                     ACG:  FIELD NAME
 PDAT.          Mean Sea Level:  PERMANENT DATUM
 FTOP.          Formation Tops:  FORM TOPS DESC
 ILTD.               Lithology:  INTERP LTH DESC
 SVYD.                  Survey:  SURVEY DESC
 DMOD.             Drill Model:  DRILL MOD DESC
 HPTY.       Minimum Curvature:  HOLE POS TYPE
 NREF.                    Grid:  NORTH REFERENCE
 SPUD.               28-Jun-20:  SPUD DATE
 DATE.      18.27.12 28-Jun-20:  END TIME
 STIM.      18.27.12 28-Jun-20:  START TIME
 DMF .             Drill Floor:  DRILL MEAS FROM
 DFST.                        :  DIST FSL TEXT
 DFWT.                        :  DIST FWL TEXT
 CNTY.                        :  COUNTY
 LOC .                        :  LOCATION
 LMF .             Drill Floor:  LOG MEASURED FROM
 VSNS.m                  -7.75:  VERT SEC N/S
 VSEW.m                  -9.19:  VERT SEC E/W
 MMDE.m                   0.00:  MAGUTM CALC DEP
 AGAP.m                  43.60:  AIR GAP
 DEP .m                4058.99:  DEPTH
 APD .m                  43.60:  DEPTH ABOVE PD
 WDMS.m                 151.80:  WD ELEV
 EGL .m                   0.00:  GROUND ELEVATION
 EPD .m                   0.00:  ELEVATION
 AZTC.deg                 6.19:  AZM TOTAL CORR
 GRDC.deg                 0.27:  GRID CORRECTION
 MDEC.deg                 6.46:  MAGNETIC DECL
 MDIP.deg                59.47:  MAGNETIC DIP
 MFLD.nT              50279.00:  MAGNETIC FIELD
 GVFD.g                   1.00:  GRAVITY FIELD
 VSDR.deg               249.96:  VERT SEC DIRECT
 TDD .m                   0.00:  TOTAL DEPTH (DRILLER)
 SDEP.m                   0.00:  START DEPTH
 DFSL.m                   0.00:  DISTANCE FSL
 DFWL.m                   0.00:  DISTANCE FWL
 UTMY.m             4431880.20:  UTM Y
 UTMX.m              538763.98:  UTM X
 WHEW.m                  -9.19:  WELL HEAD E/W
 WHNS.m                  -7.75:  WELL HEAD N/S
 LONG.deg                51.45:  LONGITUDE
 LATI.deg                40.02:  LATITUDE
 TVDS.m                  43.60:  TVDSS CORRECTN
 EKB .m                  43.60:  KB ELEVATION
 EDF .m                  43.60:  DF ELEVATION
 TDL .m                 248.00:  TOTAL DEPTH (LOGGER)
 MAGU.                 1849075:  MAGUTM CHECKSUM
 VSC .                       0:  VS TO CLOSURE
~Parameter Information Block
#MNEM.UNIT       Value        Description
#---------     -----------    ---------------------------
 AV  .mps                 6.34:  Ann Velocity 
 AVMX.mps                 7.00:  Max Ann Veloc 
 AZIF.deg               260.29:  Azm, Final 
 BHAT.        Rotary Steerable:  BHA Type 
 BROT.°/30m               1.20:  Build Rotating 
 BS  .in                  8.50:  Bit Size 
 BSZ .in                  8.50:  Bit Size 
 BTPL.psig              620.00:  Bit Press Loss 
 CABU.                     Yes:  Customer Abuse 
 TCS .hr                 56.22:  Time Ciculation Ended 
 CV  .mps                 3.05:  Crit Velocity 
 CVMX.mps                 3.20:  Max Crit Veloc 
 DD1 .            Musa Ahmadov:  Direct Drillr 1 
 DDSV.                 iCruise:  DD Service 
 DEFF.%                  98.00:  % Det Eff 
 DLRX.°/30m               2.78:  Dogleg Rot Max 
 DLSO.°/30m               0.00:  Dogleg Oriented 
 DLSX.°/30m               0.00:  Dogleg Str Max 
 DRET.      05.20.48 16-Jul-20:  Drill End Time 
 DRST.      10.20.48 13-Jul-20:  Drill Start Tim 
 DTIM.hr                 14.25:  Time Drilling 
 EDEP.m                4326.01:  End Depth 
 ENG1.      Artemiy Matviyanov:  Engineer 1 
 ENG2.           Amrah Tahirov:  Engineer 2 
 ETIM.      22.30.00 18-Jul-20:  End Time 
 FLOI.gpm               550.00:  Flow In 
 FLON.gpm               450.00:  Flow In Min 
 FLOS.cptm                0.00:  Fluid Loss 
 FLOX.gpm               600.00:  Flow In Max 
 HFLO.                      No:  High Flow 
 HPRE.                      No:  High Pressure 
 HTEM.                      No:  High Temp 
 HYDO.m                   1.80:  Hydro Offset 
 IFIN.deg                65.41:  Inc, Final 
 IMAX.deg                65.14:  Inc Max 
 IMIN.deg                58.89:  Inc Min 
 IMND.m                4104.92:  Inc Min Depth 
 IMXD.m                4303.89:  Inc Max Depth 
 JARR.                      No:  Jarring 
 LETM.      10.20.48 17-Jul-20:  Log End Time 
 LOST.hr                     0:  Lost Rig Time 
 LSTM.      10.20.48 13-Jul-20:  Log Start Time 
 MDCL.ppm             37000.00:  Mud Chlorides 
 MDES.     Inversion Oil/Synthetic:  Mud Desc 
 DFD .sg                  1.52:  Mud Density 
 MDMN.sg                  1.52:  Dens Mud Min 
 MDMX.sg                  1.52:  Dens Mud Max 
 MOIL.                   52.70:  Run Mud Oil % 
 MOWR.                   68:32:  Run Mud OWR 
 MSND.                     0.2:  Run Mud Sand % 
 MSOL.                    21.6:  Run Mud Solids% 
 DFV .spqt               79.00:  Mud Viscosity 
 MWOD.in                  6.75:  MWD Tool OD 
 MWSI.                      No:  Serv Intrp, MWD 
 OTIM.hr                114.04:  Time Operating 
 PCON.          Wear / Scratch:  Pad Condition 
 PMAX.psia            11782.92:  Press Op, Max 
 PV  .cP                 49.00:  Mud PV 
 RUN .                     600:  Run Number 
 ROPA.m/hr               20.00:  ROP Avg 
 ROPN.m/hr               15.00:  ROP Min 
 ROPX.m/hr               22.00:  ROP Max 
 RPMA.rpm               120.00:  RPM Surface Avg 
 RPMN.rpm                90.00:  RPM Surface Min 
 RPMX.rpm               140.00:  RPM Surface Max 
 RRUN.                     600:  Rig Run Number 
 SAZI.deg               260.29:  Azm, Start 
 SDEP.m                4078.01:  Start Depth 
 SIDD.                      No:  Serv Intrp, DD 
 SINC.deg                58.89:  Inc, Start 
 SPPA.psig             4560.00:  SPP Avg 
 SPPN.psig             3600.00:  SPP Min 
 SPPX.psig             4800.00:  SPP Max 
 STIM.      10.20.48 13-Jul-20:  Start Time 
 SVCS.                 DD, MWD:  Services 
 SVER.                    9.20:  Sperry Version 
 TDAT.m                4378.01:  Tot Depth Attmp 
 TDDF.                      No:  Trip for DD 
 TDLG.m                 248.00:  Tot Depth Loggd 
 TFF .                      No:  Trip for Fail 
 TQAA.f-kp               18.00:  Torque Abs Avg 
 TQAN.f-kp               15.00:  Torque Abs Min 
 TQAX.f-kp               20.00:  Torque Abs Max 
 TRRT.°/30m               0.70:  Turn Rotating 
 MRT .                    HCIM:  Maximum Recorded Temperature 
 TTMX.degC               86.00:  Max Tool Temp 
 WBMN.klb                 3.00:  WOB Min 
 WOBA.klb                 5.00:  WOB Avg 
 WOBX.klb                 9.00:  WOB Max 
 YP  .lhf2               32.00:  Yield Point 
~Curve Information Block
#MNEM.UNIT                 API CODE     Curve Description
#---------               -----------    ---------------------------
 TIME.HHMMSS            00 000 000 000:  GT Time & Date
 GTDEPTH.m              00 000 000 000:  GT Depth
 GTPQH.psia             00 000 000 000:  GT HR Quartz Pressure
 GTTQ.degC              00 000 000 000:  GT Quartz Temperature
 GTTN.NONE              00 000 000 000:  GT Test Number
 GTET.sec               00 000 000 000:  GT Elapsed Test Time
 GTTVD.m                00 000 000 000:  GT True Vertical Depth
#Other Information
#
#WARRANTY: Halliburton will use its best efforts to furnish customers with 
#accurate information and interpretations that are part of, and incident to, the services 
#provided.  However, Halliburton cannot and does not warrant the accuracy 
#or correctness of such information and interpretations.  Under no circumstances should any 
#such information or interpretation be relied upon as the sole basis for any drilling, 
#completion, production, or financial decision or any procedure involving any risk to the 
#safety of any drilling venture, drilling rig or its crew or any other third party.  The 
#Customer has full responsibility for all drilling, completion and production operation.  
#Halliburton makes no representations or warranties, either expressed or 
#implied, including, but not limited to, the implied warranties of merchantability or fitness 
#for a particular purpose, with respect to the services rendered.  In no event will 
#Halliburton be liable for failure to obtain any particular results or for 
#any damages, including, but not limited to, indirect, special or consequential damages, 
#resulting from the use of any information or interpretation provided by Halliburton.
#
~A           TIME           GTDEPTH  GTPQH  GTTQ  GTTN  GTET   GTTVD  
# ...
   22:16:40.382.16-Jul-2020 4093.01 4652.83 76.39 8.00 230.09 2778.38
   22:16:40.582.16-Jul-2020 4093.01 4652.83 76.39 8.00 230.29 2778.38
   22:16:40.782.16-Jul-2020 4093.01 4652.95 76.39 8.00 230.49 2778.38
   22:16:40.982.16-Jul-2020 4093.01 4652.81 76.39 8.00 230.69 2778.38
   22:16:41.182.16-Jul-2020 4093.01 4652.85 76.39 8.00 230.89 2778.38
   22:16:41.382.16-Jul-2020 4093.01 4652.86 76.39 8.00 231.09 2778.38
   22:16:41.582.16-Jul-2020 4093.01 4652.86 76.39 8.00 231.29 2778.38
   22:16:41.782.16-Jul-2020 4093.01 4652.85 76.39 8.00 231.49 2778.38
   22:16:41.982.16-Jul-2020 4093.01 4652.82 76.39 8.00 231.69 2778.38
   22:16:42.182.16-Jul-2020 4093.01 4652.94 76.39 8.00 231.89 2778.38
   22:16:42.382.16-Jul-2020 4093.01 4652.84 76.39 8.00 232.09 2778.38
   22:16:42.582.16-Jul-2020 4093.01 4652.84 76.39 8.00 232.29 2778.38
   22:16:42.783.16-Jul-2020 4093.01 4652.86 76.39 8.00 232.49 2778.38
   22:16:42.983.16-Jul-2020 4093.01 4652.85 76.39 8.00 232.69 2778.38
   22:16:43.183.16-Jul-2020 4093.01 4652.86 76.39 8.00 232.89 2778.38
   22:16:43.383.16-Jul-2020 4093.01 4652.84 76.39 8.00 233.09 2778.38
   22:16:43.583.16-Jul-2020 4093.01 4652.84 76.39 8.00 233.29 2778.38
   22:16:43.783.16-Jul-2020 4093.01 4652.86 76.39 8.00 233.49 2778.38
   22:16:43.983.16-Jul-2020 4093.01 4652.86 76.39 8.00 233.69 2778.38
   22:16:44.183.16-Jul-2020 4093.01 4652.84 76.39 8.00 233.89 2778.38
   22:16:44.383.16-Jul-2020 4093.01 4652.85 76.39 8.00 234.09 2778.38
   22:16:44.583.16-Jul-2020 4093.01 4652.86 76.39 8.00 234.29 2778.38
   22:16:44.783.16-Jul-2020 4093.01 4652.93 76.39 8.00 234.49 2778.38
   22:16:44.983.16-Jul-2020 4093.01 4652.82 76.39 8.00 234.69 2778.38
   22:16:45.183.16-Jul-2020 4093.01 4652.85 76.39 8.00 234.89 2778.38
   22:16:45.384.16-Jul-2020 4093.01 4652.86 76.39 8.00 235.09 2778.38
   22:16:45.584.16-Jul-2020 4093.01 4652.86 76.39 8.00 235.29 2778.38
   22:16:45.784.16-Jul-2020 4093.01 4652.86 76.39 8.00 235.49 2778.38
   22:16:45.984.16-Jul-2020 4093.01 4652.85 76.39 8.00 235.69 2778.38
   22:16:46.184.16-Jul-2020 4093.01 4652.85 76.39 8.00 235.89 2778.38
   22:16:46.384.16-Jul-2020 4093.01 4652.85 76.39 8.00 236.09 2778.38
   22:16:46.584.16-Jul-2020 4093.01 4652.85 76.39 8.00 236.29 2778.38
   22:16:46.784.16-Jul-2020 4093.01 4652.85 76.39 8.00 236.49 2778.38
   22:16:46.984.16-Jul-2020 4093.01 4652.85 76.39 8.00 236.69 2778.38
   22:16:47.184.16-Jul-2020 4093.01 4652.86 76.39 8.00 236.89 2778.38
   22:16:47.384.16-Jul-2020 4093.01 4652.86 76.39 8.00 237.09 2778.38
   22:16:47.584.16-Jul-2020 4093.01 4652.85 76.39 8.00 237.29 2778.38
   22:16:47.784.16-Jul-2020 4093.01 4652.86 76.39 8.00 237.49 2778.38
   22:16:47.984.16-Jul-2020 4093.01 4652.94 76.39 8.00 237.69 2778.38
   22:16:48.185.16-Jul-2020 4093.01 4652.81 76.39 8.00 237.89 2778.38
   22:16:48.385.16-Jul-2020 4093.01 4652.85 76.39 8.00 238.09 2778.38
   22:16:48.585.16-Jul-2020 4093.01 4652.86 76.39 8.00 238.29 2778.38
   22:16:48.785.16-Jul-2020 4093.01 4652.86 76.39 8.00 238.49 2778.38
   22:16:48.985.16-Jul-2020 4093.01 4652.90 76.39 8.00 238.69 2778.38
   22:16:49.185.16-Jul-2020 4093.01 4652.82 76.39 8.00 238.89 2778.38
   22:16:49.385.16-Jul-2020 4093.01 4652.86 76.39 8.00 239.09 2778.38
   22:16:49.585.16-Jul-2020 4093.01 4652.86 76.39 8.00 239.29 2778.38
   22:16:49.785.16-Jul-2020 4093.01 4652.82 76.39 8.00 239.49 2778.38
   22:16:49.985.16-Jul-2020 4093.01 4652.84 76.39 8.00 239.69 2778.38
   22:16:50.185.16-Jul-2020 4093.01 4652.86 76.39 8.00 239.89 2778.38
   22:16:50.385.16-Jul-2020 4093.01 4652.84 76.39 8.00 240.09 2778.38
   22:16:50.585.16-Jul-2020 4093.01 4652.84 76.39 8.00 240.29 2778.38
   22:16:50.786.16-Jul-2020 4093.01 4652.86 76.39 8.00 240.49 2778.38
   22:16:50.986.16-Jul-2020 4093.01 4652.90 76.39 8.00 240.69 2778.38
   22:16:51.186.16-Jul-2020 4093.01 4652.83 76.39 8.00 240.89 2778.38
   22:16:51.386.16-Jul-2020 4093.01 4652.86 76.39 8.00 241.09 2778.38
   22:16:51.586.16-Jul-2020 4093.01 4652.86 76.39 8.00 241.29 2778.38
   22:16:51.786.16-Jul-2020 4093.01 4652.85 76.39 8.00 241.49 2778.38
   22:16:51.986.16-Jul-2020 4093.01 4652.85 76.39 8.00 241.69 2778.38
   22:16:52.186.16-Jul-2020 4093.01 4652.86 76.39 8.00 241.89 2778.38
   22:16:52.386.16-Jul-2020 4093.01 4652.84 76.39 8.00 242.09 2778.38
   22:16:52.586.16-Jul-2020 4093.01 4652.84 76.39 8.00 242.29 2778.38
   22:16:52.786.16-Jul-2020 4093.01 4652.85 76.39 8.00 242.49 2778.38
   22:16:52.986.16-Jul-2020 4093.01 4652.84 76.39 8.00 242.69 2778.38
   22:16:53.186.16-Jul-2020 4093.01 4652.86 76.39 8.00 242.89 2778.38
   22:16:53.387.16-Jul-2020 4093.01 4652.81 76.39 8.00 243.09 2778.38
   22:16:53.587.16-Jul-2020 4093.01 4652.81 76.39 8.00 243.29 2778.38
   22:16:53.787.16-Jul-2020 4093.01 4652.84 76.39 8.00 243.49 2778.38
   22:16:53.987.16-Jul-2020 4093.01 4652.84 76.39 8.00 243.69 2778.38
   22:16:54.187.16-Jul-2020 4093.01 4652.85 76.39 8.00 243.89 2778.38
   22:16:54.387.16-Jul-2020 4093.01 4652.85 76.39 8.00 244.09 2778.38
   22:16:54.587.16-Jul-2020 4093.01 4652.85 76.39 8.00 244.29 2778.38
   22:16:54.787.16-Jul-2020 4093.01 4652.85 76.39 8.00 244.49 2778.38
   22:16:54.987.16-Jul-2020 4093.01 4652.85 76.39 8.00 244.69 2778.38
   22:16:55.187.16-Jul-2020 4093.01 4652.85 76.39 8.00 244.89 2778.38
   22:16:55.387.16-Jul-2020 4093.01 4652.85 76.39 8.00 245.09 2778.38
   22:16:55.587.16-Jul-2020 4093.01 4652.85 76.39 8.00 245.29 2778.38
   22:16:55.787.16-Jul-2020 4093.01 4652.85 76.39 8.00 245.49 2778.38
   22:16:55.988.16-Jul-2020 4093.01 4652.85 76.39 8.00 245.69 2778.38
   22:16:56.188.16-Jul-2020 4093.01 4652.84 76.39 8.00 245.89 2778.38
   22:16:56.388.16-Jul-2020 4093.01 4652.85 76.39 8.00 246.09 2778.38
   22:16:56.588.16-Jul-2020 4093.01 4652.82 76.39 8.00 246.29 2778.38
   22:16:56.788.16-Jul-2020 4093.01 4652.95 76.39 8.00 246.49 2778.38
   22:16:56.988.16-Jul-2020 4093.01 4652.82 76.39 8.00 246.69 2778.38
   22:16:57.188.16-Jul-2020 4093.01 4652.88 76.39 8.00 246.89 2778.38
   22:16:57.388.16-Jul-2020 4093.01 4644.36 76.39 8.00 247.09 2778.38
   22:16:57.588.16-Jul-2020 4093.01 4644.36 76.39 8.00 247.29 2778.38
   22:16:57.788.16-Jul-2020 4093.01 4640.10 76.39 8.00 247.49 2778.38
   22:16:57.988.16-Jul-2020 4093.01 4640.59 76.39 8.00 247.69 2778.38
   22:16:58.188.16-Jul-2020 4093.01 4640.33 76.39 8.00 247.89 2778.38
   22:16:58.388.16-Jul-2020 4093.01 4640.37 76.39 8.00 248.09 2778.38
   22:16:58.588.16-Jul-2020 4093.01 4640.37 76.39 8.00 248.29 2778.38
   22:16:58.789.16-Jul-2020 4093.01 4640.38 76.39 8.00 248.49 2778.38
   22:16:58.989.16-Jul-2020 4093.01 4640.19 76.39 8.00 248.69 2778.38
   22:16:59.189.16-Jul-2020 4093.01 4640.31 76.39 8.00 248.89 2778.38
   22:16:59.389.16-Jul-2020 4093.01 4640.25 76.39 8.00 249.09 2778.38
   22:16:59.589.16-Jul-2020 4093.01 4640.25 76.39 8.00 249.29 2778.38
   22:16:59.789.16-Jul-2020 4093.01 4640.18 76.39 8.00 249.49 2778.38
   22:16:59.989.16-Jul-2020 4093.01 4640.41 76.39 8.00 249.69 2778.38
   22:17:00.189.16-Jul-2020 4093.01 4640.37 76.39 8.00 249.89 2778.38
   22:17:00.389.16-Jul-2020 4093.01 4640.36 76.39 8.00 250.09 2778.38
   22:17:00.589.16-Jul-2020 4093.01 4640.36 76.39 8.00 250.29 2778.38
   22:17:00.789.16-Jul-2020 4093.01 4640.30 76.39 8.00 250.49 2778.38
   22:17:00.989.16-Jul-2020 4093.01 4640.30 76.39 8.00 250.69 2778.38
   22:17:01.189.16-Jul-2020 4093.01 4640.02 76.39 8.00 250.89 2778.38
   22:17:01.390.16-Jul-2020 4093.01 4640.05 76.39 8.00 251.09 2778.38
   22:17:01.590.16-Jul-2020 4093.01 4640.05 76.39 8.00 251.29 2778.38
   22:17:01.790.16-Jul-2020 4093.01 4640.45 76.39 8.00 251.49 2778.38
   22:17:01.990.16-Jul-2020 4093.01 4640.32 76.39 8.00 251.69 2778.38
   22:17:02.190.16-Jul-2020 4093.01 4640.51 76.39 8.00 251.89 2778.38
   22:17:02.390.16-Jul-2020 4093.01 4639.98 76.39 8.00 252.10 2778.38
   22:17:02.590.16-Jul-2020 4093.01 4639.98 76.39 8.00 252.30 2778.38
   22:17:02.790.16-Jul-2020 4093.01 4639.96 76.39 8.00 252.50 2778.38
   22:17:02.990.16-Jul-2020 4093.01 4639.93 76.39 8.00 252.70 2778.38
   22:17:03.190.16-Jul-2020 4093.01 4639.91 76.39 8.00 252.90 2778.38
