~Version Information
 VERS.                  2.0:   CWLS log ASCII Standard -VERSION 2.0
 WRAP.                   NO:   One line per depth step
~Well Information Block
#MNEM.UNIT     VALUE/NAME     DESCRIPTION
#---------     -----------    ---------------------------
 STRT.S             16:06:05 16-Jul-20: START TIME 16:06:05 16-Jul-20
 STOP.S             16:12:59 16-Jul-20: STOP TIME  16:12:59 16-Jul-20
 STEP.S                   0.00: STEP TIME
 NULL.                 -999.25: NULL VALUE
 MDS .        Operator Entered:  MAG DATA SOURCE
 UNIT.                     N/A:  LOGGING EQUIPMENT ID
 DCON.         Sperry Drilling:  DIRECTNL CONTR
 DOE .                     N/A:  DOE NUMBER
 RIG .               EastAzeri:  RIG NAME
 JOBN.        AZ-XX-0906363297:  JOB TICKET NUMB
 MWDS.                    Baku:  MWD SHOP
 SRVC.     Turan Drilling & Engineering:  CONTRACTOR
 PROV.                    Baku:  PROVINCE
 STAT.                    Baku:  STATE NAME
 REGN.                   EESSA:  REGION
 BASE.              Azerbaijan:  LOGGING EQUIPMENT BASE LOCATION
 WTYP.                Deviated:  WELL TYPE
 UWI .                     N/A:  UNIQUE WELL IDENTIFIER
 API .                     N/A:  API NUMBER
 COMP.     BP Exploration (Caspian Sea) ltd.:  COMPANY
 WELL.                    D07z:  WELL NAME
 CTRY.              Azerbaijan:  COUNTRY NAME
 SON .        AZ-XX-0906363297:  JOB NUMBER
 FLD .                     ACG:  FIELD NAME
 PDAT.          Mean Sea Level:  PERMANENT DATUM
 FTOP.          Formation Tops:  FORM TOPS DESC
 ILTD.               Lithology:  INTERP LTH DESC
 SVYD.                  Survey:  SURVEY DESC
 DMOD.             Drill Model:  DRILL MOD DESC
 HPTY.       Minimum Curvature:  HOLE POS TYPE
 NREF.                    Grid:  NORTH REFERENCE
 SPUD.               28-Jun-20:  SPUD DATE
 DATE.      18.27.12 28-Jun-20:  END TIME
 STIM.      18.27.12 28-Jun-20:  START TIME
 DMF .             Drill Floor:  DRILL MEAS FROM
 DFST.                        :  DIST FSL TEXT
 DFWT.                        :  DIST FWL TEXT
 CNTY.                        :  COUNTY
 LOC .                        :  LOCATION
 LMF .             Drill Floor:  LOG MEASURED FROM
 VSNS.m                  -7.75:  VERT SEC N/S
 VSEW.m                  -9.19:  VERT SEC E/W
 MMDE.m                   0.00:  MAGUTM CALC DEP
 AGAP.m                  43.60:  AIR GAP
 DEP .m                4058.99:  DEPTH
 APD .m                  43.60:  DEPTH ABOVE PD
 WDMS.m                 151.80:  WD ELEV
 EGL .m                   0.00:  GROUND ELEVATION
 EPD .m                   0.00:  ELEVATION
 AZTC.deg                 6.19:  AZM TOTAL CORR
 GRDC.deg                 0.27:  GRID CORRECTION
 MDEC.deg                 6.46:  MAGNETIC DECL
 MDIP.deg                59.47:  MAGNETIC DIP
 MFLD.nT              50279.00:  MAGNETIC FIELD
 GVFD.g                   1.00:  GRAVITY FIELD
 VSDR.deg               249.96:  VERT SEC DIRECT
 TDD .m                   0.00:  TOTAL DEPTH (DRILLER)
 SDEP.m                   0.00:  START DEPTH
 DFSL.m                   0.00:  DISTANCE FSL
 DFWL.m                   0.00:  DISTANCE FWL
 UTMY.m             4431880.20:  UTM Y
 UTMX.m              538763.98:  UTM X
 WHEW.m                  -9.19:  WELL HEAD E/W
 WHNS.m                  -7.75:  WELL HEAD N/S
 LONG.deg                51.45:  LONGITUDE
 LATI.deg                40.02:  LATITUDE
 TVDS.m                  43.60:  TVDSS CORRECTN
 EKB .m                  43.60:  KB ELEVATION
 EDF .m                  43.60:  DF ELEVATION
 TDL .m                 248.00:  TOTAL DEPTH (LOGGER)
 MAGU.                 1849075:  MAGUTM CHECKSUM
 VSC .                       0:  VS TO CLOSURE
~Parameter Information Block
#MNEM.UNIT       Value        Description
#---------     -----------    ---------------------------
 AV  .mps                 6.34:  Ann Velocity 
 AVMX.mps                 7.00:  Max Ann Veloc 
 AZIF.deg               260.29:  Azm, Final 
 BHAT.        Rotary Steerable:  BHA Type 
 BROT.°/30m               1.20:  Build Rotating 
 BS  .in                  8.50:  Bit Size 
 BSZ .in                  8.50:  Bit Size 
 BTPL.psig              620.00:  Bit Press Loss 
 CABU.                     Yes:  Customer Abuse 
 COMM.                     l&q:  Run Comments 1 
 TCS .hr                 56.22:  Time Ciculation Ended 
 CV  .mps                 3.05:  Crit Velocity 
 CVMX.mps                 3.20:  Max Crit Veloc 
 DD1 .            Musa Ahmadov:  Direct Drillr 1 
 DDSV.                 iCruise:  DD Service 
 DEFF.%                  98.00:  % Det Eff 
 DLRX.°/30m               2.78:  Dogleg Rot Max 
 DLSO.°/30m               0.00:  Dogleg Oriented 
 DLSX.°/30m               0.00:  Dogleg Str Max 
 DRET.      05.20.48 16-Jul-20:  Drill End Time 
 DRST.      10.20.48 13-Jul-20:  Drill Start Tim 
 DTIM.hr                 14.25:  Time Drilling 
 EDEP.m                4326.01:  End Depth 
 ENG1.      Artemiy Matviyanov:  Engineer 1 
 ENG2.           Amrah Tahirov:  Engineer 2 
 ETIM.      22.30.00 18-Jul-20:  End Time 
 FLOI.gpm               550.00:  Flow In 
 FLON.gpm               450.00:  Flow In Min 
 FLOS.cptm                0.00:  Fluid Loss 
 FLOX.gpm               600.00:  Flow In Max 
 HFLO.                      No:  High Flow 
 HPRE.                      No:  High Pressure 
 HTEM.                      No:  High Temp 
 HYDO.m                   1.80:  Hydro Offset 
 IFIN.deg                65.41:  Inc, Final 
 IMAX.deg                65.14:  Inc Max 
 IMIN.deg                58.89:  Inc Min 
 IMND.m                4104.92:  Inc Min Depth 
 IMXD.m                4303.89:  Inc Max Depth 
 JARR.                      No:  Jarring 
 LETM.      10.20.48 17-Jul-20:  Log End Time 
 LOST.hr                     0:  Lost Rig Time 
 LSTM.      10.20.48 13-Jul-20:  Log Start Time 
 MDCL.ppm             37000.00:  Mud Chlorides 
 MDES.     Inversion Oil/Synthetic:  Mud Desc 
 DFD .sg                  1.52:  Mud Density 
 MDMN.sg                  1.52:  Dens Mud Min 
 MDMX.sg                  1.52:  Dens Mud Max 
 MOIL.                   52.70:  Run Mud Oil % 
 MOWR.                   68:32:  Run Mud OWR 
 MSND.                     0.2:  Run Mud Sand % 
 MSOL.                    21.6:  Run Mud Solids% 
 DFV .spqt               79.00:  Mud Viscosity 
 MWOD.in                  6.75:  MWD Tool OD 
 MWSI.                      No:  Serv Intrp, MWD 
 OTIM.hr                114.04:  Time Operating 
 PCON.          Wear / Scratch:  Pad Condition 
 PMAX.psia            11782.92:  Press Op, Max 
 PV  .cP                 49.00:  Mud PV 
 RUN .                     600:  Run Number 
 ROPA.m/hr               20.00:  ROP Avg 
 ROPN.m/hr               15.00:  ROP Min 
 ROPX.m/hr               22.00:  ROP Max 
 RPMA.rpm               120.00:  RPM Surface Avg 
 RPMN.rpm                90.00:  RPM Surface Min 
 RPMX.rpm               140.00:  RPM Surface Max 
 RRUN.                     600:  Rig Run Number 
 SAZI.deg               260.29:  Azm, Start 
 SDEP.m                4078.01:  Start Depth 
 SIDD.                      No:  Serv Intrp, DD 
 SINC.deg                58.89:  Inc, Start 
 SPPA.psig             4560.00:  SPP Avg 
 SPPN.psig             3600.00:  SPP Min 
 SPPX.psig             4800.00:  SPP Max 
 STIM.      10.20.48 13-Jul-20:  Start Time 
 SVCS.                 DD, MWD:  Services 
 SVER.                    9.20:  Sperry Version 
 TDAT.m                4378.01:  Tot Depth Attmp 
 TDDF.                      No:  Trip for DD 
 TDLG.m                 248.00:  Tot Depth Loggd 
 TFF .                      No:  Trip for Fail 
 TQAA.f-kp               18.00:  Torque Abs Avg 
 TQAN.f-kp               15.00:  Torque Abs Min 
 TQAX.f-kp               20.00:  Torque Abs Max 
 TRRT.°/30m               0.70:  Turn Rotating 
 MRT .                    HCIM:  Maximum Recorded Temperature 
 TTMX.degC               86.00:  Max Tool Temp 
 WBMN.klb                 3.00:  WOB Min 
 WOBA.klb                 5.00:  WOB Avg 
 WOBX.klb                 9.00:  WOB Max 
 YP  .lhf2               32.00:  Yield Point 
~Curve Information Block
#MNEM.UNIT                 API CODE     Curve Description
#---------               -----------    ---------------------------
 TIME.HHMMSS            00 000 000 000:  GT Time & Date
 GTDEPTH.m              00 000 000 000:  GT Depth
 GTPQH.psia             00 000 000 000:  GT HR Quartz Pressure
 GTTQ.degC              00 000 000 000:  GT Quartz Temperature
 GTTN.NONE              00 000 000 000:  GT Test Number
 GTET.sec               00 000 000 000:  GT Elapsed Test Time
 GTTVD.m                00 000 000 000:  GT True Vertical Depth
#Other Information
#
#WARRANTY: Halliburton will use its best efforts to furnish customers with 
#accurate information and interpretations that are part of, and incident to, the services 
#provided.  However, Halliburton cannot and does not warrant the accuracy 
#or correctness of such information and interpretations.  Under no circumstances should any 
#such information or interpretation be relied upon as the sole basis for any drilling, 
#completion, production, or financial decision or any procedure involving any risk to the 
#safety of any drilling venture, drilling rig or its crew or any other third party.  The 
#Customer has full responsibility for all drilling, completion and production operation.  
#Halliburton makes no representations or warranties, either expressed or 
#implied, including, but not limited to, the implied warranties of merchantability or fitness 
#for a particular purpose, with respect to the services rendered.  In no event will 
#Halliburton be liable for failure to obtain any particular results or for 
#any damages, including, but not limited to, indirect, special or consequential damages, 
#resulting from the use of any information or interpretation provided by Halliburton.
#
~A           TIME           GTDEPTH  GTPQH  GTTQ  GTTN  GTET   GTTVD  
# ...
   16:09:32.809.16-Jul-2020 4280.51 4342.34 80.10 1.00 207.04 2863.78
   16:09:33.009.16-Jul-2020 4280.51 4342.17 80.10 1.00 207.24 2863.78
   16:09:33.209.16-Jul-2020 4280.51 4342.66 80.10 1.00 207.44 2863.78
   16:09:33.409.16-Jul-2020 4280.51 4342.28 80.10 1.00 207.64 2863.78
   16:09:33.610.16-Jul-2020 4280.51 4342.35 80.10 1.00 207.84 2863.78
   16:09:33.810.16-Jul-2020 4280.51 4342.41 80.10 1.00 208.04 2863.78
   16:09:34.010.16-Jul-2020 4280.51 4342.41 80.10 1.00 208.24 2863.78
   16:09:34.210.16-Jul-2020 4280.51 4342.41 80.10 1.00 208.44 2863.78
   16:09:34.410.16-Jul-2020 4280.51 4342.41 80.10 1.00 208.64 2863.78
   16:09:34.610.16-Jul-2020 4280.51 4342.31 80.10 1.00 208.84 2863.78
   16:09:34.810.16-Jul-2020 4280.51 4342.41 80.10 1.00 209.04 2863.78
   16:09:35.010.16-Jul-2020 4280.51 4342.34 80.10 1.00 209.24 2863.78
   16:09:35.210.16-Jul-2020 4280.51 4342.25 80.10 1.00 209.44 2863.78
   16:09:35.410.16-Jul-2020 4280.51 4342.34 80.10 1.00 209.64 2863.78
   16:09:35.610.16-Jul-2020 4280.51 4342.37 80.10 1.00 209.84 2863.78
   16:09:35.810.16-Jul-2020 4280.51 4342.54 80.10 1.00 210.04 2863.78
   16:09:36.010.16-Jul-2020 4280.51 4342.20 80.10 1.00 210.24 2863.78
   16:09:36.210.16-Jul-2020 4280.51 4342.41 80.10 1.00 210.44 2863.78
   16:09:36.410.16-Jul-2020 4280.51 4342.43 80.10 1.00 210.64 2863.78
   16:09:36.610.16-Jul-2020 4280.51 4342.31 80.10 1.00 210.84 2863.78
   16:09:36.810.16-Jul-2020 4280.51 4342.52 80.10 1.00 211.04 2863.78
   16:09:37.010.16-Jul-2020 4280.51 4342.25 80.10 1.00 211.24 2863.78
   16:09:37.210.16-Jul-2020 4280.51 4342.46 80.10 1.00 211.44 2863.78
   16:09:37.410.16-Jul-2020 4280.51 4342.40 80.10 1.00 211.64 2863.78
   16:09:37.610.16-Jul-2020 4280.51 4342.30 80.10 1.00 211.84 2863.78
   16:09:37.810.16-Jul-2020 4280.51 4342.36 80.10 1.00 212.04 2863.78
   16:09:38.010.16-Jul-2020 4280.51 4342.36 80.10 1.00 212.24 2863.78
   16:09:38.210.16-Jul-2020 4280.51 4342.39 80.10 1.00 212.44 2863.78
   16:09:38.411.16-Jul-2020 4280.51 4342.39 80.10 1.00 212.64 2863.78
   16:09:38.611.16-Jul-2020 4280.51 4342.33 80.10 1.00 212.84 2863.78
   16:09:38.811.16-Jul-2020 4280.51 4342.39 80.10 1.00 213.04 2863.78
   16:09:39.011.16-Jul-2020 4280.51 4342.36 80.10 1.00 213.24 2863.78
   16:09:39.211.16-Jul-2020 4280.51 4342.35 80.10 1.00 213.44 2863.78
   16:09:39.411.16-Jul-2020 4280.51 4342.56 80.10 1.00 213.64 2863.78
   16:09:39.611.16-Jul-2020 4280.51 4342.27 80.10 1.00 213.84 2863.78
   16:09:39.811.16-Jul-2020 4280.51 4342.46 80.10 1.00 214.04 2863.78
   16:09:40.011.16-Jul-2020 4280.51 4342.35 80.10 1.00 214.24 2863.78
   16:09:40.211.16-Jul-2020 4280.51 4342.34 80.10 1.00 214.44 2863.78
   16:09:40.411.16-Jul-2020 4280.51 4342.38 80.10 1.00 214.64 2863.78
   16:09:40.611.16-Jul-2020 4280.51 4342.38 80.10 1.00 214.84 2863.78
   16:09:40.811.16-Jul-2020 4280.51 4342.39 80.10 1.00 215.04 2863.78
   16:09:41.011.16-Jul-2020 4280.51 4342.39 80.10 1.00 215.24 2863.78
   16:09:41.211.16-Jul-2020 4280.51 4342.36 80.10 1.00 215.44 2863.78
   16:09:41.411.16-Jul-2020 4280.51 4342.43 80.10 1.00 215.64 2863.78
   16:09:41.611.16-Jul-2020 4280.51 4342.36 80.10 1.00 215.84 2863.78
   16:09:41.811.16-Jul-2020 4280.51 4342.40 80.10 1.00 216.04 2863.78
   16:09:42.011.16-Jul-2020 4280.51 4342.40 80.10 1.00 216.24 2863.78
   16:09:42.211.16-Jul-2020 4280.51 4342.35 80.10 1.00 216.44 2863.78
   16:09:42.411.16-Jul-2020 4280.51 4342.38 80.10 1.00 216.64 2863.78
   16:09:42.611.16-Jul-2020 4280.51 4342.51 80.10 1.00 216.84 2863.78
   16:09:42.811.16-Jul-2020 4280.51 4342.32 80.10 1.00 217.04 2863.78
   16:09:43.011.16-Jul-2020 4280.51 4342.43 80.10 1.00 217.24 2863.78
   16:09:43.212.16-Jul-2020 4280.51 4342.40 80.10 1.00 217.44 2863.78
   16:09:43.412.16-Jul-2020 4280.51 4342.35 80.10 1.00 217.64 2863.78
   16:09:43.612.16-Jul-2020 4280.51 4342.19 80.10 1.00 217.84 2863.78
   16:09:43.812.16-Jul-2020 4280.51 4342.76 80.10 1.00 218.04 2863.78
   16:09:44.012.16-Jul-2020 4280.51 4342.31 80.10 1.00 218.24 2863.78
   16:09:44.212.16-Jul-2020 4280.51 4342.46 80.10 1.00 218.44 2863.78
   16:09:44.412.16-Jul-2020 4280.51 4342.40 80.10 1.00 218.65 2863.78
   16:09:44.612.16-Jul-2020 4280.51 4342.33 80.10 1.00 218.85 2863.78
   16:09:44.812.16-Jul-2020 4280.51 4342.38 80.10 1.00 219.05 2863.78
   16:09:45.012.16-Jul-2020 4280.51 4342.38 80.10 1.00 219.25 2863.78
   16:09:45.212.16-Jul-2020 4280.51 4342.36 80.10 1.00 219.45 2863.78
   16:09:45.412.16-Jul-2020 4280.51 4342.31 80.10 1.00 219.65 2863.78
   16:09:45.612.16-Jul-2020 4280.51 4342.45 80.10 1.00 219.85 2863.78
   16:09:45.812.16-Jul-2020 4280.51 4342.38 80.10 1.00 220.05 2863.78
   16:09:46.012.16-Jul-2020 4280.51 4342.38 80.10 1.00 220.25 2863.78
   16:09:46.212.16-Jul-2020 4280.51 4342.33 80.10 1.00 220.45 2863.78
   16:09:46.412.16-Jul-2020 4280.51 4342.36 80.10 1.00 220.65 2863.78
   16:09:46.612.16-Jul-2020 4280.51 4342.51 80.10 1.00 220.85 2863.78
   16:09:46.812.16-Jul-2020 4280.51 4342.42 80.10 1.00 221.05 2863.78
   16:09:47.012.16-Jul-2020 4280.51 4342.38 80.10 1.00 221.25 2863.78
   16:09:47.212.16-Jul-2020 4280.51 4342.38 80.10 1.00 221.45 2863.78
   16:09:47.412.16-Jul-2020 4280.51 4342.42 80.10 1.00 221.65 2863.78
   16:09:47.612.16-Jul-2020 4280.51 4342.39 80.10 1.00 221.85 2863.78
   16:09:47.812.16-Jul-2020 4280.51 4342.42 80.10 1.00 222.05 2863.78
   16:09:48.012.16-Jul-2020 4280.51 4342.41 80.10 1.00 222.25 2863.78
   16:09:48.213.16-Jul-2020 4280.51 4342.40 80.10 1.00 222.45 2863.78
   16:09:48.413.16-Jul-2020 4280.51 4342.40 80.10 1.00 222.65 2863.78
   16:09:48.613.16-Jul-2020 4280.51 4342.58 80.10 1.00 222.85 2863.78
   16:09:48.813.16-Jul-2020 4280.51 4342.39 80.10 1.00 223.05 2863.78
   16:09:49.013.16-Jul-2020 4280.51 4342.33 80.10 1.00 223.25 2863.78
   16:09:49.213.16-Jul-2020 4280.51 4342.52 80.10 1.00 223.45 2863.78
   16:09:49.413.16-Jul-2020 4280.51 4342.39 80.10 1.00 223.65 2863.78
   16:09:49.613.16-Jul-2020 4280.51 4342.35 80.10 1.00 223.85 2863.78
   16:09:49.813.16-Jul-2020 4280.51 4342.45 80.10 1.00 224.05 2863.78
   16:09:50.013.16-Jul-2020 4280.51 4342.45 80.10 1.00 224.25 2863.78
   16:09:50.213.16-Jul-2020 4280.51 4342.41 80.10 1.00 224.45 2863.78
   16:09:50.413.16-Jul-2020 4280.51 4342.39 80.10 1.00 224.65 2863.78
   16:09:50.613.16-Jul-2020 4280.51 4342.41 80.10 1.00 224.85 2863.78
   16:09:50.813.16-Jul-2020 4280.51 4342.45 80.10 1.00 225.05 2863.78
   16:09:51.013.16-Jul-2020 4280.51 4342.42 80.10 1.00 225.25 2863.78
   16:09:51.213.16-Jul-2020 4280.51 4342.42 80.10 1.00 225.45 2863.78
   16:09:51.413.16-Jul-2020 4280.51 4342.40 80.10 1.00 225.65 2863.78
   16:09:51.613.16-Jul-2020 4280.51 4342.38 80.10 1.00 225.85 2863.78
   16:09:51.813.16-Jul-2020 4280.51 4342.68 80.10 1.00 226.05 2863.78
   16:09:52.013.16-Jul-2020 4280.51 4342.34 80.10 1.00 226.25 2863.78
   16:09:52.213.16-Jul-2020 4280.51 4342.37 80.10 1.00 226.45 2863.78
   16:09:52.413.16-Jul-2020 4280.51 4342.54 80.10 1.00 226.65 2863.78
   16:09:52.613.16-Jul-2020 4280.51 4342.35 80.10 1.00 226.85 2863.78
   16:09:52.813.16-Jul-2020 4280.51 4342.40 80.10 1.00 227.05 2863.78
   16:09:53.014.16-Jul-2020 4280.51 4342.40 80.10 1.00 227.25 2863.78
   16:09:53.214.16-Jul-2020 4280.51 4342.61 80.10 1.00 227.45 2863.78
   16:09:53.414.16-Jul-2020 4280.51 4342.35 80.10 1.00 227.65 2863.78
   16:09:53.614.16-Jul-2020 4280.51 4342.51 80.10 1.00 227.85 2863.78
   16:09:53.814.16-Jul-2020 4280.51 4342.45 80.10 1.00 228.05 2863.78
   16:09:54.014.16-Jul-2020 4280.51 4342.45 80.10 1.00 228.25 2863.78
   16:09:54.214.16-Jul-2020 4280.51 4342.45 80.10 1.00 228.45 2863.78
   16:09:54.414.16-Jul-2020 4280.51 4342.67 80.10 1.00 228.65 2863.78
   16:09:54.614.16-Jul-2020 4280.51 4342.31 80.10 1.00 228.85 2863.78
   16:09:54.814.16-Jul-2020 4280.51 4342.49 80.10 1.00 229.05 2863.78
   16:09:55.014.16-Jul-2020 4280.51 4342.49 80.10 1.00 229.25 2863.78
   16:09:55.214.16-Jul-2020 4280.51 4342.37 80.10 1.00 229.45 2863.78
   16:09:55.414.16-Jul-2020 4280.51 4342.60 80.10 1.00 229.65 2863.78
   16:09:55.614.16-Jul-2020 4280.51 4342.40 80.10 1.00 229.85 2863.78
