~Version Information
 VERS.                  2.0:   CWLS log ASCII Standard -VERSION 2.0
 WRAP.                   NO:   One line per depth step
~Well Information Block
#MNEM.UNIT     VALUE/NAME     DESCRIPTION
#---------     -----------    ---------------------------
 STRT.S             19:19:02 16-Jul-20: START TIME 19:19:02 16-Jul-20
 STOP.S             19:25:52 16-Jul-20: STOP TIME  19:25:52 16-Jul-20
 STEP.S                   0.00: STEP TIME
 NULL.                 -999.25: NULL VALUE
 MDS .        Operator Entered:  MAG DATA SOURCE
 UNIT.                     N/A:  LOGGING EQUIPMENT ID
 DCON.         Sperry Drilling:  DIRECTNL CONTR
 DOE .                     N/A:  DOE NUMBER
 RIG .               EastAzeri:  RIG NAME
 JOBN.        AZ-XX-0906363297:  JOB TICKET NUMB
 MWDS.                    Baku:  MWD SHOP
 SRVC.     Turan Drilling & Engineering:  CONTRACTOR
 PROV.                    Baku:  PROVINCE
 STAT.                    Baku:  STATE NAME
 REGN.                   EESSA:  REGION
 BASE.              Azerbaijan:  LOGGING EQUIPMENT BASE LOCATION
 WTYP.                Deviated:  WELL TYPE
 UWI .                     N/A:  UNIQUE WELL IDENTIFIER
 API .                     N/A:  API NUMBER
 COMP.     BP Exploration (Caspian Sea) ltd.:  COMPANY
 WELL.                    D07z:  WELL NAME
 CTRY.              Azerbaijan:  COUNTRY NAME
 SON .        AZ-XX-0906363297:  JOB NUMBER
 FLD .                     ACG:  FIELD NAME
 PDAT.          Mean Sea Level:  PERMANENT DATUM
 FTOP.          Formation Tops:  FORM TOPS DESC
 ILTD.               Lithology:  INTERP LTH DESC
 SVYD.                  Survey:  SURVEY DESC
 DMOD.             Drill Model:  DRILL MOD DESC
 HPTY.       Minimum Curvature:  HOLE POS TYPE
 NREF.                    Grid:  NORTH REFERENCE
 SPUD.               28-Jun-20:  SPUD DATE
 DATE.      18.27.12 28-Jun-20:  END TIME
 STIM.      18.27.12 28-Jun-20:  START TIME
 DMF .             Drill Floor:  DRILL MEAS FROM
 DFST.                        :  DIST FSL TEXT
 DFWT.                        :  DIST FWL TEXT
 CNTY.                        :  COUNTY
 LOC .                        :  LOCATION
 LMF .             Drill Floor:  LOG MEASURED FROM
 VSNS.m                  -7.75:  VERT SEC N/S
 VSEW.m                  -9.19:  VERT SEC E/W
 MMDE.m                   0.00:  MAGUTM CALC DEP
 AGAP.m                  43.60:  AIR GAP
 DEP .m                4058.99:  DEPTH
 APD .m                  43.60:  DEPTH ABOVE PD
 WDMS.m                 151.80:  WD ELEV
 EGL .m                   0.00:  GROUND ELEVATION
 EPD .m                   0.00:  ELEVATION
 AZTC.deg                 6.19:  AZM TOTAL CORR
 GRDC.deg                 0.27:  GRID CORRECTION
 MDEC.deg                 6.46:  MAGNETIC DECL
 MDIP.deg                59.47:  MAGNETIC DIP
 MFLD.nT              50279.00:  MAGNETIC FIELD
 GVFD.g                   1.00:  GRAVITY FIELD
 VSDR.deg               249.96:  VERT SEC DIRECT
 TDD .m                   0.00:  TOTAL DEPTH (DRILLER)
 SDEP.m                   0.00:  START DEPTH
 DFSL.m                   0.00:  DISTANCE FSL
 DFWL.m                   0.00:  DISTANCE FWL
 UTMY.m             4431880.20:  UTM Y
 UTMX.m              538763.98:  UTM X
 WHEW.m                  -9.19:  WELL HEAD E/W
 WHNS.m                  -7.75:  WELL HEAD N/S
 LONG.deg                51.45:  LONGITUDE
 LATI.deg                40.02:  LATITUDE
 TVDS.m                  43.60:  TVDSS CORRECTN
 EKB .m                  43.60:  KB ELEVATION
 EDF .m                  43.60:  DF ELEVATION
 TDL .m                 248.00:  TOTAL DEPTH (LOGGER)
 MAGU.                 1849075:  MAGUTM CHECKSUM
 VSC .                       0:  VS TO CLOSURE
~Parameter Information Block
#MNEM.UNIT       Value        Description
#---------     -----------    ---------------------------
 AV  .mps                 6.34:  Ann Velocity 
 AVMX.mps                 7.00:  Max Ann Veloc 
 AZIF.deg               260.29:  Azm, Final 
 BHAT.        Rotary Steerable:  BHA Type 
 BROT.°/30m               1.20:  Build Rotating 
 BS  .in                  8.50:  Bit Size 
 BSZ .in                  8.50:  Bit Size 
 BTPL.psig              620.00:  Bit Press Loss 
 CABU.                     Yes:  Customer Abuse 
 COMM.                     d)s:  Run Comments 1 
 TCS .hr                 56.22:  Time Ciculation Ended 
 CV  .mps                 3.05:  Crit Velocity 
 CVMX.mps                 3.20:  Max Crit Veloc 
 DD1 .            Musa Ahmadov:  Direct Drillr 1 
 DDSV.                 iCruise:  DD Service 
 DEFF.%                  98.00:  % Det Eff 
 DLRX.°/30m               2.78:  Dogleg Rot Max 
 DLSO.°/30m               0.00:  Dogleg Oriented 
 DLSX.°/30m               0.00:  Dogleg Str Max 
 DRET.      05.20.48 16-Jul-20:  Drill End Time 
 DRST.      10.20.48 13-Jul-20:  Drill Start Tim 
 DTIM.hr                 14.25:  Time Drilling 
 EDEP.m                4326.01:  End Depth 
 ENG1.      Artemiy Matviyanov:  Engineer 1 
 ENG2.           Amrah Tahirov:  Engineer 2 
 ETIM.      22.30.00 18-Jul-20:  End Time 
 FLOI.gpm               550.00:  Flow In 
 FLON.gpm               450.00:  Flow In Min 
 FLOS.cptm                0.00:  Fluid Loss 
 FLOX.gpm               600.00:  Flow In Max 
 HFLO.                      No:  High Flow 
 HPRE.                      No:  High Pressure 
 HTEM.                      No:  High Temp 
 HYDO.m                   1.80:  Hydro Offset 
 IFIN.deg                65.41:  Inc, Final 
 IMAX.deg                65.14:  Inc Max 
 IMIN.deg                58.89:  Inc Min 
 IMND.m                4104.92:  Inc Min Depth 
 IMXD.m                4303.89:  Inc Max Depth 
 JARR.                      No:  Jarring 
 LETM.      10.20.48 17-Jul-20:  Log End Time 
 LOST.hr                     0:  Lost Rig Time 
 LSTM.      10.20.48 13-Jul-20:  Log Start Time 
 MDCL.ppm             37000.00:  Mud Chlorides 
 MDES.     Inversion Oil/Synthetic:  Mud Desc 
 DFD .sg                  1.52:  Mud Density 
 MDMN.sg                  1.52:  Dens Mud Min 
 MDMX.sg                  1.52:  Dens Mud Max 
 MOIL.                   52.70:  Run Mud Oil % 
 MOWR.                   68:32:  Run Mud OWR 
 MSND.                     0.2:  Run Mud Sand % 
 MSOL.                    21.6:  Run Mud Solids% 
 DFV .spqt               79.00:  Mud Viscosity 
 MWOD.in                  6.75:  MWD Tool OD 
 MWSI.                      No:  Serv Intrp, MWD 
 OTIM.hr                114.04:  Time Operating 
 PCON.          Wear / Scratch:  Pad Condition 
 PMAX.psia            11782.92:  Press Op, Max 
 PV  .cP                 49.00:  Mud PV 
 RUN .                     600:  Run Number 
 ROPA.m/hr               20.00:  ROP Avg 
 ROPN.m/hr               15.00:  ROP Min 
 ROPX.m/hr               22.00:  ROP Max 
 RPMA.rpm               120.00:  RPM Surface Avg 
 RPMN.rpm                90.00:  RPM Surface Min 
 RPMX.rpm               140.00:  RPM Surface Max 
 RRUN.                     600:  Rig Run Number 
 SAZI.deg               260.29:  Azm, Start 
 SDEP.m                4078.01:  Start Depth 
 SIDD.                      No:  Serv Intrp, DD 
 SINC.deg                58.89:  Inc, Start 
 SPPA.psig             4560.00:  SPP Avg 
 SPPN.psig             3600.00:  SPP Min 
 SPPX.psig             4800.00:  SPP Max 
 STIM.      10.20.48 13-Jul-20:  Start Time 
 SVCS.                 DD, MWD:  Services 
 SVER.                    9.20:  Sperry Version 
 TDAT.m                4378.01:  Tot Depth Attmp 
 TDDF.                      No:  Trip for DD 
 TDLG.m                 248.00:  Tot Depth Loggd 
 TFF .                      No:  Trip for Fail 
 TQAA.f-kp               18.00:  Torque Abs Avg 
 TQAN.f-kp               15.00:  Torque Abs Min 
 TQAX.f-kp               20.00:  Torque Abs Max 
 TRRT.°/30m               0.70:  Turn Rotating 
 MRT .                    HCIM:  Maximum Recorded Temperature 
 TTMX.degC               86.00:  Max Tool Temp 
 WBMN.klb                 3.00:  WOB Min 
 WOBA.klb                 5.00:  WOB Avg 
 WOBX.klb                 9.00:  WOB Max 
 YP  .lhf2               32.00:  Yield Point 
~Curve Information Block
#MNEM.UNIT                 API CODE     Curve Description
#---------               -----------    ---------------------------
 TIME.HHMMSS            00 000 000 000:  GT Time & Date
 GTDEPTH.m              00 000 000 000:  GT Depth
 GTPQH.psia             00 000 000 000:  GT HR Quartz Pressure
 GTTQ.degC              00 000 000 000:  GT Quartz Temperature
 GTTN.NONE              00 000 000 000:  GT Test Number
 GTET.sec               00 000 000 000:  GT Elapsed Test Time
 GTTVD.m                00 000 000 000:  GT True Vertical Depth
#Other Information
#
#WARRANTY: Halliburton will use its best efforts to furnish customers with 
#accurate information and interpretations that are part of, and incident to, the services 
#provided.  However, Halliburton cannot and does not warrant the accuracy 
#or correctness of such information and interpretations.  Under no circumstances should any 
#such information or interpretation be relied upon as the sole basis for any drilling, 
#completion, production, or financial decision or any procedure involving any risk to the 
#safety of any drilling venture, drilling rig or its crew or any other third party.  The 
#Customer has full responsibility for all drilling, completion and production operation.  
#Halliburton makes no representations or warranties, either expressed or 
#implied, including, but not limited to, the implied warranties of merchantability or fitness 
#for a particular purpose, with respect to the services rendered.  In no event will 
#Halliburton be liable for failure to obtain any particular results or for 
#any damages, including, but not limited to, indirect, special or consequential damages, 
#resulting from the use of any information or interpretation provided by Halliburton.
#
~A           TIME           GTDEPTH  GTPQH  GTTQ  GTTN  GTET   GTTVD  
   19:19:02.301.16-Jul-2020 4190.01 6899.33 79.15 6.00   0.00 2825.02
   19:19:02.501.16-Jul-2020 4190.01 6899.33 79.15 6.00   0.20 2825.02
   19:19:02.701.16-Jul-2020 4190.01 6909.73 79.15 6.00   0.40 2825.02
   19:19:02.901.16-Jul-2020 4190.01 6909.03 79.15 6.00   0.60 2825.02
   19:19:03.101.16-Jul-2020 4190.01 6902.99 79.15 6.00   0.80 2825.02
   19:19:03.301.16-Jul-2020 4190.01 6909.93 79.15 6.00   1.00 2825.02
   19:19:03.501.16-Jul-2020 4190.01 6909.93 79.15 6.00   1.20 2825.02
   19:19:03.701.16-Jul-2020 4190.01 6907.84 79.15 6.00   1.40 2825.02
   19:19:03.902.16-Jul-2020 4190.01 6914.29 79.15 6.00   1.60 2825.02
   19:19:04.102.16-Jul-2020 4190.01 6915.01 79.15 6.00   1.80 2825.02
   19:19:04.302.16-Jul-2020 4190.01 6912.27 79.15 6.00   2.00 2825.02
   19:19:04.502.16-Jul-2020 4190.01 6912.27 79.15 6.00   2.20 2825.02
   19:19:04.702.16-Jul-2020 4190.01 6922.56 79.15 6.00   2.40 2825.02
   19:19:04.902.16-Jul-2020 4190.01 6907.45 79.15 6.00   2.60 2825.02
   19:19:05.102.16-Jul-2020 4190.01 6916.18 79.15 6.00   2.80 2825.02
   19:19:05.302.16-Jul-2020 4190.01 6909.54 79.15 6.00   3.00 2825.02
   19:19:05.502.16-Jul-2020 4190.01 6912.43 79.15 6.00   3.20 2825.02
   19:19:05.702.16-Jul-2020 4190.01 6912.83 79.15 6.00   3.40 2825.02
   19:19:05.902.16-Jul-2020 4190.01 6911.23 79.15 6.00   3.60 2825.02
   19:19:06.103.16-Jul-2020 4190.01 6912.81 79.15 6.00   3.80 2825.02
   19:19:06.303.16-Jul-2020 4190.01 6914.08 79.15 6.00   4.00 2825.02
   19:19:06.503.16-Jul-2020 4190.01 6914.08 79.15 6.00   4.20 2825.02
   19:19:06.703.16-Jul-2020 4190.01 6915.42 79.15 6.00   4.40 2825.02
   19:19:06.903.16-Jul-2020 4190.01 6916.26 79.15 6.00   4.60 2825.02
   19:19:07.103.16-Jul-2020 4190.01 6916.50 79.15 6.00   4.80 2825.02
   19:19:07.303.16-Jul-2020 4190.01 6917.43 79.15 6.00   5.00 2825.02
   19:19:07.503.16-Jul-2020 4190.01 6917.43 79.15 6.00   5.20 2825.02
   19:19:07.703.16-Jul-2020 4190.01 6917.79 79.15 6.00   5.40 2825.02
   19:19:07.903.16-Jul-2020 4190.01 6917.73 79.15 6.00   5.60 2825.02
   19:19:08.103.16-Jul-2020 4190.01 6927.71 79.15 6.00   5.80 2825.02
   19:19:08.303.16-Jul-2020 4190.01 6915.95 79.15 6.00   6.00 2825.02
   19:19:08.504.16-Jul-2020 4190.01 6915.95 79.15 6.00   6.20 2825.02
   19:19:08.704.16-Jul-2020 4190.01 6918.62 79.15 6.00   6.40 2825.02
   19:19:08.904.16-Jul-2020 4190.01 6920.17 79.15 6.00   6.60 2825.02
   19:19:09.104.16-Jul-2020 4190.01 6921.19 79.15 6.00   6.80 2825.02
   19:19:09.304.16-Jul-2020 4190.01 6919.84 79.15 6.00   7.00 2825.02
   19:19:09.504.16-Jul-2020 4190.01 6919.84 79.15 6.00   7.20 2825.02
   19:19:09.704.16-Jul-2020 4190.01 6920.71 79.15 6.00   7.40 2825.02
   19:19:09.904.16-Jul-2020 4190.01 6920.79 79.15 6.00   7.60 2825.02
   19:19:10.104.16-Jul-2020 4190.01 6922.10 79.15 6.00   7.80 2825.02
   19:19:10.304.16-Jul-2020 4190.01 6922.23 79.15 6.00   8.00 2825.02
   19:19:10.504.16-Jul-2020 4190.01 6922.23 79.15 6.00   8.20 2825.02
   19:19:10.705.16-Jul-2020 4190.01 6922.54 79.15 6.00   8.40 2825.02
   19:19:10.905.16-Jul-2020 4190.01 6924.01 79.15 6.00   8.60 2825.02
   19:19:11.105.16-Jul-2020 4190.01 6924.52 79.15 6.00   8.80 2825.02
   19:19:11.305.16-Jul-2020 4190.01 6924.53 79.15 6.00   9.00 2825.02
   19:19:11.505.16-Jul-2020 4190.01 6934.76 79.15 6.00   9.20 2825.02
   19:19:11.705.16-Jul-2020 4190.01 6922.39 79.15 6.00   9.40 2825.02
   19:19:11.905.16-Jul-2020 4190.01 6928.97 79.15 6.00   9.60 2825.02
   19:19:12.105.16-Jul-2020 4190.01 6928.89 79.14 6.00   9.80 2825.02
   19:19:12.305.16-Jul-2020 4190.01 6926.72 79.14 6.00  10.00 2825.02
   19:19:12.505.16-Jul-2020 4190.01 6926.72 79.14 6.00  10.20 2825.02
   19:19:12.705.16-Jul-2020 4190.01 6924.71 79.14 6.00  10.40 2825.02
   19:19:12.906.16-Jul-2020 4190.01 6930.25 79.14 6.00  10.60 2825.02
   19:19:13.106.16-Jul-2020 4190.01 6930.35 79.14 6.00  10.80 2825.02
   19:19:13.306.16-Jul-2020 4190.01 6928.53 79.14 6.00  11.00 2825.02
   19:19:13.506.16-Jul-2020 4190.01 6928.53 79.14 6.00  11.21 2825.02
   19:19:13.706.16-Jul-2020 4190.01 6918.34 79.14 6.00  11.41 2825.02
   19:19:13.906.16-Jul-2020 4190.01 6934.84 79.14 6.00  11.61 2825.02
   19:19:14.106.16-Jul-2020 4190.01 6932.76 79.14 6.00  11.81 2825.02
   19:19:14.306.16-Jul-2020 4190.01 6930.83 79.14 6.00  12.01 2825.02
   19:19:14.506.16-Jul-2020 4190.01 6930.83 79.14 6.00  12.21 2825.02
   19:19:14.706.16-Jul-2020 4190.01 6921.46 79.14 6.00  12.41 2825.02
   19:19:14.906.16-Jul-2020 4190.01 6938.20 79.14 6.00  12.61 2825.02
   19:19:15.107.16-Jul-2020 4190.01 6945.96 79.14 6.00  12.81 2825.02
   19:19:15.307.16-Jul-2020 4190.01 6929.84 79.14 6.00  13.01 2825.02
   19:19:15.507.16-Jul-2020 4190.01 6929.84 79.14 6.00  13.21 2825.02
   19:19:15.707.16-Jul-2020 4190.01 6933.41 79.14 6.00  13.41 2825.02
   19:19:15.907.16-Jul-2020 4190.01 6936.07 79.14 6.00  13.61 2825.02
   19:19:16.107.16-Jul-2020 4190.01 6935.55 79.14 6.00  13.81 2825.02
   19:19:16.307.16-Jul-2020 4190.01 6944.24 79.14 6.00  14.01 2825.02
   19:19:16.507.16-Jul-2020 4190.01 6931.95 79.14 6.00  14.21 2825.02
   19:19:16.707.16-Jul-2020 4190.01 6940.49 79.14 6.00  14.41 2825.02
   19:19:16.907.16-Jul-2020 4190.01 6934.92 79.14 6.00  14.61 2825.02
   19:19:17.107.16-Jul-2020 4190.01 6936.96 79.14 6.00  14.81 2825.02
   19:19:17.308.16-Jul-2020 4190.01 6937.65 79.14 6.00  15.01 2825.02
   19:19:17.508.16-Jul-2020 4190.01 6937.65 79.14 6.00  15.21 2825.02
   19:19:17.708.16-Jul-2020 4190.01 6937.65 79.14 6.00  15.41 2825.02
   19:19:17.908.16-Jul-2020 4190.01 6938.35 79.14 6.00  15.61 2825.02
   19:19:18.108.16-Jul-2020 4190.01 6937.60 79.14 6.00  15.81 2825.02
   19:19:18.308.16-Jul-2020 4190.01 6938.21 79.14 6.00  16.01 2825.02
   19:19:18.508.16-Jul-2020 4190.01 6938.21 79.14 6.00  16.21 2825.02
   19:19:18.708.16-Jul-2020 4190.01 6938.74 79.14 6.00  16.41 2825.02
   19:19:18.908.16-Jul-2020 4190.01 6938.63 79.14 6.00  16.61 2825.02
   19:19:19.108.16-Jul-2020 4190.01 6954.32 79.14 6.00  16.81 2825.02
   19:19:19.308.16-Jul-2020 4190.01 6927.41 79.14 6.00  17.01 2825.02
   19:19:19.509.16-Jul-2020 4190.01 6927.41 79.14 6.00  17.21 2825.02
   19:19:19.709.16-Jul-2020 4190.01 6942.20 79.14 6.00  17.41 2825.02
   19:19:19.909.16-Jul-2020 4190.01 6939.45 79.14 6.00  17.61 2825.02
   19:19:20.109.16-Jul-2020 4190.01 6939.73 79.14 6.00  17.81 2825.02
   19:19:20.309.16-Jul-2020 4190.01 6938.98 79.14 6.00  18.01 2825.02
   19:19:20.509.16-Jul-2020 4190.01 6938.98 79.14 6.00  18.21 2825.02
   19:19:20.709.16-Jul-2020 4190.01 6940.43 79.14 6.00  18.41 2825.02
   19:19:20.909.16-Jul-2020 4190.01 6941.04 79.14 6.00  18.61 2825.02
   19:19:21.109.16-Jul-2020 4190.01 6941.24 79.14 6.00  18.81 2825.02
   19:19:21.309.16-Jul-2020 4190.01 6940.87 79.14 6.00  19.01 2825.02
   19:19:21.509.16-Jul-2020 4190.01 6940.87 79.14 6.00  19.21 2825.02
   19:19:21.710.16-Jul-2020 4190.01 6941.85 79.14 6.00  19.41 2825.02
   19:19:21.910.16-Jul-2020 4190.01 6943.06 79.14 6.00  19.61 2825.02
   19:19:22.110.16-Jul-2020 4190.01 6942.27 79.14 6.00  19.81 2825.02
   19:19:22.310.16-Jul-2020 4190.01 6952.95 79.14 6.00  20.01 2825.02
   19:19:22.510.16-Jul-2020 4190.01 6952.95 79.14 6.00  20.21 2825.02
   19:19:22.710.16-Jul-2020 4190.01 6948.30 79.14 6.00  20.41 2825.02
   19:19:22.910.16-Jul-2020 4190.01 6943.31 79.14 6.00  20.61 2825.02
   19:19:23.110.16-Jul-2020 4190.01 6954.12 79.14 6.00  20.81 2825.02
   19:19:23.310.16-Jul-2020 4190.01 6943.01 79.14 6.00  21.01 2825.02
   19:19:23.510.16-Jul-2020 4190.01 6943.01 79.14 6.00  21.21 2825.02
   19:19:23.710.16-Jul-2020 4190.01 6957.35 79.14 6.00  21.41 2825.02
   19:19:23.911.16-Jul-2020 4190.01 6941.43 79.14 6.00  21.61 2825.02
   19:19:24.111.16-Jul-2020 4190.01 6950.52 79.14 6.00  21.81 2825.02
   19:19:24.311.16-Jul-2020 4190.01 6944.63 79.14 6.00  22.01 2825.02
   19:19:24.511.16-Jul-2020 4190.01 6944.63 79.14 6.00  22.21 2825.02
   19:19:24.711.16-Jul-2020 4190.01 6954.08 79.13 6.00  22.41 2825.02
   19:19:24.911.16-Jul-2020 4190.01 6951.00 79.13 6.00  22.61 2825.02
   19:19:25.111.16-Jul-2020 4190.01 6944.02 79.13 6.00  22.81 2825.02
