~Version Information
 VERS.                  2.0:   CWLS log ASCII Standard -VERSION 2.0
 WRAP.                   NO:   One line per depth step
~Well Information Block
#MNEM.UNIT     VALUE/NAME     DESCRIPTION
#---------     -----------    ---------------------------
 STRT.S             16:55:55 16-Jul-20: START TIME 16:55:55 16-Jul-20
 STOP.S             17:02:47 16-Jul-20: STOP TIME  17:02:47 16-Jul-20
 STEP.S                   0.00: STEP TIME
 NULL.                 -999.25: NULL VALUE
 MDS .        Operator Entered:  MAG DATA SOURCE
 UNIT.                     N/A:  LOGGING EQUIPMENT ID
 DCON.         Sperry Drilling:  DIRECTNL CONTR
 DOE .                     N/A:  DOE NUMBER
 RIG .               EastAzeri:  RIG NAME
 JOBN.        AZ-XX-0906363297:  JOB TICKET NUMB
 MWDS.                    Baku:  MWD SHOP
 SRVC.     Turan Drilling & Engineering:  CONTRACTOR
 PROV.                    Baku:  PROVINCE
 STAT.                    Baku:  STATE NAME
 REGN.                   EESSA:  REGION
 BASE.              Azerbaijan:  LOGGING EQUIPMENT BASE LOCATION
 WTYP.                Deviated:  WELL TYPE
 UWI .                     N/A:  UNIQUE WELL IDENTIFIER
 API .                     N/A:  API NUMBER
 COMP.     BP Exploration (Caspian Sea) ltd.:  COMPANY
 WELL.                    D07z:  WELL NAME
 CTRY.              Azerbaijan:  COUNTRY NAME
 SON .        AZ-XX-0906363297:  JOB NUMBER
 FLD .                     ACG:  FIELD NAME
 PDAT.          Mean Sea Level:  PERMANENT DATUM
 FTOP.          Formation Tops:  FORM TOPS DESC
 ILTD.               Lithology:  INTERP LTH DESC
 SVYD.                  Survey:  SURVEY DESC
 DMOD.             Drill Model:  DRILL MOD DESC
 HPTY.       Minimum Curvature:  HOLE POS TYPE
 NREF.                    Grid:  NORTH REFERENCE
 SPUD.               28-Jun-20:  SPUD DATE
 DATE.      18.27.12 28-Jun-20:  END TIME
 STIM.      18.27.12 28-Jun-20:  START TIME
 DMF .             Drill Floor:  DRILL MEAS FROM
 DFST.                        :  DIST FSL TEXT
 DFWT.                        :  DIST FWL TEXT
 CNTY.                        :  COUNTY
 LOC .                        :  LOCATION
 LMF .             Drill Floor:  LOG MEASURED FROM
 VSNS.m                  -7.75:  VERT SEC N/S
 VSEW.m                  -9.19:  VERT SEC E/W
 MMDE.m                   0.00:  MAGUTM CALC DEP
 AGAP.m                  43.60:  AIR GAP
 DEP .m                4058.99:  DEPTH
 APD .m                  43.60:  DEPTH ABOVE PD
 WDMS.m                 151.80:  WD ELEV
 EGL .m                   0.00:  GROUND ELEVATION
 EPD .m                   0.00:  ELEVATION
 AZTC.deg                 6.19:  AZM TOTAL CORR
 GRDC.deg                 0.27:  GRID CORRECTION
 MDEC.deg                 6.46:  MAGNETIC DECL
 MDIP.deg                59.47:  MAGNETIC DIP
 MFLD.nT              50279.00:  MAGNETIC FIELD
 GVFD.g                   1.00:  GRAVITY FIELD
 VSDR.deg               249.96:  VERT SEC DIRECT
 TDD .m                   0.00:  TOTAL DEPTH (DRILLER)
 SDEP.m                   0.00:  START DEPTH
 DFSL.m                   0.00:  DISTANCE FSL
 DFWL.m                   0.00:  DISTANCE FWL
 UTMY.m             4431880.20:  UTM Y
 UTMX.m              538763.98:  UTM X
 WHEW.m                  -9.19:  WELL HEAD E/W
 WHNS.m                  -7.75:  WELL HEAD N/S
 LONG.deg                51.45:  LONGITUDE
 LATI.deg                40.02:  LATITUDE
 TVDS.m                  43.60:  TVDSS CORRECTN
 EKB .m                  43.60:  KB ELEVATION
 EDF .m                  43.60:  DF ELEVATION
 TDL .m                 248.00:  TOTAL DEPTH (LOGGER)
 MAGU.                 1849075:  MAGUTM CHECKSUM
 VSC .                       0:  VS TO CLOSURE
~Parameter Information Block
#MNEM.UNIT       Value        Description
#---------     -----------    ---------------------------
 AV  .mps                 6.34:  Ann Velocity 
 AVMX.mps                 7.00:  Max Ann Veloc 
 AZIF.deg               260.29:  Azm, Final 
 BHAT.        Rotary Steerable:  BHA Type 
 BROT.°/30m               1.20:  Build Rotating 
 BS  .in                  8.50:  Bit Size 
 BSZ .in                  8.50:  Bit Size 
 BTPL.psig              620.00:  Bit Press Loss 
 CABU.                     Yes:  Customer Abuse 
 COMM.                     3z:  Run Comments 1 
 TCS .hr                 56.22:  Time Ciculation Ended 
 CV  .mps                 3.05:  Crit Velocity 
 CVMX.mps                 3.20:  Max Crit Veloc 
 DD1 .            Musa Ahmadov:  Direct Drillr 1 
 DDSV.                 iCruise:  DD Service 
 DEFF.%                  98.00:  % Det Eff 
 DLRX.°/30m               2.78:  Dogleg Rot Max 
 DLSO.°/30m               0.00:  Dogleg Oriented 
 DLSX.°/30m               0.00:  Dogleg Str Max 
 DRET.      05.20.48 16-Jul-20:  Drill End Time 
 DRST.      10.20.48 13-Jul-20:  Drill Start Tim 
 DTIM.hr                 14.25:  Time Drilling 
 EDEP.m                4326.01:  End Depth 
 ENG1.      Artemiy Matviyanov:  Engineer 1 
 ENG2.           Amrah Tahirov:  Engineer 2 
 ETIM.      22.30.00 18-Jul-20:  End Time 
 FLOI.gpm               550.00:  Flow In 
 FLON.gpm               450.00:  Flow In Min 
 FLOS.cptm                0.00:  Fluid Loss 
 FLOX.gpm               600.00:  Flow In Max 
 HFLO.                      No:  High Flow 
 HPRE.                      No:  High Pressure 
 HTEM.                      No:  High Temp 
 HYDO.m                   1.80:  Hydro Offset 
 IFIN.deg                65.41:  Inc, Final 
 IMAX.deg                65.14:  Inc Max 
 IMIN.deg                58.89:  Inc Min 
 IMND.m                4104.92:  Inc Min Depth 
 IMXD.m                4303.89:  Inc Max Depth 
 JARR.                      No:  Jarring 
 LETM.      10.20.48 17-Jul-20:  Log End Time 
 LOST.hr                     0:  Lost Rig Time 
 LSTM.      10.20.48 13-Jul-20:  Log Start Time 
 MDCL.ppm             37000.00:  Mud Chlorides 
 MDES.     Inversion Oil/Synthetic:  Mud Desc 
 DFD .sg                  1.52:  Mud Density 
 MDMN.sg                  1.52:  Dens Mud Min 
 MDMX.sg                  1.52:  Dens Mud Max 
 MOIL.                   52.70:  Run Mud Oil % 
 MOWR.                   68:32:  Run Mud OWR 
 MSND.                     0.2:  Run Mud Sand % 
 MSOL.                    21.6:  Run Mud Solids% 
 DFV .spqt               79.00:  Mud Viscosity 
 MWOD.in                  6.75:  MWD Tool OD 
 MWSI.                      No:  Serv Intrp, MWD 
 OTIM.hr                114.04:  Time Operating 
 PCON.          Wear / Scratch:  Pad Condition 
 PMAX.psia            11782.92:  Press Op, Max 
 PV  .cP                 49.00:  Mud PV 
 RUN .                     600:  Run Number 
 ROPA.m/hr               20.00:  ROP Avg 
 ROPN.m/hr               15.00:  ROP Min 
 ROPX.m/hr               22.00:  ROP Max 
 RPMA.rpm               120.00:  RPM Surface Avg 
 RPMN.rpm                90.00:  RPM Surface Min 
 RPMX.rpm               140.00:  RPM Surface Max 
 RRUN.                     600:  Rig Run Number 
 SAZI.deg               260.29:  Azm, Start 
 SDEP.m                4078.01:  Start Depth 
 SIDD.                      No:  Serv Intrp, DD 
 SINC.deg                58.89:  Inc, Start 
 SPPA.psig             4560.00:  SPP Avg 
 SPPN.psig             3600.00:  SPP Min 
 SPPX.psig             4800.00:  SPP Max 
 STIM.      10.20.48 13-Jul-20:  Start Time 
 SVCS.                 DD, MWD:  Services 
 SVER.                    9.20:  Sperry Version 
 TDAT.m                4378.01:  Tot Depth Attmp 
 TDDF.                      No:  Trip for DD 
 TDLG.m                 248.00:  Tot Depth Loggd 
 TFF .                      No:  Trip for Fail 
 TQAA.f-kp               18.00:  Torque Abs Avg 
 TQAN.f-kp               15.00:  Torque Abs Min 
 TQAX.f-kp               20.00:  Torque Abs Max 
 TRRT.°/30m               0.70:  Turn Rotating 
 MRT .                    HCIM:  Maximum Recorded Temperature 
 TTMX.degC               86.00:  Max Tool Temp 
 WBMN.klb                 3.00:  WOB Min 
 WOBA.klb                 5.00:  WOB Avg 
 WOBX.klb                 9.00:  WOB Max 
 YP  .lhf2               32.00:  Yield Point 
~Curve Information Block
#MNEM.UNIT                 API CODE     Curve Description
#---------               -----------    ---------------------------
 TIME.HHMMSS            00 000 000 000:  GT Time & Date
 GTDEPTH.m              00 000 000 000:  GT Depth
 GTPQH.psia             00 000 000 000:  GT HR Quartz Pressure
 GTTQ.degC              00 000 000 000:  GT Quartz Temperature
 GTTN.NONE              00 000 000 000:  GT Test Number
 GTET.sec               00 000 000 000:  GT Elapsed Test Time
 GTTVD.m                00 000 000 000:  GT True Vertical Depth
#Other Information
#
#WARRANTY: Halliburton will use its best efforts to furnish customers with 
#accurate information and interpretations that are part of, and incident to, the services 
#provided.  However, Halliburton cannot and does not warrant the accuracy 
#or correctness of such information and interpretations.  Under no circumstances should any 
#such information or interpretation be relied upon as the sole basis for any drilling, 
#completion, production, or financial decision or any procedure involving any risk to the 
#safety of any drilling venture, drilling rig or its crew or any other third party.  The 
#Customer has full responsibility for all drilling, completion and production operation.  
#Halliburton makes no representations or warranties, either expressed or 
#implied, including, but not limited to, the implied warranties of merchantability or fitness 
#for a particular purpose, with respect to the services rendered.  In no event will 
#Halliburton be liable for failure to obtain any particular results or for 
#any damages, including, but not limited to, indirect, special or consequential damages, 
#resulting from the use of any information or interpretation provided by Halliburton.
#
~A           TIME           GTDEPTH  GTPQH  GTTQ  GTTN  GTET   GTTVD  
# ...
   17:00:08.434.16-Jul-2020 4261.01 4039.85 80.06 2.00 253.05 2855.56
   17:00:08.634.16-Jul-2020 4261.01 4039.85 80.06 2.00 253.25 2855.56
   17:00:08.834.16-Jul-2020 4261.01 4034.61 80.06 2.00 253.45 2855.56
   17:00:09.034.16-Jul-2020 4261.01 4025.70 80.06 2.00 253.65 2855.56
   17:00:09.234.16-Jul-2020 4261.01 3983.40 80.06 2.00 253.85 2855.56
   17:00:09.434.16-Jul-2020 4261.01 3951.69 80.06 2.00 254.05 2855.56
   17:00:09.635.16-Jul-2020 4261.01 3951.69 80.06 2.00 254.25 2855.56
   17:00:09.835.16-Jul-2020 4261.01 3918.28 80.06 2.00 254.45 2855.56
   17:00:10.035.16-Jul-2020 4261.01 3914.00 80.06 2.00 254.65 2855.56
   17:00:10.235.16-Jul-2020 4261.01 3907.95 80.06 2.00 254.85 2855.56
   17:00:10.435.16-Jul-2020 4261.01 3901.54 80.06 2.00 255.05 2855.56
   17:00:10.635.16-Jul-2020 4261.01 3901.54 80.06 2.00 255.25 2855.56
   17:00:10.835.16-Jul-2020 4261.01 3900.91 80.06 2.00 255.45 2855.56
   17:00:11.035.16-Jul-2020 4261.01 3898.03 80.06 2.00 255.65 2855.56
   17:00:11.235.16-Jul-2020 4261.01 3895.57 80.05 2.00 255.85 2855.56
   17:00:11.435.16-Jul-2020 4261.01 3892.76 80.05 2.00 256.05 2855.56
   17:00:11.635.16-Jul-2020 4261.01 3919.37 80.05 2.00 256.25 2855.56
   17:00:11.835.16-Jul-2020 4261.01 3933.03 80.05 2.00 256.45 2855.56
   17:00:12.035.16-Jul-2020 4261.01 3936.40 80.05 2.00 256.65 2855.56
   17:00:12.235.16-Jul-2020 4261.01 3929.05 80.05 2.00 256.85 2855.56
   17:00:12.435.16-Jul-2020 4261.01 3922.95 80.05 2.00 257.05 2855.56
   17:00:12.635.16-Jul-2020 4261.01 3913.09 80.05 2.00 257.25 2855.56
   17:00:12.835.16-Jul-2020 4261.01 3905.51 80.05 2.00 257.45 2855.56
   17:00:13.035.16-Jul-2020 4261.01 3900.98 80.05 2.00 257.65 2855.56
   17:00:13.235.16-Jul-2020 4261.01 3903.34 80.05 2.00 257.85 2855.56
   17:00:13.435.16-Jul-2020 4261.01 3901.23 80.05 2.00 258.05 2855.56
   17:00:13.635.16-Jul-2020 4261.01 3899.42 80.05 2.00 258.25 2855.56
   17:00:13.835.16-Jul-2020 4261.01 3896.21 80.05 2.00 258.45 2855.56
   17:00:14.035.16-Jul-2020 4261.01 3889.33 80.05 2.00 258.65 2855.56
   17:00:14.235.16-Jul-2020 4261.01 3888.48 80.04 2.00 258.85 2855.56
   17:00:14.436.16-Jul-2020 4261.01 3887.31 80.04 2.00 259.05 2855.56
   17:00:14.636.16-Jul-2020 4261.01 3887.31 80.04 2.00 259.25 2855.56
   17:00:14.836.16-Jul-2020 4261.01 3879.49 80.04 2.00 259.45 2855.56
   17:00:15.036.16-Jul-2020 4261.01 3876.65 80.04 2.00 259.65 2855.56
   17:00:15.236.16-Jul-2020 4261.01 3876.21 80.04 2.00 259.85 2855.56
   17:00:15.436.16-Jul-2020 4261.01 3871.92 80.04 2.00 260.05 2855.56
   17:00:15.636.16-Jul-2020 4261.01 3867.36 80.04 2.00 260.25 2855.56
   17:00:15.836.16-Jul-2020 4261.01 3869.98 80.04 2.00 260.45 2855.56
   17:00:16.036.16-Jul-2020 4261.01 3869.33 80.04 2.00 260.65 2855.56
   17:00:16.236.16-Jul-2020 4261.01 3869.25 80.04 2.00 260.85 2855.56
   17:00:16.436.16-Jul-2020 4261.01 3862.78 80.04 2.00 261.05 2855.56
   17:00:16.636.16-Jul-2020 4261.01 4096.50 80.04 2.00 261.25 2855.56
   17:00:16.836.16-Jul-2020 4261.01 4351.38 80.04 2.00 261.45 2855.56
   17:00:17.036.16-Jul-2020 4261.01 4500.05 80.04 2.00 261.65 2855.56
   17:00:17.236.16-Jul-2020 4261.01 4571.47 80.04 2.00 261.85 2855.56
   17:00:17.436.16-Jul-2020 4261.01 4605.04 80.04 2.00 262.05 2855.56
   17:00:17.636.16-Jul-2020 4261.01 4620.34 80.04 2.00 262.25 2855.56
   17:00:17.836.16-Jul-2020 4261.01 4620.34 80.04 2.00 262.45 2855.56
   17:00:18.036.16-Jul-2020 4261.01 4630.10 80.04 2.00 262.65 2855.56
   17:00:18.236.16-Jul-2020 4261.01 4631.60 80.04 2.00 262.85 2855.56
   17:00:18.436.16-Jul-2020 4261.01 4632.35 80.04 2.00 263.05 2855.56
   17:00:18.636.16-Jul-2020 4261.01 4632.35 80.04 2.00 263.25 2855.56
   17:00:18.836.16-Jul-2020 4261.01 4633.13 80.04 2.00 263.45 2855.56
   17:00:19.036.16-Jul-2020 4261.01 4633.42 80.04 2.00 263.65 2855.56
   17:00:19.237.16-Jul-2020 4261.01 4633.60 80.04 2.00 263.85 2855.56
   17:00:19.437.16-Jul-2020 4261.01 4633.74 80.04 2.00 264.05 2855.56
   17:00:19.637.16-Jul-2020 4261.01 4633.74 80.04 2.00 264.25 2855.56
   17:00:19.837.16-Jul-2020 4261.01 4633.91 80.05 2.00 264.45 2855.56
   17:00:20.037.16-Jul-2020 4261.01 4634.21 80.05 2.00 264.65 2855.56
   17:00:20.237.16-Jul-2020 4261.01 4634.62 80.05 2.00 264.85 2855.56
   17:00:20.437.16-Jul-2020 4261.01 4634.79 80.05 2.00 265.05 2855.56
   17:00:20.637.16-Jul-2020 4261.01 4634.75 80.05 2.00 265.25 2855.56
   17:00:20.837.16-Jul-2020 4261.01 4634.81 80.05 2.00 265.45 2855.56
   17:00:21.037.16-Jul-2020 4261.01 4634.85 80.05 2.00 265.65 2855.56
   17:00:21.237.16-Jul-2020 4261.01 4634.87 80.05 2.00 265.85 2855.56
   17:00:21.437.16-Jul-2020 4261.01 4634.93 80.05 2.00 266.05 2855.56
   17:00:21.637.16-Jul-2020 4261.01 4634.95 80.05 2.00 266.25 2855.56
   17:00:21.837.16-Jul-2020 4261.01 4634.97 80.05 2.00 266.45 2855.56
   17:00:22.037.16-Jul-2020 4261.01 4635.01 80.05 2.00 266.65 2855.56
   17:00:22.237.16-Jul-2020 4261.01 4635.03 80.05 2.00 266.85 2855.56
   17:00:22.437.16-Jul-2020 4261.01 4635.05 80.06 2.00 267.05 2855.56
   17:00:22.637.16-Jul-2020 4261.01 4635.05 80.06 2.00 267.26 2855.56
   17:00:22.837.16-Jul-2020 4261.01 4635.09 80.06 2.00 267.46 2855.56
   17:00:23.037.16-Jul-2020 4261.01 4635.14 80.06 2.00 267.66 2855.56
   17:00:23.237.16-Jul-2020 4261.01 4635.30 80.06 2.00 267.86 2855.56
   17:00:23.437.16-Jul-2020 4261.01 4635.15 80.06 2.00 268.06 2855.56
   17:00:23.637.16-Jul-2020 4261.01 4635.15 80.06 2.00 268.26 2855.56
   17:00:23.837.16-Jul-2020 4261.01 4635.46 80.06 2.00 268.46 2855.56
   17:00:24.038.16-Jul-2020 4261.01 4635.29 80.06 2.00 268.66 2855.56
   17:00:24.238.16-Jul-2020 4261.01 4635.35 80.06 2.00 268.86 2855.56
   17:00:24.438.16-Jul-2020 4261.01 4635.29 80.06 2.00 269.06 2855.56
   17:00:24.638.16-Jul-2020 4261.01 4635.29 80.06 2.00 269.26 2855.56
   17:00:24.838.16-Jul-2020 4261.01 4635.21 80.06 2.00 269.46 2855.56
   17:00:25.038.16-Jul-2020 4261.01 4635.46 80.06 2.00 269.66 2855.56
   17:00:25.238.16-Jul-2020 4261.01 4635.35 80.06 2.00 269.86 2855.56
   17:00:25.438.16-Jul-2020 4261.01 4635.46 80.06 2.00 270.06 2855.56
   17:00:25.638.16-Jul-2020 4261.01 4635.46 80.06 2.00 270.26 2855.56
   17:00:25.838.16-Jul-2020 4261.01 4635.38 80.06 2.00 270.46 2855.56
   17:00:26.038.16-Jul-2020 4261.01 4635.51 80.07 2.00 270.66 2855.56
   17:00:26.238.16-Jul-2020 4261.01 4635.34 80.07 2.00 270.86 2855.56
   17:00:26.438.16-Jul-2020 4261.01 4635.42 80.07 2.00 271.06 2855.56
   17:00:26.638.16-Jul-2020 4261.01 4635.47 80.07 2.00 271.26 2855.56
   17:00:26.838.16-Jul-2020 4261.01 4635.41 80.07 2.00 271.46 2855.56
   17:00:27.038.16-Jul-2020 4261.01 4635.42 80.07 2.00 271.66 2855.56
   17:00:27.238.16-Jul-2020 4261.01 4635.43 80.07 2.00 271.86 2855.56
   17:00:27.438.16-Jul-2020 4261.01 4635.43 80.07 2.00 272.06 2855.56
   17:00:27.638.16-Jul-2020 4261.01 4635.42 80.07 2.00 272.26 2855.56
   17:00:27.838.16-Jul-2020 4261.01 4635.43 80.07 2.00 272.46 2855.56
   17:00:28.038.16-Jul-2020 4261.01 4635.43 80.07 2.00 272.66 2855.56
   17:00:28.238.16-Jul-2020 4261.01 4635.42 80.07 2.00 272.86 2855.56
   17:00:28.438.16-Jul-2020 4261.01 4635.32 80.07 2.00 273.06 2855.56
   17:00:28.638.16-Jul-2020 4261.01 4635.63 80.07 2.00 273.26 2855.56
   17:00:28.838.16-Jul-2020 4261.01 4635.48 80.07 2.00 273.46 2855.56
   17:00:29.039.16-Jul-2020 4261.01 4635.58 80.07 2.00 273.66 2855.56
   17:00:29.239.16-Jul-2020 4261.01 4635.45 80.07 2.00 273.86 2855.56
   17:00:29.439.16-Jul-2020 4261.01 4635.47 80.07 2.00 274.06 2855.56
   17:00:29.639.16-Jul-2020 4261.01 4635.48 80.07 2.00 274.26 2855.56
   17:00:29.839.16-Jul-2020 4261.01 4635.48 80.07 2.00 274.46 2855.56
   17:00:30.039.16-Jul-2020 4261.01 4635.51 80.07 2.00 274.66 2855.56
   17:00:30.239.16-Jul-2020 4261.01 4635.49 80.07 2.00 274.86 2855.56
   17:00:30.439.16-Jul-2020 4261.01 4635.49 80.07 2.00 275.06 2855.56
   17:00:30.639.16-Jul-2020 4261.01 4635.49 80.07 2.00 275.26 2855.56
   17:00:30.839.16-Jul-2020 4261.01 4635.46 80.07 2.00 275.46 2855.56
   17:00:31.039.16-Jul-2020 4261.01 4635.48 80.07 2.00 275.66 2855.56
   17:00:31.239.16-Jul-2020 4261.01 4635.50 80.07 2.00 275.86 2855.56
