~Version Information
 VERS.                  2.0:   CWLS log ASCII Standard -VERSION 2.0
 WRAP.                   NO:   One line per depth step
~Well Information Block
#MNEM.UNIT     VALUE/NAME     DESCRIPTION
#---------     -----------    ---------------------------
 STRT.S             22:12:50 16-Jul-20: START TIME 22:12:50 16-Jul-20
 STOP.S             22:19:40 16-Jul-20: STOP TIME  22:19:40 16-Jul-20
 STEP.S                   0.00: STEP TIME
 NULL.                 -999.25: NULL VALUE
 MDS .        Operator Entered:  MAG DATA SOURCE
 UNIT.                     N/A:  LOGGING EQUIPMENT ID
 DCON.         Sperry Drilling:  DIRECTNL CONTR
 DOE .                     N/A:  DOE NUMBER
 RIG .               EastAzeri:  RIG NAME
 JOBN.        AZ-XX-0906363297:  JOB TICKET NUMB
 MWDS.                    Baku:  MWD SHOP
 SRVC.     Turan Drilling & Engineering:  CONTRACTOR
 PROV.                    Baku:  PROVINCE
 STAT.                    Baku:  STATE NAME
 REGN.                   EESSA:  REGION
 BASE.              Azerbaijan:  LOGGING EQUIPMENT BASE LOCATION
 WTYP.                Deviated:  WELL TYPE
 UWI .                     N/A:  UNIQUE WELL IDENTIFIER
 API .                     N/A:  API NUMBER
 COMP.     BP Exploration (Caspian Sea) ltd.:  COMPANY
 WELL.                    D07z:  WELL NAME
 CTRY.              Azerbaijan:  COUNTRY NAME
 SON .        AZ-XX-0906363297:  JOB NUMBER
 FLD .                     ACG:  FIELD NAME
 PDAT.          Mean Sea Level:  PERMANENT DATUM
 FTOP.          Formation Tops:  FORM TOPS DESC
 ILTD.               Lithology:  INTERP LTH DESC
 SVYD.                  Survey:  SURVEY DESC
 DMOD.             Drill Model:  DRILL MOD DESC
 HPTY.       Minimum Curvature:  HOLE POS TYPE
 NREF.                    Grid:  NORTH REFERENCE
 SPUD.               28-Jun-20:  SPUD DATE
 DATE.      18.27.12 28-Jun-20:  END TIME
 STIM.      18.27.12 28-Jun-20:  START TIME
 DMF .             Drill Floor:  DRILL MEAS FROM
 DFST.                        :  DIST FSL TEXT
 DFWT.                        :  DIST FWL TEXT
 CNTY.                        :  COUNTY
 LOC .                        :  LOCATION
 LMF .             Drill Floor:  LOG MEASURED FROM
 VSNS.m                  -7.75:  VERT SEC N/S
 VSEW.m                  -9.19:  VERT SEC E/W
 MMDE.m                   0.00:  MAGUTM CALC DEP
 AGAP.m                  43.60:  AIR GAP
 DEP .m                4058.99:  DEPTH
 APD .m                  43.60:  DEPTH ABOVE PD
 WDMS.m                 151.80:  WD ELEV
 EGL .m                   0.00:  GROUND ELEVATION
 EPD .m                   0.00:  ELEVATION
 AZTC.deg                 6.19:  AZM TOTAL CORR
 GRDC.deg                 0.27:  GRID CORRECTION
 MDEC.deg                 6.46:  MAGNETIC DECL
 MDIP.deg                59.47:  MAGNETIC DIP
 MFLD.nT              50279.00:  MAGNETIC FIELD
 GVFD.g                   1.00:  GRAVITY FIELD
 VSDR.deg               249.96:  VERT SEC DIRECT
 TDD .m                   0.00:  TOTAL DEPTH (DRILLER)
 SDEP.m                   0.00:  START DEPTH
 DFSL.m                   0.00:  DISTANCE FSL
 DFWL.m                   0.00:  DISTANCE FWL
 UTMY.m             4431880.20:  UTM Y
 UTMX.m              538763.98:  UTM X
 WHEW.m                  -9.19:  WELL HEAD E/W
 WHNS.m                  -7.75:  WELL HEAD N/S
 LONG.deg                51.45:  LONGITUDE
 LATI.deg                40.02:  LATITUDE
 TVDS.m                  43.60:  TVDSS CORRECTN
 EKB .m                  43.60:  KB ELEVATION
 EDF .m                  43.60:  DF ELEVATION
 TDL .m                 248.00:  TOTAL DEPTH (LOGGER)
 MAGU.                 1849075:  MAGUTM CHECKSUM
 VSC .                       0:  VS TO CLOSURE
~Parameter Information Block
#MNEM.UNIT       Value        Description
#---------     -----------    ---------------------------
 AV  .mps                 6.34:  Ann Velocity 
 AVMX.mps                 7.00:  Max Ann Veloc 
 AZIF.deg               260.29:  Azm, Final 
 BHAT.        Rotary Steerable:  BHA Type 
 BROT.°/30m               1.20:  Build Rotating 
 BS  .in                  8.50:  Bit Size 
 BSZ .in                  8.50:  Bit Size 
 BTPL.psig              620.00:  Bit Press Loss 
 CABU.                     Yes:  Customer Abuse 
 TCS .hr                 56.22:  Time Ciculation Ended 
 CV  .mps                 3.05:  Crit Velocity 
 CVMX.mps                 3.20:  Max Crit Veloc 
 DD1 .            Musa Ahmadov:  Direct Drillr 1 
 DDSV.                 iCruise:  DD Service 
 DEFF.%                  98.00:  % Det Eff 
 DLRX.°/30m               2.78:  Dogleg Rot Max 
 DLSO.°/30m               0.00:  Dogleg Oriented 
 DLSX.°/30m               0.00:  Dogleg Str Max 
 DRET.      05.20.48 16-Jul-20:  Drill End Time 
 DRST.      10.20.48 13-Jul-20:  Drill Start Tim 
 DTIM.hr                 14.25:  Time Drilling 
 EDEP.m                4326.01:  End Depth 
 ENG1.      Artemiy Matviyanov:  Engineer 1 
 ENG2.           Amrah Tahirov:  Engineer 2 
 ETIM.      22.30.00 18-Jul-20:  End Time 
 FLOI.gpm               550.00:  Flow In 
 FLON.gpm               450.00:  Flow In Min 
 FLOS.cptm                0.00:  Fluid Loss 
 FLOX.gpm               600.00:  Flow In Max 
 HFLO.                      No:  High Flow 
 HPRE.                      No:  High Pressure 
 HTEM.                      No:  High Temp 
 HYDO.m                   1.80:  Hydro Offset 
 IFIN.deg                65.41:  Inc, Final 
 IMAX.deg                65.14:  Inc Max 
 IMIN.deg                58.89:  Inc Min 
 IMND.m                4104.92:  Inc Min Depth 
 IMXD.m                4303.89:  Inc Max Depth 
 JARR.                      No:  Jarring 
 LETM.      10.20.48 17-Jul-20:  Log End Time 
 LOST.hr                     0:  Lost Rig Time 
 LSTM.      10.20.48 13-Jul-20:  Log Start Time 
 MDCL.ppm             37000.00:  Mud Chlorides 
 MDES.     Inversion Oil/Synthetic:  Mud Desc 
 DFD .sg                  1.52:  Mud Density 
 MDMN.sg                  1.52:  Dens Mud Min 
 MDMX.sg                  1.52:  Dens Mud Max 
 MOIL.                   52.70:  Run Mud Oil % 
 MOWR.                   68:32:  Run Mud OWR 
 MSND.                     0.2:  Run Mud Sand % 
 MSOL.                    21.6:  Run Mud Solids% 
 DFV .spqt               79.00:  Mud Viscosity 
 MWOD.in                  6.75:  MWD Tool OD 
 MWSI.                      No:  Serv Intrp, MWD 
 OTIM.hr                114.04:  Time Operating 
 PCON.          Wear / Scratch:  Pad Condition 
 PMAX.psia            11782.92:  Press Op, Max 
 PV  .cP                 49.00:  Mud PV 
 RUN .                     600:  Run Number 
 ROPA.m/hr               20.00:  ROP Avg 
 ROPN.m/hr               15.00:  ROP Min 
 ROPX.m/hr               22.00:  ROP Max 
 RPMA.rpm               120.00:  RPM Surface Avg 
 RPMN.rpm                90.00:  RPM Surface Min 
 RPMX.rpm               140.00:  RPM Surface Max 
 RRUN.                     600:  Rig Run Number 
 SAZI.deg               260.29:  Azm, Start 
 SDEP.m                4078.01:  Start Depth 
 SIDD.                      No:  Serv Intrp, DD 
 SINC.deg                58.89:  Inc, Start 
 SPPA.psig             4560.00:  SPP Avg 
 SPPN.psig             3600.00:  SPP Min 
 SPPX.psig             4800.00:  SPP Max 
 STIM.      10.20.48 13-Jul-20:  Start Time 
 SVCS.                 DD, MWD:  Services 
 SVER.                    9.20:  Sperry Version 
 TDAT.m                4378.01:  Tot Depth Attmp 
 TDDF.                      No:  Trip for DD 
 TDLG.m                 248.00:  Tot Depth Loggd 
 TFF .                      No:  Trip for Fail 
 TQAA.f-kp               18.00:  Torque Abs Avg 
 TQAN.f-kp               15.00:  Torque Abs Min 
 TQAX.f-kp               20.00:  Torque Abs Max 
 TRRT.°/30m               0.70:  Turn Rotating 
 MRT .                    HCIM:  Maximum Recorded Temperature 
 TTMX.degC               86.00:  Max Tool Temp 
 WBMN.klb                 3.00:  WOB Min 
 WOBA.klb                 5.00:  WOB Avg 
 WOBX.klb                 9.00:  WOB Max 
 YP  .lhf2               32.00:  Yield Point 
~Curve Information Block
#MNEM.UNIT                 API CODE     Curve Description
#---------               -----------    ---------------------------
 TIME.HHMMSS            00 000 000 000:  GT Time & Date
 GTDEPTH.m              00 000 000 000:  GT Depth
 GTPQH.psia             00 000 000 000:  GT HR Quartz Pressure
 GTTQ.degC              00 000 000 000:  GT Quartz Temperature
 GTTN.NONE              00 000 000 000:  GT Test Number
 GTET.sec               00 000 000 000:  GT Elapsed Test Time
 GTTVD.m                00 000 000 000:  GT True Vertical Depth
#Other Information
#
#WARRANTY: Halliburton will use its best efforts to furnish customers with 
#accurate information and interpretations that are part of, and incident to, the services 
#provided.  However, Halliburton cannot and does not warrant the accuracy 
#or correctness of such information and interpretations.  Under no circumstances should any 
#such information or interpretation be relied upon as the sole basis for any drilling, 
#completion, production, or financial decision or any procedure involving any risk to the 
#safety of any drilling venture, drilling rig or its crew or any other third party.  The 
#Customer has full responsibility for all drilling, completion and production operation.  
#Halliburton makes no representations or warranties, either expressed or 
#implied, including, but not limited to, the implied warranties of merchantability or fitness 
#for a particular purpose, with respect to the services rendered.  In no event will 
#Halliburton be liable for failure to obtain any particular results or for 
#any damages, including, but not limited to, indirect, special or consequential damages, 
#resulting from the use of any information or interpretation provided by Halliburton.
#
~A           TIME           GTDEPTH  GTPQH  GTTQ  GTTN  GTET   GTTVD  
# ...
   22:18:12.416.16-Jul-2020 4093.01 4652.81 76.40 8.00 322.12 2778.38
   22:18:12.616.16-Jul-2020 4093.01 4652.81 76.40 8.00 322.32 2778.38
   22:18:12.816.16-Jul-2020 4093.01 4652.81 76.40 8.00 322.52 2778.38
   22:18:13.017.16-Jul-2020 4093.01 4652.80 76.40 8.00 322.72 2778.38
   22:18:13.217.16-Jul-2020 4093.01 4652.80 76.40 8.00 322.92 2778.38
   22:18:13.417.16-Jul-2020 4093.01 4652.81 76.40 8.00 323.12 2778.38
   22:18:13.617.16-Jul-2020 4093.01 4652.81 76.40 8.00 323.32 2778.38
   22:18:13.817.16-Jul-2020 4093.01 4652.80 76.40 8.00 323.52 2778.38
   22:18:14.017.16-Jul-2020 4093.01 4652.81 76.40 8.00 323.72 2778.38
   22:18:14.217.16-Jul-2020 4093.01 4652.81 76.40 8.00 323.92 2778.38
   22:18:14.417.16-Jul-2020 4093.01 4652.80 76.40 8.00 324.12 2778.38
   22:18:14.617.16-Jul-2020 4093.01 4652.80 76.40 8.00 324.32 2778.38
   22:18:14.817.16-Jul-2020 4093.01 4652.79 76.40 8.00 324.52 2778.38
   22:18:15.017.16-Jul-2020 4093.01 4652.92 76.40 8.00 324.72 2778.38
   22:18:15.217.16-Jul-2020 4093.01 4652.78 76.40 8.00 324.92 2778.38
   22:18:15.417.16-Jul-2020 4093.01 4652.81 76.40 8.00 325.12 2778.38
   22:18:15.618.16-Jul-2020 4093.01 4652.81 76.40 8.00 325.32 2778.38
   22:18:15.818.16-Jul-2020 4093.01 4652.91 76.40 8.00 325.52 2778.38
   22:18:16.018.16-Jul-2020 4093.01 4652.77 76.40 8.00 325.72 2778.38
   22:18:16.218.16-Jul-2020 4093.01 4652.79 76.40 8.00 325.92 2778.38
   22:18:16.418.16-Jul-2020 4093.01 4652.78 76.40 8.00 326.12 2778.38
   22:18:16.618.16-Jul-2020 4093.01 4652.78 76.40 8.00 326.32 2778.38
   22:18:16.818.16-Jul-2020 4093.01 4652.80 76.40 8.00 326.52 2778.38
   22:18:17.018.16-Jul-2020 4093.01 4652.81 76.40 8.00 326.72 2778.38
   22:18:17.218.16-Jul-2020 4093.01 4652.80 76.40 8.00 326.92 2778.38
   22:18:17.418.16-Jul-2020 4093.01 4652.80 76.40 8.00 327.12 2778.38
   22:18:17.618.16-Jul-2020 4093.01 4652.81 76.40 8.00 327.32 2778.38
   22:18:17.818.16-Jul-2020 4093.01 4652.90 76.40 8.00 327.52 2778.38
   22:18:18.018.16-Jul-2020 4093.01 4652.76 76.40 8.00 327.72 2778.38
   22:18:18.219.16-Jul-2020 4093.01 4652.81 76.40 8.00 327.92 2778.38
   22:18:18.419.16-Jul-2020 4093.01 4652.81 76.40 8.00 328.12 2778.38
   22:18:18.619.16-Jul-2020 4093.01 4652.81 76.40 8.00 328.32 2778.38
   22:18:18.819.16-Jul-2020 4093.01 4652.82 76.40 8.00 328.52 2778.38
   22:18:19.019.16-Jul-2020 4093.01 4652.80 76.40 8.00 328.72 2778.38
   22:18:19.219.16-Jul-2020 4093.01 4652.80 76.40 8.00 328.92 2778.38
   22:18:19.419.16-Jul-2020 4093.01 4652.81 76.40 8.00 329.12 2778.38
   22:18:19.619.16-Jul-2020 4093.01 4652.82 76.40 8.00 329.32 2778.38
   22:18:19.819.16-Jul-2020 4093.01 4652.80 76.40 8.00 329.52 2778.38
   22:18:20.019.16-Jul-2020 4093.01 4652.81 76.40 8.00 329.72 2778.38
   22:18:20.219.16-Jul-2020 4093.01 4652.80 76.40 8.00 329.92 2778.38
   22:18:20.419.16-Jul-2020 4093.01 4652.83 76.40 8.00 330.12 2778.38
   22:18:20.619.16-Jul-2020 4093.01 4652.85 76.40 8.00 330.32 2778.38
   22:18:20.819.16-Jul-2020 4093.01 4652.79 76.40 8.00 330.52 2778.38
   22:18:21.020.16-Jul-2020 4093.01 4652.81 76.40 8.00 330.72 2778.38
   22:18:21.220.16-Jul-2020 4093.01 4652.81 76.40 8.00 330.92 2778.38
   22:18:21.420.16-Jul-2020 4093.01 4652.80 76.40 8.00 331.12 2778.38
   22:18:21.620.16-Jul-2020 4093.01 4652.80 76.40 8.00 331.32 2778.38
   22:18:21.820.16-Jul-2020 4093.01 4652.81 76.40 8.00 331.53 2778.38
   22:18:22.020.16-Jul-2020 4093.01 4652.79 76.40 8.00 331.73 2778.38
   22:18:22.220.16-Jul-2020 4093.01 4652.81 76.40 8.00 331.93 2778.38
   22:18:22.420.16-Jul-2020 4093.01 4652.81 76.40 8.00 332.13 2778.38
   22:18:22.620.16-Jul-2020 4093.01 4652.81 76.40 8.00 332.33 2778.38
   22:18:22.820.16-Jul-2020 4093.01 4652.81 76.40 8.00 332.53 2778.38
   22:18:23.020.16-Jul-2020 4093.01 4652.81 76.40 8.00 332.73 2778.38
   22:18:23.220.16-Jul-2020 4093.01 4652.80 76.40 8.00 332.93 2778.38
   22:18:23.420.16-Jul-2020 4093.01 4652.82 76.40 8.00 333.13 2778.38
   22:18:23.621.16-Jul-2020 4093.01 4652.82 76.40 8.00 333.33 2778.38
   22:18:23.821.16-Jul-2020 4093.01 4652.86 76.40 8.00 333.53 2778.38
   22:18:24.021.16-Jul-2020 4093.01 4652.79 76.40 8.00 333.73 2778.38
   22:18:24.221.16-Jul-2020 4093.01 4652.81 76.40 8.00 333.93 2778.38
   22:18:24.421.16-Jul-2020 4093.01 4652.80 76.40 8.00 334.13 2778.38
   22:18:24.621.16-Jul-2020 4093.01 4652.90 76.40 8.00 334.33 2778.38
   22:18:24.821.16-Jul-2020 4093.01 4652.77 76.40 8.00 334.53 2778.38
   22:18:25.021.16-Jul-2020 4093.01 4652.80 76.40 8.00 334.73 2778.38
   22:18:25.221.16-Jul-2020 4093.01 4652.82 76.40 8.00 334.93 2778.38
   22:18:25.421.16-Jul-2020 4093.01 4652.86 76.40 8.00 335.13 2778.38
   22:18:25.621.16-Jul-2020 4093.01 4652.86 76.40 8.00 335.33 2778.38
   22:18:25.821.16-Jul-2020 4093.01 4652.81 76.40 8.00 335.53 2778.38
   22:18:26.021.16-Jul-2020 4093.01 4652.81 76.40 8.00 335.73 2778.38
   22:18:26.222.16-Jul-2020 4093.01 4652.80 76.40 8.00 335.93 2778.38
   22:18:26.422.16-Jul-2020 4093.01 4652.80 76.40 8.00 336.13 2778.38
   22:18:26.622.16-Jul-2020 4093.01 4652.80 76.40 8.00 336.33 2778.38
   22:18:26.822.16-Jul-2020 4093.01 4652.77 76.40 8.00 336.53 2778.38
   22:18:27.022.16-Jul-2020 4093.01 4652.82 76.40 8.00 336.73 2778.38
   22:18:27.222.16-Jul-2020 4093.01 4652.80 76.40 8.00 336.93 2778.38
   22:18:27.422.16-Jul-2020 4093.01 4652.80 76.40 8.00 337.13 2778.38
   22:18:27.622.16-Jul-2020 4093.01 4652.80 76.40 8.00 337.33 2778.38
   22:18:27.822.16-Jul-2020 4093.01 4652.80 76.40 8.00 337.53 2778.38
   22:18:28.022.16-Jul-2020 4093.01 4652.81 76.40 8.00 337.73 2778.38
   22:18:28.222.16-Jul-2020 4093.01 4652.81 76.40 8.00 337.93 2778.38
   22:18:28.422.16-Jul-2020 4093.01 4652.80 76.40 8.00 338.13 2778.38
   22:18:28.622.16-Jul-2020 4093.01 4652.80 76.40 8.00 338.33 2778.38
   22:18:28.823.16-Jul-2020 4093.01 4652.80 76.40 8.00 338.53 2778.38
   22:18:29.023.16-Jul-2020 4093.01 4652.80 76.40 8.00 338.73 2778.38
   22:18:29.223.16-Jul-2020 4093.01 4652.92 76.40 8.00 338.93 2778.38
   22:18:29.423.16-Jul-2020 4093.01 4652.76 76.40 8.00 339.13 2778.38
   22:18:29.623.16-Jul-2020 4093.01 4652.76 76.40 8.00 339.33 2778.38
   22:18:29.823.16-Jul-2020 4093.01 4652.81 76.40 8.00 339.53 2778.38
   22:18:30.023.16-Jul-2020 4093.01 4652.80 76.40 8.00 339.73 2778.38
   22:18:30.223.16-Jul-2020 4093.01 4652.81 76.40 8.00 339.93 2778.38
   22:18:30.423.16-Jul-2020 4093.01 4652.81 76.40 8.00 340.13 2778.38
   22:18:30.623.16-Jul-2020 4093.01 4652.81 76.40 8.00 340.33 2778.38
   22:18:30.823.16-Jul-2020 4093.01 4652.81 76.40 8.00 340.53 2778.38
   22:18:31.023.16-Jul-2020 4093.01 4652.81 76.40 8.00 340.73 2778.38
   22:18:31.223.16-Jul-2020 4093.01 4652.81 76.40 8.00 340.93 2778.38
   22:18:31.423.16-Jul-2020 4093.01 4652.81 76.40 8.00 341.13 2778.38
   22:18:31.624.16-Jul-2020 4093.01 4652.80 76.40 8.00 341.33 2778.38
   22:18:31.824.16-Jul-2020 4093.01 4652.80 76.40 8.00 341.53 2778.38
   22:18:32.024.16-Jul-2020 4093.01 4652.82 76.40 8.00 341.73 2778.38
   22:18:32.224.16-Jul-2020 4093.01 4652.80 76.40 8.00 341.93 2778.38
   22:18:32.424.16-Jul-2020 4093.01 4652.91 76.40 8.00 342.13 2778.38
   22:18:32.624.16-Jul-2020 4093.01 4652.77 76.40 8.00 342.33 2778.38
   22:18:32.824.16-Jul-2020 4093.01 4652.80 76.40 8.00 342.53 2778.38
   22:18:33.024.16-Jul-2020 4093.01 4652.81 76.40 8.00 342.73 2778.38
   22:18:33.224.16-Jul-2020 4093.01 4652.77 76.40 8.00 342.93 2778.38
   22:18:33.424.16-Jul-2020 4093.01 4652.91 76.40 8.00 343.13 2778.38
   22:18:33.624.16-Jul-2020 4093.01 4652.91 76.40 8.00 343.33 2778.38
   22:18:33.824.16-Jul-2020 4093.01 4652.81 76.40 8.00 343.53 2778.38
   22:18:34.024.16-Jul-2020 4093.01 4652.90 76.40 8.00 343.73 2778.38
   22:18:34.225.16-Jul-2020 4093.01 4652.77 76.40 8.00 343.93 2778.38
   22:18:34.425.16-Jul-2020 4093.01 4652.82 76.40 8.00 344.13 2778.38
   22:18:34.625.16-Jul-2020 4093.01 4652.80 76.40 8.00 344.33 2778.38
   22:18:34.825.16-Jul-2020 4093.01 4652.80 76.40 8.00 344.53 2778.38
   22:18:35.025.16-Jul-2020 4093.01 4652.80 76.40 8.00 344.73 2778.38
   22:18:35.225.16-Jul-2020 4093.01 4652.77 76.40 8.00 344.93 2778.38
