~Version Information
 VERS.                  2.0:   CWLS log ASCII Standard -VERSION 2.0
 WRAP.                   NO:   One line per depth step
~Well Information Block
#MNEM.UNIT     VALUE/NAME     DESCRIPTION
#---------     -----------    ---------------------------
 STRT.S             17:17:21 16-Jul-20: START TIME 17:17:21 16-Jul-20
 STOP.S             17:24:07 16-Jul-20: STOP TIME  17:24:07 16-Jul-20
 STEP.S                   0.00: STEP TIME
 NULL.                 -999.25: NULL VALUE
 MDS .        Operator Entered:  MAG DATA SOURCE
 UNIT.                     N/A:  LOGGING EQUIPMENT ID
 DCON.         Sperry Drilling:  DIRECTNL CONTR
 DOE .                     N/A:  DOE NUMBER
 RIG .               EastAzeri:  RIG NAME
 JOBN.        AZ-XX-0906363297:  JOB TICKET NUMB
 MWDS.                    Baku:  MWD SHOP
 SRVC.     Turan Drilling & Engineering:  CONTRACTOR
 PROV.                    Baku:  PROVINCE
 STAT.                    Baku:  STATE NAME
 REGN.                   EESSA:  REGION
 BASE.              Azerbaijan:  LOGGING EQUIPMENT BASE LOCATION
 WTYP.                Deviated:  WELL TYPE
 UWI .                     N/A:  UNIQUE WELL IDENTIFIER
 API .                     N/A:  API NUMBER
 COMP.     BP Exploration (Caspian Sea) ltd.:  COMPANY
 WELL.                    D07z:  WELL NAME
 CTRY.              Azerbaijan:  COUNTRY NAME
 SON .        AZ-XX-0906363297:  JOB NUMBER
 FLD .                     ACG:  FIELD NAME
 PDAT.          Mean Sea Level:  PERMANENT DATUM
 FTOP.          Formation Tops:  FORM TOPS DESC
 ILTD.               Lithology:  INTERP LTH DESC
 SVYD.                  Survey:  SURVEY DESC
 DMOD.             Drill Model:  DRILL MOD DESC
 HPTY.       Minimum Curvature:  HOLE POS TYPE
 NREF.                    Grid:  NORTH REFERENCE
 SPUD.               28-Jun-20:  SPUD DATE
 DATE.      18.27.12 28-Jun-20:  END TIME
 STIM.      18.27.12 28-Jun-20:  START TIME
 DMF .             Drill Floor:  DRILL MEAS FROM
 DFST.                        :  DIST FSL TEXT
 DFWT.                        :  DIST FWL TEXT
 CNTY.                        :  COUNTY
 LOC .                        :  LOCATION
 LMF .             Drill Floor:  LOG MEASURED FROM
 VSNS.m                  -7.75:  VERT SEC N/S
 VSEW.m                  -9.19:  VERT SEC E/W
 MMDE.m                   0.00:  MAGUTM CALC DEP
 AGAP.m                  43.60:  AIR GAP
 DEP .m                4058.99:  DEPTH
 APD .m                  43.60:  DEPTH ABOVE PD
 WDMS.m                 151.80:  WD ELEV
 EGL .m                   0.00:  GROUND ELEVATION
 EPD .m                   0.00:  ELEVATION
 AZTC.deg                 6.19:  AZM TOTAL CORR
 GRDC.deg                 0.27:  GRID CORRECTION
 MDEC.deg                 6.46:  MAGNETIC DECL
 MDIP.deg                59.47:  MAGNETIC DIP
 MFLD.nT              50279.00:  MAGNETIC FIELD
 GVFD.g                   1.00:  GRAVITY FIELD
 VSDR.deg               249.96:  VERT SEC DIRECT
 TDD .m                   0.00:  TOTAL DEPTH (DRILLER)
 SDEP.m                   0.00:  START DEPTH
 DFSL.m                   0.00:  DISTANCE FSL
 DFWL.m                   0.00:  DISTANCE FWL
 UTMY.m             4431880.20:  UTM Y
 UTMX.m              538763.98:  UTM X
 WHEW.m                  -9.19:  WELL HEAD E/W
 WHNS.m                  -7.75:  WELL HEAD N/S
 LONG.deg                51.45:  LONGITUDE
 LATI.deg                40.02:  LATITUDE
 TVDS.m                  43.60:  TVDSS CORRECTN
 EKB .m                  43.60:  KB ELEVATION
 EDF .m                  43.60:  DF ELEVATION
 TDL .m                 248.00:  TOTAL DEPTH (LOGGER)
 MAGU.                 1849075:  MAGUTM CHECKSUM
 VSC .                       0:  VS TO CLOSURE
~Parameter Information Block
#MNEM.UNIT       Value        Description
#---------     -----------    ---------------------------
 AV  .mps                 6.34:  Ann Velocity 
 AVMX.mps                 7.00:  Max Ann Veloc 
 AZIF.deg               260.29:  Azm, Final 
 BHAT.        Rotary Steerable:  BHA Type 
 BROT.°/30m               1.20:  Build Rotating 
 BS  .in                  8.50:  Bit Size 
 BSZ .in                  8.50:  Bit Size 
 BTPL.psig              620.00:  Bit Press Loss 
 CABU.                     Yes:  Customer Abuse 
 COMM.                     fb:  Run Comments 1 
 TCS .hr                 56.22:  Time Ciculation Ended 
 CV  .mps                 3.05:  Crit Velocity 
 CVMX.mps                 3.20:  Max Crit Veloc 
 DD1 .            Musa Ahmadov:  Direct Drillr 1 
 DDSV.                 iCruise:  DD Service 
 DEFF.%                  98.00:  % Det Eff 
 DLRX.°/30m               2.78:  Dogleg Rot Max 
 DLSO.°/30m               0.00:  Dogleg Oriented 
 DLSX.°/30m               0.00:  Dogleg Str Max 
 DRET.      05.20.48 16-Jul-20:  Drill End Time 
 DRST.      10.20.48 13-Jul-20:  Drill Start Tim 
 DTIM.hr                 14.25:  Time Drilling 
 EDEP.m                4326.01:  End Depth 
 ENG1.      Artemiy Matviyanov:  Engineer 1 
 ENG2.           Amrah Tahirov:  Engineer 2 
 ETIM.      22.30.00 18-Jul-20:  End Time 
 FLOI.gpm               550.00:  Flow In 
 FLON.gpm               450.00:  Flow In Min 
 FLOS.cptm                0.00:  Fluid Loss 
 FLOX.gpm               600.00:  Flow In Max 
 HFLO.                      No:  High Flow 
 HPRE.                      No:  High Pressure 
 HTEM.                      No:  High Temp 
 HYDO.m                   1.80:  Hydro Offset 
 IFIN.deg                65.41:  Inc, Final 
 IMAX.deg                65.14:  Inc Max 
 IMIN.deg                58.89:  Inc Min 
 IMND.m                4104.92:  Inc Min Depth 
 IMXD.m                4303.89:  Inc Max Depth 
 JARR.                      No:  Jarring 
 LETM.      10.20.48 17-Jul-20:  Log End Time 
 LOST.hr                     0:  Lost Rig Time 
 LSTM.      10.20.48 13-Jul-20:  Log Start Time 
 MDCL.ppm             37000.00:  Mud Chlorides 
 MDES.     Inversion Oil/Synthetic:  Mud Desc 
 DFD .sg                  1.52:  Mud Density 
 MDMN.sg                  1.52:  Dens Mud Min 
 MDMX.sg                  1.52:  Dens Mud Max 
 MOIL.                   52.70:  Run Mud Oil % 
 MOWR.                   68:32:  Run Mud OWR 
 MSND.                     0.2:  Run Mud Sand % 
 MSOL.                    21.6:  Run Mud Solids% 
 DFV .spqt               79.00:  Mud Viscosity 
 MWOD.in                  6.75:  MWD Tool OD 
 MWSI.                      No:  Serv Intrp, MWD 
 OTIM.hr                114.04:  Time Operating 
 PCON.          Wear / Scratch:  Pad Condition 
 PMAX.psia            11782.92:  Press Op, Max 
 PV  .cP                 49.00:  Mud PV 
 RUN .                     600:  Run Number 
 ROPA.m/hr               20.00:  ROP Avg 
 ROPN.m/hr               15.00:  ROP Min 
 ROPX.m/hr               22.00:  ROP Max 
 RPMA.rpm               120.00:  RPM Surface Avg 
 RPMN.rpm                90.00:  RPM Surface Min 
 RPMX.rpm               140.00:  RPM Surface Max 
 RRUN.                     600:  Rig Run Number 
 SAZI.deg               260.29:  Azm, Start 
 SDEP.m                4078.01:  Start Depth 
 SIDD.                      No:  Serv Intrp, DD 
 SINC.deg                58.89:  Inc, Start 
 SPPA.psig             4560.00:  SPP Avg 
 SPPN.psig             3600.00:  SPP Min 
 SPPX.psig             4800.00:  SPP Max 
 STIM.      10.20.48 13-Jul-20:  Start Time 
 SVCS.                 DD, MWD:  Services 
 SVER.                    9.20:  Sperry Version 
 TDAT.m                4378.01:  Tot Depth Attmp 
 TDDF.                      No:  Trip for DD 
 TDLG.m                 248.00:  Tot Depth Loggd 
 TFF .                      No:  Trip for Fail 
 TQAA.f-kp               18.00:  Torque Abs Avg 
 TQAN.f-kp               15.00:  Torque Abs Min 
 TQAX.f-kp               20.00:  Torque Abs Max 
 TRRT.°/30m               0.70:  Turn Rotating 
 MRT .                    HCIM:  Maximum Recorded Temperature 
 TTMX.degC               86.00:  Max Tool Temp 
 WBMN.klb                 3.00:  WOB Min 
 WOBA.klb                 5.00:  WOB Avg 
 WOBX.klb                 9.00:  WOB Max 
 YP  .lhf2               32.00:  Yield Point 
~Curve Information Block
#MNEM.UNIT                 API CODE     Curve Description
#---------               -----------    ---------------------------
 TIME.HHMMSS            00 000 000 000:  GT Time & Date
 GTDEPTH.m              00 000 000 000:  GT Depth
 GTPQH.psia             00 000 000 000:  GT HR Quartz Pressure
 GTTQ.degC              00 000 000 000:  GT Quartz Temperature
 GTTN.NONE              00 000 000 000:  GT Test Number
 GTET.sec               00 000 000 000:  GT Elapsed Test Time
 GTTVD.m                00 000 000 000:  GT True Vertical Depth
#Other Information
#
#WARRANTY: Halliburton will use its best efforts to furnish customers with 
#accurate information and interpretations that are part of, and incident to, the services 
#provided.  However, Halliburton cannot and does not warrant the accuracy 
#or correctness of such information and interpretations.  Under no circumstances should any 
#such information or interpretation be relied upon as the sole basis for any drilling, 
#completion, production, or financial decision or any procedure involving any risk to the 
#safety of any drilling venture, drilling rig or its crew or any other third party.  The 
#Customer has full responsibility for all drilling, completion and production operation.  
#Halliburton makes no representations or warranties, either expressed or 
#implied, including, but not limited to, the implied warranties of merchantability or fitness 
#for a particular purpose, with respect to the services rendered.  In no event will 
#Halliburton be liable for failure to obtain any particular results or for 
#any damages, including, but not limited to, indirect, special or consequential damages, 
#resulting from the use of any information or interpretation provided by Halliburton.
#
~A           TIME           GTDEPTH  GTPQH  GTTQ  GTTN  GTET   GTTVD  
# ...
   17:18:30.661.16-Jul-2020 4251.01 4377.08 79.82 3.00  69.01 2851.33
   17:18:30.861.16-Jul-2020 4251.01 4394.44 79.82 3.00  69.21 2851.33
   17:18:31.061.16-Jul-2020 4251.01 4410.84 79.83 3.00  69.41 2851.33
   17:18:31.261.16-Jul-2020 4251.01 4429.14 79.83 3.00  69.61 2851.33
   17:18:31.461.16-Jul-2020 4251.01 4445.30 79.83 3.00  69.81 2851.33
   17:18:31.661.16-Jul-2020 4251.01 4459.98 79.83 3.00  70.01 2851.33
   17:18:31.861.16-Jul-2020 4251.01 4459.98 79.83 3.00  70.21 2851.33
   17:18:32.061.16-Jul-2020 4251.01 4487.16 79.83 3.00  70.41 2851.33
   17:18:32.262.16-Jul-2020 4251.01 4500.74 79.83 3.00  70.61 2851.33
   17:18:32.462.16-Jul-2020 4251.01 4513.55 79.83 3.00  70.81 2851.33
   17:18:32.662.16-Jul-2020 4251.01 4525.60 79.84 3.00  71.01 2851.33
   17:18:32.862.16-Jul-2020 4251.01 4525.60 79.84 3.00  71.21 2851.33
   17:18:33.062.16-Jul-2020 4251.01 4548.00 79.84 3.00  71.41 2851.33
   17:18:33.262.16-Jul-2020 4251.01 4557.04 79.84 3.00  71.61 2851.33
   17:18:33.462.16-Jul-2020 4251.01 4565.33 79.84 3.00  71.81 2851.33
   17:18:33.662.16-Jul-2020 4251.01 4572.72 79.84 3.00  72.01 2851.33
   17:18:33.862.16-Jul-2020 4251.01 4579.47 79.84 3.00  72.21 2851.33
   17:18:34.062.16-Jul-2020 4251.01 4585.48 79.84 3.00  72.41 2851.33
   17:18:34.262.16-Jul-2020 4251.01 4590.97 79.84 3.00  72.61 2851.33
   17:18:34.462.16-Jul-2020 4251.01 4595.81 79.84 3.00  72.81 2851.33
   17:18:34.662.16-Jul-2020 4251.01 4600.18 79.85 3.00  73.02 2851.33
   17:18:34.862.16-Jul-2020 4251.01 4604.12 79.85 3.00  73.22 2851.33
   17:18:35.062.16-Jul-2020 4251.01 4607.73 79.85 3.00  73.42 2851.33
   17:18:35.262.16-Jul-2020 4251.01 4609.95 79.85 3.00  73.62 2851.33
   17:18:35.462.16-Jul-2020 4251.01 4613.54 79.85 3.00  73.82 2851.33
   17:18:35.662.16-Jul-2020 4251.01 4616.06 79.85 3.00  74.02 2851.33
   17:18:35.862.16-Jul-2020 4251.01 4616.06 79.85 3.00  74.22 2851.33
   17:18:36.062.16-Jul-2020 4251.01 4620.07 79.85 3.00  74.42 2851.33
   17:18:36.262.16-Jul-2020 4251.01 4621.38 79.85 3.00  74.62 2851.33
   17:18:36.462.16-Jul-2020 4251.01 4622.51 79.85 3.00  74.82 2851.33
   17:18:36.662.16-Jul-2020 4251.01 4623.52 79.85 3.00  75.02 2851.33
   17:18:36.862.16-Jul-2020 4251.01 4623.52 79.85 3.00  75.22 2851.33
   17:18:37.063.16-Jul-2020 4251.01 4624.89 79.85 3.00  75.42 2851.33
   17:18:37.263.16-Jul-2020 4251.01 4625.37 79.85 3.00  75.62 2851.33
   17:18:37.463.16-Jul-2020 4251.01 4625.84 79.85 3.00  75.82 2851.33
   17:18:37.663.16-Jul-2020 4251.01 4626.12 79.86 3.00  76.02 2851.33
   17:18:37.863.16-Jul-2020 4251.01 4626.12 79.86 3.00  76.22 2851.33
   17:18:38.063.16-Jul-2020 4251.01 4626.67 79.86 3.00  76.42 2851.33
   17:18:38.263.16-Jul-2020 4251.01 4626.88 79.86 3.00  76.62 2851.33
   17:18:38.463.16-Jul-2020 4251.01 4626.40 79.86 3.00  76.82 2851.33
   17:18:38.663.16-Jul-2020 4251.01 4628.38 79.86 3.00  77.02 2851.33
   17:18:38.863.16-Jul-2020 4251.01 4628.53 79.86 3.00  77.22 2851.33
   17:18:39.063.16-Jul-2020 4251.01 4628.51 79.86 3.00  77.42 2851.33
   17:18:39.263.16-Jul-2020 4251.01 4628.51 79.86 3.00  77.62 2851.33
   17:18:39.463.16-Jul-2020 4251.01 4628.50 79.86 3.00  77.82 2851.33
   17:18:39.663.16-Jul-2020 4251.01 4628.55 79.86 3.00  78.02 2851.33
   17:18:39.863.16-Jul-2020 4251.01 4628.55 79.86 3.00  78.22 2851.33
   17:18:40.063.16-Jul-2020 4251.01 4628.57 79.86 3.00  78.42 2851.33
   17:18:40.263.16-Jul-2020 4251.01 4628.62 79.86 3.00  78.62 2851.33
   17:18:40.463.16-Jul-2020 4251.01 4628.60 79.86 3.00  78.82 2851.33
   17:18:40.663.16-Jul-2020 4251.01 4628.58 79.86 3.00  79.02 2851.33
   17:18:40.863.16-Jul-2020 4251.01 4628.67 79.86 3.00  79.22 2851.33
   17:18:41.063.16-Jul-2020 4251.01 4628.60 79.86 3.00  79.42 2851.33
   17:18:41.263.16-Jul-2020 4251.01 4628.68 79.86 3.00  79.62 2851.33
   17:18:41.463.16-Jul-2020 4251.01 4628.63 79.86 3.00  79.82 2851.33
   17:18:41.663.16-Jul-2020 4251.01 4628.63 79.86 3.00  80.02 2851.33
   17:18:41.864.16-Jul-2020 4251.01 4628.63 79.86 3.00  80.22 2851.33
   17:18:42.064.16-Jul-2020 4251.01 4628.69 79.86 3.00  80.42 2851.33
   17:18:42.264.16-Jul-2020 4251.01 4628.66 79.86 3.00  80.62 2851.33
   17:18:42.464.16-Jul-2020 4251.01 4628.66 79.86 3.00  80.82 2851.33
   17:18:42.664.16-Jul-2020 4251.01 4628.68 79.86 3.00  81.02 2851.33
   17:18:42.864.16-Jul-2020 4251.01 4628.66 79.86 3.00  81.22 2851.33
   17:18:43.064.16-Jul-2020 4251.01 4628.63 79.86 3.00  81.42 2851.33
   17:18:43.264.16-Jul-2020 4251.01 4628.64 79.86 3.00  81.62 2851.33
   17:18:43.464.16-Jul-2020 4251.01 4628.63 79.86 3.00  81.82 2851.33
   17:18:43.664.16-Jul-2020 4251.01 4628.63 79.86 3.00  82.02 2851.33
   17:18:43.864.16-Jul-2020 4251.01 4628.63 79.86 3.00  82.22 2851.33
   17:18:44.064.16-Jul-2020 4251.01 4628.62 79.86 3.00  82.42 2851.33
   17:18:44.264.16-Jul-2020 4251.01 4628.62 79.86 3.00  82.62 2851.33
   17:18:44.464.16-Jul-2020 4251.01 4628.62 79.86 3.00  82.82 2851.33
   17:18:44.664.16-Jul-2020 4251.01 4628.64 79.86 3.00  83.02 2851.33
   17:18:44.864.16-Jul-2020 4251.01 4628.64 79.86 3.00  83.22 2851.33
   17:18:45.064.16-Jul-2020 4251.01 4628.71 79.86 3.00  83.42 2851.33
   17:18:45.264.16-Jul-2020 4251.01 4628.67 79.86 3.00  83.62 2851.33
   17:18:45.464.16-Jul-2020 4251.01 4628.66 79.86 3.00  83.82 2851.33
   17:18:45.664.16-Jul-2020 4251.01 4628.66 79.86 3.00  84.02 2851.33
   17:18:45.864.16-Jul-2020 4251.01 4628.66 79.86 3.00  84.22 2851.33
   17:18:46.064.16-Jul-2020 4251.01 4628.64 79.86 3.00  84.42 2851.33
   17:18:46.264.16-Jul-2020 4251.01 4628.64 79.86 3.00  84.62 2851.33
   17:18:46.464.16-Jul-2020 4251.01 4628.63 79.86 3.00  84.82 2851.33
   17:18:46.664.16-Jul-2020 4251.01 4628.64 79.86 3.00  85.02 2851.33
   17:18:46.865.16-Jul-2020 4251.01 4628.63 79.86 3.00  85.22 2851.33
   17:18:47.065.16-Jul-2020 4251.01 4628.63 79.86 3.00  85.42 2851.33
   17:18:47.265.16-Jul-2020 4251.01 4628.62 79.86 3.00  85.62 2851.33
   17:18:47.465.16-Jul-2020 4251.01 4628.62 79.86 3.00  85.82 2851.33
   17:18:47.665.16-Jul-2020 4251.01 4628.62 79.86 3.00  86.02 2851.33
   17:18:47.865.16-Jul-2020 4251.01 4628.62 79.86 3.00  86.22 2851.33
   17:18:48.065.16-Jul-2020 4251.01 4628.72 79.86 3.00  86.42 2851.33
   17:18:48.265.16-Jul-2020 4251.01 4628.70 79.86 3.00  86.62 2851.33
   17:18:48.465.16-Jul-2020 4251.01 4628.63 79.86 3.00  86.82 2851.33
   17:18:48.665.16-Jul-2020 4251.01 4628.71 79.86 3.00  87.02 2851.33
   17:18:48.865.16-Jul-2020 4251.01 4628.71 79.86 3.00  87.22 2851.33
   17:18:49.065.16-Jul-2020 4251.01 4628.68 79.86 3.00  87.42 2851.33
   17:18:49.265.16-Jul-2020 4251.01 4628.74 79.86 3.00  87.62 2851.33
   17:18:49.465.16-Jul-2020 4251.01 4628.63 79.86 3.00  87.82 2851.33
   17:18:49.665.16-Jul-2020 4251.01 4628.71 79.86 3.00  88.02 2851.33
   17:18:49.865.16-Jul-2020 4251.01 4628.71 79.86 3.00  88.22 2851.33
   17:18:50.065.16-Jul-2020 4251.01 4628.66 79.86 3.00  88.42 2851.33
   17:18:50.265.16-Jul-2020 4251.01 4628.74 79.86 3.00  88.62 2851.33
   17:18:50.465.16-Jul-2020 4251.01 4628.66 79.86 3.00  88.82 2851.33
   17:18:50.665.16-Jul-2020 4251.01 4628.65 79.86 3.00  89.02 2851.33
   17:18:50.865.16-Jul-2020 4251.01 4628.68 79.86 3.00  89.22 2851.33
   17:18:51.065.16-Jul-2020 4251.01 4628.68 79.86 3.00  89.42 2851.33
   17:18:51.265.16-Jul-2020 4251.01 4628.66 79.86 3.00  89.62 2851.33
   17:18:51.465.16-Jul-2020 4251.01 4628.67 79.86 3.00  89.82 2851.33
   17:18:51.666.16-Jul-2020 4251.01 4628.67 79.86 3.00  90.02 2851.33
   17:18:51.866.16-Jul-2020 4251.01 4628.67 79.86 3.00  90.22 2851.33
   17:18:52.066.16-Jul-2020 4251.01 4628.66 79.86 3.00  90.42 2851.33
   17:18:52.266.16-Jul-2020 4251.01 4628.65 79.86 3.00  90.62 2851.33
   17:18:52.466.16-Jul-2020 4251.01 4628.63 79.86 3.00  90.82 2851.33
   17:18:52.666.16-Jul-2020 4251.01 4628.65 79.86 3.00  91.02 2851.33
   17:18:52.866.16-Jul-2020 4251.01 4628.65 79.86 3.00  91.22 2851.33
   17:18:53.066.16-Jul-2020 4251.01 4628.69 79.85 3.00  91.42 2851.33
   17:18:53.266.16-Jul-2020 4251.01 4628.63 79.85 3.00  91.62 2851.33
   17:18:53.466.16-Jul-2020 4251.01 4628.66 79.85 3.00  91.82 2851.33
