~Version Information
 VERS.                  2.0:   CWLS log ASCII Standard -VERSION 2.0
 WRAP.                   NO:   One line per depth step
~Well Information Block
#MNEM.UNIT     VALUE/NAME     DESCRIPTION
#---------     -----------    ---------------------------
 STRT.S             17:17:21 16-Jul-20: START TIME 17:17:21 16-Jul-20
 STOP.S             17:24:07 16-Jul-20: STOP TIME  17:24:07 16-Jul-20
 STEP.S                   0.00: STEP TIME
 NULL.                 -999.25: NULL VALUE
 MDS .        Operator Entered:  MAG DATA SOURCE
 UNIT.                     N/A:  LOGGING EQUIPMENT ID
 DCON.         Sperry Drilling:  DIRECTNL CONTR
 DOE .                     N/A:  DOE NUMBER
 RIG .               EastAzeri:  RIG NAME
 JOBN.        AZ-XX-0906363297:  JOB TICKET NUMB
 MWDS.                    Baku:  MWD SHOP
 SRVC.     Turan Drilling & Engineering:  CONTRACTOR
 PROV.                    Baku:  PROVINCE
 STAT.                    Baku:  STATE NAME
 REGN.                   EESSA:  REGION
 BASE.              Azerbaijan:  LOGGING EQUIPMENT BASE LOCATION
 WTYP.                Deviated:  WELL TYPE
 UWI .                     N/A:  UNIQUE WELL IDENTIFIER
 API .                     N/A:  API NUMBER
 COMP.     BP Exploration (Caspian Sea) ltd.:  COMPANY
 WELL.                    D07z:  WELL NAME
 CTRY.              Azerbaijan:  COUNTRY NAME
 SON .        AZ-XX-0906363297:  JOB NUMBER
 FLD .                     ACG:  FIELD NAME
 PDAT.          Mean Sea Level:  PERMANENT DATUM
 FTOP.          Formation Tops:  FORM TOPS DESC
 ILTD.               Lithology:  INTERP LTH DESC
 SVYD.                  Survey:  SURVEY DESC
 DMOD.             Drill Model:  DRILL MOD DESC
 HPTY.       Minimum Curvature:  HOLE POS TYPE
 NREF.                    Grid:  NORTH REFERENCE
 SPUD.               28-Jun-20:  SPUD DATE
 DATE.      18.27.12 28-Jun-20:  END TIME
 STIM.      18.27.12 28-Jun-20:  START TIME
 DMF .             Drill Floor:  DRILL MEAS FROM
 DFST.                        :  DIST FSL TEXT
 DFWT.                        :  DIST FWL TEXT
 CNTY.                        :  COUNTY
 LOC .                        :  LOCATION
 LMF .             Drill Floor:  LOG MEASURED FROM
 VSNS.m                  -7.75:  VERT SEC N/S
 VSEW.m                  -9.19:  VERT SEC E/W
 MMDE.m                   0.00:  MAGUTM CALC DEP
 AGAP.m                  43.60:  AIR GAP
 DEP .m                4058.99:  DEPTH
 APD .m                  43.60:  DEPTH ABOVE PD
 WDMS.m                 151.80:  WD ELEV
 EGL .m                   0.00:  GROUND ELEVATION
 EPD .m                   0.00:  ELEVATION
 AZTC.deg                 6.19:  AZM TOTAL CORR
 GRDC.deg                 0.27:  GRID CORRECTION
 MDEC.deg                 6.46:  MAGNETIC DECL
 MDIP.deg                59.47:  MAGNETIC DIP
 MFLD.nT              50279.00:  MAGNETIC FIELD
 GVFD.g                   1.00:  GRAVITY FIELD
 VSDR.deg               249.96:  VERT SEC DIRECT
 TDD .m                   0.00:  TOTAL DEPTH (DRILLER)
 SDEP.m                   0.00:  START DEPTH
 DFSL.m                   0.00:  DISTANCE FSL
 DFWL.m                   0.00:  DISTANCE FWL
 UTMY.m             4431880.20:  UTM Y
 UTMX.m              538763.98:  UTM X
 WHEW.m                  -9.19:  WELL HEAD E/W
 WHNS.m                  -7.75:  WELL HEAD N/S
 LONG.deg                51.45:  LONGITUDE
 LATI.deg                40.02:  LATITUDE
 TVDS.m                  43.60:  TVDSS CORRECTN
 EKB .m                  43.60:  KB ELEVATION
 EDF .m                  43.60:  DF ELEVATION
 TDL .m                 248.00:  TOTAL DEPTH (LOGGER)
 MAGU.                 1849075:  MAGUTM CHECKSUM
 VSC .                       0:  VS TO CLOSURE
~Parameter Information Block
#MNEM.UNIT       Value        Description
#---------     -----------    ---------------------------
 AV  .mps                 6.34:  Ann Velocity 
 AVMX.mps                 7.00:  Max Ann Veloc 
 AZIF.deg               260.29:  Azm, Final 
 BHAT.        Rotary Steerable:  BHA Type 
 BROT.°/30m               1.20:  Build Rotating 
 BS  .in                  8.50:  Bit Size 
 BSZ .in                  8.50:  Bit Size 
 BTPL.psig              620.00:  Bit Press Loss 
 CABU.                     Yes:  Customer Abuse 
 COMM.                     fb:  Run Comments 1 
 TCS .hr                 56.22:  Time Ciculation Ended 
 CV  .mps                 3.05:  Crit Velocity 
 CVMX.mps                 3.20:  Max Crit Veloc 
 DD1 .            Musa Ahmadov:  Direct Drillr 1 
 DDSV.                 iCruise:  DD Service 
 DEFF.%                  98.00:  % Det Eff 
 DLRX.°/30m               2.78:  Dogleg Rot Max 
 DLSO.°/30m               0.00:  Dogleg Oriented 
 DLSX.°/30m               0.00:  Dogleg Str Max 
 DRET.      05.20.48 16-Jul-20:  Drill End Time 
 DRST.      10.20.48 13-Jul-20:  Drill Start Tim 
 DTIM.hr                 14.25:  Time Drilling 
 EDEP.m                4326.01:  End Depth 
 ENG1.      Artemiy Matviyanov:  Engineer 1 
 ENG2.           Amrah Tahirov:  Engineer 2 
 ETIM.      22.30.00 18-Jul-20:  End Time 
 FLOI.gpm               550.00:  Flow In 
 FLON.gpm               450.00:  Flow In Min 
 FLOS.cptm                0.00:  Fluid Loss 
 FLOX.gpm               600.00:  Flow In Max 
 HFLO.                      No:  High Flow 
 HPRE.                      No:  High Pressure 
 HTEM.                      No:  High Temp 
 HYDO.m                   1.80:  Hydro Offset 
 IFIN.deg                65.41:  Inc, Final 
 IMAX.deg                65.14:  Inc Max 
 IMIN.deg                58.89:  Inc Min 
 IMND.m                4104.92:  Inc Min Depth 
 IMXD.m                4303.89:  Inc Max Depth 
 JARR.                      No:  Jarring 
 LETM.      10.20.48 17-Jul-20:  Log End Time 
 LOST.hr                     0:  Lost Rig Time 
 LSTM.      10.20.48 13-Jul-20:  Log Start Time 
 MDCL.ppm             37000.00:  Mud Chlorides 
 MDES.     Inversion Oil/Synthetic:  Mud Desc 
 DFD .sg                  1.52:  Mud Density 
 MDMN.sg                  1.52:  Dens Mud Min 
 MDMX.sg                  1.52:  Dens Mud Max 
 MOIL.                   52.70:  Run Mud Oil % 
 MOWR.                   68:32:  Run Mud OWR 
 MSND.                     0.2:  Run Mud Sand % 
 MSOL.                    21.6:  Run Mud Solids% 
 DFV .spqt               79.00:  Mud Viscosity 
 MWOD.in                  6.75:  MWD Tool OD 
 MWSI.                      No:  Serv Intrp, MWD 
 OTIM.hr                114.04:  Time Operating 
 PCON.          Wear / Scratch:  Pad Condition 
 PMAX.psia            11782.92:  Press Op, Max 
 PV  .cP                 49.00:  Mud PV 
 RUN .                     600:  Run Number 
 ROPA.m/hr               20.00:  ROP Avg 
 ROPN.m/hr               15.00:  ROP Min 
 ROPX.m/hr               22.00:  ROP Max 
 RPMA.rpm               120.00:  RPM Surface Avg 
 RPMN.rpm                90.00:  RPM Surface Min 
 RPMX.rpm               140.00:  RPM Surface Max 
 RRUN.                     600:  Rig Run Number 
 SAZI.deg               260.29:  Azm, Start 
 SDEP.m                4078.01:  Start Depth 
 SIDD.                      No:  Serv Intrp, DD 
 SINC.deg                58.89:  Inc, Start 
 SPPA.psig             4560.00:  SPP Avg 
 SPPN.psig             3600.00:  SPP Min 
 SPPX.psig             4800.00:  SPP Max 
 STIM.      10.20.48 13-Jul-20:  Start Time 
 SVCS.                 DD, MWD:  Services 
 SVER.                    9.20:  Sperry Version 
 TDAT.m                4378.01:  Tot Depth Attmp 
 TDDF.                      No:  Trip for DD 
 TDLG.m                 248.00:  Tot Depth Loggd 
 TFF .                      No:  Trip for Fail 
 TQAA.f-kp               18.00:  Torque Abs Avg 
 TQAN.f-kp               15.00:  Torque Abs Min 
 TQAX.f-kp               20.00:  Torque Abs Max 
 TRRT.°/30m               0.70:  Turn Rotating 
 MRT .                    HCIM:  Maximum Recorded Temperature 
 TTMX.degC               86.00:  Max Tool Temp 
 WBMN.klb                 3.00:  WOB Min 
 WOBA.klb                 5.00:  WOB Avg 
 WOBX.klb                 9.00:  WOB Max 
 YP  .lhf2               32.00:  Yield Point 
~Curve Information Block
#MNEM.UNIT                 API CODE     Curve Description
#---------               -----------    ---------------------------
 TIME.HHMMSS            00 000 000 000:  GT Time & Date
 GTDEPTH.m              00 000 000 000:  GT Depth
 GTPQH.psia             00 000 000 000:  GT HR Quartz Pressure
 GTTQ.degC              00 000 000 000:  GT Quartz Temperature
 GTTN.NONE              00 000 000 000:  GT Test Number
 GTET.sec               00 000 000 000:  GT Elapsed Test Time
 GTTVD.m                00 000 000 000:  GT True Vertical Depth
#Other Information
#
#WARRANTY: Halliburton will use its best efforts to furnish customers with 
#accurate information and interpretations that are part of, and incident to, the services 
#provided.  However, Halliburton cannot and does not warrant the accuracy 
#or correctness of such information and interpretations.  Under no circumstances should any 
#such information or interpretation be relied upon as the sole basis for any drilling, 
#completion, production, or financial decision or any procedure involving any risk to the 
#safety of any drilling venture, drilling rig or its crew or any other third party.  The 
#Customer has full responsibility for all drilling, completion and production operation.  
#Halliburton makes no representations or warranties, either expressed or 
#implied, including, but not limited to, the implied warranties of merchantability or fitness 
#for a particular purpose, with respect to the services rendered.  In no event will 
#Halliburton be liable for failure to obtain any particular results or for 
#any damages, including, but not limited to, indirect, special or consequential damages, 
#resulting from the use of any information or interpretation provided by Halliburton.
#
~A           TIME           GTDEPTH  GTPQH  GTTQ  GTTN  GTET   GTTVD  
# ...
   17:19:39.675.16-Jul-2020 4251.01 4628.61 79.84 3.00 138.03 2851.33
   17:19:39.875.16-Jul-2020 4251.01 4628.61 79.84 3.00 138.23 2851.33
   17:19:40.075.16-Jul-2020 4251.01 4628.58 79.84 3.00 138.43 2851.33
   17:19:40.276.16-Jul-2020 4251.01 4628.58 79.84 3.00 138.63 2851.33
   17:19:40.476.16-Jul-2020 4251.01 4628.57 79.84 3.00 138.83 2851.33
   17:19:40.676.16-Jul-2020 4251.01 4628.58 79.84 3.00 139.03 2851.33
   17:19:40.876.16-Jul-2020 4251.01 4628.58 79.84 3.00 139.23 2851.33
   17:19:41.076.16-Jul-2020 4251.01 4628.59 79.84 3.00 139.43 2851.33
   17:19:41.276.16-Jul-2020 4251.01 4628.58 79.84 3.00 139.63 2851.33
   17:19:41.476.16-Jul-2020 4251.01 4628.67 79.84 3.00 139.83 2851.33
   17:19:41.676.16-Jul-2020 4251.01 4628.56 79.84 3.00 140.03 2851.33
   17:19:41.876.16-Jul-2020 4251.01 4628.56 79.84 3.00 140.23 2851.33
   17:19:42.076.16-Jul-2020 4251.01 4628.59 79.84 3.00 140.43 2851.33
   17:19:42.276.16-Jul-2020 4251.01 4628.59 79.84 3.00 140.63 2851.33
   17:19:42.476.16-Jul-2020 4251.01 4628.57 79.84 3.00 140.83 2851.33
   17:19:42.676.16-Jul-2020 4251.01 4628.59 79.84 3.00 141.03 2851.33
   17:19:42.876.16-Jul-2020 4251.01 4628.59 79.84 3.00 141.23 2851.33
   17:19:43.076.16-Jul-2020 4251.01 4628.59 79.84 3.00 141.43 2851.33
   17:19:43.276.16-Jul-2020 4251.01 4628.58 79.84 3.00 141.63 2851.33
   17:19:43.476.16-Jul-2020 4251.01 4628.59 79.84 3.00 141.83 2851.33
   17:19:43.676.16-Jul-2020 4251.01 4628.59 79.84 3.00 142.03 2851.33
   17:19:43.876.16-Jul-2020 4251.01 4628.59 79.84 3.00 142.23 2851.33
   17:19:44.076.16-Jul-2020 4251.01 4628.60 79.84 3.00 142.43 2851.33
   17:19:44.276.16-Jul-2020 4251.01 4628.51 79.84 3.00 142.63 2851.33
   17:19:44.476.16-Jul-2020 4251.01 4345.91 79.84 3.00 142.83 2851.33
   17:19:44.676.16-Jul-2020 4251.01 4034.70 79.84 3.00 143.03 2851.33
   17:19:44.876.16-Jul-2020 4251.01 4034.70 79.84 3.00 143.23 2851.33
   17:19:45.077.16-Jul-2020 4251.01 3552.58 79.84 3.00 143.43 2851.33
   17:19:45.277.16-Jul-2020 4251.01 3320.05 79.84 3.00 143.63 2851.33
   17:19:45.477.16-Jul-2020 4251.01 3132.43 79.84 3.00 143.83 2851.33
   17:19:45.677.16-Jul-2020 4251.01 2909.56 79.84 3.00 144.03 2851.33
   17:19:45.877.16-Jul-2020 4251.01 2695.91 79.84 3.00 144.23 2851.33
   17:19:46.077.16-Jul-2020 4251.01 2473.41 79.84 3.00 144.43 2851.33
   17:19:46.277.16-Jul-2020 4251.01 2212.19 79.83 3.00 144.63 2851.33
   17:19:46.477.16-Jul-2020 4251.01 1913.22 79.83 3.00 144.83 2851.33
   17:19:46.677.16-Jul-2020 4251.01 1644.17 79.83 3.00 145.03 2851.33
   17:19:46.877.16-Jul-2020 4251.01 1644.17 79.83 3.00 145.23 2851.33
   17:19:47.077.16-Jul-2020 4251.01 1264.44 79.83 3.00 145.43 2851.33
   17:19:47.277.16-Jul-2020 4251.01 1225.59 79.82 3.00 145.63 2851.33
   17:19:47.477.16-Jul-2020 4251.01 1205.61 79.82 3.00 145.83 2851.33
   17:19:47.677.16-Jul-2020 4251.01 1217.79 79.82 3.00 146.03 2851.33
   17:19:47.877.16-Jul-2020 4251.01 1203.62 79.82 3.00 146.23 2851.33
   17:19:48.077.16-Jul-2020 4251.01 1197.90 79.81 3.00 146.43 2851.33
   17:19:48.277.16-Jul-2020 4251.01 1181.17 79.81 3.00 146.63 2851.33
   17:19:48.477.16-Jul-2020 4251.01 1163.89 79.81 3.00 146.83 2851.33
   17:19:48.677.16-Jul-2020 4251.01 1146.23 79.80 3.00 147.03 2851.33
   17:19:48.877.16-Jul-2020 4251.01 1146.23 79.80 3.00 147.23 2851.33
   17:19:49.077.16-Jul-2020 4251.01 1149.49 79.79 3.00 147.43 2851.33
   17:19:49.277.16-Jul-2020 4251.01 1152.90 79.79 3.00 147.63 2851.33
   17:19:49.477.16-Jul-2020 4251.01 1148.07 79.79 3.00 147.83 2851.33
   17:19:49.677.16-Jul-2020 4251.01 1138.35 79.78 3.00 148.03 2851.33
   17:19:49.878.16-Jul-2020 4251.01 1133.83 79.78 3.00 148.23 2851.33
   17:19:50.078.16-Jul-2020 4251.01 1127.89 79.78 3.00 148.43 2851.33
   17:19:50.278.16-Jul-2020 4251.01 1134.26 79.77 3.00 148.63 2851.33
   17:19:50.478.16-Jul-2020 4251.01 1184.13 79.77 3.00 148.83 2851.33
   17:19:50.678.16-Jul-2020 4251.01 1232.89 79.77 3.00 149.03 2851.33
   17:19:50.878.16-Jul-2020 4251.01 1253.58 79.76 3.00 149.23 2851.33
   17:19:51.078.16-Jul-2020 4251.01 1260.91 79.76 3.00 149.43 2851.33
   17:19:51.278.16-Jul-2020 4251.01 1274.79 79.76 3.00 149.63 2851.33
   17:19:51.478.16-Jul-2020 4251.01 1273.92 79.75 3.00 149.83 2851.33
   17:19:51.678.16-Jul-2020 4251.01 1265.09 79.75 3.00 150.03 2851.33
   17:19:51.878.16-Jul-2020 4251.01 1259.42 79.75 3.00 150.23 2851.33
   17:19:52.078.16-Jul-2020 4251.01 1245.55 79.74 3.00 150.43 2851.33
   17:19:52.278.16-Jul-2020 4251.01 1219.18 79.74 3.00 150.63 2851.33
   17:19:52.478.16-Jul-2020 4251.01 1197.45 79.74 3.00 150.83 2851.33
   17:19:52.678.16-Jul-2020 4251.01 1180.20 79.74 3.00 151.03 2851.33
   17:19:52.878.16-Jul-2020 4251.01 1169.11 79.73 3.00 151.23 2851.33
   17:19:53.078.16-Jul-2020 4251.01 1163.37 79.73 3.00 151.43 2851.33
   17:19:53.278.16-Jul-2020 4251.01 1165.35 79.73 3.00 151.63 2851.33
   17:19:53.478.16-Jul-2020 4251.01 1168.05 79.73 3.00 151.83 2851.33
   17:19:53.678.16-Jul-2020 4251.01 1178.26 79.73 3.00 152.03 2851.33
   17:19:53.878.16-Jul-2020 4251.01 1194.74 79.72 3.00 152.23 2851.33
   17:19:54.078.16-Jul-2020 4251.01 1201.66 79.72 3.00 152.43 2851.33
   17:19:54.278.16-Jul-2020 4251.01 1204.49 79.72 3.00 152.63 2851.33
   17:19:54.478.16-Jul-2020 4251.01 1205.41 79.72 3.00 152.83 2851.33
   17:19:54.678.16-Jul-2020 4251.01 1204.17 79.72 3.00 153.03 2851.33
   17:19:54.879.16-Jul-2020 4251.01 1272.52 79.72 3.00 153.23 2851.33
   17:19:55.079.16-Jul-2020 4251.01 1491.22 79.72 3.00 153.43 2851.33
   17:19:55.279.16-Jul-2020 4251.01 1711.11 79.71 3.00 153.63 2851.33
   17:19:55.479.16-Jul-2020 4251.01 1923.67 79.71 3.00 153.83 2851.33
   17:19:55.679.16-Jul-2020 4251.01 2121.99 79.71 3.00 154.03 2851.33
   17:19:55.879.16-Jul-2020 4251.01 2121.99 79.71 3.00 154.23 2851.33
   17:19:56.079.16-Jul-2020 4251.01 2484.79 79.71 3.00 154.43 2851.33
   17:19:56.279.16-Jul-2020 4251.01 2655.88 79.71 3.00 154.63 2851.33
   17:19:56.479.16-Jul-2020 4251.01 2817.62 79.71 3.00 154.83 2851.33
   17:19:56.679.16-Jul-2020 4251.01 2971.64 79.71 3.00 155.03 2851.33
   17:19:56.879.16-Jul-2020 4251.01 3119.75 79.71 3.00 155.23 2851.33
   17:19:57.079.16-Jul-2020 4251.01 3258.25 79.71 3.00 155.43 2851.33
   17:19:57.279.16-Jul-2020 4251.01 3385.60 79.71 3.00 155.63 2851.33
   17:19:57.479.16-Jul-2020 4251.01 3504.25 79.71 3.00 155.83 2851.33
   17:19:57.679.16-Jul-2020 4251.01 3615.77 79.72 3.00 156.03 2851.33
   17:19:57.879.16-Jul-2020 4251.01 3720.40 79.72 3.00 156.23 2851.33
   17:19:58.079.16-Jul-2020 4251.01 3819.76 79.72 3.00 156.43 2851.33
   17:19:58.279.16-Jul-2020 4251.01 3916.72 79.72 3.00 156.63 2851.33
   17:19:58.479.16-Jul-2020 4251.01 4003.78 79.72 3.00 156.83 2851.33
   17:19:58.679.16-Jul-2020 4251.01 4086.80 79.73 3.00 157.03 2851.33
   17:19:58.879.16-Jul-2020 4251.01 4086.80 79.73 3.00 157.23 2851.33
   17:19:59.079.16-Jul-2020 4251.01 4231.52 79.73 3.00 157.43 2851.33
   17:19:59.279.16-Jul-2020 4251.01 4291.73 79.73 3.00 157.63 2851.33
   17:19:59.479.16-Jul-2020 4251.01 4347.79 79.74 3.00 157.83 2851.33
   17:19:59.680.16-Jul-2020 4251.01 4395.15 79.74 3.00 158.03 2851.33
   17:19:59.880.16-Jul-2020 4251.01 4395.15 79.74 3.00 158.23 2851.33
   17:20:00.080.16-Jul-2020 4251.01 4472.45 79.75 3.00 158.43 2851.33
   17:20:00.280.16-Jul-2020 4251.01 4502.81 79.75 3.00 158.63 2851.33
   17:20:00.480.16-Jul-2020 4251.01 4528.27 79.75 3.00 158.83 2851.33
   17:20:00.680.16-Jul-2020 4251.01 4549.35 79.76 3.00 159.03 2851.33
   17:20:00.880.16-Jul-2020 4251.01 4549.35 79.76 3.00 159.23 2851.33
   17:20:01.080.16-Jul-2020 4251.01 4580.64 79.77 3.00 159.43 2851.33
   17:20:01.280.16-Jul-2020 4251.01 4591.77 79.77 3.00 159.63 2851.33
   17:20:01.480.16-Jul-2020 4251.01 4600.22 79.77 3.00 159.83 2851.33
   17:20:01.680.16-Jul-2020 4251.01 4606.71 79.78 3.00 160.03 2851.33
   17:20:01.880.16-Jul-2020 4251.01 4610.88 79.78 3.00 160.23 2851.33
   17:20:02.080.16-Jul-2020 4251.01 4615.51 79.78 3.00 160.43 2851.33
   17:20:02.280.16-Jul-2020 4251.01 4618.45 79.79 3.00 160.63 2851.33
   17:20:02.480.16-Jul-2020 4251.01 4620.73 79.79 3.00 160.83 2851.33
