~Version Information
 VERS.                  2.0:   CWLS log ASCII Standard -VERSION 2.0
 WRAP.                   NO:   One line per depth step
~Well Information Block
#MNEM.UNIT     VALUE/NAME     DESCRIPTION
#---------     -----------    ---------------------------
 STRT.S             22:12:50 16-Jul-20: START TIME 22:12:50 16-Jul-20
 STOP.S             22:19:40 16-Jul-20: STOP TIME  22:19:40 16-Jul-20
 STEP.S                   0.00: STEP TIME
 NULL.                 -999.25: NULL VALUE
 MDS .        Operator Entered:  MAG DATA SOURCE
 UNIT.                     N/A:  LOGGING EQUIPMENT ID
 DCON.         Sperry Drilling:  DIRECTNL CONTR
 DOE .                     N/A:  DOE NUMBER
 RIG .               EastAzeri:  RIG NAME
 JOBN.        AZ-XX-0906363297:  JOB TICKET NUMB
 MWDS.                    Baku:  MWD SHOP
 SRVC.     Turan Drilling & Engineering:  CONTRACTOR
 PROV.                    Baku:  PROVINCE
 STAT.                    Baku:  STATE NAME
 REGN.                   EESSA:  REGION
 BASE.              Azerbaijan:  LOGGING EQUIPMENT BASE LOCATION
 WTYP.                Deviated:  WELL TYPE
 UWI .                     N/A:  UNIQUE WELL IDENTIFIER
 API .                     N/A:  API NUMBER
 COMP.     BP Exploration (Caspian Sea) ltd.:  COMPANY
 WELL.                    D07z:  WELL NAME
 CTRY.              Azerbaijan:  COUNTRY NAME
 SON .        AZ-XX-0906363297:  JOB NUMBER
 FLD .                     ACG:  FIELD NAME
 PDAT.          Mean Sea Level:  PERMANENT DATUM
 FTOP.          Formation Tops:  FORM TOPS DESC
 ILTD.               Lithology:  INTERP LTH DESC
 SVYD.                  Survey:  SURVEY DESC
 DMOD.             Drill Model:  DRILL MOD DESC
 HPTY.       Minimum Curvature:  HOLE POS TYPE
 NREF.                    Grid:  NORTH REFERENCE
 SPUD.               28-Jun-20:  SPUD DATE
 DATE.      18.27.12 28-Jun-20:  END TIME
 STIM.      18.27.12 28-Jun-20:  START TIME
 DMF .             Drill Floor:  DRILL MEAS FROM
 DFST.                        :  DIST FSL TEXT
 DFWT.                        :  DIST FWL TEXT
 CNTY.                        :  COUNTY
 LOC .                        :  LOCATION
 LMF .             Drill Floor:  LOG MEASURED FROM
 VSNS.m                  -7.75:  VERT SEC N/S
 VSEW.m                  -9.19:  VERT SEC E/W
 MMDE.m                   0.00:  MAGUTM CALC DEP
 AGAP.m                  43.60:  AIR GAP
 DEP .m                4058.99:  DEPTH
 APD .m                  43.60:  DEPTH ABOVE PD
 WDMS.m                 151.80:  WD ELEV
 EGL .m                   0.00:  GROUND ELEVATION
 EPD .m                   0.00:  ELEVATION
 AZTC.deg                 6.19:  AZM TOTAL CORR
 GRDC.deg                 0.27:  GRID CORRECTION
 MDEC.deg                 6.46:  MAGNETIC DECL
 MDIP.deg                59.47:  MAGNETIC DIP
 MFLD.nT              50279.00:  MAGNETIC FIELD
 GVFD.g                   1.00:  GRAVITY FIELD
 VSDR.deg               249.96:  VERT SEC DIRECT
 TDD .m                   0.00:  TOTAL DEPTH (DRILLER)
 SDEP.m                   0.00:  START DEPTH
 DFSL.m                   0.00:  DISTANCE FSL
 DFWL.m                   0.00:  DISTANCE FWL
 UTMY.m             4431880.20:  UTM Y
 UTMX.m              538763.98:  UTM X
 WHEW.m                  -9.19:  WELL HEAD E/W
 WHNS.m                  -7.75:  WELL HEAD N/S
 LONG.deg                51.45:  LONGITUDE
 LATI.deg                40.02:  LATITUDE
 TVDS.m                  43.60:  TVDSS CORRECTN
 EKB .m                  43.60:  KB ELEVATION
 EDF .m                  43.60:  DF ELEVATION
 TDL .m                 248.00:  TOTAL DEPTH (LOGGER)
 MAGU.                 1849075:  MAGUTM CHECKSUM
 VSC .                       0:  VS TO CLOSURE
~Parameter Information Block
#MNEM.UNIT       Value        Description
#---------     -----------    ---------------------------
 AV  .mps                 6.34:  Ann Velocity 
 AVMX.mps                 7.00:  Max Ann Veloc 
 AZIF.deg               260.29:  Azm, Final 
 BHAT.        Rotary Steerable:  BHA Type 
 BROT.°/30m               1.20:  Build Rotating 
 BS  .in                  8.50:  Bit Size 
 BSZ .in                  8.50:  Bit Size 
 BTPL.psig              620.00:  Bit Press Loss 
 CABU.                     Yes:  Customer Abuse 
 TCS .hr                 56.22:  Time Ciculation Ended 
 CV  .mps                 3.05:  Crit Velocity 
 CVMX.mps                 3.20:  Max Crit Veloc 
 DD1 .            Musa Ahmadov:  Direct Drillr 1 
 DDSV.                 iCruise:  DD Service 
 DEFF.%                  98.00:  % Det Eff 
 DLRX.°/30m               2.78:  Dogleg Rot Max 
 DLSO.°/30m               0.00:  Dogleg Oriented 
 DLSX.°/30m               0.00:  Dogleg Str Max 
 DRET.      05.20.48 16-Jul-20:  Drill End Time 
 DRST.      10.20.48 13-Jul-20:  Drill Start Tim 
 DTIM.hr                 14.25:  Time Drilling 
 EDEP.m                4326.01:  End Depth 
 ENG1.      Artemiy Matviyanov:  Engineer 1 
 ENG2.           Amrah Tahirov:  Engineer 2 
 ETIM.      22.30.00 18-Jul-20:  End Time 
 FLOI.gpm               550.00:  Flow In 
 FLON.gpm               450.00:  Flow In Min 
 FLOS.cptm                0.00:  Fluid Loss 
 FLOX.gpm               600.00:  Flow In Max 
 HFLO.                      No:  High Flow 
 HPRE.                      No:  High Pressure 
 HTEM.                      No:  High Temp 
 HYDO.m                   1.80:  Hydro Offset 
 IFIN.deg                65.41:  Inc, Final 
 IMAX.deg                65.14:  Inc Max 
 IMIN.deg                58.89:  Inc Min 
 IMND.m                4104.92:  Inc Min Depth 
 IMXD.m                4303.89:  Inc Max Depth 
 JARR.                      No:  Jarring 
 LETM.      10.20.48 17-Jul-20:  Log End Time 
 LOST.hr                     0:  Lost Rig Time 
 LSTM.      10.20.48 13-Jul-20:  Log Start Time 
 MDCL.ppm             37000.00:  Mud Chlorides 
 MDES.     Inversion Oil/Synthetic:  Mud Desc 
 DFD .sg                  1.52:  Mud Density 
 MDMN.sg                  1.52:  Dens Mud Min 
 MDMX.sg                  1.52:  Dens Mud Max 
 MOIL.                   52.70:  Run Mud Oil % 
 MOWR.                   68:32:  Run Mud OWR 
 MSND.                     0.2:  Run Mud Sand % 
 MSOL.                    21.6:  Run Mud Solids% 
 DFV .spqt               79.00:  Mud Viscosity 
 MWOD.in                  6.75:  MWD Tool OD 
 MWSI.                      No:  Serv Intrp, MWD 
 OTIM.hr                114.04:  Time Operating 
 PCON.          Wear / Scratch:  Pad Condition 
 PMAX.psia            11782.92:  Press Op, Max 
 PV  .cP                 49.00:  Mud PV 
 RUN .                     600:  Run Number 
 ROPA.m/hr               20.00:  ROP Avg 
 ROPN.m/hr               15.00:  ROP Min 
 ROPX.m/hr               22.00:  ROP Max 
 RPMA.rpm               120.00:  RPM Surface Avg 
 RPMN.rpm                90.00:  RPM Surface Min 
 RPMX.rpm               140.00:  RPM Surface Max 
 RRUN.                     600:  Rig Run Number 
 SAZI.deg               260.29:  Azm, Start 
 SDEP.m                4078.01:  Start Depth 
 SIDD.                      No:  Serv Intrp, DD 
 SINC.deg                58.89:  Inc, Start 
 SPPA.psig             4560.00:  SPP Avg 
 SPPN.psig             3600.00:  SPP Min 
 SPPX.psig             4800.00:  SPP Max 
 STIM.      10.20.48 13-Jul-20:  Start Time 
 SVCS.                 DD, MWD:  Services 
 SVER.                    9.20:  Sperry Version 
 TDAT.m                4378.01:  Tot Depth Attmp 
 TDDF.                      No:  Trip for DD 
 TDLG.m                 248.00:  Tot Depth Loggd 
 TFF .                      No:  Trip for Fail 
 TQAA.f-kp               18.00:  Torque Abs Avg 
 TQAN.f-kp               15.00:  Torque Abs Min 
 TQAX.f-kp               20.00:  Torque Abs Max 
 TRRT.°/30m               0.70:  Turn Rotating 
 MRT .                    HCIM:  Maximum Recorded Temperature 
 TTMX.degC               86.00:  Max Tool Temp 
 WBMN.klb                 3.00:  WOB Min 
 WOBA.klb                 5.00:  WOB Avg 
 WOBX.klb                 9.00:  WOB Max 
 YP  .lhf2               32.00:  Yield Point 
~Curve Information Block
#MNEM.UNIT                 API CODE     Curve Description
#---------               -----------    ---------------------------
 TIME.HHMMSS            00 000 000 000:  GT Time & Date
 GTDEPTH.m              00 000 000 000:  GT Depth
 GTPQH.psia             00 000 000 000:  GT HR Quartz Pressure
 GTTQ.degC              00 000 000 000:  GT Quartz Temperature
 GTTN.NONE              00 000 000 000:  GT Test Number
 GTET.sec               00 000 000 000:  GT Elapsed Test Time
 GTTVD.m                00 000 000 000:  GT True Vertical Depth
#Other Information
#
#WARRANTY: Halliburton will use its best efforts to furnish customers with 
#accurate information and interpretations that are part of, and incident to, the services 
#provided.  However, Halliburton cannot and does not warrant the accuracy 
#or correctness of such information and interpretations.  Under no circumstances should any 
#such information or interpretation be relied upon as the sole basis for any drilling, 
#completion, production, or financial decision or any procedure involving any risk to the 
#safety of any drilling venture, drilling rig or its crew or any other third party.  The 
#Customer has full responsibility for all drilling, completion and production operation.  
#Halliburton makes no representations or warranties, either expressed or 
#implied, including, but not limited to, the implied warranties of merchantability or fitness 
#for a particular purpose, with respect to the services rendered.  In no event will 
#Halliburton be liable for failure to obtain any particular results or for 
#any damages, including, but not limited to, indirect, special or consequential damages, 
#resulting from the use of any information or interpretation provided by Halliburton.
#
~A           TIME           GTDEPTH  GTPQH  GTTQ  GTTN  GTET   GTTVD  
# ...
   22:16:17.373.16-Jul-2020 4093.01 4652.85 76.38 8.00 207.08 2778.38
   22:16:17.573.16-Jul-2020 4093.01 4652.85 76.38 8.00 207.28 2778.38
   22:16:17.773.16-Jul-2020 4093.01 4652.85 76.38 8.00 207.48 2778.38
   22:16:17.973.16-Jul-2020 4093.01 4652.85 76.38 8.00 207.68 2778.38
   22:16:18.173.16-Jul-2020 4093.01 4652.87 76.38 8.00 207.88 2778.38
   22:16:18.373.16-Jul-2020 4093.01 4652.82 76.38 8.00 208.08 2778.38
   22:16:18.573.16-Jul-2020 4093.01 4652.82 76.38 8.00 208.28 2778.38
   22:16:18.773.16-Jul-2020 4093.01 4652.83 76.38 8.00 208.48 2778.38
   22:16:18.974.16-Jul-2020 4093.01 4652.86 76.38 8.00 208.68 2778.38
   22:16:19.174.16-Jul-2020 4093.01 4652.86 76.38 8.00 208.88 2778.38
   22:16:19.374.16-Jul-2020 4093.01 4652.86 76.38 8.00 209.08 2778.38
   22:16:19.574.16-Jul-2020 4093.01 4652.86 76.38 8.00 209.28 2778.38
   22:16:19.774.16-Jul-2020 4093.01 4652.87 76.38 8.00 209.48 2778.38
   22:16:19.974.16-Jul-2020 4093.01 4652.86 76.38 8.00 209.68 2778.38
   22:16:20.174.16-Jul-2020 4093.01 4652.86 76.38 8.00 209.88 2778.38
   22:16:20.374.16-Jul-2020 4093.01 4652.82 76.38 8.00 210.08 2778.38
   22:16:20.574.16-Jul-2020 4093.01 4652.87 76.38 8.00 210.28 2778.38
   22:16:20.774.16-Jul-2020 4093.01 4652.87 76.38 8.00 210.48 2778.38
   22:16:20.974.16-Jul-2020 4093.01 4652.87 76.38 8.00 210.68 2778.38
   22:16:21.174.16-Jul-2020 4093.01 4652.86 76.38 8.00 210.88 2778.38
   22:16:21.374.16-Jul-2020 4093.01 4652.87 76.38 8.00 211.08 2778.38
   22:16:21.575.16-Jul-2020 4093.01 4652.87 76.38 8.00 211.28 2778.38
   22:16:21.775.16-Jul-2020 4093.01 4652.96 76.38 8.00 211.48 2778.38
   22:16:21.975.16-Jul-2020 4093.01 4652.84 76.38 8.00 211.68 2778.38
   22:16:22.175.16-Jul-2020 4093.01 4652.86 76.38 8.00 211.88 2778.38
   22:16:22.375.16-Jul-2020 4093.01 4652.86 76.38 8.00 212.08 2778.38
   22:16:22.575.16-Jul-2020 4093.01 4652.86 76.38 8.00 212.28 2778.38
   22:16:22.775.16-Jul-2020 4093.01 4652.81 76.38 8.00 212.48 2778.38
   22:16:22.975.16-Jul-2020 4093.01 4652.85 76.38 8.00 212.68 2778.38
   22:16:23.175.16-Jul-2020 4093.01 4652.83 76.38 8.00 212.88 2778.38
   22:16:23.375.16-Jul-2020 4093.01 4652.96 76.38 8.00 213.08 2778.38
   22:16:23.575.16-Jul-2020 4093.01 4652.83 76.38 8.00 213.28 2778.38
   22:16:23.775.16-Jul-2020 4093.01 4652.86 76.38 8.00 213.48 2778.38
   22:16:23.975.16-Jul-2020 4093.01 4652.85 76.38 8.00 213.68 2778.38
   22:16:24.176.16-Jul-2020 4093.01 4652.85 76.38 8.00 213.88 2778.38
   22:16:24.376.16-Jul-2020 4093.01 4652.86 76.38 8.00 214.08 2778.38
   22:16:24.576.16-Jul-2020 4093.01 4652.96 76.38 8.00 214.28 2778.38
   22:16:24.776.16-Jul-2020 4093.01 4652.81 76.38 8.00 214.48 2778.38
   22:16:24.976.16-Jul-2020 4093.01 4652.85 76.38 8.00 214.68 2778.38
   22:16:25.176.16-Jul-2020 4093.01 4652.87 76.38 8.00 214.88 2778.38
   22:16:25.376.16-Jul-2020 4093.01 4652.85 76.38 8.00 215.08 2778.38
   22:16:25.576.16-Jul-2020 4093.01 4652.85 76.38 8.00 215.28 2778.38
   22:16:25.776.16-Jul-2020 4093.01 4652.85 76.38 8.00 215.48 2778.38
   22:16:25.976.16-Jul-2020 4093.01 4652.86 76.38 8.00 215.68 2778.38
   22:16:26.176.16-Jul-2020 4093.01 4652.86 76.38 8.00 215.88 2778.38
   22:16:26.376.16-Jul-2020 4093.01 4652.86 76.38 8.00 216.08 2778.38
   22:16:26.576.16-Jul-2020 4093.01 4652.86 76.38 8.00 216.28 2778.38
   22:16:26.776.16-Jul-2020 4093.01 4652.86 76.38 8.00 216.48 2778.38
   22:16:26.977.16-Jul-2020 4093.01 4652.86 76.38 8.00 216.68 2778.38
   22:16:27.177.16-Jul-2020 4093.01 4652.88 76.38 8.00 216.88 2778.38
   22:16:27.377.16-Jul-2020 4093.01 4652.91 76.38 8.00 217.08 2778.38
   22:16:27.577.16-Jul-2020 4093.01 4652.84 76.38 8.00 217.28 2778.38
   22:16:27.777.16-Jul-2020 4093.01 4652.87 76.38 8.00 217.48 2778.38
   22:16:27.977.16-Jul-2020 4093.01 4652.85 76.38 8.00 217.68 2778.38
   22:16:28.177.16-Jul-2020 4093.01 4652.87 76.38 8.00 217.88 2778.38
   22:16:28.377.16-Jul-2020 4093.01 4652.85 76.38 8.00 218.08 2778.38
   22:16:28.577.16-Jul-2020 4093.01 4652.86 76.38 8.00 218.28 2778.38
   22:16:28.777.16-Jul-2020 4093.01 4652.86 76.38 8.00 218.48 2778.38
   22:16:28.977.16-Jul-2020 4093.01 4652.87 76.38 8.00 218.68 2778.38
   22:16:29.177.16-Jul-2020 4093.01 4652.86 76.38 8.00 218.88 2778.38
   22:16:29.377.16-Jul-2020 4093.01 4652.86 76.38 8.00 219.08 2778.38
   22:16:29.578.16-Jul-2020 4093.01 4652.87 76.38 8.00 219.28 2778.38
   22:16:29.778.16-Jul-2020 4093.01 4652.86 76.38 8.00 219.48 2778.38
   22:16:29.978.16-Jul-2020 4093.01 4652.85 76.38 8.00 219.68 2778.38
   22:16:30.178.16-Jul-2020 4093.01 4652.87 76.38 8.00 219.88 2778.38
   22:16:30.378.16-Jul-2020 4093.01 4652.87 76.38 8.00 220.08 2778.38
   22:16:30.578.16-Jul-2020 4093.01 4652.87 76.38 8.00 220.28 2778.38
   22:16:30.778.16-Jul-2020 4093.01 4652.83 76.38 8.00 220.48 2778.38
   22:16:30.978.16-Jul-2020 4093.01 4652.86 76.38 8.00 220.68 2778.38
   22:16:31.178.16-Jul-2020 4093.01 4652.86 76.39 8.00 220.88 2778.38
   22:16:31.378.16-Jul-2020 4093.01 4652.93 76.38 8.00 221.08 2778.38
   22:16:31.578.16-Jul-2020 4093.01 4652.83 76.38 8.00 221.28 2778.38
   22:16:31.778.16-Jul-2020 4093.01 4652.83 76.39 8.00 221.48 2778.38
   22:16:31.978.16-Jul-2020 4093.01 4652.88 76.38 8.00 221.68 2778.38
   22:16:32.179.16-Jul-2020 4093.01 4652.90 76.39 8.00 221.88 2778.38
   22:16:32.379.16-Jul-2020 4093.01 4652.85 76.39 8.00 222.08 2778.38
   22:16:32.579.16-Jul-2020 4093.01 4652.86 76.39 8.00 222.28 2778.38
   22:16:32.779.16-Jul-2020 4093.01 4652.85 76.39 8.00 222.48 2778.38
   22:16:32.979.16-Jul-2020 4093.01 4652.86 76.39 8.00 222.68 2778.38
   22:16:33.179.16-Jul-2020 4093.01 4652.85 76.39 8.00 222.88 2778.38
   22:16:33.379.16-Jul-2020 4093.01 4652.94 76.39 8.00 223.08 2778.38
   22:16:33.579.16-Jul-2020 4093.01 4652.82 76.39 8.00 223.28 2778.38
   22:16:33.779.16-Jul-2020 4093.01 4652.85 76.39 8.00 223.48 2778.38
   22:16:33.979.16-Jul-2020 4093.01 4652.85 76.39 8.00 223.68 2778.38
   22:16:34.179.16-Jul-2020 4093.01 4652.86 76.39 8.00 223.88 2778.38
   22:16:34.379.16-Jul-2020 4093.01 4652.86 76.39 8.00 224.08 2778.38
   22:16:34.579.16-Jul-2020 4093.01 4652.86 76.39 8.00 224.28 2778.38
   22:16:34.780.16-Jul-2020 4093.01 4652.86 76.39 8.00 224.48 2778.38
   22:16:34.980.16-Jul-2020 4093.01 4652.85 76.39 8.00 224.68 2778.38
   22:16:35.180.16-Jul-2020 4093.01 4652.86 76.39 8.00 224.88 2778.38
   22:16:35.380.16-Jul-2020 4093.01 4652.86 76.39 8.00 225.08 2778.38
   22:16:35.580.16-Jul-2020 4093.01 4652.86 76.39 8.00 225.28 2778.38
   22:16:35.780.16-Jul-2020 4093.01 4652.86 76.39 8.00 225.49 2778.38
   22:16:35.980.16-Jul-2020 4093.01 4652.96 76.39 8.00 225.69 2778.38
   22:16:36.180.16-Jul-2020 4093.01 4652.80 76.39 8.00 225.89 2778.38
   22:16:36.380.16-Jul-2020 4093.01 4652.86 76.39 8.00 226.09 2778.38
   22:16:36.580.16-Jul-2020 4093.01 4652.86 76.39 8.00 226.29 2778.38
   22:16:36.780.16-Jul-2020 4093.01 4652.85 76.39 8.00 226.49 2778.38
   22:16:36.980.16-Jul-2020 4093.01 4652.86 76.39 8.00 226.69 2778.38
   22:16:37.180.16-Jul-2020 4093.01 4652.86 76.39 8.00 226.89 2778.38
   22:16:37.380.16-Jul-2020 4093.01 4652.85 76.39 8.00 227.09 2778.38
   22:16:37.581.16-Jul-2020 4093.01 4652.85 76.39 8.00 227.29 2778.38
   22:16:37.781.16-Jul-2020 4093.01 4652.86 76.39 8.00 227.49 2778.38
   22:16:37.981.16-Jul-2020 4093.01 4652.86 76.39 8.00 227.69 2778.38
   22:16:38.181.16-Jul-2020 4093.01 4652.86 76.39 8.00 227.89 2778.38
   22:16:38.381.16-Jul-2020 4093.01 4652.85 76.39 8.00 228.09 2778.38
   22:16:38.581.16-Jul-2020 4093.01 4652.85 76.39 8.00 228.29 2778.38
   22:16:38.781.16-Jul-2020 4093.01 4652.86 76.39 8.00 228.49 2778.38
   22:16:38.981.16-Jul-2020 4093.01 4652.86 76.39 8.00 228.69 2778.38
   22:16:39.181.16-Jul-2020 4093.01 4652.96 76.39 8.00 228.89 2778.38
   22:16:39.381.16-Jul-2020 4093.01 4652.80 76.39 8.00 229.09 2778.38
   22:16:39.581.16-Jul-2020 4093.01 4652.84 76.39 8.00 229.29 2778.38
   22:16:39.781.16-Jul-2020 4093.01 4652.86 76.39 8.00 229.49 2778.38
   22:16:39.981.16-Jul-2020 4093.01 4652.81 76.39 8.00 229.69 2778.38
   22:16:40.182.16-Jul-2020 4093.01 4652.95 76.39 8.00 229.89 2778.38
