~Version Information
 VERS.                  2.0:   CWLS log ASCII Standard -VERSION 2.0
 WRAP.                   NO:   One line per depth step
~Well Information Block
#MNEM.UNIT     VALUE/NAME     DESCRIPTION
#---------     -----------    ---------------------------
 STRT.S             19:19:02 16-Jul-20: START TIME 19:19:02 16-Jul-20
 STOP.S             19:25:52 16-Jul-20: STOP TIME  19:25:52 16-Jul-20
 STEP.S                   0.00: STEP TIME
 NULL.                 -999.25: NULL VALUE
 MDS .        Operator Entered:  MAG DATA SOURCE
 UNIT.                     N/A:  LOGGING EQUIPMENT ID
 DCON.         Sperry Drilling:  DIRECTNL CONTR
 DOE .                     N/A:  DOE NUMBER
 RIG .               EastAzeri:  RIG NAME
 JOBN.        AZ-XX-0906363297:  JOB TICKET NUMB
 MWDS.                    Baku:  MWD SHOP
 SRVC.     Turan Drilling & Engineering:  CONTRACTOR
 PROV.                    Baku:  PROVINCE
 STAT.                    Baku:  STATE NAME
 REGN.                   EESSA:  REGION
 BASE.              Azerbaijan:  LOGGING EQUIPMENT BASE LOCATION
 WTYP.                Deviated:  WELL TYPE
 UWI .                     N/A:  UNIQUE WELL IDENTIFIER
 API .                     N/A:  API NUMBER
 COMP.     BP Exploration (Caspian Sea) ltd.:  COMPANY
 WELL.                    D07z:  WELL NAME
 CTRY.              Azerbaijan:  COUNTRY NAME
 SON .        AZ-XX-0906363297:  JOB NUMBER
 FLD .                     ACG:  FIELD NAME
 PDAT.          Mean Sea Level:  PERMANENT DATUM
 FTOP.          Formation Tops:  FORM TOPS DESC
 ILTD.               Lithology:  INTERP LTH DESC
 SVYD.                  Survey:  SURVEY DESC
 DMOD.             Drill Model:  DRILL MOD DESC
 HPTY.       Minimum Curvature:  HOLE POS TYPE
 NREF.                    Grid:  NORTH REFERENCE
 SPUD.               28-Jun-20:  SPUD DATE
 DATE.      18.27.12 28-Jun-20:  END TIME
 STIM.      18.27.12 28-Jun-20:  START TIME
 DMF .             Drill Floor:  DRILL MEAS FROM
 DFST.                        :  DIST FSL TEXT
 DFWT.                        :  DIST FWL TEXT
 CNTY.                        :  COUNTY
 LOC .                        :  LOCATION
 LMF .             Drill Floor:  LOG MEASURED FROM
 VSNS.m                  -7.75:  VERT SEC N/S
 VSEW.m                  -9.19:  VERT SEC E/W
 MMDE.m                   0.00:  MAGUTM CALC DEP
 AGAP.m                  43.60:  AIR GAP
 DEP .m                4058.99:  DEPTH
 APD .m                  43.60:  DEPTH ABOVE PD
 WDMS.m                 151.80:  WD ELEV
 EGL .m                   0.00:  GROUND ELEVATION
 EPD .m                   0.00:  ELEVATION
 AZTC.deg                 6.19:  AZM TOTAL CORR
 GRDC.deg                 0.27:  GRID CORRECTION
 MDEC.deg                 6.46:  MAGNETIC DECL
 MDIP.deg                59.47:  MAGNETIC DIP
 MFLD.nT              50279.00:  MAGNETIC FIELD
 GVFD.g                   1.00:  GRAVITY FIELD
 VSDR.deg               249.96:  VERT SEC DIRECT
 TDD .m                   0.00:  TOTAL DEPTH (DRILLER)
 SDEP.m                   0.00:  START DEPTH
 DFSL.m                   0.00:  DISTANCE FSL
 DFWL.m                   0.00:  DISTANCE FWL
 UTMY.m             4431880.20:  UTM Y
 UTMX.m              538763.98:  UTM X
 WHEW.m                  -9.19:  WELL HEAD E/W
 WHNS.m                  -7.75:  WELL HEAD N/S
 LONG.deg                51.45:  LONGITUDE
 LATI.deg                40.02:  LATITUDE
 TVDS.m                  43.60:  TVDSS CORRECTN
 EKB .m                  43.60:  KB ELEVATION
 EDF .m                  43.60:  DF ELEVATION
 TDL .m                 248.00:  TOTAL DEPTH (LOGGER)
 MAGU.                 1849075:  MAGUTM CHECKSUM
 VSC .                       0:  VS TO CLOSURE
~Parameter Information Block
#MNEM.UNIT       Value        Description
#---------     -----------    ---------------------------
 AV  .mps                 6.34:  Ann Velocity 
 AVMX.mps                 7.00:  Max Ann Veloc 
 AZIF.deg               260.29:  Azm, Final 
 BHAT.        Rotary Steerable:  BHA Type 
 BROT.°/30m               1.20:  Build Rotating 
 BS  .in                  8.50:  Bit Size 
 BSZ .in                  8.50:  Bit Size 
 BTPL.psig              620.00:  Bit Press Loss 
 CABU.                     Yes:  Customer Abuse 
 COMM.                     d)s:  Run Comments 1 
 TCS .hr                 56.22:  Time Ciculation Ended 
 CV  .mps                 3.05:  Crit Velocity 
 CVMX.mps                 3.20:  Max Crit Veloc 
 DD1 .            Musa Ahmadov:  Direct Drillr 1 
 DDSV.                 iCruise:  DD Service 
 DEFF.%                  98.00:  % Det Eff 
 DLRX.°/30m               2.78:  Dogleg Rot Max 
 DLSO.°/30m               0.00:  Dogleg Oriented 
 DLSX.°/30m               0.00:  Dogleg Str Max 
 DRET.      05.20.48 16-Jul-20:  Drill End Time 
 DRST.      10.20.48 13-Jul-20:  Drill Start Tim 
 DTIM.hr                 14.25:  Time Drilling 
 EDEP.m                4326.01:  End Depth 
 ENG1.      Artemiy Matviyanov:  Engineer 1 
 ENG2.           Amrah Tahirov:  Engineer 2 
 ETIM.      22.30.00 18-Jul-20:  End Time 
 FLOI.gpm               550.00:  Flow In 
 FLON.gpm               450.00:  Flow In Min 
 FLOS.cptm                0.00:  Fluid Loss 
 FLOX.gpm               600.00:  Flow In Max 
 HFLO.                      No:  High Flow 
 HPRE.                      No:  High Pressure 
 HTEM.                      No:  High Temp 
 HYDO.m                   1.80:  Hydro Offset 
 IFIN.deg                65.41:  Inc, Final 
 IMAX.deg                65.14:  Inc Max 
 IMIN.deg                58.89:  Inc Min 
 IMND.m                4104.92:  Inc Min Depth 
 IMXD.m                4303.89:  Inc Max Depth 
 JARR.                      No:  Jarring 
 LETM.      10.20.48 17-Jul-20:  Log End Time 
 LOST.hr                     0:  Lost Rig Time 
 LSTM.      10.20.48 13-Jul-20:  Log Start Time 
 MDCL.ppm             37000.00:  Mud Chlorides 
 MDES.     Inversion Oil/Synthetic:  Mud Desc 
 DFD .sg                  1.52:  Mud Density 
 MDMN.sg                  1.52:  Dens Mud Min 
 MDMX.sg                  1.52:  Dens Mud Max 
 MOIL.                   52.70:  Run Mud Oil % 
 MOWR.                   68:32:  Run Mud OWR 
 MSND.                     0.2:  Run Mud Sand % 
 MSOL.                    21.6:  Run Mud Solids% 
 DFV .spqt               79.00:  Mud Viscosity 
 MWOD.in                  6.75:  MWD Tool OD 
 MWSI.                      No:  Serv Intrp, MWD 
 OTIM.hr                114.04:  Time Operating 
 PCON.          Wear / Scratch:  Pad Condition 
 PMAX.psia            11782.92:  Press Op, Max 
 PV  .cP                 49.00:  Mud PV 
 RUN .                     600:  Run Number 
 ROPA.m/hr               20.00:  ROP Avg 
 ROPN.m/hr               15.00:  ROP Min 
 ROPX.m/hr               22.00:  ROP Max 
 RPMA.rpm               120.00:  RPM Surface Avg 
 RPMN.rpm                90.00:  RPM Surface Min 
 RPMX.rpm               140.00:  RPM Surface Max 
 RRUN.                     600:  Rig Run Number 
 SAZI.deg               260.29:  Azm, Start 
 SDEP.m                4078.01:  Start Depth 
 SIDD.                      No:  Serv Intrp, DD 
 SINC.deg                58.89:  Inc, Start 
 SPPA.psig             4560.00:  SPP Avg 
 SPPN.psig             3600.00:  SPP Min 
 SPPX.psig             4800.00:  SPP Max 
 STIM.      10.20.48 13-Jul-20:  Start Time 
 SVCS.                 DD, MWD:  Services 
 SVER.                    9.20:  Sperry Version 
 TDAT.m                4378.01:  Tot Depth Attmp 
 TDDF.                      No:  Trip for DD 
 TDLG.m                 248.00:  Tot Depth Loggd 
 TFF .                      No:  Trip for Fail 
 TQAA.f-kp               18.00:  Torque Abs Avg 
 TQAN.f-kp               15.00:  Torque Abs Min 
 TQAX.f-kp               20.00:  Torque Abs Max 
 TRRT.°/30m               0.70:  Turn Rotating 
 MRT .                    HCIM:  Maximum Recorded Temperature 
 TTMX.degC               86.00:  Max Tool Temp 
 WBMN.klb                 3.00:  WOB Min 
 WOBA.klb                 5.00:  WOB Avg 
 WOBX.klb                 9.00:  WOB Max 
 YP  .lhf2               32.00:  Yield Point 
~Curve Information Block
#MNEM.UNIT                 API CODE     Curve Description
#---------               -----------    ---------------------------
 TIME.HHMMSS            00 000 000 000:  GT Time & Date
 GTDEPTH.m              00 000 000 000:  GT Depth
 GTPQH.psia             00 000 000 000:  GT HR Quartz Pressure
 GTTQ.degC              00 000 000 000:  GT Quartz Temperature
 GTTN.NONE              00 000 000 000:  GT Test Number
 GTET.sec               00 000 000 000:  GT Elapsed Test Time
 GTTVD.m                00 000 000 000:  GT True Vertical Depth
#Other Information
#
#WARRANTY: Halliburton will use its best efforts to furnish customers with 
#accurate information and interpretations that are part of, and incident to, the services 
#provided.  However, Halliburton cannot and does not warrant the accuracy 
#or correctness of such information and interpretations.  Under no circumstances should any 
#such information or interpretation be relied upon as the sole basis for any drilling, 
#completion, production, or financial decision or any procedure involving any risk to the 
#safety of any drilling venture, drilling rig or its crew or any other third party.  The 
#Customer has full responsibility for all drilling, completion and production operation.  
#Halliburton makes no representations or warranties, either expressed or 
#implied, including, but not limited to, the implied warranties of merchantability or fitness 
#for a particular purpose, with respect to the services rendered.  In no event will 
#Halliburton be liable for failure to obtain any particular results or for 
#any damages, including, but not limited to, indirect, special or consequential damages, 
#resulting from the use of any information or interpretation provided by Halliburton.
#
~A           TIME           GTDEPTH  GTPQH  GTTQ  GTTN  GTET   GTTVD  
# ...
   19:19:48.321.16-Jul-2020 4190.01 4586.74 79.04 6.00  46.02 2825.02
   19:19:48.522.16-Jul-2020 4190.01 4586.74 79.04 6.00  46.22 2825.02
   19:19:48.722.16-Jul-2020 4190.01 4589.34 79.04 6.00  46.42 2825.02
   19:19:48.922.16-Jul-2020 4190.01 4584.61 79.04 6.00  46.62 2825.02
   19:19:49.122.16-Jul-2020 4190.01 4584.52 79.04 6.00  46.82 2825.02
   19:19:49.322.16-Jul-2020 4190.01 4589.33 79.04 6.00  47.02 2825.02
   19:19:49.522.16-Jul-2020 4190.01 4589.33 79.04 6.00  47.22 2825.02
   19:19:49.722.16-Jul-2020 4190.01 4587.00 79.03 6.00  47.42 2825.02
   19:19:49.922.16-Jul-2020 4190.01 4739.60 79.03 6.00  47.62 2825.02
   19:19:50.122.16-Jul-2020 4190.01 4789.41 79.03 6.00  47.82 2825.02
   19:19:50.322.16-Jul-2020 4190.01 4790.46 79.03 6.00  48.02 2825.02
   19:19:50.522.16-Jul-2020 4190.01 4790.46 79.03 6.00  48.22 2825.02
   19:19:50.723.16-Jul-2020 4190.01 4790.57 79.03 6.00  48.42 2825.02
   19:19:50.923.16-Jul-2020 4190.01 4790.64 79.03 6.00  48.62 2825.02
   19:19:51.123.16-Jul-2020 4190.01 4790.84 79.03 6.00  48.82 2825.02
   19:19:51.323.16-Jul-2020 4190.01 4790.68 79.03 6.00  49.02 2825.02
   19:19:51.523.16-Jul-2020 4190.01 4790.89 79.03 6.00  49.22 2825.02
   19:19:51.723.16-Jul-2020 4190.01 4790.83 79.03 6.00  49.42 2825.02
   19:19:51.923.16-Jul-2020 4190.01 4790.94 79.03 6.00  49.62 2825.02
   19:19:52.123.16-Jul-2020 4190.01 4790.99 79.03 6.00  49.82 2825.02
   19:19:52.323.16-Jul-2020 4190.01 4791.03 79.03 6.00  50.02 2825.02
   19:19:52.523.16-Jul-2020 4190.01 4791.19 79.03 6.00  50.22 2825.02
   19:19:52.723.16-Jul-2020 4190.01 4790.82 79.03 6.00  50.42 2825.02
   19:19:52.924.16-Jul-2020 4190.01 4791.03 79.03 6.00  50.62 2825.02
   19:19:53.124.16-Jul-2020 4190.01 4791.20 79.03 6.00  50.82 2825.02
   19:19:53.324.16-Jul-2020 4190.01 4791.14 79.03 6.00  51.02 2825.02
   19:19:53.524.16-Jul-2020 4190.01 4791.11 79.03 6.00  51.22 2825.02
   19:19:53.724.16-Jul-2020 4190.01 4791.11 79.03 6.00  51.42 2825.02
   19:19:53.924.16-Jul-2020 4190.01 4791.14 79.03 6.00  51.62 2825.02
   19:19:54.124.16-Jul-2020 4190.01 4791.32 79.03 6.00  51.82 2825.02
   19:19:54.324.16-Jul-2020 4190.01 4791.13 79.03 6.00  52.02 2825.02
   19:19:54.524.16-Jul-2020 4190.01 4791.13 79.03 6.00  52.22 2825.02
   19:19:54.724.16-Jul-2020 4190.01 4791.15 79.03 6.00  52.42 2825.02
   19:19:54.924.16-Jul-2020 4190.01 4791.19 79.03 6.00  52.62 2825.02
   19:19:55.125.16-Jul-2020 4190.01 4791.38 79.03 6.00  52.82 2825.02
   19:19:55.325.16-Jul-2020 4190.01 4791.14 79.03 6.00  53.02 2825.02
   19:19:55.525.16-Jul-2020 4190.01 4791.14 79.03 6.00  53.22 2825.02
   19:19:55.725.16-Jul-2020 4190.01 4791.24 79.03 6.00  53.42 2825.02
   19:19:55.925.16-Jul-2020 4190.01 4791.24 79.03 6.00  53.62 2825.02
   19:19:56.125.16-Jul-2020 4190.01 4791.28 79.03 6.00  53.82 2825.02
   19:19:56.325.16-Jul-2020 4190.01 4791.28 79.03 6.00  54.02 2825.02
   19:19:56.525.16-Jul-2020 4190.01 4791.28 79.03 6.00  54.22 2825.02
   19:19:56.725.16-Jul-2020 4190.01 4791.28 79.03 6.00  54.42 2825.02
   19:19:56.925.16-Jul-2020 4190.01 4791.32 79.03 6.00  54.62 2825.02
   19:19:57.125.16-Jul-2020 4190.01 4791.31 79.03 6.00  54.82 2825.02
   19:19:57.325.16-Jul-2020 4190.01 4791.33 79.03 6.00  55.02 2825.02
   19:19:57.526.16-Jul-2020 4190.01 4791.33 79.03 6.00  55.22 2825.02
   19:19:57.726.16-Jul-2020 4190.01 4791.35 79.03 6.00  55.42 2825.02
   19:19:57.926.16-Jul-2020 4190.01 4791.29 79.03 6.00  55.62 2825.02
   19:19:58.126.16-Jul-2020 4190.01 4791.30 79.03 6.00  55.83 2825.02
   19:19:58.326.16-Jul-2020 4190.01 4791.31 79.03 6.00  56.03 2825.02
   19:19:58.526.16-Jul-2020 4190.01 4791.31 79.03 6.00  56.23 2825.02
   19:19:58.726.16-Jul-2020 4190.01 4791.33 79.03 6.00  56.43 2825.02
   19:19:58.926.16-Jul-2020 4190.01 4791.35 79.03 6.00  56.63 2825.02
   19:19:59.126.16-Jul-2020 4190.01 4791.37 79.03 6.00  56.83 2825.02
   19:19:59.326.16-Jul-2020 4190.01 4791.35 79.03 6.00  57.03 2825.02
   19:19:59.526.16-Jul-2020 4190.01 4791.35 79.03 6.00  57.23 2825.02
   19:19:59.727.16-Jul-2020 4190.01 4791.37 79.04 6.00  57.43 2825.02
   19:19:59.927.16-Jul-2020 4190.01 4791.37 79.04 6.00  57.63 2825.02
   19:20:00.127.16-Jul-2020 4190.01 4791.40 79.04 6.00  57.83 2825.02
   19:20:00.327.16-Jul-2020 4190.01 4791.38 79.04 6.00  58.03 2825.02
   19:20:00.527.16-Jul-2020 4190.01 4791.38 79.04 6.00  58.23 2825.02
   19:20:00.727.16-Jul-2020 4190.01 4791.30 79.04 6.00  58.43 2825.02
   19:20:00.927.16-Jul-2020 4190.01 4791.43 79.04 6.00  58.63 2825.02
   19:20:01.127.16-Jul-2020 4190.01 4791.33 79.04 6.00  58.83 2825.02
   19:20:01.327.16-Jul-2020 4190.01 4791.36 79.04 6.00  59.03 2825.02
   19:20:01.527.16-Jul-2020 4190.01 4791.36 79.04 6.00  59.23 2825.02
   19:20:01.727.16-Jul-2020 4190.01 4791.54 79.04 6.00  59.43 2825.02
   19:20:01.928.16-Jul-2020 4190.01 4791.14 79.04 6.00  59.63 2825.02
   19:20:02.128.16-Jul-2020 4190.01 4791.35 79.04 6.00  59.83 2825.02
   19:20:02.328.16-Jul-2020 4190.01 4791.58 79.04 6.00  60.03 2825.02
   19:20:02.528.16-Jul-2020 4190.01 4791.58 79.04 6.00  60.23 2825.02
   19:20:02.728.16-Jul-2020 4190.01 4791.42 79.04 6.00  60.43 2825.02
   19:20:02.928.16-Jul-2020 4190.01 4791.33 79.04 6.00  60.63 2825.02
   19:20:03.128.16-Jul-2020 4190.01 4791.37 79.04 6.00  60.83 2825.02
   19:20:03.328.16-Jul-2020 4190.01 4791.55 79.04 6.00  61.03 2825.02
   19:20:03.528.16-Jul-2020 4190.01 4791.55 79.04 6.00  61.23 2825.02
   19:20:03.728.16-Jul-2020 4190.01 4791.37 79.04 6.00  61.43 2825.02
   19:20:03.928.16-Jul-2020 4190.01 4791.43 79.04 6.00  61.63 2825.02
   19:20:04.129.16-Jul-2020 4190.01 4791.43 79.04 6.00  61.83 2825.02
   19:20:04.329.16-Jul-2020 4190.01 4791.41 79.04 6.00  62.03 2825.02
   19:20:04.529.16-Jul-2020 4190.01 4791.41 79.04 6.00  62.23 2825.02
   19:20:04.729.16-Jul-2020 4190.01 4791.44 79.04 6.00  62.43 2825.02
   19:20:04.929.16-Jul-2020 4190.01 4791.43 79.04 6.00  62.63 2825.02
   19:20:05.129.16-Jul-2020 4190.01 4791.46 79.04 6.00  62.83 2825.02
   19:20:05.329.16-Jul-2020 4190.01 4791.46 79.04 6.00  63.03 2825.02
   19:20:05.529.16-Jul-2020 4190.01 4791.46 79.04 6.00  63.23 2825.02
   19:20:05.729.16-Jul-2020 4190.01 4791.46 79.04 6.00  63.43 2825.02
   19:20:05.929.16-Jul-2020 4190.01 4791.62 79.04 6.00  63.63 2825.02
   19:20:06.129.16-Jul-2020 4190.01 4791.28 79.04 6.00  63.83 2825.02
   19:20:06.330.16-Jul-2020 4190.01 4791.46 79.04 6.00  64.03 2825.02
   19:20:06.530.16-Jul-2020 4190.01 4791.40 79.04 6.00  64.23 2825.02
   19:20:06.730.16-Jul-2020 4190.01 4791.42 79.04 6.00  64.43 2825.02
   19:20:06.930.16-Jul-2020 4190.01 4791.48 79.04 6.00  64.63 2825.02
   19:20:07.130.16-Jul-2020 4190.01 4791.47 79.04 6.00  64.83 2825.02
   19:20:07.330.16-Jul-2020 4190.01 4791.46 79.04 6.00  65.03 2825.02
   19:20:07.530.16-Jul-2020 4190.01 4791.48 79.04 6.00  65.23 2825.02
   19:20:07.730.16-Jul-2020 4190.01 4791.50 79.04 6.00  65.43 2825.02
   19:20:07.930.16-Jul-2020 4190.01 4791.50 79.04 6.00  65.63 2825.02
   19:20:08.130.16-Jul-2020 4190.01 4791.50 79.04 6.00  65.83 2825.02
   19:20:08.330.16-Jul-2020 4190.01 4791.52 79.04 6.00  66.03 2825.02
   19:20:08.531.16-Jul-2020 4190.01 4791.51 79.04 6.00  66.23 2825.02
   19:20:08.731.16-Jul-2020 4190.01 4791.51 79.04 6.00  66.43 2825.02
   19:20:08.931.16-Jul-2020 4190.01 4791.52 79.04 6.00  66.63 2825.02
   19:20:09.131.16-Jul-2020 4190.01 4791.68 79.04 6.00  66.83 2825.02
   19:20:09.331.16-Jul-2020 4190.01 4791.33 79.04 6.00  67.03 2825.02
   19:20:09.531.16-Jul-2020 4190.01 4791.33 79.04 6.00  67.23 2825.02
   19:20:09.731.16-Jul-2020 4190.01 4791.45 79.04 6.00  67.43 2825.02
   19:20:09.931.16-Jul-2020 4190.01 4791.45 79.04 6.00  67.63 2825.02
   19:20:10.131.16-Jul-2020 4190.01 4791.51 79.04 6.00  67.83 2825.02
   19:20:10.331.16-Jul-2020 4190.01 4791.44 79.04 6.00  68.03 2825.02
   19:20:10.531.16-Jul-2020 4190.01 4791.44 79.04 6.00  68.23 2825.02
   19:20:10.732.16-Jul-2020 4190.01 4791.64 79.04 6.00  68.43 2825.02
   19:20:10.932.16-Jul-2020 4190.01 4791.43 79.04 6.00  68.63 2825.02
   19:20:11.132.16-Jul-2020 4190.01 4791.42 79.04 6.00  68.83 2825.02
