~Version Information
 VERS.                  2.0:   CWLS log ASCII Standard -VERSION 2.0
 WRAP.                   NO:   One line per depth step
~Well Information Block
#MNEM.UNIT     VALUE/NAME     DESCRIPTION
#---------     -----------    ---------------------------
 STRT.S             18:36:16 16-Jul-20: START TIME 18:36:16 16-Jul-20
 STOP.S             18:43:12 16-Jul-20: STOP TIME  18:43:12 16-Jul-20
 STEP.S                   0.00: STEP TIME
 NULL.                 -999.25: NULL VALUE
 MDS .        Operator Entered:  MAG DATA SOURCE
 UNIT.                     N/A:  LOGGING EQUIPMENT ID
 DCON.         Sperry Drilling:  DIRECTNL CONTR
 DOE .                     N/A:  DOE NUMBER
 RIG .               EastAzeri:  RIG NAME
 JOBN.        AZ-XX-0906363297:  JOB TICKET NUMB
 MWDS.                    Baku:  MWD SHOP
 SRVC.     Turan Drilling & Engineering:  CONTRACTOR
 PROV.                    Baku:  PROVINCE
 STAT.                    Baku:  STATE NAME
 REGN.                   EESSA:  REGION
 BASE.              Azerbaijan:  LOGGING EQUIPMENT BASE LOCATION
 WTYP.                Deviated:  WELL TYPE
 UWI .                     N/A:  UNIQUE WELL IDENTIFIER
 API .                     N/A:  API NUMBER
 COMP.     BP Exploration (Caspian Sea) ltd.:  COMPANY
 WELL.                    D07z:  WELL NAME
 CTRY.              Azerbaijan:  COUNTRY NAME
 SON .        AZ-XX-0906363297:  JOB NUMBER
 FLD .                     ACG:  FIELD NAME
 PDAT.          Mean Sea Level:  PERMANENT DATUM
 FTOP.          Formation Tops:  FORM TOPS DESC
 ILTD.               Lithology:  INTERP LTH DESC
 SVYD.                  Survey:  SURVEY DESC
 DMOD.             Drill Model:  DRILL MOD DESC
 HPTY.       Minimum Curvature:  HOLE POS TYPE
 NREF.                    Grid:  NORTH REFERENCE
 SPUD.               28-Jun-20:  SPUD DATE
 DATE.      18.27.12 28-Jun-20:  END TIME
 STIM.      18.27.12 28-Jun-20:  START TIME
 DMF .             Drill Floor:  DRILL MEAS FROM
 DFST.                        :  DIST FSL TEXT
 DFWT.                        :  DIST FWL TEXT
 CNTY.                        :  COUNTY
 LOC .                        :  LOCATION
 LMF .             Drill Floor:  LOG MEASURED FROM
 VSNS.m                  -7.75:  VERT SEC N/S
 VSEW.m                  -9.19:  VERT SEC E/W
 MMDE.m                   0.00:  MAGUTM CALC DEP
 AGAP.m                  43.60:  AIR GAP
 DEP .m                4058.99:  DEPTH
 APD .m                  43.60:  DEPTH ABOVE PD
 WDMS.m                 151.80:  WD ELEV
 EGL .m                   0.00:  GROUND ELEVATION
 EPD .m                   0.00:  ELEVATION
 AZTC.deg                 6.19:  AZM TOTAL CORR
 GRDC.deg                 0.27:  GRID CORRECTION
 MDEC.deg                 6.46:  MAGNETIC DECL
 MDIP.deg                59.47:  MAGNETIC DIP
 MFLD.nT              50279.00:  MAGNETIC FIELD
 GVFD.g                   1.00:  GRAVITY FIELD
 VSDR.deg               249.96:  VERT SEC DIRECT
 TDD .m                   0.00:  TOTAL DEPTH (DRILLER)
 SDEP.m                   0.00:  START DEPTH
 DFSL.m                   0.00:  DISTANCE FSL
 DFWL.m                   0.00:  DISTANCE FWL
 UTMY.m             4431880.20:  UTM Y
 UTMX.m              538763.98:  UTM X
 WHEW.m                  -9.19:  WELL HEAD E/W
 WHNS.m                  -7.75:  WELL HEAD N/S
 LONG.deg                51.45:  LONGITUDE
 LATI.deg                40.02:  LATITUDE
 TVDS.m                  43.60:  TVDSS CORRECTN
 EKB .m                  43.60:  KB ELEVATION
 EDF .m                  43.60:  DF ELEVATION
 TDL .m                 248.00:  TOTAL DEPTH (LOGGER)
 MAGU.                 1849075:  MAGUTM CHECKSUM
 VSC .                       0:  VS TO CLOSURE
~Parameter Information Block
#MNEM.UNIT       Value        Description
#---------     -----------    ---------------------------
 AV  .mps                 6.34:  Ann Velocity 
 AVMX.mps                 7.00:  Max Ann Veloc 
 AZIF.deg               260.29:  Azm, Final 
 BHAT.        Rotary Steerable:  BHA Type 
 BROT.°/30m               1.20:  Build Rotating 
 BS  .in                  8.50:  Bit Size 
 BSZ .in                  8.50:  Bit Size 
 BTPL.psig              620.00:  Bit Press Loss 
 CABU.                     Yes:  Customer Abuse 
 COMM.                     Ì>`:  Run Comments 1 
 TCS .hr                 56.22:  Time Ciculation Ended 
 CV  .mps                 3.05:  Crit Velocity 
 CVMX.mps                 3.20:  Max Crit Veloc 
 DD1 .            Musa Ahmadov:  Direct Drillr 1 
 DDSV.                 iCruise:  DD Service 
 DEFF.%                  98.00:  % Det Eff 
 DLRX.°/30m               2.78:  Dogleg Rot Max 
 DLSO.°/30m               0.00:  Dogleg Oriented 
 DLSX.°/30m               0.00:  Dogleg Str Max 
 DRET.      05.20.48 16-Jul-20:  Drill End Time 
 DRST.      10.20.48 13-Jul-20:  Drill Start Tim 
 DTIM.hr                 14.25:  Time Drilling 
 EDEP.m                4326.01:  End Depth 
 ENG1.      Artemiy Matviyanov:  Engineer 1 
 ENG2.           Amrah Tahirov:  Engineer 2 
 ETIM.      22.30.00 18-Jul-20:  End Time 
 FLOI.gpm               550.00:  Flow In 
 FLON.gpm               450.00:  Flow In Min 
 FLOS.cptm                0.00:  Fluid Loss 
 FLOX.gpm               600.00:  Flow In Max 
 HFLO.                      No:  High Flow 
 HPRE.                      No:  High Pressure 
 HTEM.                      No:  High Temp 
 HYDO.m                   1.80:  Hydro Offset 
 IFIN.deg                65.41:  Inc, Final 
 IMAX.deg                65.14:  Inc Max 
 IMIN.deg                58.89:  Inc Min 
 IMND.m                4104.92:  Inc Min Depth 
 IMXD.m                4303.89:  Inc Max Depth 
 JARR.                      No:  Jarring 
 LETM.      10.20.48 17-Jul-20:  Log End Time 
 LOST.hr                     0:  Lost Rig Time 
 LSTM.      10.20.48 13-Jul-20:  Log Start Time 
 MDCL.ppm             37000.00:  Mud Chlorides 
 MDES.     Inversion Oil/Synthetic:  Mud Desc 
 DFD .sg                  1.52:  Mud Density 
 MDMN.sg                  1.52:  Dens Mud Min 
 MDMX.sg                  1.52:  Dens Mud Max 
 MOIL.                   52.70:  Run Mud Oil % 
 MOWR.                   68:32:  Run Mud OWR 
 MSND.                     0.2:  Run Mud Sand % 
 MSOL.                    21.6:  Run Mud Solids% 
 DFV .spqt               79.00:  Mud Viscosity 
 MWOD.in                  6.75:  MWD Tool OD 
 MWSI.                      No:  Serv Intrp, MWD 
 OTIM.hr                114.04:  Time Operating 
 PCON.          Wear / Scratch:  Pad Condition 
 PMAX.psia            11782.92:  Press Op, Max 
 PV  .cP                 49.00:  Mud PV 
 RUN .                     600:  Run Number 
 ROPA.m/hr               20.00:  ROP Avg 
 ROPN.m/hr               15.00:  ROP Min 
 ROPX.m/hr               22.00:  ROP Max 
 RPMA.rpm               120.00:  RPM Surface Avg 
 RPMN.rpm                90.00:  RPM Surface Min 
 RPMX.rpm               140.00:  RPM Surface Max 
 RRUN.                     600:  Rig Run Number 
 SAZI.deg               260.29:  Azm, Start 
 SDEP.m                4078.01:  Start Depth 
 SIDD.                      No:  Serv Intrp, DD 
 SINC.deg                58.89:  Inc, Start 
 SPPA.psig             4560.00:  SPP Avg 
 SPPN.psig             3600.00:  SPP Min 
 SPPX.psig             4800.00:  SPP Max 
 STIM.      10.20.48 13-Jul-20:  Start Time 
 SVCS.                 DD, MWD:  Services 
 SVER.                    9.20:  Sperry Version 
 TDAT.m                4378.01:  Tot Depth Attmp 
 TDDF.                      No:  Trip for DD 
 TDLG.m                 248.00:  Tot Depth Loggd 
 TFF .                      No:  Trip for Fail 
 TQAA.f-kp               18.00:  Torque Abs Avg 
 TQAN.f-kp               15.00:  Torque Abs Min 
 TQAX.f-kp               20.00:  Torque Abs Max 
 TRRT.°/30m               0.70:  Turn Rotating 
 MRT .                    HCIM:  Maximum Recorded Temperature 
 TTMX.degC               86.00:  Max Tool Temp 
 WBMN.klb                 3.00:  WOB Min 
 WOBA.klb                 5.00:  WOB Avg 
 WOBX.klb                 9.00:  WOB Max 
 YP  .lhf2               32.00:  Yield Point 
~Curve Information Block
#MNEM.UNIT                 API CODE     Curve Description
#---------               -----------    ---------------------------
 TIME.HHMMSS            00 000 000 000:  GT Time & Date
 GTDEPTH.m              00 000 000 000:  GT Depth
 GTPQH.psia             00 000 000 000:  GT HR Quartz Pressure
 GTTQ.degC              00 000 000 000:  GT Quartz Temperature
 GTTN.NONE              00 000 000 000:  GT Test Number
 GTET.sec               00 000 000 000:  GT Elapsed Test Time
 GTTVD.m                00 000 000 000:  GT True Vertical Depth
#Other Information
#
#WARRANTY: Halliburton will use its best efforts to furnish customers with 
#accurate information and interpretations that are part of, and incident to, the services 
#provided.  However, Halliburton cannot and does not warrant the accuracy 
#or correctness of such information and interpretations.  Under no circumstances should any 
#such information or interpretation be relied upon as the sole basis for any drilling, 
#completion, production, or financial decision or any procedure involving any risk to the 
#safety of any drilling venture, drilling rig or its crew or any other third party.  The 
#Customer has full responsibility for all drilling, completion and production operation.  
#Halliburton makes no representations or warranties, either expressed or 
#implied, including, but not limited to, the implied warranties of merchantability or fitness 
#for a particular purpose, with respect to the services rendered.  In no event will 
#Halliburton be liable for failure to obtain any particular results or for 
#any damages, including, but not limited to, indirect, special or consequential damages, 
#resulting from the use of any information or interpretation provided by Halliburton.
#
~A           TIME           GTDEPTH  GTPQH  GTTQ  GTTN  GTET   GTTVD  
# ...
   18:38:34.659.16-Jul-2020 4198.01 4795.83 79.31 5.00 137.95 2828.58
   18:38:34.859.16-Jul-2020 4198.01 4795.86 79.31 5.00 138.15 2828.58
   18:38:35.059.16-Jul-2020 4198.01 4795.53 79.31 5.00 138.35 2828.58
   18:38:35.259.16-Jul-2020 4198.01 4795.71 79.31 5.00 138.55 2828.58
   18:38:35.459.16-Jul-2020 4198.01 4795.70 79.31 5.00 138.75 2828.58
   18:38:35.659.16-Jul-2020 4198.01 4795.56 79.31 5.00 138.95 2828.58
   18:38:35.859.16-Jul-2020 4198.01 4795.56 79.31 5.00 139.15 2828.58
   18:38:36.059.16-Jul-2020 4198.01 4795.67 79.31 5.00 139.35 2828.58
   18:38:36.258.16-Jul-2020 4198.01 4795.69 79.31 5.00 139.55 2828.58
   18:38:36.458.16-Jul-2020 4198.01 4795.45 79.31 5.00 139.75 2828.58
   18:38:36.658.16-Jul-2020 4198.01 4796.03 79.31 5.00 139.95 2828.58
   18:38:36.858.16-Jul-2020 4198.01 4796.03 79.31 5.00 140.15 2828.58
   18:38:37.058.16-Jul-2020 4198.01 4795.82 79.31 5.00 140.35 2828.58
   18:38:37.258.16-Jul-2020 4198.01 4795.68 79.31 5.00 140.55 2828.58
   18:38:37.458.16-Jul-2020 4198.01 4795.75 79.31 5.00 140.75 2828.58
   18:38:37.658.16-Jul-2020 4198.01 4795.74 79.31 5.00 140.95 2828.58
   18:38:37.858.16-Jul-2020 4198.01 4795.74 79.31 5.00 141.15 2828.58
   18:38:38.058.16-Jul-2020 4198.01 4795.70 79.31 5.00 141.35 2828.58
   18:38:38.258.16-Jul-2020 4198.01 4795.75 79.31 5.00 141.55 2828.58
   18:38:38.458.16-Jul-2020 4198.01 4795.82 79.31 5.00 141.75 2828.58
   18:38:38.658.16-Jul-2020 4198.01 4795.71 79.31 5.00 141.95 2828.58
   18:38:38.857.16-Jul-2020 4198.01 4795.59 79.31 5.00 142.15 2828.58
   18:38:39.057.16-Jul-2020 4198.01 4795.92 79.31 5.00 142.35 2828.58
   18:38:39.257.16-Jul-2020 4198.01 4795.53 79.31 5.00 142.55 2828.58
   18:38:39.457.16-Jul-2020 4198.01 4795.82 79.31 5.00 142.75 2828.58
   18:38:39.657.16-Jul-2020 4198.01 4795.74 79.31 5.00 142.95 2828.58
   18:38:39.857.16-Jul-2020 4198.01 4795.74 79.31 5.00 143.15 2828.58
   18:38:40.057.16-Jul-2020 4198.01 4795.57 79.31 5.00 143.35 2828.58
   18:38:40.257.16-Jul-2020 4198.01 4796.01 79.31 5.00 143.55 2828.58
   18:38:40.457.16-Jul-2020 4198.01 4795.76 79.31 5.00 143.75 2828.58
   18:38:40.657.16-Jul-2020 4198.01 4795.74 79.31 5.00 143.95 2828.58
   18:38:40.857.16-Jul-2020 4198.01 4795.69 79.31 5.00 144.15 2828.58
   18:38:41.057.16-Jul-2020 4198.01 4795.76 79.31 5.00 144.35 2828.58
   18:38:41.257.16-Jul-2020 4198.01 4795.75 79.31 5.00 144.55 2828.58
   18:38:41.456.16-Jul-2020 4198.01 4795.67 79.31 5.00 144.75 2828.58
   18:38:41.656.16-Jul-2020 4198.01 4795.90 79.31 5.00 144.95 2828.58
   18:38:41.856.16-Jul-2020 4198.01 4795.63 79.31 5.00 145.15 2828.58
   18:38:42.056.16-Jul-2020 4198.01 4795.66 79.31 5.00 145.35 2828.58
   18:38:42.256.16-Jul-2020 4198.01 4735.75 79.31 5.00 145.55 2828.58
   18:38:42.456.16-Jul-2020 4198.01 4515.93 79.31 5.00 145.75 2828.58
   18:38:42.656.16-Jul-2020 4198.01 4462.72 79.31 5.00 145.95 2828.58
   18:38:42.856.16-Jul-2020 4198.01 4456.41 79.31 5.00 146.15 2828.58
   18:38:43.056.16-Jul-2020 4198.01 4454.29 79.31 5.00 146.35 2828.58
   18:38:43.256.16-Jul-2020 4198.01 4462.90 79.31 5.00 146.54 2828.58
   18:38:43.456.16-Jul-2020 4198.01 4454.22 79.31 5.00 146.74 2828.58
   18:38:43.656.16-Jul-2020 4198.01 4456.42 79.31 5.00 146.94 2828.58
   18:38:43.856.16-Jul-2020 4198.01 4456.42 79.31 5.00 147.14 2828.58
   18:38:44.056.16-Jul-2020 4198.01 4453.80 79.31 5.00 147.34 2828.58
   18:38:44.255.16-Jul-2020 4198.01 4456.83 79.31 5.00 147.54 2828.58
   18:38:44.455.16-Jul-2020 4198.01 4459.67 79.31 5.00 147.74 2828.58
   18:38:44.655.16-Jul-2020 4198.01 4463.91 79.30 5.00 147.94 2828.58
   18:38:44.855.16-Jul-2020 4198.01 4458.11 79.30 5.00 148.14 2828.58
   18:38:45.055.16-Jul-2020 4198.01 4465.51 79.30 5.00 148.34 2828.58
   18:38:45.255.16-Jul-2020 4198.01 4463.55 79.30 5.00 148.54 2828.58
   18:38:45.455.16-Jul-2020 4198.01 4465.84 79.30 5.00 148.74 2828.58
   18:38:45.655.16-Jul-2020 4198.01 4452.44 79.30 5.00 148.94 2828.58
   18:38:45.855.16-Jul-2020 4198.01 4462.60 79.30 5.00 149.14 2828.58
   18:38:46.055.16-Jul-2020 4198.01 4455.83 79.30 5.00 149.34 2828.58
   18:38:46.255.16-Jul-2020 4198.01 4452.84 79.30 5.00 149.54 2828.58
   18:38:46.455.16-Jul-2020 4198.01 4450.27 79.30 5.00 149.74 2828.58
   18:38:46.655.16-Jul-2020 4198.01 4449.94 79.30 5.00 149.94 2828.58
   18:38:46.854.16-Jul-2020 4198.01 4458.63 79.30 5.00 150.14 2828.58
   18:38:47.054.16-Jul-2020 4198.01 4458.03 79.30 5.00 150.34 2828.58
   18:38:47.254.16-Jul-2020 4198.01 4472.48 79.30 5.00 150.54 2828.58
   18:38:47.454.16-Jul-2020 4198.01 4468.11 79.30 5.00 150.74 2828.58
   18:38:47.654.16-Jul-2020 4198.01 4469.60 79.30 5.00 150.94 2828.58
   18:38:47.854.16-Jul-2020 4198.01 4467.48 79.30 5.00 151.14 2828.58
   18:38:48.054.16-Jul-2020 4198.01 4464.20 79.30 5.00 151.34 2828.58
   18:38:48.254.16-Jul-2020 4198.01 4462.11 79.30 5.00 151.54 2828.58
   18:38:48.454.16-Jul-2020 4198.01 4463.29 79.30 5.00 151.74 2828.58
   18:38:48.654.16-Jul-2020 4198.01 4469.92 79.30 5.00 151.94 2828.58
   18:38:48.854.16-Jul-2020 4198.01 4469.92 79.30 5.00 152.14 2828.58
   18:38:49.054.16-Jul-2020 4198.01 4463.15 79.30 5.00 152.34 2828.58
   18:38:49.254.16-Jul-2020 4198.01 4459.25 79.30 5.00 152.54 2828.58
   18:38:49.453.16-Jul-2020 4198.01 4464.87 79.30 5.00 152.74 2828.58
   18:38:49.653.16-Jul-2020 4198.01 4464.35 79.30 5.00 152.94 2828.58
   18:38:49.853.16-Jul-2020 4198.01 4461.24 79.30 5.00 153.14 2828.58
   18:38:50.053.16-Jul-2020 4198.01 4461.40 79.29 5.00 153.34 2828.58
   18:38:50.253.16-Jul-2020 4198.01 4459.63 79.29 5.00 153.54 2828.58
   18:38:50.453.16-Jul-2020 4198.01 4461.55 79.29 5.00 153.74 2828.58
   18:38:50.653.16-Jul-2020 4198.01 4461.01 79.29 5.00 153.94 2828.58
   18:38:50.853.16-Jul-2020 4198.01 4461.01 79.29 5.00 154.14 2828.58
   18:38:51.053.16-Jul-2020 4198.01 4460.53 79.29 5.00 154.34 2828.58
   18:38:51.253.16-Jul-2020 4198.01 4454.53 79.29 5.00 154.54 2828.58
   18:38:51.453.16-Jul-2020 4198.01 4457.63 79.29 5.00 154.74 2828.58
   18:38:51.653.16-Jul-2020 4198.01 4455.93 79.29 5.00 154.94 2828.58
   18:38:51.853.16-Jul-2020 4198.01 4455.93 79.29 5.00 155.14 2828.58
   18:38:52.053.16-Jul-2020 4198.01 4458.13 79.29 5.00 155.34 2828.58
   18:38:52.252.16-Jul-2020 4198.01 4495.02 79.29 5.00 155.54 2828.58
   18:38:52.452.16-Jul-2020 4198.01 4705.02 79.29 5.00 155.74 2828.58
   18:38:52.652.16-Jul-2020 4198.01 4780.41 79.29 5.00 155.94 2828.58
   18:38:52.852.16-Jul-2020 4198.01 4791.10 79.29 5.00 156.14 2828.58
   18:38:53.052.16-Jul-2020 4198.01 4792.61 79.29 5.00 156.34 2828.58
   18:38:53.252.16-Jul-2020 4198.01 4793.25 79.29 5.00 156.54 2828.58
   18:38:53.452.16-Jul-2020 4198.01 4793.46 79.29 5.00 156.74 2828.58
   18:38:53.652.16-Jul-2020 4198.01 4794.23 79.29 5.00 156.94 2828.58
   18:38:53.852.16-Jul-2020 4198.01 4794.18 79.29 5.00 157.14 2828.58
   18:38:54.052.16-Jul-2020 4198.01 4794.40 79.29 5.00 157.34 2828.58
   18:38:54.252.16-Jul-2020 4198.01 4794.17 79.29 5.00 157.54 2828.58
   18:38:54.452.16-Jul-2020 4198.01 4794.60 79.29 5.00 157.74 2828.58
   18:38:54.652.16-Jul-2020 4198.01 4794.60 79.29 5.00 157.94 2828.58
   18:38:54.851.16-Jul-2020 4198.01 4794.64 79.29 5.00 158.14 2828.58
   18:38:55.051.16-Jul-2020 4198.01 4794.79 79.29 5.00 158.34 2828.58
   18:38:55.251.16-Jul-2020 4198.01 4794.38 79.30 5.00 158.54 2828.58
   18:38:55.451.16-Jul-2020 4198.01 4795.00 79.30 5.00 158.74 2828.58
   18:38:55.651.16-Jul-2020 4198.01 4794.99 79.30 5.00 158.94 2828.58
   18:38:55.851.16-Jul-2020 4198.01 4794.99 79.30 5.00 159.14 2828.58
   18:38:56.051.16-Jul-2020 4198.01 4794.75 79.30 5.00 159.34 2828.58
   18:38:56.251.16-Jul-2020 4198.01 4795.04 79.30 5.00 159.54 2828.58
   18:38:56.451.16-Jul-2020 4198.01 4795.09 79.30 5.00 159.74 2828.58
   18:38:56.651.16-Jul-2020 4198.01 4794.90 79.30 5.00 159.94 2828.58
   18:38:56.851.16-Jul-2020 4198.01 4794.90 79.30 5.00 160.14 2828.58
   18:38:57.051.16-Jul-2020 4198.01 4795.07 79.30 5.00 160.34 2828.58
   18:38:57.251.16-Jul-2020 4198.01 4795.11 79.30 5.00 160.54 2828.58
   18:38:57.450.16-Jul-2020 4198.01 4795.01 79.30 5.00 160.74 2828.58
