~Version Information
 VERS.                  2.0:   CWLS log ASCII Standard -VERSION 2.0
 WRAP.                   NO:   One line per depth step
~Well Information Block
#MNEM.UNIT     VALUE/NAME     DESCRIPTION
#---------     -----------    ---------------------------
 STRT.S             16:06:05 16-Jul-20: START TIME 16:06:05 16-Jul-20
 STOP.S             16:12:59 16-Jul-20: STOP TIME  16:12:59 16-Jul-20
 STEP.S                   0.00: STEP TIME
 NULL.                 -999.25: NULL VALUE
 MDS .        Operator Entered:  MAG DATA SOURCE
 UNIT.                     N/A:  LOGGING EQUIPMENT ID
 DCON.         Sperry Drilling:  DIRECTNL CONTR
 DOE .                     N/A:  DOE NUMBER
 RIG .               EastAzeri:  RIG NAME
 JOBN.        AZ-XX-0906363297:  JOB TICKET NUMB
 MWDS.                    Baku:  MWD SHOP
 SRVC.     Turan Drilling & Engineering:  CONTRACTOR
 PROV.                    Baku:  PROVINCE
 STAT.                    Baku:  STATE NAME
 REGN.                   EESSA:  REGION
 BASE.              Azerbaijan:  LOGGING EQUIPMENT BASE LOCATION
 WTYP.                Deviated:  WELL TYPE
 UWI .                     N/A:  UNIQUE WELL IDENTIFIER
 API .                     N/A:  API NUMBER
 COMP.     BP Exploration (Caspian Sea) ltd.:  COMPANY
 WELL.                    D07z:  WELL NAME
 CTRY.              Azerbaijan:  COUNTRY NAME
 SON .        AZ-XX-0906363297:  JOB NUMBER
 FLD .                     ACG:  FIELD NAME
 PDAT.          Mean Sea Level:  PERMANENT DATUM
 FTOP.          Formation Tops:  FORM TOPS DESC
 ILTD.               Lithology:  INTERP LTH DESC
 SVYD.                  Survey:  SURVEY DESC
 DMOD.             Drill Model:  DRILL MOD DESC
 HPTY.       Minimum Curvature:  HOLE POS TYPE
 NREF.                    Grid:  NORTH REFERENCE
 SPUD.               28-Jun-20:  SPUD DATE
 DATE.      18.27.12 28-Jun-20:  END TIME
 STIM.      18.27.12 28-Jun-20:  START TIME
 DMF .             Drill Floor:  DRILL MEAS FROM
 DFST.                        :  DIST FSL TEXT
 DFWT.                        :  DIST FWL TEXT
 CNTY.                        :  COUNTY
 LOC .                        :  LOCATION
 LMF .             Drill Floor:  LOG MEASURED FROM
 VSNS.m                  -7.75:  VERT SEC N/S
 VSEW.m                  -9.19:  VERT SEC E/W
 MMDE.m                   0.00:  MAGUTM CALC DEP
 AGAP.m                  43.60:  AIR GAP
 DEP .m                4058.99:  DEPTH
 APD .m                  43.60:  DEPTH ABOVE PD
 WDMS.m                 151.80:  WD ELEV
 EGL .m                   0.00:  GROUND ELEVATION
 EPD .m                   0.00:  ELEVATION
 AZTC.deg                 6.19:  AZM TOTAL CORR
 GRDC.deg                 0.27:  GRID CORRECTION
 MDEC.deg                 6.46:  MAGNETIC DECL
 MDIP.deg                59.47:  MAGNETIC DIP
 MFLD.nT              50279.00:  MAGNETIC FIELD
 GVFD.g                   1.00:  GRAVITY FIELD
 VSDR.deg               249.96:  VERT SEC DIRECT
 TDD .m                   0.00:  TOTAL DEPTH (DRILLER)
 SDEP.m                   0.00:  START DEPTH
 DFSL.m                   0.00:  DISTANCE FSL
 DFWL.m                   0.00:  DISTANCE FWL
 UTMY.m             4431880.20:  UTM Y
 UTMX.m              538763.98:  UTM X
 WHEW.m                  -9.19:  WELL HEAD E/W
 WHNS.m                  -7.75:  WELL HEAD N/S
 LONG.deg                51.45:  LONGITUDE
 LATI.deg                40.02:  LATITUDE
 TVDS.m                  43.60:  TVDSS CORRECTN
 EKB .m                  43.60:  KB ELEVATION
 EDF .m                  43.60:  DF ELEVATION
 TDL .m                 248.00:  TOTAL DEPTH (LOGGER)
 MAGU.                 1849075:  MAGUTM CHECKSUM
 VSC .                       0:  VS TO CLOSURE
~Parameter Information Block
#MNEM.UNIT       Value        Description
#---------     -----------    ---------------------------
 AV  .mps                 6.34:  Ann Velocity 
 AVMX.mps                 7.00:  Max Ann Veloc 
 AZIF.deg               260.29:  Azm, Final 
 BHAT.        Rotary Steerable:  BHA Type 
 BROT.°/30m               1.20:  Build Rotating 
 BS  .in                  8.50:  Bit Size 
 BSZ .in                  8.50:  Bit Size 
 BTPL.psig              620.00:  Bit Press Loss 
 CABU.                     Yes:  Customer Abuse 
 COMM.                     l&q:  Run Comments 1 
 TCS .hr                 56.22:  Time Ciculation Ended 
 CV  .mps                 3.05:  Crit Velocity 
 CVMX.mps                 3.20:  Max Crit Veloc 
 DD1 .            Musa Ahmadov:  Direct Drillr 1 
 DDSV.                 iCruise:  DD Service 
 DEFF.%                  98.00:  % Det Eff 
 DLRX.°/30m               2.78:  Dogleg Rot Max 
 DLSO.°/30m               0.00:  Dogleg Oriented 
 DLSX.°/30m               0.00:  Dogleg Str Max 
 DRET.      05.20.48 16-Jul-20:  Drill End Time 
 DRST.      10.20.48 13-Jul-20:  Drill Start Tim 
 DTIM.hr                 14.25:  Time Drilling 
 EDEP.m                4326.01:  End Depth 
 ENG1.      Artemiy Matviyanov:  Engineer 1 
 ENG2.           Amrah Tahirov:  Engineer 2 
 ETIM.      22.30.00 18-Jul-20:  End Time 
 FLOI.gpm               550.00:  Flow In 
 FLON.gpm               450.00:  Flow In Min 
 FLOS.cptm                0.00:  Fluid Loss 
 FLOX.gpm               600.00:  Flow In Max 
 HFLO.                      No:  High Flow 
 HPRE.                      No:  High Pressure 
 HTEM.                      No:  High Temp 
 HYDO.m                   1.80:  Hydro Offset 
 IFIN.deg                65.41:  Inc, Final 
 IMAX.deg                65.14:  Inc Max 
 IMIN.deg                58.89:  Inc Min 
 IMND.m                4104.92:  Inc Min Depth 
 IMXD.m                4303.89:  Inc Max Depth 
 JARR.                      No:  Jarring 
 LETM.      10.20.48 17-Jul-20:  Log End Time 
 LOST.hr                     0:  Lost Rig Time 
 LSTM.      10.20.48 13-Jul-20:  Log Start Time 
 MDCL.ppm             37000.00:  Mud Chlorides 
 MDES.     Inversion Oil/Synthetic:  Mud Desc 
 DFD .sg                  1.52:  Mud Density 
 MDMN.sg                  1.52:  Dens Mud Min 
 MDMX.sg                  1.52:  Dens Mud Max 
 MOIL.                   52.70:  Run Mud Oil % 
 MOWR.                   68:32:  Run Mud OWR 
 MSND.                     0.2:  Run Mud Sand % 
 MSOL.                    21.6:  Run Mud Solids% 
 DFV .spqt               79.00:  Mud Viscosity 
 MWOD.in                  6.75:  MWD Tool OD 
 MWSI.                      No:  Serv Intrp, MWD 
 OTIM.hr                114.04:  Time Operating 
 PCON.          Wear / Scratch:  Pad Condition 
 PMAX.psia            11782.92:  Press Op, Max 
 PV  .cP                 49.00:  Mud PV 
 RUN .                     600:  Run Number 
 ROPA.m/hr               20.00:  ROP Avg 
 ROPN.m/hr               15.00:  ROP Min 
 ROPX.m/hr               22.00:  ROP Max 
 RPMA.rpm               120.00:  RPM Surface Avg 
 RPMN.rpm                90.00:  RPM Surface Min 
 RPMX.rpm               140.00:  RPM Surface Max 
 RRUN.                     600:  Rig Run Number 
 SAZI.deg               260.29:  Azm, Start 
 SDEP.m                4078.01:  Start Depth 
 SIDD.                      No:  Serv Intrp, DD 
 SINC.deg                58.89:  Inc, Start 
 SPPA.psig             4560.00:  SPP Avg 
 SPPN.psig             3600.00:  SPP Min 
 SPPX.psig             4800.00:  SPP Max 
 STIM.      10.20.48 13-Jul-20:  Start Time 
 SVCS.                 DD, MWD:  Services 
 SVER.                    9.20:  Sperry Version 
 TDAT.m                4378.01:  Tot Depth Attmp 
 TDDF.                      No:  Trip for DD 
 TDLG.m                 248.00:  Tot Depth Loggd 
 TFF .                      No:  Trip for Fail 
 TQAA.f-kp               18.00:  Torque Abs Avg 
 TQAN.f-kp               15.00:  Torque Abs Min 
 TQAX.f-kp               20.00:  Torque Abs Max 
 TRRT.°/30m               0.70:  Turn Rotating 
 MRT .                    HCIM:  Maximum Recorded Temperature 
 TTMX.degC               86.00:  Max Tool Temp 
 WBMN.klb                 3.00:  WOB Min 
 WOBA.klb                 5.00:  WOB Avg 
 WOBX.klb                 9.00:  WOB Max 
 YP  .lhf2               32.00:  Yield Point 
~Curve Information Block
#MNEM.UNIT                 API CODE     Curve Description
#---------               -----------    ---------------------------
 TIME.HHMMSS            00 000 000 000:  GT Time & Date
 GTDEPTH.m              00 000 000 000:  GT Depth
 GTPQH.psia             00 000 000 000:  GT HR Quartz Pressure
 GTTQ.degC              00 000 000 000:  GT Quartz Temperature
 GTTN.NONE              00 000 000 000:  GT Test Number
 GTET.sec               00 000 000 000:  GT Elapsed Test Time
 GTTVD.m                00 000 000 000:  GT True Vertical Depth
#Other Information
#
#WARRANTY: Halliburton will use its best efforts to furnish customers with 
#accurate information and interpretations that are part of, and incident to, the services 
#provided.  However, Halliburton cannot and does not warrant the accuracy 
#or correctness of such information and interpretations.  Under no circumstances should any 
#such information or interpretation be relied upon as the sole basis for any drilling, 
#completion, production, or financial decision or any procedure involving any risk to the 
#safety of any drilling venture, drilling rig or its crew or any other third party.  The 
#Customer has full responsibility for all drilling, completion and production operation.  
#Halliburton makes no representations or warranties, either expressed or 
#implied, including, but not limited to, the implied warranties of merchantability or fitness 
#for a particular purpose, with respect to the services rendered.  In no event will 
#Halliburton be liable for failure to obtain any particular results or for 
#any damages, including, but not limited to, indirect, special or consequential damages, 
#resulting from the use of any information or interpretation provided by Halliburton.
#
~A           TIME           GTDEPTH  GTPQH  GTTQ  GTTN  GTET   GTTVD  
# ...
   16:06:28.771.16-Jul-2020 4280.51 6953.32 80.24 1.00  23.00 2863.78
   16:06:28.972.16-Jul-2020 4280.51 6953.32 80.24 1.00  23.20 2863.78
   16:06:29.172.16-Jul-2020 4280.51 6960.09 80.24 1.00  23.40 2863.78
   16:06:29.372.16-Jul-2020 4280.51 6958.01 80.24 1.00  23.60 2863.78
   16:06:29.572.16-Jul-2020 4280.51 6960.31 80.24 1.00  23.80 2863.78
   16:06:29.772.16-Jul-2020 4280.51 6959.39 80.24 1.00  24.00 2863.78
   16:06:29.972.16-Jul-2020 4280.51 6959.39 80.24 1.00  24.20 2863.78
   16:06:30.172.16-Jul-2020 4280.51 6959.12 80.24 1.00  24.41 2863.78
   16:06:30.372.16-Jul-2020 4280.51 6959.42 80.24 1.00  24.61 2863.78
   16:06:30.572.16-Jul-2020 4280.51 6960.77 80.24 1.00  24.81 2863.78
   16:06:30.772.16-Jul-2020 4280.51 6959.77 80.24 1.00  25.01 2863.78
   16:06:30.972.16-Jul-2020 4280.51 6962.57 80.24 1.00  25.21 2863.78
   16:06:31.172.16-Jul-2020 4280.51 6969.58 80.24 1.00  25.41 2863.78
   16:06:31.372.16-Jul-2020 4280.51 6961.20 80.24 1.00  25.61 2863.78
   16:06:31.572.16-Jul-2020 4280.51 6959.49 80.24 1.00  25.81 2863.78
   16:06:31.772.16-Jul-2020 4280.51 6965.58 80.24 1.00  26.01 2863.78
   16:06:31.972.16-Jul-2020 4280.51 6961.91 80.24 1.00  26.21 2863.78
   16:06:32.172.16-Jul-2020 4280.51 6960.78 80.24 1.00  26.41 2863.78
   16:06:32.372.16-Jul-2020 4280.51 6962.86 80.24 1.00  26.61 2863.78
   16:06:32.572.16-Jul-2020 4280.51 6964.89 80.24 1.00  26.81 2863.78
   16:06:32.772.16-Jul-2020 4280.51 6961.90 80.24 1.00  27.01 2863.78
   16:06:32.972.16-Jul-2020 4280.51 6961.90 80.24 1.00  27.21 2863.78
   16:06:33.172.16-Jul-2020 4280.51 6963.46 80.24 1.00  27.41 2863.78
   16:06:33.372.16-Jul-2020 4280.51 6964.21 80.24 1.00  27.61 2863.78
   16:06:33.572.16-Jul-2020 4280.51 6964.85 80.24 1.00  27.81 2863.78
   16:06:33.773.16-Jul-2020 4280.51 6961.92 80.24 1.00  28.01 2863.78
   16:06:33.973.16-Jul-2020 4280.51 6961.92 80.24 1.00  28.21 2863.78
   16:06:34.173.16-Jul-2020 4280.51 6963.57 80.24 1.00  28.41 2863.78
   16:06:34.373.16-Jul-2020 4280.51 6975.77 80.24 1.00  28.61 2863.78
   16:06:34.573.16-Jul-2020 4280.51 6960.77 80.24 1.00  28.81 2863.78
   16:06:34.773.16-Jul-2020 4280.51 6960.61 80.24 1.00  29.01 2863.78
   16:06:34.973.16-Jul-2020 4280.51 6968.15 80.24 1.00  29.21 2863.78
   16:06:35.173.16-Jul-2020 4280.51 6970.71 80.24 1.00  29.41 2863.78
   16:06:35.373.16-Jul-2020 4280.51 6967.15 80.24 1.00  29.61 2863.78
   16:06:35.573.16-Jul-2020 4280.51 6962.92 80.24 1.00  29.81 2863.78
   16:06:35.773.16-Jul-2020 4280.51 6964.37 80.24 1.00  30.01 2863.78
   16:06:35.973.16-Jul-2020 4280.51 6978.87 80.24 1.00  30.21 2863.78
   16:06:36.173.16-Jul-2020 4280.51 6966.38 80.23 1.00  30.41 2863.78
   16:06:36.373.16-Jul-2020 4280.51 6963.43 80.23 1.00  30.61 2863.78
   16:06:36.573.16-Jul-2020 4280.51 6970.72 80.23 1.00  30.81 2863.78
   16:06:36.773.16-Jul-2020 4280.51 6964.50 80.23 1.00  31.01 2863.78
   16:06:36.973.16-Jul-2020 4280.51 6964.50 80.23 1.00  31.21 2863.78
   16:06:37.173.16-Jul-2020 4280.51 6980.92 80.23 1.00  31.41 2863.78
   16:06:37.373.16-Jul-2020 4280.51 6964.79 80.23 1.00  31.61 2863.78
   16:06:37.573.16-Jul-2020 4280.51 6967.47 80.23 1.00  31.81 2863.78
   16:06:37.773.16-Jul-2020 4280.51 7141.29 80.23 1.00  32.01 2863.78
   16:06:37.973.16-Jul-2020 4280.51 7141.29 80.23 1.00  32.21 2863.78
   16:06:38.173.16-Jul-2020 4280.51 7309.40 80.23 1.00  32.41 2863.78
   16:06:38.373.16-Jul-2020 4280.51 7347.99 80.23 1.00  32.61 2863.78
   16:06:38.573.16-Jul-2020 4280.51 7387.63 80.23 1.00  32.81 2863.78
   16:06:38.774.16-Jul-2020 4280.51 7424.54 80.23 1.00  33.01 2863.78
   16:06:38.974.16-Jul-2020 4280.51 7424.54 80.23 1.00  33.21 2863.78
   16:06:39.174.16-Jul-2020 4280.51 7482.63 80.23 1.00  33.41 2863.78
   16:06:39.374.16-Jul-2020 4280.51 7440.48 80.23 1.00  33.61 2863.78
   16:06:39.574.16-Jul-2020 4280.51 7311.99 80.23 1.00  33.81 2863.78
   16:06:39.774.16-Jul-2020 4280.51 7189.04 80.23 1.00  34.01 2863.78
   16:06:39.974.16-Jul-2020 4280.51 7107.54 80.23 1.00  34.21 2863.78
   16:06:40.174.16-Jul-2020 4280.51 7048.26 80.23 1.00  34.41 2863.78
   16:06:40.374.16-Jul-2020 4280.51 7011.24 80.23 1.00  34.61 2863.78
   16:06:40.574.16-Jul-2020 4280.51 6989.91 80.23 1.00  34.81 2863.78
   16:06:40.774.16-Jul-2020 4280.51 6966.92 80.23 1.00  35.01 2863.78
   16:06:40.974.16-Jul-2020 4280.51 6966.92 80.23 1.00  35.21 2863.78
   16:06:41.174.16-Jul-2020 4280.51 6931.18 80.23 1.00  35.41 2863.78
   16:06:41.374.16-Jul-2020 4280.51 6919.59 80.23 1.00  35.61 2863.78
   16:06:41.574.16-Jul-2020 4280.51 6904.67 80.23 1.00  35.81 2863.78
   16:06:41.774.16-Jul-2020 4280.51 6891.96 80.23 1.00  36.01 2863.78
   16:06:41.974.16-Jul-2020 4280.51 6891.96 80.23 1.00  36.21 2863.78
   16:06:42.174.16-Jul-2020 4280.51 6863.71 80.23 1.00  36.41 2863.78
   16:06:42.374.16-Jul-2020 4280.51 6859.31 80.23 1.00  36.61 2863.78
   16:06:42.574.16-Jul-2020 4280.51 6851.11 80.23 1.00  36.81 2863.78
   16:06:42.774.16-Jul-2020 4280.51 6843.34 80.23 1.00  37.01 2863.78
   16:06:42.974.16-Jul-2020 4280.51 6836.17 80.23 1.00  37.21 2863.78
   16:06:43.174.16-Jul-2020 4280.51 6825.47 80.23 1.00  37.41 2863.78
   16:06:43.374.16-Jul-2020 4280.51 6816.16 80.23 1.00  37.61 2863.78
   16:06:43.575.16-Jul-2020 4280.51 6661.99 80.23 1.00  37.81 2863.78
   16:06:43.775.16-Jul-2020 4280.51 6130.95 80.23 1.00  38.01 2863.78
   16:06:43.975.16-Jul-2020 4280.51 5423.54 80.23 1.00  38.21 2863.78
   16:06:44.175.16-Jul-2020 4280.51 4724.48 80.23 1.00  38.41 2863.78
   16:06:44.375.16-Jul-2020 4280.51 4502.47 80.23 1.00  38.61 2863.78
   16:06:44.575.16-Jul-2020 4280.51 4288.18 80.23 1.00  38.81 2863.78
   16:06:44.775.16-Jul-2020 4280.51 4198.57 80.23 1.00  39.01 2863.78
   16:06:44.975.16-Jul-2020 4280.51 4198.57 80.23 1.00  39.21 2863.78
   16:06:45.175.16-Jul-2020 4280.51 4148.60 80.22 1.00  39.41 2863.78
   16:06:45.375.16-Jul-2020 4280.51 4139.71 80.22 1.00  39.61 2863.78
   16:06:45.575.16-Jul-2020 4280.51 4135.52 80.22 1.00  39.81 2863.78
   16:06:45.775.16-Jul-2020 4280.51 4130.38 80.22 1.00  40.01 2863.78
   16:06:45.975.16-Jul-2020 4280.51 4130.38 80.22 1.00  40.21 2863.78
   16:06:46.175.16-Jul-2020 4280.51 4120.32 80.21 1.00  40.41 2863.78
   16:06:46.375.16-Jul-2020 4280.51 4120.30 80.21 1.00  40.61 2863.78
   16:06:46.575.16-Jul-2020 4280.51 4117.93 80.20 1.00  40.81 2863.78
   16:06:46.775.16-Jul-2020 4280.51 4115.59 80.20 1.00  41.01 2863.78
   16:06:46.975.16-Jul-2020 4280.51 4116.14 80.20 1.00  41.21 2863.78
   16:06:47.175.16-Jul-2020 4280.51 4112.32 80.19 1.00  41.41 2863.78
   16:06:47.375.16-Jul-2020 4280.51 4111.25 80.19 1.00  41.61 2863.78
   16:06:47.575.16-Jul-2020 4280.51 4108.76 80.19 1.00  41.81 2863.78
   16:06:47.775.16-Jul-2020 4280.51 4102.11 80.18 1.00  42.01 2863.78
   16:06:47.975.16-Jul-2020 4280.51 4103.65 80.18 1.00  42.21 2863.78
   16:06:48.175.16-Jul-2020 4280.51 4098.95 80.18 1.00  42.41 2863.78
   16:06:48.376.16-Jul-2020 4280.51 4095.97 80.17 1.00  42.61 2863.78
   16:06:48.576.16-Jul-2020 4280.51 4097.83 80.17 1.00  42.81 2863.78
   16:06:48.776.16-Jul-2020 4280.51 4099.04 80.17 1.00  43.01 2863.78
   16:06:48.976.16-Jul-2020 4280.51 4099.04 80.17 1.00  43.21 2863.78
   16:06:49.176.16-Jul-2020 4280.51 4090.32 80.16 1.00  43.41 2863.78
   16:06:49.376.16-Jul-2020 4280.51 4090.18 80.16 1.00  43.61 2863.78
   16:06:49.576.16-Jul-2020 4280.51 4087.92 80.16 1.00  43.81 2863.78
   16:06:49.776.16-Jul-2020 4280.51 4083.60 80.15 1.00  44.01 2863.78
   16:06:49.976.16-Jul-2020 4280.51 4083.60 80.15 1.00  44.21 2863.78
   16:06:50.176.16-Jul-2020 4280.51 4079.09 80.15 1.00  44.41 2863.78
   16:06:50.376.16-Jul-2020 4280.51 4073.05 80.15 1.00  44.61 2863.78
   16:06:50.576.16-Jul-2020 4280.51 4065.05 80.14 1.00  44.81 2863.78
   16:06:50.776.16-Jul-2020 4280.51 4061.89 80.14 1.00  45.01 2863.78
   16:06:50.976.16-Jul-2020 4280.51 4060.44 80.14 1.00  45.21 2863.78
   16:06:51.176.16-Jul-2020 4280.51 4055.67 80.14 1.00  45.41 2863.78
   16:06:51.376.16-Jul-2020 4280.51 4060.16 80.14 1.00  45.61 2863.78
   16:06:51.576.16-Jul-2020 4280.51 4060.59 80.13 1.00  45.81 2863.78
