~Version Information
 VERS.                  2.0:   CWLS log ASCII Standard -VERSION 2.0
 WRAP.                   NO:   One line per depth step
~Well Information Block
#MNEM.UNIT     VALUE/NAME     DESCRIPTION
#---------     -----------    ---------------------------
 STRT.S             16:06:05 16-Jul-20: START TIME 16:06:05 16-Jul-20
 STOP.S             16:12:59 16-Jul-20: STOP TIME  16:12:59 16-Jul-20
 STEP.S                   0.00: STEP TIME
 NULL.                 -999.25: NULL VALUE
 MDS .        Operator Entered:  MAG DATA SOURCE
 UNIT.                     N/A:  LOGGING EQUIPMENT ID
 DCON.         Sperry Drilling:  DIRECTNL CONTR
 DOE .                     N/A:  DOE NUMBER
 RIG .               EastAzeri:  RIG NAME
 JOBN.        AZ-XX-0906363297:  JOB TICKET NUMB
 MWDS.                    Baku:  MWD SHOP
 SRVC.     Turan Drilling & Engineering:  CONTRACTOR
 PROV.                    Baku:  PROVINCE
 STAT.                    Baku:  STATE NAME
 REGN.                   EESSA:  REGION
 BASE.              Azerbaijan:  LOGGING EQUIPMENT BASE LOCATION
 WTYP.                Deviated:  WELL TYPE
 UWI .                     N/A:  UNIQUE WELL IDENTIFIER
 API .                     N/A:  API NUMBER
 COMP.     BP Exploration (Caspian Sea) ltd.:  COMPANY
 WELL.                    D07z:  WELL NAME
 CTRY.              Azerbaijan:  COUNTRY NAME
 SON .        AZ-XX-0906363297:  JOB NUMBER
 FLD .                     ACG:  FIELD NAME
 PDAT.          Mean Sea Level:  PERMANENT DATUM
 FTOP.          Formation Tops:  FORM TOPS DESC
 ILTD.               Lithology:  INTERP LTH DESC
 SVYD.                  Survey:  SURVEY DESC
 DMOD.             Drill Model:  DRILL MOD DESC
 HPTY.       Minimum Curvature:  HOLE POS TYPE
 NREF.                    Grid:  NORTH REFERENCE
 SPUD.               28-Jun-20:  SPUD DATE
 DATE.      18.27.12 28-Jun-20:  END TIME
 STIM.      18.27.12 28-Jun-20:  START TIME
 DMF .             Drill Floor:  DRILL MEAS FROM
 DFST.                        :  DIST FSL TEXT
 DFWT.                        :  DIST FWL TEXT
 CNTY.                        :  COUNTY
 LOC .                        :  LOCATION
 LMF .             Drill Floor:  LOG MEASURED FROM
 VSNS.m                  -7.75:  VERT SEC N/S
 VSEW.m                  -9.19:  VERT SEC E/W
 MMDE.m                   0.00:  MAGUTM CALC DEP
 AGAP.m                  43.60:  AIR GAP
 DEP .m                4058.99:  DEPTH
 APD .m                  43.60:  DEPTH ABOVE PD
 WDMS.m                 151.80:  WD ELEV
 EGL .m                   0.00:  GROUND ELEVATION
 EPD .m                   0.00:  ELEVATION
 AZTC.deg                 6.19:  AZM TOTAL CORR
 GRDC.deg                 0.27:  GRID CORRECTION
 MDEC.deg                 6.46:  MAGNETIC DECL
 MDIP.deg                59.47:  MAGNETIC DIP
 MFLD.nT              50279.00:  MAGNETIC FIELD
 GVFD.g                   1.00:  GRAVITY FIELD
 VSDR.deg               249.96:  VERT SEC DIRECT
 TDD .m                   0.00:  TOTAL DEPTH (DRILLER)
 SDEP.m                   0.00:  START DEPTH
 DFSL.m                   0.00:  DISTANCE FSL
 DFWL.m                   0.00:  DISTANCE FWL
 UTMY.m             4431880.20:  UTM Y
 UTMX.m              538763.98:  UTM X
 WHEW.m                  -9.19:  WELL HEAD E/W
 WHNS.m                  -7.75:  WELL HEAD N/S
 LONG.deg                51.45:  LONGITUDE
 LATI.deg                40.02:  LATITUDE
 TVDS.m                  43.60:  TVDSS CORRECTN
 EKB .m                  43.60:  KB ELEVATION
 EDF .m                  43.60:  DF ELEVATION
 TDL .m                 248.00:  TOTAL DEPTH (LOGGER)
 MAGU.                 1849075:  MAGUTM CHECKSUM
 VSC .                       0:  VS TO CLOSURE
~Parameter Information Block
#MNEM.UNIT       Value        Description
#---------     -----------    ---------------------------
 AV  .mps                 6.34:  Ann Velocity 
 AVMX.mps                 7.00:  Max Ann Veloc 
 AZIF.deg               260.29:  Azm, Final 
 BHAT.        Rotary Steerable:  BHA Type 
 BROT.°/30m               1.20:  Build Rotating 
 BS  .in                  8.50:  Bit Size 
 BSZ .in                  8.50:  Bit Size 
 BTPL.psig              620.00:  Bit Press Loss 
 CABU.                     Yes:  Customer Abuse 
 COMM.                     l&q:  Run Comments 1 
 TCS .hr                 56.22:  Time Ciculation Ended 
 CV  .mps                 3.05:  Crit Velocity 
 CVMX.mps                 3.20:  Max Crit Veloc 
 DD1 .            Musa Ahmadov:  Direct Drillr 1 
 DDSV.                 iCruise:  DD Service 
 DEFF.%                  98.00:  % Det Eff 
 DLRX.°/30m               2.78:  Dogleg Rot Max 
 DLSO.°/30m               0.00:  Dogleg Oriented 
 DLSX.°/30m               0.00:  Dogleg Str Max 
 DRET.      05.20.48 16-Jul-20:  Drill End Time 
 DRST.      10.20.48 13-Jul-20:  Drill Start Tim 
 DTIM.hr                 14.25:  Time Drilling 
 EDEP.m                4326.01:  End Depth 
 ENG1.      Artemiy Matviyanov:  Engineer 1 
 ENG2.           Amrah Tahirov:  Engineer 2 
 ETIM.      22.30.00 18-Jul-20:  End Time 
 FLOI.gpm               550.00:  Flow In 
 FLON.gpm               450.00:  Flow In Min 
 FLOS.cptm                0.00:  Fluid Loss 
 FLOX.gpm               600.00:  Flow In Max 
 HFLO.                      No:  High Flow 
 HPRE.                      No:  High Pressure 
 HTEM.                      No:  High Temp 
 HYDO.m                   1.80:  Hydro Offset 
 IFIN.deg                65.41:  Inc, Final 
 IMAX.deg                65.14:  Inc Max 
 IMIN.deg                58.89:  Inc Min 
 IMND.m                4104.92:  Inc Min Depth 
 IMXD.m                4303.89:  Inc Max Depth 
 JARR.                      No:  Jarring 
 LETM.      10.20.48 17-Jul-20:  Log End Time 
 LOST.hr                     0:  Lost Rig Time 
 LSTM.      10.20.48 13-Jul-20:  Log Start Time 
 MDCL.ppm             37000.00:  Mud Chlorides 
 MDES.     Inversion Oil/Synthetic:  Mud Desc 
 DFD .sg                  1.52:  Mud Density 
 MDMN.sg                  1.52:  Dens Mud Min 
 MDMX.sg                  1.52:  Dens Mud Max 
 MOIL.                   52.70:  Run Mud Oil % 
 MOWR.                   68:32:  Run Mud OWR 
 MSND.                     0.2:  Run Mud Sand % 
 MSOL.                    21.6:  Run Mud Solids% 
 DFV .spqt               79.00:  Mud Viscosity 
 MWOD.in                  6.75:  MWD Tool OD 
 MWSI.                      No:  Serv Intrp, MWD 
 OTIM.hr                114.04:  Time Operating 
 PCON.          Wear / Scratch:  Pad Condition 
 PMAX.psia            11782.92:  Press Op, Max 
 PV  .cP                 49.00:  Mud PV 
 RUN .                     600:  Run Number 
 ROPA.m/hr               20.00:  ROP Avg 
 ROPN.m/hr               15.00:  ROP Min 
 ROPX.m/hr               22.00:  ROP Max 
 RPMA.rpm               120.00:  RPM Surface Avg 
 RPMN.rpm                90.00:  RPM Surface Min 
 RPMX.rpm               140.00:  RPM Surface Max 
 RRUN.                     600:  Rig Run Number 
 SAZI.deg               260.29:  Azm, Start 
 SDEP.m                4078.01:  Start Depth 
 SIDD.                      No:  Serv Intrp, DD 
 SINC.deg                58.89:  Inc, Start 
 SPPA.psig             4560.00:  SPP Avg 
 SPPN.psig             3600.00:  SPP Min 
 SPPX.psig             4800.00:  SPP Max 
 STIM.      10.20.48 13-Jul-20:  Start Time 
 SVCS.                 DD, MWD:  Services 
 SVER.                    9.20:  Sperry Version 
 TDAT.m                4378.01:  Tot Depth Attmp 
 TDDF.                      No:  Trip for DD 
 TDLG.m                 248.00:  Tot Depth Loggd 
 TFF .                      No:  Trip for Fail 
 TQAA.f-kp               18.00:  Torque Abs Avg 
 TQAN.f-kp               15.00:  Torque Abs Min 
 TQAX.f-kp               20.00:  Torque Abs Max 
 TRRT.°/30m               0.70:  Turn Rotating 
 MRT .                    HCIM:  Maximum Recorded Temperature 
 TTMX.degC               86.00:  Max Tool Temp 
 WBMN.klb                 3.00:  WOB Min 
 WOBA.klb                 5.00:  WOB Avg 
 WOBX.klb                 9.00:  WOB Max 
 YP  .lhf2               32.00:  Yield Point 
~Curve Information Block
#MNEM.UNIT                 API CODE     Curve Description
#---------               -----------    ---------------------------
 TIME.HHMMSS            00 000 000 000:  GT Time & Date
 GTDEPTH.m              00 000 000 000:  GT Depth
 GTPQH.psia             00 000 000 000:  GT HR Quartz Pressure
 GTTQ.degC              00 000 000 000:  GT Quartz Temperature
 GTTN.NONE              00 000 000 000:  GT Test Number
 GTET.sec               00 000 000 000:  GT Elapsed Test Time
 GTTVD.m                00 000 000 000:  GT True Vertical Depth
#Other Information
#
#WARRANTY: Halliburton will use its best efforts to furnish customers with 
#accurate information and interpretations that are part of, and incident to, the services 
#provided.  However, Halliburton cannot and does not warrant the accuracy 
#or correctness of such information and interpretations.  Under no circumstances should any 
#such information or interpretation be relied upon as the sole basis for any drilling, 
#completion, production, or financial decision or any procedure involving any risk to the 
#safety of any drilling venture, drilling rig or its crew or any other third party.  The 
#Customer has full responsibility for all drilling, completion and production operation.  
#Halliburton makes no representations or warranties, either expressed or 
#implied, including, but not limited to, the implied warranties of merchantability or fitness 
#for a particular purpose, with respect to the services rendered.  In no event will 
#Halliburton be liable for failure to obtain any particular results or for 
#any damages, including, but not limited to, indirect, special or consequential damages, 
#resulting from the use of any information or interpretation provided by Halliburton.
#
~A           TIME           GTDEPTH  GTPQH  GTTQ  GTTN  GTET   GTTVD  
# ...
   16:08:23.795.16-Jul-2020 4280.51 4342.44 80.13 1.00 138.03 2863.78
   16:08:23.995.16-Jul-2020 4280.51 4342.47 80.13 1.00 138.23 2863.78
   16:08:24.195.16-Jul-2020 4280.51 4342.47 80.12 1.00 138.43 2863.78
   16:08:24.395.16-Jul-2020 4280.51 4342.43 80.12 1.00 138.63 2863.78
   16:08:24.595.16-Jul-2020 4280.51 4342.40 80.12 1.00 138.83 2863.78
   16:08:24.795.16-Jul-2020 4280.51 4342.34 80.12 1.00 139.03 2863.78
   16:08:24.995.16-Jul-2020 4280.51 4342.34 80.12 1.00 139.23 2863.78
   16:08:25.195.16-Jul-2020 4280.51 4342.36 80.12 1.00 139.43 2863.78
   16:08:25.395.16-Jul-2020 4280.51 4342.47 80.12 1.00 139.63 2863.78
   16:08:25.596.16-Jul-2020 4280.51 4342.45 80.12 1.00 139.83 2863.78
   16:08:25.796.16-Jul-2020 4280.51 4342.42 80.12 1.00 140.03 2863.78
   16:08:25.996.16-Jul-2020 4280.51 4342.42 80.12 1.00 140.23 2863.78
   16:08:26.196.16-Jul-2020 4280.51 4342.48 80.12 1.00 140.43 2863.78
   16:08:26.396.16-Jul-2020 4280.51 4342.44 80.12 1.00 140.63 2863.78
   16:08:26.596.16-Jul-2020 4280.51 4342.41 80.12 1.00 140.83 2863.78
   16:08:26.796.16-Jul-2020 4280.51 4342.46 80.12 1.00 141.03 2863.78
   16:08:26.996.16-Jul-2020 4280.51 4342.45 80.12 1.00 141.23 2863.78
   16:08:27.196.16-Jul-2020 4280.51 4342.46 80.12 1.00 141.43 2863.78
   16:08:27.396.16-Jul-2020 4280.51 4342.46 80.12 1.00 141.63 2863.78
   16:08:27.596.16-Jul-2020 4280.51 4342.43 80.12 1.00 141.83 2863.78
   16:08:27.796.16-Jul-2020 4280.51 4342.46 80.12 1.00 142.03 2863.78
   16:08:27.996.16-Jul-2020 4280.51 4342.26 80.12 1.00 142.23 2863.78
   16:08:28.196.16-Jul-2020 4280.51 4342.84 80.12 1.00 142.43 2863.78
   16:08:28.396.16-Jul-2020 4280.51 4342.42 80.12 1.00 142.63 2863.78
   16:08:28.596.16-Jul-2020 4280.51 4342.46 80.12 1.00 142.83 2863.78
   16:08:28.796.16-Jul-2020 4280.51 4342.44 80.12 1.00 143.03 2863.78
   16:08:28.996.16-Jul-2020 4280.51 4342.44 80.12 1.00 143.23 2863.78
   16:08:29.196.16-Jul-2020 4280.51 4342.42 80.12 1.00 143.43 2863.78
   16:08:29.396.16-Jul-2020 4280.51 4342.66 80.12 1.00 143.63 2863.78
   16:08:29.596.16-Jul-2020 4280.51 4342.40 80.12 1.00 143.83 2863.78
   16:08:29.796.16-Jul-2020 4280.51 4342.56 80.12 1.00 144.03 2863.78
   16:08:29.996.16-Jul-2020 4280.51 4342.56 80.12 1.00 144.23 2863.78
   16:08:30.196.16-Jul-2020 4280.51 4342.32 80.12 1.00 144.43 2863.78
   16:08:30.397.16-Jul-2020 4280.51 4173.23 80.12 1.00 144.63 2863.78
   16:08:30.597.16-Jul-2020 4280.51 4106.83 80.12 1.00 144.83 2863.78
   16:08:30.797.16-Jul-2020 4280.51 4099.26 80.12 1.00 145.03 2863.78
   16:08:30.997.16-Jul-2020 4280.51 4073.60 80.12 1.00 145.23 2863.78
   16:08:31.197.16-Jul-2020 4280.51 4084.31 80.12 1.00 145.43 2863.78
   16:08:31.397.16-Jul-2020 4280.51 4066.56 80.12 1.00 145.63 2863.78
   16:08:31.597.16-Jul-2020 4280.51 4044.93 80.12 1.00 145.83 2863.78
   16:08:31.797.16-Jul-2020 4280.51 4033.54 80.12 1.00 146.03 2863.78
   16:08:31.997.16-Jul-2020 4280.51 4015.28 80.12 1.00 146.23 2863.78
   16:08:32.197.16-Jul-2020 4280.51 4006.35 80.12 1.00 146.43 2863.78
   16:08:32.397.16-Jul-2020 4280.51 4002.07 80.12 1.00 146.63 2863.78
   16:08:32.597.16-Jul-2020 4280.51 4003.27 80.12 1.00 146.83 2863.78
   16:08:32.797.16-Jul-2020 4280.51 4007.15 80.12 1.00 147.03 2863.78
   16:08:32.997.16-Jul-2020 4280.51 3997.02 80.12 1.00 147.23 2863.78
   16:08:33.197.16-Jul-2020 4280.51 3996.50 80.12 1.00 147.43 2863.78
   16:08:33.397.16-Jul-2020 4280.51 4008.42 80.12 1.00 147.63 2863.78
   16:08:33.597.16-Jul-2020 4280.51 4008.12 80.12 1.00 147.83 2863.78
   16:08:33.797.16-Jul-2020 4280.51 4003.39 80.12 1.00 148.03 2863.78
   16:08:33.997.16-Jul-2020 4280.51 4004.33 80.12 1.00 148.23 2863.78
   16:08:34.197.16-Jul-2020 4280.51 4005.11 80.12 1.00 148.43 2863.78
   16:08:34.397.16-Jul-2020 4280.51 4001.44 80.12 1.00 148.63 2863.78
   16:08:34.597.16-Jul-2020 4280.51 3997.35 80.12 1.00 148.83 2863.78
   16:08:34.797.16-Jul-2020 4280.51 3992.65 80.12 1.00 149.03 2863.78
   16:08:34.997.16-Jul-2020 4280.51 3996.21 80.12 1.00 149.23 2863.78
   16:08:35.198.16-Jul-2020 4280.51 3990.62 80.12 1.00 149.43 2863.78
   16:08:35.398.16-Jul-2020 4280.51 3988.49 80.11 1.00 149.63 2863.78
   16:08:35.598.16-Jul-2020 4280.51 3983.91 80.11 1.00 149.83 2863.78
   16:08:35.798.16-Jul-2020 4280.51 3985.78 80.11 1.00 150.03 2863.78
   16:08:35.998.16-Jul-2020 4280.51 3976.12 80.11 1.00 150.23 2863.78
   16:08:36.198.16-Jul-2020 4280.51 3975.12 80.11 1.00 150.43 2863.78
   16:08:36.398.16-Jul-2020 4280.51 3981.96 80.11 1.00 150.63 2863.78
   16:08:36.598.16-Jul-2020 4280.51 3983.20 80.11 1.00 150.83 2863.78
   16:08:36.798.16-Jul-2020 4280.51 3975.92 80.11 1.00 151.03 2863.78
   16:08:36.998.16-Jul-2020 4280.51 4000.91 80.11 1.00 151.23 2863.78
   16:08:37.198.16-Jul-2020 4280.51 4003.36 80.11 1.00 151.43 2863.78
   16:08:37.398.16-Jul-2020 4280.51 3991.85 80.11 1.00 151.63 2863.78
   16:08:37.598.16-Jul-2020 4280.51 3996.89 80.11 1.00 151.83 2863.78
   16:08:37.798.16-Jul-2020 4280.51 3986.40 80.11 1.00 152.03 2863.78
   16:08:37.998.16-Jul-2020 4280.51 3972.64 80.11 1.00 152.23 2863.78
   16:08:38.198.16-Jul-2020 4280.51 3972.07 80.11 1.00 152.43 2863.78
   16:08:38.398.16-Jul-2020 4280.51 3968.51 80.11 1.00 152.63 2863.78
   16:08:38.598.16-Jul-2020 4280.51 3956.46 80.11 1.00 152.83 2863.78
   16:08:38.798.16-Jul-2020 4280.51 3970.73 80.11 1.00 153.03 2863.78
   16:08:38.998.16-Jul-2020 4280.51 3996.32 80.11 1.00 153.23 2863.78
   16:08:39.198.16-Jul-2020 4280.51 3980.70 80.11 1.00 153.43 2863.78
   16:08:39.398.16-Jul-2020 4280.51 3974.63 80.11 1.00 153.63 2863.78
   16:08:39.598.16-Jul-2020 4280.51 3967.02 80.11 1.00 153.83 2863.78
   16:08:39.798.16-Jul-2020 4280.51 3963.45 80.11 1.00 154.03 2863.78
   16:08:39.998.16-Jul-2020 4280.51 3968.19 80.11 1.00 154.23 2863.78
   16:08:40.199.16-Jul-2020 4280.51 3987.33 80.11 1.00 154.43 2863.78
   16:08:40.399.16-Jul-2020 4280.51 4214.30 80.11 1.00 154.63 2863.78
   16:08:40.599.16-Jul-2020 4280.51 4312.03 80.11 1.00 154.83 2863.78
   16:08:40.799.16-Jul-2020 4280.51 4332.17 80.11 1.00 155.03 2863.78
   16:08:40.999.16-Jul-2020 4280.51 4332.17 80.11 1.00 155.23 2863.78
   16:08:41.199.16-Jul-2020 4280.51 4337.29 80.11 1.00 155.43 2863.78
   16:08:41.399.16-Jul-2020 4280.51 4337.73 80.11 1.00 155.63 2863.78
   16:08:41.599.16-Jul-2020 4280.51 4338.20 80.11 1.00 155.83 2863.78
   16:08:41.799.16-Jul-2020 4280.51 4338.40 80.11 1.00 156.03 2863.78
   16:08:41.999.16-Jul-2020 4280.51 4338.40 80.11 1.00 156.23 2863.78
   16:08:42.199.16-Jul-2020 4280.51 4338.80 80.11 1.00 156.43 2863.78
   16:08:42.399.16-Jul-2020 4280.51 4339.08 80.11 1.00 156.63 2863.78
   16:08:42.599.16-Jul-2020 4280.51 4339.21 80.11 1.00 156.83 2863.78
   16:08:42.799.16-Jul-2020 4280.51 4339.41 80.11 1.00 157.03 2863.78
   16:08:42.999.16-Jul-2020 4280.51 4339.53 80.11 1.00 157.23 2863.78
   16:08:43.199.16-Jul-2020 4280.51 4339.65 80.11 1.00 157.43 2863.78
   16:08:43.399.16-Jul-2020 4280.51 4339.77 80.11 1.00 157.63 2863.78
   16:08:43.599.16-Jul-2020 4280.51 4339.82 80.11 1.00 157.83 2863.78
   16:08:43.799.16-Jul-2020 4280.51 4340.20 80.11 1.00 158.03 2863.78
   16:08:43.999.16-Jul-2020 4280.51 4340.12 80.11 1.00 158.23 2863.78
   16:08:44.199.16-Jul-2020 4280.51 4340.21 80.11 1.00 158.43 2863.78
   16:08:44.399.16-Jul-2020 4280.51 4340.37 80.11 1.00 158.63 2863.78
   16:08:44.599.16-Jul-2020 4280.51 4340.28 80.11 1.00 158.83 2863.78
   16:08:44.799.16-Jul-2020 4280.51 4340.39 80.11 1.00 159.03 2863.78
   16:08:45.000.16-Jul-2020 4280.51 4340.39 80.11 1.00 159.23 2863.78
   16:08:45.200.16-Jul-2020 4280.51 4340.53 80.11 1.00 159.43 2863.78
   16:08:45.400.16-Jul-2020 4280.51 4340.51 80.11 1.00 159.63 2863.78
   16:08:45.600.16-Jul-2020 4280.51 4340.56 80.11 1.00 159.83 2863.78
   16:08:45.800.16-Jul-2020 4280.51 4340.68 80.11 1.00 160.03 2863.78
   16:08:46.000.16-Jul-2020 4280.51 4340.72 80.11 1.00 160.23 2863.78
   16:08:46.200.16-Jul-2020 4280.51 4340.69 80.11 1.00 160.43 2863.78
   16:08:46.400.16-Jul-2020 4280.51 4340.72 80.11 1.00 160.63 2863.78
   16:08:46.600.16-Jul-2020 4280.51 4340.75 80.11 1.00 160.83 2863.78
