~Version Information
 VERS.                  2.0:   CWLS log ASCII Standard -VERSION 2.0
 WRAP.                   NO:   One line per depth step
~Well Information Block
#MNEM.UNIT     VALUE/NAME     DESCRIPTION
#---------     -----------    ---------------------------
 STRT.S             17:56:46 16-Jul-20: START TIME 17:56:46 16-Jul-20
 STOP.S             18:03:39 16-Jul-20: STOP TIME  18:03:39 16-Jul-20
 STEP.S                   0.00: STEP TIME
 NULL.                 -999.25: NULL VALUE
 MDS .        Operator Entered:  MAG DATA SOURCE
 UNIT.                     N/A:  LOGGING EQUIPMENT ID
 DCON.         Sperry Drilling:  DIRECTNL CONTR
 DOE .                     N/A:  DOE NUMBER
 RIG .               EastAzeri:  RIG NAME
 JOBN.        AZ-XX-0906363297:  JOB TICKET NUMB
 MWDS.                    Baku:  MWD SHOP
 SRVC.     Turan Drilling & Engineering:  CONTRACTOR
 PROV.                    Baku:  PROVINCE
 STAT.                    Baku:  STATE NAME
 REGN.                   EESSA:  REGION
 BASE.              Azerbaijan:  LOGGING EQUIPMENT BASE LOCATION
 WTYP.                Deviated:  WELL TYPE
 UWI .                     N/A:  UNIQUE WELL IDENTIFIER
 API .                     N/A:  API NUMBER
 COMP.     BP Exploration (Caspian Sea) ltd.:  COMPANY
 WELL.                    D07z:  WELL NAME
 CTRY.              Azerbaijan:  COUNTRY NAME
 SON .        AZ-XX-0906363297:  JOB NUMBER
 FLD .                     ACG:  FIELD NAME
 PDAT.          Mean Sea Level:  PERMANENT DATUM
 FTOP.          Formation Tops:  FORM TOPS DESC
 ILTD.               Lithology:  INTERP LTH DESC
 SVYD.                  Survey:  SURVEY DESC
 DMOD.             Drill Model:  DRILL MOD DESC
 HPTY.       Minimum Curvature:  HOLE POS TYPE
 NREF.                    Grid:  NORTH REFERENCE
 SPUD.               28-Jun-20:  SPUD DATE
 DATE.      18.27.12 28-Jun-20:  END TIME
 STIM.      18.27.12 28-Jun-20:  START TIME
 DMF .             Drill Floor:  DRILL MEAS FROM
 DFST.                        :  DIST FSL TEXT
 DFWT.                        :  DIST FWL TEXT
 CNTY.                        :  COUNTY
 LOC .                        :  LOCATION
 LMF .             Drill Floor:  LOG MEASURED FROM
 VSNS.m                  -7.75:  VERT SEC N/S
 VSEW.m                  -9.19:  VERT SEC E/W
 MMDE.m                   0.00:  MAGUTM CALC DEP
 AGAP.m                  43.60:  AIR GAP
 DEP .m                4058.99:  DEPTH
 APD .m                  43.60:  DEPTH ABOVE PD
 WDMS.m                 151.80:  WD ELEV
 EGL .m                   0.00:  GROUND ELEVATION
 EPD .m                   0.00:  ELEVATION
 AZTC.deg                 6.19:  AZM TOTAL CORR
 GRDC.deg                 0.27:  GRID CORRECTION
 MDEC.deg                 6.46:  MAGNETIC DECL
 MDIP.deg                59.47:  MAGNETIC DIP
 MFLD.nT              50279.00:  MAGNETIC FIELD
 GVFD.g                   1.00:  GRAVITY FIELD
 VSDR.deg               249.96:  VERT SEC DIRECT
 TDD .m                   0.00:  TOTAL DEPTH (DRILLER)
 SDEP.m                   0.00:  START DEPTH
 DFSL.m                   0.00:  DISTANCE FSL
 DFWL.m                   0.00:  DISTANCE FWL
 UTMY.m             4431880.20:  UTM Y
 UTMX.m              538763.98:  UTM X
 WHEW.m                  -9.19:  WELL HEAD E/W
 WHNS.m                  -7.75:  WELL HEAD N/S
 LONG.deg                51.45:  LONGITUDE
 LATI.deg                40.02:  LATITUDE
 TVDS.m                  43.60:  TVDSS CORRECTN
 EKB .m                  43.60:  KB ELEVATION
 EDF .m                  43.60:  DF ELEVATION
 TDL .m                 248.00:  TOTAL DEPTH (LOGGER)
 MAGU.                 1849075:  MAGUTM CHECKSUM
 VSC .                       0:  VS TO CLOSURE
~Parameter Information Block
#MNEM.UNIT       Value        Description
#---------     -----------    ---------------------------
 AV  .mps                 6.34:  Ann Velocity 
 AVMX.mps                 7.00:  Max Ann Veloc 
 AZIF.deg               260.29:  Azm, Final 
 BHAT.        Rotary Steerable:  BHA Type 
 BROT.°/30m               1.20:  Build Rotating 
 BS  .in                  8.50:  Bit Size 
 BSZ .in                  8.50:  Bit Size 
 BTPL.psig              620.00:  Bit Press Loss 
 CABU.                     Yes:  Customer Abuse 
 COMM.                     LqT:  Run Comments 1 
 TCS .hr                 56.22:  Time Ciculation Ended 
 CV  .mps                 3.05:  Crit Velocity 
 CVMX.mps                 3.20:  Max Crit Veloc 
 DD1 .            Musa Ahmadov:  Direct Drillr 1 
 DDSV.                 iCruise:  DD Service 
 DEFF.%                  98.00:  % Det Eff 
 DLRX.°/30m               2.78:  Dogleg Rot Max 
 DLSO.°/30m               0.00:  Dogleg Oriented 
 DLSX.°/30m               0.00:  Dogleg Str Max 
 DRET.      05.20.48 16-Jul-20:  Drill End Time 
 DRST.      10.20.48 13-Jul-20:  Drill Start Tim 
 DTIM.hr                 14.25:  Time Drilling 
 EDEP.m                4326.01:  End Depth 
 ENG1.      Artemiy Matviyanov:  Engineer 1 
 ENG2.           Amrah Tahirov:  Engineer 2 
 ETIM.      22.30.00 18-Jul-20:  End Time 
 FLOI.gpm               550.00:  Flow In 
 FLON.gpm               450.00:  Flow In Min 
 FLOS.cptm                0.00:  Fluid Loss 
 FLOX.gpm               600.00:  Flow In Max 
 HFLO.                      No:  High Flow 
 HPRE.                      No:  High Pressure 
 HTEM.                      No:  High Temp 
 HYDO.m                   1.80:  Hydro Offset 
 IFIN.deg                65.41:  Inc, Final 
 IMAX.deg                65.14:  Inc Max 
 IMIN.deg                58.89:  Inc Min 
 IMND.m                4104.92:  Inc Min Depth 
 IMXD.m                4303.89:  Inc Max Depth 
 JARR.                      No:  Jarring 
 LETM.      10.20.48 17-Jul-20:  Log End Time 
 LOST.hr                     0:  Lost Rig Time 
 LSTM.      10.20.48 13-Jul-20:  Log Start Time 
 MDCL.ppm             37000.00:  Mud Chlorides 
 MDES.     Inversion Oil/Synthetic:  Mud Desc 
 DFD .sg                  1.52:  Mud Density 
 MDMN.sg                  1.52:  Dens Mud Min 
 MDMX.sg                  1.52:  Dens Mud Max 
 MOIL.                   52.70:  Run Mud Oil % 
 MOWR.                   68:32:  Run Mud OWR 
 MSND.                     0.2:  Run Mud Sand % 
 MSOL.                    21.6:  Run Mud Solids% 
 DFV .spqt               79.00:  Mud Viscosity 
 MWOD.in                  6.75:  MWD Tool OD 
 MWSI.                      No:  Serv Intrp, MWD 
 OTIM.hr                114.04:  Time Operating 
 PCON.          Wear / Scratch:  Pad Condition 
 PMAX.psia            11782.92:  Press Op, Max 
 PV  .cP                 49.00:  Mud PV 
 RUN .                     600:  Run Number 
 ROPA.m/hr               20.00:  ROP Avg 
 ROPN.m/hr               15.00:  ROP Min 
 ROPX.m/hr               22.00:  ROP Max 
 RPMA.rpm               120.00:  RPM Surface Avg 
 RPMN.rpm                90.00:  RPM Surface Min 
 RPMX.rpm               140.00:  RPM Surface Max 
 RRUN.                     600:  Rig Run Number 
 SAZI.deg               260.29:  Azm, Start 
 SDEP.m                4078.01:  Start Depth 
 SIDD.                      No:  Serv Intrp, DD 
 SINC.deg                58.89:  Inc, Start 
 SPPA.psig             4560.00:  SPP Avg 
 SPPN.psig             3600.00:  SPP Min 
 SPPX.psig             4800.00:  SPP Max 
 STIM.      10.20.48 13-Jul-20:  Start Time 
 SVCS.                 DD, MWD:  Services 
 SVER.                    9.20:  Sperry Version 
 TDAT.m                4378.01:  Tot Depth Attmp 
 TDDF.                      No:  Trip for DD 
 TDLG.m                 248.00:  Tot Depth Loggd 
 TFF .                      No:  Trip for Fail 
 TQAA.f-kp               18.00:  Torque Abs Avg 
 TQAN.f-kp               15.00:  Torque Abs Min 
 TQAX.f-kp               20.00:  Torque Abs Max 
 TRRT.°/30m               0.70:  Turn Rotating 
 MRT .                    HCIM:  Maximum Recorded Temperature 
 TTMX.degC               86.00:  Max Tool Temp 
 WBMN.klb                 3.00:  WOB Min 
 WOBA.klb                 5.00:  WOB Avg 
 WOBX.klb                 9.00:  WOB Max 
 YP  .lhf2               32.00:  Yield Point 
~Curve Information Block
#MNEM.UNIT                 API CODE     Curve Description
#---------               -----------    ---------------------------
 TIME.HHMMSS            00 000 000 000:  GT Time & Date
 GTDEPTH.m              00 000 000 000:  GT Depth
 GTPQH.psia             00 000 000 000:  GT HR Quartz Pressure
 GTTQ.degC              00 000 000 000:  GT Quartz Temperature
 GTTN.NONE              00 000 000 000:  GT Test Number
 GTET.sec               00 000 000 000:  GT Elapsed Test Time
 GTTVD.m                00 000 000 000:  GT True Vertical Depth
#Other Information
#
#WARRANTY: Halliburton will use its best efforts to furnish customers with 
#accurate information and interpretations that are part of, and incident to, the services 
#provided.  However, Halliburton cannot and does not warrant the accuracy 
#or correctness of such information and interpretations.  Under no circumstances should any 
#such information or interpretation be relied upon as the sole basis for any drilling, 
#completion, production, or financial decision or any procedure involving any risk to the 
#safety of any drilling venture, drilling rig or its crew or any other third party.  The 
#Customer has full responsibility for all drilling, completion and production operation.  
#Halliburton makes no representations or warranties, either expressed or 
#implied, including, but not limited to, the implied warranties of merchantability or fitness 
#for a particular purpose, with respect to the services rendered.  In no event will 
#Halliburton be liable for failure to obtain any particular results or for 
#any damages, including, but not limited to, indirect, special or consequential damages, 
#resulting from the use of any information or interpretation provided by Halliburton.
#
~A           TIME           GTDEPTH  GTPQH  GTTQ  GTTN  GTET   GTTVD  
# ...
   18:03:17.462.16-Jul-2020 4229.01 7013.20 79.77 4.00 391.17 2841.98
   18:03:17.663.16-Jul-2020 4229.01 7012.91 79.77 4.00 391.37 2841.98
   18:03:17.863.16-Jul-2020 4229.01 7013.75 79.77 4.00 391.57 2841.98
   18:03:18.063.16-Jul-2020 4229.01 7013.28 79.77 4.00 391.77 2841.98
   18:03:18.263.16-Jul-2020 4229.01 7012.80 79.77 4.00 391.97 2841.98
   18:03:18.463.16-Jul-2020 4229.01 7013.04 79.77 4.00 392.17 2841.98
   18:03:18.663.16-Jul-2020 4229.01 7013.04 79.77 4.00 392.37 2841.98
   18:03:18.863.16-Jul-2020 4229.01 7013.83 79.77 4.00 392.57 2841.98
   18:03:19.063.16-Jul-2020 4229.01 7012.05 79.77 4.00 392.77 2841.98
   18:03:19.263.16-Jul-2020 4229.01 7012.08 79.77 4.00 392.97 2841.98
   18:03:19.463.16-Jul-2020 4229.01 7020.04 79.77 4.00 393.17 2841.98
   18:03:19.663.16-Jul-2020 4229.01 7020.04 79.77 4.00 393.37 2841.98
   18:03:19.864.16-Jul-2020 4229.01 7014.45 79.77 4.00 393.57 2841.98
   18:03:20.064.16-Jul-2020 4229.01 7012.99 79.77 4.00 393.77 2841.98
   18:03:20.264.16-Jul-2020 4229.01 7014.95 79.77 4.00 393.97 2841.98
   18:03:20.464.16-Jul-2020 4229.01 7020.50 79.77 4.00 394.17 2841.98
   18:03:20.664.16-Jul-2020 4229.01 7020.50 79.77 4.00 394.37 2841.98
   18:03:20.864.16-Jul-2020 4229.01 7017.16 79.77 4.00 394.58 2841.98
   18:03:21.064.16-Jul-2020 4229.01 7014.66 79.77 4.00 394.78 2841.98
   18:03:21.264.16-Jul-2020 4229.01 7014.13 79.77 4.00 394.98 2841.98
   18:03:21.464.16-Jul-2020 4229.01 7028.88 79.77 4.00 395.18 2841.98
   18:03:21.664.16-Jul-2020 4229.01 7007.80 79.77 4.00 395.38 2841.98
   18:03:21.864.16-Jul-2020 4229.01 7017.11 79.76 4.00 395.58 2841.98
   18:03:22.064.16-Jul-2020 4229.01 7013.04 79.76 4.00 395.78 2841.98
   18:03:22.265.16-Jul-2020 4229.01 7013.90 79.76 4.00 395.98 2841.98
   18:03:22.465.16-Jul-2020 4229.01 7019.84 79.76 4.00 396.18 2841.98
   18:03:22.665.16-Jul-2020 4229.01 7019.84 79.76 4.00 396.38 2841.98
   18:03:22.865.16-Jul-2020 4229.01 7015.08 79.76 4.00 396.58 2841.98
   18:03:23.065.16-Jul-2020 4229.01 7014.61 79.76 4.00 396.78 2841.98
   18:03:23.265.16-Jul-2020 4229.01 7015.99 79.76 4.00 396.98 2841.98
   18:03:23.465.16-Jul-2020 4229.01 7013.85 79.76 4.00 397.18 2841.98
   18:03:23.665.16-Jul-2020 4229.01 7013.85 79.76 4.00 397.38 2841.98
   18:03:23.865.16-Jul-2020 4229.01 7014.43 79.76 4.00 397.58 2841.98
   18:03:24.065.16-Jul-2020 4229.01 7013.90 79.76 4.00 397.78 2841.98
   18:03:24.265.16-Jul-2020 4229.01 7012.98 79.76 4.00 397.98 2841.98
   18:03:24.466.16-Jul-2020 4229.01 7013.33 79.76 4.00 398.18 2841.98
   18:03:24.666.16-Jul-2020 4229.01 7013.33 79.76 4.00 398.38 2841.98
   18:03:24.866.16-Jul-2020 4229.01 7013.09 79.76 4.00 398.58 2841.98
   18:03:25.066.16-Jul-2020 4229.01 7012.08 79.76 4.00 398.78 2841.98
   18:03:25.266.16-Jul-2020 4229.01 7028.73 79.76 4.00 398.98 2841.98
   18:03:25.466.16-Jul-2020 4229.01 7006.73 79.76 4.00 399.18 2841.98
   18:03:25.666.16-Jul-2020 4229.01 7015.81 79.76 4.00 399.38 2841.98
   18:03:25.866.16-Jul-2020 4229.01 7012.15 79.76 4.00 399.58 2841.98
   18:03:26.066.16-Jul-2020 4229.01 7014.55 79.76 4.00 399.78 2841.98
   18:03:26.266.16-Jul-2020 4229.01 7012.36 79.76 4.00 399.98 2841.98
   18:03:26.466.16-Jul-2020 4229.01 7013.35 79.76 4.00 400.18 2841.98
   18:03:26.667.16-Jul-2020 4229.01 7013.35 79.76 4.00 400.38 2841.98
   18:03:26.867.16-Jul-2020 4229.01 7013.19 79.76 4.00 400.58 2841.98
   18:03:27.067.16-Jul-2020 4229.01 7013.99 79.76 4.00 400.78 2841.98
   18:03:27.267.16-Jul-2020 4229.01 7013.29 79.76 4.00 400.98 2841.98
   18:03:27.467.16-Jul-2020 4229.01 7012.40 79.76 4.00 401.18 2841.98
   18:03:27.667.16-Jul-2020 4229.01 7012.40 79.76 4.00 401.38 2841.98
   18:03:27.867.16-Jul-2020 4229.01 7013.67 79.76 4.00 401.58 2841.98
   18:03:28.067.16-Jul-2020 4229.01 7012.84 79.76 4.00 401.78 2841.98
   18:03:28.267.16-Jul-2020 4229.01 7011.63 79.76 4.00 401.98 2841.98
   18:03:28.467.16-Jul-2020 4229.01 7018.74 79.76 4.00 402.18 2841.98
   18:03:28.667.16-Jul-2020 4229.01 7018.74 79.76 4.00 402.38 2841.98
   18:03:28.867.16-Jul-2020 4229.01 7014.23 79.76 4.00 402.58 2841.98
   18:03:29.068.16-Jul-2020 4229.01 7013.04 79.76 4.00 402.78 2841.98
   18:03:29.268.16-Jul-2020 4229.01 7022.17 79.76 4.00 402.98 2841.98
   18:03:29.468.16-Jul-2020 4229.01 7011.93 79.76 4.00 403.18 2841.98
   18:03:29.668.16-Jul-2020 4229.01 7014.22 79.76 4.00 403.38 2841.98
   18:03:29.868.16-Jul-2020 4229.01 7014.34 79.76 4.00 403.58 2841.98
   18:03:30.068.16-Jul-2020 4229.01 7015.44 79.76 4.00 403.78 2841.98
   18:03:30.268.16-Jul-2020 4229.01 7012.70 79.76 4.00 403.98 2841.98
   18:03:30.468.16-Jul-2020 4229.01 7028.50 79.76 4.00 404.18 2841.98
   18:03:30.668.16-Jul-2020 4229.01 7006.98 79.76 4.00 404.38 2841.98
   18:03:30.868.16-Jul-2020 4229.01 7016.67 79.76 4.00 404.58 2841.98
   18:03:31.068.16-Jul-2020 4229.01 7012.67 79.76 4.00 404.78 2841.98
   18:03:31.269.16-Jul-2020 4229.01 7014.19 79.76 4.00 404.98 2841.98
   18:03:31.469.16-Jul-2020 4229.01 7011.87 79.76 4.00 405.18 2841.98
   18:03:31.669.16-Jul-2020 4229.01 7013.41 79.76 4.00 405.38 2841.98
   18:03:31.869.16-Jul-2020 4229.01 7025.92 79.76 4.00 405.58 2841.98
   18:03:32.069.16-Jul-2020 4229.01 7011.51 79.76 4.00 405.78 2841.98
   18:03:32.269.16-Jul-2020 4229.01 7016.71 79.76 4.00 405.98 2841.98
   18:03:32.469.16-Jul-2020 4229.01 7013.68 79.76 4.00 406.18 2841.98
   18:03:32.669.16-Jul-2020 4229.01 7013.68 79.76 4.00 406.38 2841.98
   18:03:32.869.16-Jul-2020 4229.01 7013.42 79.76 4.00 406.58 2841.98
   18:03:33.069.16-Jul-2020 4229.01 7014.42 79.76 4.00 406.78 2841.98
   18:03:33.269.16-Jul-2020 4229.01 7013.17 79.76 4.00 406.98 2841.98
   18:03:33.470.16-Jul-2020 4229.01 7014.01 79.76 4.00 407.18 2841.98
   18:03:33.670.16-Jul-2020 4229.01 7013.97 79.76 4.00 407.38 2841.98
   18:03:33.870.16-Jul-2020 4229.01 7013.25 79.76 4.00 407.58 2841.98
   18:03:34.070.16-Jul-2020 4229.01 7012.81 79.76 4.00 407.78 2841.98
   18:03:34.270.16-Jul-2020 4229.01 7012.51 79.76 4.00 407.98 2841.98
   18:03:34.470.16-Jul-2020 4229.01 7012.71 79.76 4.00 408.18 2841.98
   18:03:34.670.16-Jul-2020 4229.01 7012.71 79.76 4.00 408.38 2841.98
   18:03:34.870.16-Jul-2020 4229.01 7012.77 79.76 4.00 408.58 2841.98
   18:03:35.070.16-Jul-2020 4229.01 7017.20 79.76 4.00 408.78 2841.98
   18:03:35.270.16-Jul-2020 4229.01 7014.97 79.76 4.00 408.98 2841.98
   18:03:35.470.16-Jul-2020 4229.01 7014.65 79.76 4.00 409.18 2841.98
   18:03:35.671.16-Jul-2020 4229.01 7014.65 79.76 4.00 409.38 2841.98
   18:03:35.871.16-Jul-2020 4229.01 7013.49 79.76 4.00 409.58 2841.98
   18:03:36.071.16-Jul-2020 4229.01 7013.98 79.76 4.00 409.78 2841.98
   18:03:36.271.16-Jul-2020 4229.01 7013.86 79.76 4.00 409.98 2841.98
   18:03:36.471.16-Jul-2020 4229.01 7012.82 79.76 4.00 410.18 2841.98
   18:03:36.671.16-Jul-2020 4229.01 7012.82 79.76 4.00 410.38 2841.98
   18:03:36.871.16-Jul-2020 4229.01 7013.50 79.75 4.00 410.58 2841.98
   18:03:37.071.16-Jul-2020 4229.01 7013.22 79.75 4.00 410.78 2841.98
   18:03:37.271.16-Jul-2020 4229.01 7011.41 79.75 4.00 410.98 2841.98
   18:03:37.471.16-Jul-2020 4229.01 7011.41 79.75 4.00 411.18 2841.98
   18:03:37.671.16-Jul-2020 4229.01 7012.13 79.75 4.00 411.38 2841.98
   18:03:37.871.16-Jul-2020 4229.01 7025.15 79.75 4.00 411.58 2841.98
   18:03:38.072.16-Jul-2020 4229.01 7009.87 79.75 4.00 411.78 2841.98
   18:03:38.272.16-Jul-2020 4229.01 7014.90 79.75 4.00 411.98 2841.98
   18:03:38.472.16-Jul-2020 4229.01 7011.53 79.75 4.00 412.18 2841.98
   18:03:38.672.16-Jul-2020 4229.01 7011.53 79.75 4.00 412.38 2841.98
   18:03:38.872.16-Jul-2020 4229.01 7010.03 79.75 4.00 412.58 2841.98
   18:03:39.072.16-Jul-2020 4229.01 7016.14 79.75 4.00 412.78 2841.98
   18:03:39.272.16-Jul-2020 4229.01 7012.70 79.75 4.00 412.98 2841.98
