~Version Information
 VERS.                  2.0:   CWLS log ASCII Standard -VERSION 2.0
 WRAP.                   NO:   One line per depth step
~Well Information Block
#MNEM.UNIT     VALUE/NAME     DESCRIPTION
#---------     -----------    ---------------------------
 STRT.S             17:56:46 16-Jul-20: START TIME 17:56:46 16-Jul-20
 STOP.S             18:03:39 16-Jul-20: STOP TIME  18:03:39 16-Jul-20
 STEP.S                   0.00: STEP TIME
 NULL.                 -999.25: NULL VALUE
 MDS .        Operator Entered:  MAG DATA SOURCE
 UNIT.                     N/A:  LOGGING EQUIPMENT ID
 DCON.         Sperry Drilling:  DIRECTNL CONTR
 DOE .                     N/A:  DOE NUMBER
 RIG .               EastAzeri:  RIG NAME
 JOBN.        AZ-XX-0906363297:  JOB TICKET NUMB
 MWDS.                    Baku:  MWD SHOP
 SRVC.     Turan Drilling & Engineering:  CONTRACTOR
 PROV.                    Baku:  PROVINCE
 STAT.                    Baku:  STATE NAME
 REGN.                   EESSA:  REGION
 BASE.              Azerbaijan:  LOGGING EQUIPMENT BASE LOCATION
 WTYP.                Deviated:  WELL TYPE
 UWI .                     N/A:  UNIQUE WELL IDENTIFIER
 API .                     N/A:  API NUMBER
 COMP.     BP Exploration (Caspian Sea) ltd.:  COMPANY
 WELL.                    D07z:  WELL NAME
 CTRY.              Azerbaijan:  COUNTRY NAME
 SON .        AZ-XX-0906363297:  JOB NUMBER
 FLD .                     ACG:  FIELD NAME
 PDAT.          Mean Sea Level:  PERMANENT DATUM
 FTOP.          Formation Tops:  FORM TOPS DESC
 ILTD.               Lithology:  INTERP LTH DESC
 SVYD.                  Survey:  SURVEY DESC
 DMOD.             Drill Model:  DRILL MOD DESC
 HPTY.       Minimum Curvature:  HOLE POS TYPE
 NREF.                    Grid:  NORTH REFERENCE
 SPUD.               28-Jun-20:  SPUD DATE
 DATE.      18.27.12 28-Jun-20:  END TIME
 STIM.      18.27.12 28-Jun-20:  START TIME
 DMF .             Drill Floor:  DRILL MEAS FROM
 DFST.                        :  DIST FSL TEXT
 DFWT.                        :  DIST FWL TEXT
 CNTY.                        :  COUNTY
 LOC .                        :  LOCATION
 LMF .             Drill Floor:  LOG MEASURED FROM
 VSNS.m                  -7.75:  VERT SEC N/S
 VSEW.m                  -9.19:  VERT SEC E/W
 MMDE.m                   0.00:  MAGUTM CALC DEP
 AGAP.m                  43.60:  AIR GAP
 DEP .m                4058.99:  DEPTH
 APD .m                  43.60:  DEPTH ABOVE PD
 WDMS.m                 151.80:  WD ELEV
 EGL .m                   0.00:  GROUND ELEVATION
 EPD .m                   0.00:  ELEVATION
 AZTC.deg                 6.19:  AZM TOTAL CORR
 GRDC.deg                 0.27:  GRID CORRECTION
 MDEC.deg                 6.46:  MAGNETIC DECL
 MDIP.deg                59.47:  MAGNETIC DIP
 MFLD.nT              50279.00:  MAGNETIC FIELD
 GVFD.g                   1.00:  GRAVITY FIELD
 VSDR.deg               249.96:  VERT SEC DIRECT
 TDD .m                   0.00:  TOTAL DEPTH (DRILLER)
 SDEP.m                   0.00:  START DEPTH
 DFSL.m                   0.00:  DISTANCE FSL
 DFWL.m                   0.00:  DISTANCE FWL
 UTMY.m             4431880.20:  UTM Y
 UTMX.m              538763.98:  UTM X
 WHEW.m                  -9.19:  WELL HEAD E/W
 WHNS.m                  -7.75:  WELL HEAD N/S
 LONG.deg                51.45:  LONGITUDE
 LATI.deg                40.02:  LATITUDE
 TVDS.m                  43.60:  TVDSS CORRECTN
 EKB .m                  43.60:  KB ELEVATION
 EDF .m                  43.60:  DF ELEVATION
 TDL .m                 248.00:  TOTAL DEPTH (LOGGER)
 MAGU.                 1849075:  MAGUTM CHECKSUM
 VSC .                       0:  VS TO CLOSURE
~Parameter Information Block
#MNEM.UNIT       Value        Description
#---------     -----------    ---------------------------
 AV  .mps                 6.34:  Ann Velocity 
 AVMX.mps                 7.00:  Max Ann Veloc 
 AZIF.deg               260.29:  Azm, Final 
 BHAT.        Rotary Steerable:  BHA Type 
 BROT.°/30m               1.20:  Build Rotating 
 BS  .in                  8.50:  Bit Size 
 BSZ .in                  8.50:  Bit Size 
 BTPL.psig              620.00:  Bit Press Loss 
 CABU.                     Yes:  Customer Abuse 
 COMM.                     LqT:  Run Comments 1 
 TCS .hr                 56.22:  Time Ciculation Ended 
 CV  .mps                 3.05:  Crit Velocity 
 CVMX.mps                 3.20:  Max Crit Veloc 
 DD1 .            Musa Ahmadov:  Direct Drillr 1 
 DDSV.                 iCruise:  DD Service 
 DEFF.%                  98.00:  % Det Eff 
 DLRX.°/30m               2.78:  Dogleg Rot Max 
 DLSO.°/30m               0.00:  Dogleg Oriented 
 DLSX.°/30m               0.00:  Dogleg Str Max 
 DRET.      05.20.48 16-Jul-20:  Drill End Time 
 DRST.      10.20.48 13-Jul-20:  Drill Start Tim 
 DTIM.hr                 14.25:  Time Drilling 
 EDEP.m                4326.01:  End Depth 
 ENG1.      Artemiy Matviyanov:  Engineer 1 
 ENG2.           Amrah Tahirov:  Engineer 2 
 ETIM.      22.30.00 18-Jul-20:  End Time 
 FLOI.gpm               550.00:  Flow In 
 FLON.gpm               450.00:  Flow In Min 
 FLOS.cptm                0.00:  Fluid Loss 
 FLOX.gpm               600.00:  Flow In Max 
 HFLO.                      No:  High Flow 
 HPRE.                      No:  High Pressure 
 HTEM.                      No:  High Temp 
 HYDO.m                   1.80:  Hydro Offset 
 IFIN.deg                65.41:  Inc, Final 
 IMAX.deg                65.14:  Inc Max 
 IMIN.deg                58.89:  Inc Min 
 IMND.m                4104.92:  Inc Min Depth 
 IMXD.m                4303.89:  Inc Max Depth 
 JARR.                      No:  Jarring 
 LETM.      10.20.48 17-Jul-20:  Log End Time 
 LOST.hr                     0:  Lost Rig Time 
 LSTM.      10.20.48 13-Jul-20:  Log Start Time 
 MDCL.ppm             37000.00:  Mud Chlorides 
 MDES.     Inversion Oil/Synthetic:  Mud Desc 
 DFD .sg                  1.52:  Mud Density 
 MDMN.sg                  1.52:  Dens Mud Min 
 MDMX.sg                  1.52:  Dens Mud Max 
 MOIL.                   52.70:  Run Mud Oil % 
 MOWR.                   68:32:  Run Mud OWR 
 MSND.                     0.2:  Run Mud Sand % 
 MSOL.                    21.6:  Run Mud Solids% 
 DFV .spqt               79.00:  Mud Viscosity 
 MWOD.in                  6.75:  MWD Tool OD 
 MWSI.                      No:  Serv Intrp, MWD 
 OTIM.hr                114.04:  Time Operating 
 PCON.          Wear / Scratch:  Pad Condition 
 PMAX.psia            11782.92:  Press Op, Max 
 PV  .cP                 49.00:  Mud PV 
 RUN .                     600:  Run Number 
 ROPA.m/hr               20.00:  ROP Avg 
 ROPN.m/hr               15.00:  ROP Min 
 ROPX.m/hr               22.00:  ROP Max 
 RPMA.rpm               120.00:  RPM Surface Avg 
 RPMN.rpm                90.00:  RPM Surface Min 
 RPMX.rpm               140.00:  RPM Surface Max 
 RRUN.                     600:  Rig Run Number 
 SAZI.deg               260.29:  Azm, Start 
 SDEP.m                4078.01:  Start Depth 
 SIDD.                      No:  Serv Intrp, DD 
 SINC.deg                58.89:  Inc, Start 
 SPPA.psig             4560.00:  SPP Avg 
 SPPN.psig             3600.00:  SPP Min 
 SPPX.psig             4800.00:  SPP Max 
 STIM.      10.20.48 13-Jul-20:  Start Time 
 SVCS.                 DD, MWD:  Services 
 SVER.                    9.20:  Sperry Version 
 TDAT.m                4378.01:  Tot Depth Attmp 
 TDDF.                      No:  Trip for DD 
 TDLG.m                 248.00:  Tot Depth Loggd 
 TFF .                      No:  Trip for Fail 
 TQAA.f-kp               18.00:  Torque Abs Avg 
 TQAN.f-kp               15.00:  Torque Abs Min 
 TQAX.f-kp               20.00:  Torque Abs Max 
 TRRT.°/30m               0.70:  Turn Rotating 
 MRT .                    HCIM:  Maximum Recorded Temperature 
 TTMX.degC               86.00:  Max Tool Temp 
 WBMN.klb                 3.00:  WOB Min 
 WOBA.klb                 5.00:  WOB Avg 
 WOBX.klb                 9.00:  WOB Max 
 YP  .lhf2               32.00:  Yield Point 
~Curve Information Block
#MNEM.UNIT                 API CODE     Curve Description
#---------               -----------    ---------------------------
 TIME.HHMMSS            00 000 000 000:  GT Time & Date
 GTDEPTH.m              00 000 000 000:  GT Depth
 GTPQH.psia             00 000 000 000:  GT HR Quartz Pressure
 GTTQ.degC              00 000 000 000:  GT Quartz Temperature
 GTTN.NONE              00 000 000 000:  GT Test Number
 GTET.sec               00 000 000 000:  GT Elapsed Test Time
 GTTVD.m                00 000 000 000:  GT True Vertical Depth
#Other Information
#
#WARRANTY: Halliburton will use its best efforts to furnish customers with 
#accurate information and interpretations that are part of, and incident to, the services 
#provided.  However, Halliburton cannot and does not warrant the accuracy 
#or correctness of such information and interpretations.  Under no circumstances should any 
#such information or interpretation be relied upon as the sole basis for any drilling, 
#completion, production, or financial decision or any procedure involving any risk to the 
#safety of any drilling venture, drilling rig or its crew or any other third party.  The 
#Customer has full responsibility for all drilling, completion and production operation.  
#Halliburton makes no representations or warranties, either expressed or 
#implied, including, but not limited to, the implied warranties of merchantability or fitness 
#for a particular purpose, with respect to the services rendered.  In no event will 
#Halliburton be liable for failure to obtain any particular results or for 
#any damages, including, but not limited to, indirect, special or consequential damages, 
#resulting from the use of any information or interpretation provided by Halliburton.
#
~A           TIME           GTDEPTH  GTPQH  GTTQ  GTTN  GTET   GTTVD  
# ...
   18:00:13.381.16-Jul-2020 4229.01 4706.13 79.72 4.00 207.09 2841.98
   18:00:13.581.16-Jul-2020 4229.01 4706.13 79.72 4.00 207.29 2841.98
   18:00:13.781.16-Jul-2020 4229.01 4706.11 79.72 4.00 207.49 2841.98
   18:00:13.981.16-Jul-2020 4229.01 4706.13 79.72 4.00 207.69 2841.98
   18:00:14.181.16-Jul-2020 4229.01 4706.13 79.72 4.00 207.89 2841.98
   18:00:14.381.16-Jul-2020 4229.01 4706.13 79.72 4.00 208.09 2841.98
   18:00:14.581.16-Jul-2020 4229.01 4706.10 79.72 4.00 208.29 2841.98
   18:00:14.781.16-Jul-2020 4229.01 4706.13 79.72 4.00 208.49 2841.98
   18:00:14.981.16-Jul-2020 4229.01 4706.31 79.72 4.00 208.69 2841.98
   18:00:15.182.16-Jul-2020 4229.01 4705.99 79.72 4.00 208.89 2841.98
   18:00:15.382.16-Jul-2020 4229.01 4706.17 79.72 4.00 209.09 2841.98
   18:00:15.582.16-Jul-2020 4229.01 4706.17 79.72 4.00 209.29 2841.98
   18:00:15.782.16-Jul-2020 4229.01 4706.11 79.72 4.00 209.49 2841.98
   18:00:15.982.16-Jul-2020 4229.01 4706.11 79.72 4.00 209.69 2841.98
   18:00:16.182.16-Jul-2020 4229.01 4706.14 79.72 4.00 209.89 2841.98
   18:00:16.382.16-Jul-2020 4229.01 4706.09 79.72 4.00 210.09 2841.98
   18:00:16.582.16-Jul-2020 4229.01 4706.09 79.72 4.00 210.29 2841.98
   18:00:16.782.16-Jul-2020 4229.01 4706.15 79.72 4.00 210.49 2841.98
   18:00:16.982.16-Jul-2020 4229.01 4706.12 79.72 4.00 210.69 2841.98
   18:00:17.182.16-Jul-2020 4229.01 4706.12 79.72 4.00 210.89 2841.98
   18:00:17.383.16-Jul-2020 4229.01 4706.17 79.72 4.00 211.09 2841.98
   18:00:17.583.16-Jul-2020 4229.01 4706.10 79.72 4.00 211.29 2841.98
   18:00:17.783.16-Jul-2020 4229.01 4706.10 79.72 4.00 211.49 2841.98
   18:00:17.983.16-Jul-2020 4229.01 4706.13 79.72 4.00 211.69 2841.98
   18:00:18.183.16-Jul-2020 4229.01 4706.28 79.72 4.00 211.89 2841.98
   18:00:18.383.16-Jul-2020 4229.01 4705.99 79.72 4.00 212.09 2841.98
   18:00:18.583.16-Jul-2020 4229.01 4706.17 79.72 4.00 212.29 2841.98
   18:00:18.783.16-Jul-2020 4229.01 4706.10 79.72 4.00 212.49 2841.98
   18:00:18.983.16-Jul-2020 4229.01 4706.34 79.72 4.00 212.69 2841.98
   18:00:19.183.16-Jul-2020 4229.01 4705.92 79.72 4.00 212.89 2841.98
   18:00:19.383.16-Jul-2020 4229.01 4706.19 79.72 4.00 213.09 2841.98
   18:00:19.584.16-Jul-2020 4229.01 4706.19 79.72 4.00 213.29 2841.98
   18:00:19.784.16-Jul-2020 4229.01 4706.14 79.72 4.00 213.49 2841.98
   18:00:19.984.16-Jul-2020 4229.01 4706.27 79.72 4.00 213.69 2841.98
   18:00:20.184.16-Jul-2020 4229.01 4705.98 79.72 4.00 213.89 2841.98
   18:00:20.384.16-Jul-2020 4229.01 4706.17 79.72 4.00 214.09 2841.98
   18:00:20.584.16-Jul-2020 4229.01 4706.17 79.72 4.00 214.30 2841.98
   18:00:20.784.16-Jul-2020 4229.01 4706.12 79.72 4.00 214.50 2841.98
   18:00:20.984.16-Jul-2020 4229.01 4706.25 79.72 4.00 214.70 2841.98
   18:00:21.184.16-Jul-2020 4229.01 4706.01 79.72 4.00 214.90 2841.98
   18:00:21.384.16-Jul-2020 4229.01 4706.19 79.72 4.00 215.10 2841.98
   18:00:21.584.16-Jul-2020 4229.01 4706.19 79.72 4.00 215.30 2841.98
   18:00:21.784.16-Jul-2020 4229.01 4706.11 79.72 4.00 215.50 2841.98
   18:00:21.985.16-Jul-2020 4229.01 4706.10 79.72 4.00 215.70 2841.98
   18:00:22.185.16-Jul-2020 4229.01 4706.13 79.72 4.00 215.90 2841.98
   18:00:22.385.16-Jul-2020 4229.01 4706.11 79.72 4.00 216.10 2841.98
   18:00:22.585.16-Jul-2020 4229.01 4706.12 79.72 4.00 216.30 2841.98
   18:00:22.785.16-Jul-2020 4229.01 4706.12 79.72 4.00 216.50 2841.98
   18:00:22.985.16-Jul-2020 4229.01 4706.14 79.72 4.00 216.70 2841.98
   18:00:23.185.16-Jul-2020 4229.01 4706.11 79.72 4.00 216.90 2841.98
   18:00:23.385.16-Jul-2020 4229.01 4706.12 79.72 4.00 217.10 2841.98
   18:00:23.585.16-Jul-2020 4229.01 4706.12 79.72 4.00 217.30 2841.98
   18:00:23.785.16-Jul-2020 4229.01 4706.00 79.72 4.00 217.50 2841.98
   18:00:23.985.16-Jul-2020 4229.01 4706.14 79.72 4.00 217.70 2841.98
   18:00:24.186.16-Jul-2020 4229.01 4706.03 79.72 4.00 217.90 2841.98
   18:00:24.386.16-Jul-2020 4229.01 4706.15 79.72 4.00 218.10 2841.98
   18:00:24.586.16-Jul-2020 4229.01 4706.15 79.72 4.00 218.30 2841.98
   18:00:24.786.16-Jul-2020 4229.01 4706.14 79.72 4.00 218.50 2841.98
   18:00:24.986.16-Jul-2020 4229.01 4706.10 79.72 4.00 218.70 2841.98
   18:00:25.186.16-Jul-2020 4229.01 4706.14 79.72 4.00 218.90 2841.98
   18:00:25.386.16-Jul-2020 4229.01 4706.12 79.72 4.00 219.10 2841.98
   18:00:25.586.16-Jul-2020 4229.01 4706.12 79.72 4.00 219.30 2841.98
   18:00:25.786.16-Jul-2020 4229.01 4706.12 79.72 4.00 219.50 2841.98
   18:00:25.986.16-Jul-2020 4229.01 4706.11 79.72 4.00 219.70 2841.98
   18:00:26.186.16-Jul-2020 4229.01 4706.11 79.72 4.00 219.90 2841.98
   18:00:26.387.16-Jul-2020 4229.01 4706.15 79.72 4.00 220.10 2841.98
   18:00:26.587.16-Jul-2020 4229.01 4706.11 79.72 4.00 220.30 2841.98
   18:00:26.787.16-Jul-2020 4229.01 4706.33 79.72 4.00 220.50 2841.98
   18:00:26.987.16-Jul-2020 4229.01 4705.99 79.72 4.00 220.70 2841.98
   18:00:27.187.16-Jul-2020 4229.01 4706.15 79.72 4.00 220.90 2841.98
   18:00:27.387.16-Jul-2020 4229.01 4706.09 79.72 4.00 221.10 2841.98
   18:00:27.587.16-Jul-2020 4229.01 4706.09 79.72 4.00 221.30 2841.98
   18:00:27.787.16-Jul-2020 4229.01 4706.03 79.72 4.00 221.50 2841.98
   18:00:27.987.16-Jul-2020 4229.01 4706.16 79.72 4.00 221.70 2841.98
   18:00:28.187.16-Jul-2020 4229.01 4706.12 79.72 4.00 221.90 2841.98
   18:00:28.387.16-Jul-2020 4229.01 4706.16 79.72 4.00 222.10 2841.98
   18:00:28.588.16-Jul-2020 4229.01 4706.16 79.72 4.00 222.30 2841.98
   18:00:28.788.16-Jul-2020 4229.01 4706.11 79.72 4.00 222.50 2841.98
   18:00:28.988.16-Jul-2020 4229.01 4706.19 79.72 4.00 222.70 2841.98
   18:00:29.188.16-Jul-2020 4229.01 4706.10 79.72 4.00 222.90 2841.98
   18:00:29.388.16-Jul-2020 4229.01 4706.15 79.72 4.00 223.10 2841.98
   18:00:29.588.16-Jul-2020 4229.01 4706.15 79.72 4.00 223.30 2841.98
   18:00:29.788.16-Jul-2020 4229.01 4706.04 79.72 4.00 223.50 2841.98
   18:00:29.988.16-Jul-2020 4229.01 4706.17 79.72 4.00 223.70 2841.98
   18:00:30.188.16-Jul-2020 4229.01 4706.04 79.72 4.00 223.90 2841.98
   18:00:30.388.16-Jul-2020 4229.01 4706.16 79.72 4.00 224.10 2841.98
   18:00:30.588.16-Jul-2020 4229.01 4706.05 79.72 4.00 224.30 2841.98
   18:00:30.788.16-Jul-2020 4229.01 4706.14 79.72 4.00 224.50 2841.98
   18:00:30.989.16-Jul-2020 4229.01 4706.12 79.72 4.00 224.70 2841.98
   18:00:31.189.16-Jul-2020 4229.01 4706.12 79.72 4.00 224.90 2841.98
   18:00:31.389.16-Jul-2020 4229.01 4706.09 79.72 4.00 225.10 2841.98
   18:00:31.589.16-Jul-2020 4229.01 4706.14 79.72 4.00 225.30 2841.98
   18:00:31.789.16-Jul-2020 4229.01 4706.12 79.72 4.00 225.50 2841.98
   18:00:31.989.16-Jul-2020 4229.01 4706.13 79.72 4.00 225.70 2841.98
   18:00:32.189.16-Jul-2020 4229.01 4706.10 79.72 4.00 225.90 2841.98
   18:00:32.389.16-Jul-2020 4229.01 4706.10 79.72 4.00 226.10 2841.98
   18:00:32.589.16-Jul-2020 4229.01 4706.10 79.72 4.00 226.30 2841.98
   18:00:32.789.16-Jul-2020 4229.01 4706.07 79.72 4.00 226.50 2841.98
   18:00:32.989.16-Jul-2020 4229.01 4706.13 79.72 4.00 226.70 2841.98
   18:00:33.190.16-Jul-2020 4229.01 4706.10 79.72 4.00 226.90 2841.98
   18:00:33.390.16-Jul-2020 4229.01 4706.14 79.72 4.00 227.10 2841.98
   18:00:33.590.16-Jul-2020 4229.01 4706.14 79.72 4.00 227.30 2841.98
   18:00:33.790.16-Jul-2020 4229.01 4706.11 79.72 4.00 227.50 2841.98
   18:00:33.990.16-Jul-2020 4229.01 4706.14 79.72 4.00 227.70 2841.98
   18:00:34.190.16-Jul-2020 4229.01 4706.13 79.72 4.00 227.90 2841.98
   18:00:34.390.16-Jul-2020 4229.01 4706.13 79.72 4.00 228.10 2841.98
   18:00:34.590.16-Jul-2020 4229.01 4706.10 79.72 4.00 228.30 2841.98
   18:00:34.790.16-Jul-2020 4229.01 4706.13 79.72 4.00 228.50 2841.98
   18:00:34.990.16-Jul-2020 4229.01 4706.15 79.72 4.00 228.70 2841.98
   18:00:35.190.16-Jul-2020 4229.01 4706.11 79.72 4.00 228.90 2841.98
   18:00:35.391.16-Jul-2020 4229.01 4706.14 79.72 4.00 229.10 2841.98
   18:00:35.591.16-Jul-2020 4229.01 4706.12 79.72 4.00 229.30 2841.98
   18:00:35.791.16-Jul-2020 4229.01 4706.16 79.72 4.00 229.50 2841.98
   18:00:35.991.16-Jul-2020 4229.01 4706.10 79.72 4.00 229.70 2841.98
   18:00:36.191.16-Jul-2020 4229.01 4706.15 79.72 4.00 229.90 2841.98
