~Version Information
 VERS.                  2.0:   CWLS log ASCII Standard -VERSION 2.0
 WRAP.                   NO:   One line per depth step
~Well Information Block
#MNEM.UNIT     VALUE/NAME     DESCRIPTION
#---------     -----------    ---------------------------
 STRT.S             16:06:05 16-Jul-20: START TIME 16:06:05 16-Jul-20
 STOP.S             16:12:59 16-Jul-20: STOP TIME  16:12:59 16-Jul-20
 STEP.S                   0.00: STEP TIME
 NULL.                 -999.25: NULL VALUE
 MDS .        Operator Entered:  MAG DATA SOURCE
 UNIT.                     N/A:  LOGGING EQUIPMENT ID
 DCON.         Sperry Drilling:  DIRECTNL CONTR
 DOE .                     N/A:  DOE NUMBER
 RIG .               EastAzeri:  RIG NAME
 JOBN.        AZ-XX-0906363297:  JOB TICKET NUMB
 MWDS.                    Baku:  MWD SHOP
 SRVC.     Turan Drilling & Engineering:  CONTRACTOR
 PROV.                    Baku:  PROVINCE
 STAT.                    Baku:  STATE NAME
 REGN.                   EESSA:  REGION
 BASE.              Azerbaijan:  LOGGING EQUIPMENT BASE LOCATION
 WTYP.                Deviated:  WELL TYPE
 UWI .                     N/A:  UNIQUE WELL IDENTIFIER
 API .                     N/A:  API NUMBER
 COMP.     BP Exploration (Caspian Sea) ltd.:  COMPANY
 WELL.                    D07z:  WELL NAME
 CTRY.              Azerbaijan:  COUNTRY NAME
 SON .        AZ-XX-0906363297:  JOB NUMBER
 FLD .                     ACG:  FIELD NAME
 PDAT.          Mean Sea Level:  PERMANENT DATUM
 FTOP.          Formation Tops:  FORM TOPS DESC
 ILTD.               Lithology:  INTERP LTH DESC
 SVYD.                  Survey:  SURVEY DESC
 DMOD.             Drill Model:  DRILL MOD DESC
 HPTY.       Minimum Curvature:  HOLE POS TYPE
 NREF.                    Grid:  NORTH REFERENCE
 SPUD.               28-Jun-20:  SPUD DATE
 DATE.      18.27.12 28-Jun-20:  END TIME
 STIM.      18.27.12 28-Jun-20:  START TIME
 DMF .             Drill Floor:  DRILL MEAS FROM
 DFST.                        :  DIST FSL TEXT
 DFWT.                        :  DIST FWL TEXT
 CNTY.                        :  COUNTY
 LOC .                        :  LOCATION
 LMF .             Drill Floor:  LOG MEASURED FROM
 VSNS.m                  -7.75:  VERT SEC N/S
 VSEW.m                  -9.19:  VERT SEC E/W
 MMDE.m                   0.00:  MAGUTM CALC DEP
 AGAP.m                  43.60:  AIR GAP
 DEP .m                4058.99:  DEPTH
 APD .m                  43.60:  DEPTH ABOVE PD
 WDMS.m                 151.80:  WD ELEV
 EGL .m                   0.00:  GROUND ELEVATION
 EPD .m                   0.00:  ELEVATION
 AZTC.deg                 6.19:  AZM TOTAL CORR
 GRDC.deg                 0.27:  GRID CORRECTION
 MDEC.deg                 6.46:  MAGNETIC DECL
 MDIP.deg                59.47:  MAGNETIC DIP
 MFLD.nT              50279.00:  MAGNETIC FIELD
 GVFD.g                   1.00:  GRAVITY FIELD
 VSDR.deg               249.96:  VERT SEC DIRECT
 TDD .m                   0.00:  TOTAL DEPTH (DRILLER)
 SDEP.m                   0.00:  START DEPTH
 DFSL.m                   0.00:  DISTANCE FSL
 DFWL.m                   0.00:  DISTANCE FWL
 UTMY.m             4431880.20:  UTM Y
 UTMX.m              538763.98:  UTM X
 WHEW.m                  -9.19:  WELL HEAD E/W
 WHNS.m                  -7.75:  WELL HEAD N/S
 LONG.deg                51.45:  LONGITUDE
 LATI.deg                40.02:  LATITUDE
 TVDS.m                  43.60:  TVDSS CORRECTN
 EKB .m                  43.60:  KB ELEVATION
 EDF .m                  43.60:  DF ELEVATION
 TDL .m                 248.00:  TOTAL DEPTH (LOGGER)
 MAGU.                 1849075:  MAGUTM CHECKSUM
 VSC .                       0:  VS TO CLOSURE
~Parameter Information Block
#MNEM.UNIT       Value        Description
#---------     -----------    ---------------------------
 AV  .mps                 6.34:  Ann Velocity 
 AVMX.mps                 7.00:  Max Ann Veloc 
 AZIF.deg               260.29:  Azm, Final 
 BHAT.        Rotary Steerable:  BHA Type 
 BROT.°/30m               1.20:  Build Rotating 
 BS  .in                  8.50:  Bit Size 
 BSZ .in                  8.50:  Bit Size 
 BTPL.psig              620.00:  Bit Press Loss 
 CABU.                     Yes:  Customer Abuse 
 COMM.                     l&q:  Run Comments 1 
 TCS .hr                 56.22:  Time Ciculation Ended 
 CV  .mps                 3.05:  Crit Velocity 
 CVMX.mps                 3.20:  Max Crit Veloc 
 DD1 .            Musa Ahmadov:  Direct Drillr 1 
 DDSV.                 iCruise:  DD Service 
 DEFF.%                  98.00:  % Det Eff 
 DLRX.°/30m               2.78:  Dogleg Rot Max 
 DLSO.°/30m               0.00:  Dogleg Oriented 
 DLSX.°/30m               0.00:  Dogleg Str Max 
 DRET.      05.20.48 16-Jul-20:  Drill End Time 
 DRST.      10.20.48 13-Jul-20:  Drill Start Tim 
 DTIM.hr                 14.25:  Time Drilling 
 EDEP.m                4326.01:  End Depth 
 ENG1.      Artemiy Matviyanov:  Engineer 1 
 ENG2.           Amrah Tahirov:  Engineer 2 
 ETIM.      22.30.00 18-Jul-20:  End Time 
 FLOI.gpm               550.00:  Flow In 
 FLON.gpm               450.00:  Flow In Min 
 FLOS.cptm                0.00:  Fluid Loss 
 FLOX.gpm               600.00:  Flow In Max 
 HFLO.                      No:  High Flow 
 HPRE.                      No:  High Pressure 
 HTEM.                      No:  High Temp 
 HYDO.m                   1.80:  Hydro Offset 
 IFIN.deg                65.41:  Inc, Final 
 IMAX.deg                65.14:  Inc Max 
 IMIN.deg                58.89:  Inc Min 
 IMND.m                4104.92:  Inc Min Depth 
 IMXD.m                4303.89:  Inc Max Depth 
 JARR.                      No:  Jarring 
 LETM.      10.20.48 17-Jul-20:  Log End Time 
 LOST.hr                     0:  Lost Rig Time 
 LSTM.      10.20.48 13-Jul-20:  Log Start Time 
 MDCL.ppm             37000.00:  Mud Chlorides 
 MDES.     Inversion Oil/Synthetic:  Mud Desc 
 DFD .sg                  1.52:  Mud Density 
 MDMN.sg                  1.52:  Dens Mud Min 
 MDMX.sg                  1.52:  Dens Mud Max 
 MOIL.                   52.70:  Run Mud Oil % 
 MOWR.                   68:32:  Run Mud OWR 
 MSND.                     0.2:  Run Mud Sand % 
 MSOL.                    21.6:  Run Mud Solids% 
 DFV .spqt               79.00:  Mud Viscosity 
 MWOD.in                  6.75:  MWD Tool OD 
 MWSI.                      No:  Serv Intrp, MWD 
 OTIM.hr                114.04:  Time Operating 
 PCON.          Wear / Scratch:  Pad Condition 
 PMAX.psia            11782.92:  Press Op, Max 
 PV  .cP                 49.00:  Mud PV 
 RUN .                     600:  Run Number 
 ROPA.m/hr               20.00:  ROP Avg 
 ROPN.m/hr               15.00:  ROP Min 
 ROPX.m/hr               22.00:  ROP Max 
 RPMA.rpm               120.00:  RPM Surface Avg 
 RPMN.rpm                90.00:  RPM Surface Min 
 RPMX.rpm               140.00:  RPM Surface Max 
 RRUN.                     600:  Rig Run Number 
 SAZI.deg               260.29:  Azm, Start 
 SDEP.m                4078.01:  Start Depth 
 SIDD.                      No:  Serv Intrp, DD 
 SINC.deg                58.89:  Inc, Start 
 SPPA.psig             4560.00:  SPP Avg 
 SPPN.psig             3600.00:  SPP Min 
 SPPX.psig             4800.00:  SPP Max 
 STIM.      10.20.48 13-Jul-20:  Start Time 
 SVCS.                 DD, MWD:  Services 
 SVER.                    9.20:  Sperry Version 
 TDAT.m                4378.01:  Tot Depth Attmp 
 TDDF.                      No:  Trip for DD 
 TDLG.m                 248.00:  Tot Depth Loggd 
 TFF .                      No:  Trip for Fail 
 TQAA.f-kp               18.00:  Torque Abs Avg 
 TQAN.f-kp               15.00:  Torque Abs Min 
 TQAX.f-kp               20.00:  Torque Abs Max 
 TRRT.°/30m               0.70:  Turn Rotating 
 MRT .                    HCIM:  Maximum Recorded Temperature 
 TTMX.degC               86.00:  Max Tool Temp 
 WBMN.klb                 3.00:  WOB Min 
 WOBA.klb                 5.00:  WOB Avg 
 WOBX.klb                 9.00:  WOB Max 
 YP  .lhf2               32.00:  Yield Point 
~Curve Information Block
#MNEM.UNIT                 API CODE     Curve Description
#---------               -----------    ---------------------------
 TIME.HHMMSS            00 000 000 000:  GT Time & Date
 GTDEPTH.m              00 000 000 000:  GT Depth
 GTPQH.psia             00 000 000 000:  GT HR Quartz Pressure
 GTTQ.degC              00 000 000 000:  GT Quartz Temperature
 GTTN.NONE              00 000 000 000:  GT Test Number
 GTET.sec               00 000 000 000:  GT Elapsed Test Time
 GTTVD.m                00 000 000 000:  GT True Vertical Depth
#Other Information
#
#WARRANTY: Halliburton will use its best efforts to furnish customers with 
#accurate information and interpretations that are part of, and incident to, the services 
#provided.  However, Halliburton cannot and does not warrant the accuracy 
#or correctness of such information and interpretations.  Under no circumstances should any 
#such information or interpretation be relied upon as the sole basis for any drilling, 
#completion, production, or financial decision or any procedure involving any risk to the 
#safety of any drilling venture, drilling rig or its crew or any other third party.  The 
#Customer has full responsibility for all drilling, completion and production operation.  
#Halliburton makes no representations or warranties, either expressed or 
#implied, including, but not limited to, the implied warranties of merchantability or fitness 
#for a particular purpose, with respect to the services rendered.  In no event will 
#Halliburton be liable for failure to obtain any particular results or for 
#any damages, including, but not limited to, indirect, special or consequential damages, 
#resulting from the use of any information or interpretation provided by Halliburton.
#
~A           TIME           GTDEPTH  GTPQH  GTTQ  GTTN  GTET   GTTVD  
   16:06:05.767.16-Jul-2020 4280.51 7667.13 80.26 1.00   0.00 2863.78
   16:06:05.967.16-Jul-2020 4280.51    0.00 80.26 1.00   0.20 2863.78
   16:06:06.167.16-Jul-2020 4280.51    0.00 80.26 1.00   0.40 2863.78
   16:06:06.367.16-Jul-2020 4280.51 6911.50 80.26 1.00   0.60 2863.78
   16:06:06.567.16-Jul-2020 4280.51 6923.03 80.26 1.00   0.80 2863.78
   16:06:06.767.16-Jul-2020 4280.51 6913.33 80.26 1.00   1.00 2863.78
   16:06:06.967.16-Jul-2020 4280.51 6916.52 80.26 1.00   1.20 2863.78
   16:06:07.167.16-Jul-2020 4280.51 6919.86 80.26 1.00   1.40 2863.78
   16:06:07.367.16-Jul-2020 4280.51 6920.76 80.26 1.00   1.60 2863.78
   16:06:07.567.16-Jul-2020 4280.51 6921.57 80.26 1.00   1.80 2863.78
   16:06:07.767.16-Jul-2020 4280.51 6920.70 80.26 1.00   2.00 2863.78
   16:06:07.967.16-Jul-2020 4280.51 6935.51 80.26 1.00   2.20 2863.78
   16:06:08.167.16-Jul-2020 4280.51 6926.74 80.26 1.00   2.40 2863.78
   16:06:08.367.16-Jul-2020 4280.51 6923.31 80.26 1.00   2.60 2863.78
   16:06:08.567.16-Jul-2020 4280.51 6933.61 80.26 1.00   2.80 2863.78
   16:06:08.767.16-Jul-2020 4280.51 6925.00 80.26 1.00   3.00 2863.78
   16:06:08.967.16-Jul-2020 4280.51 6925.00 80.26 1.00   3.20 2863.78
   16:06:09.167.16-Jul-2020 4280.51 6927.26 80.26 1.00   3.40 2863.78
   16:06:09.367.16-Jul-2020 4280.51 6927.13 80.26 1.00   3.60 2863.78
   16:06:09.568.16-Jul-2020 4280.51 6926.40 80.26 1.00   3.80 2863.78
   16:06:09.768.16-Jul-2020 4280.51 6922.62 80.26 1.00   4.00 2863.78
   16:06:09.968.16-Jul-2020 4280.51 6922.62 80.26 1.00   4.20 2863.78
   16:06:10.168.16-Jul-2020 4280.51 6924.30 80.26 1.00   4.40 2863.78
   16:06:10.368.16-Jul-2020 4280.51 6922.87 80.26 1.00   4.60 2863.78
   16:06:10.568.16-Jul-2020 4280.51 6923.04 80.26 1.00   4.80 2863.78
   16:06:10.768.16-Jul-2020 4280.51 6922.78 80.26 1.00   5.00 2863.78
   16:06:10.968.16-Jul-2020 4280.51 6926.11 80.26 1.00   5.20 2863.78
   16:06:11.168.16-Jul-2020 4280.51 6924.08 80.26 1.00   5.40 2863.78
   16:06:11.368.16-Jul-2020 4280.51 6933.18 80.26 1.00   5.60 2863.78
   16:06:11.568.16-Jul-2020 4280.51 6926.81 80.26 1.00   5.80 2863.78
   16:06:11.768.16-Jul-2020 4280.51 6924.56 80.26 1.00   6.00 2863.78
   16:06:11.968.16-Jul-2020 4280.51 6935.13 80.26 1.00   6.20 2863.78
   16:06:12.168.16-Jul-2020 4280.51 6926.55 80.26 1.00   6.40 2863.78
   16:06:12.368.16-Jul-2020 4280.51 6927.21 80.26 1.00   6.60 2863.78
   16:06:12.568.16-Jul-2020 4280.51 6931.21 80.26 1.00   6.80 2863.78
   16:06:12.768.16-Jul-2020 4280.51 6931.21 80.26 1.00   7.00 2863.78
   16:06:12.968.16-Jul-2020 4280.51 6931.21 80.26 1.00   7.20 2863.78
   16:06:13.168.16-Jul-2020 4280.51 6930.81 80.26 1.00   7.40 2863.78
   16:06:13.368.16-Jul-2020 4280.51 6930.46 80.26 1.00   7.60 2863.78
   16:06:13.568.16-Jul-2020 4280.51 6933.30 80.25 1.00   7.80 2863.78
   16:06:13.768.16-Jul-2020 4280.51 6932.47 80.25 1.00   8.00 2863.78
   16:06:13.968.16-Jul-2020 4280.51 6932.47 80.25 1.00   8.20 2863.78
   16:06:14.168.16-Jul-2020 4280.51 6931.23 80.25 1.00   8.40 2863.78
   16:06:14.369.16-Jul-2020 4280.51 6932.71 80.25 1.00   8.60 2863.78
   16:06:14.569.16-Jul-2020 4280.51 6940.91 80.25 1.00   8.80 2863.78
   16:06:14.769.16-Jul-2020 4280.51 6936.85 80.25 1.00   9.00 2863.78
   16:06:14.969.16-Jul-2020 4280.51 6931.76 80.25 1.00   9.20 2863.78
   16:06:15.169.16-Jul-2020 4280.51 6932.85 80.25 1.00   9.40 2863.78
   16:06:15.369.16-Jul-2020 4280.51 6936.97 80.25 1.00   9.60 2863.78
   16:06:15.569.16-Jul-2020 4280.51 6942.74 80.25 1.00   9.80 2863.78
   16:06:15.769.16-Jul-2020 4280.51 6938.99 80.25 1.00  10.00 2863.78
   16:06:15.969.16-Jul-2020 4280.51 6935.20 80.25 1.00  10.20 2863.78
   16:06:16.169.16-Jul-2020 4280.51 6933.95 80.25 1.00  10.40 2863.78
   16:06:16.369.16-Jul-2020 4280.51 6939.42 80.25 1.00  10.60 2863.78
   16:06:16.569.16-Jul-2020 4280.51 6938.20 80.25 1.00  10.80 2863.78
   16:06:16.769.16-Jul-2020 4280.51 6942.77 80.25 1.00  11.00 2863.78
   16:06:16.969.16-Jul-2020 4280.51 6942.77 80.25 1.00  11.20 2863.78
   16:06:17.169.16-Jul-2020 4280.51 6935.11 80.25 1.00  11.40 2863.78
   16:06:17.369.16-Jul-2020 4280.51 6940.68 80.25 1.00  11.60 2863.78
   16:06:17.569.16-Jul-2020 4280.51 6937.94 80.25 1.00  11.80 2863.78
   16:06:17.769.16-Jul-2020 4280.51 6945.45 80.25 1.00  12.00 2863.78
   16:06:17.969.16-Jul-2020 4280.51 6945.45 80.25 1.00  12.20 2863.78
   16:06:18.169.16-Jul-2020 4280.51 6938.12 80.25 1.00  12.40 2863.78
   16:06:18.369.16-Jul-2020 4280.51 6953.72 80.25 1.00  12.60 2863.78
   16:06:18.569.16-Jul-2020 4280.51 6941.89 80.25 1.00  12.80 2863.78
   16:06:18.769.16-Jul-2020 4280.51 6937.17 80.25 1.00  13.00 2863.78
   16:06:18.969.16-Jul-2020 4280.51 6950.53 80.25 1.00  13.20 2863.78
   16:06:19.170.16-Jul-2020 4280.51 6941.71 80.25 1.00  13.40 2863.78
   16:06:19.370.16-Jul-2020 4280.51 6942.82 80.25 1.00  13.60 2863.78
   16:06:19.570.16-Jul-2020 4280.51 6954.94 80.25 1.00  13.80 2863.78
   16:06:19.770.16-Jul-2020 4280.51 6946.22 80.25 1.00  14.00 2863.78
   16:06:19.970.16-Jul-2020 4280.51 6945.47 80.25 1.00  14.20 2863.78
   16:06:20.170.16-Jul-2020 4280.51 6951.23 80.25 1.00  14.40 2863.78
   16:06:20.370.16-Jul-2020 4280.51 6944.69 80.25 1.00  14.60 2863.78
   16:06:20.570.16-Jul-2020 4280.51 6947.33 80.25 1.00  14.80 2863.78
   16:06:20.770.16-Jul-2020 4280.51 6945.77 80.25 1.00  15.00 2863.78
   16:06:20.970.16-Jul-2020 4280.51 6945.77 80.25 1.00  15.20 2863.78
   16:06:21.170.16-Jul-2020 4280.51 6945.77 80.25 1.00  15.40 2863.78
   16:06:21.370.16-Jul-2020 4280.51 6947.97 80.25 1.00  15.60 2863.78
   16:06:21.570.16-Jul-2020 4280.51 6949.61 80.25 1.00  15.80 2863.78
   16:06:21.770.16-Jul-2020 4280.51 6947.14 80.25 1.00  16.00 2863.78
   16:06:21.970.16-Jul-2020 4280.51 6947.14 80.25 1.00  16.20 2863.78
   16:06:22.170.16-Jul-2020 4280.51 6948.46 80.25 1.00  16.40 2863.78
   16:06:22.370.16-Jul-2020 4280.51 6958.61 80.25 1.00  16.60 2863.78
   16:06:22.570.16-Jul-2020 4280.51 6952.59 80.25 1.00  16.80 2863.78
   16:06:22.770.16-Jul-2020 4280.51 6945.42 80.25 1.00  17.00 2863.78
   16:06:22.970.16-Jul-2020 4280.51 6954.49 80.25 1.00  17.20 2863.78
   16:06:23.170.16-Jul-2020 4280.51 6949.54 80.25 1.00  17.40 2863.78
   16:06:23.370.16-Jul-2020 4280.51 6950.30 80.25 1.00  17.60 2863.78
   16:06:23.570.16-Jul-2020 4280.51 6951.36 80.25 1.00  17.80 2863.78
   16:06:23.770.16-Jul-2020 4280.51 6947.61 80.25 1.00  18.00 2863.78
   16:06:23.970.16-Jul-2020 4280.51 6951.54 80.25 1.00  18.20 2863.78
   16:06:24.171.16-Jul-2020 4280.51 6951.46 80.25 1.00  18.40 2863.78
   16:06:24.371.16-Jul-2020 4280.51 6952.14 80.25 1.00  18.60 2863.78
   16:06:24.571.16-Jul-2020 4280.51 6952.51 80.25 1.00  18.80 2863.78
   16:06:24.771.16-Jul-2020 4280.51 6949.87 80.25 1.00  19.00 2863.78
   16:06:24.971.16-Jul-2020 4280.51 6952.58 80.25 1.00  19.20 2863.78
   16:06:25.171.16-Jul-2020 4280.51 6952.68 80.24 1.00  19.40 2863.78
   16:06:25.371.16-Jul-2020 4280.51 6953.51 80.24 1.00  19.60 2863.78
   16:06:25.571.16-Jul-2020 4280.51 6963.44 80.24 1.00  19.80 2863.78
   16:06:25.771.16-Jul-2020 4280.51 6951.71 80.24 1.00  20.00 2863.78
   16:06:25.971.16-Jul-2020 4280.51 6951.71 80.24 1.00  20.20 2863.78
   16:06:26.171.16-Jul-2020 4280.51 6965.94 80.24 1.00  20.40 2863.78
   16:06:26.371.16-Jul-2020 4280.51 6957.79 80.24 1.00  20.60 2863.78
   16:06:26.571.16-Jul-2020 4280.51 6950.55 80.24 1.00  20.80 2863.78
   16:06:26.771.16-Jul-2020 4280.51 6953.55 80.24 1.00  21.00 2863.78
   16:06:26.971.16-Jul-2020 4280.51 6960.95 80.24 1.00  21.20 2863.78
   16:06:27.171.16-Jul-2020 4280.51 6964.11 80.24 1.00  21.40 2863.78
   16:06:27.371.16-Jul-2020 4280.51 6954.92 80.24 1.00  21.60 2863.78
   16:06:27.571.16-Jul-2020 4280.51 6955.08 80.24 1.00  21.80 2863.78
   16:06:27.771.16-Jul-2020 4280.51 6959.59 80.24 1.00  22.00 2863.78
   16:06:27.971.16-Jul-2020 4280.51 6957.39 80.24 1.00  22.20 2863.78
   16:06:28.171.16-Jul-2020 4280.51 6956.37 80.24 1.00  22.40 2863.78
   16:06:28.371.16-Jul-2020 4280.51 6971.16 80.24 1.00  22.60 2863.78
   16:06:28.571.16-Jul-2020 4280.51 6956.27 80.24 1.00  22.80 2863.78
