~Version Information
 VERS.                  2.0:   CWLS log ASCII Standard -VERSION 2.0
 WRAP.                   NO:   One line per depth step
~Well Information Block
#MNEM.UNIT     VALUE/NAME     DESCRIPTION
#---------     -----------    ---------------------------
 STRT.S             21:08:23 16-Jul-20: START TIME 21:08:23 16-Jul-20
 STOP.S             21:15:15 16-Jul-20: STOP TIME  21:15:15 16-Jul-20
 STEP.S                   0.00: STEP TIME
 NULL.                 -999.25: NULL VALUE
 MDS .        Operator Entered:  MAG DATA SOURCE
 UNIT.                     N/A:  LOGGING EQUIPMENT ID
 DCON.         Sperry Drilling:  DIRECTNL CONTR
 DOE .                     N/A:  DOE NUMBER
 RIG .               EastAzeri:  RIG NAME
 JOBN.        AZ-XX-0906363297:  JOB TICKET NUMB
 MWDS.                    Baku:  MWD SHOP
 SRVC.     Turan Drilling & Engineering:  CONTRACTOR
 PROV.                    Baku:  PROVINCE
 STAT.                    Baku:  STATE NAME
 REGN.                   EESSA:  REGION
 BASE.              Azerbaijan:  LOGGING EQUIPMENT BASE LOCATION
 WTYP.                Deviated:  WELL TYPE
 UWI .                     N/A:  UNIQUE WELL IDENTIFIER
 API .                     N/A:  API NUMBER
 COMP.     BP Exploration (Caspian Sea) ltd.:  COMPANY
 WELL.                    D07z:  WELL NAME
 CTRY.              Azerbaijan:  COUNTRY NAME
 SON .        AZ-XX-0906363297:  JOB NUMBER
 FLD .                     ACG:  FIELD NAME
 PDAT.          Mean Sea Level:  PERMANENT DATUM
 FTOP.          Formation Tops:  FORM TOPS DESC
 ILTD.               Lithology:  INTERP LTH DESC
 SVYD.                  Survey:  SURVEY DESC
 DMOD.             Drill Model:  DRILL MOD DESC
 HPTY.       Minimum Curvature:  HOLE POS TYPE
 NREF.                    Grid:  NORTH REFERENCE
 SPUD.               28-Jun-20:  SPUD DATE
 DATE.      18.27.12 28-Jun-20:  END TIME
 STIM.      18.27.12 28-Jun-20:  START TIME
 DMF .             Drill Floor:  DRILL MEAS FROM
 DFST.                        :  DIST FSL TEXT
 DFWT.                        :  DIST FWL TEXT
 CNTY.                        :  COUNTY
 LOC .                        :  LOCATION
 LMF .             Drill Floor:  LOG MEASURED FROM
 VSNS.m                  -7.75:  VERT SEC N/S
 VSEW.m                  -9.19:  VERT SEC E/W
 MMDE.m                   0.00:  MAGUTM CALC DEP
 AGAP.m                  43.60:  AIR GAP
 DEP .m                4058.99:  DEPTH
 APD .m                  43.60:  DEPTH ABOVE PD
 WDMS.m                 151.80:  WD ELEV
 EGL .m                   0.00:  GROUND ELEVATION
 EPD .m                   0.00:  ELEVATION
 AZTC.deg                 6.19:  AZM TOTAL CORR
 GRDC.deg                 0.27:  GRID CORRECTION
 MDEC.deg                 6.46:  MAGNETIC DECL
 MDIP.deg                59.47:  MAGNETIC DIP
 MFLD.nT              50279.00:  MAGNETIC FIELD
 GVFD.g                   1.00:  GRAVITY FIELD
 VSDR.deg               249.96:  VERT SEC DIRECT
 TDD .m                   0.00:  TOTAL DEPTH (DRILLER)
 SDEP.m                   0.00:  START DEPTH
 DFSL.m                   0.00:  DISTANCE FSL
 DFWL.m                   0.00:  DISTANCE FWL
 UTMY.m             4431880.20:  UTM Y
 UTMX.m              538763.98:  UTM X
 WHEW.m                  -9.19:  WELL HEAD E/W
 WHNS.m                  -7.75:  WELL HEAD N/S
 LONG.deg                51.45:  LONGITUDE
 LATI.deg                40.02:  LATITUDE
 TVDS.m                  43.60:  TVDSS CORRECTN
 EKB .m                  43.60:  KB ELEVATION
 EDF .m                  43.60:  DF ELEVATION
 TDL .m                 248.00:  TOTAL DEPTH (LOGGER)
 MAGU.                 1849075:  MAGUTM CHECKSUM
 VSC .                       0:  VS TO CLOSURE
~Parameter Information Block
#MNEM.UNIT       Value        Description
#---------     -----------    ---------------------------
 AV  .mps                 6.34:  Ann Velocity 
 AVMX.mps                 7.00:  Max Ann Veloc 
 AZIF.deg               260.29:  Azm, Final 
 BHAT.        Rotary Steerable:  BHA Type 
 BROT.°/30m               1.20:  Build Rotating 
 BS  .in                  8.50:  Bit Size 
 BSZ .in                  8.50:  Bit Size 
 BTPL.psig              620.00:  Bit Press Loss 
 CABU.                     Yes:  Customer Abuse 
 COMM.                     Äá„:  Run Comments 1 
 TCS .hr                 56.22:  Time Ciculation Ended 
 CV  .mps                 3.05:  Crit Velocity 
 CVMX.mps                 3.20:  Max Crit Veloc 
 DD1 .            Musa Ahmadov:  Direct Drillr 1 
 DDSV.                 iCruise:  DD Service 
 DEFF.%                  98.00:  % Det Eff 
 DLRX.°/30m               2.78:  Dogleg Rot Max 
 DLSO.°/30m               0.00:  Dogleg Oriented 
 DLSX.°/30m               0.00:  Dogleg Str Max 
 DRET.      05.20.48 16-Jul-20:  Drill End Time 
 DRST.      10.20.48 13-Jul-20:  Drill Start Tim 
 DTIM.hr                 14.25:  Time Drilling 
 EDEP.m                4326.01:  End Depth 
 ENG1.      Artemiy Matviyanov:  Engineer 1 
 ENG2.           Amrah Tahirov:  Engineer 2 
 ETIM.      22.30.00 18-Jul-20:  End Time 
 FLOI.gpm               550.00:  Flow In 
 FLON.gpm               450.00:  Flow In Min 
 FLOS.cptm                0.00:  Fluid Loss 
 FLOX.gpm               600.00:  Flow In Max 
 HFLO.                      No:  High Flow 
 HPRE.                      No:  High Pressure 
 HTEM.                      No:  High Temp 
 HYDO.m                   1.80:  Hydro Offset 
 IFIN.deg                65.41:  Inc, Final 
 IMAX.deg                65.14:  Inc Max 
 IMIN.deg                58.89:  Inc Min 
 IMND.m                4104.92:  Inc Min Depth 
 IMXD.m                4303.89:  Inc Max Depth 
 JARR.                      No:  Jarring 
 LETM.      10.20.48 17-Jul-20:  Log End Time 
 LOST.hr                     0:  Lost Rig Time 
 LSTM.      10.20.48 13-Jul-20:  Log Start Time 
 MDCL.ppm             37000.00:  Mud Chlorides 
 MDES.     Inversion Oil/Synthetic:  Mud Desc 
 DFD .sg                  1.52:  Mud Density 
 MDMN.sg                  1.52:  Dens Mud Min 
 MDMX.sg                  1.52:  Dens Mud Max 
 MOIL.                   52.70:  Run Mud Oil % 
 MOWR.                   68:32:  Run Mud OWR 
 MSND.                     0.2:  Run Mud Sand % 
 MSOL.                    21.6:  Run Mud Solids% 
 DFV .spqt               79.00:  Mud Viscosity 
 MWOD.in                  6.75:  MWD Tool OD 
 MWSI.                      No:  Serv Intrp, MWD 
 OTIM.hr                114.04:  Time Operating 
 PCON.          Wear / Scratch:  Pad Condition 
 PMAX.psia            11782.92:  Press Op, Max 
 PV  .cP                 49.00:  Mud PV 
 RUN .                     600:  Run Number 
 ROPA.m/hr               20.00:  ROP Avg 
 ROPN.m/hr               15.00:  ROP Min 
 ROPX.m/hr               22.00:  ROP Max 
 RPMA.rpm               120.00:  RPM Surface Avg 
 RPMN.rpm                90.00:  RPM Surface Min 
 RPMX.rpm               140.00:  RPM Surface Max 
 RRUN.                     600:  Rig Run Number 
 SAZI.deg               260.29:  Azm, Start 
 SDEP.m                4078.01:  Start Depth 
 SIDD.                      No:  Serv Intrp, DD 
 SINC.deg                58.89:  Inc, Start 
 SPPA.psig             4560.00:  SPP Avg 
 SPPN.psig             3600.00:  SPP Min 
 SPPX.psig             4800.00:  SPP Max 
 STIM.      10.20.48 13-Jul-20:  Start Time 
 SVCS.                 DD, MWD:  Services 
 SVER.                    9.20:  Sperry Version 
 TDAT.m                4378.01:  Tot Depth Attmp 
 TDDF.                      No:  Trip for DD 
 TDLG.m                 248.00:  Tot Depth Loggd 
 TFF .                      No:  Trip for Fail 
 TQAA.f-kp               18.00:  Torque Abs Avg 
 TQAN.f-kp               15.00:  Torque Abs Min 
 TQAX.f-kp               20.00:  Torque Abs Max 
 TRRT.°/30m               0.70:  Turn Rotating 
 MRT .                    HCIM:  Maximum Recorded Temperature 
 TTMX.degC               86.00:  Max Tool Temp 
 WBMN.klb                 3.00:  WOB Min 
 WOBA.klb                 5.00:  WOB Avg 
 WOBX.klb                 9.00:  WOB Max 
 YP  .lhf2               32.00:  Yield Point 
~Curve Information Block
#MNEM.UNIT                 API CODE     Curve Description
#---------               -----------    ---------------------------
 TIME.HHMMSS            00 000 000 000:  GT Time & Date
 GTDEPTH.m              00 000 000 000:  GT Depth
 GTPQH.psia             00 000 000 000:  GT HR Quartz Pressure
 GTTQ.degC              00 000 000 000:  GT Quartz Temperature
 GTTN.NONE              00 000 000 000:  GT Test Number
 GTET.sec               00 000 000 000:  GT Elapsed Test Time
 GTTVD.m                00 000 000 000:  GT True Vertical Depth
#Other Information
#
#WARRANTY: Halliburton will use its best efforts to furnish customers with 
#accurate information and interpretations that are part of, and incident to, the services 
#provided.  However, Halliburton cannot and does not warrant the accuracy 
#or correctness of such information and interpretations.  Under no circumstances should any 
#such information or interpretation be relied upon as the sole basis for any drilling, 
#completion, production, or financial decision or any procedure involving any risk to the 
#safety of any drilling venture, drilling rig or its crew or any other third party.  The 
#Customer has full responsibility for all drilling, completion and production operation.  
#Halliburton makes no representations or warranties, either expressed or 
#implied, including, but not limited to, the implied warranties of merchantability or fitness 
#for a particular purpose, with respect to the services rendered.  In no event will 
#Halliburton be liable for failure to obtain any particular results or for 
#any damages, including, but not limited to, indirect, special or consequential damages, 
#resulting from the use of any information or interpretation provided by Halliburton.
#
~A           TIME           GTDEPTH  GTPQH  GTTQ  GTTN  GTET   GTTVD  
# ...
   21:14:54.239.16-Jul-2020 4135.51 6915.36 77.20 7.00 391.22 2799.87
   21:14:54.439.16-Jul-2020 4135.51 6915.36 77.20 7.00 391.42 2799.87
   21:14:54.639.16-Jul-2020 4135.51 6906.35 77.20 7.00 391.62 2799.87
   21:14:54.839.16-Jul-2020 4135.51 6909.55 77.20 7.00 391.82 2799.87
   21:14:55.039.16-Jul-2020 4135.51 6907.48 77.20 7.00 392.02 2799.87
   21:14:55.239.16-Jul-2020 4135.51 6907.33 77.19 7.00 392.22 2799.87
   21:14:55.440.16-Jul-2020 4135.51 6907.33 77.19 7.00 392.42 2799.87
   21:14:55.640.16-Jul-2020 4135.51 6920.35 77.19 7.00 392.62 2799.87
   21:14:55.840.16-Jul-2020 4135.51 6904.09 77.19 7.00 392.82 2799.87
   21:14:56.040.16-Jul-2020 4135.51 6906.05 77.19 7.00 393.02 2799.87
   21:14:56.240.16-Jul-2020 4135.51 6909.77 77.19 7.00 393.22 2799.87
   21:14:56.440.16-Jul-2020 4135.51 6909.77 77.19 7.00 393.42 2799.87
   21:14:56.640.16-Jul-2020 4135.51 6908.15 77.19 7.00 393.62 2799.87
   21:14:56.840.16-Jul-2020 4135.51 6921.52 77.19 7.00 393.82 2799.87
   21:14:57.040.16-Jul-2020 4135.51 6900.64 77.19 7.00 394.02 2799.87
   21:14:57.241.16-Jul-2020 4135.51 6908.99 77.19 7.00 394.22 2799.87
   21:14:57.441.16-Jul-2020 4135.51 6906.55 77.19 7.00 394.42 2799.87
   21:14:57.641.16-Jul-2020 4135.51 6907.44 77.19 7.00 394.62 2799.87
   21:14:57.841.16-Jul-2020 4135.51 6914.59 77.19 7.00 394.82 2799.87
   21:14:58.041.16-Jul-2020 4135.51 6909.09 77.19 7.00 395.02 2799.87
   21:14:58.241.16-Jul-2020 4135.51 6907.63 77.19 7.00 395.22 2799.87
   21:14:58.441.16-Jul-2020 4135.51 6909.93 77.19 7.00 395.42 2799.87
   21:14:58.641.16-Jul-2020 4135.51 6909.66 77.19 7.00 395.62 2799.87
   21:14:58.841.16-Jul-2020 4135.51 6906.82 77.19 7.00 395.82 2799.87
   21:14:59.042.16-Jul-2020 4135.51 6910.33 77.19 7.00 396.02 2799.87
   21:14:59.242.16-Jul-2020 4135.51 6905.64 77.19 7.00 396.22 2799.87
   21:14:59.442.16-Jul-2020 4135.51 6908.56 77.19 7.00 396.42 2799.87
   21:14:59.642.16-Jul-2020 4135.51 6906.48 77.19 7.00 396.62 2799.87
   21:14:59.842.16-Jul-2020 4135.51 6906.47 77.19 7.00 396.82 2799.87
   21:15:00.042.16-Jul-2020 4135.51 6906.91 77.19 7.00 397.03 2799.87
   21:15:00.242.16-Jul-2020 4135.51 6905.19 77.19 7.00 397.23 2799.87
   21:15:00.442.16-Jul-2020 4135.51 6905.19 77.19 7.00 397.43 2799.87
   21:15:00.642.16-Jul-2020 4135.51 6908.59 77.19 7.00 397.63 2799.87
   21:15:00.843.16-Jul-2020 4135.51 6909.82 77.19 7.00 397.83 2799.87
   21:15:01.043.16-Jul-2020 4135.51 6906.91 77.19 7.00 398.03 2799.87
   21:15:01.243.16-Jul-2020 4135.51 6909.77 77.19 7.00 398.23 2799.87
   21:15:01.443.16-Jul-2020 4135.51 6908.57 77.19 7.00 398.43 2799.87
   21:15:01.643.16-Jul-2020 4135.51 6906.34 77.19 7.00 398.63 2799.87
   21:15:01.843.16-Jul-2020 4135.51 6908.60 77.19 7.00 398.83 2799.87
   21:15:02.043.16-Jul-2020 4135.51 6905.61 77.19 7.00 399.03 2799.87
   21:15:02.243.16-Jul-2020 4135.51 6909.05 77.19 7.00 399.23 2799.87
   21:15:02.444.16-Jul-2020 4135.51 6909.05 77.19 7.00 399.43 2799.87
   21:15:02.644.16-Jul-2020 4135.51 6908.63 77.19 7.00 399.63 2799.87
   21:15:02.844.16-Jul-2020 4135.51 6906.33 77.19 7.00 399.83 2799.87
   21:15:03.044.16-Jul-2020 4135.51 6907.56 77.19 7.00 400.03 2799.87
   21:15:03.244.16-Jul-2020 4135.51 6907.20 77.19 7.00 400.23 2799.87
   21:15:03.444.16-Jul-2020 4135.51 6905.74 77.19 7.00 400.43 2799.87
   21:15:03.644.16-Jul-2020 4135.51 6909.31 77.19 7.00 400.63 2799.87
   21:15:03.844.16-Jul-2020 4135.51 6909.11 77.19 7.00 400.83 2799.87
   21:15:04.044.16-Jul-2020 4135.51 6910.20 77.19 7.00 401.03 2799.87
   21:15:04.245.16-Jul-2020 4135.51 6906.91 77.19 7.00 401.23 2799.87
   21:15:04.445.16-Jul-2020 4135.51 6906.91 77.19 7.00 401.43 2799.87
   21:15:04.645.16-Jul-2020 4135.51 6907.91 77.19 7.00 401.63 2799.87
   21:15:04.845.16-Jul-2020 4135.51 6907.25 77.19 7.00 401.83 2799.87
   21:15:05.045.16-Jul-2020 4135.51 6922.80 77.19 7.00 402.03 2799.87
   21:15:05.245.16-Jul-2020 4135.51 6901.38 77.19 7.00 402.23 2799.87
   21:15:05.445.16-Jul-2020 4135.51 6901.38 77.19 7.00 402.43 2799.87
   21:15:05.645.16-Jul-2020 4135.51 6907.46 77.19 7.00 402.63 2799.87
   21:15:05.845.16-Jul-2020 4135.51 6907.76 77.19 7.00 402.83 2799.87
   21:15:06.046.16-Jul-2020 4135.51 6907.84 77.19 7.00 403.03 2799.87
   21:15:06.246.16-Jul-2020 4135.51 6909.13 77.19 7.00 403.23 2799.87
   21:15:06.446.16-Jul-2020 4135.51 6909.13 77.19 7.00 403.43 2799.87
   21:15:06.646.16-Jul-2020 4135.51 6909.50 77.19 7.00 403.63 2799.87
   21:15:06.846.16-Jul-2020 4135.51 6909.92 77.19 7.00 403.83 2799.87
   21:15:07.046.16-Jul-2020 4135.51 6908.85 77.19 7.00 404.03 2799.87
   21:15:07.246.16-Jul-2020 4135.51 6921.07 77.19 7.00 404.23 2799.87
   21:15:07.446.16-Jul-2020 4135.51 6921.07 77.19 7.00 404.43 2799.87
   21:15:07.646.16-Jul-2020 4135.51 6911.04 77.19 7.00 404.63 2799.87
   21:15:07.847.16-Jul-2020 4135.51 6909.86 77.19 7.00 404.83 2799.87
   21:15:08.047.16-Jul-2020 4135.51 6909.15 77.19 7.00 405.03 2799.87
   21:15:08.247.16-Jul-2020 4135.51 6910.57 77.19 7.00 405.23 2799.87
   21:15:08.447.16-Jul-2020 4135.51 6910.57 77.19 7.00 405.43 2799.87
   21:15:08.647.16-Jul-2020 4135.51 6910.14 77.19 7.00 405.63 2799.87
   21:15:08.847.16-Jul-2020 4135.51 6907.07 77.19 7.00 405.83 2799.87
   21:15:09.047.16-Jul-2020 4135.51 6909.29 77.19 7.00 406.03 2799.87
   21:15:09.247.16-Jul-2020 4135.51 6906.92 77.19 7.00 406.23 2799.87
   21:15:09.447.16-Jul-2020 4135.51 6906.92 77.19 7.00 406.43 2799.87
   21:15:09.648.16-Jul-2020 4135.51 6907.10 77.19 7.00 406.63 2799.87
   21:15:09.848.16-Jul-2020 4135.51 6907.75 77.19 7.00 406.83 2799.87
   21:15:10.048.16-Jul-2020 4135.51 6922.73 77.19 7.00 407.03 2799.87
   21:15:10.248.16-Jul-2020 4135.51 6902.19 77.19 7.00 407.23 2799.87
   21:15:10.448.16-Jul-2020 4135.51 6902.19 77.19 7.00 407.43 2799.87
   21:15:10.648.16-Jul-2020 4135.51 6908.02 77.19 7.00 407.63 2799.87
   21:15:10.848.16-Jul-2020 4135.51 6908.89 77.19 7.00 407.83 2799.87
   21:15:11.048.16-Jul-2020 4135.51 6909.00 77.19 7.00 408.03 2799.87
   21:15:11.249.16-Jul-2020 4135.51 6908.95 77.19 7.00 408.23 2799.87
   21:15:11.449.16-Jul-2020 4135.51 6907.70 77.19 7.00 408.43 2799.87
   21:15:11.649.16-Jul-2020 4135.51 6908.35 77.19 7.00 408.63 2799.87
   21:15:11.849.16-Jul-2020 4135.51 6909.21 77.19 7.00 408.83 2799.87
   21:15:12.049.16-Jul-2020 4135.51 6906.49 77.19 7.00 409.03 2799.87
   21:15:12.249.16-Jul-2020 4135.51 6909.32 77.19 7.00 409.23 2799.87
   21:15:12.449.16-Jul-2020 4135.51 6905.99 77.19 7.00 409.43 2799.87
   21:15:12.649.16-Jul-2020 4135.51 6908.24 77.19 7.00 409.63 2799.87
   21:15:12.849.16-Jul-2020 4135.51 6906.14 77.19 7.00 409.83 2799.87
   21:15:13.050.16-Jul-2020 4135.51 6907.43 77.19 7.00 410.03 2799.87
   21:15:13.250.16-Jul-2020 4135.51 6921.81 77.19 7.00 410.23 2799.87
   21:15:13.450.16-Jul-2020 4135.51 6921.81 77.19 7.00 410.43 2799.87
   21:15:13.650.16-Jul-2020 4135.51 6909.76 77.19 7.00 410.63 2799.87
   21:15:13.850.16-Jul-2020 4135.51 6907.00 77.19 7.00 410.83 2799.87
   21:15:14.050.16-Jul-2020 4135.51 6907.47 77.19 7.00 411.03 2799.87
   21:15:14.250.16-Jul-2020 4135.51 6907.67 77.19 7.00 411.23 2799.87
   21:15:14.450.16-Jul-2020 4135.51 6907.67 77.19 7.00 411.43 2799.87
   21:15:14.650.16-Jul-2020 4135.51 6913.91 77.19 7.00 411.63 2799.87
   21:15:14.851.16-Jul-2020 4135.51 6908.76 77.19 7.00 411.83 2799.87
   21:15:15.051.16-Jul-2020 4135.51 6908.13 77.19 7.00 412.03 2799.87
