~Version Information
 VERS.                  2.0:   CWLS log ASCII Standard -VERSION 2.0
 WRAP.                   NO:   One line per depth step
~Well Information Block
#MNEM.UNIT     VALUE/NAME     DESCRIPTION
#---------     -----------    ---------------------------
 STRT.S             16:55:55 16-Jul-20: START TIME 16:55:55 16-Jul-20
 STOP.S             17:02:47 16-Jul-20: STOP TIME  17:02:47 16-Jul-20
 STEP.S                   0.00: STEP TIME
 NULL.                 -999.25: NULL VALUE
 MDS .        Operator Entered:  MAG DATA SOURCE
 UNIT.                     N/A:  LOGGING EQUIPMENT ID
 DCON.         Sperry Drilling:  DIRECTNL CONTR
 DOE .                     N/A:  DOE NUMBER
 RIG .               EastAzeri:  RIG NAME
 JOBN.        AZ-XX-0906363297:  JOB TICKET NUMB
 MWDS.                    Baku:  MWD SHOP
 SRVC.     Turan Drilling & Engineering:  CONTRACTOR
 PROV.                    Baku:  PROVINCE
 STAT.                    Baku:  STATE NAME
 REGN.                   EESSA:  REGION
 BASE.              Azerbaijan:  LOGGING EQUIPMENT BASE LOCATION
 WTYP.                Deviated:  WELL TYPE
 UWI .                     N/A:  UNIQUE WELL IDENTIFIER
 API .                     N/A:  API NUMBER
 COMP.     BP Exploration (Caspian Sea) ltd.:  COMPANY
 WELL.                    D07z:  WELL NAME
 CTRY.              Azerbaijan:  COUNTRY NAME
 SON .        AZ-XX-0906363297:  JOB NUMBER
 FLD .                     ACG:  FIELD NAME
 PDAT.          Mean Sea Level:  PERMANENT DATUM
 FTOP.          Formation Tops:  FORM TOPS DESC
 ILTD.               Lithology:  INTERP LTH DESC
 SVYD.                  Survey:  SURVEY DESC
 DMOD.             Drill Model:  DRILL MOD DESC
 HPTY.       Minimum Curvature:  HOLE POS TYPE
 NREF.                    Grid:  NORTH REFERENCE
 SPUD.               28-Jun-20:  SPUD DATE
 DATE.      18.27.12 28-Jun-20:  END TIME
 STIM.      18.27.12 28-Jun-20:  START TIME
 DMF .             Drill Floor:  DRILL MEAS FROM
 DFST.                        :  DIST FSL TEXT
 DFWT.                        :  DIST FWL TEXT
 CNTY.                        :  COUNTY
 LOC .                        :  LOCATION
 LMF .             Drill Floor:  LOG MEASURED FROM
 VSNS.m                  -7.75:  VERT SEC N/S
 VSEW.m                  -9.19:  VERT SEC E/W
 MMDE.m                   0.00:  MAGUTM CALC DEP
 AGAP.m                  43.60:  AIR GAP
 DEP .m                4058.99:  DEPTH
 APD .m                  43.60:  DEPTH ABOVE PD
 WDMS.m                 151.80:  WD ELEV
 EGL .m                   0.00:  GROUND ELEVATION
 EPD .m                   0.00:  ELEVATION
 AZTC.deg                 6.19:  AZM TOTAL CORR
 GRDC.deg                 0.27:  GRID CORRECTION
 MDEC.deg                 6.46:  MAGNETIC DECL
 MDIP.deg                59.47:  MAGNETIC DIP
 MFLD.nT              50279.00:  MAGNETIC FIELD
 GVFD.g                   1.00:  GRAVITY FIELD
 VSDR.deg               249.96:  VERT SEC DIRECT
 TDD .m                   0.00:  TOTAL DEPTH (DRILLER)
 SDEP.m                   0.00:  START DEPTH
 DFSL.m                   0.00:  DISTANCE FSL
 DFWL.m                   0.00:  DISTANCE FWL
 UTMY.m             4431880.20:  UTM Y
 UTMX.m              538763.98:  UTM X
 WHEW.m                  -9.19:  WELL HEAD E/W
 WHNS.m                  -7.75:  WELL HEAD N/S
 LONG.deg                51.45:  LONGITUDE
 LATI.deg                40.02:  LATITUDE
 TVDS.m                  43.60:  TVDSS CORRECTN
 EKB .m                  43.60:  KB ELEVATION
 EDF .m                  43.60:  DF ELEVATION
 TDL .m                 248.00:  TOTAL DEPTH (LOGGER)
 MAGU.                 1849075:  MAGUTM CHECKSUM
 VSC .                       0:  VS TO CLOSURE
~Parameter Information Block
#MNEM.UNIT       Value        Description
#---------     -----------    ---------------------------
 AV  .mps                 6.34:  Ann Velocity 
 AVMX.mps                 7.00:  Max Ann Veloc 
 AZIF.deg               260.29:  Azm, Final 
 BHAT.        Rotary Steerable:  BHA Type 
 BROT.°/30m               1.20:  Build Rotating 
 BS  .in                  8.50:  Bit Size 
 BSZ .in                  8.50:  Bit Size 
 BTPL.psig              620.00:  Bit Press Loss 
 CABU.                     Yes:  Customer Abuse 
 COMM.                     3z:  Run Comments 1 
 TCS .hr                 56.22:  Time Ciculation Ended 
 CV  .mps                 3.05:  Crit Velocity 
 CVMX.mps                 3.20:  Max Crit Veloc 
 DD1 .            Musa Ahmadov:  Direct Drillr 1 
 DDSV.                 iCruise:  DD Service 
 DEFF.%                  98.00:  % Det Eff 
 DLRX.°/30m               2.78:  Dogleg Rot Max 
 DLSO.°/30m               0.00:  Dogleg Oriented 
 DLSX.°/30m               0.00:  Dogleg Str Max 
 DRET.      05.20.48 16-Jul-20:  Drill End Time 
 DRST.      10.20.48 13-Jul-20:  Drill Start Tim 
 DTIM.hr                 14.25:  Time Drilling 
 EDEP.m                4326.01:  End Depth 
 ENG1.      Artemiy Matviyanov:  Engineer 1 
 ENG2.           Amrah Tahirov:  Engineer 2 
 ETIM.      22.30.00 18-Jul-20:  End Time 
 FLOI.gpm               550.00:  Flow In 
 FLON.gpm               450.00:  Flow In Min 
 FLOS.cptm                0.00:  Fluid Loss 
 FLOX.gpm               600.00:  Flow In Max 
 HFLO.                      No:  High Flow 
 HPRE.                      No:  High Pressure 
 HTEM.                      No:  High Temp 
 HYDO.m                   1.80:  Hydro Offset 
 IFIN.deg                65.41:  Inc, Final 
 IMAX.deg                65.14:  Inc Max 
 IMIN.deg                58.89:  Inc Min 
 IMND.m                4104.92:  Inc Min Depth 
 IMXD.m                4303.89:  Inc Max Depth 
 JARR.                      No:  Jarring 
 LETM.      10.20.48 17-Jul-20:  Log End Time 
 LOST.hr                     0:  Lost Rig Time 
 LSTM.      10.20.48 13-Jul-20:  Log Start Time 
 MDCL.ppm             37000.00:  Mud Chlorides 
 MDES.     Inversion Oil/Synthetic:  Mud Desc 
 DFD .sg                  1.52:  Mud Density 
 MDMN.sg                  1.52:  Dens Mud Min 
 MDMX.sg                  1.52:  Dens Mud Max 
 MOIL.                   52.70:  Run Mud Oil % 
 MOWR.                   68:32:  Run Mud OWR 
 MSND.                     0.2:  Run Mud Sand % 
 MSOL.                    21.6:  Run Mud Solids% 
 DFV .spqt               79.00:  Mud Viscosity 
 MWOD.in                  6.75:  MWD Tool OD 
 MWSI.                      No:  Serv Intrp, MWD 
 OTIM.hr                114.04:  Time Operating 
 PCON.          Wear / Scratch:  Pad Condition 
 PMAX.psia            11782.92:  Press Op, Max 
 PV  .cP                 49.00:  Mud PV 
 RUN .                     600:  Run Number 
 ROPA.m/hr               20.00:  ROP Avg 
 ROPN.m/hr               15.00:  ROP Min 
 ROPX.m/hr               22.00:  ROP Max 
 RPMA.rpm               120.00:  RPM Surface Avg 
 RPMN.rpm                90.00:  RPM Surface Min 
 RPMX.rpm               140.00:  RPM Surface Max 
 RRUN.                     600:  Rig Run Number 
 SAZI.deg               260.29:  Azm, Start 
 SDEP.m                4078.01:  Start Depth 
 SIDD.                      No:  Serv Intrp, DD 
 SINC.deg                58.89:  Inc, Start 
 SPPA.psig             4560.00:  SPP Avg 
 SPPN.psig             3600.00:  SPP Min 
 SPPX.psig             4800.00:  SPP Max 
 STIM.      10.20.48 13-Jul-20:  Start Time 
 SVCS.                 DD, MWD:  Services 
 SVER.                    9.20:  Sperry Version 
 TDAT.m                4378.01:  Tot Depth Attmp 
 TDDF.                      No:  Trip for DD 
 TDLG.m                 248.00:  Tot Depth Loggd 
 TFF .                      No:  Trip for Fail 
 TQAA.f-kp               18.00:  Torque Abs Avg 
 TQAN.f-kp               15.00:  Torque Abs Min 
 TQAX.f-kp               20.00:  Torque Abs Max 
 TRRT.°/30m               0.70:  Turn Rotating 
 MRT .                    HCIM:  Maximum Recorded Temperature 
 TTMX.degC               86.00:  Max Tool Temp 
 WBMN.klb                 3.00:  WOB Min 
 WOBA.klb                 5.00:  WOB Avg 
 WOBX.klb                 9.00:  WOB Max 
 YP  .lhf2               32.00:  Yield Point 
~Curve Information Block
#MNEM.UNIT                 API CODE     Curve Description
#---------               -----------    ---------------------------
 TIME.HHMMSS            00 000 000 000:  GT Time & Date
 GTDEPTH.m              00 000 000 000:  GT Depth
 GTPQH.psia             00 000 000 000:  GT HR Quartz Pressure
 GTTQ.degC              00 000 000 000:  GT Quartz Temperature
 GTTN.NONE              00 000 000 000:  GT Test Number
 GTET.sec               00 000 000 000:  GT Elapsed Test Time
 GTTVD.m                00 000 000 000:  GT True Vertical Depth
#Other Information
#
#WARRANTY: Halliburton will use its best efforts to furnish customers with 
#accurate information and interpretations that are part of, and incident to, the services 
#provided.  However, Halliburton cannot and does not warrant the accuracy 
#or correctness of such information and interpretations.  Under no circumstances should any 
#such information or interpretation be relied upon as the sole basis for any drilling, 
#completion, production, or financial decision or any procedure involving any risk to the 
#safety of any drilling venture, drilling rig or its crew or any other third party.  The 
#Customer has full responsibility for all drilling, completion and production operation.  
#Halliburton makes no representations or warranties, either expressed or 
#implied, including, but not limited to, the implied warranties of merchantability or fitness 
#for a particular purpose, with respect to the services rendered.  In no event will 
#Halliburton be liable for failure to obtain any particular results or for 
#any damages, including, but not limited to, indirect, special or consequential damages, 
#resulting from the use of any information or interpretation provided by Halliburton.
#
~A           TIME           GTDEPTH  GTPQH  GTTQ  GTTN  GTET   GTTVD  
# ...
   16:59:22.425.16-Jul-2020 4261.01 4635.53 80.07 2.00 207.04 2855.56
   16:59:22.625.16-Jul-2020 4261.01 4635.53 80.07 2.00 207.24 2855.56
   16:59:22.825.16-Jul-2020 4261.01 4635.60 80.07 2.00 207.44 2855.56
   16:59:23.025.16-Jul-2020 4261.01 4635.60 80.07 2.00 207.64 2855.56
   16:59:23.225.16-Jul-2020 4261.01 4635.61 80.07 2.00 207.84 2855.56
   16:59:23.425.16-Jul-2020 4261.01 4635.64 80.07 2.00 208.04 2855.56
   16:59:23.625.16-Jul-2020 4261.01 4635.64 80.07 2.00 208.24 2855.56
   16:59:23.825.16-Jul-2020 4261.01 4635.63 80.07 2.00 208.44 2855.56
   16:59:24.025.16-Jul-2020 4261.01 4635.62 80.07 2.00 208.64 2855.56
   16:59:24.225.16-Jul-2020 4261.01 4635.60 80.07 2.00 208.84 2855.56
   16:59:24.425.16-Jul-2020 4261.01 4635.60 80.07 2.00 209.04 2855.56
   16:59:24.625.16-Jul-2020 4261.01 4635.61 80.07 2.00 209.24 2855.56
   16:59:24.825.16-Jul-2020 4261.01 4635.49 80.07 2.00 209.44 2855.56
   16:59:25.025.16-Jul-2020 4261.01 4635.84 80.07 2.00 209.64 2855.56
   16:59:25.225.16-Jul-2020 4261.01 4635.57 80.07 2.00 209.84 2855.56
   16:59:25.425.16-Jul-2020 4261.01 4635.66 80.07 2.00 210.04 2855.56
   16:59:25.625.16-Jul-2020 4261.01 4635.61 80.07 2.00 210.24 2855.56
   16:59:25.826.16-Jul-2020 4261.01 4635.70 80.07 2.00 210.44 2855.56
   16:59:26.026.16-Jul-2020 4261.01 4635.50 80.07 2.00 210.64 2855.56
   16:59:26.226.16-Jul-2020 4261.01 4635.60 80.07 2.00 210.84 2855.56
   16:59:26.426.16-Jul-2020 4261.01 4635.56 80.07 2.00 211.04 2855.56
   16:59:26.626.16-Jul-2020 4261.01 4635.80 80.07 2.00 211.24 2855.56
   16:59:26.826.16-Jul-2020 4261.01 4635.60 80.07 2.00 211.44 2855.56
   16:59:27.026.16-Jul-2020 4261.01 4635.67 80.07 2.00 211.64 2855.56
   16:59:27.226.16-Jul-2020 4261.01 4635.56 80.07 2.00 211.84 2855.56
   16:59:27.426.16-Jul-2020 4261.01 4635.75 80.07 2.00 212.04 2855.56
   16:59:27.626.16-Jul-2020 4261.01 4635.56 80.07 2.00 212.24 2855.56
   16:59:27.826.16-Jul-2020 4261.01 4635.63 80.07 2.00 212.44 2855.56
   16:59:28.026.16-Jul-2020 4261.01 4635.59 80.07 2.00 212.64 2855.56
   16:59:28.226.16-Jul-2020 4261.01 4635.58 80.07 2.00 212.84 2855.56
   16:59:28.426.16-Jul-2020 4261.01 4635.58 80.07 2.00 213.04 2855.56
   16:59:28.626.16-Jul-2020 4261.01 4635.58 80.07 2.00 213.24 2855.56
   16:59:28.826.16-Jul-2020 4261.01 4635.61 80.07 2.00 213.44 2855.56
   16:59:29.026.16-Jul-2020 4261.01 4635.60 80.07 2.00 213.64 2855.56
   16:59:29.226.16-Jul-2020 4261.01 4635.61 80.07 2.00 213.84 2855.56
   16:59:29.426.16-Jul-2020 4261.01 4635.61 80.07 2.00 214.04 2855.56
   16:59:29.626.16-Jul-2020 4261.01 4635.61 80.07 2.00 214.24 2855.56
   16:59:29.826.16-Jul-2020 4261.01 4635.63 80.07 2.00 214.44 2855.56
   16:59:30.026.16-Jul-2020 4261.01 4635.89 80.07 2.00 214.64 2855.56
   16:59:30.226.16-Jul-2020 4261.01 4635.44 80.07 2.00 214.84 2855.56
   16:59:30.426.16-Jul-2020 4261.01 4635.51 80.07 2.00 215.04 2855.56
   16:59:30.627.16-Jul-2020 4261.01 4635.51 80.07 2.00 215.24 2855.56
   16:59:30.827.16-Jul-2020 4261.01 4635.59 80.07 2.00 215.44 2855.56
   16:59:31.027.16-Jul-2020 4261.01 4635.62 80.07 2.00 215.64 2855.56
   16:59:31.227.16-Jul-2020 4261.01 4635.61 80.07 2.00 215.84 2855.56
   16:59:31.427.16-Jul-2020 4261.01 4635.60 80.07 2.00 216.04 2855.56
   16:59:31.627.16-Jul-2020 4261.01 4635.62 80.07 2.00 216.24 2855.56
   16:59:31.827.16-Jul-2020 4261.01 4635.61 80.07 2.00 216.44 2855.56
   16:59:32.027.16-Jul-2020 4261.01 4635.62 80.07 2.00 216.64 2855.56
   16:59:32.227.16-Jul-2020 4261.01 4635.62 80.07 2.00 216.84 2855.56
   16:59:32.427.16-Jul-2020 4261.01 4635.61 80.07 2.00 217.04 2855.56
   16:59:32.627.16-Jul-2020 4261.01 4635.62 80.07 2.00 217.24 2855.56
   16:59:32.827.16-Jul-2020 4261.01 4635.59 80.07 2.00 217.44 2855.56
   16:59:33.027.16-Jul-2020 4261.01 4635.64 80.07 2.00 217.64 2855.56
   16:59:33.227.16-Jul-2020 4261.01 4635.87 80.07 2.00 217.84 2855.56
   16:59:33.427.16-Jul-2020 4261.01 4635.45 80.07 2.00 218.04 2855.56
   16:59:33.627.16-Jul-2020 4261.01 4635.51 80.07 2.00 218.24 2855.56
   16:59:33.827.16-Jul-2020 4261.01 4635.66 80.07 2.00 218.44 2855.56
   16:59:34.027.16-Jul-2020 4261.01 4635.78 80.07 2.00 218.65 2855.56
   16:59:34.227.16-Jul-2020 4261.01 4635.54 80.07 2.00 218.85 2855.56
   16:59:34.427.16-Jul-2020 4261.01 4635.59 80.07 2.00 219.05 2855.56
   16:59:34.627.16-Jul-2020 4261.01 4635.59 80.07 2.00 219.25 2855.56
   16:59:34.827.16-Jul-2020 4261.01 4635.85 80.07 2.00 219.45 2855.56
   16:59:35.027.16-Jul-2020 4261.01 4635.46 80.07 2.00 219.65 2855.56
   16:59:35.227.16-Jul-2020 4261.01 4635.47 80.07 2.00 219.85 2855.56
   16:59:35.427.16-Jul-2020 4261.01 4635.66 80.07 2.00 220.05 2855.56
   16:59:35.628.16-Jul-2020 4261.01 4635.63 80.07 2.00 220.25 2855.56
   16:59:35.828.16-Jul-2020 4261.01 4635.71 80.07 2.00 220.45 2855.56
   16:59:36.028.16-Jul-2020 4261.01 4635.52 80.07 2.00 220.65 2855.56
   16:59:36.228.16-Jul-2020 4261.01 4635.59 80.07 2.00 220.85 2855.56
   16:59:36.428.16-Jul-2020 4261.01 4635.66 80.07 2.00 221.05 2855.56
   16:59:36.628.16-Jul-2020 4261.01 4635.60 80.07 2.00 221.25 2855.56
   16:59:36.828.16-Jul-2020 4261.01 4635.63 80.07 2.00 221.45 2855.56
   16:59:37.028.16-Jul-2020 4261.01 4635.62 80.07 2.00 221.65 2855.56
   16:59:37.228.16-Jul-2020 4261.01 4635.62 80.07 2.00 221.85 2855.56
   16:59:37.428.16-Jul-2020 4261.01 4635.61 80.07 2.00 222.05 2855.56
   16:59:37.628.16-Jul-2020 4261.01 4635.61 80.07 2.00 222.25 2855.56
   16:59:37.828.16-Jul-2020 4261.01 4635.60 80.07 2.00 222.45 2855.56
   16:59:38.028.16-Jul-2020 4261.01 4635.58 80.07 2.00 222.65 2855.56
   16:59:38.228.16-Jul-2020 4261.01 4635.51 80.07 2.00 222.85 2855.56
   16:59:38.428.16-Jul-2020 4261.01 4635.81 80.07 2.00 223.05 2855.56
   16:59:38.628.16-Jul-2020 4261.01 4635.81 80.07 2.00 223.25 2855.56
   16:59:38.828.16-Jul-2020 4261.01 4635.68 80.07 2.00 223.45 2855.56
   16:59:39.028.16-Jul-2020 4261.01 4635.56 80.07 2.00 223.65 2855.56
   16:59:39.228.16-Jul-2020 4261.01 4635.59 80.07 2.00 223.85 2855.56
   16:59:39.428.16-Jul-2020 4261.01 4635.63 80.07 2.00 224.05 2855.56
   16:59:39.628.16-Jul-2020 4261.01 4635.63 80.07 2.00 224.25 2855.56
   16:59:39.828.16-Jul-2020 4261.01 4635.63 80.07 2.00 224.45 2855.56
   16:59:40.028.16-Jul-2020 4261.01 4635.63 80.07 2.00 224.65 2855.56
   16:59:40.228.16-Jul-2020 4261.01 4635.62 80.07 2.00 224.85 2855.56
   16:59:40.429.16-Jul-2020 4261.01 4635.63 80.07 2.00 225.05 2855.56
   16:59:40.629.16-Jul-2020 4261.01 4635.63 80.07 2.00 225.25 2855.56
   16:59:40.829.16-Jul-2020 4261.01 4635.61 80.07 2.00 225.45 2855.56
   16:59:41.029.16-Jul-2020 4261.01 4635.61 80.07 2.00 225.65 2855.56
   16:59:41.229.16-Jul-2020 4261.01 4635.63 80.07 2.00 225.85 2855.56
   16:59:41.429.16-Jul-2020 4261.01 4635.50 80.07 2.00 226.05 2855.56
   16:59:41.629.16-Jul-2020 4261.01 4635.50 80.07 2.00 226.25 2855.56
   16:59:41.829.16-Jul-2020 4261.01 4635.58 80.07 2.00 226.45 2855.56
   16:59:42.029.16-Jul-2020 4261.01 4635.68 80.07 2.00 226.65 2855.56
   16:59:42.229.16-Jul-2020 4261.01 4635.61 80.07 2.00 226.85 2855.56
   16:59:42.429.16-Jul-2020 4261.01 4635.63 80.07 2.00 227.05 2855.56
   16:59:42.629.16-Jul-2020 4261.01 4635.70 80.07 2.00 227.25 2855.56
   16:59:42.829.16-Jul-2020 4261.01 4635.70 80.07 2.00 227.45 2855.56
   16:59:43.029.16-Jul-2020 4261.01 4635.70 80.07 2.00 227.65 2855.56
   16:59:43.229.16-Jul-2020 4261.01 4635.81 80.07 2.00 227.85 2855.56
   16:59:43.429.16-Jul-2020 4261.01 4635.60 80.07 2.00 228.05 2855.56
   16:59:43.629.16-Jul-2020 4261.01 4635.60 80.07 2.00 228.25 2855.56
   16:59:43.829.16-Jul-2020 4261.01 4635.57 80.07 2.00 228.45 2855.56
   16:59:44.029.16-Jul-2020 4261.01 4635.75 80.07 2.00 228.65 2855.56
   16:59:44.229.16-Jul-2020 4261.01 4635.57 80.07 2.00 228.85 2855.56
   16:59:44.429.16-Jul-2020 4261.01 4635.62 80.07 2.00 229.05 2855.56
   16:59:44.629.16-Jul-2020 4261.01 4635.62 80.07 2.00 229.25 2855.56
   16:59:44.829.16-Jul-2020 4261.01 4635.59 80.07 2.00 229.45 2855.56
   16:59:45.029.16-Jul-2020 4261.01 4635.61 80.07 2.00 229.65 2855.56
   16:59:45.230.16-Jul-2020 4261.01 4635.63 80.07 2.00 229.85 2855.56
