~Version Information
 VERS.                  2.0:   CWLS log ASCII Standard -VERSION 2.0
 WRAP.                   NO:   One line per depth step
~Well Information Block
#MNEM.UNIT     VALUE/NAME     DESCRIPTION
#---------     -----------    ---------------------------
 STRT.S             21:08:23 16-Jul-20: START TIME 21:08:23 16-Jul-20
 STOP.S             21:15:15 16-Jul-20: STOP TIME  21:15:15 16-Jul-20
 STEP.S                   0.00: STEP TIME
 NULL.                 -999.25: NULL VALUE
 MDS .        Operator Entered:  MAG DATA SOURCE
 UNIT.                     N/A:  LOGGING EQUIPMENT ID
 DCON.         Sperry Drilling:  DIRECTNL CONTR
 DOE .                     N/A:  DOE NUMBER
 RIG .               EastAzeri:  RIG NAME
 JOBN.        AZ-XX-0906363297:  JOB TICKET NUMB
 MWDS.                    Baku:  MWD SHOP
 SRVC.     Turan Drilling & Engineering:  CONTRACTOR
 PROV.                    Baku:  PROVINCE
 STAT.                    Baku:  STATE NAME
 REGN.                   EESSA:  REGION
 BASE.              Azerbaijan:  LOGGING EQUIPMENT BASE LOCATION
 WTYP.                Deviated:  WELL TYPE
 UWI .                     N/A:  UNIQUE WELL IDENTIFIER
 API .                     N/A:  API NUMBER
 COMP.     BP Exploration (Caspian Sea) ltd.:  COMPANY
 WELL.                    D07z:  WELL NAME
 CTRY.              Azerbaijan:  COUNTRY NAME
 SON .        AZ-XX-0906363297:  JOB NUMBER
 FLD .                     ACG:  FIELD NAME
 PDAT.          Mean Sea Level:  PERMANENT DATUM
 FTOP.          Formation Tops:  FORM TOPS DESC
 ILTD.               Lithology:  INTERP LTH DESC
 SVYD.                  Survey:  SURVEY DESC
 DMOD.             Drill Model:  DRILL MOD DESC
 HPTY.       Minimum Curvature:  HOLE POS TYPE
 NREF.                    Grid:  NORTH REFERENCE
 SPUD.               28-Jun-20:  SPUD DATE
 DATE.      18.27.12 28-Jun-20:  END TIME
 STIM.      18.27.12 28-Jun-20:  START TIME
 DMF .             Drill Floor:  DRILL MEAS FROM
 DFST.                        :  DIST FSL TEXT
 DFWT.                        :  DIST FWL TEXT
 CNTY.                        :  COUNTY
 LOC .                        :  LOCATION
 LMF .             Drill Floor:  LOG MEASURED FROM
 VSNS.m                  -7.75:  VERT SEC N/S
 VSEW.m                  -9.19:  VERT SEC E/W
 MMDE.m                   0.00:  MAGUTM CALC DEP
 AGAP.m                  43.60:  AIR GAP
 DEP .m                4058.99:  DEPTH
 APD .m                  43.60:  DEPTH ABOVE PD
 WDMS.m                 151.80:  WD ELEV
 EGL .m                   0.00:  GROUND ELEVATION
 EPD .m                   0.00:  ELEVATION
 AZTC.deg                 6.19:  AZM TOTAL CORR
 GRDC.deg                 0.27:  GRID CORRECTION
 MDEC.deg                 6.46:  MAGNETIC DECL
 MDIP.deg                59.47:  MAGNETIC DIP
 MFLD.nT              50279.00:  MAGNETIC FIELD
 GVFD.g                   1.00:  GRAVITY FIELD
 VSDR.deg               249.96:  VERT SEC DIRECT
 TDD .m                   0.00:  TOTAL DEPTH (DRILLER)
 SDEP.m                   0.00:  START DEPTH
 DFSL.m                   0.00:  DISTANCE FSL
 DFWL.m                   0.00:  DISTANCE FWL
 UTMY.m             4431880.20:  UTM Y
 UTMX.m              538763.98:  UTM X
 WHEW.m                  -9.19:  WELL HEAD E/W
 WHNS.m                  -7.75:  WELL HEAD N/S
 LONG.deg                51.45:  LONGITUDE
 LATI.deg                40.02:  LATITUDE
 TVDS.m                  43.60:  TVDSS CORRECTN
 EKB .m                  43.60:  KB ELEVATION
 EDF .m                  43.60:  DF ELEVATION
 TDL .m                 248.00:  TOTAL DEPTH (LOGGER)
 MAGU.                 1849075:  MAGUTM CHECKSUM
 VSC .                       0:  VS TO CLOSURE
~Parameter Information Block
#MNEM.UNIT       Value        Description
#---------     -----------    ---------------------------
 AV  .mps                 6.34:  Ann Velocity 
 AVMX.mps                 7.00:  Max Ann Veloc 
 AZIF.deg               260.29:  Azm, Final 
 BHAT.        Rotary Steerable:  BHA Type 
 BROT.°/30m               1.20:  Build Rotating 
 BS  .in                  8.50:  Bit Size 
 BSZ .in                  8.50:  Bit Size 
 BTPL.psig              620.00:  Bit Press Loss 
 CABU.                     Yes:  Customer Abuse 
 COMM.                     Äá„:  Run Comments 1 
 TCS .hr                 56.22:  Time Ciculation Ended 
 CV  .mps                 3.05:  Crit Velocity 
 CVMX.mps                 3.20:  Max Crit Veloc 
 DD1 .            Musa Ahmadov:  Direct Drillr 1 
 DDSV.                 iCruise:  DD Service 
 DEFF.%                  98.00:  % Det Eff 
 DLRX.°/30m               2.78:  Dogleg Rot Max 
 DLSO.°/30m               0.00:  Dogleg Oriented 
 DLSX.°/30m               0.00:  Dogleg Str Max 
 DRET.      05.20.48 16-Jul-20:  Drill End Time 
 DRST.      10.20.48 13-Jul-20:  Drill Start Tim 
 DTIM.hr                 14.25:  Time Drilling 
 EDEP.m                4326.01:  End Depth 
 ENG1.      Artemiy Matviyanov:  Engineer 1 
 ENG2.           Amrah Tahirov:  Engineer 2 
 ETIM.      22.30.00 18-Jul-20:  End Time 
 FLOI.gpm               550.00:  Flow In 
 FLON.gpm               450.00:  Flow In Min 
 FLOS.cptm                0.00:  Fluid Loss 
 FLOX.gpm               600.00:  Flow In Max 
 HFLO.                      No:  High Flow 
 HPRE.                      No:  High Pressure 
 HTEM.                      No:  High Temp 
 HYDO.m                   1.80:  Hydro Offset 
 IFIN.deg                65.41:  Inc, Final 
 IMAX.deg                65.14:  Inc Max 
 IMIN.deg                58.89:  Inc Min 
 IMND.m                4104.92:  Inc Min Depth 
 IMXD.m                4303.89:  Inc Max Depth 
 JARR.                      No:  Jarring 
 LETM.      10.20.48 17-Jul-20:  Log End Time 
 LOST.hr                     0:  Lost Rig Time 
 LSTM.      10.20.48 13-Jul-20:  Log Start Time 
 MDCL.ppm             37000.00:  Mud Chlorides 
 MDES.     Inversion Oil/Synthetic:  Mud Desc 
 DFD .sg                  1.52:  Mud Density 
 MDMN.sg                  1.52:  Dens Mud Min 
 MDMX.sg                  1.52:  Dens Mud Max 
 MOIL.                   52.70:  Run Mud Oil % 
 MOWR.                   68:32:  Run Mud OWR 
 MSND.                     0.2:  Run Mud Sand % 
 MSOL.                    21.6:  Run Mud Solids% 
 DFV .spqt               79.00:  Mud Viscosity 
 MWOD.in                  6.75:  MWD Tool OD 
 MWSI.                      No:  Serv Intrp, MWD 
 OTIM.hr                114.04:  Time Operating 
 PCON.          Wear / Scratch:  Pad Condition 
 PMAX.psia            11782.92:  Press Op, Max 
 PV  .cP                 49.00:  Mud PV 
 RUN .                     600:  Run Number 
 ROPA.m/hr               20.00:  ROP Avg 
 ROPN.m/hr               15.00:  ROP Min 
 ROPX.m/hr               22.00:  ROP Max 
 RPMA.rpm               120.00:  RPM Surface Avg 
 RPMN.rpm                90.00:  RPM Surface Min 
 RPMX.rpm               140.00:  RPM Surface Max 
 RRUN.                     600:  Rig Run Number 
 SAZI.deg               260.29:  Azm, Start 
 SDEP.m                4078.01:  Start Depth 
 SIDD.                      No:  Serv Intrp, DD 
 SINC.deg                58.89:  Inc, Start 
 SPPA.psig             4560.00:  SPP Avg 
 SPPN.psig             3600.00:  SPP Min 
 SPPX.psig             4800.00:  SPP Max 
 STIM.      10.20.48 13-Jul-20:  Start Time 
 SVCS.                 DD, MWD:  Services 
 SVER.                    9.20:  Sperry Version 
 TDAT.m                4378.01:  Tot Depth Attmp 
 TDDF.                      No:  Trip for DD 
 TDLG.m                 248.00:  Tot Depth Loggd 
 TFF .                      No:  Trip for Fail 
 TQAA.f-kp               18.00:  Torque Abs Avg 
 TQAN.f-kp               15.00:  Torque Abs Min 
 TQAX.f-kp               20.00:  Torque Abs Max 
 TRRT.°/30m               0.70:  Turn Rotating 
 MRT .                    HCIM:  Maximum Recorded Temperature 
 TTMX.degC               86.00:  Max Tool Temp 
 WBMN.klb                 3.00:  WOB Min 
 WOBA.klb                 5.00:  WOB Avg 
 WOBX.klb                 9.00:  WOB Max 
 YP  .lhf2               32.00:  Yield Point 
~Curve Information Block
#MNEM.UNIT                 API CODE     Curve Description
#---------               -----------    ---------------------------
 TIME.HHMMSS            00 000 000 000:  GT Time & Date
 GTDEPTH.m              00 000 000 000:  GT Depth
 GTPQH.psia             00 000 000 000:  GT HR Quartz Pressure
 GTTQ.degC              00 000 000 000:  GT Quartz Temperature
 GTTN.NONE              00 000 000 000:  GT Test Number
 GTET.sec               00 000 000 000:  GT Elapsed Test Time
 GTTVD.m                00 000 000 000:  GT True Vertical Depth
#Other Information
#
#WARRANTY: Halliburton will use its best efforts to furnish customers with 
#accurate information and interpretations that are part of, and incident to, the services 
#provided.  However, Halliburton cannot and does not warrant the accuracy 
#or correctness of such information and interpretations.  Under no circumstances should any 
#such information or interpretation be relied upon as the sole basis for any drilling, 
#completion, production, or financial decision or any procedure involving any risk to the 
#safety of any drilling venture, drilling rig or its crew or any other third party.  The 
#Customer has full responsibility for all drilling, completion and production operation.  
#Halliburton makes no representations or warranties, either expressed or 
#implied, including, but not limited to, the implied warranties of merchantability or fitness 
#for a particular purpose, with respect to the services rendered.  In no event will 
#Halliburton be liable for failure to obtain any particular results or for 
#any damages, including, but not limited to, indirect, special or consequential damages, 
#resulting from the use of any information or interpretation provided by Halliburton.
#
~A           TIME           GTDEPTH  GTPQH  GTTQ  GTTN  GTET   GTTVD  
# ...
   21:09:09.043.16-Jul-2020 4135.51 4644.57 77.12 7.00  46.03 2799.87
   21:09:09.243.16-Jul-2020 4135.51 4644.57 77.12 7.00  46.23 2799.87
   21:09:09.443.16-Jul-2020 4135.51 4652.12 77.12 7.00  46.43 2799.87
   21:09:09.644.16-Jul-2020 4135.51 4651.62 77.12 7.00  46.63 2799.87
   21:09:09.844.16-Jul-2020 4135.51 4650.74 77.12 7.00  46.83 2799.87
   21:09:10.044.16-Jul-2020 4135.51 4647.90 77.12 7.00  47.03 2799.87
   21:09:10.244.16-Jul-2020 4135.51 4647.90 77.12 7.00  47.23 2799.87
   21:09:10.444.16-Jul-2020 4135.51 4644.09 77.11 7.00  47.43 2799.87
   21:09:10.644.16-Jul-2020 4135.51 4630.69 77.11 7.00  47.63 2799.87
   21:09:10.844.16-Jul-2020 4135.51 4621.15 77.11 7.00  47.83 2799.87
   21:09:11.044.16-Jul-2020 4135.51 4599.82 77.11 7.00  48.03 2799.87
   21:09:11.244.16-Jul-2020 4135.51 4599.82 77.11 7.00  48.23 2799.87
   21:09:11.445.16-Jul-2020 4135.51 4646.00 77.11 7.00  48.43 2799.87
   21:09:11.645.16-Jul-2020 4135.51 4696.94 77.11 7.00  48.63 2799.87
   21:09:11.845.16-Jul-2020 4135.51 4699.42 77.11 7.00  48.83 2799.87
   21:09:12.045.16-Jul-2020 4135.51 4699.68 77.11 7.00  49.03 2799.87
   21:09:12.245.16-Jul-2020 4135.51 4699.68 77.11 7.00  49.23 2799.87
   21:09:12.445.16-Jul-2020 4135.51 4699.62 77.11 7.00  49.43 2799.87
   21:09:12.645.16-Jul-2020 4135.51 4699.68 77.11 7.00  49.63 2799.87
   21:09:12.845.16-Jul-2020 4135.51 4699.70 77.10 7.00  49.83 2799.87
   21:09:13.045.16-Jul-2020 4135.51 4699.75 77.10 7.00  50.03 2799.87
   21:09:13.246.16-Jul-2020 4135.51 4699.75 77.10 7.00  50.23 2799.87
   21:09:13.446.16-Jul-2020 4135.51 4699.81 77.10 7.00  50.43 2799.87
   21:09:13.646.16-Jul-2020 4135.51 4699.83 77.10 7.00  50.63 2799.87
   21:09:13.846.16-Jul-2020 4135.51 4699.83 77.10 7.00  50.83 2799.87
   21:09:14.046.16-Jul-2020 4135.51 4699.87 77.10 7.00  51.03 2799.87
   21:09:14.246.16-Jul-2020 4135.51 4699.86 77.10 7.00  51.23 2799.87
   21:09:14.446.16-Jul-2020 4135.51 4699.89 77.10 7.00  51.43 2799.87
   21:09:14.646.16-Jul-2020 4135.51 4699.88 77.10 7.00  51.63 2799.87
   21:09:14.846.16-Jul-2020 4135.51 4699.90 77.10 7.00  51.83 2799.87
   21:09:15.047.16-Jul-2020 4135.51 4699.91 77.10 7.00  52.03 2799.87
   21:09:15.247.16-Jul-2020 4135.51 4699.91 77.10 7.00  52.23 2799.87
   21:09:15.447.16-Jul-2020 4135.51 4699.82 77.10 7.00  52.43 2799.87
   21:09:15.647.16-Jul-2020 4135.51 4699.84 77.10 7.00  52.63 2799.87
   21:09:15.847.16-Jul-2020 4135.51 4699.90 77.10 7.00  52.83 2799.87
   21:09:16.047.16-Jul-2020 4135.51 4699.86 77.10 7.00  53.03 2799.87
   21:09:16.247.16-Jul-2020 4135.51 4699.86 77.10 7.00  53.23 2799.87
   21:09:16.447.16-Jul-2020 4135.51 4699.87 77.10 7.00  53.43 2799.87
   21:09:16.647.16-Jul-2020 4135.51 4699.84 77.10 7.00  53.63 2799.87
   21:09:16.848.16-Jul-2020 4135.51 4699.89 77.10 7.00  53.83 2799.87
   21:09:17.048.16-Jul-2020 4135.51 4699.89 77.10 7.00  54.03 2799.87
   21:09:17.248.16-Jul-2020 4135.51 4699.89 77.10 7.00  54.23 2799.87
   21:09:17.448.16-Jul-2020 4135.51 4699.89 77.10 7.00  54.43 2799.87
   21:09:17.648.16-Jul-2020 4135.51 4699.95 77.10 7.00  54.63 2799.87
   21:09:17.848.16-Jul-2020 4135.51 4700.03 77.10 7.00  54.83 2799.87
   21:09:18.048.16-Jul-2020 4135.51 4699.90 77.10 7.00  55.03 2799.87
   21:09:18.248.16-Jul-2020 4135.51 4699.91 77.10 7.00  55.23 2799.87
   21:09:18.449.16-Jul-2020 4135.51 4699.91 77.10 7.00  55.43 2799.87
   21:09:18.649.16-Jul-2020 4135.51 4699.96 77.10 7.00  55.63 2799.87
   21:09:18.849.16-Jul-2020 4135.51 4699.96 77.11 7.00  55.83 2799.87
   21:09:19.049.16-Jul-2020 4135.51 4699.98 77.11 7.00  56.03 2799.87
   21:09:19.249.16-Jul-2020 4135.51 4699.98 77.11 7.00  56.23 2799.87
   21:09:19.449.16-Jul-2020 4135.51 4699.99 77.11 7.00  56.43 2799.87
   21:09:19.649.16-Jul-2020 4135.51 4700.00 77.11 7.00  56.63 2799.87
   21:09:19.849.16-Jul-2020 4135.51 4700.00 77.11 7.00  56.83 2799.87
   21:09:20.049.16-Jul-2020 4135.51 4700.01 77.11 7.00  57.03 2799.87
   21:09:20.250.16-Jul-2020 4135.51 4700.01 77.11 7.00  57.23 2799.87
   21:09:20.450.16-Jul-2020 4135.51 4700.05 77.11 7.00  57.43 2799.87
   21:09:20.650.16-Jul-2020 4135.51 4699.92 77.11 7.00  57.63 2799.87
   21:09:20.850.16-Jul-2020 4135.51 4699.93 77.11 7.00  57.83 2799.87
   21:09:21.050.16-Jul-2020 4135.51 4699.97 77.11 7.00  58.03 2799.87
   21:09:21.250.16-Jul-2020 4135.51 4699.97 77.11 7.00  58.23 2799.87
   21:09:21.450.16-Jul-2020 4135.51 4699.99 77.11 7.00  58.43 2799.87
   21:09:21.650.16-Jul-2020 4135.51 4700.01 77.11 7.00  58.63 2799.87
   21:09:21.850.16-Jul-2020 4135.51 4700.02 77.11 7.00  58.83 2799.87
   21:09:22.051.16-Jul-2020 4135.51 4700.04 77.11 7.00  59.03 2799.87
   21:09:22.251.16-Jul-2020 4135.51 4700.04 77.11 7.00  59.23 2799.87
   21:09:22.451.16-Jul-2020 4135.51 4700.04 77.11 7.00  59.43 2799.87
   21:09:22.651.16-Jul-2020 4135.51 4700.04 77.11 7.00  59.63 2799.87
   21:09:22.851.16-Jul-2020 4135.51 4700.06 77.11 7.00  59.83 2799.87
   21:09:23.051.16-Jul-2020 4135.51 4700.06 77.11 7.00  60.03 2799.87
   21:09:23.251.16-Jul-2020 4135.51 4700.06 77.11 7.00  60.23 2799.87
   21:09:23.451.16-Jul-2020 4135.51 4700.07 77.11 7.00  60.43 2799.87
   21:09:23.651.16-Jul-2020 4135.51 4700.11 77.11 7.00  60.63 2799.87
   21:09:23.852.16-Jul-2020 4135.51 4699.99 77.11 7.00  60.83 2799.87
   21:09:24.052.16-Jul-2020 4135.51 4699.97 77.11 7.00  61.03 2799.87
   21:09:24.252.16-Jul-2020 4135.51 4699.97 77.11 7.00  61.23 2799.87
   21:09:24.452.16-Jul-2020 4135.51 4700.02 77.11 7.00  61.43 2799.87
   21:09:24.652.16-Jul-2020 4135.51 4699.97 77.11 7.00  61.63 2799.87
   21:09:24.852.16-Jul-2020 4135.51 4700.01 77.11 7.00  61.84 2799.87
   21:09:25.052.16-Jul-2020 4135.51 4700.01 77.11 7.00  62.04 2799.87
   21:09:25.252.16-Jul-2020 4135.51 4700.01 77.11 7.00  62.24 2799.87
   21:09:25.452.16-Jul-2020 4135.51 4700.05 77.11 7.00  62.44 2799.87
   21:09:25.653.16-Jul-2020 4135.51 4700.18 77.11 7.00  62.64 2799.87
   21:09:25.853.16-Jul-2020 4135.51 4699.99 77.11 7.00  62.84 2799.87
   21:09:26.053.16-Jul-2020 4135.51 4700.00 77.11 7.00  63.04 2799.87
   21:09:26.253.16-Jul-2020 4135.51 4700.05 77.11 7.00  63.24 2799.87
   21:09:26.453.16-Jul-2020 4135.51 4700.14 77.11 7.00  63.44 2799.87
   21:09:26.653.16-Jul-2020 4135.51 4700.00 77.11 7.00  63.64 2799.87
   21:09:26.853.16-Jul-2020 4135.51 4699.99 77.11 7.00  63.84 2799.87
   21:09:27.053.16-Jul-2020 4135.51 4700.05 77.11 7.00  64.04 2799.87
   21:09:27.253.16-Jul-2020 4135.51 4700.05 77.11 7.00  64.24 2799.87
   21:09:27.454.16-Jul-2020 4135.51 4700.06 77.11 7.00  64.44 2799.87
   21:09:27.654.16-Jul-2020 4135.51 4700.11 77.11 7.00  64.64 2799.87
   21:09:27.854.16-Jul-2020 4135.51 4700.09 77.11 7.00  64.84 2799.87
   21:09:28.054.16-Jul-2020 4135.51 4700.11 77.11 7.00  65.04 2799.87
   21:09:28.254.16-Jul-2020 4135.51 4700.11 77.11 7.00  65.24 2799.87
   21:09:28.454.16-Jul-2020 4135.51 4700.13 77.11 7.00  65.44 2799.87
   21:09:28.654.16-Jul-2020 4135.51 4700.12 77.11 7.00  65.64 2799.87
   21:09:28.854.16-Jul-2020 4135.51 4700.14 77.11 7.00  65.84 2799.87
   21:09:29.055.16-Jul-2020 4135.51 4700.17 77.11 7.00  66.04 2799.87
   21:09:29.255.16-Jul-2020 4135.51 4700.17 77.11 7.00  66.24 2799.87
   21:09:29.455.16-Jul-2020 4135.51 4700.08 77.11 7.00  66.44 2799.87
   21:09:29.655.16-Jul-2020 4135.51 4700.07 77.11 7.00  66.64 2799.87
   21:09:29.855.16-Jul-2020 4135.51 4700.10 77.11 7.00  66.84 2799.87
   21:09:30.055.16-Jul-2020 4135.51 4700.11 77.11 7.00  67.04 2799.87
   21:09:30.255.16-Jul-2020 4135.51 4700.11 77.11 7.00  67.24 2799.87
   21:09:30.455.16-Jul-2020 4135.51 4700.14 77.12 7.00  67.44 2799.87
   21:09:30.655.16-Jul-2020 4135.51 4700.13 77.12 7.00  67.64 2799.87
   21:09:30.856.16-Jul-2020 4135.51 4700.16 77.12 7.00  67.84 2799.87
   21:09:31.056.16-Jul-2020 4135.51 4700.14 77.12 7.00  68.04 2799.87
   21:09:31.256.16-Jul-2020 4135.51 4700.14 77.12 7.00  68.24 2799.87
   21:09:31.456.16-Jul-2020 4135.51 4700.16 77.12 7.00  68.44 2799.87
   21:09:31.656.16-Jul-2020 4135.51 4700.16 77.12 7.00  68.64 2799.87
   21:09:31.856.16-Jul-2020 4135.51 4700.18 77.12 7.00  68.84 2799.87
