~Version Information
 VERS.                  2.0:   CWLS log ASCII Standard -VERSION 2.0
 WRAP.                   NO:   One line per depth step
~Well Information Block
#MNEM.UNIT     VALUE/NAME     DESCRIPTION
#---------     -----------    ---------------------------
 STRT.S             18:36:16 16-Jul-20: START TIME 18:36:16 16-Jul-20
 STOP.S             18:43:12 16-Jul-20: STOP TIME  18:43:12 16-Jul-20
 STEP.S                   0.00: STEP TIME
 NULL.                 -999.25: NULL VALUE
 MDS .        Operator Entered:  MAG DATA SOURCE
 UNIT.                     N/A:  LOGGING EQUIPMENT ID
 DCON.         Sperry Drilling:  DIRECTNL CONTR
 DOE .                     N/A:  DOE NUMBER
 RIG .               EastAzeri:  RIG NAME
 JOBN.        AZ-XX-0906363297:  JOB TICKET NUMB
 MWDS.                    Baku:  MWD SHOP
 SRVC.     Turan Drilling & Engineering:  CONTRACTOR
 PROV.                    Baku:  PROVINCE
 STAT.                    Baku:  STATE NAME
 REGN.                   EESSA:  REGION
 BASE.              Azerbaijan:  LOGGING EQUIPMENT BASE LOCATION
 WTYP.                Deviated:  WELL TYPE
 UWI .                     N/A:  UNIQUE WELL IDENTIFIER
 API .                     N/A:  API NUMBER
 COMP.     BP Exploration (Caspian Sea) ltd.:  COMPANY
 WELL.                    D07z:  WELL NAME
 CTRY.              Azerbaijan:  COUNTRY NAME
 SON .        AZ-XX-0906363297:  JOB NUMBER
 FLD .                     ACG:  FIELD NAME
 PDAT.          Mean Sea Level:  PERMANENT DATUM
 FTOP.          Formation Tops:  FORM TOPS DESC
 ILTD.               Lithology:  INTERP LTH DESC
 SVYD.                  Survey:  SURVEY DESC
 DMOD.             Drill Model:  DRILL MOD DESC
 HPTY.       Minimum Curvature:  HOLE POS TYPE
 NREF.                    Grid:  NORTH REFERENCE
 SPUD.               28-Jun-20:  SPUD DATE
 DATE.      18.27.12 28-Jun-20:  END TIME
 STIM.      18.27.12 28-Jun-20:  START TIME
 DMF .             Drill Floor:  DRILL MEAS FROM
 DFST.                        :  DIST FSL TEXT
 DFWT.                        :  DIST FWL TEXT
 CNTY.                        :  COUNTY
 LOC .                        :  LOCATION
 LMF .             Drill Floor:  LOG MEASURED FROM
 VSNS.m                  -7.75:  VERT SEC N/S
 VSEW.m                  -9.19:  VERT SEC E/W
 MMDE.m                   0.00:  MAGUTM CALC DEP
 AGAP.m                  43.60:  AIR GAP
 DEP .m                4058.99:  DEPTH
 APD .m                  43.60:  DEPTH ABOVE PD
 WDMS.m                 151.80:  WD ELEV
 EGL .m                   0.00:  GROUND ELEVATION
 EPD .m                   0.00:  ELEVATION
 AZTC.deg                 6.19:  AZM TOTAL CORR
 GRDC.deg                 0.27:  GRID CORRECTION
 MDEC.deg                 6.46:  MAGNETIC DECL
 MDIP.deg                59.47:  MAGNETIC DIP
 MFLD.nT              50279.00:  MAGNETIC FIELD
 GVFD.g                   1.00:  GRAVITY FIELD
 VSDR.deg               249.96:  VERT SEC DIRECT
 TDD .m                   0.00:  TOTAL DEPTH (DRILLER)
 SDEP.m                   0.00:  START DEPTH
 DFSL.m                   0.00:  DISTANCE FSL
 DFWL.m                   0.00:  DISTANCE FWL
 UTMY.m             4431880.20:  UTM Y
 UTMX.m              538763.98:  UTM X
 WHEW.m                  -9.19:  WELL HEAD E/W
 WHNS.m                  -7.75:  WELL HEAD N/S
 LONG.deg                51.45:  LONGITUDE
 LATI.deg                40.02:  LATITUDE
 TVDS.m                  43.60:  TVDSS CORRECTN
 EKB .m                  43.60:  KB ELEVATION
 EDF .m                  43.60:  DF ELEVATION
 TDL .m                 248.00:  TOTAL DEPTH (LOGGER)
 MAGU.                 1849075:  MAGUTM CHECKSUM
 VSC .                       0:  VS TO CLOSURE
~Parameter Information Block
#MNEM.UNIT       Value        Description
#---------     -----------    ---------------------------
 AV  .mps                 6.34:  Ann Velocity 
 AVMX.mps                 7.00:  Max Ann Veloc 
 AZIF.deg               260.29:  Azm, Final 
 BHAT.        Rotary Steerable:  BHA Type 
 BROT.°/30m               1.20:  Build Rotating 
 BS  .in                  8.50:  Bit Size 
 BSZ .in                  8.50:  Bit Size 
 BTPL.psig              620.00:  Bit Press Loss 
 CABU.                     Yes:  Customer Abuse 
 COMM.                     Ì>`:  Run Comments 1 
 TCS .hr                 56.22:  Time Ciculation Ended 
 CV  .mps                 3.05:  Crit Velocity 
 CVMX.mps                 3.20:  Max Crit Veloc 
 DD1 .            Musa Ahmadov:  Direct Drillr 1 
 DDSV.                 iCruise:  DD Service 
 DEFF.%                  98.00:  % Det Eff 
 DLRX.°/30m               2.78:  Dogleg Rot Max 
 DLSO.°/30m               0.00:  Dogleg Oriented 
 DLSX.°/30m               0.00:  Dogleg Str Max 
 DRET.      05.20.48 16-Jul-20:  Drill End Time 
 DRST.      10.20.48 13-Jul-20:  Drill Start Tim 
 DTIM.hr                 14.25:  Time Drilling 
 EDEP.m                4326.01:  End Depth 
 ENG1.      Artemiy Matviyanov:  Engineer 1 
 ENG2.           Amrah Tahirov:  Engineer 2 
 ETIM.      22.30.00 18-Jul-20:  End Time 
 FLOI.gpm               550.00:  Flow In 
 FLON.gpm               450.00:  Flow In Min 
 FLOS.cptm                0.00:  Fluid Loss 
 FLOX.gpm               600.00:  Flow In Max 
 HFLO.                      No:  High Flow 
 HPRE.                      No:  High Pressure 
 HTEM.                      No:  High Temp 
 HYDO.m                   1.80:  Hydro Offset 
 IFIN.deg                65.41:  Inc, Final 
 IMAX.deg                65.14:  Inc Max 
 IMIN.deg                58.89:  Inc Min 
 IMND.m                4104.92:  Inc Min Depth 
 IMXD.m                4303.89:  Inc Max Depth 
 JARR.                      No:  Jarring 
 LETM.      10.20.48 17-Jul-20:  Log End Time 
 LOST.hr                     0:  Lost Rig Time 
 LSTM.      10.20.48 13-Jul-20:  Log Start Time 
 MDCL.ppm             37000.00:  Mud Chlorides 
 MDES.     Inversion Oil/Synthetic:  Mud Desc 
 DFD .sg                  1.52:  Mud Density 
 MDMN.sg                  1.52:  Dens Mud Min 
 MDMX.sg                  1.52:  Dens Mud Max 
 MOIL.                   52.70:  Run Mud Oil % 
 MOWR.                   68:32:  Run Mud OWR 
 MSND.                     0.2:  Run Mud Sand % 
 MSOL.                    21.6:  Run Mud Solids% 
 DFV .spqt               79.00:  Mud Viscosity 
 MWOD.in                  6.75:  MWD Tool OD 
 MWSI.                      No:  Serv Intrp, MWD 
 OTIM.hr                114.04:  Time Operating 
 PCON.          Wear / Scratch:  Pad Condition 
 PMAX.psia            11782.92:  Press Op, Max 
 PV  .cP                 49.00:  Mud PV 
 RUN .                     600:  Run Number 
 ROPA.m/hr               20.00:  ROP Avg 
 ROPN.m/hr               15.00:  ROP Min 
 ROPX.m/hr               22.00:  ROP Max 
 RPMA.rpm               120.00:  RPM Surface Avg 
 RPMN.rpm                90.00:  RPM Surface Min 
 RPMX.rpm               140.00:  RPM Surface Max 
 RRUN.                     600:  Rig Run Number 
 SAZI.deg               260.29:  Azm, Start 
 SDEP.m                4078.01:  Start Depth 
 SIDD.                      No:  Serv Intrp, DD 
 SINC.deg                58.89:  Inc, Start 
 SPPA.psig             4560.00:  SPP Avg 
 SPPN.psig             3600.00:  SPP Min 
 SPPX.psig             4800.00:  SPP Max 
 STIM.      10.20.48 13-Jul-20:  Start Time 
 SVCS.                 DD, MWD:  Services 
 SVER.                    9.20:  Sperry Version 
 TDAT.m                4378.01:  Tot Depth Attmp 
 TDDF.                      No:  Trip for DD 
 TDLG.m                 248.00:  Tot Depth Loggd 
 TFF .                      No:  Trip for Fail 
 TQAA.f-kp               18.00:  Torque Abs Avg 
 TQAN.f-kp               15.00:  Torque Abs Min 
 TQAX.f-kp               20.00:  Torque Abs Max 
 TRRT.°/30m               0.70:  Turn Rotating 
 MRT .                    HCIM:  Maximum Recorded Temperature 
 TTMX.degC               86.00:  Max Tool Temp 
 WBMN.klb                 3.00:  WOB Min 
 WOBA.klb                 5.00:  WOB Avg 
 WOBX.klb                 9.00:  WOB Max 
 YP  .lhf2               32.00:  Yield Point 
~Curve Information Block
#MNEM.UNIT                 API CODE     Curve Description
#---------               -----------    ---------------------------
 TIME.HHMMSS            00 000 000 000:  GT Time & Date
 GTDEPTH.m              00 000 000 000:  GT Depth
 GTPQH.psia             00 000 000 000:  GT HR Quartz Pressure
 GTTQ.degC              00 000 000 000:  GT Quartz Temperature
 GTTN.NONE              00 000 000 000:  GT Test Number
 GTET.sec               00 000 000 000:  GT Elapsed Test Time
 GTTVD.m                00 000 000 000:  GT True Vertical Depth
#Other Information
#
#WARRANTY: Halliburton will use its best efforts to furnish customers with 
#accurate information and interpretations that are part of, and incident to, the services 
#provided.  However, Halliburton cannot and does not warrant the accuracy 
#or correctness of such information and interpretations.  Under no circumstances should any 
#such information or interpretation be relied upon as the sole basis for any drilling, 
#completion, production, or financial decision or any procedure involving any risk to the 
#safety of any drilling venture, drilling rig or its crew or any other third party.  The 
#Customer has full responsibility for all drilling, completion and production operation.  
#Halliburton makes no representations or warranties, either expressed or 
#implied, including, but not limited to, the implied warranties of merchantability or fitness 
#for a particular purpose, with respect to the services rendered.  In no event will 
#Halliburton be liable for failure to obtain any particular results or for 
#any damages, including, but not limited to, indirect, special or consequential damages, 
#resulting from the use of any information or interpretation provided by Halliburton.
#
~A           TIME           GTDEPTH  GTPQH  GTTQ  GTTN  GTET   GTTVD  
# ...
   18:38:57.650.16-Jul-2020 4198.01 4795.24 79.30 5.00 160.94 2828.58
   18:38:57.850.16-Jul-2020 4198.01 4795.24 79.30 5.00 161.14 2828.58
   18:38:58.050.16-Jul-2020 4198.01 4795.39 79.30 5.00 161.34 2828.58
   18:38:58.250.16-Jul-2020 4198.01 4795.44 79.30 5.00 161.54 2828.58
   18:38:58.450.16-Jul-2020 4198.01 4795.17 79.30 5.00 161.74 2828.58
   18:38:58.650.16-Jul-2020 4198.01 4795.22 79.30 5.00 161.94 2828.58
   18:38:58.850.16-Jul-2020 4198.01 4795.25 79.30 5.00 162.14 2828.58
   18:38:59.050.16-Jul-2020 4198.01 4795.40 79.30 5.00 162.34 2828.58
   18:38:59.250.16-Jul-2020 4198.01 4795.08 79.30 5.00 162.54 2828.58
   18:38:59.450.16-Jul-2020 4198.01 4795.33 79.30 5.00 162.74 2828.58
   18:38:59.650.16-Jul-2020 4198.01 4795.32 79.30 5.00 162.94 2828.58
   18:38:59.850.16-Jul-2020 4198.01 4795.32 79.30 5.00 163.14 2828.58
   18:39:00.050.16-Jul-2020 4198.01 4795.42 79.30 5.00 163.34 2828.58
   18:39:00.249.16-Jul-2020 4198.01 4795.24 79.30 5.00 163.54 2828.58
   18:39:00.449.16-Jul-2020 4198.01 4795.33 79.30 5.00 163.74 2828.58
   18:39:00.649.16-Jul-2020 4198.01 4795.35 79.30 5.00 163.94 2828.58
   18:39:00.849.16-Jul-2020 4198.01 4795.35 79.30 5.00 164.14 2828.58
   18:39:01.049.16-Jul-2020 4198.01 4795.38 79.30 5.00 164.34 2828.58
   18:39:01.249.16-Jul-2020 4198.01 4795.20 79.30 5.00 164.54 2828.58
   18:39:01.449.16-Jul-2020 4198.01 4795.45 79.30 5.00 164.74 2828.58
   18:39:01.649.16-Jul-2020 4198.01 4795.65 79.30 5.00 164.94 2828.58
   18:39:01.849.16-Jul-2020 4198.01 4795.24 79.30 5.00 165.14 2828.58
   18:39:02.049.16-Jul-2020 4198.01 4795.15 79.30 5.00 165.34 2828.58
   18:39:02.249.16-Jul-2020 4198.01 4795.63 79.30 5.00 165.54 2828.58
   18:39:02.449.16-Jul-2020 4198.01 4795.53 79.30 5.00 165.74 2828.58
   18:39:02.649.16-Jul-2020 4198.01 4795.51 79.30 5.00 165.94 2828.58
   18:39:02.848.16-Jul-2020 4198.01 4795.37 79.30 5.00 166.14 2828.58
   18:39:03.048.16-Jul-2020 4198.01 4795.50 79.30 5.00 166.34 2828.58
   18:39:03.248.16-Jul-2020 4198.01 4795.32 79.30 5.00 166.54 2828.58
   18:39:03.448.16-Jul-2020 4198.01 4795.47 79.30 5.00 166.74 2828.58
   18:39:03.648.16-Jul-2020 4198.01 4795.62 79.30 5.00 166.94 2828.58
   18:39:03.848.16-Jul-2020 4198.01 4795.39 79.30 5.00 167.14 2828.58
   18:39:04.048.16-Jul-2020 4198.01 4795.61 79.30 5.00 167.34 2828.58
   18:39:04.248.16-Jul-2020 4198.01 4795.26 79.30 5.00 167.54 2828.58
   18:39:04.448.16-Jul-2020 4198.01 4795.63 79.30 5.00 167.74 2828.58
   18:39:04.648.16-Jul-2020 4198.01 4795.45 79.30 5.00 167.94 2828.58
   18:39:04.848.16-Jul-2020 4198.01 4795.45 79.30 5.00 168.14 2828.58
   18:39:05.048.16-Jul-2020 4198.01 4795.57 79.30 5.00 168.34 2828.58
   18:39:05.248.16-Jul-2020 4198.01 4795.40 79.30 5.00 168.54 2828.58
   18:39:05.447.16-Jul-2020 4198.01 4795.57 79.30 5.00 168.74 2828.58
   18:39:05.647.16-Jul-2020 4198.01 4795.49 79.30 5.00 168.94 2828.58
   18:39:05.847.16-Jul-2020 4198.01 4795.44 79.30 5.00 169.14 2828.58
   18:39:06.047.16-Jul-2020 4198.01 4795.53 79.30 5.00 169.34 2828.58
   18:39:06.247.16-Jul-2020 4198.01 4795.55 79.30 5.00 169.54 2828.58
   18:39:06.447.16-Jul-2020 4198.01 4795.41 79.30 5.00 169.74 2828.58
   18:39:06.647.16-Jul-2020 4198.01 4795.30 79.30 5.00 169.94 2828.58
   18:39:06.847.16-Jul-2020 4198.01 4796.00 79.30 5.00 170.14 2828.58
   18:39:07.047.16-Jul-2020 4198.01 4795.45 79.30 5.00 170.34 2828.58
   18:39:07.247.16-Jul-2020 4198.01 4795.65 79.30 5.00 170.54 2828.58
   18:39:07.447.16-Jul-2020 4198.01 4795.50 79.30 5.00 170.74 2828.58
   18:39:07.647.16-Jul-2020 4198.01 4795.50 79.30 5.00 170.94 2828.58
   18:39:07.847.16-Jul-2020 4198.01 4795.50 79.30 5.00 171.14 2828.58
   18:39:08.046.16-Jul-2020 4198.01 4795.52 79.30 5.00 171.34 2828.58
   18:39:08.246.16-Jul-2020 4198.01 4795.65 79.30 5.00 171.54 2828.58
   18:39:08.446.16-Jul-2020 4198.01 4795.44 79.30 5.00 171.74 2828.58
   18:39:08.646.16-Jul-2020 4198.01 4795.63 79.30 5.00 171.94 2828.58
   18:39:08.846.16-Jul-2020 4198.01 4795.63 79.30 5.00 172.14 2828.58
   18:39:09.046.16-Jul-2020 4198.01 4795.53 79.30 5.00 172.34 2828.58
   18:39:09.246.16-Jul-2020 4198.01 4795.64 79.30 5.00 172.54 2828.58
   18:39:09.446.16-Jul-2020 4198.01 4795.49 79.30 5.00 172.74 2828.58
   18:39:09.646.16-Jul-2020 4198.01 4795.64 79.30 5.00 172.94 2828.58
   18:39:09.846.16-Jul-2020 4198.01 4795.19 79.30 5.00 173.13 2828.58
   18:39:10.046.16-Jul-2020 4198.01 4795.95 79.30 5.00 173.33 2828.58
   18:39:10.246.16-Jul-2020 4198.01 4795.57 79.30 5.00 173.53 2828.58
   18:39:10.446.16-Jul-2020 4198.01 4795.61 79.30 5.00 173.73 2828.58
   18:39:10.646.16-Jul-2020 4198.01 4795.60 79.30 5.00 173.93 2828.58
   18:39:10.845.16-Jul-2020 4198.01 4795.57 79.30 5.00 174.13 2828.58
   18:39:11.045.16-Jul-2020 4198.01 4795.56 79.30 5.00 174.33 2828.58
   18:39:11.245.16-Jul-2020 4198.01 4795.62 79.30 5.00 174.53 2828.58
   18:39:11.445.16-Jul-2020 4198.01 4795.68 79.30 5.00 174.73 2828.58
   18:39:11.645.16-Jul-2020 4198.01 4795.54 79.30 5.00 174.93 2828.58
   18:39:11.845.16-Jul-2020 4198.01 4795.54 79.30 5.00 175.13 2828.58
   18:39:12.045.16-Jul-2020 4198.01 4795.39 79.30 5.00 175.33 2828.58
   18:39:12.245.16-Jul-2020 4198.01 4795.65 79.30 5.00 175.53 2828.58
   18:39:12.445.16-Jul-2020 4198.01 4795.73 79.30 5.00 175.73 2828.58
   18:39:12.645.16-Jul-2020 4198.01 4795.62 79.30 5.00 175.93 2828.58
   18:39:12.845.16-Jul-2020 4198.01 4795.62 79.30 5.00 176.13 2828.58
   18:39:13.045.16-Jul-2020 4198.01 4795.57 79.30 5.00 176.33 2828.58
   18:39:13.245.16-Jul-2020 4198.01 4795.69 79.30 5.00 176.53 2828.58
   18:39:13.444.16-Jul-2020 4198.01 4795.69 79.30 5.00 176.73 2828.58
   18:39:13.644.16-Jul-2020 4198.01 4795.65 79.30 5.00 176.93 2828.58
   18:39:13.844.16-Jul-2020 4198.01 4795.54 79.30 5.00 177.13 2828.58
   18:39:14.044.16-Jul-2020 4198.01 4795.64 79.30 5.00 177.33 2828.58
   18:39:14.244.16-Jul-2020 4198.01 4795.52 79.30 5.00 177.53 2828.58
   18:39:14.444.16-Jul-2020 4198.01 4795.71 79.30 5.00 177.73 2828.58
   18:39:14.644.16-Jul-2020 4198.01 4795.50 79.30 5.00 177.93 2828.58
   18:39:14.844.16-Jul-2020 4198.01 4795.57 79.30 5.00 178.13 2828.58
   18:39:15.044.16-Jul-2020 4198.01 4795.75 79.30 5.00 178.33 2828.58
   18:39:15.244.16-Jul-2020 4198.01 4795.53 79.30 5.00 178.53 2828.58
   18:39:15.444.16-Jul-2020 4198.01 4795.65 79.30 5.00 178.73 2828.58
   18:39:15.644.16-Jul-2020 4198.01 4795.50 79.30 5.00 178.93 2828.58
   18:39:15.844.16-Jul-2020 4198.01 4795.50 79.30 5.00 179.13 2828.58
   18:39:16.043.16-Jul-2020 4198.01 4795.56 79.30 5.00 179.33 2828.58
   18:39:16.243.16-Jul-2020 4198.01 4795.71 79.30 5.00 179.53 2828.58
   18:39:16.443.16-Jul-2020 4198.01 4795.65 79.30 5.00 179.73 2828.58
   18:39:16.643.16-Jul-2020 4198.01 4795.60 79.30 5.00 179.93 2828.58
   18:39:16.843.16-Jul-2020 4198.01 4795.60 79.30 5.00 180.13 2828.58
   18:39:17.043.16-Jul-2020 4198.01 4795.46 79.30 5.00 180.33 2828.58
   18:39:17.243.16-Jul-2020 4198.01 4795.82 79.30 5.00 180.53 2828.58
   18:39:17.443.16-Jul-2020 4198.01 4795.47 79.30 5.00 180.73 2828.58
   18:39:17.643.16-Jul-2020 4198.01 4795.62 79.30 5.00 180.93 2828.58
   18:39:17.843.16-Jul-2020 4198.01 4795.62 79.30 5.00 181.13 2828.58
   18:39:18.043.16-Jul-2020 4198.01 4795.48 79.30 5.00 181.33 2828.58
   18:39:18.243.16-Jul-2020 4198.01 4795.72 79.30 5.00 181.53 2828.58
   18:39:18.443.16-Jul-2020 4198.01 4795.62 79.30 5.00 181.73 2828.58
   18:39:18.643.16-Jul-2020 4198.01 4795.62 79.30 5.00 181.93 2828.58
   18:39:18.842.16-Jul-2020 4198.01 4795.61 79.30 5.00 182.13 2828.58
   18:39:19.042.16-Jul-2020 4198.01 4795.60 79.30 5.00 182.33 2828.58
   18:39:19.242.16-Jul-2020 4198.01 4795.74 79.30 5.00 182.53 2828.58
   18:39:19.442.16-Jul-2020 4198.01 4795.73 79.30 5.00 182.73 2828.58
   18:39:19.642.16-Jul-2020 4198.01 4795.71 79.30 5.00 182.93 2828.58
   18:39:19.842.16-Jul-2020 4198.01 4795.71 79.30 5.00 183.13 2828.58
   18:39:20.042.16-Jul-2020 4198.01 4795.59 79.30 5.00 183.33 2828.58
   18:39:20.242.16-Jul-2020 4198.01 4795.70 79.30 5.00 183.53 2828.58
   18:39:20.442.16-Jul-2020 4198.01 4795.67 79.30 5.00 183.73 2828.58
