~Version Information
 VERS.                  2.0:   CWLS log ASCII Standard -VERSION 2.0
 WRAP.                   NO:   One line per depth step
~Well Information Block
#MNEM.UNIT     VALUE/NAME     DESCRIPTION
#---------     -----------    ---------------------------
 STRT.S             18:36:16 16-Jul-20: START TIME 18:36:16 16-Jul-20
 STOP.S             18:43:12 16-Jul-20: STOP TIME  18:43:12 16-Jul-20
 STEP.S                   0.00: STEP TIME
 NULL.                 -999.25: NULL VALUE
 MDS .        Operator Entered:  MAG DATA SOURCE
 UNIT.                     N/A:  LOGGING EQUIPMENT ID
 DCON.         Sperry Drilling:  DIRECTNL CONTR
 DOE .                     N/A:  DOE NUMBER
 RIG .               EastAzeri:  RIG NAME
 JOBN.        AZ-XX-0906363297:  JOB TICKET NUMB
 MWDS.                    Baku:  MWD SHOP
 SRVC.     Turan Drilling & Engineering:  CONTRACTOR
 PROV.                    Baku:  PROVINCE
 STAT.                    Baku:  STATE NAME
 REGN.                   EESSA:  REGION
 BASE.              Azerbaijan:  LOGGING EQUIPMENT BASE LOCATION
 WTYP.                Deviated:  WELL TYPE
 UWI .                     N/A:  UNIQUE WELL IDENTIFIER
 API .                     N/A:  API NUMBER
 COMP.     BP Exploration (Caspian Sea) ltd.:  COMPANY
 WELL.                    D07z:  WELL NAME
 CTRY.              Azerbaijan:  COUNTRY NAME
 SON .        AZ-XX-0906363297:  JOB NUMBER
 FLD .                     ACG:  FIELD NAME
 PDAT.          Mean Sea Level:  PERMANENT DATUM
 FTOP.          Formation Tops:  FORM TOPS DESC
 ILTD.               Lithology:  INTERP LTH DESC
 SVYD.                  Survey:  SURVEY DESC
 DMOD.             Drill Model:  DRILL MOD DESC
 HPTY.       Minimum Curvature:  HOLE POS TYPE
 NREF.                    Grid:  NORTH REFERENCE
 SPUD.               28-Jun-20:  SPUD DATE
 DATE.      18.27.12 28-Jun-20:  END TIME
 STIM.      18.27.12 28-Jun-20:  START TIME
 DMF .             Drill Floor:  DRILL MEAS FROM
 DFST.                        :  DIST FSL TEXT
 DFWT.                        :  DIST FWL TEXT
 CNTY.                        :  COUNTY
 LOC .                        :  LOCATION
 LMF .             Drill Floor:  LOG MEASURED FROM
 VSNS.m                  -7.75:  VERT SEC N/S
 VSEW.m                  -9.19:  VERT SEC E/W
 MMDE.m                   0.00:  MAGUTM CALC DEP
 AGAP.m                  43.60:  AIR GAP
 DEP .m                4058.99:  DEPTH
 APD .m                  43.60:  DEPTH ABOVE PD
 WDMS.m                 151.80:  WD ELEV
 EGL .m                   0.00:  GROUND ELEVATION
 EPD .m                   0.00:  ELEVATION
 AZTC.deg                 6.19:  AZM TOTAL CORR
 GRDC.deg                 0.27:  GRID CORRECTION
 MDEC.deg                 6.46:  MAGNETIC DECL
 MDIP.deg                59.47:  MAGNETIC DIP
 MFLD.nT              50279.00:  MAGNETIC FIELD
 GVFD.g                   1.00:  GRAVITY FIELD
 VSDR.deg               249.96:  VERT SEC DIRECT
 TDD .m                   0.00:  TOTAL DEPTH (DRILLER)
 SDEP.m                   0.00:  START DEPTH
 DFSL.m                   0.00:  DISTANCE FSL
 DFWL.m                   0.00:  DISTANCE FWL
 UTMY.m             4431880.20:  UTM Y
 UTMX.m              538763.98:  UTM X
 WHEW.m                  -9.19:  WELL HEAD E/W
 WHNS.m                  -7.75:  WELL HEAD N/S
 LONG.deg                51.45:  LONGITUDE
 LATI.deg                40.02:  LATITUDE
 TVDS.m                  43.60:  TVDSS CORRECTN
 EKB .m                  43.60:  KB ELEVATION
 EDF .m                  43.60:  DF ELEVATION
 TDL .m                 248.00:  TOTAL DEPTH (LOGGER)
 MAGU.                 1849075:  MAGUTM CHECKSUM
 VSC .                       0:  VS TO CLOSURE
~Parameter Information Block
#MNEM.UNIT       Value        Description
#---------     -----------    ---------------------------
 AV  .mps                 6.34:  Ann Velocity 
 AVMX.mps                 7.00:  Max Ann Veloc 
 AZIF.deg               260.29:  Azm, Final 
 BHAT.        Rotary Steerable:  BHA Type 
 BROT.°/30m               1.20:  Build Rotating 
 BS  .in                  8.50:  Bit Size 
 BSZ .in                  8.50:  Bit Size 
 BTPL.psig              620.00:  Bit Press Loss 
 CABU.                     Yes:  Customer Abuse 
 COMM.                     Ì>`:  Run Comments 1 
 TCS .hr                 56.22:  Time Ciculation Ended 
 CV  .mps                 3.05:  Crit Velocity 
 CVMX.mps                 3.20:  Max Crit Veloc 
 DD1 .            Musa Ahmadov:  Direct Drillr 1 
 DDSV.                 iCruise:  DD Service 
 DEFF.%                  98.00:  % Det Eff 
 DLRX.°/30m               2.78:  Dogleg Rot Max 
 DLSO.°/30m               0.00:  Dogleg Oriented 
 DLSX.°/30m               0.00:  Dogleg Str Max 
 DRET.      05.20.48 16-Jul-20:  Drill End Time 
 DRST.      10.20.48 13-Jul-20:  Drill Start Tim 
 DTIM.hr                 14.25:  Time Drilling 
 EDEP.m                4326.01:  End Depth 
 ENG1.      Artemiy Matviyanov:  Engineer 1 
 ENG2.           Amrah Tahirov:  Engineer 2 
 ETIM.      22.30.00 18-Jul-20:  End Time 
 FLOI.gpm               550.00:  Flow In 
 FLON.gpm               450.00:  Flow In Min 
 FLOS.cptm                0.00:  Fluid Loss 
 FLOX.gpm               600.00:  Flow In Max 
 HFLO.                      No:  High Flow 
 HPRE.                      No:  High Pressure 
 HTEM.                      No:  High Temp 
 HYDO.m                   1.80:  Hydro Offset 
 IFIN.deg                65.41:  Inc, Final 
 IMAX.deg                65.14:  Inc Max 
 IMIN.deg                58.89:  Inc Min 
 IMND.m                4104.92:  Inc Min Depth 
 IMXD.m                4303.89:  Inc Max Depth 
 JARR.                      No:  Jarring 
 LETM.      10.20.48 17-Jul-20:  Log End Time 
 LOST.hr                     0:  Lost Rig Time 
 LSTM.      10.20.48 13-Jul-20:  Log Start Time 
 MDCL.ppm             37000.00:  Mud Chlorides 
 MDES.     Inversion Oil/Synthetic:  Mud Desc 
 DFD .sg                  1.52:  Mud Density 
 MDMN.sg                  1.52:  Dens Mud Min 
 MDMX.sg                  1.52:  Dens Mud Max 
 MOIL.                   52.70:  Run Mud Oil % 
 MOWR.                   68:32:  Run Mud OWR 
 MSND.                     0.2:  Run Mud Sand % 
 MSOL.                    21.6:  Run Mud Solids% 
 DFV .spqt               79.00:  Mud Viscosity 
 MWOD.in                  6.75:  MWD Tool OD 
 MWSI.                      No:  Serv Intrp, MWD 
 OTIM.hr                114.04:  Time Operating 
 PCON.          Wear / Scratch:  Pad Condition 
 PMAX.psia            11782.92:  Press Op, Max 
 PV  .cP                 49.00:  Mud PV 
 RUN .                     600:  Run Number 
 ROPA.m/hr               20.00:  ROP Avg 
 ROPN.m/hr               15.00:  ROP Min 
 ROPX.m/hr               22.00:  ROP Max 
 RPMA.rpm               120.00:  RPM Surface Avg 
 RPMN.rpm                90.00:  RPM Surface Min 
 RPMX.rpm               140.00:  RPM Surface Max 
 RRUN.                     600:  Rig Run Number 
 SAZI.deg               260.29:  Azm, Start 
 SDEP.m                4078.01:  Start Depth 
 SIDD.                      No:  Serv Intrp, DD 
 SINC.deg                58.89:  Inc, Start 
 SPPA.psig             4560.00:  SPP Avg 
 SPPN.psig             3600.00:  SPP Min 
 SPPX.psig             4800.00:  SPP Max 
 STIM.      10.20.48 13-Jul-20:  Start Time 
 SVCS.                 DD, MWD:  Services 
 SVER.                    9.20:  Sperry Version 
 TDAT.m                4378.01:  Tot Depth Attmp 
 TDDF.                      No:  Trip for DD 
 TDLG.m                 248.00:  Tot Depth Loggd 
 TFF .                      No:  Trip for Fail 
 TQAA.f-kp               18.00:  Torque Abs Avg 
 TQAN.f-kp               15.00:  Torque Abs Min 
 TQAX.f-kp               20.00:  Torque Abs Max 
 TRRT.°/30m               0.70:  Turn Rotating 
 MRT .                    HCIM:  Maximum Recorded Temperature 
 TTMX.degC               86.00:  Max Tool Temp 
 WBMN.klb                 3.00:  WOB Min 
 WOBA.klb                 5.00:  WOB Avg 
 WOBX.klb                 9.00:  WOB Max 
 YP  .lhf2               32.00:  Yield Point 
~Curve Information Block
#MNEM.UNIT                 API CODE     Curve Description
#---------               -----------    ---------------------------
 TIME.HHMMSS            00 000 000 000:  GT Time & Date
 GTDEPTH.m              00 000 000 000:  GT Depth
 GTPQH.psia             00 000 000 000:  GT HR Quartz Pressure
 GTTQ.degC              00 000 000 000:  GT Quartz Temperature
 GTTN.NONE              00 000 000 000:  GT Test Number
 GTET.sec               00 000 000 000:  GT Elapsed Test Time
 GTTVD.m                00 000 000 000:  GT True Vertical Depth
#Other Information
#
#WARRANTY: Halliburton will use its best efforts to furnish customers with 
#accurate information and interpretations that are part of, and incident to, the services 
#provided.  However, Halliburton cannot and does not warrant the accuracy 
#or correctness of such information and interpretations.  Under no circumstances should any 
#such information or interpretation be relied upon as the sole basis for any drilling, 
#completion, production, or financial decision or any procedure involving any risk to the 
#safety of any drilling venture, drilling rig or its crew or any other third party.  The 
#Customer has full responsibility for all drilling, completion and production operation.  
#Halliburton makes no representations or warranties, either expressed or 
#implied, including, but not limited to, the implied warranties of merchantability or fitness 
#for a particular purpose, with respect to the services rendered.  In no event will 
#Halliburton be liable for failure to obtain any particular results or for 
#any damages, including, but not limited to, indirect, special or consequential damages, 
#resulting from the use of any information or interpretation provided by Halliburton.
#
~A           TIME           GTDEPTH  GTPQH  GTTQ  GTTN  GTET   GTTVD  
# ...
   18:40:29.616.16-Jul-2020 4198.01 4473.15 79.29 5.00 252.91 2828.58
   18:40:29.816.16-Jul-2020 4198.01 4479.37 79.29 5.00 253.10 2828.58
   18:40:30.016.16-Jul-2020 4198.01 4479.06 79.29 5.00 253.30 2828.58
   18:40:30.216.16-Jul-2020 4198.01 4479.47 79.29 5.00 253.50 2828.58
   18:40:30.416.16-Jul-2020 4198.01 4481.00 79.29 5.00 253.70 2828.58
   18:40:30.615.16-Jul-2020 4198.01 4474.71 79.29 5.00 253.90 2828.58
   18:40:30.815.16-Jul-2020 4198.01 4474.71 79.29 5.00 254.10 2828.58
   18:40:31.015.16-Jul-2020 4198.01 4484.53 79.29 5.00 254.30 2828.58
   18:40:31.215.16-Jul-2020 4198.01 4483.51 79.29 5.00 254.50 2828.58
   18:40:31.415.16-Jul-2020 4198.01 4485.56 79.29 5.00 254.70 2828.58
   18:40:31.615.16-Jul-2020 4198.01 4486.55 79.29 5.00 254.90 2828.58
   18:40:31.815.16-Jul-2020 4198.01 4472.09 79.29 5.00 255.10 2828.58
   18:40:32.015.16-Jul-2020 4198.01 4468.73 79.29 5.00 255.30 2828.58
   18:40:32.215.16-Jul-2020 4198.01 4469.26 79.29 5.00 255.50 2828.58
   18:40:32.415.16-Jul-2020 4198.01 4468.44 79.29 5.00 255.70 2828.58
   18:40:32.615.16-Jul-2020 4198.01 4466.01 79.29 5.00 255.90 2828.58
   18:40:32.815.16-Jul-2020 4198.01 4466.01 79.29 5.00 256.10 2828.58
   18:40:33.015.16-Jul-2020 4198.01 4465.20 79.28 5.00 256.30 2828.58
   18:40:33.215.16-Jul-2020 4198.01 4462.62 79.28 5.00 256.50 2828.58
   18:40:33.414.16-Jul-2020 4198.01 4478.28 79.28 5.00 256.70 2828.58
   18:40:33.614.16-Jul-2020 4198.01 4489.83 79.28 5.00 256.90 2828.58
   18:40:33.814.16-Jul-2020 4198.01 4492.05 79.28 5.00 257.10 2828.58
   18:40:34.014.16-Jul-2020 4198.01 4473.75 79.28 5.00 257.30 2828.58
   18:40:34.214.16-Jul-2020 4198.01 4470.39 79.28 5.00 257.50 2828.58
   18:40:34.414.16-Jul-2020 4198.01 4466.20 79.28 5.00 257.70 2828.58
   18:40:34.614.16-Jul-2020 4198.01 4465.34 79.28 5.00 257.90 2828.58
   18:40:34.814.16-Jul-2020 4198.01 4469.08 79.28 5.00 258.10 2828.58
   18:40:35.014.16-Jul-2020 4198.01 4470.77 79.28 5.00 258.30 2828.58
   18:40:35.214.16-Jul-2020 4198.01 4471.28 79.28 5.00 258.50 2828.58
   18:40:35.414.16-Jul-2020 4198.01 4469.43 79.28 5.00 258.70 2828.58
   18:40:35.614.16-Jul-2020 4198.01 4465.99 79.28 5.00 258.90 2828.58
   18:40:35.814.16-Jul-2020 4198.01 4465.99 79.28 5.00 259.10 2828.58
   18:40:36.013.16-Jul-2020 4198.01 4462.89 79.28 5.00 259.30 2828.58
   18:40:36.213.16-Jul-2020 4198.01 4459.25 79.28 5.00 259.50 2828.58
   18:40:36.413.16-Jul-2020 4198.01 4466.01 79.28 5.00 259.70 2828.58
   18:40:36.613.16-Jul-2020 4198.01 4472.46 79.28 5.00 259.90 2828.58
   18:40:36.813.16-Jul-2020 4198.01 4472.46 79.28 5.00 260.10 2828.58
   18:40:37.013.16-Jul-2020 4198.01 4466.28 79.28 5.00 260.30 2828.58
   18:40:37.213.16-Jul-2020 4198.01 4465.43 79.28 5.00 260.50 2828.58
   18:40:37.413.16-Jul-2020 4198.01 4465.05 79.28 5.00 260.70 2828.58
   18:40:37.613.16-Jul-2020 4198.01 4464.87 79.28 5.00 260.90 2828.58
   18:40:37.813.16-Jul-2020 4198.01 4464.87 79.28 5.00 261.10 2828.58
   18:40:38.013.16-Jul-2020 4198.01 4467.81 79.28 5.00 261.30 2828.58
   18:40:38.213.16-Jul-2020 4198.01 4466.54 79.28 5.00 261.50 2828.58
   18:40:38.413.16-Jul-2020 4198.01 4466.83 79.28 5.00 261.70 2828.58
   18:40:38.612.16-Jul-2020 4198.01 4463.70 79.28 5.00 261.90 2828.58
   18:40:38.812.16-Jul-2020 4198.01 4464.27 79.28 5.00 262.10 2828.58
   18:40:39.012.16-Jul-2020 4198.01 4593.18 79.28 5.00 262.30 2828.58
   18:40:39.212.16-Jul-2020 4198.01 4746.96 79.28 5.00 262.50 2828.58
   18:40:39.412.16-Jul-2020 4198.01 4784.58 79.28 5.00 262.70 2828.58
   18:40:39.612.16-Jul-2020 4198.01 4791.58 79.28 5.00 262.90 2828.58
   18:40:39.812.16-Jul-2020 4198.01 4791.58 79.28 5.00 263.10 2828.58
   18:40:40.012.16-Jul-2020 4198.01 4793.51 79.28 5.00 263.30 2828.58
   18:40:40.212.16-Jul-2020 4198.01 4793.60 79.28 5.00 263.50 2828.58
   18:40:40.412.16-Jul-2020 4198.01 4793.93 79.28 5.00 263.70 2828.58
   18:40:40.612.16-Jul-2020 4198.01 4793.80 79.28 5.00 263.90 2828.58
   18:40:40.812.16-Jul-2020 4198.01 4793.80 79.28 5.00 264.10 2828.58
   18:40:41.012.16-Jul-2020 4198.01 4794.66 79.28 5.00 264.30 2828.58
   18:40:41.212.16-Jul-2020 4198.01 4794.50 79.28 5.00 264.50 2828.58
   18:40:41.411.16-Jul-2020 4198.01 4794.67 79.28 5.00 264.70 2828.58
   18:40:41.611.16-Jul-2020 4198.01 4794.50 79.28 5.00 264.90 2828.58
   18:40:41.811.16-Jul-2020 4198.01 4795.06 79.28 5.00 265.10 2828.58
   18:40:42.011.16-Jul-2020 4198.01 4795.08 79.28 5.00 265.30 2828.58
   18:40:42.211.16-Jul-2020 4198.01 4794.69 79.28 5.00 265.50 2828.58
   18:40:42.411.16-Jul-2020 4198.01 4794.83 79.28 5.00 265.70 2828.58
   18:40:42.611.16-Jul-2020 4198.01 4795.24 79.28 5.00 265.90 2828.58
   18:40:42.811.16-Jul-2020 4198.01 4795.14 79.28 5.00 266.10 2828.58
   18:40:43.011.16-Jul-2020 4198.01 4795.14 79.28 5.00 266.30 2828.58
   18:40:43.211.16-Jul-2020 4198.01 4795.21 79.28 5.00 266.50 2828.58
   18:40:43.411.16-Jul-2020 4198.01 4795.07 79.28 5.00 266.70 2828.58
   18:40:43.611.16-Jul-2020 4198.01 4795.22 79.28 5.00 266.90 2828.58
   18:40:43.811.16-Jul-2020 4198.01 4795.22 79.28 5.00 267.10 2828.58
   18:40:44.010.16-Jul-2020 4198.01 4795.09 79.28 5.00 267.30 2828.58
   18:40:44.210.16-Jul-2020 4198.01 4795.34 79.28 5.00 267.50 2828.58
   18:40:44.410.16-Jul-2020 4198.01 4795.20 79.28 5.00 267.70 2828.58
   18:40:44.610.16-Jul-2020 4198.01 4795.24 79.28 5.00 267.90 2828.58
   18:40:44.810.16-Jul-2020 4198.01 4795.24 79.28 5.00 268.10 2828.58
   18:40:45.010.16-Jul-2020 4198.01 4795.10 79.29 5.00 268.30 2828.58
   18:40:45.210.16-Jul-2020 4198.01 4795.55 79.29 5.00 268.50 2828.58
   18:40:45.410.16-Jul-2020 4198.01 4795.35 79.29 5.00 268.70 2828.58
   18:40:45.610.16-Jul-2020 4198.01 4795.52 79.29 5.00 268.90 2828.58
   18:40:45.810.16-Jul-2020 4198.01 4795.30 79.29 5.00 269.10 2828.58
   18:40:46.010.16-Jul-2020 4198.01 4795.33 79.29 5.00 269.30 2828.58
   18:40:46.210.16-Jul-2020 4198.01 4795.43 79.29 5.00 269.50 2828.58
   18:40:46.410.16-Jul-2020 4198.01 4795.38 79.29 5.00 269.70 2828.58
   18:40:46.609.16-Jul-2020 4198.01 4795.44 79.29 5.00 269.90 2828.58
   18:40:46.809.16-Jul-2020 4198.01 4795.39 79.29 5.00 270.10 2828.58
   18:40:47.009.16-Jul-2020 4198.01 4795.36 79.29 5.00 270.30 2828.58
   18:40:47.209.16-Jul-2020 4198.01 4795.50 79.29 5.00 270.50 2828.58
   18:40:47.409.16-Jul-2020 4198.01 4795.42 79.29 5.00 270.70 2828.58
   18:40:47.609.16-Jul-2020 4198.01 4795.37 79.29 5.00 270.90 2828.58
   18:40:47.809.16-Jul-2020 4198.01 4795.57 79.29 5.00 271.10 2828.58
   18:40:48.009.16-Jul-2020 4198.01 4795.34 79.29 5.00 271.30 2828.58
   18:40:48.209.16-Jul-2020 4198.01 4795.20 79.29 5.00 271.50 2828.58
   18:40:48.409.16-Jul-2020 4198.01 4795.75 79.29 5.00 271.70 2828.58
   18:40:48.609.16-Jul-2020 4198.01 4795.55 79.29 5.00 271.90 2828.58
   18:40:48.809.16-Jul-2020 4198.01 4795.55 79.29 5.00 272.10 2828.58
   18:40:49.009.16-Jul-2020 4198.01 4795.13 79.29 5.00 272.30 2828.58
   18:40:49.209.16-Jul-2020 4198.01 4795.86 79.29 5.00 272.50 2828.58
   18:40:49.408.16-Jul-2020 4198.01 4795.54 79.29 5.00 272.70 2828.58
   18:40:49.608.16-Jul-2020 4198.01 4795.66 79.29 5.00 272.90 2828.58
   18:40:49.808.16-Jul-2020 4198.01 4795.66 79.29 5.00 273.10 2828.58
   18:40:50.008.16-Jul-2020 4198.01 4795.60 79.29 5.00 273.30 2828.58
   18:40:50.208.16-Jul-2020 4198.01 4795.53 79.29 5.00 273.50 2828.58
   18:40:50.408.16-Jul-2020 4198.01 4795.54 79.29 5.00 273.70 2828.58
   18:40:50.608.16-Jul-2020 4198.01 4795.59 79.29 5.00 273.90 2828.58
   18:40:50.808.16-Jul-2020 4198.01 4795.59 79.29 5.00 274.10 2828.58
   18:40:51.008.16-Jul-2020 4198.01 4795.51 79.29 5.00 274.30 2828.58
   18:40:51.208.16-Jul-2020 4198.01 4795.56 79.29 5.00 274.50 2828.58
   18:40:51.408.16-Jul-2020 4198.01 4795.90 79.29 5.00 274.70 2828.58
   18:40:51.608.16-Jul-2020 4198.01 4795.44 79.29 5.00 274.90 2828.58
   18:40:51.808.16-Jul-2020 4198.01 4795.44 79.29 5.00 275.10 2828.58
   18:40:52.007.16-Jul-2020 4198.01 4795.56 79.29 5.00 275.30 2828.58
   18:40:52.207.16-Jul-2020 4198.01 4795.62 79.29 5.00 275.50 2828.58
   18:40:52.407.16-Jul-2020 4198.01 4795.64 79.29 5.00 275.70 2828.58
