~Version Information
 VERS.                  2.0:   CWLS log ASCII Standard -VERSION 2.0
 WRAP.                   NO:   One line per depth step
~Well Information Block
#MNEM.UNIT     VALUE/NAME     DESCRIPTION
#---------     -----------    ---------------------------
 STRT.S             17:17:21 16-Jul-20: START TIME 17:17:21 16-Jul-20
 STOP.S             17:24:07 16-Jul-20: STOP TIME  17:24:07 16-Jul-20
 STEP.S                   0.00: STEP TIME
 NULL.                 -999.25: NULL VALUE
 MDS .        Operator Entered:  MAG DATA SOURCE
 UNIT.                     N/A:  LOGGING EQUIPMENT ID
 DCON.         Sperry Drilling:  DIRECTNL CONTR
 DOE .                     N/A:  DOE NUMBER
 RIG .               EastAzeri:  RIG NAME
 JOBN.        AZ-XX-0906363297:  JOB TICKET NUMB
 MWDS.                    Baku:  MWD SHOP
 SRVC.     Turan Drilling & Engineering:  CONTRACTOR
 PROV.                    Baku:  PROVINCE
 STAT.                    Baku:  STATE NAME
 REGN.                   EESSA:  REGION
 BASE.              Azerbaijan:  LOGGING EQUIPMENT BASE LOCATION
 WTYP.                Deviated:  WELL TYPE
 UWI .                     N/A:  UNIQUE WELL IDENTIFIER
 API .                     N/A:  API NUMBER
 COMP.     BP Exploration (Caspian Sea) ltd.:  COMPANY
 WELL.                    D07z:  WELL NAME
 CTRY.              Azerbaijan:  COUNTRY NAME
 SON .        AZ-XX-0906363297:  JOB NUMBER
 FLD .                     ACG:  FIELD NAME
 PDAT.          Mean Sea Level:  PERMANENT DATUM
 FTOP.          Formation Tops:  FORM TOPS DESC
 ILTD.               Lithology:  INTERP LTH DESC
 SVYD.                  Survey:  SURVEY DESC
 DMOD.             Drill Model:  DRILL MOD DESC
 HPTY.       Minimum Curvature:  HOLE POS TYPE
 NREF.                    Grid:  NORTH REFERENCE
 SPUD.               28-Jun-20:  SPUD DATE
 DATE.      18.27.12 28-Jun-20:  END TIME
 STIM.      18.27.12 28-Jun-20:  START TIME
 DMF .             Drill Floor:  DRILL MEAS FROM
 DFST.                        :  DIST FSL TEXT
 DFWT.                        :  DIST FWL TEXT
 CNTY.                        :  COUNTY
 LOC .                        :  LOCATION
 LMF .             Drill Floor:  LOG MEASURED FROM
 VSNS.m                  -7.75:  VERT SEC N/S
 VSEW.m                  -9.19:  VERT SEC E/W
 MMDE.m                   0.00:  MAGUTM CALC DEP
 AGAP.m                  43.60:  AIR GAP
 DEP .m                4058.99:  DEPTH
 APD .m                  43.60:  DEPTH ABOVE PD
 WDMS.m                 151.80:  WD ELEV
 EGL .m                   0.00:  GROUND ELEVATION
 EPD .m                   0.00:  ELEVATION
 AZTC.deg                 6.19:  AZM TOTAL CORR
 GRDC.deg                 0.27:  GRID CORRECTION
 MDEC.deg                 6.46:  MAGNETIC DECL
 MDIP.deg                59.47:  MAGNETIC DIP
 MFLD.nT              50279.00:  MAGNETIC FIELD
 GVFD.g                   1.00:  GRAVITY FIELD
 VSDR.deg               249.96:  VERT SEC DIRECT
 TDD .m                   0.00:  TOTAL DEPTH (DRILLER)
 SDEP.m                   0.00:  START DEPTH
 DFSL.m                   0.00:  DISTANCE FSL
 DFWL.m                   0.00:  DISTANCE FWL
 UTMY.m             4431880.20:  UTM Y
 UTMX.m              538763.98:  UTM X
 WHEW.m                  -9.19:  WELL HEAD E/W
 WHNS.m                  -7.75:  WELL HEAD N/S
 LONG.deg                51.45:  LONGITUDE
 LATI.deg                40.02:  LATITUDE
 TVDS.m                  43.60:  TVDSS CORRECTN
 EKB .m                  43.60:  KB ELEVATION
 EDF .m                  43.60:  DF ELEVATION
 TDL .m                 248.00:  TOTAL DEPTH (LOGGER)
 MAGU.                 1849075:  MAGUTM CHECKSUM
 VSC .                       0:  VS TO CLOSURE
~Parameter Information Block
#MNEM.UNIT       Value        Description
#---------     -----------    ---------------------------
 AV  .mps                 6.34:  Ann Velocity 
 AVMX.mps                 7.00:  Max Ann Veloc 
 AZIF.deg               260.29:  Azm, Final 
 BHAT.        Rotary Steerable:  BHA Type 
 BROT.°/30m               1.20:  Build Rotating 
 BS  .in                  8.50:  Bit Size 
 BSZ .in                  8.50:  Bit Size 
 BTPL.psig              620.00:  Bit Press Loss 
 CABU.                     Yes:  Customer Abuse 
 COMM.                     fb:  Run Comments 1 
 TCS .hr                 56.22:  Time Ciculation Ended 
 CV  .mps                 3.05:  Crit Velocity 
 CVMX.mps                 3.20:  Max Crit Veloc 
 DD1 .            Musa Ahmadov:  Direct Drillr 1 
 DDSV.                 iCruise:  DD Service 
 DEFF.%                  98.00:  % Det Eff 
 DLRX.°/30m               2.78:  Dogleg Rot Max 
 DLSO.°/30m               0.00:  Dogleg Oriented 
 DLSX.°/30m               0.00:  Dogleg Str Max 
 DRET.      05.20.48 16-Jul-20:  Drill End Time 
 DRST.      10.20.48 13-Jul-20:  Drill Start Tim 
 DTIM.hr                 14.25:  Time Drilling 
 EDEP.m                4326.01:  End Depth 
 ENG1.      Artemiy Matviyanov:  Engineer 1 
 ENG2.           Amrah Tahirov:  Engineer 2 
 ETIM.      22.30.00 18-Jul-20:  End Time 
 FLOI.gpm               550.00:  Flow In 
 FLON.gpm               450.00:  Flow In Min 
 FLOS.cptm                0.00:  Fluid Loss 
 FLOX.gpm               600.00:  Flow In Max 
 HFLO.                      No:  High Flow 
 HPRE.                      No:  High Pressure 
 HTEM.                      No:  High Temp 
 HYDO.m                   1.80:  Hydro Offset 
 IFIN.deg                65.41:  Inc, Final 
 IMAX.deg                65.14:  Inc Max 
 IMIN.deg                58.89:  Inc Min 
 IMND.m                4104.92:  Inc Min Depth 
 IMXD.m                4303.89:  Inc Max Depth 
 JARR.                      No:  Jarring 
 LETM.      10.20.48 17-Jul-20:  Log End Time 
 LOST.hr                     0:  Lost Rig Time 
 LSTM.      10.20.48 13-Jul-20:  Log Start Time 
 MDCL.ppm             37000.00:  Mud Chlorides 
 MDES.     Inversion Oil/Synthetic:  Mud Desc 
 DFD .sg                  1.52:  Mud Density 
 MDMN.sg                  1.52:  Dens Mud Min 
 MDMX.sg                  1.52:  Dens Mud Max 
 MOIL.                   52.70:  Run Mud Oil % 
 MOWR.                   68:32:  Run Mud OWR 
 MSND.                     0.2:  Run Mud Sand % 
 MSOL.                    21.6:  Run Mud Solids% 
 DFV .spqt               79.00:  Mud Viscosity 
 MWOD.in                  6.75:  MWD Tool OD 
 MWSI.                      No:  Serv Intrp, MWD 
 OTIM.hr                114.04:  Time Operating 
 PCON.          Wear / Scratch:  Pad Condition 
 PMAX.psia            11782.92:  Press Op, Max 
 PV  .cP                 49.00:  Mud PV 
 RUN .                     600:  Run Number 
 ROPA.m/hr               20.00:  ROP Avg 
 ROPN.m/hr               15.00:  ROP Min 
 ROPX.m/hr               22.00:  ROP Max 
 RPMA.rpm               120.00:  RPM Surface Avg 
 RPMN.rpm                90.00:  RPM Surface Min 
 RPMX.rpm               140.00:  RPM Surface Max 
 RRUN.                     600:  Rig Run Number 
 SAZI.deg               260.29:  Azm, Start 
 SDEP.m                4078.01:  Start Depth 
 SIDD.                      No:  Serv Intrp, DD 
 SINC.deg                58.89:  Inc, Start 
 SPPA.psig             4560.00:  SPP Avg 
 SPPN.psig             3600.00:  SPP Min 
 SPPX.psig             4800.00:  SPP Max 
 STIM.      10.20.48 13-Jul-20:  Start Time 
 SVCS.                 DD, MWD:  Services 
 SVER.                    9.20:  Sperry Version 
 TDAT.m                4378.01:  Tot Depth Attmp 
 TDDF.                      No:  Trip for DD 
 TDLG.m                 248.00:  Tot Depth Loggd 
 TFF .                      No:  Trip for Fail 
 TQAA.f-kp               18.00:  Torque Abs Avg 
 TQAN.f-kp               15.00:  Torque Abs Min 
 TQAX.f-kp               20.00:  Torque Abs Max 
 TRRT.°/30m               0.70:  Turn Rotating 
 MRT .                    HCIM:  Maximum Recorded Temperature 
 TTMX.degC               86.00:  Max Tool Temp 
 WBMN.klb                 3.00:  WOB Min 
 WOBA.klb                 5.00:  WOB Avg 
 WOBX.klb                 9.00:  WOB Max 
 YP  .lhf2               32.00:  Yield Point 
~Curve Information Block
#MNEM.UNIT                 API CODE     Curve Description
#---------               -----------    ---------------------------
 TIME.HHMMSS            00 000 000 000:  GT Time & Date
 GTDEPTH.m              00 000 000 000:  GT Depth
 GTPQH.psia             00 000 000 000:  GT HR Quartz Pressure
 GTTQ.degC              00 000 000 000:  GT Quartz Temperature
 GTTN.NONE              00 000 000 000:  GT Test Number
 GTET.sec               00 000 000 000:  GT Elapsed Test Time
 GTTVD.m                00 000 000 000:  GT True Vertical Depth
#Other Information
#
#WARRANTY: Halliburton will use its best efforts to furnish customers with 
#accurate information and interpretations that are part of, and incident to, the services 
#provided.  However, Halliburton cannot and does not warrant the accuracy 
#or correctness of such information and interpretations.  Under no circumstances should any 
#such information or interpretation be relied upon as the sole basis for any drilling, 
#completion, production, or financial decision or any procedure involving any risk to the 
#safety of any drilling venture, drilling rig or its crew or any other third party.  The 
#Customer has full responsibility for all drilling, completion and production operation.  
#Halliburton makes no representations or warranties, either expressed or 
#implied, including, but not limited to, the implied warranties of merchantability or fitness 
#for a particular purpose, with respect to the services rendered.  In no event will 
#Halliburton be liable for failure to obtain any particular results or for 
#any damages, including, but not limited to, indirect, special or consequential damages, 
#resulting from the use of any information or interpretation provided by Halliburton.
#
~A           TIME           GTDEPTH  GTPQH  GTTQ  GTTN  GTET   GTTVD  
# ...
   17:21:34.699.16-Jul-2020 4251.01 1304.03 79.81 3.00 253.05 2851.33
   17:21:34.899.16-Jul-2020 4251.01 1304.03 79.81 3.00 253.25 2851.33
   17:21:35.099.16-Jul-2020 4251.01 1265.42 79.81 3.00 253.45 2851.33
   17:21:35.299.16-Jul-2020 4251.01 1253.56 79.81 3.00 253.65 2851.33
   17:21:35.499.16-Jul-2020 4251.01 1248.39 79.80 3.00 253.85 2851.33
   17:21:35.699.16-Jul-2020 4251.01 1253.90 79.80 3.00 254.05 2851.33
   17:21:35.899.16-Jul-2020 4251.01 1263.44 79.80 3.00 254.25 2851.33
   17:21:36.099.16-Jul-2020 4251.01 1257.66 79.79 3.00 254.45 2851.33
   17:21:36.299.16-Jul-2020 4251.01 1247.50 79.79 3.00 254.65 2851.33
   17:21:36.499.16-Jul-2020 4251.01 1231.28 79.78 3.00 254.85 2851.33
   17:21:36.699.16-Jul-2020 4251.01 1226.18 79.78 3.00 255.05 2851.33
   17:21:36.900.16-Jul-2020 4251.01 1232.20 79.78 3.00 255.25 2851.33
   17:21:37.100.16-Jul-2020 4251.01 1246.60 79.77 3.00 255.45 2851.33
   17:21:37.300.16-Jul-2020 4251.01 1254.99 79.77 3.00 255.65 2851.33
   17:21:37.500.16-Jul-2020 4251.01 1253.71 79.77 3.00 255.85 2851.33
   17:21:37.700.16-Jul-2020 4251.01 1249.72 79.76 3.00 256.05 2851.33
   17:21:37.900.16-Jul-2020 4251.01 1249.72 79.76 3.00 256.25 2851.33
   17:21:38.100.16-Jul-2020 4251.01 1242.07 79.76 3.00 256.45 2851.33
   17:21:38.300.16-Jul-2020 4251.01 1237.55 79.76 3.00 256.65 2851.33
   17:21:38.500.16-Jul-2020 4251.01 1248.23 79.75 3.00 256.85 2851.33
   17:21:38.700.16-Jul-2020 4251.01 1265.07 79.75 3.00 257.05 2851.33
   17:21:38.900.16-Jul-2020 4251.01 1265.07 79.75 3.00 257.25 2851.33
   17:21:39.100.16-Jul-2020 4251.01 1279.03 79.75 3.00 257.45 2851.33
   17:21:39.300.16-Jul-2020 4251.01 1269.93 79.74 3.00 257.65 2851.33
   17:21:39.500.16-Jul-2020 4251.01 1265.15 79.74 3.00 257.85 2851.33
   17:21:39.700.16-Jul-2020 4251.01 1256.86 79.74 3.00 258.05 2851.33
   17:21:39.900.16-Jul-2020 4251.01 1252.81 79.74 3.00 258.25 2851.33
   17:21:40.100.16-Jul-2020 4251.01 1297.79 79.73 3.00 258.45 2851.33
   17:21:40.300.16-Jul-2020 4251.01 1392.56 79.73 3.00 258.65 2851.33
   17:21:40.500.16-Jul-2020 4251.01 1455.98 79.73 3.00 258.85 2851.33
   17:21:40.700.16-Jul-2020 4251.01 1474.72 79.73 3.00 259.05 2851.33
   17:21:40.900.16-Jul-2020 4251.01 1628.29 79.73 3.00 259.25 2851.33
   17:21:41.100.16-Jul-2020 4251.01 1977.01 79.73 3.00 259.45 2851.33
   17:21:41.300.16-Jul-2020 4251.01 2317.12 79.73 3.00 259.65 2851.33
   17:21:41.500.16-Jul-2020 4251.01 2634.99 79.72 3.00 259.85 2851.33
   17:21:41.701.16-Jul-2020 4251.01 2921.84 79.72 3.00 260.05 2851.33
   17:21:41.901.16-Jul-2020 4251.01 2921.84 79.72 3.00 260.25 2851.33
   17:21:42.101.16-Jul-2020 4251.01 3393.33 79.72 3.00 260.45 2851.33
   17:21:42.301.16-Jul-2020 4251.01 3590.76 79.72 3.00 260.65 2851.33
   17:21:42.501.16-Jul-2020 4251.01 3764.94 79.72 3.00 260.85 2851.33
   17:21:42.701.16-Jul-2020 4251.01 3916.81 79.72 3.00 261.05 2851.33
   17:21:42.901.16-Jul-2020 4251.01 3916.81 79.72 3.00 261.25 2851.33
   17:21:43.101.16-Jul-2020 4251.01 4160.62 79.73 3.00 261.45 2851.33
   17:21:43.301.16-Jul-2020 4251.01 4256.17 79.73 3.00 261.65 2851.33
   17:21:43.501.16-Jul-2020 4251.01 4336.61 79.73 3.00 261.85 2851.33
   17:21:43.701.16-Jul-2020 4251.01 4401.35 79.73 3.00 262.05 2851.33
   17:21:43.901.16-Jul-2020 4251.01 4452.94 79.73 3.00 262.25 2851.33
   17:21:44.101.16-Jul-2020 4251.01 4494.24 79.74 3.00 262.45 2851.33
   17:21:44.301.16-Jul-2020 4251.01 4527.25 79.74 3.00 262.65 2851.33
   17:21:44.501.16-Jul-2020 4251.01 4553.10 79.74 3.00 262.85 2851.33
   17:21:44.701.16-Jul-2020 4251.01 4572.83 79.75 3.00 263.05 2851.33
   17:21:44.901.16-Jul-2020 4251.01 4587.98 79.75 3.00 263.25 2851.33
   17:21:45.101.16-Jul-2020 4251.01 4598.76 79.75 3.00 263.45 2851.33
   17:21:45.301.16-Jul-2020 4251.01 4606.19 79.76 3.00 263.65 2851.33
   17:21:45.501.16-Jul-2020 4251.01 4611.95 79.76 3.00 263.85 2851.33
   17:21:45.701.16-Jul-2020 4251.01 4616.28 79.76 3.00 264.05 2851.33
   17:21:45.901.16-Jul-2020 4251.01 4616.28 79.76 3.00 264.25 2851.33
   17:21:46.101.16-Jul-2020 4251.01 4620.70 79.77 3.00 264.45 2851.33
   17:21:46.301.16-Jul-2020 4251.01 4621.85 79.77 3.00 264.65 2851.33
   17:21:46.502.16-Jul-2020 4251.01 4622.55 79.78 3.00 264.85 2851.33
   17:21:46.702.16-Jul-2020 4251.01 4622.55 79.78 3.00 265.05 2851.33
   17:21:46.902.16-Jul-2020 4251.01 4623.21 79.78 3.00 265.25 2851.33
   17:21:47.102.16-Jul-2020 4251.01 4623.21 79.78 3.00 265.45 2851.33
   17:21:47.302.16-Jul-2020 4251.01 4624.21 79.79 3.00 265.65 2851.33
   17:21:47.502.16-Jul-2020 4251.01 4624.46 79.80 3.00 265.85 2851.33
   17:21:47.702.16-Jul-2020 4251.01 4624.67 79.80 3.00 266.05 2851.33
   17:21:47.902.16-Jul-2020 4251.01 4624.79 79.80 3.00 266.25 2851.33
   17:21:48.102.16-Jul-2020 4251.01 4625.09 79.81 3.00 266.45 2851.33
   17:21:48.302.16-Jul-2020 4251.01 4625.13 79.81 3.00 266.65 2851.33
   17:21:48.502.16-Jul-2020 4251.01 4624.94 79.81 3.00 266.85 2851.33
   17:21:48.702.16-Jul-2020 4251.01 4626.07 79.82 3.00 267.05 2851.33
   17:21:48.902.16-Jul-2020 4251.01 4626.48 79.82 3.00 267.26 2851.33
   17:21:49.102.16-Jul-2020 4251.01 4626.66 79.82 3.00 267.46 2851.33
   17:21:49.302.16-Jul-2020 4251.01 4626.58 79.82 3.00 267.66 2851.33
   17:21:49.502.16-Jul-2020 4251.01 4626.70 79.83 3.00 267.86 2851.33
   17:21:49.702.16-Jul-2020 4251.01 4626.44 79.83 3.00 268.06 2851.33
   17:21:49.902.16-Jul-2020 4251.01 4626.44 79.83 3.00 268.26 2851.33
   17:21:50.102.16-Jul-2020 4251.01 4627.63 79.83 3.00 268.46 2851.33
   17:21:50.302.16-Jul-2020 4251.01 4627.75 79.83 3.00 268.66 2851.33
   17:21:50.502.16-Jul-2020 4251.01 4627.77 79.84 3.00 268.86 2851.33
   17:21:50.702.16-Jul-2020 4251.01 4627.73 79.84 3.00 269.06 2851.33
   17:21:50.902.16-Jul-2020 4251.01 4627.73 79.84 3.00 269.26 2851.33
   17:21:51.102.16-Jul-2020 4251.01 4628.15 79.84 3.00 269.46 2851.33
   17:21:51.303.16-Jul-2020 4251.01 4628.16 79.84 3.00 269.66 2851.33
   17:21:51.503.16-Jul-2020 4251.01 4628.08 79.85 3.00 269.86 2851.33
   17:21:51.703.16-Jul-2020 4251.01 4628.24 79.85 3.00 270.06 2851.33
   17:21:51.903.16-Jul-2020 4251.01 4628.20 79.85 3.00 270.26 2851.33
   17:21:52.103.16-Jul-2020 4251.01 4628.24 79.85 3.00 270.46 2851.33
   17:21:52.303.16-Jul-2020 4251.01 4628.27 79.85 3.00 270.66 2851.33
   17:21:52.503.16-Jul-2020 4251.01 4628.21 79.85 3.00 270.86 2851.33
   17:21:52.703.16-Jul-2020 4251.01 4628.24 79.85 3.00 271.06 2851.33
   17:21:52.903.16-Jul-2020 4251.01 4628.24 79.86 3.00 271.26 2851.33
   17:21:53.103.16-Jul-2020 4251.01 4628.25 79.86 3.00 271.46 2851.33
   17:21:53.303.16-Jul-2020 4251.01 4628.25 79.86 3.00 271.66 2851.33
   17:21:53.503.16-Jul-2020 4251.01 4628.27 79.86 3.00 271.86 2851.33
   17:21:53.703.16-Jul-2020 4251.01 4628.28 79.86 3.00 272.06 2851.33
   17:21:53.903.16-Jul-2020 4251.01 4628.28 79.86 3.00 272.26 2851.33
   17:21:54.103.16-Jul-2020 4251.01 4628.29 79.86 3.00 272.46 2851.33
   17:21:54.303.16-Jul-2020 4251.01 4628.33 79.86 3.00 272.66 2851.33
   17:21:54.503.16-Jul-2020 4251.01 4628.48 79.86 3.00 272.86 2851.33
   17:21:54.703.16-Jul-2020 4251.01 4628.46 79.86 3.00 273.06 2851.33
   17:21:54.903.16-Jul-2020 4251.01 4628.46 79.86 3.00 273.26 2851.33
   17:21:55.103.16-Jul-2020 4251.01 4628.39 79.86 3.00 273.46 2851.33
   17:21:55.303.16-Jul-2020 4251.01 4628.40 79.86 3.00 273.66 2851.33
   17:21:55.503.16-Jul-2020 4251.01 4628.38 79.86 3.00 273.86 2851.33
   17:21:55.703.16-Jul-2020 4251.01 4628.38 79.86 3.00 274.06 2851.33
   17:21:55.903.16-Jul-2020 4251.01 4628.39 79.87 3.00 274.26 2851.33
   17:21:56.103.16-Jul-2020 4251.01 4628.38 79.87 3.00 274.46 2851.33
   17:21:56.304.16-Jul-2020 4251.01 4628.39 79.87 3.00 274.66 2851.33
   17:21:56.504.16-Jul-2020 4251.01 4628.40 79.87 3.00 274.86 2851.33
   17:21:56.704.16-Jul-2020 4251.01 4628.39 79.87 3.00 275.06 2851.33
   17:21:56.904.16-Jul-2020 4251.01 4628.40 79.87 3.00 275.26 2851.33
   17:21:57.104.16-Jul-2020 4251.01 4628.40 79.87 3.00 275.46 2851.33
   17:21:57.304.16-Jul-2020 4251.01 4628.40 79.87 3.00 275.66 2851.33
   17:21:57.504.16-Jul-2020 4251.01 4628.44 79.87 3.00 275.86 2851.33
