~Version Information
 VERS.                  2.0:   CWLS log ASCII Standard -VERSION 2.0
 WRAP.                   NO:   One line per depth step
~Well Information Block
#MNEM.UNIT     VALUE/NAME     DESCRIPTION
#---------     -----------    ---------------------------
 STRT.S             17:17:21 16-Jul-20: START TIME 17:17:21 16-Jul-20
 STOP.S             17:24:07 16-Jul-20: STOP TIME  17:24:07 16-Jul-20
 STEP.S                   0.00: STEP TIME
 NULL.                 -999.25: NULL VALUE
 MDS .        Operator Entered:  MAG DATA SOURCE
 UNIT.                     N/A:  LOGGING EQUIPMENT ID
 DCON.         Sperry Drilling:  DIRECTNL CONTR
 DOE .                     N/A:  DOE NUMBER
 RIG .               EastAzeri:  RIG NAME
 JOBN.        AZ-XX-0906363297:  JOB TICKET NUMB
 MWDS.                    Baku:  MWD SHOP
 SRVC.     Turan Drilling & Engineering:  CONTRACTOR
 PROV.                    Baku:  PROVINCE
 STAT.                    Baku:  STATE NAME
 REGN.                   EESSA:  REGION
 BASE.              Azerbaijan:  LOGGING EQUIPMENT BASE LOCATION
 WTYP.                Deviated:  WELL TYPE
 UWI .                     N/A:  UNIQUE WELL IDENTIFIER
 API .                     N/A:  API NUMBER
 COMP.     BP Exploration (Caspian Sea) ltd.:  COMPANY
 WELL.                    D07z:  WELL NAME
 CTRY.              Azerbaijan:  COUNTRY NAME
 SON .        AZ-XX-0906363297:  JOB NUMBER
 FLD .                     ACG:  FIELD NAME
 PDAT.          Mean Sea Level:  PERMANENT DATUM
 FTOP.          Formation Tops:  FORM TOPS DESC
 ILTD.               Lithology:  INTERP LTH DESC
 SVYD.                  Survey:  SURVEY DESC
 DMOD.             Drill Model:  DRILL MOD DESC
 HPTY.       Minimum Curvature:  HOLE POS TYPE
 NREF.                    Grid:  NORTH REFERENCE
 SPUD.               28-Jun-20:  SPUD DATE
 DATE.      18.27.12 28-Jun-20:  END TIME
 STIM.      18.27.12 28-Jun-20:  START TIME
 DMF .             Drill Floor:  DRILL MEAS FROM
 DFST.                        :  DIST FSL TEXT
 DFWT.                        :  DIST FWL TEXT
 CNTY.                        :  COUNTY
 LOC .                        :  LOCATION
 LMF .             Drill Floor:  LOG MEASURED FROM
 VSNS.m                  -7.75:  VERT SEC N/S
 VSEW.m                  -9.19:  VERT SEC E/W
 MMDE.m                   0.00:  MAGUTM CALC DEP
 AGAP.m                  43.60:  AIR GAP
 DEP .m                4058.99:  DEPTH
 APD .m                  43.60:  DEPTH ABOVE PD
 WDMS.m                 151.80:  WD ELEV
 EGL .m                   0.00:  GROUND ELEVATION
 EPD .m                   0.00:  ELEVATION
 AZTC.deg                 6.19:  AZM TOTAL CORR
 GRDC.deg                 0.27:  GRID CORRECTION
 MDEC.deg                 6.46:  MAGNETIC DECL
 MDIP.deg                59.47:  MAGNETIC DIP
 MFLD.nT              50279.00:  MAGNETIC FIELD
 GVFD.g                   1.00:  GRAVITY FIELD
 VSDR.deg               249.96:  VERT SEC DIRECT
 TDD .m                   0.00:  TOTAL DEPTH (DRILLER)
 SDEP.m                   0.00:  START DEPTH
 DFSL.m                   0.00:  DISTANCE FSL
 DFWL.m                   0.00:  DISTANCE FWL
 UTMY.m             4431880.20:  UTM Y
 UTMX.m              538763.98:  UTM X
 WHEW.m                  -9.19:  WELL HEAD E/W
 WHNS.m                  -7.75:  WELL HEAD N/S
 LONG.deg                51.45:  LONGITUDE
 LATI.deg                40.02:  LATITUDE
 TVDS.m                  43.60:  TVDSS CORRECTN
 EKB .m                  43.60:  KB ELEVATION
 EDF .m                  43.60:  DF ELEVATION
 TDL .m                 248.00:  TOTAL DEPTH (LOGGER)
 MAGU.                 1849075:  MAGUTM CHECKSUM
 VSC .                       0:  VS TO CLOSURE
~Parameter Information Block
#MNEM.UNIT       Value        Description
#---------     -----------    ---------------------------
 AV  .mps                 6.34:  Ann Velocity 
 AVMX.mps                 7.00:  Max Ann Veloc 
 AZIF.deg               260.29:  Azm, Final 
 BHAT.        Rotary Steerable:  BHA Type 
 BROT.°/30m               1.20:  Build Rotating 
 BS  .in                  8.50:  Bit Size 
 BSZ .in                  8.50:  Bit Size 
 BTPL.psig              620.00:  Bit Press Loss 
 CABU.                     Yes:  Customer Abuse 
 COMM.                     fb:  Run Comments 1 
 TCS .hr                 56.22:  Time Ciculation Ended 
 CV  .mps                 3.05:  Crit Velocity 
 CVMX.mps                 3.20:  Max Crit Veloc 
 DD1 .            Musa Ahmadov:  Direct Drillr 1 
 DDSV.                 iCruise:  DD Service 
 DEFF.%                  98.00:  % Det Eff 
 DLRX.°/30m               2.78:  Dogleg Rot Max 
 DLSO.°/30m               0.00:  Dogleg Oriented 
 DLSX.°/30m               0.00:  Dogleg Str Max 
 DRET.      05.20.48 16-Jul-20:  Drill End Time 
 DRST.      10.20.48 13-Jul-20:  Drill Start Tim 
 DTIM.hr                 14.25:  Time Drilling 
 EDEP.m                4326.01:  End Depth 
 ENG1.      Artemiy Matviyanov:  Engineer 1 
 ENG2.           Amrah Tahirov:  Engineer 2 
 ETIM.      22.30.00 18-Jul-20:  End Time 
 FLOI.gpm               550.00:  Flow In 
 FLON.gpm               450.00:  Flow In Min 
 FLOS.cptm                0.00:  Fluid Loss 
 FLOX.gpm               600.00:  Flow In Max 
 HFLO.                      No:  High Flow 
 HPRE.                      No:  High Pressure 
 HTEM.                      No:  High Temp 
 HYDO.m                   1.80:  Hydro Offset 
 IFIN.deg                65.41:  Inc, Final 
 IMAX.deg                65.14:  Inc Max 
 IMIN.deg                58.89:  Inc Min 
 IMND.m                4104.92:  Inc Min Depth 
 IMXD.m                4303.89:  Inc Max Depth 
 JARR.                      No:  Jarring 
 LETM.      10.20.48 17-Jul-20:  Log End Time 
 LOST.hr                     0:  Lost Rig Time 
 LSTM.      10.20.48 13-Jul-20:  Log Start Time 
 MDCL.ppm             37000.00:  Mud Chlorides 
 MDES.     Inversion Oil/Synthetic:  Mud Desc 
 DFD .sg                  1.52:  Mud Density 
 MDMN.sg                  1.52:  Dens Mud Min 
 MDMX.sg                  1.52:  Dens Mud Max 
 MOIL.                   52.70:  Run Mud Oil % 
 MOWR.                   68:32:  Run Mud OWR 
 MSND.                     0.2:  Run Mud Sand % 
 MSOL.                    21.6:  Run Mud Solids% 
 DFV .spqt               79.00:  Mud Viscosity 
 MWOD.in                  6.75:  MWD Tool OD 
 MWSI.                      No:  Serv Intrp, MWD 
 OTIM.hr                114.04:  Time Operating 
 PCON.          Wear / Scratch:  Pad Condition 
 PMAX.psia            11782.92:  Press Op, Max 
 PV  .cP                 49.00:  Mud PV 
 RUN .                     600:  Run Number 
 ROPA.m/hr               20.00:  ROP Avg 
 ROPN.m/hr               15.00:  ROP Min 
 ROPX.m/hr               22.00:  ROP Max 
 RPMA.rpm               120.00:  RPM Surface Avg 
 RPMN.rpm                90.00:  RPM Surface Min 
 RPMX.rpm               140.00:  RPM Surface Max 
 RRUN.                     600:  Rig Run Number 
 SAZI.deg               260.29:  Azm, Start 
 SDEP.m                4078.01:  Start Depth 
 SIDD.                      No:  Serv Intrp, DD 
 SINC.deg                58.89:  Inc, Start 
 SPPA.psig             4560.00:  SPP Avg 
 SPPN.psig             3600.00:  SPP Min 
 SPPX.psig             4800.00:  SPP Max 
 STIM.      10.20.48 13-Jul-20:  Start Time 
 SVCS.                 DD, MWD:  Services 
 SVER.                    9.20:  Sperry Version 
 TDAT.m                4378.01:  Tot Depth Attmp 
 TDDF.                      No:  Trip for DD 
 TDLG.m                 248.00:  Tot Depth Loggd 
 TFF .                      No:  Trip for Fail 
 TQAA.f-kp               18.00:  Torque Abs Avg 
 TQAN.f-kp               15.00:  Torque Abs Min 
 TQAX.f-kp               20.00:  Torque Abs Max 
 TRRT.°/30m               0.70:  Turn Rotating 
 MRT .                    HCIM:  Maximum Recorded Temperature 
 TTMX.degC               86.00:  Max Tool Temp 
 WBMN.klb                 3.00:  WOB Min 
 WOBA.klb                 5.00:  WOB Avg 
 WOBX.klb                 9.00:  WOB Max 
 YP  .lhf2               32.00:  Yield Point 
~Curve Information Block
#MNEM.UNIT                 API CODE     Curve Description
#---------               -----------    ---------------------------
 TIME.HHMMSS            00 000 000 000:  GT Time & Date
 GTDEPTH.m              00 000 000 000:  GT Depth
 GTPQH.psia             00 000 000 000:  GT HR Quartz Pressure
 GTTQ.degC              00 000 000 000:  GT Quartz Temperature
 GTTN.NONE              00 000 000 000:  GT Test Number
 GTET.sec               00 000 000 000:  GT Elapsed Test Time
 GTTVD.m                00 000 000 000:  GT True Vertical Depth
#Other Information
#
#WARRANTY: Halliburton will use its best efforts to furnish customers with 
#accurate information and interpretations that are part of, and incident to, the services 
#provided.  However, Halliburton cannot and does not warrant the accuracy 
#or correctness of such information and interpretations.  Under no circumstances should any 
#such information or interpretation be relied upon as the sole basis for any drilling, 
#completion, production, or financial decision or any procedure involving any risk to the 
#safety of any drilling venture, drilling rig or its crew or any other third party.  The 
#Customer has full responsibility for all drilling, completion and production operation.  
#Halliburton makes no representations or warranties, either expressed or 
#implied, including, but not limited to, the implied warranties of merchantability or fitness 
#for a particular purpose, with respect to the services rendered.  In no event will 
#Halliburton be liable for failure to obtain any particular results or for 
#any damages, including, but not limited to, indirect, special or consequential damages, 
#resulting from the use of any information or interpretation provided by Halliburton.
#
~A           TIME           GTDEPTH  GTPQH  GTTQ  GTTN  GTET   GTTVD  
# ...
   17:23:29.723.16-Jul-2020 4251.01 7048.54 79.95 3.00 368.08 2851.33
   17:23:29.923.16-Jul-2020 4251.01 7040.52 79.95 3.00 368.28 2851.33
   17:23:30.123.16-Jul-2020 4251.01 7040.18 79.95 3.00 368.48 2851.33
   17:23:30.323.16-Jul-2020 4251.01 7042.07 79.95 3.00 368.68 2851.33
   17:23:30.523.16-Jul-2020 4251.01 7043.79 79.95 3.00 368.88 2851.33
   17:23:30.723.16-Jul-2020 4251.01 7042.14 79.95 3.00 369.08 2851.33
   17:23:30.923.16-Jul-2020 4251.01 7042.14 79.95 3.00 369.28 2851.33
   17:23:31.123.16-Jul-2020 4251.01 7042.55 79.95 3.00 369.48 2851.33
   17:23:31.323.16-Jul-2020 4251.01 7041.05 79.95 3.00 369.68 2851.33
   17:23:31.523.16-Jul-2020 4251.01 7042.12 79.95 3.00 369.88 2851.33
   17:23:31.723.16-Jul-2020 4251.01 7041.91 79.95 3.00 370.08 2851.33
   17:23:31.923.16-Jul-2020 4251.01 7041.91 79.95 3.00 370.28 2851.33
   17:23:32.123.16-Jul-2020 4251.01 7041.91 79.95 3.00 370.48 2851.33
   17:23:32.323.16-Jul-2020 4251.01 7041.91 79.95 3.00 370.68 2851.33
   17:23:32.523.16-Jul-2020 4251.01 7043.15 79.95 3.00 370.88 2851.33
   17:23:32.723.16-Jul-2020 4251.01 7040.94 79.95 3.00 371.08 2851.33
   17:23:32.923.16-Jul-2020 4251.01 7041.09 79.95 3.00 371.28 2851.33
   17:23:33.123.16-Jul-2020 4251.01 7048.71 79.95 3.00 371.48 2851.33
   17:23:33.324.16-Jul-2020 4251.01 7044.48 79.95 3.00 371.68 2851.33
   17:23:33.524.16-Jul-2020 4251.01 7042.55 79.95 3.00 371.88 2851.33
   17:23:33.724.16-Jul-2020 4251.01 7041.78 79.95 3.00 372.08 2851.33
   17:23:33.924.16-Jul-2020 4251.01 7042.09 79.95 3.00 372.28 2851.33
   17:23:34.124.16-Jul-2020 4251.01 7048.95 79.95 3.00 372.48 2851.33
   17:23:34.324.16-Jul-2020 4251.01 7044.90 79.95 3.00 372.68 2851.33
   17:23:34.524.16-Jul-2020 4251.01 7042.75 79.95 3.00 372.88 2851.33
   17:23:34.724.16-Jul-2020 4251.01 7057.07 79.95 3.00 373.08 2851.33
   17:23:34.924.16-Jul-2020 4251.01 7057.07 79.95 3.00 373.28 2851.33
   17:23:35.124.16-Jul-2020 4251.01 7042.76 79.95 3.00 373.48 2851.33
   17:23:35.324.16-Jul-2020 4251.01 7044.65 79.95 3.00 373.68 2851.33
   17:23:35.524.16-Jul-2020 4251.01 7043.31 79.95 3.00 373.88 2851.33
   17:23:35.724.16-Jul-2020 4251.01 7056.97 79.95 3.00 374.08 2851.33
   17:23:35.924.16-Jul-2020 4251.01 7037.42 79.94 3.00 374.28 2851.33
   17:23:36.124.16-Jul-2020 4251.01 7040.91 79.94 3.00 374.48 2851.33
   17:23:36.324.16-Jul-2020 4251.01 7043.16 79.94 3.00 374.68 2851.33
   17:23:36.524.16-Jul-2020 4251.01 7045.43 79.94 3.00 374.88 2851.33
   17:23:36.724.16-Jul-2020 4251.01 7041.62 79.94 3.00 375.08 2851.33
   17:23:36.924.16-Jul-2020 4251.01 7042.49 79.94 3.00 375.28 2851.33
   17:23:37.124.16-Jul-2020 4251.01 7043.28 79.94 3.00 375.48 2851.33
   17:23:37.324.16-Jul-2020 4251.01 7043.10 79.94 3.00 375.68 2851.33
   17:23:37.524.16-Jul-2020 4251.01 7043.16 79.94 3.00 375.88 2851.33
   17:23:37.724.16-Jul-2020 4251.01 7041.18 79.94 3.00 376.08 2851.33
   17:23:37.924.16-Jul-2020 4251.01 7041.18 79.94 3.00 376.28 2851.33
   17:23:38.124.16-Jul-2020 4251.01 7042.15 79.94 3.00 376.48 2851.33
   17:23:38.325.16-Jul-2020 4251.01 7042.38 79.94 3.00 376.68 2851.33
   17:23:38.525.16-Jul-2020 4251.01 7053.48 79.94 3.00 376.88 2851.33
   17:23:38.725.16-Jul-2020 4251.01 7039.41 79.94 3.00 377.08 2851.33
   17:23:38.925.16-Jul-2020 4251.01 7039.41 79.94 3.00 377.28 2851.33
   17:23:39.125.16-Jul-2020 4251.01 7042.06 79.94 3.00 377.48 2851.33
   17:23:39.325.16-Jul-2020 4251.01 7043.21 79.94 3.00 377.68 2851.33
   17:23:39.525.16-Jul-2020 4251.01 7039.60 79.94 3.00 377.88 2851.33
   17:23:39.725.16-Jul-2020 4251.01 7042.54 79.94 3.00 378.08 2851.33
   17:23:39.925.16-Jul-2020 4251.01 7041.62 79.94 3.00 378.28 2851.33
   17:23:40.125.16-Jul-2020 4251.01 7041.92 79.94 3.00 378.48 2851.33
   17:23:40.325.16-Jul-2020 4251.01 7041.31 79.94 3.00 378.68 2851.33
   17:23:40.525.16-Jul-2020 4251.01 7041.92 79.94 3.00 378.88 2851.33
   17:23:40.725.16-Jul-2020 4251.01 7042.73 79.94 3.00 379.08 2851.33
   17:23:40.925.16-Jul-2020 4251.01 7040.68 79.94 3.00 379.28 2851.33
   17:23:41.125.16-Jul-2020 4251.01 7041.67 79.94 3.00 379.48 2851.33
   17:23:41.325.16-Jul-2020 4251.01 7041.28 79.94 3.00 379.68 2851.33
   17:23:41.525.16-Jul-2020 4251.01 7042.71 79.94 3.00 379.88 2851.33
   17:23:41.725.16-Jul-2020 4251.01 7056.74 79.94 3.00 380.08 2851.33
   17:23:41.925.16-Jul-2020 4251.01 7056.74 79.94 3.00 380.28 2851.33
   17:23:42.125.16-Jul-2020 4251.01 7038.56 79.94 3.00 380.48 2851.33
   17:23:42.325.16-Jul-2020 4251.01 7043.09 79.94 3.00 380.68 2851.33
   17:23:42.525.16-Jul-2020 4251.01 7044.95 79.93 3.00 380.88 2851.33
   17:23:42.725.16-Jul-2020 4251.01 7046.75 79.93 3.00 381.08 2851.33
   17:23:42.925.16-Jul-2020 4251.01 7046.75 79.93 3.00 381.28 2851.33
   17:23:43.126.16-Jul-2020 4251.01 7040.95 79.93 3.00 381.48 2851.33
   17:23:43.326.16-Jul-2020 4251.01 7044.03 79.93 3.00 381.68 2851.33
   17:23:43.526.16-Jul-2020 4251.01 7051.41 79.93 3.00 381.88 2851.33
   17:23:43.726.16-Jul-2020 4251.01 7043.64 79.93 3.00 382.08 2851.33
   17:23:43.926.16-Jul-2020 4251.01 7044.24 79.93 3.00 382.28 2851.33
   17:23:44.126.16-Jul-2020 4251.01 7044.44 79.93 3.00 382.48 2851.33
   17:23:44.326.16-Jul-2020 4251.01 7043.33 79.93 3.00 382.68 2851.33
   17:23:44.526.16-Jul-2020 4251.01 7040.02 79.93 3.00 382.88 2851.33
   17:23:44.726.16-Jul-2020 4251.01 7055.21 79.93 3.00 383.08 2851.33
   17:23:44.926.16-Jul-2020 4251.01 7040.42 79.93 3.00 383.28 2851.33
   17:23:45.126.16-Jul-2020 4251.01 7043.91 79.93 3.00 383.48 2851.33
   17:23:45.326.16-Jul-2020 4251.01 7043.98 79.93 3.00 383.68 2851.33
   17:23:45.526.16-Jul-2020 4251.01 7043.16 79.93 3.00 383.88 2851.33
   17:23:45.726.16-Jul-2020 4251.01 7041.72 79.93 3.00 384.08 2851.33
   17:23:45.926.16-Jul-2020 4251.01 7041.72 79.93 3.00 384.28 2851.33
   17:23:46.126.16-Jul-2020 4251.01 7044.06 79.93 3.00 384.48 2851.33
   17:23:46.326.16-Jul-2020 4251.01 7041.70 79.93 3.00 384.68 2851.33
   17:23:46.526.16-Jul-2020 4251.01 7041.66 79.93 3.00 384.88 2851.33
   17:23:46.726.16-Jul-2020 4251.01 7041.86 79.93 3.00 385.08 2851.33
   17:23:46.926.16-Jul-2020 4251.01 7041.86 79.93 3.00 385.28 2851.33
   17:23:47.126.16-Jul-2020 4251.01 7041.30 79.93 3.00 385.48 2851.33
   17:23:47.326.16-Jul-2020 4251.01 7039.86 79.93 3.00 385.68 2851.33
   17:23:47.526.16-Jul-2020 4251.01 7048.62 79.93 3.00 385.88 2851.33
   17:23:47.726.16-Jul-2020 4251.01 7042.49 79.93 3.00 386.08 2851.33
   17:23:47.927.16-Jul-2020 4251.01 7043.88 79.93 3.00 386.28 2851.33
   17:23:48.127.16-Jul-2020 4251.01 7043.29 79.93 3.00 386.48 2851.33
   17:23:48.327.16-Jul-2020 4251.01 7042.31 79.93 3.00 386.68 2851.33
   17:23:48.527.16-Jul-2020 4251.01 7040.97 79.93 3.00 386.88 2851.33
   17:23:48.727.16-Jul-2020 4251.01 7041.78 79.93 3.00 387.08 2851.33
   17:23:48.927.16-Jul-2020 4251.01 7042.30 79.93 3.00 387.28 2851.33
   17:23:49.127.16-Jul-2020 4251.01 7041.27 79.93 3.00 387.48 2851.33
   17:23:49.327.16-Jul-2020 4251.01 7044.15 79.93 3.00 387.68 2851.33
   17:23:49.527.16-Jul-2020 4251.01 7041.88 79.93 3.00 387.88 2851.33
   17:23:49.727.16-Jul-2020 4251.01 7042.05 79.93 3.00 388.08 2851.33
   17:23:49.927.16-Jul-2020 4251.01 7042.05 79.93 3.00 388.28 2851.33
   17:23:50.127.16-Jul-2020 4251.01 7042.65 79.93 3.00 388.48 2851.33
   17:23:50.327.16-Jul-2020 4251.01 7042.27 79.93 3.00 388.68 2851.33
   17:23:50.527.16-Jul-2020 4251.01 7040.46 79.93 3.00 388.88 2851.33
   17:23:50.727.16-Jul-2020 4251.01 7053.69 79.92 3.00 389.08 2851.33
   17:23:50.927.16-Jul-2020 4251.01 7053.69 79.92 3.00 389.28 2851.33
   17:23:51.127.16-Jul-2020 4251.01 7044.19 79.92 3.00 389.48 2851.33
   17:23:51.327.16-Jul-2020 4251.01 7041.98 79.92 3.00 389.68 2851.33
   17:23:51.527.16-Jul-2020 4251.01 7041.22 79.92 3.00 389.88 2851.33
   17:23:51.727.16-Jul-2020 4251.01 7056.19 79.92 3.00 390.08 2851.33
   17:23:51.927.16-Jul-2020 4251.01 7037.82 79.92 3.00 390.28 2851.33
   17:23:52.127.16-Jul-2020 4251.01 7040.04 79.92 3.00 390.48 2851.33
   17:23:52.327.16-Jul-2020 4251.01 7058.50 79.92 3.00 390.68 2851.33
   17:23:52.527.16-Jul-2020 4251.01 7041.16 79.92 3.00 390.88 2851.33
