~Version Information
 VERS.                  2.0:   CWLS log ASCII Standard -VERSION 2.0
 WRAP.                   NO:   One line per depth step
~Well Information Block
#MNEM.UNIT     VALUE/NAME     DESCRIPTION
#---------     -----------    ---------------------------
 STRT.S             16:55:55 16-Jul-20: START TIME 16:55:55 16-Jul-20
 STOP.S             17:02:47 16-Jul-20: STOP TIME  17:02:47 16-Jul-20
 STEP.S                   0.00: STEP TIME
 NULL.                 -999.25: NULL VALUE
 MDS .        Operator Entered:  MAG DATA SOURCE
 UNIT.                     N/A:  LOGGING EQUIPMENT ID
 DCON.         Sperry Drilling:  DIRECTNL CONTR
 DOE .                     N/A:  DOE NUMBER
 RIG .               EastAzeri:  RIG NAME
 JOBN.        AZ-XX-0906363297:  JOB TICKET NUMB
 MWDS.                    Baku:  MWD SHOP
 SRVC.     Turan Drilling & Engineering:  CONTRACTOR
 PROV.                    Baku:  PROVINCE
 STAT.                    Baku:  STATE NAME
 REGN.                   EESSA:  REGION
 BASE.              Azerbaijan:  LOGGING EQUIPMENT BASE LOCATION
 WTYP.                Deviated:  WELL TYPE
 UWI .                     N/A:  UNIQUE WELL IDENTIFIER
 API .                     N/A:  API NUMBER
 COMP.     BP Exploration (Caspian Sea) ltd.:  COMPANY
 WELL.                    D07z:  WELL NAME
 CTRY.              Azerbaijan:  COUNTRY NAME
 SON .        AZ-XX-0906363297:  JOB NUMBER
 FLD .                     ACG:  FIELD NAME
 PDAT.          Mean Sea Level:  PERMANENT DATUM
 FTOP.          Formation Tops:  FORM TOPS DESC
 ILTD.               Lithology:  INTERP LTH DESC
 SVYD.                  Survey:  SURVEY DESC
 DMOD.             Drill Model:  DRILL MOD DESC
 HPTY.       Minimum Curvature:  HOLE POS TYPE
 NREF.                    Grid:  NORTH REFERENCE
 SPUD.               28-Jun-20:  SPUD DATE
 DATE.      18.27.12 28-Jun-20:  END TIME
 STIM.      18.27.12 28-Jun-20:  START TIME
 DMF .             Drill Floor:  DRILL MEAS FROM
 DFST.                        :  DIST FSL TEXT
 DFWT.                        :  DIST FWL TEXT
 CNTY.                        :  COUNTY
 LOC .                        :  LOCATION
 LMF .             Drill Floor:  LOG MEASURED FROM
 VSNS.m                  -7.75:  VERT SEC N/S
 VSEW.m                  -9.19:  VERT SEC E/W
 MMDE.m                   0.00:  MAGUTM CALC DEP
 AGAP.m                  43.60:  AIR GAP
 DEP .m                4058.99:  DEPTH
 APD .m                  43.60:  DEPTH ABOVE PD
 WDMS.m                 151.80:  WD ELEV
 EGL .m                   0.00:  GROUND ELEVATION
 EPD .m                   0.00:  ELEVATION
 AZTC.deg                 6.19:  AZM TOTAL CORR
 GRDC.deg                 0.27:  GRID CORRECTION
 MDEC.deg                 6.46:  MAGNETIC DECL
 MDIP.deg                59.47:  MAGNETIC DIP
 MFLD.nT              50279.00:  MAGNETIC FIELD
 GVFD.g                   1.00:  GRAVITY FIELD
 VSDR.deg               249.96:  VERT SEC DIRECT
 TDD .m                   0.00:  TOTAL DEPTH (DRILLER)
 SDEP.m                   0.00:  START DEPTH
 DFSL.m                   0.00:  DISTANCE FSL
 DFWL.m                   0.00:  DISTANCE FWL
 UTMY.m             4431880.20:  UTM Y
 UTMX.m              538763.98:  UTM X
 WHEW.m                  -9.19:  WELL HEAD E/W
 WHNS.m                  -7.75:  WELL HEAD N/S
 LONG.deg                51.45:  LONGITUDE
 LATI.deg                40.02:  LATITUDE
 TVDS.m                  43.60:  TVDSS CORRECTN
 EKB .m                  43.60:  KB ELEVATION
 EDF .m                  43.60:  DF ELEVATION
 TDL .m                 248.00:  TOTAL DEPTH (LOGGER)
 MAGU.                 1849075:  MAGUTM CHECKSUM
 VSC .                       0:  VS TO CLOSURE
~Parameter Information Block
#MNEM.UNIT       Value        Description
#---------     -----------    ---------------------------
 AV  .mps                 6.34:  Ann Velocity 
 AVMX.mps                 7.00:  Max Ann Veloc 
 AZIF.deg               260.29:  Azm, Final 
 BHAT.        Rotary Steerable:  BHA Type 
 BROT.°/30m               1.20:  Build Rotating 
 BS  .in                  8.50:  Bit Size 
 BSZ .in                  8.50:  Bit Size 
 BTPL.psig              620.00:  Bit Press Loss 
 CABU.                     Yes:  Customer Abuse 
 COMM.                     3z:  Run Comments 1 
 TCS .hr                 56.22:  Time Ciculation Ended 
 CV  .mps                 3.05:  Crit Velocity 
 CVMX.mps                 3.20:  Max Crit Veloc 
 DD1 .            Musa Ahmadov:  Direct Drillr 1 
 DDSV.                 iCruise:  DD Service 
 DEFF.%                  98.00:  % Det Eff 
 DLRX.°/30m               2.78:  Dogleg Rot Max 
 DLSO.°/30m               0.00:  Dogleg Oriented 
 DLSX.°/30m               0.00:  Dogleg Str Max 
 DRET.      05.20.48 16-Jul-20:  Drill End Time 
 DRST.      10.20.48 13-Jul-20:  Drill Start Tim 
 DTIM.hr                 14.25:  Time Drilling 
 EDEP.m                4326.01:  End Depth 
 ENG1.      Artemiy Matviyanov:  Engineer 1 
 ENG2.           Amrah Tahirov:  Engineer 2 
 ETIM.      22.30.00 18-Jul-20:  End Time 
 FLOI.gpm               550.00:  Flow In 
 FLON.gpm               450.00:  Flow In Min 
 FLOS.cptm                0.00:  Fluid Loss 
 FLOX.gpm               600.00:  Flow In Max 
 HFLO.                      No:  High Flow 
 HPRE.                      No:  High Pressure 
 HTEM.                      No:  High Temp 
 HYDO.m                   1.80:  Hydro Offset 
 IFIN.deg                65.41:  Inc, Final 
 IMAX.deg                65.14:  Inc Max 
 IMIN.deg                58.89:  Inc Min 
 IMND.m                4104.92:  Inc Min Depth 
 IMXD.m                4303.89:  Inc Max Depth 
 JARR.                      No:  Jarring 
 LETM.      10.20.48 17-Jul-20:  Log End Time 
 LOST.hr                     0:  Lost Rig Time 
 LSTM.      10.20.48 13-Jul-20:  Log Start Time 
 MDCL.ppm             37000.00:  Mud Chlorides 
 MDES.     Inversion Oil/Synthetic:  Mud Desc 
 DFD .sg                  1.52:  Mud Density 
 MDMN.sg                  1.52:  Dens Mud Min 
 MDMX.sg                  1.52:  Dens Mud Max 
 MOIL.                   52.70:  Run Mud Oil % 
 MOWR.                   68:32:  Run Mud OWR 
 MSND.                     0.2:  Run Mud Sand % 
 MSOL.                    21.6:  Run Mud Solids% 
 DFV .spqt               79.00:  Mud Viscosity 
 MWOD.in                  6.75:  MWD Tool OD 
 MWSI.                      No:  Serv Intrp, MWD 
 OTIM.hr                114.04:  Time Operating 
 PCON.          Wear / Scratch:  Pad Condition 
 PMAX.psia            11782.92:  Press Op, Max 
 PV  .cP                 49.00:  Mud PV 
 RUN .                     600:  Run Number 
 ROPA.m/hr               20.00:  ROP Avg 
 ROPN.m/hr               15.00:  ROP Min 
 ROPX.m/hr               22.00:  ROP Max 
 RPMA.rpm               120.00:  RPM Surface Avg 
 RPMN.rpm                90.00:  RPM Surface Min 
 RPMX.rpm               140.00:  RPM Surface Max 
 RRUN.                     600:  Rig Run Number 
 SAZI.deg               260.29:  Azm, Start 
 SDEP.m                4078.01:  Start Depth 
 SIDD.                      No:  Serv Intrp, DD 
 SINC.deg                58.89:  Inc, Start 
 SPPA.psig             4560.00:  SPP Avg 
 SPPN.psig             3600.00:  SPP Min 
 SPPX.psig             4800.00:  SPP Max 
 STIM.      10.20.48 13-Jul-20:  Start Time 
 SVCS.                 DD, MWD:  Services 
 SVER.                    9.20:  Sperry Version 
 TDAT.m                4378.01:  Tot Depth Attmp 
 TDDF.                      No:  Trip for DD 
 TDLG.m                 248.00:  Tot Depth Loggd 
 TFF .                      No:  Trip for Fail 
 TQAA.f-kp               18.00:  Torque Abs Avg 
 TQAN.f-kp               15.00:  Torque Abs Min 
 TQAX.f-kp               20.00:  Torque Abs Max 
 TRRT.°/30m               0.70:  Turn Rotating 
 MRT .                    HCIM:  Maximum Recorded Temperature 
 TTMX.degC               86.00:  Max Tool Temp 
 WBMN.klb                 3.00:  WOB Min 
 WOBA.klb                 5.00:  WOB Avg 
 WOBX.klb                 9.00:  WOB Max 
 YP  .lhf2               32.00:  Yield Point 
~Curve Information Block
#MNEM.UNIT                 API CODE     Curve Description
#---------               -----------    ---------------------------
 TIME.HHMMSS            00 000 000 000:  GT Time & Date
 GTDEPTH.m              00 000 000 000:  GT Depth
 GTPQH.psia             00 000 000 000:  GT HR Quartz Pressure
 GTTQ.degC              00 000 000 000:  GT Quartz Temperature
 GTTN.NONE              00 000 000 000:  GT Test Number
 GTET.sec               00 000 000 000:  GT Elapsed Test Time
 GTTVD.m                00 000 000 000:  GT True Vertical Depth
#Other Information
#
#WARRANTY: Halliburton will use its best efforts to furnish customers with 
#accurate information and interpretations that are part of, and incident to, the services 
#provided.  However, Halliburton cannot and does not warrant the accuracy 
#or correctness of such information and interpretations.  Under no circumstances should any 
#such information or interpretation be relied upon as the sole basis for any drilling, 
#completion, production, or financial decision or any procedure involving any risk to the 
#safety of any drilling venture, drilling rig or its crew or any other third party.  The 
#Customer has full responsibility for all drilling, completion and production operation.  
#Halliburton makes no representations or warranties, either expressed or 
#implied, including, but not limited to, the implied warranties of merchantability or fitness 
#for a particular purpose, with respect to the services rendered.  In no event will 
#Halliburton be liable for failure to obtain any particular results or for 
#any damages, including, but not limited to, indirect, special or consequential damages, 
#resulting from the use of any information or interpretation provided by Halliburton.
#
~A           TIME           GTDEPTH  GTPQH  GTTQ  GTTN  GTET   GTTVD  
# ...
   16:58:36.415.16-Jul-2020 4261.01 4635.31 80.07 2.00 161.03 2855.56
   16:58:36.615.16-Jul-2020 4261.01 4635.16 80.07 2.00 161.23 2855.56
   16:58:36.815.16-Jul-2020 4261.01 4635.49 80.07 2.00 161.43 2855.56
   16:58:37.015.16-Jul-2020 4261.01 4635.32 80.07 2.00 161.63 2855.56
   16:58:37.216.16-Jul-2020 4261.01 4635.39 80.07 2.00 161.83 2855.56
   16:58:37.416.16-Jul-2020 4261.01 4635.17 80.07 2.00 162.03 2855.56
   16:58:37.616.16-Jul-2020 4261.01 4635.58 80.07 2.00 162.23 2855.56
   16:58:37.816.16-Jul-2020 4261.01 4635.38 80.07 2.00 162.43 2855.56
   16:58:38.016.16-Jul-2020 4261.01 4635.45 80.07 2.00 162.63 2855.56
   16:58:38.216.16-Jul-2020 4261.01 4635.33 80.07 2.00 162.83 2855.56
   16:58:38.416.16-Jul-2020 4261.01 4635.35 80.07 2.00 163.03 2855.56
   16:58:38.616.16-Jul-2020 4261.01 4635.35 80.07 2.00 163.23 2855.56
   16:58:38.816.16-Jul-2020 4261.01 4635.43 80.07 2.00 163.43 2855.56
   16:58:39.016.16-Jul-2020 4261.01 4635.40 80.07 2.00 163.63 2855.56
   16:58:39.216.16-Jul-2020 4261.01 4635.39 80.07 2.00 163.83 2855.56
   16:58:39.416.16-Jul-2020 4261.01 4635.39 80.07 2.00 164.03 2855.56
   16:58:39.616.16-Jul-2020 4261.01 4635.39 80.07 2.00 164.23 2855.56
   16:58:39.816.16-Jul-2020 4261.01 4635.41 80.07 2.00 164.43 2855.56
   16:58:40.016.16-Jul-2020 4261.01 4635.43 80.07 2.00 164.63 2855.56
   16:58:40.216.16-Jul-2020 4261.01 4635.58 80.07 2.00 164.83 2855.56
   16:58:40.416.16-Jul-2020 4261.01 4635.39 80.07 2.00 165.03 2855.56
   16:58:40.616.16-Jul-2020 4261.01 4635.50 80.07 2.00 165.23 2855.56
   16:58:40.816.16-Jul-2020 4261.01 4635.44 80.07 2.00 165.43 2855.56
   16:58:41.016.16-Jul-2020 4261.01 4635.46 80.07 2.00 165.63 2855.56
   16:58:41.216.16-Jul-2020 4261.01 4635.45 80.07 2.00 165.83 2855.56
   16:58:41.416.16-Jul-2020 4261.01 4635.49 80.07 2.00 166.03 2855.56
   16:58:41.616.16-Jul-2020 4261.01 4635.46 80.07 2.00 166.23 2855.56
   16:58:41.816.16-Jul-2020 4261.01 4635.49 80.08 2.00 166.43 2855.56
   16:58:42.017.16-Jul-2020 4261.01 4635.47 80.08 2.00 166.63 2855.56
   16:58:42.217.16-Jul-2020 4261.01 4635.47 80.08 2.00 166.83 2855.56
   16:58:42.417.16-Jul-2020 4261.01 4635.49 80.08 2.00 167.03 2855.56
   16:58:42.617.16-Jul-2020 4261.01 4635.49 80.08 2.00 167.23 2855.56
   16:58:42.817.16-Jul-2020 4261.01 4635.48 80.08 2.00 167.43 2855.56
   16:58:43.017.16-Jul-2020 4261.01 4635.50 80.08 2.00 167.63 2855.56
   16:58:43.217.16-Jul-2020 4261.01 4635.50 80.08 2.00 167.83 2855.56
   16:58:43.417.16-Jul-2020 4261.01 4635.63 80.08 2.00 168.03 2855.56
   16:58:43.617.16-Jul-2020 4261.01 4635.63 80.08 2.00 168.23 2855.56
   16:58:43.817.16-Jul-2020 4261.01 4635.54 80.08 2.00 168.43 2855.56
   16:58:44.017.16-Jul-2020 4261.01 4635.42 80.08 2.00 168.63 2855.56
   16:58:44.217.16-Jul-2020 4261.01 4635.72 80.08 2.00 168.83 2855.56
   16:58:44.417.16-Jul-2020 4261.01 4635.49 80.08 2.00 169.03 2855.56
   16:58:44.617.16-Jul-2020 4261.01 4635.49 80.08 2.00 169.23 2855.56
   16:58:44.817.16-Jul-2020 4261.01 4635.38 80.08 2.00 169.43 2855.56
   16:58:45.017.16-Jul-2020 4261.01 4635.73 80.08 2.00 169.63 2855.56
   16:58:45.217.16-Jul-2020 4261.01 4635.55 80.08 2.00 169.83 2855.56
   16:58:45.417.16-Jul-2020 4261.01 4635.60 80.08 2.00 170.04 2855.56
   16:58:45.617.16-Jul-2020 4261.01 4635.60 80.08 2.00 170.24 2855.56
   16:58:45.817.16-Jul-2020 4261.01 4635.50 80.08 2.00 170.44 2855.56
   16:58:46.017.16-Jul-2020 4261.01 4635.67 80.08 2.00 170.64 2855.56
   16:58:46.217.16-Jul-2020 4261.01 4635.48 80.08 2.00 170.84 2855.56
   16:58:46.417.16-Jul-2020 4261.01 4635.56 80.08 2.00 171.04 2855.56
   16:58:46.617.16-Jul-2020 4261.01 4635.56 80.08 2.00 171.24 2855.56
   16:58:46.817.16-Jul-2020 4261.01 4635.53 80.08 2.00 171.44 2855.56
   16:58:47.018.16-Jul-2020 4261.01 4635.55 80.08 2.00 171.64 2855.56
   16:58:47.218.16-Jul-2020 4261.01 4635.56 80.08 2.00 171.84 2855.56
   16:58:47.418.16-Jul-2020 4261.01 4635.58 80.08 2.00 172.04 2855.56
   16:58:47.618.16-Jul-2020 4261.01 4635.58 80.08 2.00 172.24 2855.56
   16:58:47.818.16-Jul-2020 4261.01 4635.55 80.08 2.00 172.44 2855.56
   16:58:48.018.16-Jul-2020 4261.01 4635.54 80.08 2.00 172.64 2855.56
   16:58:48.218.16-Jul-2020 4261.01 4635.56 80.08 2.00 172.84 2855.56
   16:58:48.418.16-Jul-2020 4261.01 4635.43 80.08 2.00 173.04 2855.56
   16:58:48.618.16-Jul-2020 4261.01 4635.43 80.08 2.00 173.24 2855.56
   16:58:48.818.16-Jul-2020 4261.01 4635.56 80.08 2.00 173.44 2855.56
   16:58:49.018.16-Jul-2020 4261.01 4635.63 80.08 2.00 173.64 2855.56
   16:58:49.218.16-Jul-2020 4261.01 4635.52 80.08 2.00 173.84 2855.56
   16:58:49.418.16-Jul-2020 4261.01 4635.53 80.08 2.00 174.04 2855.56
   16:58:49.618.16-Jul-2020 4261.01 4635.53 80.08 2.00 174.24 2855.56
   16:58:49.818.16-Jul-2020 4261.01 4635.58 80.08 2.00 174.44 2855.56
   16:58:50.018.16-Jul-2020 4261.01 4635.58 80.08 2.00 174.64 2855.56
   16:58:50.218.16-Jul-2020 4261.01 4635.55 80.08 2.00 174.84 2855.56
   16:58:50.418.16-Jul-2020 4261.01 4635.59 80.07 2.00 175.04 2855.56
   16:58:50.618.16-Jul-2020 4261.01 4635.59 80.07 2.00 175.24 2855.56
   16:58:50.818.16-Jul-2020 4261.01 4635.56 80.07 2.00 175.44 2855.56
   16:58:51.018.16-Jul-2020 4261.01 4635.58 80.07 2.00 175.64 2855.56
   16:58:51.218.16-Jul-2020 4261.01 4635.55 80.07 2.00 175.84 2855.56
   16:58:51.418.16-Jul-2020 4261.01 4635.61 80.07 2.00 176.04 2855.56
   16:58:51.618.16-Jul-2020 4261.01 4635.61 80.07 2.00 176.24 2855.56
   16:58:51.819.16-Jul-2020 4261.01 4635.79 80.07 2.00 176.44 2855.56
   16:58:52.019.16-Jul-2020 4261.01 4635.55 80.07 2.00 176.64 2855.56
   16:58:52.219.16-Jul-2020 4261.01 4635.63 80.07 2.00 176.84 2855.56
   16:58:52.419.16-Jul-2020 4261.01 4635.57 80.07 2.00 177.04 2855.56
   16:58:52.619.16-Jul-2020 4261.01 4635.65 80.07 2.00 177.24 2855.56
   16:58:52.819.16-Jul-2020 4261.01 4635.48 80.07 2.00 177.44 2855.56
   16:58:53.019.16-Jul-2020 4261.01 4635.58 80.07 2.00 177.64 2855.56
   16:58:53.219.16-Jul-2020 4261.01 4635.53 80.07 2.00 177.84 2855.56
   16:58:53.419.16-Jul-2020 4261.01 4635.75 80.07 2.00 178.04 2855.56
   16:58:53.619.16-Jul-2020 4261.01 4635.75 80.07 2.00 178.24 2855.56
   16:58:53.819.16-Jul-2020 4261.01 4635.64 80.07 2.00 178.44 2855.56
   16:58:54.019.16-Jul-2020 4261.01 4635.57 80.07 2.00 178.64 2855.56
   16:58:54.219.16-Jul-2020 4261.01 4635.77 80.07 2.00 178.84 2855.56
   16:58:54.419.16-Jul-2020 4261.01 4635.53 80.07 2.00 179.04 2855.56
   16:58:54.619.16-Jul-2020 4261.01 4635.53 80.07 2.00 179.24 2855.56
   16:58:54.819.16-Jul-2020 4261.01 4635.57 80.07 2.00 179.44 2855.56
   16:58:55.019.16-Jul-2020 4261.01 4635.56 80.07 2.00 179.64 2855.56
   16:58:55.219.16-Jul-2020 4261.01 4635.60 80.07 2.00 179.84 2855.56
   16:58:55.419.16-Jul-2020 4261.01 4635.59 80.07 2.00 180.04 2855.56
   16:58:55.619.16-Jul-2020 4261.01 4635.59 80.07 2.00 180.24 2855.56
   16:58:55.819.16-Jul-2020 4261.01 4635.58 80.07 2.00 180.44 2855.56
   16:58:56.019.16-Jul-2020 4261.01 4635.59 80.07 2.00 180.64 2855.56
   16:58:56.219.16-Jul-2020 4261.01 4635.60 80.07 2.00 180.84 2855.56
   16:58:56.419.16-Jul-2020 4261.01 4635.56 80.07 2.00 181.04 2855.56
   16:58:56.620.16-Jul-2020 4261.01 4635.59 80.07 2.00 181.24 2855.56
   16:58:56.820.16-Jul-2020 4261.01 4635.86 80.07 2.00 181.44 2855.56
   16:58:57.020.16-Jul-2020 4261.01 4635.43 80.07 2.00 181.64 2855.56
   16:58:57.220.16-Jul-2020 4261.01 4635.47 80.07 2.00 181.84 2855.56
   16:58:57.420.16-Jul-2020 4261.01 4635.64 80.07 2.00 182.04 2855.56
   16:58:57.620.16-Jul-2020 4261.01 4635.64 80.07 2.00 182.24 2855.56
   16:58:57.820.16-Jul-2020 4261.01 4635.59 80.07 2.00 182.44 2855.56
   16:58:58.020.16-Jul-2020 4261.01 4635.59 80.07 2.00 182.64 2855.56
   16:58:58.220.16-Jul-2020 4261.01 4635.60 80.07 2.00 182.84 2855.56
   16:58:58.420.16-Jul-2020 4261.01 4635.60 80.07 2.00 183.04 2855.56
   16:58:58.620.16-Jul-2020 4261.01 4635.60 80.07 2.00 183.24 2855.56
   16:58:58.820.16-Jul-2020 4261.01 4635.60 80.07 2.00 183.44 2855.56
   16:58:59.020.16-Jul-2020 4261.01 4635.60 80.07 2.00 183.64 2855.56
   16:58:59.220.16-Jul-2020 4261.01 4635.60 80.07 2.00 183.84 2855.56
