~Version Information
 VERS.                  2.0:   CWLS log ASCII Standard -VERSION 2.0
 WRAP.                   NO:   One line per depth step
~Well Information Block
#MNEM.UNIT     VALUE/NAME     DESCRIPTION
#---------     -----------    ---------------------------
 STRT.S             17:56:46 16-Jul-20: START TIME 17:56:46 16-Jul-20
 STOP.S             18:03:39 16-Jul-20: STOP TIME  18:03:39 16-Jul-20
 STEP.S                   0.00: STEP TIME
 NULL.                 -999.25: NULL VALUE
 MDS .        Operator Entered:  MAG DATA SOURCE
 UNIT.                     N/A:  LOGGING EQUIPMENT ID
 DCON.         Sperry Drilling:  DIRECTNL CONTR
 DOE .                     N/A:  DOE NUMBER
 RIG .               EastAzeri:  RIG NAME
 JOBN.        AZ-XX-0906363297:  JOB TICKET NUMB
 MWDS.                    Baku:  MWD SHOP
 SRVC.     Turan Drilling & Engineering:  CONTRACTOR
 PROV.                    Baku:  PROVINCE
 STAT.                    Baku:  STATE NAME
 REGN.                   EESSA:  REGION
 BASE.              Azerbaijan:  LOGGING EQUIPMENT BASE LOCATION
 WTYP.                Deviated:  WELL TYPE
 UWI .                     N/A:  UNIQUE WELL IDENTIFIER
 API .                     N/A:  API NUMBER
 COMP.     BP Exploration (Caspian Sea) ltd.:  COMPANY
 WELL.                    D07z:  WELL NAME
 CTRY.              Azerbaijan:  COUNTRY NAME
 SON .        AZ-XX-0906363297:  JOB NUMBER
 FLD .                     ACG:  FIELD NAME
 PDAT.          Mean Sea Level:  PERMANENT DATUM
 FTOP.          Formation Tops:  FORM TOPS DESC
 ILTD.               Lithology:  INTERP LTH DESC
 SVYD.                  Survey:  SURVEY DESC
 DMOD.             Drill Model:  DRILL MOD DESC
 HPTY.       Minimum Curvature:  HOLE POS TYPE
 NREF.                    Grid:  NORTH REFERENCE
 SPUD.               28-Jun-20:  SPUD DATE
 DATE.      18.27.12 28-Jun-20:  END TIME
 STIM.      18.27.12 28-Jun-20:  START TIME
 DMF .             Drill Floor:  DRILL MEAS FROM
 DFST.                        :  DIST FSL TEXT
 DFWT.                        :  DIST FWL TEXT
 CNTY.                        :  COUNTY
 LOC .                        :  LOCATION
 LMF .             Drill Floor:  LOG MEASURED FROM
 VSNS.m                  -7.75:  VERT SEC N/S
 VSEW.m                  -9.19:  VERT SEC E/W
 MMDE.m                   0.00:  MAGUTM CALC DEP
 AGAP.m                  43.60:  AIR GAP
 DEP .m                4058.99:  DEPTH
 APD .m                  43.60:  DEPTH ABOVE PD
 WDMS.m                 151.80:  WD ELEV
 EGL .m                   0.00:  GROUND ELEVATION
 EPD .m                   0.00:  ELEVATION
 AZTC.deg                 6.19:  AZM TOTAL CORR
 GRDC.deg                 0.27:  GRID CORRECTION
 MDEC.deg                 6.46:  MAGNETIC DECL
 MDIP.deg                59.47:  MAGNETIC DIP
 MFLD.nT              50279.00:  MAGNETIC FIELD
 GVFD.g                   1.00:  GRAVITY FIELD
 VSDR.deg               249.96:  VERT SEC DIRECT
 TDD .m                   0.00:  TOTAL DEPTH (DRILLER)
 SDEP.m                   0.00:  START DEPTH
 DFSL.m                   0.00:  DISTANCE FSL
 DFWL.m                   0.00:  DISTANCE FWL
 UTMY.m             4431880.20:  UTM Y
 UTMX.m              538763.98:  UTM X
 WHEW.m                  -9.19:  WELL HEAD E/W
 WHNS.m                  -7.75:  WELL HEAD N/S
 LONG.deg                51.45:  LONGITUDE
 LATI.deg                40.02:  LATITUDE
 TVDS.m                  43.60:  TVDSS CORRECTN
 EKB .m                  43.60:  KB ELEVATION
 EDF .m                  43.60:  DF ELEVATION
 TDL .m                 248.00:  TOTAL DEPTH (LOGGER)
 MAGU.                 1849075:  MAGUTM CHECKSUM
 VSC .                       0:  VS TO CLOSURE
~Parameter Information Block
#MNEM.UNIT       Value        Description
#---------     -----------    ---------------------------
 AV  .mps                 6.34:  Ann Velocity 
 AVMX.mps                 7.00:  Max Ann Veloc 
 AZIF.deg               260.29:  Azm, Final 
 BHAT.        Rotary Steerable:  BHA Type 
 BROT.°/30m               1.20:  Build Rotating 
 BS  .in                  8.50:  Bit Size 
 BSZ .in                  8.50:  Bit Size 
 BTPL.psig              620.00:  Bit Press Loss 
 CABU.                     Yes:  Customer Abuse 
 COMM.                     LqT:  Run Comments 1 
 TCS .hr                 56.22:  Time Ciculation Ended 
 CV  .mps                 3.05:  Crit Velocity 
 CVMX.mps                 3.20:  Max Crit Veloc 
 DD1 .            Musa Ahmadov:  Direct Drillr 1 
 DDSV.                 iCruise:  DD Service 
 DEFF.%                  98.00:  % Det Eff 
 DLRX.°/30m               2.78:  Dogleg Rot Max 
 DLSO.°/30m               0.00:  Dogleg Oriented 
 DLSX.°/30m               0.00:  Dogleg Str Max 
 DRET.      05.20.48 16-Jul-20:  Drill End Time 
 DRST.      10.20.48 13-Jul-20:  Drill Start Tim 
 DTIM.hr                 14.25:  Time Drilling 
 EDEP.m                4326.01:  End Depth 
 ENG1.      Artemiy Matviyanov:  Engineer 1 
 ENG2.           Amrah Tahirov:  Engineer 2 
 ETIM.      22.30.00 18-Jul-20:  End Time 
 FLOI.gpm               550.00:  Flow In 
 FLON.gpm               450.00:  Flow In Min 
 FLOS.cptm                0.00:  Fluid Loss 
 FLOX.gpm               600.00:  Flow In Max 
 HFLO.                      No:  High Flow 
 HPRE.                      No:  High Pressure 
 HTEM.                      No:  High Temp 
 HYDO.m                   1.80:  Hydro Offset 
 IFIN.deg                65.41:  Inc, Final 
 IMAX.deg                65.14:  Inc Max 
 IMIN.deg                58.89:  Inc Min 
 IMND.m                4104.92:  Inc Min Depth 
 IMXD.m                4303.89:  Inc Max Depth 
 JARR.                      No:  Jarring 
 LETM.      10.20.48 17-Jul-20:  Log End Time 
 LOST.hr                     0:  Lost Rig Time 
 LSTM.      10.20.48 13-Jul-20:  Log Start Time 
 MDCL.ppm             37000.00:  Mud Chlorides 
 MDES.     Inversion Oil/Synthetic:  Mud Desc 
 DFD .sg                  1.52:  Mud Density 
 MDMN.sg                  1.52:  Dens Mud Min 
 MDMX.sg                  1.52:  Dens Mud Max 
 MOIL.                   52.70:  Run Mud Oil % 
 MOWR.                   68:32:  Run Mud OWR 
 MSND.                     0.2:  Run Mud Sand % 
 MSOL.                    21.6:  Run Mud Solids% 
 DFV .spqt               79.00:  Mud Viscosity 
 MWOD.in                  6.75:  MWD Tool OD 
 MWSI.                      No:  Serv Intrp, MWD 
 OTIM.hr                114.04:  Time Operating 
 PCON.          Wear / Scratch:  Pad Condition 
 PMAX.psia            11782.92:  Press Op, Max 
 PV  .cP                 49.00:  Mud PV 
 RUN .                     600:  Run Number 
 ROPA.m/hr               20.00:  ROP Avg 
 ROPN.m/hr               15.00:  ROP Min 
 ROPX.m/hr               22.00:  ROP Max 
 RPMA.rpm               120.00:  RPM Surface Avg 
 RPMN.rpm                90.00:  RPM Surface Min 
 RPMX.rpm               140.00:  RPM Surface Max 
 RRUN.                     600:  Rig Run Number 
 SAZI.deg               260.29:  Azm, Start 
 SDEP.m                4078.01:  Start Depth 
 SIDD.                      No:  Serv Intrp, DD 
 SINC.deg                58.89:  Inc, Start 
 SPPA.psig             4560.00:  SPP Avg 
 SPPN.psig             3600.00:  SPP Min 
 SPPX.psig             4800.00:  SPP Max 
 STIM.      10.20.48 13-Jul-20:  Start Time 
 SVCS.                 DD, MWD:  Services 
 SVER.                    9.20:  Sperry Version 
 TDAT.m                4378.01:  Tot Depth Attmp 
 TDDF.                      No:  Trip for DD 
 TDLG.m                 248.00:  Tot Depth Loggd 
 TFF .                      No:  Trip for Fail 
 TQAA.f-kp               18.00:  Torque Abs Avg 
 TQAN.f-kp               15.00:  Torque Abs Min 
 TQAX.f-kp               20.00:  Torque Abs Max 
 TRRT.°/30m               0.70:  Turn Rotating 
 MRT .                    HCIM:  Maximum Recorded Temperature 
 TTMX.degC               86.00:  Max Tool Temp 
 WBMN.klb                 3.00:  WOB Min 
 WOBA.klb                 5.00:  WOB Avg 
 WOBX.klb                 9.00:  WOB Max 
 YP  .lhf2               32.00:  Yield Point 
~Curve Information Block
#MNEM.UNIT                 API CODE     Curve Description
#---------               -----------    ---------------------------
 TIME.HHMMSS            00 000 000 000:  GT Time & Date
 GTDEPTH.m              00 000 000 000:  GT Depth
 GTPQH.psia             00 000 000 000:  GT HR Quartz Pressure
 GTTQ.degC              00 000 000 000:  GT Quartz Temperature
 GTTN.NONE              00 000 000 000:  GT Test Number
 GTET.sec               00 000 000 000:  GT Elapsed Test Time
 GTTVD.m                00 000 000 000:  GT True Vertical Depth
#Other Information
#
#WARRANTY: Halliburton will use its best efforts to furnish customers with 
#accurate information and interpretations that are part of, and incident to, the services 
#provided.  However, Halliburton cannot and does not warrant the accuracy 
#or correctness of such information and interpretations.  Under no circumstances should any 
#such information or interpretation be relied upon as the sole basis for any drilling, 
#completion, production, or financial decision or any procedure involving any risk to the 
#safety of any drilling venture, drilling rig or its crew or any other third party.  The 
#Customer has full responsibility for all drilling, completion and production operation.  
#Halliburton makes no representations or warranties, either expressed or 
#implied, including, but not limited to, the implied warranties of merchantability or fitness 
#for a particular purpose, with respect to the services rendered.  In no event will 
#Halliburton be liable for failure to obtain any particular results or for 
#any damages, including, but not limited to, indirect, special or consequential damages, 
#resulting from the use of any information or interpretation provided by Halliburton.
#
~A           TIME           GTDEPTH  GTPQH  GTTQ  GTTN  GTET   GTTVD  
# ...
   17:59:27.360.16-Jul-2020 4229.01 4706.14 79.73 4.00 161.07 2841.98
   17:59:27.560.16-Jul-2020 4229.01 4706.02 79.73 4.00 161.27 2841.98
   17:59:27.761.16-Jul-2020 4229.01 4706.06 79.73 4.00 161.47 2841.98
   17:59:27.961.16-Jul-2020 4229.01 4706.08 79.73 4.00 161.67 2841.98
   17:59:28.161.16-Jul-2020 4229.01 4706.02 79.73 4.00 161.87 2841.98
   17:59:28.361.16-Jul-2020 4229.01 4706.14 79.73 4.00 162.07 2841.98
   17:59:28.561.16-Jul-2020 4229.01 4706.14 79.73 4.00 162.27 2841.98
   17:59:28.761.16-Jul-2020 4229.01 4706.18 79.73 4.00 162.47 2841.98
   17:59:28.961.16-Jul-2020 4229.01 4706.04 79.73 4.00 162.67 2841.98
   17:59:29.161.16-Jul-2020 4229.01 4706.10 79.73 4.00 162.87 2841.98
   17:59:29.361.16-Jul-2020 4229.01 4706.29 79.73 4.00 163.07 2841.98
   17:59:29.561.16-Jul-2020 4229.01 4706.29 79.73 4.00 163.27 2841.98
   17:59:29.761.16-Jul-2020 4229.01 4706.16 79.73 4.00 163.47 2841.98
   17:59:29.962.16-Jul-2020 4229.01 4706.05 79.73 4.00 163.67 2841.98
   17:59:30.162.16-Jul-2020 4229.01 4706.10 79.73 4.00 163.87 2841.98
   17:59:30.362.16-Jul-2020 4229.01 4706.06 79.73 4.00 164.07 2841.98
   17:59:30.562.16-Jul-2020 4229.01 4706.08 79.73 4.00 164.27 2841.98
   17:59:30.762.16-Jul-2020 4229.01 4706.12 79.73 4.00 164.47 2841.98
   17:59:30.962.16-Jul-2020 4229.01 4706.09 79.73 4.00 164.67 2841.98
   17:59:31.162.16-Jul-2020 4229.01 4706.08 79.73 4.00 164.87 2841.98
   17:59:31.362.16-Jul-2020 4229.01 4706.10 79.73 4.00 165.07 2841.98
   17:59:31.562.16-Jul-2020 4229.01 4706.08 79.73 4.00 165.27 2841.98
   17:59:31.762.16-Jul-2020 4229.01 4706.09 79.73 4.00 165.47 2841.98
   17:59:31.962.16-Jul-2020 4229.01 4706.31 79.73 4.00 165.67 2841.98
   17:59:32.162.16-Jul-2020 4229.01 4705.98 79.73 4.00 165.87 2841.98
   17:59:32.363.16-Jul-2020 4229.01 4706.12 79.73 4.00 166.07 2841.98
   17:59:32.563.16-Jul-2020 4229.01 4706.12 79.73 4.00 166.27 2841.98
   17:59:32.763.16-Jul-2020 4229.01 4706.11 79.73 4.00 166.47 2841.98
   17:59:32.963.16-Jul-2020 4229.01 4706.11 79.73 4.00 166.67 2841.98
   17:59:33.163.16-Jul-2020 4229.01 4706.08 79.73 4.00 166.87 2841.98
   17:59:33.363.16-Jul-2020 4229.01 4706.13 79.73 4.00 167.07 2841.98
   17:59:33.563.16-Jul-2020 4229.01 4706.13 79.73 4.00 167.27 2841.98
   17:59:33.763.16-Jul-2020 4229.01 4706.13 79.73 4.00 167.47 2841.98
   17:59:33.963.16-Jul-2020 4229.01 4706.09 79.73 4.00 167.67 2841.98
   17:59:34.163.16-Jul-2020 4229.01 4706.11 79.73 4.00 167.87 2841.98
   17:59:34.363.16-Jul-2020 4229.01 4706.11 79.73 4.00 168.07 2841.98
   17:59:34.564.16-Jul-2020 4229.01 4706.12 79.73 4.00 168.27 2841.98
   17:59:34.764.16-Jul-2020 4229.01 4706.11 79.73 4.00 168.47 2841.98
   17:59:34.964.16-Jul-2020 4229.01 4706.09 79.73 4.00 168.67 2841.98
   17:59:35.164.16-Jul-2020 4229.01 4706.34 79.73 4.00 168.87 2841.98
   17:59:35.364.16-Jul-2020 4229.01 4705.98 79.73 4.00 169.08 2841.98
   17:59:35.564.16-Jul-2020 4229.01 4705.98 79.73 4.00 169.28 2841.98
   17:59:35.764.16-Jul-2020 4229.01 4706.06 79.73 4.00 169.48 2841.98
   17:59:35.964.16-Jul-2020 4229.01 4706.34 79.73 4.00 169.68 2841.98
   17:59:36.164.16-Jul-2020 4229.01 4705.96 79.73 4.00 169.88 2841.98
   17:59:36.364.16-Jul-2020 4229.01 4706.12 79.73 4.00 170.08 2841.98
   17:59:36.564.16-Jul-2020 4229.01 4706.12 79.73 4.00 170.28 2841.98
   17:59:36.765.16-Jul-2020 4229.01 4706.14 79.73 4.00 170.48 2841.98
   17:59:36.965.16-Jul-2020 4229.01 4706.06 79.73 4.00 170.68 2841.98
   17:59:37.165.16-Jul-2020 4229.01 4706.09 79.73 4.00 170.88 2841.98
   17:59:37.365.16-Jul-2020 4229.01 4706.19 79.73 4.00 171.08 2841.98
   17:59:37.565.16-Jul-2020 4229.01 4706.09 79.73 4.00 171.28 2841.98
   17:59:37.765.16-Jul-2020 4229.01 4706.09 79.73 4.00 171.48 2841.98
   17:59:37.965.16-Jul-2020 4229.01 4706.12 79.73 4.00 171.68 2841.98
   17:59:38.165.16-Jul-2020 4229.01 4706.18 79.73 4.00 171.88 2841.98
   17:59:38.365.16-Jul-2020 4229.01 4706.13 79.73 4.00 172.08 2841.98
   17:59:38.565.16-Jul-2020 4229.01 4706.12 79.73 4.00 172.28 2841.98
   17:59:38.765.16-Jul-2020 4229.01 4706.14 79.73 4.00 172.48 2841.98
   17:59:38.966.16-Jul-2020 4229.01 4706.12 79.73 4.00 172.68 2841.98
   17:59:39.166.16-Jul-2020 4229.01 4706.13 79.73 4.00 172.88 2841.98
   17:59:39.366.16-Jul-2020 4229.01 4706.10 79.73 4.00 173.08 2841.98
   17:59:39.566.16-Jul-2020 4229.01 4706.10 79.73 4.00 173.28 2841.98
   17:59:39.766.16-Jul-2020 4229.01 4706.12 79.73 4.00 173.48 2841.98
   17:59:39.966.16-Jul-2020 4229.01 4706.11 79.73 4.00 173.68 2841.98
   17:59:40.166.16-Jul-2020 4229.01 4706.13 79.73 4.00 173.88 2841.98
   17:59:40.366.16-Jul-2020 4229.01 4706.32 79.73 4.00 174.08 2841.98
   17:59:40.566.16-Jul-2020 4229.01 4705.97 79.73 4.00 174.28 2841.98
   17:59:40.766.16-Jul-2020 4229.01 4706.18 79.73 4.00 174.48 2841.98
   17:59:40.966.16-Jul-2020 4229.01 4706.08 79.73 4.00 174.68 2841.98
   17:59:41.166.16-Jul-2020 4229.01 4706.10 79.73 4.00 174.88 2841.98
   17:59:41.367.16-Jul-2020 4229.01 4706.09 79.73 4.00 175.08 2841.98
   17:59:41.567.16-Jul-2020 4229.01 4706.13 79.73 4.00 175.28 2841.98
   17:59:41.767.16-Jul-2020 4229.01 4706.10 79.73 4.00 175.48 2841.98
   17:59:41.967.16-Jul-2020 4229.01 4706.13 79.73 4.00 175.68 2841.98
   17:59:42.167.16-Jul-2020 4229.01 4706.12 79.73 4.00 175.88 2841.98
   17:59:42.367.16-Jul-2020 4229.01 4706.14 79.73 4.00 176.08 2841.98
   17:59:42.567.16-Jul-2020 4229.01 4706.13 79.73 4.00 176.28 2841.98
   17:59:42.767.16-Jul-2020 4229.01 4706.13 79.73 4.00 176.48 2841.98
   17:59:42.967.16-Jul-2020 4229.01 4706.12 79.73 4.00 176.68 2841.98
   17:59:43.167.16-Jul-2020 4229.01 4706.14 79.73 4.00 176.88 2841.98
   17:59:43.367.16-Jul-2020 4229.01 4706.12 79.73 4.00 177.08 2841.98
   17:59:43.568.16-Jul-2020 4229.01 4706.12 79.73 4.00 177.28 2841.98
   17:59:43.768.16-Jul-2020 4229.01 4705.94 79.73 4.00 177.48 2841.98
   17:59:43.968.16-Jul-2020 4229.01 4706.19 79.73 4.00 177.68 2841.98
   17:59:44.168.16-Jul-2020 4229.01 4706.07 79.73 4.00 177.88 2841.98
   17:59:44.368.16-Jul-2020 4229.01 4706.37 79.73 4.00 178.08 2841.98
   17:59:44.568.16-Jul-2020 4229.01 4706.37 79.73 4.00 178.28 2841.98
   17:59:44.768.16-Jul-2020 4229.01 4706.18 79.73 4.00 178.48 2841.98
   17:59:44.968.16-Jul-2020 4229.01 4706.01 79.73 4.00 178.68 2841.98
   17:59:45.168.16-Jul-2020 4229.01 4706.14 79.73 4.00 178.88 2841.98
   17:59:45.368.16-Jul-2020 4229.01 4706.31 79.73 4.00 179.08 2841.98
   17:59:45.568.16-Jul-2020 4229.01 4706.31 79.73 4.00 179.28 2841.98
   17:59:45.769.16-Jul-2020 4229.01 4706.17 79.73 4.00 179.48 2841.98
   17:59:45.969.16-Jul-2020 4229.01 4706.03 79.73 4.00 179.68 2841.98
   17:59:46.169.16-Jul-2020 4229.01 4706.15 79.73 4.00 179.88 2841.98
   17:59:46.369.16-Jul-2020 4229.01 4706.26 79.73 4.00 180.08 2841.98
   17:59:46.569.16-Jul-2020 4229.01 4705.98 79.73 4.00 180.28 2841.98
   17:59:46.769.16-Jul-2020 4229.01 4706.17 79.73 4.00 180.48 2841.98
   17:59:46.969.16-Jul-2020 4229.01 4706.11 79.73 4.00 180.68 2841.98
   17:59:47.169.16-Jul-2020 4229.01 4706.15 79.73 4.00 180.88 2841.98
   17:59:47.369.16-Jul-2020 4229.01 4706.07 79.73 4.00 181.08 2841.98
   17:59:47.569.16-Jul-2020 4229.01 4706.07 79.73 4.00 181.28 2841.98
   17:59:47.769.16-Jul-2020 4229.01 4706.12 79.73 4.00 181.48 2841.98
   17:59:47.969.16-Jul-2020 4229.01 4706.12 79.73 4.00 181.68 2841.98
   17:59:48.170.16-Jul-2020 4229.01 4706.11 79.73 4.00 181.88 2841.98
   17:59:48.370.16-Jul-2020 4229.01 4706.13 79.73 4.00 182.08 2841.98
   17:59:48.570.16-Jul-2020 4229.01 4706.13 79.73 4.00 182.28 2841.98
   17:59:48.770.16-Jul-2020 4229.01 4706.14 79.73 4.00 182.48 2841.98
   17:59:48.970.16-Jul-2020 4229.01 4706.28 79.73 4.00 182.68 2841.98
   17:59:49.170.16-Jul-2020 4229.01 4706.01 79.73 4.00 182.88 2841.98
   17:59:49.370.16-Jul-2020 4229.01 4706.16 79.73 4.00 183.08 2841.98
   17:59:49.570.16-Jul-2020 4229.01 4706.16 79.73 4.00 183.28 2841.98
   17:59:49.770.16-Jul-2020 4229.01 4706.12 79.73 4.00 183.48 2841.98
   17:59:49.970.16-Jul-2020 4229.01 4706.10 79.73 4.00 183.68 2841.98
   17:59:50.170.16-Jul-2020 4229.01 4706.14 79.73 4.00 183.88 2841.98
