~Version Information
 VERS.                  2.0:   CWLS log ASCII Standard -VERSION 2.0
 WRAP.                   NO:   One line per depth step
~Well Information Block
#MNEM.UNIT     VALUE/NAME     DESCRIPTION
#---------     -----------    ---------------------------
 STRT.S             19:19:02 16-Jul-20: START TIME 19:19:02 16-Jul-20
 STOP.S             19:25:52 16-Jul-20: STOP TIME  19:25:52 16-Jul-20
 STEP.S                   0.00: STEP TIME
 NULL.                 -999.25: NULL VALUE
 MDS .        Operator Entered:  MAG DATA SOURCE
 UNIT.                     N/A:  LOGGING EQUIPMENT ID
 DCON.         Sperry Drilling:  DIRECTNL CONTR
 DOE .                     N/A:  DOE NUMBER
 RIG .               EastAzeri:  RIG NAME
 JOBN.        AZ-XX-0906363297:  JOB TICKET NUMB
 MWDS.                    Baku:  MWD SHOP
 SRVC.     Turan Drilling & Engineering:  CONTRACTOR
 PROV.                    Baku:  PROVINCE
 STAT.                    Baku:  STATE NAME
 REGN.                   EESSA:  REGION
 BASE.              Azerbaijan:  LOGGING EQUIPMENT BASE LOCATION
 WTYP.                Deviated:  WELL TYPE
 UWI .                     N/A:  UNIQUE WELL IDENTIFIER
 API .                     N/A:  API NUMBER
 COMP.     BP Exploration (Caspian Sea) ltd.:  COMPANY
 WELL.                    D07z:  WELL NAME
 CTRY.              Azerbaijan:  COUNTRY NAME
 SON .        AZ-XX-0906363297:  JOB NUMBER
 FLD .                     ACG:  FIELD NAME
 PDAT.          Mean Sea Level:  PERMANENT DATUM
 FTOP.          Formation Tops:  FORM TOPS DESC
 ILTD.               Lithology:  INTERP LTH DESC
 SVYD.                  Survey:  SURVEY DESC
 DMOD.             Drill Model:  DRILL MOD DESC
 HPTY.       Minimum Curvature:  HOLE POS TYPE
 NREF.                    Grid:  NORTH REFERENCE
 SPUD.               28-Jun-20:  SPUD DATE
 DATE.      18.27.12 28-Jun-20:  END TIME
 STIM.      18.27.12 28-Jun-20:  START TIME
 DMF .             Drill Floor:  DRILL MEAS FROM
 DFST.                        :  DIST FSL TEXT
 DFWT.                        :  DIST FWL TEXT
 CNTY.                        :  COUNTY
 LOC .                        :  LOCATION
 LMF .             Drill Floor:  LOG MEASURED FROM
 VSNS.m                  -7.75:  VERT SEC N/S
 VSEW.m                  -9.19:  VERT SEC E/W
 MMDE.m                   0.00:  MAGUTM CALC DEP
 AGAP.m                  43.60:  AIR GAP
 DEP .m                4058.99:  DEPTH
 APD .m                  43.60:  DEPTH ABOVE PD
 WDMS.m                 151.80:  WD ELEV
 EGL .m                   0.00:  GROUND ELEVATION
 EPD .m                   0.00:  ELEVATION
 AZTC.deg                 6.19:  AZM TOTAL CORR
 GRDC.deg                 0.27:  GRID CORRECTION
 MDEC.deg                 6.46:  MAGNETIC DECL
 MDIP.deg                59.47:  MAGNETIC DIP
 MFLD.nT              50279.00:  MAGNETIC FIELD
 GVFD.g                   1.00:  GRAVITY FIELD
 VSDR.deg               249.96:  VERT SEC DIRECT
 TDD .m                   0.00:  TOTAL DEPTH (DRILLER)
 SDEP.m                   0.00:  START DEPTH
 DFSL.m                   0.00:  DISTANCE FSL
 DFWL.m                   0.00:  DISTANCE FWL
 UTMY.m             4431880.20:  UTM Y
 UTMX.m              538763.98:  UTM X
 WHEW.m                  -9.19:  WELL HEAD E/W
 WHNS.m                  -7.75:  WELL HEAD N/S
 LONG.deg                51.45:  LONGITUDE
 LATI.deg                40.02:  LATITUDE
 TVDS.m                  43.60:  TVDSS CORRECTN
 EKB .m                  43.60:  KB ELEVATION
 EDF .m                  43.60:  DF ELEVATION
 TDL .m                 248.00:  TOTAL DEPTH (LOGGER)
 MAGU.                 1849075:  MAGUTM CHECKSUM
 VSC .                       0:  VS TO CLOSURE
~Parameter Information Block
#MNEM.UNIT       Value        Description
#---------     -----------    ---------------------------
 AV  .mps                 6.34:  Ann Velocity 
 AVMX.mps                 7.00:  Max Ann Veloc 
 AZIF.deg               260.29:  Azm, Final 
 BHAT.        Rotary Steerable:  BHA Type 
 BROT.°/30m               1.20:  Build Rotating 
 BS  .in                  8.50:  Bit Size 
 BSZ .in                  8.50:  Bit Size 
 BTPL.psig              620.00:  Bit Press Loss 
 CABU.                     Yes:  Customer Abuse 
 COMM.                     d)s:  Run Comments 1 
 TCS .hr                 56.22:  Time Ciculation Ended 
 CV  .mps                 3.05:  Crit Velocity 
 CVMX.mps                 3.20:  Max Crit Veloc 
 DD1 .            Musa Ahmadov:  Direct Drillr 1 
 DDSV.                 iCruise:  DD Service 
 DEFF.%                  98.00:  % Det Eff 
 DLRX.°/30m               2.78:  Dogleg Rot Max 
 DLSO.°/30m               0.00:  Dogleg Oriented 
 DLSX.°/30m               0.00:  Dogleg Str Max 
 DRET.      05.20.48 16-Jul-20:  Drill End Time 
 DRST.      10.20.48 13-Jul-20:  Drill Start Tim 
 DTIM.hr                 14.25:  Time Drilling 
 EDEP.m                4326.01:  End Depth 
 ENG1.      Artemiy Matviyanov:  Engineer 1 
 ENG2.           Amrah Tahirov:  Engineer 2 
 ETIM.      22.30.00 18-Jul-20:  End Time 
 FLOI.gpm               550.00:  Flow In 
 FLON.gpm               450.00:  Flow In Min 
 FLOS.cptm                0.00:  Fluid Loss 
 FLOX.gpm               600.00:  Flow In Max 
 HFLO.                      No:  High Flow 
 HPRE.                      No:  High Pressure 
 HTEM.                      No:  High Temp 
 HYDO.m                   1.80:  Hydro Offset 
 IFIN.deg                65.41:  Inc, Final 
 IMAX.deg                65.14:  Inc Max 
 IMIN.deg                58.89:  Inc Min 
 IMND.m                4104.92:  Inc Min Depth 
 IMXD.m                4303.89:  Inc Max Depth 
 JARR.                      No:  Jarring 
 LETM.      10.20.48 17-Jul-20:  Log End Time 
 LOST.hr                     0:  Lost Rig Time 
 LSTM.      10.20.48 13-Jul-20:  Log Start Time 
 MDCL.ppm             37000.00:  Mud Chlorides 
 MDES.     Inversion Oil/Synthetic:  Mud Desc 
 DFD .sg                  1.52:  Mud Density 
 MDMN.sg                  1.52:  Dens Mud Min 
 MDMX.sg                  1.52:  Dens Mud Max 
 MOIL.                   52.70:  Run Mud Oil % 
 MOWR.                   68:32:  Run Mud OWR 
 MSND.                     0.2:  Run Mud Sand % 
 MSOL.                    21.6:  Run Mud Solids% 
 DFV .spqt               79.00:  Mud Viscosity 
 MWOD.in                  6.75:  MWD Tool OD 
 MWSI.                      No:  Serv Intrp, MWD 
 OTIM.hr                114.04:  Time Operating 
 PCON.          Wear / Scratch:  Pad Condition 
 PMAX.psia            11782.92:  Press Op, Max 
 PV  .cP                 49.00:  Mud PV 
 RUN .                     600:  Run Number 
 ROPA.m/hr               20.00:  ROP Avg 
 ROPN.m/hr               15.00:  ROP Min 
 ROPX.m/hr               22.00:  ROP Max 
 RPMA.rpm               120.00:  RPM Surface Avg 
 RPMN.rpm                90.00:  RPM Surface Min 
 RPMX.rpm               140.00:  RPM Surface Max 
 RRUN.                     600:  Rig Run Number 
 SAZI.deg               260.29:  Azm, Start 
 SDEP.m                4078.01:  Start Depth 
 SIDD.                      No:  Serv Intrp, DD 
 SINC.deg                58.89:  Inc, Start 
 SPPA.psig             4560.00:  SPP Avg 
 SPPN.psig             3600.00:  SPP Min 
 SPPX.psig             4800.00:  SPP Max 
 STIM.      10.20.48 13-Jul-20:  Start Time 
 SVCS.                 DD, MWD:  Services 
 SVER.                    9.20:  Sperry Version 
 TDAT.m                4378.01:  Tot Depth Attmp 
 TDDF.                      No:  Trip for DD 
 TDLG.m                 248.00:  Tot Depth Loggd 
 TFF .                      No:  Trip for Fail 
 TQAA.f-kp               18.00:  Torque Abs Avg 
 TQAN.f-kp               15.00:  Torque Abs Min 
 TQAX.f-kp               20.00:  Torque Abs Max 
 TRRT.°/30m               0.70:  Turn Rotating 
 MRT .                    HCIM:  Maximum Recorded Temperature 
 TTMX.degC               86.00:  Max Tool Temp 
 WBMN.klb                 3.00:  WOB Min 
 WOBA.klb                 5.00:  WOB Avg 
 WOBX.klb                 9.00:  WOB Max 
 YP  .lhf2               32.00:  Yield Point 
~Curve Information Block
#MNEM.UNIT                 API CODE     Curve Description
#---------               -----------    ---------------------------
 TIME.HHMMSS            00 000 000 000:  GT Time & Date
 GTDEPTH.m              00 000 000 000:  GT Depth
 GTPQH.psia             00 000 000 000:  GT HR Quartz Pressure
 GTTQ.degC              00 000 000 000:  GT Quartz Temperature
 GTTN.NONE              00 000 000 000:  GT Test Number
 GTET.sec               00 000 000 000:  GT Elapsed Test Time
 GTTVD.m                00 000 000 000:  GT True Vertical Depth
#Other Information
#
#WARRANTY: Halliburton will use its best efforts to furnish customers with 
#accurate information and interpretations that are part of, and incident to, the services 
#provided.  However, Halliburton cannot and does not warrant the accuracy 
#or correctness of such information and interpretations.  Under no circumstances should any 
#such information or interpretation be relied upon as the sole basis for any drilling, 
#completion, production, or financial decision or any procedure involving any risk to the 
#safety of any drilling venture, drilling rig or its crew or any other third party.  The 
#Customer has full responsibility for all drilling, completion and production operation.  
#Halliburton makes no representations or warranties, either expressed or 
#implied, including, but not limited to, the implied warranties of merchantability or fitness 
#for a particular purpose, with respect to the services rendered.  In no event will 
#Halliburton be liable for failure to obtain any particular results or for 
#any damages, including, but not limited to, indirect, special or consequential damages, 
#resulting from the use of any information or interpretation provided by Halliburton.
#
~A           TIME           GTDEPTH  GTPQH  GTTQ  GTTN  GTET   GTTVD  
# ...
   19:22:06.383.16-Jul-2020 4190.01 4791.63 79.03 6.00 184.08 2825.02
   19:22:06.584.16-Jul-2020 4190.01 4791.63 79.03 6.00 184.28 2825.02
   19:22:06.784.16-Jul-2020 4190.01 4791.51 79.03 6.00 184.48 2825.02
   19:22:06.984.16-Jul-2020 4190.01 4791.57 79.03 6.00 184.68 2825.02
   19:22:07.184.16-Jul-2020 4190.01 4791.48 79.03 6.00 184.88 2825.02
   19:22:07.384.16-Jul-2020 4190.01 4791.56 79.03 6.00 185.08 2825.02
   19:22:07.584.16-Jul-2020 4190.01 4791.56 79.03 6.00 185.28 2825.02
   19:22:07.784.16-Jul-2020 4190.01 4791.49 79.03 6.00 185.48 2825.02
   19:22:07.984.16-Jul-2020 4190.01 4791.48 79.03 6.00 185.68 2825.02
   19:22:08.184.16-Jul-2020 4190.01 4791.69 79.03 6.00 185.88 2825.02
   19:22:08.384.16-Jul-2020 4190.01 4791.40 79.03 6.00 186.08 2825.02
   19:22:08.584.16-Jul-2020 4190.01 4791.40 79.03 6.00 186.28 2825.02
   19:22:08.785.16-Jul-2020 4190.01 4791.52 79.03 6.00 186.48 2825.02
   19:22:08.985.16-Jul-2020 4190.01 4791.51 79.03 6.00 186.68 2825.02
   19:22:09.185.16-Jul-2020 4190.01 4791.56 79.03 6.00 186.88 2825.02
   19:22:09.385.16-Jul-2020 4190.01 4791.48 79.03 6.00 187.08 2825.02
   19:22:09.585.16-Jul-2020 4190.01 4791.64 79.03 6.00 187.28 2825.02
   19:22:09.785.16-Jul-2020 4190.01 4791.55 79.03 6.00 187.48 2825.02
   19:22:09.985.16-Jul-2020 4190.01 4791.56 79.03 6.00 187.68 2825.02
   19:22:10.185.16-Jul-2020 4190.01 4791.55 79.03 6.00 187.88 2825.02
   19:22:10.385.16-Jul-2020 4190.01 4791.51 79.03 6.00 188.08 2825.02
   19:22:10.585.16-Jul-2020 4190.01 4791.51 79.03 6.00 188.28 2825.02
   19:22:10.785.16-Jul-2020 4190.01 4791.54 79.03 6.00 188.48 2825.02
   19:22:10.985.16-Jul-2020 4190.01 4791.56 79.03 6.00 188.68 2825.02
   19:22:11.186.16-Jul-2020 4190.01 4791.55 79.03 6.00 188.88 2825.02
   19:22:11.386.16-Jul-2020 4190.01 4791.53 79.03 6.00 189.08 2825.02
   19:22:11.586.16-Jul-2020 4190.01 4791.53 79.03 6.00 189.28 2825.02
   19:22:11.786.16-Jul-2020 4190.01 4791.55 79.03 6.00 189.49 2825.02
   19:22:11.986.16-Jul-2020 4190.01 4791.69 79.03 6.00 189.69 2825.02
   19:22:12.186.16-Jul-2020 4190.01 4791.36 79.03 6.00 189.89 2825.02
   19:22:12.386.16-Jul-2020 4190.01 4791.55 79.03 6.00 190.09 2825.02
   19:22:12.586.16-Jul-2020 4190.01 4791.55 79.03 6.00 190.29 2825.02
   19:22:12.786.16-Jul-2020 4190.01 4791.56 79.03 6.00 190.49 2825.02
   19:22:12.986.16-Jul-2020 4190.01 4791.52 79.03 6.00 190.69 2825.02
   19:22:13.186.16-Jul-2020 4190.01 4791.56 79.03 6.00 190.89 2825.02
   19:22:13.387.16-Jul-2020 4190.01 4791.53 79.03 6.00 191.09 2825.02
   19:22:13.587.16-Jul-2020 4190.01 4791.53 79.03 6.00 191.29 2825.02
   19:22:13.787.16-Jul-2020 4190.01 4791.56 79.03 6.00 191.49 2825.02
   19:22:13.987.16-Jul-2020 4190.01 4791.54 79.03 6.00 191.69 2825.02
   19:22:14.187.16-Jul-2020 4190.01 4791.55 79.03 6.00 191.89 2825.02
   19:22:14.387.16-Jul-2020 4190.01 4791.54 79.03 6.00 192.09 2825.02
   19:22:14.587.16-Jul-2020 4190.01 4791.55 79.03 6.00 192.29 2825.02
   19:22:14.787.16-Jul-2020 4190.01 4791.53 79.03 6.00 192.49 2825.02
   19:22:14.987.16-Jul-2020 4190.01 4791.55 79.03 6.00 192.69 2825.02
   19:22:15.187.16-Jul-2020 4190.01 4791.70 79.03 6.00 192.89 2825.02
   19:22:15.387.16-Jul-2020 4190.01 4791.35 79.03 6.00 193.09 2825.02
   19:22:15.588.16-Jul-2020 4190.01 4791.35 79.03 6.00 193.29 2825.02
   19:22:15.788.16-Jul-2020 4190.01 4791.59 79.03 6.00 193.49 2825.02
   19:22:15.988.16-Jul-2020 4190.01 4791.56 79.03 6.00 193.69 2825.02
   19:22:16.188.16-Jul-2020 4190.01 4791.54 79.03 6.00 193.89 2825.02
   19:22:16.388.16-Jul-2020 4190.01 4791.69 79.03 6.00 194.09 2825.02
   19:22:16.588.16-Jul-2020 4190.01 4791.69 79.03 6.00 194.29 2825.02
   19:22:16.788.16-Jul-2020 4190.01 4791.60 79.03 6.00 194.49 2825.02
   19:22:16.988.16-Jul-2020 4190.01 4791.53 79.03 6.00 194.69 2825.02
   19:22:17.188.16-Jul-2020 4190.01 4791.51 79.03 6.00 194.89 2825.02
   19:22:17.388.16-Jul-2020 4190.01 4791.73 79.03 6.00 195.09 2825.02
   19:22:17.588.16-Jul-2020 4190.01 4791.73 79.03 6.00 195.29 2825.02
   19:22:17.789.16-Jul-2020 4190.01 4791.52 79.03 6.00 195.49 2825.02
   19:22:17.989.16-Jul-2020 4190.01 4791.63 79.03 6.00 195.69 2825.02
   19:22:18.189.16-Jul-2020 4190.01 4791.55 79.03 6.00 195.89 2825.02
   19:22:18.389.16-Jul-2020 4190.01 4791.47 79.03 6.00 196.09 2825.02
   19:22:18.589.16-Jul-2020 4190.01 4791.47 79.03 6.00 196.29 2825.02
   19:22:18.789.16-Jul-2020 4190.01 4791.74 79.03 6.00 196.49 2825.02
   19:22:18.989.16-Jul-2020 4190.01 4791.48 79.03 6.00 196.69 2825.02
   19:22:19.189.16-Jul-2020 4190.01 4791.50 79.03 6.00 196.89 2825.02
   19:22:19.389.16-Jul-2020 4190.01 4791.54 79.03 6.00 197.09 2825.02
   19:22:19.589.16-Jul-2020 4190.01 4791.54 79.03 6.00 197.29 2825.02
   19:22:19.789.16-Jul-2020 4190.01 4791.55 79.03 6.00 197.49 2825.02
   19:22:19.990.16-Jul-2020 4190.01 4791.56 79.03 6.00 197.69 2825.02
   19:22:20.190.16-Jul-2020 4190.01 4791.55 79.03 6.00 197.89 2825.02
   19:22:20.390.16-Jul-2020 4190.01 4791.54 79.03 6.00 198.09 2825.02
   19:22:20.590.16-Jul-2020 4190.01 4791.54 79.03 6.00 198.29 2825.02
   19:22:20.790.16-Jul-2020 4190.01 4791.53 79.02 6.00 198.49 2825.02
   19:22:20.990.16-Jul-2020 4190.01 4791.54 79.03 6.00 198.69 2825.02
   19:22:21.190.16-Jul-2020 4190.01 4791.48 79.02 6.00 198.89 2825.02
   19:22:21.390.16-Jul-2020 4190.01 4791.65 79.02 6.00 199.09 2825.02
   19:22:21.590.16-Jul-2020 4190.01 4791.65 79.02 6.00 199.29 2825.02
   19:22:21.790.16-Jul-2020 4190.01 4791.56 79.02 6.00 199.49 2825.02
   19:22:21.990.16-Jul-2020 4190.01 4791.56 79.02 6.00 199.69 2825.02
   19:22:22.191.16-Jul-2020 4190.01 4791.51 79.02 6.00 199.89 2825.02
   19:22:22.391.16-Jul-2020 4190.01 4791.55 79.02 6.00 200.09 2825.02
   19:22:22.591.16-Jul-2020 4190.01 4791.55 79.02 6.00 200.29 2825.02
   19:22:22.791.16-Jul-2020 4190.01 4791.56 79.02 6.00 200.49 2825.02
   19:22:22.991.16-Jul-2020 4190.01 4791.55 79.02 6.00 200.69 2825.02
   19:22:23.191.16-Jul-2020 4190.01 4791.53 79.02 6.00 200.89 2825.02
   19:22:23.391.16-Jul-2020 4190.01 4791.55 79.02 6.00 201.09 2825.02
   19:22:23.591.16-Jul-2020 4190.01 4791.55 79.02 6.00 201.29 2825.02
   19:22:23.791.16-Jul-2020 4190.01 4791.53 79.02 6.00 201.49 2825.02
   19:22:23.991.16-Jul-2020 4190.01 4791.54 79.02 6.00 201.69 2825.02
   19:22:24.191.16-Jul-2020 4190.01 4791.56 79.02 6.00 201.89 2825.02
   19:22:24.392.16-Jul-2020 4190.01 4791.45 79.02 6.00 202.09 2825.02
   19:22:24.592.16-Jul-2020 4190.01 4791.66 79.02 6.00 202.29 2825.02
   19:22:24.792.16-Jul-2020 4190.01 4791.56 79.02 6.00 202.49 2825.02
   19:22:24.992.16-Jul-2020 4190.01 4791.56 79.02 6.00 202.69 2825.02
   19:22:25.192.16-Jul-2020 4190.01 4791.55 79.02 6.00 202.89 2825.02
   19:22:25.392.16-Jul-2020 4190.01 4791.51 79.02 6.00 203.09 2825.02
   19:22:25.592.16-Jul-2020 4190.01 4791.51 79.02 6.00 203.29 2825.02
   19:22:25.792.16-Jul-2020 4190.01 4791.36 79.02 6.00 203.49 2825.02
   19:22:25.992.16-Jul-2020 4190.01 4791.52 79.02 6.00 203.69 2825.02
   19:22:26.192.16-Jul-2020 4190.01 4791.63 79.02 6.00 203.89 2825.02
   19:22:26.392.16-Jul-2020 4190.01 4791.55 79.02 6.00 204.09 2825.02
   19:22:26.592.16-Jul-2020 4190.01 4791.55 79.02 6.00 204.29 2825.02
   19:22:26.793.16-Jul-2020 4190.01 4791.68 79.02 6.00 204.49 2825.02
   19:22:26.993.16-Jul-2020 4190.01 4791.52 79.02 6.00 204.69 2825.02
   19:22:27.193.16-Jul-2020 4190.01 4791.54 79.02 6.00 204.89 2825.02
   19:22:27.393.16-Jul-2020 4190.01 4791.57 79.02 6.00 205.09 2825.02
   19:22:27.593.16-Jul-2020 4190.01 4791.57 79.02 6.00 205.29 2825.02
   19:22:27.793.16-Jul-2020 4190.01 4791.42 79.02 6.00 205.49 2825.02
   19:22:27.993.16-Jul-2020 4190.01 4791.60 79.02 6.00 205.69 2825.02
   19:22:28.193.16-Jul-2020 4190.01 4791.51 79.02 6.00 205.89 2825.02
   19:22:28.393.16-Jul-2020 4190.01 4791.55 79.02 6.00 206.09 2825.02
   19:22:28.593.16-Jul-2020 4190.01 4791.55 79.02 6.00 206.29 2825.02
   19:22:28.793.16-Jul-2020 4190.01 4791.54 79.02 6.00 206.49 2825.02
   19:22:28.994.16-Jul-2020 4190.01 4791.54 79.02 6.00 206.69 2825.02
   19:22:29.194.16-Jul-2020 4190.01 4791.54 79.02 6.00 206.89 2825.02
