~Version Information
 VERS.                  2.0:   CWLS log ASCII Standard -VERSION 2.0
 WRAP.                   NO:   One line per depth step
~Well Information Block
#MNEM.UNIT     VALUE/NAME     DESCRIPTION
#---------     -----------    ---------------------------
 STRT.S             19:19:02 16-Jul-20: START TIME 19:19:02 16-Jul-20
 STOP.S             19:25:52 16-Jul-20: STOP TIME  19:25:52 16-Jul-20
 STEP.S                   0.00: STEP TIME
 NULL.                 -999.25: NULL VALUE
 MDS .        Operator Entered:  MAG DATA SOURCE
 UNIT.                     N/A:  LOGGING EQUIPMENT ID
 DCON.         Sperry Drilling:  DIRECTNL CONTR
 DOE .                     N/A:  DOE NUMBER
 RIG .               EastAzeri:  RIG NAME
 JOBN.        AZ-XX-0906363297:  JOB TICKET NUMB
 MWDS.                    Baku:  MWD SHOP
 SRVC.     Turan Drilling & Engineering:  CONTRACTOR
 PROV.                    Baku:  PROVINCE
 STAT.                    Baku:  STATE NAME
 REGN.                   EESSA:  REGION
 BASE.              Azerbaijan:  LOGGING EQUIPMENT BASE LOCATION
 WTYP.                Deviated:  WELL TYPE
 UWI .                     N/A:  UNIQUE WELL IDENTIFIER
 API .                     N/A:  API NUMBER
 COMP.     BP Exploration (Caspian Sea) ltd.:  COMPANY
 WELL.                    D07z:  WELL NAME
 CTRY.              Azerbaijan:  COUNTRY NAME
 SON .        AZ-XX-0906363297:  JOB NUMBER
 FLD .                     ACG:  FIELD NAME
 PDAT.          Mean Sea Level:  PERMANENT DATUM
 FTOP.          Formation Tops:  FORM TOPS DESC
 ILTD.               Lithology:  INTERP LTH DESC
 SVYD.                  Survey:  SURVEY DESC
 DMOD.             Drill Model:  DRILL MOD DESC
 HPTY.       Minimum Curvature:  HOLE POS TYPE
 NREF.                    Grid:  NORTH REFERENCE
 SPUD.               28-Jun-20:  SPUD DATE
 DATE.      18.27.12 28-Jun-20:  END TIME
 STIM.      18.27.12 28-Jun-20:  START TIME
 DMF .             Drill Floor:  DRILL MEAS FROM
 DFST.                        :  DIST FSL TEXT
 DFWT.                        :  DIST FWL TEXT
 CNTY.                        :  COUNTY
 LOC .                        :  LOCATION
 LMF .             Drill Floor:  LOG MEASURED FROM
 VSNS.m                  -7.75:  VERT SEC N/S
 VSEW.m                  -9.19:  VERT SEC E/W
 MMDE.m                   0.00:  MAGUTM CALC DEP
 AGAP.m                  43.60:  AIR GAP
 DEP .m                4058.99:  DEPTH
 APD .m                  43.60:  DEPTH ABOVE PD
 WDMS.m                 151.80:  WD ELEV
 EGL .m                   0.00:  GROUND ELEVATION
 EPD .m                   0.00:  ELEVATION
 AZTC.deg                 6.19:  AZM TOTAL CORR
 GRDC.deg                 0.27:  GRID CORRECTION
 MDEC.deg                 6.46:  MAGNETIC DECL
 MDIP.deg                59.47:  MAGNETIC DIP
 MFLD.nT              50279.00:  MAGNETIC FIELD
 GVFD.g                   1.00:  GRAVITY FIELD
 VSDR.deg               249.96:  VERT SEC DIRECT
 TDD .m                   0.00:  TOTAL DEPTH (DRILLER)
 SDEP.m                   0.00:  START DEPTH
 DFSL.m                   0.00:  DISTANCE FSL
 DFWL.m                   0.00:  DISTANCE FWL
 UTMY.m             4431880.20:  UTM Y
 UTMX.m              538763.98:  UTM X
 WHEW.m                  -9.19:  WELL HEAD E/W
 WHNS.m                  -7.75:  WELL HEAD N/S
 LONG.deg                51.45:  LONGITUDE
 LATI.deg                40.02:  LATITUDE
 TVDS.m                  43.60:  TVDSS CORRECTN
 EKB .m                  43.60:  KB ELEVATION
 EDF .m                  43.60:  DF ELEVATION
 TDL .m                 248.00:  TOTAL DEPTH (LOGGER)
 MAGU.                 1849075:  MAGUTM CHECKSUM
 VSC .                       0:  VS TO CLOSURE
~Parameter Information Block
#MNEM.UNIT       Value        Description
#---------     -----------    ---------------------------
 AV  .mps                 6.34:  Ann Velocity 
 AVMX.mps                 7.00:  Max Ann Veloc 
 AZIF.deg               260.29:  Azm, Final 
 BHAT.        Rotary Steerable:  BHA Type 
 BROT.°/30m               1.20:  Build Rotating 
 BS  .in                  8.50:  Bit Size 
 BSZ .in                  8.50:  Bit Size 
 BTPL.psig              620.00:  Bit Press Loss 
 CABU.                     Yes:  Customer Abuse 
 COMM.                     d)s:  Run Comments 1 
 TCS .hr                 56.22:  Time Ciculation Ended 
 CV  .mps                 3.05:  Crit Velocity 
 CVMX.mps                 3.20:  Max Crit Veloc 
 DD1 .            Musa Ahmadov:  Direct Drillr 1 
 DDSV.                 iCruise:  DD Service 
 DEFF.%                  98.00:  % Det Eff 
 DLRX.°/30m               2.78:  Dogleg Rot Max 
 DLSO.°/30m               0.00:  Dogleg Oriented 
 DLSX.°/30m               0.00:  Dogleg Str Max 
 DRET.      05.20.48 16-Jul-20:  Drill End Time 
 DRST.      10.20.48 13-Jul-20:  Drill Start Tim 
 DTIM.hr                 14.25:  Time Drilling 
 EDEP.m                4326.01:  End Depth 
 ENG1.      Artemiy Matviyanov:  Engineer 1 
 ENG2.           Amrah Tahirov:  Engineer 2 
 ETIM.      22.30.00 18-Jul-20:  End Time 
 FLOI.gpm               550.00:  Flow In 
 FLON.gpm               450.00:  Flow In Min 
 FLOS.cptm                0.00:  Fluid Loss 
 FLOX.gpm               600.00:  Flow In Max 
 HFLO.                      No:  High Flow 
 HPRE.                      No:  High Pressure 
 HTEM.                      No:  High Temp 
 HYDO.m                   1.80:  Hydro Offset 
 IFIN.deg                65.41:  Inc, Final 
 IMAX.deg                65.14:  Inc Max 
 IMIN.deg                58.89:  Inc Min 
 IMND.m                4104.92:  Inc Min Depth 
 IMXD.m                4303.89:  Inc Max Depth 
 JARR.                      No:  Jarring 
 LETM.      10.20.48 17-Jul-20:  Log End Time 
 LOST.hr                     0:  Lost Rig Time 
 LSTM.      10.20.48 13-Jul-20:  Log Start Time 
 MDCL.ppm             37000.00:  Mud Chlorides 
 MDES.     Inversion Oil/Synthetic:  Mud Desc 
 DFD .sg                  1.52:  Mud Density 
 MDMN.sg                  1.52:  Dens Mud Min 
 MDMX.sg                  1.52:  Dens Mud Max 
 MOIL.                   52.70:  Run Mud Oil % 
 MOWR.                   68:32:  Run Mud OWR 
 MSND.                     0.2:  Run Mud Sand % 
 MSOL.                    21.6:  Run Mud Solids% 
 DFV .spqt               79.00:  Mud Viscosity 
 MWOD.in                  6.75:  MWD Tool OD 
 MWSI.                      No:  Serv Intrp, MWD 
 OTIM.hr                114.04:  Time Operating 
 PCON.          Wear / Scratch:  Pad Condition 
 PMAX.psia            11782.92:  Press Op, Max 
 PV  .cP                 49.00:  Mud PV 
 RUN .                     600:  Run Number 
 ROPA.m/hr               20.00:  ROP Avg 
 ROPN.m/hr               15.00:  ROP Min 
 ROPX.m/hr               22.00:  ROP Max 
 RPMA.rpm               120.00:  RPM Surface Avg 
 RPMN.rpm                90.00:  RPM Surface Min 
 RPMX.rpm               140.00:  RPM Surface Max 
 RRUN.                     600:  Rig Run Number 
 SAZI.deg               260.29:  Azm, Start 
 SDEP.m                4078.01:  Start Depth 
 SIDD.                      No:  Serv Intrp, DD 
 SINC.deg                58.89:  Inc, Start 
 SPPA.psig             4560.00:  SPP Avg 
 SPPN.psig             3600.00:  SPP Min 
 SPPX.psig             4800.00:  SPP Max 
 STIM.      10.20.48 13-Jul-20:  Start Time 
 SVCS.                 DD, MWD:  Services 
 SVER.                    9.20:  Sperry Version 
 TDAT.m                4378.01:  Tot Depth Attmp 
 TDDF.                      No:  Trip for DD 
 TDLG.m                 248.00:  Tot Depth Loggd 
 TFF .                      No:  Trip for Fail 
 TQAA.f-kp               18.00:  Torque Abs Avg 
 TQAN.f-kp               15.00:  Torque Abs Min 
 TQAX.f-kp               20.00:  Torque Abs Max 
 TRRT.°/30m               0.70:  Turn Rotating 
 MRT .                    HCIM:  Maximum Recorded Temperature 
 TTMX.degC               86.00:  Max Tool Temp 
 WBMN.klb                 3.00:  WOB Min 
 WOBA.klb                 5.00:  WOB Avg 
 WOBX.klb                 9.00:  WOB Max 
 YP  .lhf2               32.00:  Yield Point 
~Curve Information Block
#MNEM.UNIT                 API CODE     Curve Description
#---------               -----------    ---------------------------
 TIME.HHMMSS            00 000 000 000:  GT Time & Date
 GTDEPTH.m              00 000 000 000:  GT Depth
 GTPQH.psia             00 000 000 000:  GT HR Quartz Pressure
 GTTQ.degC              00 000 000 000:  GT Quartz Temperature
 GTTN.NONE              00 000 000 000:  GT Test Number
 GTET.sec               00 000 000 000:  GT Elapsed Test Time
 GTTVD.m                00 000 000 000:  GT True Vertical Depth
#Other Information
#
#WARRANTY: Halliburton will use its best efforts to furnish customers with 
#accurate information and interpretations that are part of, and incident to, the services 
#provided.  However, Halliburton cannot and does not warrant the accuracy 
#or correctness of such information and interpretations.  Under no circumstances should any 
#such information or interpretation be relied upon as the sole basis for any drilling, 
#completion, production, or financial decision or any procedure involving any risk to the 
#safety of any drilling venture, drilling rig or its crew or any other third party.  The 
#Customer has full responsibility for all drilling, completion and production operation.  
#Halliburton makes no representations or warranties, either expressed or 
#implied, including, but not limited to, the implied warranties of merchantability or fitness 
#for a particular purpose, with respect to the services rendered.  In no event will 
#Halliburton be liable for failure to obtain any particular results or for 
#any damages, including, but not limited to, indirect, special or consequential damages, 
#resulting from the use of any information or interpretation provided by Halliburton.
#
~A           TIME           GTDEPTH  GTPQH  GTTQ  GTTN  GTET   GTTVD  
# ...
   19:21:43.373.16-Jul-2020 4190.01 4791.42 79.03 6.00 161.07 2825.02
   19:21:43.573.16-Jul-2020 4190.01 4791.42 79.03 6.00 161.27 2825.02
   19:21:43.773.16-Jul-2020 4190.01 4791.50 79.03 6.00 161.47 2825.02
   19:21:43.973.16-Jul-2020 4190.01 4791.45 79.03 6.00 161.67 2825.02
   19:21:44.173.16-Jul-2020 4190.01 4791.47 79.03 6.00 161.87 2825.02
   19:21:44.374.16-Jul-2020 4190.01 4791.48 79.03 6.00 162.07 2825.02
   19:21:44.574.16-Jul-2020 4190.01 4791.48 79.03 6.00 162.27 2825.02
   19:21:44.774.16-Jul-2020 4190.01 4791.49 79.03 6.00 162.47 2825.02
   19:21:44.974.16-Jul-2020 4190.01 4791.44 79.03 6.00 162.67 2825.02
   19:21:45.174.16-Jul-2020 4190.01 4791.48 79.03 6.00 162.87 2825.02
   19:21:45.374.16-Jul-2020 4190.01 4791.46 79.03 6.00 163.07 2825.02
   19:21:45.574.16-Jul-2020 4190.01 4791.46 79.03 6.00 163.27 2825.02
   19:21:45.774.16-Jul-2020 4190.01 4791.58 79.03 6.00 163.47 2825.02
   19:21:45.974.16-Jul-2020 4190.01 4791.50 79.03 6.00 163.67 2825.02
   19:21:46.174.16-Jul-2020 4190.01 4791.51 79.03 6.00 163.87 2825.02
   19:21:46.374.16-Jul-2020 4190.01 4791.51 79.03 6.00 164.07 2825.02
   19:21:46.575.16-Jul-2020 4190.01 4791.51 79.03 6.00 164.27 2825.02
   19:21:46.775.16-Jul-2020 4190.01 4791.48 79.03 6.00 164.47 2825.02
   19:21:46.975.16-Jul-2020 4190.01 4791.52 79.03 6.00 164.67 2825.02
   19:21:47.175.16-Jul-2020 4190.01 4791.47 79.03 6.00 164.87 2825.02
   19:21:47.375.16-Jul-2020 4190.01 4791.51 79.03 6.00 165.07 2825.02
   19:21:47.575.16-Jul-2020 4190.01 4791.51 79.03 6.00 165.27 2825.02
   19:21:47.775.16-Jul-2020 4190.01 4791.49 79.03 6.00 165.47 2825.02
   19:21:47.975.16-Jul-2020 4190.01 4791.50 79.03 6.00 165.67 2825.02
   19:21:48.175.16-Jul-2020 4190.01 4791.49 79.03 6.00 165.87 2825.02
   19:21:48.375.16-Jul-2020 4190.01 4791.50 79.03 6.00 166.07 2825.02
   19:21:48.575.16-Jul-2020 4190.01 4791.50 79.03 6.00 166.27 2825.02
   19:21:48.776.16-Jul-2020 4190.01 4791.43 79.03 6.00 166.47 2825.02
   19:21:48.976.16-Jul-2020 4190.01 4791.60 79.03 6.00 166.67 2825.02
   19:21:49.176.16-Jul-2020 4190.01 4791.54 79.03 6.00 166.87 2825.02
   19:21:49.376.16-Jul-2020 4190.01 4791.51 79.03 6.00 167.07 2825.02
   19:21:49.576.16-Jul-2020 4190.01 4791.51 79.03 6.00 167.28 2825.02
   19:21:49.776.16-Jul-2020 4190.01 4791.50 79.03 6.00 167.48 2825.02
   19:21:49.976.16-Jul-2020 4190.01 4791.68 79.03 6.00 167.68 2825.02
   19:21:50.176.16-Jul-2020 4190.01 4791.34 79.03 6.00 167.88 2825.02
   19:21:50.376.16-Jul-2020 4190.01 4791.50 79.03 6.00 168.08 2825.02
   19:21:50.576.16-Jul-2020 4190.01 4791.50 79.03 6.00 168.28 2825.02
   19:21:50.776.16-Jul-2020 4190.01 4791.53 79.03 6.00 168.48 2825.02
   19:21:50.977.16-Jul-2020 4190.01 4791.42 79.03 6.00 168.68 2825.02
   19:21:51.177.16-Jul-2020 4190.01 4791.65 79.03 6.00 168.88 2825.02
   19:21:51.377.16-Jul-2020 4190.01 4791.53 79.03 6.00 169.08 2825.02
   19:21:51.577.16-Jul-2020 4190.01 4791.53 79.03 6.00 169.28 2825.02
   19:21:51.777.16-Jul-2020 4190.01 4791.53 79.03 6.00 169.48 2825.02
   19:21:51.977.16-Jul-2020 4190.01 4791.63 79.03 6.00 169.68 2825.02
   19:21:52.177.16-Jul-2020 4190.01 4791.39 79.03 6.00 169.88 2825.02
   19:21:52.377.16-Jul-2020 4190.01 4791.62 79.03 6.00 170.08 2825.02
   19:21:52.577.16-Jul-2020 4190.01 4791.62 79.03 6.00 170.28 2825.02
   19:21:52.777.16-Jul-2020 4190.01 4791.51 79.03 6.00 170.48 2825.02
   19:21:52.977.16-Jul-2020 4190.01 4791.55 79.03 6.00 170.68 2825.02
   19:21:53.177.16-Jul-2020 4190.01 4791.51 79.03 6.00 170.88 2825.02
   19:21:53.378.16-Jul-2020 4190.01 4791.54 79.03 6.00 171.08 2825.02
   19:21:53.578.16-Jul-2020 4190.01 4791.54 79.03 6.00 171.28 2825.02
   19:21:53.778.16-Jul-2020 4190.01 4791.54 79.03 6.00 171.48 2825.02
   19:21:53.978.16-Jul-2020 4190.01 4791.51 79.03 6.00 171.68 2825.02
   19:21:54.178.16-Jul-2020 4190.01 4791.53 79.03 6.00 171.88 2825.02
   19:21:54.378.16-Jul-2020 4190.01 4791.55 79.03 6.00 172.08 2825.02
   19:21:54.578.16-Jul-2020 4190.01 4791.55 79.03 6.00 172.28 2825.02
   19:21:54.778.16-Jul-2020 4190.01 4791.54 79.03 6.00 172.48 2825.02
   19:21:54.978.16-Jul-2020 4190.01 4791.73 79.03 6.00 172.68 2825.02
   19:21:55.178.16-Jul-2020 4190.01 4791.46 79.03 6.00 172.88 2825.02
   19:21:55.378.16-Jul-2020 4190.01 4791.51 79.03 6.00 173.08 2825.02
   19:21:55.579.16-Jul-2020 4190.01 4791.51 79.03 6.00 173.28 2825.02
   19:21:55.779.16-Jul-2020 4190.01 4791.53 79.03 6.00 173.48 2825.02
   19:21:55.979.16-Jul-2020 4190.01 4791.52 79.03 6.00 173.68 2825.02
   19:21:56.179.16-Jul-2020 4190.01 4791.53 79.03 6.00 173.88 2825.02
   19:21:56.379.16-Jul-2020 4190.01 4791.53 79.03 6.00 174.08 2825.02
   19:21:56.579.16-Jul-2020 4190.01 4791.53 79.03 6.00 174.28 2825.02
   19:21:56.779.16-Jul-2020 4190.01 4791.47 79.03 6.00 174.48 2825.02
   19:21:56.979.16-Jul-2020 4190.01 4791.55 79.03 6.00 174.68 2825.02
   19:21:57.179.16-Jul-2020 4190.01 4791.71 79.03 6.00 174.88 2825.02
   19:21:57.379.16-Jul-2020 4190.01 4791.50 79.03 6.00 175.08 2825.02
   19:21:57.579.16-Jul-2020 4190.01 4791.47 79.03 6.00 175.28 2825.02
   19:21:57.780.16-Jul-2020 4190.01 4791.55 79.03 6.00 175.48 2825.02
   19:21:57.980.16-Jul-2020 4190.01 4791.54 79.03 6.00 175.68 2825.02
   19:21:58.180.16-Jul-2020 4190.01 4791.47 79.03 6.00 175.88 2825.02
   19:21:58.380.16-Jul-2020 4190.01 4791.64 79.03 6.00 176.08 2825.02
   19:21:58.580.16-Jul-2020 4190.01 4791.54 79.03 6.00 176.28 2825.02
   19:21:58.780.16-Jul-2020 4190.01 4791.55 79.03 6.00 176.48 2825.02
   19:21:58.980.16-Jul-2020 4190.01 4791.49 79.03 6.00 176.68 2825.02
   19:21:59.180.16-Jul-2020 4190.01 4791.53 79.03 6.00 176.88 2825.02
   19:21:59.380.16-Jul-2020 4190.01 4791.72 79.03 6.00 177.08 2825.02
   19:21:59.580.16-Jul-2020 4190.01 4791.72 79.03 6.00 177.28 2825.02
   19:21:59.780.16-Jul-2020 4190.01 4791.49 79.03 6.00 177.48 2825.02
   19:21:59.981.16-Jul-2020 4190.01 4791.54 79.03 6.00 177.68 2825.02
   19:22:00.181.16-Jul-2020 4190.01 4791.71 79.03 6.00 177.88 2825.02
   19:22:00.381.16-Jul-2020 4190.01 4791.35 79.03 6.00 178.08 2825.02
   19:22:00.581.16-Jul-2020 4190.01 4791.54 79.03 6.00 178.28 2825.02
   19:22:00.781.16-Jul-2020 4190.01 4791.60 79.03 6.00 178.48 2825.02
   19:22:00.981.16-Jul-2020 4190.01 4791.56 79.03 6.00 178.68 2825.02
   19:22:01.181.16-Jul-2020 4190.01 4791.53 79.03 6.00 178.88 2825.02
   19:22:01.381.16-Jul-2020 4190.01 4791.54 79.03 6.00 179.08 2825.02
   19:22:01.581.16-Jul-2020 4190.01 4791.54 79.03 6.00 179.28 2825.02
   19:22:01.781.16-Jul-2020 4190.01 4791.52 79.03 6.00 179.48 2825.02
   19:22:01.981.16-Jul-2020 4190.01 4791.55 79.03 6.00 179.68 2825.02
   19:22:02.182.16-Jul-2020 4190.01 4791.54 79.03 6.00 179.88 2825.02
   19:22:02.382.16-Jul-2020 4190.01 4791.55 79.03 6.00 180.08 2825.02
   19:22:02.582.16-Jul-2020 4190.01 4791.55 79.03 6.00 180.28 2825.02
   19:22:02.782.16-Jul-2020 4190.01 4791.66 79.03 6.00 180.48 2825.02
   19:22:02.982.16-Jul-2020 4190.01 4791.40 79.03 6.00 180.68 2825.02
   19:22:03.182.16-Jul-2020 4190.01 4791.63 79.03 6.00 180.88 2825.02
   19:22:03.382.16-Jul-2020 4190.01 4791.50 79.03 6.00 181.08 2825.02
   19:22:03.582.16-Jul-2020 4190.01 4791.50 79.03 6.00 181.28 2825.02
   19:22:03.782.16-Jul-2020 4190.01 4791.57 79.03 6.00 181.48 2825.02
   19:22:03.982.16-Jul-2020 4190.01 4791.51 79.03 6.00 181.68 2825.02
   19:22:04.182.16-Jul-2020 4190.01 4791.55 79.03 6.00 181.88 2825.02
   19:22:04.383.16-Jul-2020 4190.01 4791.55 79.03 6.00 182.08 2825.02
   19:22:04.583.16-Jul-2020 4190.01 4791.55 79.03 6.00 182.28 2825.02
   19:22:04.783.16-Jul-2020 4190.01 4791.56 79.03 6.00 182.48 2825.02
   19:22:04.983.16-Jul-2020 4190.01 4791.55 79.03 6.00 182.68 2825.02
   19:22:05.183.16-Jul-2020 4190.01 4791.55 79.03 6.00 182.88 2825.02
   19:22:05.383.16-Jul-2020 4190.01 4791.52 79.03 6.00 183.08 2825.02
   19:22:05.583.16-Jul-2020 4190.01 4791.52 79.03 6.00 183.28 2825.02
   19:22:05.783.16-Jul-2020 4190.01 4791.54 79.03 6.00 183.48 2825.02
   19:22:05.983.16-Jul-2020 4190.01 4791.68 79.03 6.00 183.68 2825.02
   19:22:06.183.16-Jul-2020 4190.01 4791.39 79.03 6.00 183.88 2825.02
