~Version Information
 VERS.                  2.0:   CWLS log ASCII Standard -VERSION 2.0
 WRAP.                   NO:   One line per depth step
~Well Information Block
#MNEM.UNIT     VALUE/NAME     DESCRIPTION
#---------     -----------    ---------------------------
 STRT.S             17:56:46 16-Jul-20: START TIME 17:56:46 16-Jul-20
 STOP.S             18:03:39 16-Jul-20: STOP TIME  18:03:39 16-Jul-20
 STEP.S                   0.00: STEP TIME
 NULL.                 -999.25: NULL VALUE
 MDS .        Operator Entered:  MAG DATA SOURCE
 UNIT.                     N/A:  LOGGING EQUIPMENT ID
 DCON.         Sperry Drilling:  DIRECTNL CONTR
 DOE .                     N/A:  DOE NUMBER
 RIG .               EastAzeri:  RIG NAME
 JOBN.        AZ-XX-0906363297:  JOB TICKET NUMB
 MWDS.                    Baku:  MWD SHOP
 SRVC.     Turan Drilling & Engineering:  CONTRACTOR
 PROV.                    Baku:  PROVINCE
 STAT.                    Baku:  STATE NAME
 REGN.                   EESSA:  REGION
 BASE.              Azerbaijan:  LOGGING EQUIPMENT BASE LOCATION
 WTYP.                Deviated:  WELL TYPE
 UWI .                     N/A:  UNIQUE WELL IDENTIFIER
 API .                     N/A:  API NUMBER
 COMP.     BP Exploration (Caspian Sea) ltd.:  COMPANY
 WELL.                    D07z:  WELL NAME
 CTRY.              Azerbaijan:  COUNTRY NAME
 SON .        AZ-XX-0906363297:  JOB NUMBER
 FLD .                     ACG:  FIELD NAME
 PDAT.          Mean Sea Level:  PERMANENT DATUM
 FTOP.          Formation Tops:  FORM TOPS DESC
 ILTD.               Lithology:  INTERP LTH DESC
 SVYD.                  Survey:  SURVEY DESC
 DMOD.             Drill Model:  DRILL MOD DESC
 HPTY.       Minimum Curvature:  HOLE POS TYPE
 NREF.                    Grid:  NORTH REFERENCE
 SPUD.               28-Jun-20:  SPUD DATE
 DATE.      18.27.12 28-Jun-20:  END TIME
 STIM.      18.27.12 28-Jun-20:  START TIME
 DMF .             Drill Floor:  DRILL MEAS FROM
 DFST.                        :  DIST FSL TEXT
 DFWT.                        :  DIST FWL TEXT
 CNTY.                        :  COUNTY
 LOC .                        :  LOCATION
 LMF .             Drill Floor:  LOG MEASURED FROM
 VSNS.m                  -7.75:  VERT SEC N/S
 VSEW.m                  -9.19:  VERT SEC E/W
 MMDE.m                   0.00:  MAGUTM CALC DEP
 AGAP.m                  43.60:  AIR GAP
 DEP .m                4058.99:  DEPTH
 APD .m                  43.60:  DEPTH ABOVE PD
 WDMS.m                 151.80:  WD ELEV
 EGL .m                   0.00:  GROUND ELEVATION
 EPD .m                   0.00:  ELEVATION
 AZTC.deg                 6.19:  AZM TOTAL CORR
 GRDC.deg                 0.27:  GRID CORRECTION
 MDEC.deg                 6.46:  MAGNETIC DECL
 MDIP.deg                59.47:  MAGNETIC DIP
 MFLD.nT              50279.00:  MAGNETIC FIELD
 GVFD.g                   1.00:  GRAVITY FIELD
 VSDR.deg               249.96:  VERT SEC DIRECT
 TDD .m                   0.00:  TOTAL DEPTH (DRILLER)
 SDEP.m                   0.00:  START DEPTH
 DFSL.m                   0.00:  DISTANCE FSL
 DFWL.m                   0.00:  DISTANCE FWL
 UTMY.m             4431880.20:  UTM Y
 UTMX.m              538763.98:  UTM X
 WHEW.m                  -9.19:  WELL HEAD E/W
 WHNS.m                  -7.75:  WELL HEAD N/S
 LONG.deg                51.45:  LONGITUDE
 LATI.deg                40.02:  LATITUDE
 TVDS.m                  43.60:  TVDSS CORRECTN
 EKB .m                  43.60:  KB ELEVATION
 EDF .m                  43.60:  DF ELEVATION
 TDL .m                 248.00:  TOTAL DEPTH (LOGGER)
 MAGU.                 1849075:  MAGUTM CHECKSUM
 VSC .                       0:  VS TO CLOSURE
~Parameter Information Block
#MNEM.UNIT       Value        Description
#---------     -----------    ---------------------------
 AV  .mps                 6.34:  Ann Velocity 
 AVMX.mps                 7.00:  Max Ann Veloc 
 AZIF.deg               260.29:  Azm, Final 
 BHAT.        Rotary Steerable:  BHA Type 
 BROT.°/30m               1.20:  Build Rotating 
 BS  .in                  8.50:  Bit Size 
 BSZ .in                  8.50:  Bit Size 
 BTPL.psig              620.00:  Bit Press Loss 
 CABU.                     Yes:  Customer Abuse 
 COMM.                     LqT:  Run Comments 1 
 TCS .hr                 56.22:  Time Ciculation Ended 
 CV  .mps                 3.05:  Crit Velocity 
 CVMX.mps                 3.20:  Max Crit Veloc 
 DD1 .            Musa Ahmadov:  Direct Drillr 1 
 DDSV.                 iCruise:  DD Service 
 DEFF.%                  98.00:  % Det Eff 
 DLRX.°/30m               2.78:  Dogleg Rot Max 
 DLSO.°/30m               0.00:  Dogleg Oriented 
 DLSX.°/30m               0.00:  Dogleg Str Max 
 DRET.      05.20.48 16-Jul-20:  Drill End Time 
 DRST.      10.20.48 13-Jul-20:  Drill Start Tim 
 DTIM.hr                 14.25:  Time Drilling 
 EDEP.m                4326.01:  End Depth 
 ENG1.      Artemiy Matviyanov:  Engineer 1 
 ENG2.           Amrah Tahirov:  Engineer 2 
 ETIM.      22.30.00 18-Jul-20:  End Time 
 FLOI.gpm               550.00:  Flow In 
 FLON.gpm               450.00:  Flow In Min 
 FLOS.cptm                0.00:  Fluid Loss 
 FLOX.gpm               600.00:  Flow In Max 
 HFLO.                      No:  High Flow 
 HPRE.                      No:  High Pressure 
 HTEM.                      No:  High Temp 
 HYDO.m                   1.80:  Hydro Offset 
 IFIN.deg                65.41:  Inc, Final 
 IMAX.deg                65.14:  Inc Max 
 IMIN.deg                58.89:  Inc Min 
 IMND.m                4104.92:  Inc Min Depth 
 IMXD.m                4303.89:  Inc Max Depth 
 JARR.                      No:  Jarring 
 LETM.      10.20.48 17-Jul-20:  Log End Time 
 LOST.hr                     0:  Lost Rig Time 
 LSTM.      10.20.48 13-Jul-20:  Log Start Time 
 MDCL.ppm             37000.00:  Mud Chlorides 
 MDES.     Inversion Oil/Synthetic:  Mud Desc 
 DFD .sg                  1.52:  Mud Density 
 MDMN.sg                  1.52:  Dens Mud Min 
 MDMX.sg                  1.52:  Dens Mud Max 
 MOIL.                   52.70:  Run Mud Oil % 
 MOWR.                   68:32:  Run Mud OWR 
 MSND.                     0.2:  Run Mud Sand % 
 MSOL.                    21.6:  Run Mud Solids% 
 DFV .spqt               79.00:  Mud Viscosity 
 MWOD.in                  6.75:  MWD Tool OD 
 MWSI.                      No:  Serv Intrp, MWD 
 OTIM.hr                114.04:  Time Operating 
 PCON.          Wear / Scratch:  Pad Condition 
 PMAX.psia            11782.92:  Press Op, Max 
 PV  .cP                 49.00:  Mud PV 
 RUN .                     600:  Run Number 
 ROPA.m/hr               20.00:  ROP Avg 
 ROPN.m/hr               15.00:  ROP Min 
 ROPX.m/hr               22.00:  ROP Max 
 RPMA.rpm               120.00:  RPM Surface Avg 
 RPMN.rpm                90.00:  RPM Surface Min 
 RPMX.rpm               140.00:  RPM Surface Max 
 RRUN.                     600:  Rig Run Number 
 SAZI.deg               260.29:  Azm, Start 
 SDEP.m                4078.01:  Start Depth 
 SIDD.                      No:  Serv Intrp, DD 
 SINC.deg                58.89:  Inc, Start 
 SPPA.psig             4560.00:  SPP Avg 
 SPPN.psig             3600.00:  SPP Min 
 SPPX.psig             4800.00:  SPP Max 
 STIM.      10.20.48 13-Jul-20:  Start Time 
 SVCS.                 DD, MWD:  Services 
 SVER.                    9.20:  Sperry Version 
 TDAT.m                4378.01:  Tot Depth Attmp 
 TDDF.                      No:  Trip for DD 
 TDLG.m                 248.00:  Tot Depth Loggd 
 TFF .                      No:  Trip for Fail 
 TQAA.f-kp               18.00:  Torque Abs Avg 
 TQAN.f-kp               15.00:  Torque Abs Min 
 TQAX.f-kp               20.00:  Torque Abs Max 
 TRRT.°/30m               0.70:  Turn Rotating 
 MRT .                    HCIM:  Maximum Recorded Temperature 
 TTMX.degC               86.00:  Max Tool Temp 
 WBMN.klb                 3.00:  WOB Min 
 WOBA.klb                 5.00:  WOB Avg 
 WOBX.klb                 9.00:  WOB Max 
 YP  .lhf2               32.00:  Yield Point 
~Curve Information Block
#MNEM.UNIT                 API CODE     Curve Description
#---------               -----------    ---------------------------
 TIME.HHMMSS            00 000 000 000:  GT Time & Date
 GTDEPTH.m              00 000 000 000:  GT Depth
 GTPQH.psia             00 000 000 000:  GT HR Quartz Pressure
 GTTQ.degC              00 000 000 000:  GT Quartz Temperature
 GTTN.NONE              00 000 000 000:  GT Test Number
 GTET.sec               00 000 000 000:  GT Elapsed Test Time
 GTTVD.m                00 000 000 000:  GT True Vertical Depth
#Other Information
#
#WARRANTY: Halliburton will use its best efforts to furnish customers with 
#accurate information and interpretations that are part of, and incident to, the services 
#provided.  However, Halliburton cannot and does not warrant the accuracy 
#or correctness of such information and interpretations.  Under no circumstances should any 
#such information or interpretation be relied upon as the sole basis for any drilling, 
#completion, production, or financial decision or any procedure involving any risk to the 
#safety of any drilling venture, drilling rig or its crew or any other third party.  The 
#Customer has full responsibility for all drilling, completion and production operation.  
#Halliburton makes no representations or warranties, either expressed or 
#implied, including, but not limited to, the implied warranties of merchantability or fitness 
#for a particular purpose, with respect to the services rendered.  In no event will 
#Halliburton be liable for failure to obtain any particular results or for 
#any damages, including, but not limited to, indirect, special or consequential damages, 
#resulting from the use of any information or interpretation provided by Halliburton.
#
~A           TIME           GTDEPTH  GTPQH  GTTQ  GTTN  GTET   GTTVD  
# ...
   17:57:55.320.16-Jul-2020 4229.01 4706.04 79.75 4.00  69.03 2841.98
   17:57:55.520.16-Jul-2020 4229.01 4706.04 79.75 4.00  69.23 2841.98
   17:57:55.720.16-Jul-2020 4229.01 4706.05 79.75 4.00  69.43 2841.98
   17:57:55.920.16-Jul-2020 4229.01 4706.09 79.75 4.00  69.63 2841.98
   17:57:56.120.16-Jul-2020 4229.01 4706.06 79.75 4.00  69.83 2841.98
   17:57:56.320.16-Jul-2020 4229.01 4706.08 79.75 4.00  70.03 2841.98
   17:57:56.520.16-Jul-2020 4229.01 4706.08 79.75 4.00  70.23 2841.98
   17:57:56.720.16-Jul-2020 4229.01 4706.09 79.75 4.00  70.43 2841.98
   17:57:56.920.16-Jul-2020 4229.01 4706.09 79.75 4.00  70.63 2841.98
   17:57:57.120.16-Jul-2020 4229.01 4706.03 79.75 4.00  70.83 2841.98
   17:57:57.320.16-Jul-2020 4229.01 4706.09 79.75 4.00  71.03 2841.98
   17:57:57.520.16-Jul-2020 4229.01 4706.09 79.75 4.00  71.23 2841.98
   17:57:57.721.16-Jul-2020 4229.01 4706.09 79.75 4.00  71.43 2841.98
   17:57:57.921.16-Jul-2020 4229.01 4706.09 79.75 4.00  71.63 2841.98
   17:57:58.121.16-Jul-2020 4229.01 4706.06 79.75 4.00  71.83 2841.98
   17:57:58.321.16-Jul-2020 4229.01 4706.09 79.75 4.00  72.03 2841.98
   17:57:58.521.16-Jul-2020 4229.01 4706.09 79.75 4.00  72.23 2841.98
   17:57:58.721.16-Jul-2020 4229.01 4706.11 79.75 4.00  72.43 2841.98
   17:57:58.921.16-Jul-2020 4229.01 4706.09 79.75 4.00  72.63 2841.98
   17:57:59.121.16-Jul-2020 4229.01 4706.14 79.75 4.00  72.83 2841.98
   17:57:59.321.16-Jul-2020 4229.01 4706.10 79.75 4.00  73.03 2841.98
   17:57:59.521.16-Jul-2020 4229.01 4706.10 79.75 4.00  73.23 2841.98
   17:57:59.721.16-Jul-2020 4229.01 4706.12 79.75 4.00  73.43 2841.98
   17:57:59.922.16-Jul-2020 4229.01 4706.13 79.75 4.00  73.63 2841.98
   17:58:00.122.16-Jul-2020 4229.01 4706.16 79.75 4.00  73.83 2841.98
   17:58:00.322.16-Jul-2020 4229.01 4706.11 79.75 4.00  74.03 2841.98
   17:58:00.522.16-Jul-2020 4229.01 4706.11 79.75 4.00  74.23 2841.98
   17:58:00.722.16-Jul-2020 4229.01 4706.12 79.75 4.00  74.43 2841.98
   17:58:00.922.16-Jul-2020 4229.01 4706.09 79.75 4.00  74.63 2841.98
   17:58:01.122.16-Jul-2020 4229.01 4706.11 79.75 4.00  74.83 2841.98
   17:58:01.322.16-Jul-2020 4229.01 4706.02 79.75 4.00  75.03 2841.98
   17:58:01.522.16-Jul-2020 4229.01 4706.02 79.75 4.00  75.23 2841.98
   17:58:01.722.16-Jul-2020 4229.01 4706.16 79.75 4.00  75.43 2841.98
   17:58:01.922.16-Jul-2020 4229.01 4706.09 79.75 4.00  75.63 2841.98
   17:58:02.123.16-Jul-2020 4229.01 4706.10 79.75 4.00  75.83 2841.98
   17:58:02.323.16-Jul-2020 4229.01 4706.07 79.75 4.00  76.03 2841.98
   17:58:02.523.16-Jul-2020 4229.01 4706.07 79.75 4.00  76.23 2841.98
   17:58:02.723.16-Jul-2020 4229.01 4706.21 79.75 4.00  76.43 2841.98
   17:58:02.923.16-Jul-2020 4229.01 4706.05 79.75 4.00  76.63 2841.98
   17:58:03.123.16-Jul-2020 4229.01 4706.09 79.75 4.00  76.83 2841.98
   17:58:03.323.16-Jul-2020 4229.01 4706.09 79.75 4.00  77.03 2841.98
   17:58:03.523.16-Jul-2020 4229.01 4706.09 79.75 4.00  77.23 2841.98
   17:58:03.723.16-Jul-2020 4229.01 4706.10 79.75 4.00  77.43 2841.98
   17:58:03.923.16-Jul-2020 4229.01 4706.09 79.75 4.00  77.63 2841.98
   17:58:04.123.16-Jul-2020 4229.01 4706.11 79.75 4.00  77.83 2841.98
   17:58:04.324.16-Jul-2020 4229.01 4706.13 79.75 4.00  78.03 2841.98
   17:58:04.524.16-Jul-2020 4229.01 4706.13 79.75 4.00  78.23 2841.98
   17:58:04.724.16-Jul-2020 4229.01 4706.11 79.75 4.00  78.43 2841.98
   17:58:04.924.16-Jul-2020 4229.01 4706.12 79.75 4.00  78.63 2841.98
   17:58:05.124.16-Jul-2020 4229.01 4706.16 79.75 4.00  78.83 2841.98
   17:58:05.324.16-Jul-2020 4229.01 4706.15 79.75 4.00  79.04 2841.98
   17:58:05.524.16-Jul-2020 4229.01 4706.15 79.75 4.00  79.24 2841.98
   17:58:05.724.16-Jul-2020 4229.01 4706.12 79.75 4.00  79.44 2841.98
   17:58:05.924.16-Jul-2020 4229.01 4706.09 79.75 4.00  79.64 2841.98
   17:58:06.124.16-Jul-2020 4229.01 4706.12 79.75 4.00  79.84 2841.98
   17:58:06.324.16-Jul-2020 4229.01 4706.20 79.75 4.00  80.04 2841.98
   17:58:06.524.16-Jul-2020 4229.01 4706.10 79.75 4.00  80.24 2841.98
   17:58:06.725.16-Jul-2020 4229.01 4706.14 79.75 4.00  80.44 2841.98
   17:58:06.925.16-Jul-2020 4229.01 4706.15 79.75 4.00  80.64 2841.98
   17:58:07.125.16-Jul-2020 4229.01 4706.14 79.75 4.00  80.84 2841.98
   17:58:07.325.16-Jul-2020 4229.01 4706.16 79.75 4.00  81.04 2841.98
   17:58:07.525.16-Jul-2020 4229.01 4706.16 79.75 4.00  81.24 2841.98
   17:58:07.725.16-Jul-2020 4229.01 4706.16 79.75 4.00  81.44 2841.98
   17:58:07.925.16-Jul-2020 4229.01 4706.16 79.75 4.00  81.64 2841.98
   17:58:08.125.16-Jul-2020 4229.01 4706.19 79.75 4.00  81.84 2841.98
   17:58:08.325.16-Jul-2020 4229.01 4706.16 79.75 4.00  82.04 2841.98
   17:58:08.525.16-Jul-2020 4229.01 4706.16 79.75 4.00  82.24 2841.98
   17:58:08.725.16-Jul-2020 4229.01 4706.21 79.75 4.00  82.44 2841.98
   17:58:08.926.16-Jul-2020 4229.01 4706.18 79.75 4.00  82.64 2841.98
   17:58:09.126.16-Jul-2020 4229.01 4706.08 79.75 4.00  82.84 2841.98
   17:58:09.326.16-Jul-2020 4229.01 4706.13 79.75 4.00  83.04 2841.98
   17:58:09.526.16-Jul-2020 4229.01 4706.13 79.75 4.00  83.24 2841.98
   17:58:09.726.16-Jul-2020 4229.01 4706.12 79.75 4.00  83.44 2841.98
   17:58:09.926.16-Jul-2020 4229.01 4706.36 79.75 4.00  83.64 2841.98
   17:58:10.126.16-Jul-2020 4229.01 4705.94 79.75 4.00  83.84 2841.98
   17:58:10.326.16-Jul-2020 4229.01 4706.21 79.75 4.00  84.04 2841.98
   17:58:10.526.16-Jul-2020 4229.01 4706.12 79.75 4.00  84.24 2841.98
   17:58:10.726.16-Jul-2020 4229.01 4706.15 79.75 4.00  84.44 2841.98
   17:58:10.926.16-Jul-2020 4229.01 4706.36 79.75 4.00  84.64 2841.98
   17:58:11.127.16-Jul-2020 4229.01 4705.94 79.75 4.00  84.84 2841.98
   17:58:11.327.16-Jul-2020 4229.01 4706.21 79.75 4.00  85.04 2841.98
   17:58:11.527.16-Jul-2020 4229.01 4706.21 79.75 4.00  85.24 2841.98
   17:58:11.727.16-Jul-2020 4229.01 4706.14 79.75 4.00  85.44 2841.98
   17:58:11.927.16-Jul-2020 4229.01 4706.07 79.75 4.00  85.64 2841.98
   17:58:12.127.16-Jul-2020 4229.01 4706.12 79.75 4.00  85.84 2841.98
   17:58:12.327.16-Jul-2020 4229.01 4706.26 79.75 4.00  86.04 2841.98
   17:58:12.527.16-Jul-2020 4229.01 4706.26 79.75 4.00  86.24 2841.98
   17:58:12.727.16-Jul-2020 4229.01 4706.17 79.75 4.00  86.44 2841.98
   17:58:12.927.16-Jul-2020 4229.01 4706.15 79.75 4.00  86.64 2841.98
   17:58:13.127.16-Jul-2020 4229.01 4706.18 79.75 4.00  86.84 2841.98
   17:58:13.328.16-Jul-2020 4229.01 4706.18 79.75 4.00  87.04 2841.98
   17:58:13.528.16-Jul-2020 4229.01 4706.18 79.75 4.00  87.24 2841.98
   17:58:13.728.16-Jul-2020 4229.01 4706.18 79.75 4.00  87.44 2841.98
   17:58:13.928.16-Jul-2020 4229.01 4706.18 79.75 4.00  87.64 2841.98
   17:58:14.128.16-Jul-2020 4229.01 4706.21 79.75 4.00  87.84 2841.98
   17:58:14.328.16-Jul-2020 4229.01 4706.16 79.75 4.00  88.04 2841.98
   17:58:14.528.16-Jul-2020 4229.01 4706.40 79.75 4.00  88.24 2841.98
   17:58:14.728.16-Jul-2020 4229.01 4706.00 79.75 4.00  88.44 2841.98
   17:58:14.928.16-Jul-2020 4229.01 4706.22 79.75 4.00  88.64 2841.98
   17:58:15.128.16-Jul-2020 4229.01 4706.13 79.75 4.00  88.84 2841.98
   17:58:15.328.16-Jul-2020 4229.01 4706.12 79.75 4.00  89.04 2841.98
   17:58:15.528.16-Jul-2020 4229.01 4706.12 79.75 4.00  89.24 2841.98
   17:58:15.729.16-Jul-2020 4229.01 4706.18 79.75 4.00  89.44 2841.98
   17:58:15.929.16-Jul-2020 4229.01 4706.20 79.75 4.00  89.64 2841.98
   17:58:16.129.16-Jul-2020 4229.01 4706.16 79.75 4.00  89.84 2841.98
   17:58:16.329.16-Jul-2020 4229.01 4706.22 79.75 4.00  90.04 2841.98
   17:58:16.529.16-Jul-2020 4229.01 4706.22 79.75 4.00  90.24 2841.98
   17:58:16.729.16-Jul-2020 4229.01 4706.19 79.75 4.00  90.44 2841.98
   17:58:16.929.16-Jul-2020 4229.01 4706.19 79.75 4.00  90.64 2841.98
   17:58:17.129.16-Jul-2020 4229.01 4706.21 79.75 4.00  90.84 2841.98
   17:58:17.329.16-Jul-2020 4229.01 4706.24 79.75 4.00  91.04 2841.98
   17:58:17.529.16-Jul-2020 4229.01 4706.24 79.75 4.00  91.24 2841.98
   17:58:17.729.16-Jul-2020 4229.01 4706.39 79.75 4.00  91.44 2841.98
   17:58:17.930.16-Jul-2020 4229.01 4706.02 79.75 4.00  91.64 2841.98
   17:58:18.130.16-Jul-2020 4229.01 4706.24 79.75 4.00  91.84 2841.98
