~Version Information
 VERS.                  2.0:   CWLS log ASCII Standard -VERSION 2.0
 WRAP.                   NO:   One line per depth step
~Well Information Block
#MNEM.UNIT     VALUE/NAME     DESCRIPTION
#---------     -----------    ---------------------------
 STRT.S             16:55:55 16-Jul-20: START TIME 16:55:55 16-Jul-20
 STOP.S             17:02:47 16-Jul-20: STOP TIME  17:02:47 16-Jul-20
 STEP.S                   0.00: STEP TIME
 NULL.                 -999.25: NULL VALUE
 MDS .        Operator Entered:  MAG DATA SOURCE
 UNIT.                     N/A:  LOGGING EQUIPMENT ID
 DCON.         Sperry Drilling:  DIRECTNL CONTR
 DOE .                     N/A:  DOE NUMBER
 RIG .               EastAzeri:  RIG NAME
 JOBN.        AZ-XX-0906363297:  JOB TICKET NUMB
 MWDS.                    Baku:  MWD SHOP
 SRVC.     Turan Drilling & Engineering:  CONTRACTOR
 PROV.                    Baku:  PROVINCE
 STAT.                    Baku:  STATE NAME
 REGN.                   EESSA:  REGION
 BASE.              Azerbaijan:  LOGGING EQUIPMENT BASE LOCATION
 WTYP.                Deviated:  WELL TYPE
 UWI .                     N/A:  UNIQUE WELL IDENTIFIER
 API .                     N/A:  API NUMBER
 COMP.     BP Exploration (Caspian Sea) ltd.:  COMPANY
 WELL.                    D07z:  WELL NAME
 CTRY.              Azerbaijan:  COUNTRY NAME
 SON .        AZ-XX-0906363297:  JOB NUMBER
 FLD .                     ACG:  FIELD NAME
 PDAT.          Mean Sea Level:  PERMANENT DATUM
 FTOP.          Formation Tops:  FORM TOPS DESC
 ILTD.               Lithology:  INTERP LTH DESC
 SVYD.                  Survey:  SURVEY DESC
 DMOD.             Drill Model:  DRILL MOD DESC
 HPTY.       Minimum Curvature:  HOLE POS TYPE
 NREF.                    Grid:  NORTH REFERENCE
 SPUD.               28-Jun-20:  SPUD DATE
 DATE.      18.27.12 28-Jun-20:  END TIME
 STIM.      18.27.12 28-Jun-20:  START TIME
 DMF .             Drill Floor:  DRILL MEAS FROM
 DFST.                        :  DIST FSL TEXT
 DFWT.                        :  DIST FWL TEXT
 CNTY.                        :  COUNTY
 LOC .                        :  LOCATION
 LMF .             Drill Floor:  LOG MEASURED FROM
 VSNS.m                  -7.75:  VERT SEC N/S
 VSEW.m                  -9.19:  VERT SEC E/W
 MMDE.m                   0.00:  MAGUTM CALC DEP
 AGAP.m                  43.60:  AIR GAP
 DEP .m                4058.99:  DEPTH
 APD .m                  43.60:  DEPTH ABOVE PD
 WDMS.m                 151.80:  WD ELEV
 EGL .m                   0.00:  GROUND ELEVATION
 EPD .m                   0.00:  ELEVATION
 AZTC.deg                 6.19:  AZM TOTAL CORR
 GRDC.deg                 0.27:  GRID CORRECTION
 MDEC.deg                 6.46:  MAGNETIC DECL
 MDIP.deg                59.47:  MAGNETIC DIP
 MFLD.nT              50279.00:  MAGNETIC FIELD
 GVFD.g                   1.00:  GRAVITY FIELD
 VSDR.deg               249.96:  VERT SEC DIRECT
 TDD .m                   0.00:  TOTAL DEPTH (DRILLER)
 SDEP.m                   0.00:  START DEPTH
 DFSL.m                   0.00:  DISTANCE FSL
 DFWL.m                   0.00:  DISTANCE FWL
 UTMY.m             4431880.20:  UTM Y
 UTMX.m              538763.98:  UTM X
 WHEW.m                  -9.19:  WELL HEAD E/W
 WHNS.m                  -7.75:  WELL HEAD N/S
 LONG.deg                51.45:  LONGITUDE
 LATI.deg                40.02:  LATITUDE
 TVDS.m                  43.60:  TVDSS CORRECTN
 EKB .m                  43.60:  KB ELEVATION
 EDF .m                  43.60:  DF ELEVATION
 TDL .m                 248.00:  TOTAL DEPTH (LOGGER)
 MAGU.                 1849075:  MAGUTM CHECKSUM
 VSC .                       0:  VS TO CLOSURE
~Parameter Information Block
#MNEM.UNIT       Value        Description
#---------     -----------    ---------------------------
 AV  .mps                 6.34:  Ann Velocity 
 AVMX.mps                 7.00:  Max Ann Veloc 
 AZIF.deg               260.29:  Azm, Final 
 BHAT.        Rotary Steerable:  BHA Type 
 BROT.°/30m               1.20:  Build Rotating 
 BS  .in                  8.50:  Bit Size 
 BSZ .in                  8.50:  Bit Size 
 BTPL.psig              620.00:  Bit Press Loss 
 CABU.                     Yes:  Customer Abuse 
 COMM.                     3z:  Run Comments 1 
 TCS .hr                 56.22:  Time Ciculation Ended 
 CV  .mps                 3.05:  Crit Velocity 
 CVMX.mps                 3.20:  Max Crit Veloc 
 DD1 .            Musa Ahmadov:  Direct Drillr 1 
 DDSV.                 iCruise:  DD Service 
 DEFF.%                  98.00:  % Det Eff 
 DLRX.°/30m               2.78:  Dogleg Rot Max 
 DLSO.°/30m               0.00:  Dogleg Oriented 
 DLSX.°/30m               0.00:  Dogleg Str Max 
 DRET.      05.20.48 16-Jul-20:  Drill End Time 
 DRST.      10.20.48 13-Jul-20:  Drill Start Tim 
 DTIM.hr                 14.25:  Time Drilling 
 EDEP.m                4326.01:  End Depth 
 ENG1.      Artemiy Matviyanov:  Engineer 1 
 ENG2.           Amrah Tahirov:  Engineer 2 
 ETIM.      22.30.00 18-Jul-20:  End Time 
 FLOI.gpm               550.00:  Flow In 
 FLON.gpm               450.00:  Flow In Min 
 FLOS.cptm                0.00:  Fluid Loss 
 FLOX.gpm               600.00:  Flow In Max 
 HFLO.                      No:  High Flow 
 HPRE.                      No:  High Pressure 
 HTEM.                      No:  High Temp 
 HYDO.m                   1.80:  Hydro Offset 
 IFIN.deg                65.41:  Inc, Final 
 IMAX.deg                65.14:  Inc Max 
 IMIN.deg                58.89:  Inc Min 
 IMND.m                4104.92:  Inc Min Depth 
 IMXD.m                4303.89:  Inc Max Depth 
 JARR.                      No:  Jarring 
 LETM.      10.20.48 17-Jul-20:  Log End Time 
 LOST.hr                     0:  Lost Rig Time 
 LSTM.      10.20.48 13-Jul-20:  Log Start Time 
 MDCL.ppm             37000.00:  Mud Chlorides 
 MDES.     Inversion Oil/Synthetic:  Mud Desc 
 DFD .sg                  1.52:  Mud Density 
 MDMN.sg                  1.52:  Dens Mud Min 
 MDMX.sg                  1.52:  Dens Mud Max 
 MOIL.                   52.70:  Run Mud Oil % 
 MOWR.                   68:32:  Run Mud OWR 
 MSND.                     0.2:  Run Mud Sand % 
 MSOL.                    21.6:  Run Mud Solids% 
 DFV .spqt               79.00:  Mud Viscosity 
 MWOD.in                  6.75:  MWD Tool OD 
 MWSI.                      No:  Serv Intrp, MWD 
 OTIM.hr                114.04:  Time Operating 
 PCON.          Wear / Scratch:  Pad Condition 
 PMAX.psia            11782.92:  Press Op, Max 
 PV  .cP                 49.00:  Mud PV 
 RUN .                     600:  Run Number 
 ROPA.m/hr               20.00:  ROP Avg 
 ROPN.m/hr               15.00:  ROP Min 
 ROPX.m/hr               22.00:  ROP Max 
 RPMA.rpm               120.00:  RPM Surface Avg 
 RPMN.rpm                90.00:  RPM Surface Min 
 RPMX.rpm               140.00:  RPM Surface Max 
 RRUN.                     600:  Rig Run Number 
 SAZI.deg               260.29:  Azm, Start 
 SDEP.m                4078.01:  Start Depth 
 SIDD.                      No:  Serv Intrp, DD 
 SINC.deg                58.89:  Inc, Start 
 SPPA.psig             4560.00:  SPP Avg 
 SPPN.psig             3600.00:  SPP Min 
 SPPX.psig             4800.00:  SPP Max 
 STIM.      10.20.48 13-Jul-20:  Start Time 
 SVCS.                 DD, MWD:  Services 
 SVER.                    9.20:  Sperry Version 
 TDAT.m                4378.01:  Tot Depth Attmp 
 TDDF.                      No:  Trip for DD 
 TDLG.m                 248.00:  Tot Depth Loggd 
 TFF .                      No:  Trip for Fail 
 TQAA.f-kp               18.00:  Torque Abs Avg 
 TQAN.f-kp               15.00:  Torque Abs Min 
 TQAX.f-kp               20.00:  Torque Abs Max 
 TRRT.°/30m               0.70:  Turn Rotating 
 MRT .                    HCIM:  Maximum Recorded Temperature 
 TTMX.degC               86.00:  Max Tool Temp 
 WBMN.klb                 3.00:  WOB Min 
 WOBA.klb                 5.00:  WOB Avg 
 WOBX.klb                 9.00:  WOB Max 
 YP  .lhf2               32.00:  Yield Point 
~Curve Information Block
#MNEM.UNIT                 API CODE     Curve Description
#---------               -----------    ---------------------------
 TIME.HHMMSS            00 000 000 000:  GT Time & Date
 GTDEPTH.m              00 000 000 000:  GT Depth
 GTPQH.psia             00 000 000 000:  GT HR Quartz Pressure
 GTTQ.degC              00 000 000 000:  GT Quartz Temperature
 GTTN.NONE              00 000 000 000:  GT Test Number
 GTET.sec               00 000 000 000:  GT Elapsed Test Time
 GTTVD.m                00 000 000 000:  GT True Vertical Depth
#Other Information
#
#WARRANTY: Halliburton will use its best efforts to furnish customers with 
#accurate information and interpretations that are part of, and incident to, the services 
#provided.  However, Halliburton cannot and does not warrant the accuracy 
#or correctness of such information and interpretations.  Under no circumstances should any 
#such information or interpretation be relied upon as the sole basis for any drilling, 
#completion, production, or financial decision or any procedure involving any risk to the 
#safety of any drilling venture, drilling rig or its crew or any other third party.  The 
#Customer has full responsibility for all drilling, completion and production operation.  
#Halliburton makes no representations or warranties, either expressed or 
#implied, including, but not limited to, the implied warranties of merchantability or fitness 
#for a particular purpose, with respect to the services rendered.  In no event will 
#Halliburton be liable for failure to obtain any particular results or for 
#any damages, including, but not limited to, indirect, special or consequential damages, 
#resulting from the use of any information or interpretation provided by Halliburton.
#
~A           TIME           GTDEPTH  GTPQH  GTTQ  GTTN  GTET   GTTVD  
# ...
   16:57:50.406.16-Jul-2020 4261.01 4635.54 80.08 2.00 115.02 2855.56
   16:57:50.606.16-Jul-2020 4261.01 4635.63 80.08 2.00 115.22 2855.56
   16:57:50.806.16-Jul-2020 4261.01 4635.61 80.08 2.00 115.42 2855.56
   16:57:51.006.16-Jul-2020 4261.01 4635.61 80.08 2.00 115.62 2855.56
   16:57:51.206.16-Jul-2020 4261.01 4635.61 80.08 2.00 115.82 2855.56
   16:57:51.406.16-Jul-2020 4261.01 4635.64 80.08 2.00 116.02 2855.56
   16:57:51.606.16-Jul-2020 4261.01 4635.65 80.08 2.00 116.22 2855.56
   16:57:51.806.16-Jul-2020 4261.01 4635.64 80.08 2.00 116.42 2855.56
   16:57:52.006.16-Jul-2020 4261.01 4635.66 80.08 2.00 116.62 2855.56
   16:57:52.206.16-Jul-2020 4261.01 4635.64 80.08 2.00 116.82 2855.56
   16:57:52.406.16-Jul-2020 4261.01 4635.66 80.08 2.00 117.02 2855.56
   16:57:52.606.16-Jul-2020 4261.01 4635.66 80.08 2.00 117.22 2855.56
   16:57:52.806.16-Jul-2020 4261.01 4635.65 80.08 2.00 117.42 2855.56
   16:57:53.006.16-Jul-2020 4261.01 4635.66 80.08 2.00 117.62 2855.56
   16:57:53.206.16-Jul-2020 4261.01 4635.68 80.08 2.00 117.82 2855.56
   16:57:53.406.16-Jul-2020 4261.01 4635.81 80.08 2.00 118.02 2855.56
   16:57:53.607.16-Jul-2020 4261.01 4635.54 80.08 2.00 118.22 2855.56
   16:57:53.807.16-Jul-2020 4261.01 4635.62 80.08 2.00 118.42 2855.56
   16:57:54.007.16-Jul-2020 4261.01 4635.47 80.08 2.00 118.62 2855.56
   16:57:54.207.16-Jul-2020 4261.01 4635.83 80.08 2.00 118.82 2855.56
   16:57:54.407.16-Jul-2020 4261.01 4635.59 80.08 2.00 119.02 2855.56
   16:57:54.607.16-Jul-2020 4261.01 4635.59 80.08 2.00 119.22 2855.56
   16:57:54.807.16-Jul-2020 4261.01 4635.60 80.08 2.00 119.42 2855.56
   16:57:55.007.16-Jul-2020 4261.01 4635.79 80.08 2.00 119.62 2855.56
   16:57:55.207.16-Jul-2020 4261.01 4635.53 80.08 2.00 119.82 2855.56
   16:57:55.407.16-Jul-2020 4261.01 4635.62 80.08 2.00 120.02 2855.56
   16:57:55.607.16-Jul-2020 4261.01 4635.61 80.08 2.00 120.22 2855.56
   16:57:55.807.16-Jul-2020 4261.01 4635.87 80.08 2.00 120.42 2855.56
   16:57:56.007.16-Jul-2020 4261.01 4635.46 80.08 2.00 120.62 2855.56
   16:57:56.207.16-Jul-2020 4261.01 4635.52 80.08 2.00 120.82 2855.56
   16:57:56.407.16-Jul-2020 4261.01 4635.66 80.08 2.00 121.02 2855.56
   16:57:56.607.16-Jul-2020 4261.01 4635.64 80.08 2.00 121.22 2855.56
   16:57:56.807.16-Jul-2020 4261.01 4635.64 80.08 2.00 121.42 2855.56
   16:57:57.007.16-Jul-2020 4261.01 4635.63 80.08 2.00 121.63 2855.56
   16:57:57.207.16-Jul-2020 4261.01 4635.63 80.08 2.00 121.83 2855.56
   16:57:57.407.16-Jul-2020 4261.01 4635.66 80.08 2.00 122.03 2855.56
   16:57:57.607.16-Jul-2020 4261.01 4635.66 80.08 2.00 122.23 2855.56
   16:57:57.807.16-Jul-2020 4261.01 4635.66 80.08 2.00 122.43 2855.56
   16:57:58.007.16-Jul-2020 4261.01 4635.63 80.08 2.00 122.63 2855.56
   16:57:58.207.16-Jul-2020 4261.01 4635.65 80.08 2.00 122.83 2855.56
   16:57:58.408.16-Jul-2020 4261.01 4635.63 80.08 2.00 123.03 2855.56
   16:57:58.608.16-Jul-2020 4261.01 4635.63 80.08 2.00 123.23 2855.56
   16:57:58.808.16-Jul-2020 4261.01 4635.55 80.08 2.00 123.43 2855.56
   16:57:59.008.16-Jul-2020 4261.01 4635.62 80.08 2.00 123.63 2855.56
   16:57:59.208.16-Jul-2020 4261.01 4635.69 80.08 2.00 123.83 2855.56
   16:57:59.408.16-Jul-2020 4261.01 4635.63 80.08 2.00 124.03 2855.56
   16:57:59.608.16-Jul-2020 4261.01 4635.63 80.08 2.00 124.23 2855.56
   16:57:59.808.16-Jul-2020 4261.01 4635.65 80.08 2.00 124.43 2855.56
   16:58:00.008.16-Jul-2020 4261.01 4635.64 80.08 2.00 124.63 2855.56
   16:58:00.208.16-Jul-2020 4261.01 4635.65 80.08 2.00 124.83 2855.56
   16:58:00.408.16-Jul-2020 4261.01 4635.65 80.08 2.00 125.03 2855.56
   16:58:00.608.16-Jul-2020 4261.01 4635.65 80.08 2.00 125.23 2855.56
   16:58:00.808.16-Jul-2020 4261.01 4635.66 80.08 2.00 125.43 2855.56
   16:58:01.008.16-Jul-2020 4261.01 4635.67 80.08 2.00 125.63 2855.56
   16:58:01.208.16-Jul-2020 4261.01 4635.63 80.08 2.00 125.83 2855.56
   16:58:01.408.16-Jul-2020 4261.01 4635.67 80.08 2.00 126.03 2855.56
   16:58:01.608.16-Jul-2020 4261.01 4635.67 80.08 2.00 126.23 2855.56
   16:58:01.808.16-Jul-2020 4261.01 4635.77 80.08 2.00 126.43 2855.56
   16:58:02.008.16-Jul-2020 4261.01 4635.53 80.08 2.00 126.63 2855.56
   16:58:02.208.16-Jul-2020 4261.01 4635.63 80.08 2.00 126.83 2855.56
   16:58:02.408.16-Jul-2020 4261.01 4635.98 80.08 2.00 127.03 2855.56
   16:58:02.608.16-Jul-2020 4261.01 4635.98 80.08 2.00 127.23 2855.56
   16:58:02.808.16-Jul-2020 4261.01 4635.48 80.08 2.00 127.43 2855.56
   16:58:03.008.16-Jul-2020 4261.01 4635.70 80.08 2.00 127.63 2855.56
   16:58:03.209.16-Jul-2020 4261.01 4635.65 80.08 2.00 127.83 2855.56
   16:58:03.409.16-Jul-2020 4261.01 4635.71 80.08 2.00 128.03 2855.56
   16:58:03.609.16-Jul-2020 4261.01 4635.71 80.08 2.00 128.23 2855.56
   16:58:03.809.16-Jul-2020 4261.01 4635.63 80.08 2.00 128.43 2855.56
   16:58:04.009.16-Jul-2020 4261.01 4635.55 80.08 2.00 128.63 2855.56
   16:58:04.209.16-Jul-2020 4261.01 4635.87 80.08 2.00 128.83 2855.56
   16:58:04.409.16-Jul-2020 4261.01 4635.65 80.08 2.00 129.03 2855.56
   16:58:04.609.16-Jul-2020 4261.01 4635.65 80.08 2.00 129.23 2855.56
   16:58:04.809.16-Jul-2020 4261.01 4635.55 80.08 2.00 129.43 2855.56
   16:58:05.009.16-Jul-2020 4261.01 4635.59 80.08 2.00 129.63 2855.56
   16:58:05.209.16-Jul-2020 4261.01 4635.65 80.08 2.00 129.83 2855.56
   16:58:05.409.16-Jul-2020 4261.01 4635.66 80.08 2.00 130.03 2855.56
   16:58:05.609.16-Jul-2020 4261.01 4635.65 80.08 2.00 130.23 2855.56
   16:58:05.809.16-Jul-2020 4261.01 4635.64 80.08 2.00 130.43 2855.56
   16:58:06.009.16-Jul-2020 4261.01 4635.67 80.08 2.00 130.63 2855.56
   16:58:06.209.16-Jul-2020 4261.01 4635.65 80.08 2.00 130.83 2855.56
   16:58:06.409.16-Jul-2020 4261.01 4635.63 80.08 2.00 131.03 2855.56
   16:58:06.609.16-Jul-2020 4261.01 4635.63 80.08 2.00 131.23 2855.56
   16:58:06.809.16-Jul-2020 4261.01 4635.83 80.08 2.00 131.43 2855.56
   16:58:07.009.16-Jul-2020 4261.01 4635.57 80.08 2.00 131.63 2855.56
   16:58:07.209.16-Jul-2020 4261.01 4635.62 80.08 2.00 131.83 2855.56
   16:58:07.409.16-Jul-2020 4261.01 4635.64 80.08 2.00 132.03 2855.56
   16:58:07.609.16-Jul-2020 4261.01 4635.61 80.08 2.00 132.23 2855.56
   16:58:07.809.16-Jul-2020 4261.01 4635.62 80.08 2.00 132.43 2855.56
   16:58:08.009.16-Jul-2020 4261.01 4635.65 80.08 2.00 132.63 2855.56
   16:58:08.210.16-Jul-2020 4261.01 4635.67 80.08 2.00 132.83 2855.56
   16:58:08.410.16-Jul-2020 4261.01 4635.66 80.08 2.00 133.03 2855.56
   16:58:08.610.16-Jul-2020 4261.01 4635.66 80.08 2.00 133.23 2855.56
   16:58:08.810.16-Jul-2020 4261.01 4635.67 80.08 2.00 133.43 2855.56
   16:58:09.010.16-Jul-2020 4261.01 4635.66 80.08 2.00 133.63 2855.56
   16:58:09.210.16-Jul-2020 4261.01 4635.64 80.08 2.00 133.83 2855.56
   16:58:09.410.16-Jul-2020 4261.01 4635.67 80.08 2.00 134.03 2855.56
   16:58:09.610.16-Jul-2020 4261.01 4635.67 80.08 2.00 134.23 2855.56
   16:58:09.810.16-Jul-2020 4261.01 4635.67 80.08 2.00 134.43 2855.56
   16:58:10.010.16-Jul-2020 4261.01 4635.85 80.08 2.00 134.63 2855.56
   16:58:10.210.16-Jul-2020 4261.01 4635.56 80.08 2.00 134.83 2855.56
   16:58:10.410.16-Jul-2020 4261.01 4635.66 80.08 2.00 135.03 2855.56
   16:58:10.610.16-Jul-2020 4261.01 4635.66 80.08 2.00 135.23 2855.56
   16:58:10.810.16-Jul-2020 4261.01 4635.84 80.08 2.00 135.43 2855.56
   16:58:11.010.16-Jul-2020 4261.01 4635.58 80.08 2.00 135.63 2855.56
   16:58:11.210.16-Jul-2020 4261.01 4635.74 80.08 2.00 135.83 2855.56
   16:58:11.410.16-Jul-2020 4261.01 4635.62 80.08 2.00 136.03 2855.56
   16:58:11.610.16-Jul-2020 4261.01 4635.77 80.08 2.00 136.23 2855.56
   16:58:11.810.16-Jul-2020 4261.01 4635.57 80.08 2.00 136.43 2855.56
   16:58:12.010.16-Jul-2020 4261.01 4635.65 80.08 2.00 136.63 2855.56
   16:58:12.210.16-Jul-2020 4261.01 4635.65 80.08 2.00 136.83 2855.56
   16:58:12.410.16-Jul-2020 4261.01 4635.89 80.08 2.00 137.03 2855.56
   16:58:12.610.16-Jul-2020 4261.01 4635.46 80.08 2.00 137.23 2855.56
   16:58:12.810.16-Jul-2020 4261.01 4635.54 80.08 2.00 137.43 2855.56
   16:58:13.011.16-Jul-2020 4261.01 4635.69 80.08 2.00 137.63 2855.56
   16:58:13.211.16-Jul-2020 4261.01 4635.64 80.08 2.00 137.83 2855.56
