~Version Information
 VERS.                  2.0:   CWLS log ASCII Standard -VERSION 2.0
 WRAP.                   NO:   One line per depth step
~Well Information Block
#MNEM.UNIT     VALUE/NAME     DESCRIPTION
#---------     -----------    ---------------------------
 STRT.S             17:56:46 16-Jul-20: START TIME 17:56:46 16-Jul-20
 STOP.S             18:03:39 16-Jul-20: STOP TIME  18:03:39 16-Jul-20
 STEP.S                   0.00: STEP TIME
 NULL.                 -999.25: NULL VALUE
 MDS .        Operator Entered:  MAG DATA SOURCE
 UNIT.                     N/A:  LOGGING EQUIPMENT ID
 DCON.         Sperry Drilling:  DIRECTNL CONTR
 DOE .                     N/A:  DOE NUMBER
 RIG .               EastAzeri:  RIG NAME
 JOBN.        AZ-XX-0906363297:  JOB TICKET NUMB
 MWDS.                    Baku:  MWD SHOP
 SRVC.     Turan Drilling & Engineering:  CONTRACTOR
 PROV.                    Baku:  PROVINCE
 STAT.                    Baku:  STATE NAME
 REGN.                   EESSA:  REGION
 BASE.              Azerbaijan:  LOGGING EQUIPMENT BASE LOCATION
 WTYP.                Deviated:  WELL TYPE
 UWI .                     N/A:  UNIQUE WELL IDENTIFIER
 API .                     N/A:  API NUMBER
 COMP.     BP Exploration (Caspian Sea) ltd.:  COMPANY
 WELL.                    D07z:  WELL NAME
 CTRY.              Azerbaijan:  COUNTRY NAME
 SON .        AZ-XX-0906363297:  JOB NUMBER
 FLD .                     ACG:  FIELD NAME
 PDAT.          Mean Sea Level:  PERMANENT DATUM
 FTOP.          Formation Tops:  FORM TOPS DESC
 ILTD.               Lithology:  INTERP LTH DESC
 SVYD.                  Survey:  SURVEY DESC
 DMOD.             Drill Model:  DRILL MOD DESC
 HPTY.       Minimum Curvature:  HOLE POS TYPE
 NREF.                    Grid:  NORTH REFERENCE
 SPUD.               28-Jun-20:  SPUD DATE
 DATE.      18.27.12 28-Jun-20:  END TIME
 STIM.      18.27.12 28-Jun-20:  START TIME
 DMF .             Drill Floor:  DRILL MEAS FROM
 DFST.                        :  DIST FSL TEXT
 DFWT.                        :  DIST FWL TEXT
 CNTY.                        :  COUNTY
 LOC .                        :  LOCATION
 LMF .             Drill Floor:  LOG MEASURED FROM
 VSNS.m                  -7.75:  VERT SEC N/S
 VSEW.m                  -9.19:  VERT SEC E/W
 MMDE.m                   0.00:  MAGUTM CALC DEP
 AGAP.m                  43.60:  AIR GAP
 DEP .m                4058.99:  DEPTH
 APD .m                  43.60:  DEPTH ABOVE PD
 WDMS.m                 151.80:  WD ELEV
 EGL .m                   0.00:  GROUND ELEVATION
 EPD .m                   0.00:  ELEVATION
 AZTC.deg                 6.19:  AZM TOTAL CORR
 GRDC.deg                 0.27:  GRID CORRECTION
 MDEC.deg                 6.46:  MAGNETIC DECL
 MDIP.deg                59.47:  MAGNETIC DIP
 MFLD.nT              50279.00:  MAGNETIC FIELD
 GVFD.g                   1.00:  GRAVITY FIELD
 VSDR.deg               249.96:  VERT SEC DIRECT
 TDD .m                   0.00:  TOTAL DEPTH (DRILLER)
 SDEP.m                   0.00:  START DEPTH
 DFSL.m                   0.00:  DISTANCE FSL
 DFWL.m                   0.00:  DISTANCE FWL
 UTMY.m             4431880.20:  UTM Y
 UTMX.m              538763.98:  UTM X
 WHEW.m                  -9.19:  WELL HEAD E/W
 WHNS.m                  -7.75:  WELL HEAD N/S
 LONG.deg                51.45:  LONGITUDE
 LATI.deg                40.02:  LATITUDE
 TVDS.m                  43.60:  TVDSS CORRECTN
 EKB .m                  43.60:  KB ELEVATION
 EDF .m                  43.60:  DF ELEVATION
 TDL .m                 248.00:  TOTAL DEPTH (LOGGER)
 MAGU.                 1849075:  MAGUTM CHECKSUM
 VSC .                       0:  VS TO CLOSURE
~Parameter Information Block
#MNEM.UNIT       Value        Description
#---------     -----------    ---------------------------
 AV  .mps                 6.34:  Ann Velocity 
 AVMX.mps                 7.00:  Max Ann Veloc 
 AZIF.deg               260.29:  Azm, Final 
 BHAT.        Rotary Steerable:  BHA Type 
 BROT.°/30m               1.20:  Build Rotating 
 BS  .in                  8.50:  Bit Size 
 BSZ .in                  8.50:  Bit Size 
 BTPL.psig              620.00:  Bit Press Loss 
 CABU.                     Yes:  Customer Abuse 
 COMM.                     LqT:  Run Comments 1 
 TCS .hr                 56.22:  Time Ciculation Ended 
 CV  .mps                 3.05:  Crit Velocity 
 CVMX.mps                 3.20:  Max Crit Veloc 
 DD1 .            Musa Ahmadov:  Direct Drillr 1 
 DDSV.                 iCruise:  DD Service 
 DEFF.%                  98.00:  % Det Eff 
 DLRX.°/30m               2.78:  Dogleg Rot Max 
 DLSO.°/30m               0.00:  Dogleg Oriented 
 DLSX.°/30m               0.00:  Dogleg Str Max 
 DRET.      05.20.48 16-Jul-20:  Drill End Time 
 DRST.      10.20.48 13-Jul-20:  Drill Start Tim 
 DTIM.hr                 14.25:  Time Drilling 
 EDEP.m                4326.01:  End Depth 
 ENG1.      Artemiy Matviyanov:  Engineer 1 
 ENG2.           Amrah Tahirov:  Engineer 2 
 ETIM.      22.30.00 18-Jul-20:  End Time 
 FLOI.gpm               550.00:  Flow In 
 FLON.gpm               450.00:  Flow In Min 
 FLOS.cptm                0.00:  Fluid Loss 
 FLOX.gpm               600.00:  Flow In Max 
 HFLO.                      No:  High Flow 
 HPRE.                      No:  High Pressure 
 HTEM.                      No:  High Temp 
 HYDO.m                   1.80:  Hydro Offset 
 IFIN.deg                65.41:  Inc, Final 
 IMAX.deg                65.14:  Inc Max 
 IMIN.deg                58.89:  Inc Min 
 IMND.m                4104.92:  Inc Min Depth 
 IMXD.m                4303.89:  Inc Max Depth 
 JARR.                      No:  Jarring 
 LETM.      10.20.48 17-Jul-20:  Log End Time 
 LOST.hr                     0:  Lost Rig Time 
 LSTM.      10.20.48 13-Jul-20:  Log Start Time 
 MDCL.ppm             37000.00:  Mud Chlorides 
 MDES.     Inversion Oil/Synthetic:  Mud Desc 
 DFD .sg                  1.52:  Mud Density 
 MDMN.sg                  1.52:  Dens Mud Min 
 MDMX.sg                  1.52:  Dens Mud Max 
 MOIL.                   52.70:  Run Mud Oil % 
 MOWR.                   68:32:  Run Mud OWR 
 MSND.                     0.2:  Run Mud Sand % 
 MSOL.                    21.6:  Run Mud Solids% 
 DFV .spqt               79.00:  Mud Viscosity 
 MWOD.in                  6.75:  MWD Tool OD 
 MWSI.                      No:  Serv Intrp, MWD 
 OTIM.hr                114.04:  Time Operating 
 PCON.          Wear / Scratch:  Pad Condition 
 PMAX.psia            11782.92:  Press Op, Max 
 PV  .cP                 49.00:  Mud PV 
 RUN .                     600:  Run Number 
 ROPA.m/hr               20.00:  ROP Avg 
 ROPN.m/hr               15.00:  ROP Min 
 ROPX.m/hr               22.00:  ROP Max 
 RPMA.rpm               120.00:  RPM Surface Avg 
 RPMN.rpm                90.00:  RPM Surface Min 
 RPMX.rpm               140.00:  RPM Surface Max 
 RRUN.                     600:  Rig Run Number 
 SAZI.deg               260.29:  Azm, Start 
 SDEP.m                4078.01:  Start Depth 
 SIDD.                      No:  Serv Intrp, DD 
 SINC.deg                58.89:  Inc, Start 
 SPPA.psig             4560.00:  SPP Avg 
 SPPN.psig             3600.00:  SPP Min 
 SPPX.psig             4800.00:  SPP Max 
 STIM.      10.20.48 13-Jul-20:  Start Time 
 SVCS.                 DD, MWD:  Services 
 SVER.                    9.20:  Sperry Version 
 TDAT.m                4378.01:  Tot Depth Attmp 
 TDDF.                      No:  Trip for DD 
 TDLG.m                 248.00:  Tot Depth Loggd 
 TFF .                      No:  Trip for Fail 
 TQAA.f-kp               18.00:  Torque Abs Avg 
 TQAN.f-kp               15.00:  Torque Abs Min 
 TQAX.f-kp               20.00:  Torque Abs Max 
 TRRT.°/30m               0.70:  Turn Rotating 
 MRT .                    HCIM:  Maximum Recorded Temperature 
 TTMX.degC               86.00:  Max Tool Temp 
 WBMN.klb                 3.00:  WOB Min 
 WOBA.klb                 5.00:  WOB Avg 
 WOBX.klb                 9.00:  WOB Max 
 YP  .lhf2               32.00:  Yield Point 
~Curve Information Block
#MNEM.UNIT                 API CODE     Curve Description
#---------               -----------    ---------------------------
 TIME.HHMMSS            00 000 000 000:  GT Time & Date
 GTDEPTH.m              00 000 000 000:  GT Depth
 GTPQH.psia             00 000 000 000:  GT HR Quartz Pressure
 GTTQ.degC              00 000 000 000:  GT Quartz Temperature
 GTTN.NONE              00 000 000 000:  GT Test Number
 GTET.sec               00 000 000 000:  GT Elapsed Test Time
 GTTVD.m                00 000 000 000:  GT True Vertical Depth
#Other Information
#
#WARRANTY: Halliburton will use its best efforts to furnish customers with 
#accurate information and interpretations that are part of, and incident to, the services 
#provided.  However, Halliburton cannot and does not warrant the accuracy 
#or correctness of such information and interpretations.  Under no circumstances should any 
#such information or interpretation be relied upon as the sole basis for any drilling, 
#completion, production, or financial decision or any procedure involving any risk to the 
#safety of any drilling venture, drilling rig or its crew or any other third party.  The 
#Customer has full responsibility for all drilling, completion and production operation.  
#Halliburton makes no representations or warranties, either expressed or 
#implied, including, but not limited to, the implied warranties of merchantability or fitness 
#for a particular purpose, with respect to the services rendered.  In no event will 
#Halliburton be liable for failure to obtain any particular results or for 
#any damages, including, but not limited to, indirect, special or consequential damages, 
#resulting from the use of any information or interpretation provided by Halliburton.
#
~A           TIME           GTDEPTH  GTPQH  GTTQ  GTTN  GTET   GTTVD  
# ...
   17:57:09.299.16-Jul-2020 4229.01 6982.20 79.84 4.00  23.01 2841.98
   17:57:09.499.16-Jul-2020 4229.01 6982.20 79.84 4.00  23.21 2841.98
   17:57:09.699.16-Jul-2020 4229.01 6983.13 79.84 4.00  23.41 2841.98
   17:57:09.899.16-Jul-2020 4229.01 6983.12 79.84 4.00  23.61 2841.98
   17:57:10.099.16-Jul-2020 4229.01 6983.72 79.84 4.00  23.81 2841.98
   17:57:10.300.16-Jul-2020 4229.01 6982.22 79.84 4.00  24.01 2841.98
   17:57:10.500.16-Jul-2020 4229.01 6983.14 79.84 4.00  24.21 2841.98
   17:57:10.700.16-Jul-2020 4229.01 6983.38 79.84 4.00  24.41 2841.98
   17:57:10.900.16-Jul-2020 4229.01 6997.01 79.84 4.00  24.61 2841.98
   17:57:11.100.16-Jul-2020 4229.01 6980.06 79.84 4.00  24.81 2841.98
   17:57:11.300.16-Jul-2020 4229.01 6986.17 79.84 4.00  25.01 2841.98
   17:57:11.500.16-Jul-2020 4229.01 6986.17 79.84 4.00  25.21 2841.98
   17:57:11.700.16-Jul-2020 4229.01 6985.86 79.84 4.00  25.41 2841.98
   17:57:11.900.16-Jul-2020 4229.01 6984.77 79.84 4.00  25.61 2841.98
   17:57:12.100.16-Jul-2020 4229.01 6985.04 79.84 4.00  25.81 2841.98
   17:57:12.300.16-Jul-2020 4229.01 6985.93 79.84 4.00  26.01 2841.98
   17:57:12.501.16-Jul-2020 4229.01 6985.93 79.84 4.00  26.21 2841.98
   17:57:12.701.16-Jul-2020 4229.01 6986.05 79.84 4.00  26.41 2841.98
   17:57:12.901.16-Jul-2020 4229.01 6986.05 79.84 4.00  26.61 2841.98
   17:57:13.101.16-Jul-2020 4229.01 6986.60 79.84 4.00  26.81 2841.98
   17:57:13.301.16-Jul-2020 4229.01 6987.21 79.84 4.00  27.01 2841.98
   17:57:13.501.16-Jul-2020 4229.01 6987.21 79.84 4.00  27.21 2841.98
   17:57:13.701.16-Jul-2020 4229.01 6986.54 79.84 4.00  27.41 2841.98
   17:57:13.901.16-Jul-2020 4229.01 6986.91 79.84 4.00  27.61 2841.98
   17:57:14.101.16-Jul-2020 4229.01 7002.63 79.84 4.00  27.81 2841.98
   17:57:14.301.16-Jul-2020 4229.01 6980.90 79.84 4.00  28.01 2841.98
   17:57:14.501.16-Jul-2020 4229.01 6988.50 79.84 4.00  28.21 2841.98
   17:57:14.701.16-Jul-2020 4229.01 6986.19 79.84 4.00  28.41 2841.98
   17:57:14.902.16-Jul-2020 4229.01 6988.87 79.84 4.00  28.61 2841.98
   17:57:15.102.16-Jul-2020 4229.01 7000.53 79.84 4.00  28.81 2841.98
   17:57:15.302.16-Jul-2020 4229.01 6983.55 79.84 4.00  29.01 2841.98
   17:57:15.502.16-Jul-2020 4229.01 6983.55 79.84 4.00  29.21 2841.98
   17:57:15.702.16-Jul-2020 4229.01 6988.63 79.84 4.00  29.41 2841.98
   17:57:15.902.16-Jul-2020 4229.01 6989.85 79.84 4.00  29.61 2841.98
   17:57:16.102.16-Jul-2020 4229.01 6994.45 79.84 4.00  29.81 2841.98
   17:57:16.302.16-Jul-2020 4229.01 6987.58 79.84 4.00  30.01 2841.98
   17:57:16.502.16-Jul-2020 4229.01 6987.58 79.84 4.00  30.21 2841.98
   17:57:16.702.16-Jul-2020 4229.01 6990.29 79.84 4.00  30.41 2841.98
   17:57:16.902.16-Jul-2020 4229.01 6991.78 79.84 4.00  30.61 2841.98
   17:57:17.103.16-Jul-2020 4229.01 7003.91 79.83 4.00  30.81 2841.98
   17:57:17.303.16-Jul-2020 4229.01 6985.92 79.83 4.00  31.01 2841.98
   17:57:17.503.16-Jul-2020 4229.01 6985.92 79.83 4.00  31.21 2841.98
   17:57:17.703.16-Jul-2020 4229.01 6990.51 79.83 4.00  31.41 2841.98
   17:57:17.903.16-Jul-2020 4229.01 6993.26 79.83 4.00  31.61 2841.98
   17:57:18.103.16-Jul-2020 4229.01 6999.61 79.83 4.00  31.81 2841.98
   17:57:18.303.16-Jul-2020 4229.01 7181.36 79.83 4.00  32.01 2841.98
   17:57:18.503.16-Jul-2020 4229.01 7218.91 79.83 4.00  32.21 2841.98
   17:57:18.703.16-Jul-2020 4229.01 7233.19 79.83 4.00  32.41 2841.98
   17:57:18.903.16-Jul-2020 4229.01 7214.95 79.83 4.00  32.61 2841.98
   17:57:19.103.16-Jul-2020 4229.01 7181.70 79.83 4.00  32.81 2841.98
   17:57:19.304.16-Jul-2020 4229.01 7147.46 79.83 4.00  33.01 2841.98
   17:57:19.504.16-Jul-2020 4229.01 7147.46 79.83 4.00  33.21 2841.98
   17:57:19.704.16-Jul-2020 4229.01 7069.09 79.83 4.00  33.41 2841.98
   17:57:19.904.16-Jul-2020 4229.01 7028.96 79.83 4.00  33.61 2841.98
   17:57:20.104.16-Jul-2020 4229.01 6997.51 79.83 4.00  33.82 2841.98
   17:57:20.304.16-Jul-2020 4229.01 6971.07 79.83 4.00  34.02 2841.98
   17:57:20.504.16-Jul-2020 4229.01 6950.69 79.83 4.00  34.22 2841.98
   17:57:20.704.16-Jul-2020 4229.01 6941.85 79.83 4.00  34.42 2841.98
   17:57:20.904.16-Jul-2020 4229.01 6930.40 79.83 4.00  34.62 2841.98
   17:57:21.104.16-Jul-2020 4229.01 6919.61 79.83 4.00  34.82 2841.98
   17:57:21.304.16-Jul-2020 4229.01 6910.42 79.83 4.00  35.02 2841.98
   17:57:21.505.16-Jul-2020 4229.01 6901.44 79.83 4.00  35.22 2841.98
   17:57:21.705.16-Jul-2020 4229.01 6892.76 79.83 4.00  35.42 2841.98
   17:57:21.905.16-Jul-2020 4229.01 6885.00 79.83 4.00  35.62 2841.98
   17:57:22.105.16-Jul-2020 4229.01 6877.32 79.83 4.00  35.82 2841.98
   17:57:22.305.16-Jul-2020 4229.01 6971.07 79.83 4.00  36.02 2841.98
   17:57:22.505.16-Jul-2020 4229.01 6869.54 79.83 4.00  36.22 2841.98
   17:57:22.705.16-Jul-2020 4229.01 6869.54 79.83 4.00  36.42 2841.98
   17:57:22.905.16-Jul-2020 4229.01 6869.54 79.83 4.00  36.62 2841.98
   17:57:23.105.16-Jul-2020 4229.01 6841.71 79.83 4.00  36.82 2841.98
   17:57:23.305.16-Jul-2020 4229.01 6836.93 79.83 4.00  37.02 2841.98
   17:57:23.505.16-Jul-2020 4229.01 6802.57 79.83 4.00  37.22 2841.98
   17:57:23.705.16-Jul-2020 4229.01 6159.04 79.83 4.00  37.42 2841.98
   17:57:23.906.16-Jul-2020 4229.01 5142.72 79.83 4.00  37.62 2841.98
   17:57:24.106.16-Jul-2020 4229.01 4655.23 79.83 4.00  37.82 2841.98
   17:57:24.306.16-Jul-2020 4229.01 4611.60 79.83 4.00  38.02 2841.98
   17:57:24.506.16-Jul-2020 4229.01 4611.60 79.83 4.00  38.22 2841.98
   17:57:24.706.16-Jul-2020 4229.01 4617.04 79.83 4.00  38.42 2841.98
   17:57:24.906.16-Jul-2020 4229.01 4615.75 79.82 4.00  38.62 2841.98
   17:57:25.106.16-Jul-2020 4229.01 4616.80 79.82 4.00  38.82 2841.98
   17:57:25.306.16-Jul-2020 4229.01 4614.67 79.82 4.00  39.02 2841.98
   17:57:25.506.16-Jul-2020 4229.01 4614.67 79.82 4.00  39.22 2841.98
   17:57:25.706.16-Jul-2020 4229.01 4610.08 79.82 4.00  39.42 2841.98
   17:57:25.906.16-Jul-2020 4229.01 4610.96 79.81 4.00  39.62 2841.98
   17:57:26.107.16-Jul-2020 4229.01 4606.46 79.81 4.00  39.82 2841.98
   17:57:26.307.16-Jul-2020 4229.01 4613.36 79.81 4.00  40.02 2841.98
   17:57:26.507.16-Jul-2020 4229.01 4611.37 79.81 4.00  40.22 2841.98
   17:57:26.707.16-Jul-2020 4229.01 4611.17 79.80 4.00  40.42 2841.98
   17:57:26.907.16-Jul-2020 4229.01 4611.26 79.80 4.00  40.62 2841.98
   17:57:27.107.16-Jul-2020 4229.01 4611.93 79.80 4.00  40.82 2841.98
   17:57:27.307.16-Jul-2020 4229.01 4608.24 79.79 4.00  41.02 2841.98
   17:57:27.507.16-Jul-2020 4229.01 4608.24 79.79 4.00  41.22 2841.98
   17:57:27.707.16-Jul-2020 4229.01 4605.74 79.79 4.00  41.42 2841.98
   17:57:27.907.16-Jul-2020 4229.01 4609.16 79.79 4.00  41.62 2841.98
   17:57:28.107.16-Jul-2020 4229.01 4608.25 79.78 4.00  41.82 2841.98
   17:57:28.308.16-Jul-2020 4229.01 4608.57 79.78 4.00  42.02 2841.98
   17:57:28.508.16-Jul-2020 4229.01 4608.57 79.78 4.00  42.22 2841.98
   17:57:28.708.16-Jul-2020 4229.01 4609.07 79.78 4.00  42.42 2841.98
   17:57:28.908.16-Jul-2020 4229.01 4604.20 79.77 4.00  42.62 2841.98
   17:57:29.108.16-Jul-2020 4229.01 4608.50 79.77 4.00  42.82 2841.98
   17:57:29.308.16-Jul-2020 4229.01 4607.05 79.77 4.00  43.02 2841.98
   17:57:29.508.16-Jul-2020 4229.01 4607.05 79.77 4.00  43.22 2841.98
   17:57:29.708.16-Jul-2020 4229.01 4607.11 79.76 4.00  43.42 2841.98
   17:57:29.908.16-Jul-2020 4229.01 4608.01 79.76 4.00  43.62 2841.98
   17:57:30.108.16-Jul-2020 4229.01 4608.36 79.76 4.00  43.82 2841.98
   17:57:30.308.16-Jul-2020 4229.01 4608.33 79.76 4.00  44.02 2841.98
   17:57:30.509.16-Jul-2020 4229.01 4607.74 79.76 4.00  44.22 2841.98
   17:57:30.709.16-Jul-2020 4229.01 4607.37 79.75 4.00  44.42 2841.98
   17:57:30.909.16-Jul-2020 4229.01 4606.90 79.75 4.00  44.62 2841.98
   17:57:31.109.16-Jul-2020 4229.01 4607.27 79.75 4.00  44.82 2841.98
   17:57:31.309.16-Jul-2020 4229.01 4607.75 79.75 4.00  45.02 2841.98
   17:57:31.509.16-Jul-2020 4229.01 4608.08 79.75 4.00  45.22 2841.98
   17:57:31.709.16-Jul-2020 4229.01 4605.07 79.75 4.00  45.42 2841.98
   17:57:31.909.16-Jul-2020 4229.01 4605.34 79.75 4.00  45.62 2841.98
   17:57:32.109.16-Jul-2020 4229.01 4607.44 79.74 4.00  45.82 2841.98
