~Version Information
 VERS.                  2.0:   CWLS log ASCII Standard -VERSION 2.0
 WRAP.                   NO:   One line per depth step
~Well Information Block
#MNEM.UNIT     VALUE/NAME     DESCRIPTION
#---------     -----------    ---------------------------
 STRT.S             21:08:23 16-Jul-20: START TIME 21:08:23 16-Jul-20
 STOP.S             21:15:15 16-Jul-20: STOP TIME  21:15:15 16-Jul-20
 STEP.S                   0.00: STEP TIME
 NULL.                 -999.25: NULL VALUE
 MDS .        Operator Entered:  MAG DATA SOURCE
 UNIT.                     N/A:  LOGGING EQUIPMENT ID
 DCON.         Sperry Drilling:  DIRECTNL CONTR
 DOE .                     N/A:  DOE NUMBER
 RIG .               EastAzeri:  RIG NAME
 JOBN.        AZ-XX-0906363297:  JOB TICKET NUMB
 MWDS.                    Baku:  MWD SHOP
 SRVC.     Turan Drilling & Engineering:  CONTRACTOR
 PROV.                    Baku:  PROVINCE
 STAT.                    Baku:  STATE NAME
 REGN.                   EESSA:  REGION
 BASE.              Azerbaijan:  LOGGING EQUIPMENT BASE LOCATION
 WTYP.                Deviated:  WELL TYPE
 UWI .                     N/A:  UNIQUE WELL IDENTIFIER
 API .                     N/A:  API NUMBER
 COMP.     BP Exploration (Caspian Sea) ltd.:  COMPANY
 WELL.                    D07z:  WELL NAME
 CTRY.              Azerbaijan:  COUNTRY NAME
 SON .        AZ-XX-0906363297:  JOB NUMBER
 FLD .                     ACG:  FIELD NAME
 PDAT.          Mean Sea Level:  PERMANENT DATUM
 FTOP.          Formation Tops:  FORM TOPS DESC
 ILTD.               Lithology:  INTERP LTH DESC
 SVYD.                  Survey:  SURVEY DESC
 DMOD.             Drill Model:  DRILL MOD DESC
 HPTY.       Minimum Curvature:  HOLE POS TYPE
 NREF.                    Grid:  NORTH REFERENCE
 SPUD.               28-Jun-20:  SPUD DATE
 DATE.      18.27.12 28-Jun-20:  END TIME
 STIM.      18.27.12 28-Jun-20:  START TIME
 DMF .             Drill Floor:  DRILL MEAS FROM
 DFST.                        :  DIST FSL TEXT
 DFWT.                        :  DIST FWL TEXT
 CNTY.                        :  COUNTY
 LOC .                        :  LOCATION
 LMF .             Drill Floor:  LOG MEASURED FROM
 VSNS.m                  -7.75:  VERT SEC N/S
 VSEW.m                  -9.19:  VERT SEC E/W
 MMDE.m                   0.00:  MAGUTM CALC DEP
 AGAP.m                  43.60:  AIR GAP
 DEP .m                4058.99:  DEPTH
 APD .m                  43.60:  DEPTH ABOVE PD
 WDMS.m                 151.80:  WD ELEV
 EGL .m                   0.00:  GROUND ELEVATION
 EPD .m                   0.00:  ELEVATION
 AZTC.deg                 6.19:  AZM TOTAL CORR
 GRDC.deg                 0.27:  GRID CORRECTION
 MDEC.deg                 6.46:  MAGNETIC DECL
 MDIP.deg                59.47:  MAGNETIC DIP
 MFLD.nT              50279.00:  MAGNETIC FIELD
 GVFD.g                   1.00:  GRAVITY FIELD
 VSDR.deg               249.96:  VERT SEC DIRECT
 TDD .m                   0.00:  TOTAL DEPTH (DRILLER)
 SDEP.m                   0.00:  START DEPTH
 DFSL.m                   0.00:  DISTANCE FSL
 DFWL.m                   0.00:  DISTANCE FWL
 UTMY.m             4431880.20:  UTM Y
 UTMX.m              538763.98:  UTM X
 WHEW.m                  -9.19:  WELL HEAD E/W
 WHNS.m                  -7.75:  WELL HEAD N/S
 LONG.deg                51.45:  LONGITUDE
 LATI.deg                40.02:  LATITUDE
 TVDS.m                  43.60:  TVDSS CORRECTN
 EKB .m                  43.60:  KB ELEVATION
 EDF .m                  43.60:  DF ELEVATION
 TDL .m                 248.00:  TOTAL DEPTH (LOGGER)
 MAGU.                 1849075:  MAGUTM CHECKSUM
 VSC .                       0:  VS TO CLOSURE
~Parameter Information Block
#MNEM.UNIT       Value        Description
#---------     -----------    ---------------------------
 AV  .mps                 6.34:  Ann Velocity 
 AVMX.mps                 7.00:  Max Ann Veloc 
 AZIF.deg               260.29:  Azm, Final 
 BHAT.        Rotary Steerable:  BHA Type 
 BROT.°/30m               1.20:  Build Rotating 
 BS  .in                  8.50:  Bit Size 
 BSZ .in                  8.50:  Bit Size 
 BTPL.psig              620.00:  Bit Press Loss 
 CABU.                     Yes:  Customer Abuse 
 COMM.                     Äá„:  Run Comments 1 
 TCS .hr                 56.22:  Time Ciculation Ended 
 CV  .mps                 3.05:  Crit Velocity 
 CVMX.mps                 3.20:  Max Crit Veloc 
 DD1 .            Musa Ahmadov:  Direct Drillr 1 
 DDSV.                 iCruise:  DD Service 
 DEFF.%                  98.00:  % Det Eff 
 DLRX.°/30m               2.78:  Dogleg Rot Max 
 DLSO.°/30m               0.00:  Dogleg Oriented 
 DLSX.°/30m               0.00:  Dogleg Str Max 
 DRET.      05.20.48 16-Jul-20:  Drill End Time 
 DRST.      10.20.48 13-Jul-20:  Drill Start Tim 
 DTIM.hr                 14.25:  Time Drilling 
 EDEP.m                4326.01:  End Depth 
 ENG1.      Artemiy Matviyanov:  Engineer 1 
 ENG2.           Amrah Tahirov:  Engineer 2 
 ETIM.      22.30.00 18-Jul-20:  End Time 
 FLOI.gpm               550.00:  Flow In 
 FLON.gpm               450.00:  Flow In Min 
 FLOS.cptm                0.00:  Fluid Loss 
 FLOX.gpm               600.00:  Flow In Max 
 HFLO.                      No:  High Flow 
 HPRE.                      No:  High Pressure 
 HTEM.                      No:  High Temp 
 HYDO.m                   1.80:  Hydro Offset 
 IFIN.deg                65.41:  Inc, Final 
 IMAX.deg                65.14:  Inc Max 
 IMIN.deg                58.89:  Inc Min 
 IMND.m                4104.92:  Inc Min Depth 
 IMXD.m                4303.89:  Inc Max Depth 
 JARR.                      No:  Jarring 
 LETM.      10.20.48 17-Jul-20:  Log End Time 
 LOST.hr                     0:  Lost Rig Time 
 LSTM.      10.20.48 13-Jul-20:  Log Start Time 
 MDCL.ppm             37000.00:  Mud Chlorides 
 MDES.     Inversion Oil/Synthetic:  Mud Desc 
 DFD .sg                  1.52:  Mud Density 
 MDMN.sg                  1.52:  Dens Mud Min 
 MDMX.sg                  1.52:  Dens Mud Max 
 MOIL.                   52.70:  Run Mud Oil % 
 MOWR.                   68:32:  Run Mud OWR 
 MSND.                     0.2:  Run Mud Sand % 
 MSOL.                    21.6:  Run Mud Solids% 
 DFV .spqt               79.00:  Mud Viscosity 
 MWOD.in                  6.75:  MWD Tool OD 
 MWSI.                      No:  Serv Intrp, MWD 
 OTIM.hr                114.04:  Time Operating 
 PCON.          Wear / Scratch:  Pad Condition 
 PMAX.psia            11782.92:  Press Op, Max 
 PV  .cP                 49.00:  Mud PV 
 RUN .                     600:  Run Number 
 ROPA.m/hr               20.00:  ROP Avg 
 ROPN.m/hr               15.00:  ROP Min 
 ROPX.m/hr               22.00:  ROP Max 
 RPMA.rpm               120.00:  RPM Surface Avg 
 RPMN.rpm                90.00:  RPM Surface Min 
 RPMX.rpm               140.00:  RPM Surface Max 
 RRUN.                     600:  Rig Run Number 
 SAZI.deg               260.29:  Azm, Start 
 SDEP.m                4078.01:  Start Depth 
 SIDD.                      No:  Serv Intrp, DD 
 SINC.deg                58.89:  Inc, Start 
 SPPA.psig             4560.00:  SPP Avg 
 SPPN.psig             3600.00:  SPP Min 
 SPPX.psig             4800.00:  SPP Max 
 STIM.      10.20.48 13-Jul-20:  Start Time 
 SVCS.                 DD, MWD:  Services 
 SVER.                    9.20:  Sperry Version 
 TDAT.m                4378.01:  Tot Depth Attmp 
 TDDF.                      No:  Trip for DD 
 TDLG.m                 248.00:  Tot Depth Loggd 
 TFF .                      No:  Trip for Fail 
 TQAA.f-kp               18.00:  Torque Abs Avg 
 TQAN.f-kp               15.00:  Torque Abs Min 
 TQAX.f-kp               20.00:  Torque Abs Max 
 TRRT.°/30m               0.70:  Turn Rotating 
 MRT .                    HCIM:  Maximum Recorded Temperature 
 TTMX.degC               86.00:  Max Tool Temp 
 WBMN.klb                 3.00:  WOB Min 
 WOBA.klb                 5.00:  WOB Avg 
 WOBX.klb                 9.00:  WOB Max 
 YP  .lhf2               32.00:  Yield Point 
~Curve Information Block
#MNEM.UNIT                 API CODE     Curve Description
#---------               -----------    ---------------------------
 TIME.HHMMSS            00 000 000 000:  GT Time & Date
 GTDEPTH.m              00 000 000 000:  GT Depth
 GTPQH.psia             00 000 000 000:  GT HR Quartz Pressure
 GTTQ.degC              00 000 000 000:  GT Quartz Temperature
 GTTN.NONE              00 000 000 000:  GT Test Number
 GTET.sec               00 000 000 000:  GT Elapsed Test Time
 GTTVD.m                00 000 000 000:  GT True Vertical Depth
#Other Information
#
#WARRANTY: Halliburton will use its best efforts to furnish customers with 
#accurate information and interpretations that are part of, and incident to, the services 
#provided.  However, Halliburton cannot and does not warrant the accuracy 
#or correctness of such information and interpretations.  Under no circumstances should any 
#such information or interpretation be relied upon as the sole basis for any drilling, 
#completion, production, or financial decision or any procedure involving any risk to the 
#safety of any drilling venture, drilling rig or its crew or any other third party.  The 
#Customer has full responsibility for all drilling, completion and production operation.  
#Halliburton makes no representations or warranties, either expressed or 
#implied, including, but not limited to, the implied warranties of merchantability or fitness 
#for a particular purpose, with respect to the services rendered.  In no event will 
#Halliburton be liable for failure to obtain any particular results or for 
#any damages, including, but not limited to, indirect, special or consequential damages, 
#resulting from the use of any information or interpretation provided by Halliburton.
#
~A           TIME           GTDEPTH  GTPQH  GTTQ  GTTN  GTET   GTTVD  
# ...
   21:09:32.056.16-Jul-2020 4135.51 4700.17 77.12 7.00  69.04 2799.87
   21:09:32.256.16-Jul-2020 4135.51 4700.17 77.12 7.00  69.24 2799.87
   21:09:32.456.16-Jul-2020 4135.51 4700.11 77.12 7.00  69.44 2799.87
   21:09:32.657.16-Jul-2020 4135.51 4700.10 77.12 7.00  69.64 2799.87
   21:09:32.857.16-Jul-2020 4135.51 4700.11 77.12 7.00  69.84 2799.87
   21:09:33.057.16-Jul-2020 4135.51 4700.11 77.12 7.00  70.04 2799.87
   21:09:33.257.16-Jul-2020 4135.51 4700.10 77.12 7.00  70.24 2799.87
   21:09:33.457.16-Jul-2020 4135.51 4700.12 77.12 7.00  70.44 2799.87
   21:09:33.657.16-Jul-2020 4135.51 4700.08 77.12 7.00  70.64 2799.87
   21:09:33.857.16-Jul-2020 4135.51 4700.14 77.12 7.00  70.84 2799.87
   21:09:34.057.16-Jul-2020 4135.51 4700.14 77.12 7.00  71.04 2799.87
   21:09:34.257.16-Jul-2020 4135.51 4700.14 77.12 7.00  71.24 2799.87
   21:09:34.458.16-Jul-2020 4135.51 4700.14 77.12 7.00  71.44 2799.87
   21:09:34.658.16-Jul-2020 4135.51 4700.09 77.12 7.00  71.64 2799.87
   21:09:34.858.16-Jul-2020 4135.51 4700.14 77.12 7.00  71.84 2799.87
   21:09:35.058.16-Jul-2020 4135.51 4700.11 77.12 7.00  72.04 2799.87
   21:09:35.258.16-Jul-2020 4135.51 4700.11 77.12 7.00  72.24 2799.87
   21:09:35.458.16-Jul-2020 4135.51 4700.11 77.12 7.00  72.44 2799.87
   21:09:35.658.16-Jul-2020 4135.51 4700.11 77.12 7.00  72.64 2799.87
   21:09:35.858.16-Jul-2020 4135.51 4700.14 77.12 7.00  72.84 2799.87
   21:09:36.058.16-Jul-2020 4135.51 4700.13 77.12 7.00  73.04 2799.87
   21:09:36.259.16-Jul-2020 4135.51 4700.13 77.12 7.00  73.24 2799.87
   21:09:36.459.16-Jul-2020 4135.51 4700.17 77.12 7.00  73.44 2799.87
   21:09:36.659.16-Jul-2020 4135.51 4700.17 77.12 7.00  73.64 2799.87
   21:09:36.859.16-Jul-2020 4135.51 4700.19 77.12 7.00  73.84 2799.87
   21:09:37.059.16-Jul-2020 4135.51 4700.20 77.12 7.00  74.04 2799.87
   21:09:37.259.16-Jul-2020 4135.51 4700.20 77.12 7.00  74.24 2799.87
   21:09:37.459.16-Jul-2020 4135.51 4700.20 77.12 7.00  74.44 2799.87
   21:09:37.659.16-Jul-2020 4135.51 4700.21 77.12 7.00  74.64 2799.87
   21:09:37.860.16-Jul-2020 4135.51 4700.25 77.12 7.00  74.84 2799.87
   21:09:38.060.16-Jul-2020 4135.51 4700.13 77.12 7.00  75.04 2799.87
   21:09:38.260.16-Jul-2020 4135.51 4700.12 77.12 7.00  75.24 2799.87
   21:09:38.460.16-Jul-2020 4135.51 4700.17 77.12 7.00  75.44 2799.87
   21:09:38.660.16-Jul-2020 4135.51 4700.16 77.12 7.00  75.64 2799.87
   21:09:38.860.16-Jul-2020 4135.51 4700.17 77.12 7.00  75.84 2799.87
   21:09:39.060.16-Jul-2020 4135.51 4700.18 77.12 7.00  76.04 2799.87
   21:09:39.260.16-Jul-2020 4135.51 4700.18 77.12 7.00  76.24 2799.87
   21:09:39.460.16-Jul-2020 4135.51 4700.22 77.12 7.00  76.44 2799.87
   21:09:39.661.16-Jul-2020 4135.51 4700.21 77.12 7.00  76.64 2799.87
   21:09:39.861.16-Jul-2020 4135.51 4700.20 77.12 7.00  76.84 2799.87
   21:09:40.061.16-Jul-2020 4135.51 4700.24 77.12 7.00  77.04 2799.87
   21:09:40.261.16-Jul-2020 4135.51 4700.24 77.12 7.00  77.24 2799.87
   21:09:40.461.16-Jul-2020 4135.51 4700.22 77.12 7.00  77.44 2799.87
   21:09:40.661.16-Jul-2020 4135.51 4700.24 77.12 7.00  77.64 2799.87
   21:09:40.861.16-Jul-2020 4135.51 4700.24 77.12 7.00  77.84 2799.87
   21:09:41.061.16-Jul-2020 4135.51 4700.29 77.12 7.00  78.04 2799.87
   21:09:41.261.16-Jul-2020 4135.51 4700.29 77.12 7.00  78.24 2799.87
   21:09:41.462.16-Jul-2020 4135.51 4700.14 77.12 7.00  78.44 2799.87
   21:09:41.662.16-Jul-2020 4135.51 4700.15 77.12 7.00  78.64 2799.87
   21:09:41.862.16-Jul-2020 4135.51 4700.15 77.12 7.00  78.84 2799.87
   21:09:42.062.16-Jul-2020 4135.51 4700.19 77.12 7.00  79.04 2799.87
   21:09:42.262.16-Jul-2020 4135.51 4700.18 77.12 7.00  79.24 2799.87
   21:09:42.462.16-Jul-2020 4135.51 4700.13 77.12 7.00  79.45 2799.87
   21:09:42.662.16-Jul-2020 4135.51 4700.21 77.12 7.00  79.65 2799.87
   21:09:42.862.16-Jul-2020 4135.51 4700.19 77.12 7.00  79.85 2799.87
   21:09:43.062.16-Jul-2020 4135.51 4700.28 77.12 7.00  80.05 2799.87
   21:09:43.263.16-Jul-2020 4135.51 4700.28 77.12 7.00  80.25 2799.87
   21:09:43.463.16-Jul-2020 4135.51 4700.14 77.12 7.00  80.45 2799.87
   21:09:43.663.16-Jul-2020 4135.51 4700.21 77.12 7.00  80.65 2799.87
   21:09:43.863.16-Jul-2020 4135.51 4700.11 77.12 7.00  80.85 2799.87
   21:09:44.063.16-Jul-2020 4135.51 4700.21 77.12 7.00  81.05 2799.87
   21:09:44.263.16-Jul-2020 4135.51 4700.21 77.12 7.00  81.25 2799.87
   21:09:44.463.16-Jul-2020 4135.51 4700.19 77.12 7.00  81.45 2799.87
   21:09:44.663.16-Jul-2020 4135.51 4700.17 77.12 7.00  81.65 2799.87
   21:09:44.863.16-Jul-2020 4135.51 4700.20 77.12 7.00  81.85 2799.87
   21:09:45.064.16-Jul-2020 4135.51 4700.19 77.12 7.00  82.05 2799.87
   21:09:45.264.16-Jul-2020 4135.51 4700.19 77.12 7.00  82.25 2799.87
   21:09:45.464.16-Jul-2020 4135.51 4700.22 77.12 7.00  82.45 2799.87
   21:09:45.664.16-Jul-2020 4135.51 4700.21 77.12 7.00  82.65 2799.87
   21:09:45.864.16-Jul-2020 4135.51 4700.25 77.12 7.00  82.85 2799.87
   21:09:46.064.16-Jul-2020 4135.51 4700.23 77.12 7.00  83.05 2799.87
   21:09:46.264.16-Jul-2020 4135.51 4700.23 77.12 7.00  83.25 2799.87
   21:09:46.464.16-Jul-2020 4135.51 4700.25 77.12 7.00  83.45 2799.87
   21:09:46.665.16-Jul-2020 4135.51 4700.23 77.12 7.00  83.65 2799.87
   21:09:46.865.16-Jul-2020 4135.51 4700.19 77.12 7.00  83.85 2799.87
   21:09:47.065.16-Jul-2020 4135.51 4700.20 77.12 7.00  84.05 2799.87
   21:09:47.265.16-Jul-2020 4135.51 4700.20 77.12 7.00  84.25 2799.87
   21:09:47.465.16-Jul-2020 4135.51 4700.22 77.12 7.00  84.45 2799.87
   21:09:47.665.16-Jul-2020 4135.51 4700.22 77.12 7.00  84.65 2799.87
   21:09:47.865.16-Jul-2020 4135.51 4700.22 77.12 7.00  84.85 2799.87
   21:09:48.065.16-Jul-2020 4135.51 4700.24 77.12 7.00  85.05 2799.87
   21:09:48.265.16-Jul-2020 4135.51 4700.24 77.12 7.00  85.25 2799.87
   21:09:48.466.16-Jul-2020 4135.51 4700.24 77.12 7.00  85.45 2799.87
   21:09:48.666.16-Jul-2020 4135.51 4700.26 77.12 7.00  85.65 2799.87
   21:09:48.866.16-Jul-2020 4135.51 4700.24 77.12 7.00  85.85 2799.87
   21:09:49.066.16-Jul-2020 4135.51 4700.25 77.12 7.00  86.05 2799.87
   21:09:49.266.16-Jul-2020 4135.51 4700.25 77.12 7.00  86.25 2799.87
   21:09:49.466.16-Jul-2020 4135.51 4700.26 77.12 7.00  86.45 2799.87
   21:09:49.666.16-Jul-2020 4135.51 4700.28 77.12 7.00  86.65 2799.87
   21:09:49.866.16-Jul-2020 4135.51 4700.25 77.12 7.00  86.85 2799.87
   21:09:50.066.16-Jul-2020 4135.51 4700.19 77.12 7.00  87.05 2799.87
   21:09:50.267.16-Jul-2020 4135.51 4700.19 77.12 7.00  87.25 2799.87
   21:09:50.467.16-Jul-2020 4135.51 4700.20 77.12 7.00  87.45 2799.87
   21:09:50.667.16-Jul-2020 4135.51 4700.19 77.12 7.00  87.65 2799.87
   21:09:50.867.16-Jul-2020 4135.51 4700.21 77.12 7.00  87.85 2799.87
   21:09:51.067.16-Jul-2020 4135.51 4700.17 77.12 7.00  88.05 2799.87
   21:09:51.267.16-Jul-2020 4135.51 4700.17 77.12 7.00  88.25 2799.87
   21:09:51.467.16-Jul-2020 4135.51 4700.21 77.12 7.00  88.45 2799.87
   21:09:51.667.16-Jul-2020 4135.51 4700.23 77.12 7.00  88.65 2799.87
   21:09:51.867.16-Jul-2020 4135.51 4700.24 77.12 7.00  88.85 2799.87
   21:09:52.068.16-Jul-2020 4135.51 4700.18 77.12 7.00  89.05 2799.87
   21:09:52.268.16-Jul-2020 4135.51 4700.18 77.12 7.00  89.25 2799.87
   21:09:52.468.16-Jul-2020 4135.51 4700.19 77.12 7.00  89.45 2799.87
   21:09:52.668.16-Jul-2020 4135.51 4700.23 77.12 7.00  89.65 2799.87
   21:09:52.868.16-Jul-2020 4135.51 4700.21 77.12 7.00  89.85 2799.87
   21:09:53.068.16-Jul-2020 4135.51 4700.18 77.12 7.00  90.05 2799.87
   21:09:53.268.16-Jul-2020 4135.51 4700.18 77.12 7.00  90.25 2799.87
   21:09:53.468.16-Jul-2020 4135.51 4700.20 77.12 7.00  90.45 2799.87
   21:09:53.668.16-Jul-2020 4135.51 4700.23 77.12 7.00  90.65 2799.87
   21:09:53.869.16-Jul-2020 4135.51 4700.21 77.12 7.00  90.85 2799.87
   21:09:54.069.16-Jul-2020 4135.51 4700.23 77.12 7.00  91.05 2799.87
   21:09:54.269.16-Jul-2020 4135.51 4700.24 77.12 7.00  91.25 2799.87
   21:09:54.469.16-Jul-2020 4135.51 4700.24 77.12 7.00  91.45 2799.87
   21:09:54.669.16-Jul-2020 4135.51 4700.23 77.12 7.00  91.65 2799.87
   21:09:54.869.16-Jul-2020 4135.51 4700.27 77.12 7.00  91.85 2799.87
