~Version Information
 VERS.                  2.0:   CWLS log ASCII Standard -VERSION 2.0
 WRAP.                   NO:   One line per depth step
~Well Information Block
#MNEM.UNIT     VALUE/NAME     DESCRIPTION
#---------     -----------    ---------------------------
 STRT.S             17:56:46 16-Jul-20: START TIME 17:56:46 16-Jul-20
 STOP.S             18:03:39 16-Jul-20: STOP TIME  18:03:39 16-Jul-20
 STEP.S                   0.00: STEP TIME
 NULL.                 -999.25: NULL VALUE
 MDS .        Operator Entered:  MAG DATA SOURCE
 UNIT.                     N/A:  LOGGING EQUIPMENT ID
 DCON.         Sperry Drilling:  DIRECTNL CONTR
 DOE .                     N/A:  DOE NUMBER
 RIG .               EastAzeri:  RIG NAME
 JOBN.        AZ-XX-0906363297:  JOB TICKET NUMB
 MWDS.                    Baku:  MWD SHOP
 SRVC.     Turan Drilling & Engineering:  CONTRACTOR
 PROV.                    Baku:  PROVINCE
 STAT.                    Baku:  STATE NAME
 REGN.                   EESSA:  REGION
 BASE.              Azerbaijan:  LOGGING EQUIPMENT BASE LOCATION
 WTYP.                Deviated:  WELL TYPE
 UWI .                     N/A:  UNIQUE WELL IDENTIFIER
 API .                     N/A:  API NUMBER
 COMP.     BP Exploration (Caspian Sea) ltd.:  COMPANY
 WELL.                    D07z:  WELL NAME
 CTRY.              Azerbaijan:  COUNTRY NAME
 SON .        AZ-XX-0906363297:  JOB NUMBER
 FLD .                     ACG:  FIELD NAME
 PDAT.          Mean Sea Level:  PERMANENT DATUM
 FTOP.          Formation Tops:  FORM TOPS DESC
 ILTD.               Lithology:  INTERP LTH DESC
 SVYD.                  Survey:  SURVEY DESC
 DMOD.             Drill Model:  DRILL MOD DESC
 HPTY.       Minimum Curvature:  HOLE POS TYPE
 NREF.                    Grid:  NORTH REFERENCE
 SPUD.               28-Jun-20:  SPUD DATE
 DATE.      18.27.12 28-Jun-20:  END TIME
 STIM.      18.27.12 28-Jun-20:  START TIME
 DMF .             Drill Floor:  DRILL MEAS FROM
 DFST.                        :  DIST FSL TEXT
 DFWT.                        :  DIST FWL TEXT
 CNTY.                        :  COUNTY
 LOC .                        :  LOCATION
 LMF .             Drill Floor:  LOG MEASURED FROM
 VSNS.m                  -7.75:  VERT SEC N/S
 VSEW.m                  -9.19:  VERT SEC E/W
 MMDE.m                   0.00:  MAGUTM CALC DEP
 AGAP.m                  43.60:  AIR GAP
 DEP .m                4058.99:  DEPTH
 APD .m                  43.60:  DEPTH ABOVE PD
 WDMS.m                 151.80:  WD ELEV
 EGL .m                   0.00:  GROUND ELEVATION
 EPD .m                   0.00:  ELEVATION
 AZTC.deg                 6.19:  AZM TOTAL CORR
 GRDC.deg                 0.27:  GRID CORRECTION
 MDEC.deg                 6.46:  MAGNETIC DECL
 MDIP.deg                59.47:  MAGNETIC DIP
 MFLD.nT              50279.00:  MAGNETIC FIELD
 GVFD.g                   1.00:  GRAVITY FIELD
 VSDR.deg               249.96:  VERT SEC DIRECT
 TDD .m                   0.00:  TOTAL DEPTH (DRILLER)
 SDEP.m                   0.00:  START DEPTH
 DFSL.m                   0.00:  DISTANCE FSL
 DFWL.m                   0.00:  DISTANCE FWL
 UTMY.m             4431880.20:  UTM Y
 UTMX.m              538763.98:  UTM X
 WHEW.m                  -9.19:  WELL HEAD E/W
 WHNS.m                  -7.75:  WELL HEAD N/S
 LONG.deg                51.45:  LONGITUDE
 LATI.deg                40.02:  LATITUDE
 TVDS.m                  43.60:  TVDSS CORRECTN
 EKB .m                  43.60:  KB ELEVATION
 EDF .m                  43.60:  DF ELEVATION
 TDL .m                 248.00:  TOTAL DEPTH (LOGGER)
 MAGU.                 1849075:  MAGUTM CHECKSUM
 VSC .                       0:  VS TO CLOSURE
~Parameter Information Block
#MNEM.UNIT       Value        Description
#---------     -----------    ---------------------------
 AV  .mps                 6.34:  Ann Velocity 
 AVMX.mps                 7.00:  Max Ann Veloc 
 AZIF.deg               260.29:  Azm, Final 
 BHAT.        Rotary Steerable:  BHA Type 
 BROT.°/30m               1.20:  Build Rotating 
 BS  .in                  8.50:  Bit Size 
 BSZ .in                  8.50:  Bit Size 
 BTPL.psig              620.00:  Bit Press Loss 
 CABU.                     Yes:  Customer Abuse 
 COMM.                     LqT:  Run Comments 1 
 TCS .hr                 56.22:  Time Ciculation Ended 
 CV  .mps                 3.05:  Crit Velocity 
 CVMX.mps                 3.20:  Max Crit Veloc 
 DD1 .            Musa Ahmadov:  Direct Drillr 1 
 DDSV.                 iCruise:  DD Service 
 DEFF.%                  98.00:  % Det Eff 
 DLRX.°/30m               2.78:  Dogleg Rot Max 
 DLSO.°/30m               0.00:  Dogleg Oriented 
 DLSX.°/30m               0.00:  Dogleg Str Max 
 DRET.      05.20.48 16-Jul-20:  Drill End Time 
 DRST.      10.20.48 13-Jul-20:  Drill Start Tim 
 DTIM.hr                 14.25:  Time Drilling 
 EDEP.m                4326.01:  End Depth 
 ENG1.      Artemiy Matviyanov:  Engineer 1 
 ENG2.           Amrah Tahirov:  Engineer 2 
 ETIM.      22.30.00 18-Jul-20:  End Time 
 FLOI.gpm               550.00:  Flow In 
 FLON.gpm               450.00:  Flow In Min 
 FLOS.cptm                0.00:  Fluid Loss 
 FLOX.gpm               600.00:  Flow In Max 
 HFLO.                      No:  High Flow 
 HPRE.                      No:  High Pressure 
 HTEM.                      No:  High Temp 
 HYDO.m                   1.80:  Hydro Offset 
 IFIN.deg                65.41:  Inc, Final 
 IMAX.deg                65.14:  Inc Max 
 IMIN.deg                58.89:  Inc Min 
 IMND.m                4104.92:  Inc Min Depth 
 IMXD.m                4303.89:  Inc Max Depth 
 JARR.                      No:  Jarring 
 LETM.      10.20.48 17-Jul-20:  Log End Time 
 LOST.hr                     0:  Lost Rig Time 
 LSTM.      10.20.48 13-Jul-20:  Log Start Time 
 MDCL.ppm             37000.00:  Mud Chlorides 
 MDES.     Inversion Oil/Synthetic:  Mud Desc 
 DFD .sg                  1.52:  Mud Density 
 MDMN.sg                  1.52:  Dens Mud Min 
 MDMX.sg                  1.52:  Dens Mud Max 
 MOIL.                   52.70:  Run Mud Oil % 
 MOWR.                   68:32:  Run Mud OWR 
 MSND.                     0.2:  Run Mud Sand % 
 MSOL.                    21.6:  Run Mud Solids% 
 DFV .spqt               79.00:  Mud Viscosity 
 MWOD.in                  6.75:  MWD Tool OD 
 MWSI.                      No:  Serv Intrp, MWD 
 OTIM.hr                114.04:  Time Operating 
 PCON.          Wear / Scratch:  Pad Condition 
 PMAX.psia            11782.92:  Press Op, Max 
 PV  .cP                 49.00:  Mud PV 
 RUN .                     600:  Run Number 
 ROPA.m/hr               20.00:  ROP Avg 
 ROPN.m/hr               15.00:  ROP Min 
 ROPX.m/hr               22.00:  ROP Max 
 RPMA.rpm               120.00:  RPM Surface Avg 
 RPMN.rpm                90.00:  RPM Surface Min 
 RPMX.rpm               140.00:  RPM Surface Max 
 RRUN.                     600:  Rig Run Number 
 SAZI.deg               260.29:  Azm, Start 
 SDEP.m                4078.01:  Start Depth 
 SIDD.                      No:  Serv Intrp, DD 
 SINC.deg                58.89:  Inc, Start 
 SPPA.psig             4560.00:  SPP Avg 
 SPPN.psig             3600.00:  SPP Min 
 SPPX.psig             4800.00:  SPP Max 
 STIM.      10.20.48 13-Jul-20:  Start Time 
 SVCS.                 DD, MWD:  Services 
 SVER.                    9.20:  Sperry Version 
 TDAT.m                4378.01:  Tot Depth Attmp 
 TDDF.                      No:  Trip for DD 
 TDLG.m                 248.00:  Tot Depth Loggd 
 TFF .                      No:  Trip for Fail 
 TQAA.f-kp               18.00:  Torque Abs Avg 
 TQAN.f-kp               15.00:  Torque Abs Min 
 TQAX.f-kp               20.00:  Torque Abs Max 
 TRRT.°/30m               0.70:  Turn Rotating 
 MRT .                    HCIM:  Maximum Recorded Temperature 
 TTMX.degC               86.00:  Max Tool Temp 
 WBMN.klb                 3.00:  WOB Min 
 WOBA.klb                 5.00:  WOB Avg 
 WOBX.klb                 9.00:  WOB Max 
 YP  .lhf2               32.00:  Yield Point 
~Curve Information Block
#MNEM.UNIT                 API CODE     Curve Description
#---------               -----------    ---------------------------
 TIME.HHMMSS            00 000 000 000:  GT Time & Date
 GTDEPTH.m              00 000 000 000:  GT Depth
 GTPQH.psia             00 000 000 000:  GT HR Quartz Pressure
 GTTQ.degC              00 000 000 000:  GT Quartz Temperature
 GTTN.NONE              00 000 000 000:  GT Test Number
 GTET.sec               00 000 000 000:  GT Elapsed Test Time
 GTTVD.m                00 000 000 000:  GT True Vertical Depth
#Other Information
#
#WARRANTY: Halliburton will use its best efforts to furnish customers with 
#accurate information and interpretations that are part of, and incident to, the services 
#provided.  However, Halliburton cannot and does not warrant the accuracy 
#or correctness of such information and interpretations.  Under no circumstances should any 
#such information or interpretation be relied upon as the sole basis for any drilling, 
#completion, production, or financial decision or any procedure involving any risk to the 
#safety of any drilling venture, drilling rig or its crew or any other third party.  The 
#Customer has full responsibility for all drilling, completion and production operation.  
#Halliburton makes no representations or warranties, either expressed or 
#implied, including, but not limited to, the implied warranties of merchantability or fitness 
#for a particular purpose, with respect to the services rendered.  In no event will 
#Halliburton be liable for failure to obtain any particular results or for 
#any damages, including, but not limited to, indirect, special or consequential damages, 
#resulting from the use of any information or interpretation provided by Halliburton.
#
~A           TIME           GTDEPTH  GTPQH  GTTQ  GTTN  GTET   GTTVD  
# ...
   18:01:22.411.16-Jul-2020 4229.01 4706.06 79.72 4.00 276.12 2841.98
   18:01:22.611.16-Jul-2020 4229.01 4706.06 79.72 4.00 276.32 2841.98
   18:01:22.812.16-Jul-2020 4229.01 4706.06 79.72 4.00 276.52 2841.98
   18:01:23.012.16-Jul-2020 4229.01 4706.05 79.72 4.00 276.72 2841.98
   18:01:23.212.16-Jul-2020 4229.01 4706.08 79.72 4.00 276.92 2841.98
   18:01:23.412.16-Jul-2020 4229.01 4706.04 79.72 4.00 277.12 2841.98
   18:01:23.612.16-Jul-2020 4229.01 4706.08 79.72 4.00 277.32 2841.98
   18:01:23.812.16-Jul-2020 4229.01 4706.03 79.72 4.00 277.52 2841.98
   18:01:24.012.16-Jul-2020 4229.01 4706.11 79.72 4.00 277.72 2841.98
   18:01:24.212.16-Jul-2020 4229.01 4706.03 79.72 4.00 277.92 2841.98
   18:01:24.412.16-Jul-2020 4229.01 4706.10 79.72 4.00 278.12 2841.98
   18:01:24.612.16-Jul-2020 4229.01 4706.05 79.72 4.00 278.32 2841.98
   18:01:24.812.16-Jul-2020 4229.01 4706.07 79.72 4.00 278.52 2841.98
   18:01:25.013.16-Jul-2020 4229.01 4706.07 79.72 4.00 278.72 2841.98
   18:01:25.213.16-Jul-2020 4229.01 4706.08 79.72 4.00 278.92 2841.98
   18:01:25.413.16-Jul-2020 4229.01 4706.10 79.72 4.00 279.12 2841.98
   18:01:25.613.16-Jul-2020 4229.01 4706.10 79.72 4.00 279.32 2841.98
   18:01:25.813.16-Jul-2020 4229.01 4706.06 79.72 4.00 279.52 2841.98
   18:01:26.013.16-Jul-2020 4229.01 4706.09 79.72 4.00 279.72 2841.98
   18:01:26.213.16-Jul-2020 4229.01 4706.10 79.72 4.00 279.92 2841.98
   18:01:26.413.16-Jul-2020 4229.01 4706.04 79.72 4.00 280.12 2841.98
   18:01:26.613.16-Jul-2020 4229.01 4706.06 79.72 4.00 280.32 2841.98
   18:01:26.813.16-Jul-2020 4229.01 4706.11 79.72 4.00 280.52 2841.98
   18:01:27.013.16-Jul-2020 4229.01 4706.02 79.72 4.00 280.72 2841.98
   18:01:27.214.16-Jul-2020 4229.01 4706.08 79.72 4.00 280.92 2841.98
   18:01:27.414.16-Jul-2020 4229.01 4706.04 79.72 4.00 281.12 2841.98
   18:01:27.614.16-Jul-2020 4229.01 4706.04 79.72 4.00 281.32 2841.98
   18:01:27.814.16-Jul-2020 4229.01 4706.04 79.72 4.00 281.52 2841.98
   18:01:28.014.16-Jul-2020 4229.01 4706.10 79.72 4.00 281.72 2841.98
   18:01:28.214.16-Jul-2020 4229.01 4706.15 79.72 4.00 281.93 2841.98
   18:01:28.414.16-Jul-2020 4229.01 4706.08 79.72 4.00 282.13 2841.98
   18:01:28.614.16-Jul-2020 4229.01 4706.08 79.72 4.00 282.33 2841.98
   18:01:28.814.16-Jul-2020 4229.01 4706.01 79.72 4.00 282.53 2841.98
   18:01:29.014.16-Jul-2020 4229.01 4706.06 79.72 4.00 282.73 2841.98
   18:01:29.214.16-Jul-2020 4229.01 4706.18 79.72 4.00 282.93 2841.98
   18:01:29.415.16-Jul-2020 4229.01 4706.05 79.72 4.00 283.13 2841.98
   18:01:29.615.16-Jul-2020 4229.01 4706.05 79.72 4.00 283.33 2841.98
   18:01:29.815.16-Jul-2020 4229.01 4706.05 79.72 4.00 283.53 2841.98
   18:01:30.015.16-Jul-2020 4229.01 4706.12 79.72 4.00 283.73 2841.98
   18:01:30.215.16-Jul-2020 4229.01 4706.04 79.72 4.00 283.93 2841.98
   18:01:30.415.16-Jul-2020 4229.01 4706.12 79.72 4.00 284.13 2841.98
   18:01:30.615.16-Jul-2020 4229.01 4706.02 79.72 4.00 284.33 2841.98
   18:01:30.815.16-Jul-2020 4229.01 4706.11 79.72 4.00 284.53 2841.98
   18:01:31.015.16-Jul-2020 4229.01 4706.10 79.72 4.00 284.73 2841.98
   18:01:31.215.16-Jul-2020 4229.01 4706.05 79.72 4.00 284.93 2841.98
   18:01:31.415.16-Jul-2020 4229.01 4706.09 79.72 4.00 285.13 2841.98
   18:01:31.615.16-Jul-2020 4229.01 4706.05 79.72 4.00 285.33 2841.98
   18:01:31.816.16-Jul-2020 4229.01 4706.10 79.72 4.00 285.53 2841.98
   18:01:32.016.16-Jul-2020 4229.01 4706.06 79.72 4.00 285.73 2841.98
   18:01:32.216.16-Jul-2020 4229.01 4706.05 79.72 4.00 285.93 2841.98
   18:01:32.416.16-Jul-2020 4229.01 4706.01 79.72 4.00 286.13 2841.98
   18:01:32.616.16-Jul-2020 4229.01 4706.09 79.72 4.00 286.33 2841.98
   18:01:32.816.16-Jul-2020 4229.01 4706.16 79.72 4.00 286.53 2841.98
   18:01:33.016.16-Jul-2020 4229.01 4706.06 79.72 4.00 286.73 2841.98
   18:01:33.216.16-Jul-2020 4229.01 4706.12 79.72 4.00 286.93 2841.98
   18:01:33.416.16-Jul-2020 4229.01 4706.07 79.72 4.00 287.13 2841.98
   18:01:33.616.16-Jul-2020 4229.01 4706.07 79.72 4.00 287.33 2841.98
   18:01:33.816.16-Jul-2020 4229.01 4706.07 79.72 4.00 287.53 2841.98
   18:01:34.017.16-Jul-2020 4229.01 4706.11 79.72 4.00 287.73 2841.98
   18:01:34.217.16-Jul-2020 4229.01 4706.06 79.72 4.00 287.93 2841.98
   18:01:34.417.16-Jul-2020 4229.01 4706.04 79.72 4.00 288.13 2841.98
   18:01:34.617.16-Jul-2020 4229.01 4706.07 79.72 4.00 288.33 2841.98
   18:01:34.817.16-Jul-2020 4229.01 4706.08 79.72 4.00 288.53 2841.98
   18:01:35.017.16-Jul-2020 4229.01 4706.11 79.72 4.00 288.73 2841.98
   18:01:35.217.16-Jul-2020 4229.01 4706.05 79.72 4.00 288.93 2841.98
   18:01:35.417.16-Jul-2020 4229.01 4706.07 79.72 4.00 289.13 2841.98
   18:01:35.617.16-Jul-2020 4229.01 4706.07 79.72 4.00 289.33 2841.98
   18:01:35.817.16-Jul-2020 4229.01 4706.08 79.72 4.00 289.53 2841.98
   18:01:36.017.16-Jul-2020 4229.01 4706.16 79.72 4.00 289.73 2841.98
   18:01:36.218.16-Jul-2020 4229.01 4706.06 79.72 4.00 289.93 2841.98
   18:01:36.418.16-Jul-2020 4229.01 4706.27 79.72 4.00 290.13 2841.98
   18:01:36.618.16-Jul-2020 4229.01 4706.27 79.72 4.00 290.33 2841.98
   18:01:36.818.16-Jul-2020 4229.01 4706.16 79.72 4.00 290.53 2841.98
   18:01:37.018.16-Jul-2020 4229.01 4706.05 79.72 4.00 290.73 2841.98
   18:01:37.218.16-Jul-2020 4229.01 4706.08 79.72 4.00 290.93 2841.98
   18:01:37.418.16-Jul-2020 4229.01 4706.23 79.72 4.00 291.13 2841.98
   18:01:37.618.16-Jul-2020 4229.01 4705.93 79.72 4.00 291.33 2841.98
   18:01:37.818.16-Jul-2020 4229.01 4706.15 79.72 4.00 291.53 2841.98
   18:01:38.018.16-Jul-2020 4229.01 4706.03 79.72 4.00 291.73 2841.98
   18:01:38.218.16-Jul-2020 4229.01 4706.10 79.72 4.00 291.93 2841.98
   18:01:38.418.16-Jul-2020 4229.01 4705.96 79.72 4.00 292.13 2841.98
   18:01:38.619.16-Jul-2020 4229.01 4706.08 79.72 4.00 292.33 2841.98
   18:01:38.819.16-Jul-2020 4229.01 4706.17 79.72 4.00 292.53 2841.98
   18:01:39.019.16-Jul-2020 4229.01 4706.05 79.72 4.00 292.73 2841.98
   18:01:39.219.16-Jul-2020 4229.01 4706.09 79.72 4.00 292.93 2841.98
   18:01:39.419.16-Jul-2020 4229.01 4706.07 79.72 4.00 293.13 2841.98
   18:01:39.619.16-Jul-2020 4229.01 4706.07 79.72 4.00 293.33 2841.98
   18:01:39.819.16-Jul-2020 4229.01 4706.05 79.72 4.00 293.53 2841.98
   18:01:40.019.16-Jul-2020 4229.01 4706.07 79.72 4.00 293.73 2841.98
   18:01:40.219.16-Jul-2020 4229.01 4706.07 79.72 4.00 293.93 2841.98
   18:01:40.419.16-Jul-2020 4229.01 4706.10 79.72 4.00 294.13 2841.98
   18:01:40.619.16-Jul-2020 4229.01 4706.10 79.72 4.00 294.33 2841.98
   18:01:40.820.16-Jul-2020 4229.01 4706.06 79.72 4.00 294.53 2841.98
   18:01:41.020.16-Jul-2020 4229.01 4706.27 79.72 4.00 294.73 2841.98
   18:01:41.220.16-Jul-2020 4229.01 4705.93 79.72 4.00 294.93 2841.98
   18:01:41.420.16-Jul-2020 4229.01 4706.16 79.72 4.00 295.13 2841.98
   18:01:41.620.16-Jul-2020 4229.01 4706.16 79.72 4.00 295.33 2841.98
   18:01:41.820.16-Jul-2020 4229.01 4706.08 79.72 4.00 295.53 2841.98
   18:01:42.020.16-Jul-2020 4229.01 4706.04 79.72 4.00 295.73 2841.98
   18:01:42.220.16-Jul-2020 4229.01 4706.08 79.72 4.00 295.93 2841.98
   18:01:42.420.16-Jul-2020 4229.01 4706.09 79.72 4.00 296.13 2841.98
   18:01:42.620.16-Jul-2020 4229.01 4706.05 79.72 4.00 296.33 2841.98
   18:01:42.820.16-Jul-2020 4229.01 4706.07 79.72 4.00 296.53 2841.98
   18:01:43.021.16-Jul-2020 4229.01 4706.07 79.72 4.00 296.73 2841.98
   18:01:43.221.16-Jul-2020 4229.01 4706.09 79.72 4.00 296.93 2841.98
   18:01:43.421.16-Jul-2020 4229.01 4706.06 79.72 4.00 297.13 2841.98
   18:01:43.621.16-Jul-2020 4229.01 4706.06 79.72 4.00 297.33 2841.98
   18:01:43.821.16-Jul-2020 4229.01 4706.08 79.72 4.00 297.53 2841.98
   18:01:44.021.16-Jul-2020 4229.01 4706.09 79.72 4.00 297.73 2841.98
   18:01:44.221.16-Jul-2020 4229.01 4706.23 79.72 4.00 297.93 2841.98
   18:01:44.421.16-Jul-2020 4229.01 4705.94 79.72 4.00 298.13 2841.98
   18:01:44.621.16-Jul-2020 4229.01 4705.94 79.72 4.00 298.33 2841.98
   18:01:44.821.16-Jul-2020 4229.01 4706.06 79.72 4.00 298.53 2841.98
   18:01:45.021.16-Jul-2020 4229.01 4706.31 79.72 4.00 298.73 2841.98
   18:01:45.222.16-Jul-2020 4229.01 4705.83 79.72 4.00 298.93 2841.98
