~Version Information
 VERS.                  2.0:   CWLS log ASCII Standard -VERSION 2.0
 WRAP.                   NO:   One line per depth step
~Well Information Block
#MNEM.UNIT     VALUE/NAME     DESCRIPTION
#---------     -----------    ---------------------------
 STRT.S             19:19:02 16-Jul-20: START TIME 19:19:02 16-Jul-20
 STOP.S             19:25:52 16-Jul-20: STOP TIME  19:25:52 16-Jul-20
 STEP.S                   0.00: STEP TIME
 NULL.                 -999.25: NULL VALUE
 MDS .        Operator Entered:  MAG DATA SOURCE
 UNIT.                     N/A:  LOGGING EQUIPMENT ID
 DCON.         Sperry Drilling:  DIRECTNL CONTR
 DOE .                     N/A:  DOE NUMBER
 RIG .               EastAzeri:  RIG NAME
 JOBN.        AZ-XX-0906363297:  JOB TICKET NUMB
 MWDS.                    Baku:  MWD SHOP
 SRVC.     Turan Drilling & Engineering:  CONTRACTOR
 PROV.                    Baku:  PROVINCE
 STAT.                    Baku:  STATE NAME
 REGN.                   EESSA:  REGION
 BASE.              Azerbaijan:  LOGGING EQUIPMENT BASE LOCATION
 WTYP.                Deviated:  WELL TYPE
 UWI .                     N/A:  UNIQUE WELL IDENTIFIER
 API .                     N/A:  API NUMBER
 COMP.     BP Exploration (Caspian Sea) ltd.:  COMPANY
 WELL.                    D07z:  WELL NAME
 CTRY.              Azerbaijan:  COUNTRY NAME
 SON .        AZ-XX-0906363297:  JOB NUMBER
 FLD .                     ACG:  FIELD NAME
 PDAT.          Mean Sea Level:  PERMANENT DATUM
 FTOP.          Formation Tops:  FORM TOPS DESC
 ILTD.               Lithology:  INTERP LTH DESC
 SVYD.                  Survey:  SURVEY DESC
 DMOD.             Drill Model:  DRILL MOD DESC
 HPTY.       Minimum Curvature:  HOLE POS TYPE
 NREF.                    Grid:  NORTH REFERENCE
 SPUD.               28-Jun-20:  SPUD DATE
 DATE.      18.27.12 28-Jun-20:  END TIME
 STIM.      18.27.12 28-Jun-20:  START TIME
 DMF .             Drill Floor:  DRILL MEAS FROM
 DFST.                        :  DIST FSL TEXT
 DFWT.                        :  DIST FWL TEXT
 CNTY.                        :  COUNTY
 LOC .                        :  LOCATION
 LMF .             Drill Floor:  LOG MEASURED FROM
 VSNS.m                  -7.75:  VERT SEC N/S
 VSEW.m                  -9.19:  VERT SEC E/W
 MMDE.m                   0.00:  MAGUTM CALC DEP
 AGAP.m                  43.60:  AIR GAP
 DEP .m                4058.99:  DEPTH
 APD .m                  43.60:  DEPTH ABOVE PD
 WDMS.m                 151.80:  WD ELEV
 EGL .m                   0.00:  GROUND ELEVATION
 EPD .m                   0.00:  ELEVATION
 AZTC.deg                 6.19:  AZM TOTAL CORR
 GRDC.deg                 0.27:  GRID CORRECTION
 MDEC.deg                 6.46:  MAGNETIC DECL
 MDIP.deg                59.47:  MAGNETIC DIP
 MFLD.nT              50279.00:  MAGNETIC FIELD
 GVFD.g                   1.00:  GRAVITY FIELD
 VSDR.deg               249.96:  VERT SEC DIRECT
 TDD .m                   0.00:  TOTAL DEPTH (DRILLER)
 SDEP.m                   0.00:  START DEPTH
 DFSL.m                   0.00:  DISTANCE FSL
 DFWL.m                   0.00:  DISTANCE FWL
 UTMY.m             4431880.20:  UTM Y
 UTMX.m              538763.98:  UTM X
 WHEW.m                  -9.19:  WELL HEAD E/W
 WHNS.m                  -7.75:  WELL HEAD N/S
 LONG.deg                51.45:  LONGITUDE
 LATI.deg                40.02:  LATITUDE
 TVDS.m                  43.60:  TVDSS CORRECTN
 EKB .m                  43.60:  KB ELEVATION
 EDF .m                  43.60:  DF ELEVATION
 TDL .m                 248.00:  TOTAL DEPTH (LOGGER)
 MAGU.                 1849075:  MAGUTM CHECKSUM
 VSC .                       0:  VS TO CLOSURE
~Parameter Information Block
#MNEM.UNIT       Value        Description
#---------     -----------    ---------------------------
 AV  .mps                 6.34:  Ann Velocity 
 AVMX.mps                 7.00:  Max Ann Veloc 
 AZIF.deg               260.29:  Azm, Final 
 BHAT.        Rotary Steerable:  BHA Type 
 BROT.°/30m               1.20:  Build Rotating 
 BS  .in                  8.50:  Bit Size 
 BSZ .in                  8.50:  Bit Size 
 BTPL.psig              620.00:  Bit Press Loss 
 CABU.                     Yes:  Customer Abuse 
 COMM.                     d)s:  Run Comments 1 
 TCS .hr                 56.22:  Time Ciculation Ended 
 CV  .mps                 3.05:  Crit Velocity 
 CVMX.mps                 3.20:  Max Crit Veloc 
 DD1 .            Musa Ahmadov:  Direct Drillr 1 
 DDSV.                 iCruise:  DD Service 
 DEFF.%                  98.00:  % Det Eff 
 DLRX.°/30m               2.78:  Dogleg Rot Max 
 DLSO.°/30m               0.00:  Dogleg Oriented 
 DLSX.°/30m               0.00:  Dogleg Str Max 
 DRET.      05.20.48 16-Jul-20:  Drill End Time 
 DRST.      10.20.48 13-Jul-20:  Drill Start Tim 
 DTIM.hr                 14.25:  Time Drilling 
 EDEP.m                4326.01:  End Depth 
 ENG1.      Artemiy Matviyanov:  Engineer 1 
 ENG2.           Amrah Tahirov:  Engineer 2 
 ETIM.      22.30.00 18-Jul-20:  End Time 
 FLOI.gpm               550.00:  Flow In 
 FLON.gpm               450.00:  Flow In Min 
 FLOS.cptm                0.00:  Fluid Loss 
 FLOX.gpm               600.00:  Flow In Max 
 HFLO.                      No:  High Flow 
 HPRE.                      No:  High Pressure 
 HTEM.                      No:  High Temp 
 HYDO.m                   1.80:  Hydro Offset 
 IFIN.deg                65.41:  Inc, Final 
 IMAX.deg                65.14:  Inc Max 
 IMIN.deg                58.89:  Inc Min 
 IMND.m                4104.92:  Inc Min Depth 
 IMXD.m                4303.89:  Inc Max Depth 
 JARR.                      No:  Jarring 
 LETM.      10.20.48 17-Jul-20:  Log End Time 
 LOST.hr                     0:  Lost Rig Time 
 LSTM.      10.20.48 13-Jul-20:  Log Start Time 
 MDCL.ppm             37000.00:  Mud Chlorides 
 MDES.     Inversion Oil/Synthetic:  Mud Desc 
 DFD .sg                  1.52:  Mud Density 
 MDMN.sg                  1.52:  Dens Mud Min 
 MDMX.sg                  1.52:  Dens Mud Max 
 MOIL.                   52.70:  Run Mud Oil % 
 MOWR.                   68:32:  Run Mud OWR 
 MSND.                     0.2:  Run Mud Sand % 
 MSOL.                    21.6:  Run Mud Solids% 
 DFV .spqt               79.00:  Mud Viscosity 
 MWOD.in                  6.75:  MWD Tool OD 
 MWSI.                      No:  Serv Intrp, MWD 
 OTIM.hr                114.04:  Time Operating 
 PCON.          Wear / Scratch:  Pad Condition 
 PMAX.psia            11782.92:  Press Op, Max 
 PV  .cP                 49.00:  Mud PV 
 RUN .                     600:  Run Number 
 ROPA.m/hr               20.00:  ROP Avg 
 ROPN.m/hr               15.00:  ROP Min 
 ROPX.m/hr               22.00:  ROP Max 
 RPMA.rpm               120.00:  RPM Surface Avg 
 RPMN.rpm                90.00:  RPM Surface Min 
 RPMX.rpm               140.00:  RPM Surface Max 
 RRUN.                     600:  Rig Run Number 
 SAZI.deg               260.29:  Azm, Start 
 SDEP.m                4078.01:  Start Depth 
 SIDD.                      No:  Serv Intrp, DD 
 SINC.deg                58.89:  Inc, Start 
 SPPA.psig             4560.00:  SPP Avg 
 SPPN.psig             3600.00:  SPP Min 
 SPPX.psig             4800.00:  SPP Max 
 STIM.      10.20.48 13-Jul-20:  Start Time 
 SVCS.                 DD, MWD:  Services 
 SVER.                    9.20:  Sperry Version 
 TDAT.m                4378.01:  Tot Depth Attmp 
 TDDF.                      No:  Trip for DD 
 TDLG.m                 248.00:  Tot Depth Loggd 
 TFF .                      No:  Trip for Fail 
 TQAA.f-kp               18.00:  Torque Abs Avg 
 TQAN.f-kp               15.00:  Torque Abs Min 
 TQAX.f-kp               20.00:  Torque Abs Max 
 TRRT.°/30m               0.70:  Turn Rotating 
 MRT .                    HCIM:  Maximum Recorded Temperature 
 TTMX.degC               86.00:  Max Tool Temp 
 WBMN.klb                 3.00:  WOB Min 
 WOBA.klb                 5.00:  WOB Avg 
 WOBX.klb                 9.00:  WOB Max 
 YP  .lhf2               32.00:  Yield Point 
~Curve Information Block
#MNEM.UNIT                 API CODE     Curve Description
#---------               -----------    ---------------------------
 TIME.HHMMSS            00 000 000 000:  GT Time & Date
 GTDEPTH.m              00 000 000 000:  GT Depth
 GTPQH.psia             00 000 000 000:  GT HR Quartz Pressure
 GTTQ.degC              00 000 000 000:  GT Quartz Temperature
 GTTN.NONE              00 000 000 000:  GT Test Number
 GTET.sec               00 000 000 000:  GT Elapsed Test Time
 GTTVD.m                00 000 000 000:  GT True Vertical Depth
#Other Information
#
#WARRANTY: Halliburton will use its best efforts to furnish customers with 
#accurate information and interpretations that are part of, and incident to, the services 
#provided.  However, Halliburton cannot and does not warrant the accuracy 
#or correctness of such information and interpretations.  Under no circumstances should any 
#such information or interpretation be relied upon as the sole basis for any drilling, 
#completion, production, or financial decision or any procedure involving any risk to the 
#safety of any drilling venture, drilling rig or its crew or any other third party.  The 
#Customer has full responsibility for all drilling, completion and production operation.  
#Halliburton makes no representations or warranties, either expressed or 
#implied, including, but not limited to, the implied warranties of merchantability or fitness 
#for a particular purpose, with respect to the services rendered.  In no event will 
#Halliburton be liable for failure to obtain any particular results or for 
#any damages, including, but not limited to, indirect, special or consequential damages, 
#resulting from the use of any information or interpretation provided by Halliburton.
#
~A           TIME           GTDEPTH  GTPQH  GTTQ  GTTN  GTET   GTTVD  
# ...
   19:22:52.404.16-Jul-2020 4190.01 4791.63 79.02 6.00 230.10 2825.02
   19:22:52.604.16-Jul-2020 4190.01 4791.55 79.02 6.00 230.30 2825.02
   19:22:52.804.16-Jul-2020 4190.01 4791.52 79.02 6.00 230.50 2825.02
   19:22:53.004.16-Jul-2020 4190.01 4791.68 79.02 6.00 230.70 2825.02
   19:22:53.204.16-Jul-2020 4190.01 4791.41 79.02 6.00 230.90 2825.02
   19:22:53.405.16-Jul-2020 4190.01 4791.61 79.02 6.00 231.10 2825.02
   19:22:53.605.16-Jul-2020 4190.01 4791.61 79.02 6.00 231.30 2825.02
   19:22:53.805.16-Jul-2020 4190.01 4791.54 79.02 6.00 231.50 2825.02
   19:22:54.005.16-Jul-2020 4190.01 4791.71 79.02 6.00 231.70 2825.02
   19:22:54.205.16-Jul-2020 4190.01 4791.38 79.02 6.00 231.90 2825.02
   19:22:54.405.16-Jul-2020 4190.01 4791.52 79.02 6.00 232.10 2825.02
   19:22:54.605.16-Jul-2020 4190.01 4791.62 79.02 6.00 232.30 2825.02
   19:22:54.805.16-Jul-2020 4190.01 4791.55 79.02 6.00 232.50 2825.02
   19:22:55.005.16-Jul-2020 4190.01 4791.46 79.02 6.00 232.70 2825.02
   19:22:55.205.16-Jul-2020 4190.01 4791.57 79.02 6.00 232.90 2825.02
   19:22:55.405.16-Jul-2020 4190.01 4791.72 79.02 6.00 233.10 2825.02
   19:22:55.606.16-Jul-2020 4190.01 4791.72 79.02 6.00 233.30 2825.02
   19:22:55.806.16-Jul-2020 4190.01 4791.52 79.02 6.00 233.50 2825.02
   19:22:56.006.16-Jul-2020 4190.01 4791.55 79.02 6.00 233.70 2825.02
   19:22:56.206.16-Jul-2020 4190.01 4791.53 79.02 6.00 233.90 2825.02
   19:22:56.406.16-Jul-2020 4190.01 4791.55 79.02 6.00 234.11 2825.02
   19:22:56.606.16-Jul-2020 4190.01 4791.54 79.02 6.00 234.31 2825.02
   19:22:56.806.16-Jul-2020 4190.01 4791.55 79.02 6.00 234.51 2825.02
   19:22:57.006.16-Jul-2020 4190.01 4791.55 79.02 6.00 234.71 2825.02
   19:22:57.206.16-Jul-2020 4190.01 4791.52 79.02 6.00 234.91 2825.02
   19:22:57.406.16-Jul-2020 4190.01 4791.55 79.02 6.00 235.11 2825.02
   19:22:57.606.16-Jul-2020 4190.01 4791.55 79.02 6.00 235.31 2825.02
   19:22:57.807.16-Jul-2020 4190.01 4791.45 79.02 6.00 235.51 2825.02
   19:22:58.007.16-Jul-2020 4190.01 4791.66 79.02 6.00 235.71 2825.02
   19:22:58.207.16-Jul-2020 4190.01 4791.55 79.02 6.00 235.91 2825.02
   19:22:58.407.16-Jul-2020 4190.01 4791.56 79.02 6.00 236.11 2825.02
   19:22:58.607.16-Jul-2020 4190.01 4791.56 79.02 6.00 236.31 2825.02
   19:22:58.807.16-Jul-2020 4190.01 4791.53 79.02 6.00 236.51 2825.02
   19:22:59.007.16-Jul-2020 4190.01 4791.55 79.02 6.00 236.71 2825.02
   19:22:59.207.16-Jul-2020 4190.01 4791.54 79.02 6.00 236.91 2825.02
   19:22:59.407.16-Jul-2020 4190.01 4791.56 79.02 6.00 237.11 2825.02
   19:22:59.607.16-Jul-2020 4190.01 4791.56 79.02 6.00 237.31 2825.02
   19:22:59.807.16-Jul-2020 4190.01 4791.55 79.02 6.00 237.51 2825.02
   19:23:00.007.16-Jul-2020 4190.01 4791.53 79.02 6.00 237.71 2825.02
   19:23:00.208.16-Jul-2020 4190.01 4791.56 79.02 6.00 237.91 2825.02
   19:23:00.408.16-Jul-2020 4190.01 4791.52 79.02 6.00 238.11 2825.02
   19:23:00.608.16-Jul-2020 4190.01 4791.52 79.02 6.00 238.31 2825.02
   19:23:00.808.16-Jul-2020 4190.01 4791.54 79.02 6.00 238.51 2825.02
   19:23:01.008.16-Jul-2020 4190.01 4791.46 79.02 6.00 238.71 2825.02
   19:23:01.208.16-Jul-2020 4190.01 4791.67 79.02 6.00 238.91 2825.02
   19:23:01.408.16-Jul-2020 4190.01 4791.56 79.02 6.00 239.11 2825.02
   19:23:01.608.16-Jul-2020 4190.01 4791.55 79.02 6.00 239.31 2825.02
   19:23:01.808.16-Jul-2020 4190.01 4791.53 79.02 6.00 239.51 2825.02
   19:23:02.008.16-Jul-2020 4190.01 4791.54 79.02 6.00 239.71 2825.02
   19:23:02.208.16-Jul-2020 4190.01 4791.72 79.02 6.00 239.91 2825.02
   19:23:02.409.16-Jul-2020 4190.01 4791.36 79.02 6.00 240.11 2825.02
   19:23:02.609.16-Jul-2020 4190.01 4791.36 79.02 6.00 240.31 2825.02
   19:23:02.809.16-Jul-2020 4190.01 4791.61 79.02 6.00 240.51 2825.02
   19:23:03.009.16-Jul-2020 4190.01 4791.55 79.02 6.00 240.71 2825.02
   19:23:03.209.16-Jul-2020 4190.01 4791.44 79.02 6.00 240.91 2825.02
   19:23:03.409.16-Jul-2020 4190.01 4791.70 79.02 6.00 241.11 2825.02
   19:23:03.609.16-Jul-2020 4190.01 4791.70 79.02 6.00 241.31 2825.02
   19:23:03.809.16-Jul-2020 4190.01 4791.56 79.02 6.00 241.51 2825.02
   19:23:04.009.16-Jul-2020 4190.01 4791.55 79.02 6.00 241.71 2825.02
   19:23:04.209.16-Jul-2020 4190.01 4791.65 79.02 6.00 241.91 2825.02
   19:23:04.409.16-Jul-2020 4190.01 4791.65 79.02 6.00 242.11 2825.02
   19:23:04.610.16-Jul-2020 4190.01 4791.41 79.02 6.00 242.31 2825.02
   19:23:04.810.16-Jul-2020 4190.01 4791.41 79.02 6.00 242.51 2825.02
   19:23:05.010.16-Jul-2020 4190.01 4791.54 79.02 6.00 242.71 2825.02
   19:23:05.210.16-Jul-2020 4190.01 4791.56 79.02 6.00 242.91 2825.02
   19:23:05.410.16-Jul-2020 4190.01 4791.54 79.02 6.00 243.11 2825.02
   19:23:05.610.16-Jul-2020 4190.01 4791.54 79.02 6.00 243.31 2825.02
   19:23:05.810.16-Jul-2020 4190.01 4791.53 79.02 6.00 243.51 2825.02
   19:23:06.010.16-Jul-2020 4190.01 4791.55 79.02 6.00 243.71 2825.02
   19:23:06.210.16-Jul-2020 4190.01 4791.55 79.02 6.00 243.91 2825.02
   19:23:06.410.16-Jul-2020 4190.01 4791.53 79.02 6.00 244.11 2825.02
   19:23:06.610.16-Jul-2020 4190.01 4791.53 79.02 6.00 244.31 2825.02
   19:23:06.811.16-Jul-2020 4190.01 4791.49 79.02 6.00 244.51 2825.02
   19:23:07.011.16-Jul-2020 4190.01 4791.55 79.02 6.00 244.71 2825.02
   19:23:07.211.16-Jul-2020 4190.01 4791.72 79.02 6.00 244.91 2825.02
   19:23:07.411.16-Jul-2020 4190.01 4791.50 79.02 6.00 245.11 2825.02
   19:23:07.611.16-Jul-2020 4190.01 4791.50 79.02 6.00 245.31 2825.02
   19:23:07.811.16-Jul-2020 4190.01 4791.56 79.02 6.00 245.51 2825.02
   19:23:08.011.16-Jul-2020 4190.01 4791.53 79.02 6.00 245.71 2825.02
   19:23:08.211.16-Jul-2020 4190.01 4791.54 79.02 6.00 245.91 2825.02
   19:23:08.411.16-Jul-2020 4190.01 4791.56 79.02 6.00 246.11 2825.02
   19:23:08.611.16-Jul-2020 4190.01 4791.56 79.02 6.00 246.31 2825.02
   19:23:08.811.16-Jul-2020 4190.01 4791.54 79.02 6.00 246.51 2825.02
   19:23:09.012.16-Jul-2020 4190.01 4791.55 79.02 6.00 246.71 2825.02
   19:23:09.212.16-Jul-2020 4190.01 4791.54 79.02 6.00 246.91 2825.02
   19:23:09.412.16-Jul-2020 4190.01 4791.54 79.02 6.00 247.11 2825.02
   19:23:09.612.16-Jul-2020 4190.01 4791.54 79.02 6.00 247.31 2825.02
   19:23:09.812.16-Jul-2020 4190.01 4791.55 79.02 6.00 247.51 2825.02
   19:23:10.012.16-Jul-2020 4190.01 4791.48 79.02 6.00 247.71 2825.02
   19:23:10.212.16-Jul-2020 4190.01 4791.57 79.02 6.00 247.91 2825.02
   19:23:10.412.16-Jul-2020 4190.01 4791.71 79.02 6.00 248.11 2825.02
   19:23:10.612.16-Jul-2020 4190.01 4791.49 79.02 6.00 248.31 2825.02
   19:23:10.812.16-Jul-2020 4190.01 4791.50 79.02 6.00 248.51 2825.02
   19:23:11.012.16-Jul-2020 4190.01 4791.55 79.02 6.00 248.71 2825.02
   19:23:11.213.16-Jul-2020 4190.01 4791.55 79.02 6.00 248.91 2825.02
   19:23:11.413.16-Jul-2020 4190.01 4791.43 79.02 6.00 249.11 2825.02
   19:23:11.613.16-Jul-2020 4190.01 4791.43 79.02 6.00 249.31 2825.02
   19:23:11.813.16-Jul-2020 4190.01 4625.15 79.02 6.00 249.51 2825.02
   19:23:12.013.16-Jul-2020 4190.01 4598.74 79.02 6.00 249.71 2825.02
   19:23:12.213.16-Jul-2020 4190.01 4587.39 79.02 6.00 249.91 2825.02
   19:23:12.413.16-Jul-2020 4190.01 4578.48 79.02 6.00 250.11 2825.02
   19:23:12.613.16-Jul-2020 4190.01 4578.48 79.02 6.00 250.31 2825.02
   19:23:12.813.16-Jul-2020 4190.01 4573.44 79.02 6.00 250.51 2825.02
   19:23:13.013.16-Jul-2020 4190.01 4577.47 79.02 6.00 250.71 2825.02
   19:23:13.213.16-Jul-2020 4190.01 4572.89 79.02 6.00 250.91 2825.02
   19:23:13.414.16-Jul-2020 4190.01 4579.42 79.02 6.00 251.11 2825.02
   19:23:13.614.16-Jul-2020 4190.01 4579.42 79.02 6.00 251.31 2825.02
   19:23:13.814.16-Jul-2020 4190.01 4569.49 79.02 6.00 251.51 2825.02
   19:23:14.014.16-Jul-2020 4190.01 4567.61 79.02 6.00 251.71 2825.02
   19:23:14.214.16-Jul-2020 4190.01 4571.17 79.02 6.00 251.91 2825.02
   19:23:14.414.16-Jul-2020 4190.01 4571.97 79.02 6.00 252.11 2825.02
   19:23:14.614.16-Jul-2020 4190.01 4571.97 79.02 6.00 252.31 2825.02
   19:23:14.814.16-Jul-2020 4190.01 4564.98 79.02 6.00 252.51 2825.02
   19:23:15.014.16-Jul-2020 4190.01 4563.16 79.02 6.00 252.71 2825.02
   19:23:15.214.16-Jul-2020 4190.01 4564.23 79.02 6.00 252.91 2825.02
