~Version Information
 VERS.                  2.0:   CWLS log ASCII Standard -VERSION 2.0
 WRAP.                   NO:   One line per depth step
~Well Information Block
#MNEM.UNIT     VALUE/NAME     DESCRIPTION
#---------     -----------    ---------------------------
 STRT.S             18:36:16 16-Jul-20: START TIME 18:36:16 16-Jul-20
 STOP.S             18:43:12 16-Jul-20: STOP TIME  18:43:12 16-Jul-20
 STEP.S                   0.00: STEP TIME
 NULL.                 -999.25: NULL VALUE
 MDS .        Operator Entered:  MAG DATA SOURCE
 UNIT.                     N/A:  LOGGING EQUIPMENT ID
 DCON.         Sperry Drilling:  DIRECTNL CONTR
 DOE .                     N/A:  DOE NUMBER
 RIG .               EastAzeri:  RIG NAME
 JOBN.        AZ-XX-0906363297:  JOB TICKET NUMB
 MWDS.                    Baku:  MWD SHOP
 SRVC.     Turan Drilling & Engineering:  CONTRACTOR
 PROV.                    Baku:  PROVINCE
 STAT.                    Baku:  STATE NAME
 REGN.                   EESSA:  REGION
 BASE.              Azerbaijan:  LOGGING EQUIPMENT BASE LOCATION
 WTYP.                Deviated:  WELL TYPE
 UWI .                     N/A:  UNIQUE WELL IDENTIFIER
 API .                     N/A:  API NUMBER
 COMP.     BP Exploration (Caspian Sea) ltd.:  COMPANY
 WELL.                    D07z:  WELL NAME
 CTRY.              Azerbaijan:  COUNTRY NAME
 SON .        AZ-XX-0906363297:  JOB NUMBER
 FLD .                     ACG:  FIELD NAME
 PDAT.          Mean Sea Level:  PERMANENT DATUM
 FTOP.          Formation Tops:  FORM TOPS DESC
 ILTD.               Lithology:  INTERP LTH DESC
 SVYD.                  Survey:  SURVEY DESC
 DMOD.             Drill Model:  DRILL MOD DESC
 HPTY.       Minimum Curvature:  HOLE POS TYPE
 NREF.                    Grid:  NORTH REFERENCE
 SPUD.               28-Jun-20:  SPUD DATE
 DATE.      18.27.12 28-Jun-20:  END TIME
 STIM.      18.27.12 28-Jun-20:  START TIME
 DMF .             Drill Floor:  DRILL MEAS FROM
 DFST.                        :  DIST FSL TEXT
 DFWT.                        :  DIST FWL TEXT
 CNTY.                        :  COUNTY
 LOC .                        :  LOCATION
 LMF .             Drill Floor:  LOG MEASURED FROM
 VSNS.m                  -7.75:  VERT SEC N/S
 VSEW.m                  -9.19:  VERT SEC E/W
 MMDE.m                   0.00:  MAGUTM CALC DEP
 AGAP.m                  43.60:  AIR GAP
 DEP .m                4058.99:  DEPTH
 APD .m                  43.60:  DEPTH ABOVE PD
 WDMS.m                 151.80:  WD ELEV
 EGL .m                   0.00:  GROUND ELEVATION
 EPD .m                   0.00:  ELEVATION
 AZTC.deg                 6.19:  AZM TOTAL CORR
 GRDC.deg                 0.27:  GRID CORRECTION
 MDEC.deg                 6.46:  MAGNETIC DECL
 MDIP.deg                59.47:  MAGNETIC DIP
 MFLD.nT              50279.00:  MAGNETIC FIELD
 GVFD.g                   1.00:  GRAVITY FIELD
 VSDR.deg               249.96:  VERT SEC DIRECT
 TDD .m                   0.00:  TOTAL DEPTH (DRILLER)
 SDEP.m                   0.00:  START DEPTH
 DFSL.m                   0.00:  DISTANCE FSL
 DFWL.m                   0.00:  DISTANCE FWL
 UTMY.m             4431880.20:  UTM Y
 UTMX.m              538763.98:  UTM X
 WHEW.m                  -9.19:  WELL HEAD E/W
 WHNS.m                  -7.75:  WELL HEAD N/S
 LONG.deg                51.45:  LONGITUDE
 LATI.deg                40.02:  LATITUDE
 TVDS.m                  43.60:  TVDSS CORRECTN
 EKB .m                  43.60:  KB ELEVATION
 EDF .m                  43.60:  DF ELEVATION
 TDL .m                 248.00:  TOTAL DEPTH (LOGGER)
 MAGU.                 1849075:  MAGUTM CHECKSUM
 VSC .                       0:  VS TO CLOSURE
~Parameter Information Block
#MNEM.UNIT       Value        Description
#---------     -----------    ---------------------------
 AV  .mps                 6.34:  Ann Velocity 
 AVMX.mps                 7.00:  Max Ann Veloc 
 AZIF.deg               260.29:  Azm, Final 
 BHAT.        Rotary Steerable:  BHA Type 
 BROT.°/30m               1.20:  Build Rotating 
 BS  .in                  8.50:  Bit Size 
 BSZ .in                  8.50:  Bit Size 
 BTPL.psig              620.00:  Bit Press Loss 
 CABU.                     Yes:  Customer Abuse 
 COMM.                     Ì>`:  Run Comments 1 
 TCS .hr                 56.22:  Time Ciculation Ended 
 CV  .mps                 3.05:  Crit Velocity 
 CVMX.mps                 3.20:  Max Crit Veloc 
 DD1 .            Musa Ahmadov:  Direct Drillr 1 
 DDSV.                 iCruise:  DD Service 
 DEFF.%                  98.00:  % Det Eff 
 DLRX.°/30m               2.78:  Dogleg Rot Max 
 DLSO.°/30m               0.00:  Dogleg Oriented 
 DLSX.°/30m               0.00:  Dogleg Str Max 
 DRET.      05.20.48 16-Jul-20:  Drill End Time 
 DRST.      10.20.48 13-Jul-20:  Drill Start Tim 
 DTIM.hr                 14.25:  Time Drilling 
 EDEP.m                4326.01:  End Depth 
 ENG1.      Artemiy Matviyanov:  Engineer 1 
 ENG2.           Amrah Tahirov:  Engineer 2 
 ETIM.      22.30.00 18-Jul-20:  End Time 
 FLOI.gpm               550.00:  Flow In 
 FLON.gpm               450.00:  Flow In Min 
 FLOS.cptm                0.00:  Fluid Loss 
 FLOX.gpm               600.00:  Flow In Max 
 HFLO.                      No:  High Flow 
 HPRE.                      No:  High Pressure 
 HTEM.                      No:  High Temp 
 HYDO.m                   1.80:  Hydro Offset 
 IFIN.deg                65.41:  Inc, Final 
 IMAX.deg                65.14:  Inc Max 
 IMIN.deg                58.89:  Inc Min 
 IMND.m                4104.92:  Inc Min Depth 
 IMXD.m                4303.89:  Inc Max Depth 
 JARR.                      No:  Jarring 
 LETM.      10.20.48 17-Jul-20:  Log End Time 
 LOST.hr                     0:  Lost Rig Time 
 LSTM.      10.20.48 13-Jul-20:  Log Start Time 
 MDCL.ppm             37000.00:  Mud Chlorides 
 MDES.     Inversion Oil/Synthetic:  Mud Desc 
 DFD .sg                  1.52:  Mud Density 
 MDMN.sg                  1.52:  Dens Mud Min 
 MDMX.sg                  1.52:  Dens Mud Max 
 MOIL.                   52.70:  Run Mud Oil % 
 MOWR.                   68:32:  Run Mud OWR 
 MSND.                     0.2:  Run Mud Sand % 
 MSOL.                    21.6:  Run Mud Solids% 
 DFV .spqt               79.00:  Mud Viscosity 
 MWOD.in                  6.75:  MWD Tool OD 
 MWSI.                      No:  Serv Intrp, MWD 
 OTIM.hr                114.04:  Time Operating 
 PCON.          Wear / Scratch:  Pad Condition 
 PMAX.psia            11782.92:  Press Op, Max 
 PV  .cP                 49.00:  Mud PV 
 RUN .                     600:  Run Number 
 ROPA.m/hr               20.00:  ROP Avg 
 ROPN.m/hr               15.00:  ROP Min 
 ROPX.m/hr               22.00:  ROP Max 
 RPMA.rpm               120.00:  RPM Surface Avg 
 RPMN.rpm                90.00:  RPM Surface Min 
 RPMX.rpm               140.00:  RPM Surface Max 
 RRUN.                     600:  Rig Run Number 
 SAZI.deg               260.29:  Azm, Start 
 SDEP.m                4078.01:  Start Depth 
 SIDD.                      No:  Serv Intrp, DD 
 SINC.deg                58.89:  Inc, Start 
 SPPA.psig             4560.00:  SPP Avg 
 SPPN.psig             3600.00:  SPP Min 
 SPPX.psig             4800.00:  SPP Max 
 STIM.      10.20.48 13-Jul-20:  Start Time 
 SVCS.                 DD, MWD:  Services 
 SVER.                    9.20:  Sperry Version 
 TDAT.m                4378.01:  Tot Depth Attmp 
 TDDF.                      No:  Trip for DD 
 TDLG.m                 248.00:  Tot Depth Loggd 
 TFF .                      No:  Trip for Fail 
 TQAA.f-kp               18.00:  Torque Abs Avg 
 TQAN.f-kp               15.00:  Torque Abs Min 
 TQAX.f-kp               20.00:  Torque Abs Max 
 TRRT.°/30m               0.70:  Turn Rotating 
 MRT .                    HCIM:  Maximum Recorded Temperature 
 TTMX.degC               86.00:  Max Tool Temp 
 WBMN.klb                 3.00:  WOB Min 
 WOBA.klb                 5.00:  WOB Avg 
 WOBX.klb                 9.00:  WOB Max 
 YP  .lhf2               32.00:  Yield Point 
~Curve Information Block
#MNEM.UNIT                 API CODE     Curve Description
#---------               -----------    ---------------------------
 TIME.HHMMSS            00 000 000 000:  GT Time & Date
 GTDEPTH.m              00 000 000 000:  GT Depth
 GTPQH.psia             00 000 000 000:  GT HR Quartz Pressure
 GTTQ.degC              00 000 000 000:  GT Quartz Temperature
 GTTN.NONE              00 000 000 000:  GT Test Number
 GTET.sec               00 000 000 000:  GT Elapsed Test Time
 GTTVD.m                00 000 000 000:  GT True Vertical Depth
#Other Information
#
#WARRANTY: Halliburton will use its best efforts to furnish customers with 
#accurate information and interpretations that are part of, and incident to, the services 
#provided.  However, Halliburton cannot and does not warrant the accuracy 
#or correctness of such information and interpretations.  Under no circumstances should any 
#such information or interpretation be relied upon as the sole basis for any drilling, 
#completion, production, or financial decision or any procedure involving any risk to the 
#safety of any drilling venture, drilling rig or its crew or any other third party.  The 
#Customer has full responsibility for all drilling, completion and production operation.  
#Halliburton makes no representations or warranties, either expressed or 
#implied, including, but not limited to, the implied warranties of merchantability or fitness 
#for a particular purpose, with respect to the services rendered.  In no event will 
#Halliburton be liable for failure to obtain any particular results or for 
#any damages, including, but not limited to, indirect, special or consequential damages, 
#resulting from the use of any information or interpretation provided by Halliburton.
#
~A           TIME           GTDEPTH  GTPQH  GTTQ  GTTN  GTET   GTTVD  
# ...
   18:39:43.633.16-Jul-2020 4198.01 4795.81 79.30 5.00 206.92 2828.58
   18:39:43.833.16-Jul-2020 4198.01 4795.81 79.30 5.00 207.12 2828.58
   18:39:44.033.16-Jul-2020 4198.01 4795.81 79.30 5.00 207.32 2828.58
   18:39:44.233.16-Jul-2020 4198.01 4795.78 79.30 5.00 207.52 2828.58
   18:39:44.433.16-Jul-2020 4198.01 4795.57 79.30 5.00 207.72 2828.58
   18:39:44.633.16-Jul-2020 4198.01 4795.96 79.30 5.00 207.92 2828.58
   18:39:44.833.16-Jul-2020 4198.01 4795.56 79.30 5.00 208.12 2828.58
   18:39:45.033.16-Jul-2020 4198.01 4795.82 79.30 5.00 208.32 2828.58
   18:39:45.233.16-Jul-2020 4198.01 4795.75 79.30 5.00 208.52 2828.58
   18:39:45.432.16-Jul-2020 4198.01 4795.63 79.30 5.00 208.72 2828.58
   18:39:45.632.16-Jul-2020 4198.01 4795.51 79.30 5.00 208.92 2828.58
   18:39:45.832.16-Jul-2020 4198.01 4795.51 79.30 5.00 209.12 2828.58
   18:39:46.032.16-Jul-2020 4198.01 4795.83 79.30 5.00 209.32 2828.58
   18:39:46.232.16-Jul-2020 4198.01 4795.65 79.30 5.00 209.52 2828.58
   18:39:46.432.16-Jul-2020 4198.01 4795.78 79.30 5.00 209.72 2828.58
   18:39:46.632.16-Jul-2020 4198.01 4795.69 79.30 5.00 209.92 2828.58
   18:39:46.832.16-Jul-2020 4198.01 4795.65 79.30 5.00 210.12 2828.58
   18:39:47.032.16-Jul-2020 4198.01 4795.74 79.30 5.00 210.32 2828.58
   18:39:47.232.16-Jul-2020 4198.01 4795.75 79.30 5.00 210.52 2828.58
   18:39:47.432.16-Jul-2020 4198.01 4795.83 79.30 5.00 210.72 2828.58
   18:39:47.632.16-Jul-2020 4198.01 4795.72 79.30 5.00 210.92 2828.58
   18:39:47.832.16-Jul-2020 4198.01 4795.72 79.30 5.00 211.12 2828.58
   18:39:48.031.16-Jul-2020 4198.01 4796.09 79.30 5.00 211.32 2828.58
   18:39:48.231.16-Jul-2020 4198.01 4795.74 79.30 5.00 211.52 2828.58
   18:39:48.431.16-Jul-2020 4198.01 4795.56 79.29 5.00 211.72 2828.58
   18:39:48.631.16-Jul-2020 4198.01 4795.91 79.29 5.00 211.92 2828.58
   18:39:48.831.16-Jul-2020 4198.01 4795.55 79.30 5.00 212.12 2828.58
   18:39:49.031.16-Jul-2020 4198.01 4795.75 79.29 5.00 212.32 2828.58
   18:39:49.231.16-Jul-2020 4198.01 4796.06 79.29 5.00 212.52 2828.58
   18:39:49.431.16-Jul-2020 4198.01 4795.58 79.29 5.00 212.72 2828.58
   18:39:49.631.16-Jul-2020 4198.01 4795.68 79.29 5.00 212.92 2828.58
   18:39:49.831.16-Jul-2020 4198.01 4795.83 79.29 5.00 213.12 2828.58
   18:39:50.031.16-Jul-2020 4198.01 4795.75 79.29 5.00 213.32 2828.58
   18:39:50.231.16-Jul-2020 4198.01 4795.64 79.29 5.00 213.52 2828.58
   18:39:50.431.16-Jul-2020 4198.01 4795.82 79.29 5.00 213.72 2828.58
   18:39:50.631.16-Jul-2020 4198.01 4795.66 79.29 5.00 213.92 2828.58
   18:39:50.830.16-Jul-2020 4198.01 4795.79 79.29 5.00 214.12 2828.58
   18:39:51.030.16-Jul-2020 4198.01 4795.71 79.29 5.00 214.32 2828.58
   18:39:51.230.16-Jul-2020 4198.01 4795.65 79.29 5.00 214.52 2828.58
   18:39:51.430.16-Jul-2020 4198.01 4795.86 79.29 5.00 214.72 2828.58
   18:39:51.630.16-Jul-2020 4198.01 4795.59 79.29 5.00 214.92 2828.58
   18:39:51.830.16-Jul-2020 4198.01 4795.99 79.29 5.00 215.12 2828.58
   18:39:52.030.16-Jul-2020 4198.01 4795.66 79.29 5.00 215.32 2828.58
   18:39:52.230.16-Jul-2020 4198.01 4795.75 79.29 5.00 215.52 2828.58
   18:39:52.430.16-Jul-2020 4198.01 4795.73 79.29 5.00 215.72 2828.58
   18:39:52.630.16-Jul-2020 4198.01 4795.60 79.29 5.00 215.92 2828.58
   18:39:52.830.16-Jul-2020 4198.01 4795.90 79.29 5.00 216.12 2828.58
   18:39:53.030.16-Jul-2020 4198.01 4795.77 79.29 5.00 216.32 2828.58
   18:39:53.230.16-Jul-2020 4198.01 4795.68 79.29 5.00 216.52 2828.58
   18:39:53.429.16-Jul-2020 4198.01 4795.71 79.29 5.00 216.72 2828.58
   18:39:53.629.16-Jul-2020 4198.01 4795.81 79.29 5.00 216.92 2828.58
   18:39:53.829.16-Jul-2020 4198.01 4795.63 79.29 5.00 217.12 2828.58
   18:39:54.029.16-Jul-2020 4198.01 4795.79 79.29 5.00 217.32 2828.58
   18:39:54.229.16-Jul-2020 4198.01 4795.82 79.29 5.00 217.52 2828.58
   18:39:54.429.16-Jul-2020 4198.01 4795.62 79.29 5.00 217.72 2828.58
   18:39:54.629.16-Jul-2020 4198.01 4795.80 79.29 5.00 217.92 2828.58
   18:39:54.829.16-Jul-2020 4198.01 4795.77 79.29 5.00 218.12 2828.58
   18:39:55.029.16-Jul-2020 4198.01 4795.89 79.29 5.00 218.32 2828.58
   18:39:55.229.16-Jul-2020 4198.01 4795.73 79.29 5.00 218.52 2828.58
   18:39:55.429.16-Jul-2020 4198.01 4795.72 79.29 5.00 218.72 2828.58
   18:39:55.629.16-Jul-2020 4198.01 4795.77 79.29 5.00 218.92 2828.58
   18:39:55.829.16-Jul-2020 4198.01 4795.77 79.29 5.00 219.12 2828.58
   18:39:56.028.16-Jul-2020 4198.01 4795.72 79.29 5.00 219.32 2828.58
   18:39:56.228.16-Jul-2020 4198.01 4795.81 79.29 5.00 219.52 2828.58
   18:39:56.428.16-Jul-2020 4198.01 4795.81 79.29 5.00 219.72 2828.58
   18:39:56.628.16-Jul-2020 4198.01 4795.65 79.29 5.00 219.92 2828.58
   18:39:56.828.16-Jul-2020 4198.01 4795.65 79.29 5.00 220.12 2828.58
   18:39:57.028.16-Jul-2020 4198.01 4795.64 79.29 5.00 220.32 2828.58
   18:39:57.228.16-Jul-2020 4198.01 4795.88 79.29 5.00 220.52 2828.58
   18:39:57.428.16-Jul-2020 4198.01 4795.86 79.29 5.00 220.72 2828.58
   18:39:57.628.16-Jul-2020 4198.01 4795.28 79.29 5.00 220.92 2828.58
   18:39:57.828.16-Jul-2020 4198.01 4795.28 79.29 5.00 221.12 2828.58
   18:39:58.028.16-Jul-2020 4198.01 4795.87 79.29 5.00 221.32 2828.58
   18:39:58.228.16-Jul-2020 4198.01 4795.78 79.29 5.00 221.52 2828.58
   18:39:58.428.16-Jul-2020 4198.01 4795.59 79.29 5.00 221.72 2828.58
   18:39:58.628.16-Jul-2020 4198.01 4795.92 79.29 5.00 221.92 2828.58
   18:39:58.827.16-Jul-2020 4198.01 4795.75 79.29 5.00 222.12 2828.58
   18:39:59.027.16-Jul-2020 4198.01 4795.71 79.29 5.00 222.32 2828.58
   18:39:59.227.16-Jul-2020 4198.01 4795.80 79.29 5.00 222.52 2828.58
   18:39:59.427.16-Jul-2020 4198.01 4795.69 79.29 5.00 222.72 2828.58
   18:39:59.627.16-Jul-2020 4198.01 4795.71 79.29 5.00 222.92 2828.58
   18:39:59.827.16-Jul-2020 4198.01 4795.71 79.29 5.00 223.12 2828.58
   18:40:00.027.16-Jul-2020 4198.01 4795.81 79.29 5.00 223.32 2828.58
   18:40:00.227.16-Jul-2020 4198.01 4795.66 79.29 5.00 223.52 2828.58
   18:40:00.427.16-Jul-2020 4198.01 4795.89 79.29 5.00 223.72 2828.58
   18:40:00.627.16-Jul-2020 4198.01 4795.80 79.29 5.00 223.92 2828.58
   18:40:00.827.16-Jul-2020 4198.01 4795.80 79.29 5.00 224.12 2828.58
   18:40:01.027.16-Jul-2020 4198.01 4795.80 79.29 5.00 224.32 2828.58
   18:40:01.227.16-Jul-2020 4198.01 4795.58 79.29 5.00 224.52 2828.58
   18:40:01.426.16-Jul-2020 4198.01 4795.92 79.29 5.00 224.72 2828.58
   18:40:01.626.16-Jul-2020 4198.01 4795.78 79.29 5.00 224.92 2828.58
   18:40:01.826.16-Jul-2020 4198.01 4795.75 79.29 5.00 225.12 2828.58
   18:40:02.026.16-Jul-2020 4198.01 4795.70 79.29 5.00 225.32 2828.58
   18:40:02.226.16-Jul-2020 4198.01 4795.88 79.29 5.00 225.52 2828.58
   18:40:02.426.16-Jul-2020 4198.01 4795.71 79.29 5.00 225.72 2828.58
   18:40:02.626.16-Jul-2020 4198.01 4795.71 79.29 5.00 225.92 2828.58
   18:40:02.826.16-Jul-2020 4198.01 4795.91 79.29 5.00 226.12 2828.58
   18:40:03.026.16-Jul-2020 4198.01 4795.68 79.29 5.00 226.32 2828.58
   18:40:03.226.16-Jul-2020 4198.01 4795.81 79.29 5.00 226.51 2828.58
   18:40:03.426.16-Jul-2020 4198.01 4795.65 79.29 5.00 226.71 2828.58
   18:40:03.626.16-Jul-2020 4198.01 4795.81 79.29 5.00 226.91 2828.58
   18:40:03.826.16-Jul-2020 4198.01 4795.81 79.29 5.00 227.11 2828.58
   18:40:04.025.16-Jul-2020 4198.01 4795.90 79.29 5.00 227.31 2828.58
   18:40:04.225.16-Jul-2020 4198.01 4795.82 79.29 5.00 227.51 2828.58
   18:40:04.425.16-Jul-2020 4198.01 4795.53 79.29 5.00 227.71 2828.58
   18:40:04.625.16-Jul-2020 4198.01 4795.87 79.29 5.00 227.91 2828.58
   18:40:04.825.16-Jul-2020 4198.01 4795.87 79.29 5.00 228.11 2828.58
   18:40:05.025.16-Jul-2020 4198.01 4796.08 79.29 5.00 228.31 2828.58
   18:40:05.225.16-Jul-2020 4198.01 4795.89 79.29 5.00 228.51 2828.58
   18:40:05.425.16-Jul-2020 4198.01 4795.73 79.29 5.00 228.71 2828.58
   18:40:05.625.16-Jul-2020 4198.01 4795.74 79.29 5.00 228.91 2828.58
   18:40:05.825.16-Jul-2020 4198.01 4795.61 79.29 5.00 229.11 2828.58
   18:40:06.025.16-Jul-2020 4198.01 4796.01 79.29 5.00 229.31 2828.58
   18:40:06.225.16-Jul-2020 4198.01 4795.81 79.29 5.00 229.51 2828.58
   18:40:06.425.16-Jul-2020 4198.01 4795.72 79.29 5.00 229.71 2828.58
