~Version Information
 VERS.                  2.0:   CWLS log ASCII Standard -VERSION 2.0
 WRAP.                   NO:   One line per depth step
~Well Information Block
#MNEM.UNIT     VALUE/NAME     DESCRIPTION
#---------     -----------    ---------------------------
 STRT.S             17:56:46 16-Jul-20: START TIME 17:56:46 16-Jul-20
 STOP.S             18:03:39 16-Jul-20: STOP TIME  18:03:39 16-Jul-20
 STEP.S                   0.00: STEP TIME
 NULL.                 -999.25: NULL VALUE
 MDS .        Operator Entered:  MAG DATA SOURCE
 UNIT.                     N/A:  LOGGING EQUIPMENT ID
 DCON.         Sperry Drilling:  DIRECTNL CONTR
 DOE .                     N/A:  DOE NUMBER
 RIG .               EastAzeri:  RIG NAME
 JOBN.        AZ-XX-0906363297:  JOB TICKET NUMB
 MWDS.                    Baku:  MWD SHOP
 SRVC.     Turan Drilling & Engineering:  CONTRACTOR
 PROV.                    Baku:  PROVINCE
 STAT.                    Baku:  STATE NAME
 REGN.                   EESSA:  REGION
 BASE.              Azerbaijan:  LOGGING EQUIPMENT BASE LOCATION
 WTYP.                Deviated:  WELL TYPE
 UWI .                     N/A:  UNIQUE WELL IDENTIFIER
 API .                     N/A:  API NUMBER
 COMP.     BP Exploration (Caspian Sea) ltd.:  COMPANY
 WELL.                    D07z:  WELL NAME
 CTRY.              Azerbaijan:  COUNTRY NAME
 SON .        AZ-XX-0906363297:  JOB NUMBER
 FLD .                     ACG:  FIELD NAME
 PDAT.          Mean Sea Level:  PERMANENT DATUM
 FTOP.          Formation Tops:  FORM TOPS DESC
 ILTD.               Lithology:  INTERP LTH DESC
 SVYD.                  Survey:  SURVEY DESC
 DMOD.             Drill Model:  DRILL MOD DESC
 HPTY.       Minimum Curvature:  HOLE POS TYPE
 NREF.                    Grid:  NORTH REFERENCE
 SPUD.               28-Jun-20:  SPUD DATE
 DATE.      18.27.12 28-Jun-20:  END TIME
 STIM.      18.27.12 28-Jun-20:  START TIME
 DMF .             Drill Floor:  DRILL MEAS FROM
 DFST.                        :  DIST FSL TEXT
 DFWT.                        :  DIST FWL TEXT
 CNTY.                        :  COUNTY
 LOC .                        :  LOCATION
 LMF .             Drill Floor:  LOG MEASURED FROM
 VSNS.m                  -7.75:  VERT SEC N/S
 VSEW.m                  -9.19:  VERT SEC E/W
 MMDE.m                   0.00:  MAGUTM CALC DEP
 AGAP.m                  43.60:  AIR GAP
 DEP .m                4058.99:  DEPTH
 APD .m                  43.60:  DEPTH ABOVE PD
 WDMS.m                 151.80:  WD ELEV
 EGL .m                   0.00:  GROUND ELEVATION
 EPD .m                   0.00:  ELEVATION
 AZTC.deg                 6.19:  AZM TOTAL CORR
 GRDC.deg                 0.27:  GRID CORRECTION
 MDEC.deg                 6.46:  MAGNETIC DECL
 MDIP.deg                59.47:  MAGNETIC DIP
 MFLD.nT              50279.00:  MAGNETIC FIELD
 GVFD.g                   1.00:  GRAVITY FIELD
 VSDR.deg               249.96:  VERT SEC DIRECT
 TDD .m                   0.00:  TOTAL DEPTH (DRILLER)
 SDEP.m                   0.00:  START DEPTH
 DFSL.m                   0.00:  DISTANCE FSL
 DFWL.m                   0.00:  DISTANCE FWL
 UTMY.m             4431880.20:  UTM Y
 UTMX.m              538763.98:  UTM X
 WHEW.m                  -9.19:  WELL HEAD E/W
 WHNS.m                  -7.75:  WELL HEAD N/S
 LONG.deg                51.45:  LONGITUDE
 LATI.deg                40.02:  LATITUDE
 TVDS.m                  43.60:  TVDSS CORRECTN
 EKB .m                  43.60:  KB ELEVATION
 EDF .m                  43.60:  DF ELEVATION
 TDL .m                 248.00:  TOTAL DEPTH (LOGGER)
 MAGU.                 1849075:  MAGUTM CHECKSUM
 VSC .                       0:  VS TO CLOSURE
~Parameter Information Block
#MNEM.UNIT       Value        Description
#---------     -----------    ---------------------------
 AV  .mps                 6.34:  Ann Velocity 
 AVMX.mps                 7.00:  Max Ann Veloc 
 AZIF.deg               260.29:  Azm, Final 
 BHAT.        Rotary Steerable:  BHA Type 
 BROT.°/30m               1.20:  Build Rotating 
 BS  .in                  8.50:  Bit Size 
 BSZ .in                  8.50:  Bit Size 
 BTPL.psig              620.00:  Bit Press Loss 
 CABU.                     Yes:  Customer Abuse 
 COMM.                     LqT:  Run Comments 1 
 TCS .hr                 56.22:  Time Ciculation Ended 
 CV  .mps                 3.05:  Crit Velocity 
 CVMX.mps                 3.20:  Max Crit Veloc 
 DD1 .            Musa Ahmadov:  Direct Drillr 1 
 DDSV.                 iCruise:  DD Service 
 DEFF.%                  98.00:  % Det Eff 
 DLRX.°/30m               2.78:  Dogleg Rot Max 
 DLSO.°/30m               0.00:  Dogleg Oriented 
 DLSX.°/30m               0.00:  Dogleg Str Max 
 DRET.      05.20.48 16-Jul-20:  Drill End Time 
 DRST.      10.20.48 13-Jul-20:  Drill Start Tim 
 DTIM.hr                 14.25:  Time Drilling 
 EDEP.m                4326.01:  End Depth 
 ENG1.      Artemiy Matviyanov:  Engineer 1 
 ENG2.           Amrah Tahirov:  Engineer 2 
 ETIM.      22.30.00 18-Jul-20:  End Time 
 FLOI.gpm               550.00:  Flow In 
 FLON.gpm               450.00:  Flow In Min 
 FLOS.cptm                0.00:  Fluid Loss 
 FLOX.gpm               600.00:  Flow In Max 
 HFLO.                      No:  High Flow 
 HPRE.                      No:  High Pressure 
 HTEM.                      No:  High Temp 
 HYDO.m                   1.80:  Hydro Offset 
 IFIN.deg                65.41:  Inc, Final 
 IMAX.deg                65.14:  Inc Max 
 IMIN.deg                58.89:  Inc Min 
 IMND.m                4104.92:  Inc Min Depth 
 IMXD.m                4303.89:  Inc Max Depth 
 JARR.                      No:  Jarring 
 LETM.      10.20.48 17-Jul-20:  Log End Time 
 LOST.hr                     0:  Lost Rig Time 
 LSTM.      10.20.48 13-Jul-20:  Log Start Time 
 MDCL.ppm             37000.00:  Mud Chlorides 
 MDES.     Inversion Oil/Synthetic:  Mud Desc 
 DFD .sg                  1.52:  Mud Density 
 MDMN.sg                  1.52:  Dens Mud Min 
 MDMX.sg                  1.52:  Dens Mud Max 
 MOIL.                   52.70:  Run Mud Oil % 
 MOWR.                   68:32:  Run Mud OWR 
 MSND.                     0.2:  Run Mud Sand % 
 MSOL.                    21.6:  Run Mud Solids% 
 DFV .spqt               79.00:  Mud Viscosity 
 MWOD.in                  6.75:  MWD Tool OD 
 MWSI.                      No:  Serv Intrp, MWD 
 OTIM.hr                114.04:  Time Operating 
 PCON.          Wear / Scratch:  Pad Condition 
 PMAX.psia            11782.92:  Press Op, Max 
 PV  .cP                 49.00:  Mud PV 
 RUN .                     600:  Run Number 
 ROPA.m/hr               20.00:  ROP Avg 
 ROPN.m/hr               15.00:  ROP Min 
 ROPX.m/hr               22.00:  ROP Max 
 RPMA.rpm               120.00:  RPM Surface Avg 
 RPMN.rpm                90.00:  RPM Surface Min 
 RPMX.rpm               140.00:  RPM Surface Max 
 RRUN.                     600:  Rig Run Number 
 SAZI.deg               260.29:  Azm, Start 
 SDEP.m                4078.01:  Start Depth 
 SIDD.                      No:  Serv Intrp, DD 
 SINC.deg                58.89:  Inc, Start 
 SPPA.psig             4560.00:  SPP Avg 
 SPPN.psig             3600.00:  SPP Min 
 SPPX.psig             4800.00:  SPP Max 
 STIM.      10.20.48 13-Jul-20:  Start Time 
 SVCS.                 DD, MWD:  Services 
 SVER.                    9.20:  Sperry Version 
 TDAT.m                4378.01:  Tot Depth Attmp 
 TDDF.                      No:  Trip for DD 
 TDLG.m                 248.00:  Tot Depth Loggd 
 TFF .                      No:  Trip for Fail 
 TQAA.f-kp               18.00:  Torque Abs Avg 
 TQAN.f-kp               15.00:  Torque Abs Min 
 TQAX.f-kp               20.00:  Torque Abs Max 
 TRRT.°/30m               0.70:  Turn Rotating 
 MRT .                    HCIM:  Maximum Recorded Temperature 
 TTMX.degC               86.00:  Max Tool Temp 
 WBMN.klb                 3.00:  WOB Min 
 WOBA.klb                 5.00:  WOB Avg 
 WOBX.klb                 9.00:  WOB Max 
 YP  .lhf2               32.00:  Yield Point 
~Curve Information Block
#MNEM.UNIT                 API CODE     Curve Description
#---------               -----------    ---------------------------
 TIME.HHMMSS            00 000 000 000:  GT Time & Date
 GTDEPTH.m              00 000 000 000:  GT Depth
 GTPQH.psia             00 000 000 000:  GT HR Quartz Pressure
 GTTQ.degC              00 000 000 000:  GT Quartz Temperature
 GTTN.NONE              00 000 000 000:  GT Test Number
 GTET.sec               00 000 000 000:  GT Elapsed Test Time
 GTTVD.m                00 000 000 000:  GT True Vertical Depth
#Other Information
#
#WARRANTY: Halliburton will use its best efforts to furnish customers with 
#accurate information and interpretations that are part of, and incident to, the services 
#provided.  However, Halliburton cannot and does not warrant the accuracy 
#or correctness of such information and interpretations.  Under no circumstances should any 
#such information or interpretation be relied upon as the sole basis for any drilling, 
#completion, production, or financial decision or any procedure involving any risk to the 
#safety of any drilling venture, drilling rig or its crew or any other third party.  The 
#Customer has full responsibility for all drilling, completion and production operation.  
#Halliburton makes no representations or warranties, either expressed or 
#implied, including, but not limited to, the implied warranties of merchantability or fitness 
#for a particular purpose, with respect to the services rendered.  In no event will 
#Halliburton be liable for failure to obtain any particular results or for 
#any damages, including, but not limited to, indirect, special or consequential damages, 
#resulting from the use of any information or interpretation provided by Halliburton.
#
~A           TIME           GTDEPTH  GTPQH  GTTQ  GTTN  GTET   GTTVD  
# ...
   18:02:31.442.16-Jul-2020 4229.01 4706.11 79.71 4.00 345.15 2841.98
   18:02:31.642.16-Jul-2020 4229.01 4706.11 79.71 4.00 345.35 2841.98
   18:02:31.842.16-Jul-2020 4229.01 4706.11 79.71 4.00 345.55 2841.98
   18:02:32.042.16-Jul-2020 4229.01 4706.04 79.71 4.00 345.75 2841.98
   18:02:32.242.16-Jul-2020 4229.01 4706.12 79.71 4.00 345.95 2841.98
   18:02:32.442.16-Jul-2020 4229.01 4706.04 79.71 4.00 346.15 2841.98
   18:02:32.643.16-Jul-2020 4229.01 4706.04 79.71 4.00 346.35 2841.98
   18:02:32.843.16-Jul-2020 4229.01 4706.07 79.71 4.00 346.55 2841.98
   18:02:33.043.16-Jul-2020 4229.01 4706.12 79.71 4.00 346.75 2841.98
   18:02:33.243.16-Jul-2020 4229.01 4706.06 79.71 4.00 346.95 2841.98
   18:02:33.443.16-Jul-2020 4229.01 4706.07 79.71 4.00 347.15 2841.98
   18:02:33.643.16-Jul-2020 4229.01 4706.11 79.71 4.00 347.35 2841.98
   18:02:33.843.16-Jul-2020 4229.01 4706.09 79.71 4.00 347.55 2841.98
   18:02:34.043.16-Jul-2020 4229.01 4706.09 79.71 4.00 347.75 2841.98
   18:02:34.243.16-Jul-2020 4229.01 4706.07 79.71 4.00 347.95 2841.98
   18:02:34.443.16-Jul-2020 4229.01 4706.09 79.71 4.00 348.15 2841.98
   18:02:34.643.16-Jul-2020 4229.01 4706.09 79.71 4.00 348.35 2841.98
   18:02:34.844.16-Jul-2020 4229.01 4706.07 79.71 4.00 348.55 2841.98
   18:02:35.044.16-Jul-2020 4229.01 4706.11 79.71 4.00 348.75 2841.98
   18:02:35.244.16-Jul-2020 4229.01 4706.02 79.71 4.00 348.95 2841.98
   18:02:35.444.16-Jul-2020 4229.01 4706.14 79.71 4.00 349.15 2841.98
   18:02:35.644.16-Jul-2020 4229.01 4706.14 79.71 4.00 349.35 2841.98
   18:02:35.844.16-Jul-2020 4229.01 4706.11 79.71 4.00 349.56 2841.98
   18:02:36.044.16-Jul-2020 4229.01 4705.96 79.71 4.00 349.76 2841.98
   18:02:36.244.16-Jul-2020 4229.01 4706.06 79.71 4.00 349.96 2841.98
   18:02:36.444.16-Jul-2020 4229.01 4706.20 79.71 4.00 350.16 2841.98
   18:02:36.644.16-Jul-2020 4229.01 4706.20 79.71 4.00 350.36 2841.98
   18:02:36.844.16-Jul-2020 4229.01 4706.20 79.71 4.00 350.56 2841.98
   18:02:37.045.16-Jul-2020 4229.01 4706.06 79.71 4.00 350.76 2841.98
   18:02:37.245.16-Jul-2020 4229.01 4706.13 79.71 4.00 350.96 2841.98
   18:02:37.445.16-Jul-2020 4229.01 4706.18 79.71 4.00 351.16 2841.98
   18:02:37.645.16-Jul-2020 4229.01 4706.07 79.71 4.00 351.36 2841.98
   18:02:37.845.16-Jul-2020 4229.01 4706.08 79.71 4.00 351.56 2841.98
   18:02:38.045.16-Jul-2020 4229.01 4706.05 79.71 4.00 351.76 2841.98
   18:02:38.245.16-Jul-2020 4229.01 4706.14 79.71 4.00 351.96 2841.98
   18:02:38.445.16-Jul-2020 4229.01 4706.07 79.71 4.00 352.16 2841.98
   18:02:38.645.16-Jul-2020 4229.01 4706.07 79.71 4.00 352.36 2841.98
   18:02:38.845.16-Jul-2020 4229.01 4706.03 79.71 4.00 352.56 2841.98
   18:02:39.045.16-Jul-2020 4229.01 4706.12 79.71 4.00 352.76 2841.98
   18:02:39.245.16-Jul-2020 4229.01 4706.09 79.71 4.00 352.96 2841.98
   18:02:39.446.16-Jul-2020 4229.01 4706.06 79.71 4.00 353.16 2841.98
   18:02:39.646.16-Jul-2020 4229.01 4706.06 79.71 4.00 353.36 2841.98
   18:02:39.846.16-Jul-2020 4229.01 4706.07 79.71 4.00 353.56 2841.98
   18:02:40.046.16-Jul-2020 4229.01 4706.13 79.71 4.00 353.76 2841.98
   18:02:40.246.16-Jul-2020 4229.01 4706.03 79.71 4.00 353.96 2841.98
   18:02:40.446.16-Jul-2020 4229.01 4706.07 79.71 4.00 354.16 2841.98
   18:02:40.646.16-Jul-2020 4229.01 4706.07 79.71 4.00 354.36 2841.98
   18:02:40.846.16-Jul-2020 4229.01 4706.08 79.71 4.00 354.56 2841.98
   18:02:41.046.16-Jul-2020 4229.01 4706.16 79.71 4.00 354.76 2841.98
   18:02:41.246.16-Jul-2020 4229.01 4706.06 79.71 4.00 354.96 2841.98
   18:02:41.446.16-Jul-2020 4229.01 4706.12 79.71 4.00 355.16 2841.98
   18:02:41.647.16-Jul-2020 4229.01 4706.07 79.71 4.00 355.36 2841.98
   18:02:41.847.16-Jul-2020 4229.01 4706.08 79.71 4.00 355.56 2841.98
   18:02:42.047.16-Jul-2020 4229.01 4706.08 79.71 4.00 355.76 2841.98
   18:02:42.247.16-Jul-2020 4229.01 4706.13 79.71 4.00 355.96 2841.98
   18:02:42.447.16-Jul-2020 4229.01 4706.06 79.71 4.00 356.16 2841.98
   18:02:42.647.16-Jul-2020 4229.01 4706.06 79.71 4.00 356.36 2841.98
   18:02:42.847.16-Jul-2020 4229.01 4705.44 79.71 4.00 356.56 2841.98
   18:02:43.047.16-Jul-2020 4229.01 4713.53 79.71 4.00 356.76 2841.98
   18:02:43.247.16-Jul-2020 4229.01 4787.12 79.71 4.00 356.96 2841.98
   18:02:43.447.16-Jul-2020 4229.01 7009.22 79.71 4.00 357.16 2841.98
   18:02:43.647.16-Jul-2020 4229.01 7009.22 79.71 4.00 357.36 2841.98
   18:02:43.848.16-Jul-2020 4229.01 7011.94 79.71 4.00 357.56 2841.98
   18:02:44.048.16-Jul-2020 4229.01 7002.86 79.72 4.00 357.76 2841.98
   18:02:44.248.16-Jul-2020 4229.01 7009.72 79.72 4.00 357.96 2841.98
   18:02:44.448.16-Jul-2020 4229.01 7007.39 79.72 4.00 358.16 2841.98
   18:02:44.648.16-Jul-2020 4229.01 7007.39 79.72 4.00 358.36 2841.98
   18:02:44.848.16-Jul-2020 4229.01 7003.33 79.72 4.00 358.56 2841.98
   18:02:45.048.16-Jul-2020 4229.01 7011.09 79.72 4.00 358.76 2841.98
   18:02:45.248.16-Jul-2020 4229.01 7009.79 79.72 4.00 358.96 2841.98
   18:02:45.448.16-Jul-2020 4229.01 7012.07 79.73 4.00 359.16 2841.98
   18:02:45.648.16-Jul-2020 4229.01 7022.37 79.73 4.00 359.36 2841.98
   18:02:45.848.16-Jul-2020 4229.01 7006.87 79.73 4.00 359.56 2841.98
   18:02:46.049.16-Jul-2020 4229.01 7014.03 79.73 4.00 359.76 2841.98
   18:02:46.249.16-Jul-2020 4229.01 7011.42 79.74 4.00 359.96 2841.98
   18:02:46.449.16-Jul-2020 4229.01 7013.03 79.74 4.00 360.16 2841.98
   18:02:46.649.16-Jul-2020 4229.01 7013.03 79.74 4.00 360.36 2841.98
   18:02:46.849.16-Jul-2020 4229.01 7010.62 79.74 4.00 360.56 2841.98
   18:02:47.049.16-Jul-2020 4229.01 7016.19 79.75 4.00 360.76 2841.98
   18:02:47.249.16-Jul-2020 4229.01 7013.56 79.75 4.00 360.96 2841.98
   18:02:47.449.16-Jul-2020 4229.01 7014.15 79.75 4.00 361.16 2841.98
   18:02:47.649.16-Jul-2020 4229.01 7014.15 79.75 4.00 361.36 2841.98
   18:02:47.849.16-Jul-2020 4229.01 7012.96 79.76 4.00 361.56 2841.98
   18:02:48.049.16-Jul-2020 4229.01 7013.47 79.76 4.00 361.76 2841.98
   18:02:48.249.16-Jul-2020 4229.01 7013.02 79.76 4.00 361.96 2841.98
   18:02:48.450.16-Jul-2020 4229.01 7012.29 79.76 4.00 362.16 2841.98
   18:02:48.650.16-Jul-2020 4229.01 7012.29 79.76 4.00 362.36 2841.98
   18:02:48.850.16-Jul-2020 4229.01 7012.89 79.77 4.00 362.56 2841.98
   18:02:49.050.16-Jul-2020 4229.01 7012.34 79.77 4.00 362.76 2841.98
   18:02:49.250.16-Jul-2020 4229.01 7024.97 79.77 4.00 362.96 2841.98
   18:02:49.450.16-Jul-2020 4229.01 7008.68 79.77 4.00 363.16 2841.98
   18:02:49.650.16-Jul-2020 4229.01 7014.81 79.77 4.00 363.36 2841.98
   18:02:49.850.16-Jul-2020 4229.01 7011.83 79.78 4.00 363.56 2841.98
   18:02:50.050.16-Jul-2020 4229.01 7014.15 79.78 4.00 363.76 2841.98
   18:02:50.250.16-Jul-2020 4229.01 7011.44 79.78 4.00 363.96 2841.98
   18:02:50.450.16-Jul-2020 4229.01 7012.29 79.78 4.00 364.16 2841.98
   18:02:50.651.16-Jul-2020 4229.01 7012.29 79.78 4.00 364.36 2841.98
   18:02:50.851.16-Jul-2020 4229.01 7012.32 79.78 4.00 364.56 2841.98
   18:02:51.051.16-Jul-2020 4229.01 7012.88 79.78 4.00 364.76 2841.98
   18:02:51.251.16-Jul-2020 4229.01 7012.87 79.79 4.00 364.96 2841.98
   18:02:51.451.16-Jul-2020 4229.01 7013.02 79.79 4.00 365.16 2841.98
   18:02:51.651.16-Jul-2020 4229.01 7013.02 79.79 4.00 365.36 2841.98
   18:02:51.851.16-Jul-2020 4229.01 7012.00 79.79 4.00 365.56 2841.98
   18:02:52.051.16-Jul-2020 4229.01 7013.04 79.79 4.00 365.76 2841.98
   18:02:52.251.16-Jul-2020 4229.01 7012.98 79.79 4.00 365.96 2841.98
   18:02:52.451.16-Jul-2020 4229.01 7025.19 79.79 4.00 366.16 2841.98
   18:02:52.651.16-Jul-2020 4229.01 7025.19 79.79 4.00 366.36 2841.98
   18:02:52.852.16-Jul-2020 4229.01 7015.39 79.79 4.00 366.56 2841.98
   18:02:53.052.16-Jul-2020 4229.01 7012.58 79.79 4.00 366.76 2841.98
   18:02:53.252.16-Jul-2020 4229.01 7030.25 79.79 4.00 366.96 2841.98
   18:02:53.452.16-Jul-2020 4229.01 7005.36 79.79 4.00 367.16 2841.98
   18:02:53.652.16-Jul-2020 4229.01 7014.27 79.80 4.00 367.36 2841.98
   18:02:53.852.16-Jul-2020 4229.01 7012.44 79.80 4.00 367.56 2841.98
   18:02:54.052.16-Jul-2020 4229.01 7015.28 79.80 4.00 367.76 2841.98
   18:02:54.252.16-Jul-2020 4229.01 7029.21 79.80 4.00 367.96 2841.98
