~Version Information
 VERS.                  2.0:   CWLS log ASCII Standard -VERSION 2.0
 WRAP.                   NO:   One line per depth step
~Well Information Block
#MNEM.UNIT     VALUE/NAME     DESCRIPTION
#---------     -----------    ---------------------------
 STRT.S             16:55:55 16-Jul-20: START TIME 16:55:55 16-Jul-20
 STOP.S             17:02:47 16-Jul-20: STOP TIME  17:02:47 16-Jul-20
 STEP.S                   0.00: STEP TIME
 NULL.                 -999.25: NULL VALUE
 MDS .        Operator Entered:  MAG DATA SOURCE
 UNIT.                     N/A:  LOGGING EQUIPMENT ID
 DCON.         Sperry Drilling:  DIRECTNL CONTR
 DOE .                     N/A:  DOE NUMBER
 RIG .               EastAzeri:  RIG NAME
 JOBN.        AZ-XX-0906363297:  JOB TICKET NUMB
 MWDS.                    Baku:  MWD SHOP
 SRVC.     Turan Drilling & Engineering:  CONTRACTOR
 PROV.                    Baku:  PROVINCE
 STAT.                    Baku:  STATE NAME
 REGN.                   EESSA:  REGION
 BASE.              Azerbaijan:  LOGGING EQUIPMENT BASE LOCATION
 WTYP.                Deviated:  WELL TYPE
 UWI .                     N/A:  UNIQUE WELL IDENTIFIER
 API .                     N/A:  API NUMBER
 COMP.     BP Exploration (Caspian Sea) ltd.:  COMPANY
 WELL.                    D07z:  WELL NAME
 CTRY.              Azerbaijan:  COUNTRY NAME
 SON .        AZ-XX-0906363297:  JOB NUMBER
 FLD .                     ACG:  FIELD NAME
 PDAT.          Mean Sea Level:  PERMANENT DATUM
 FTOP.          Formation Tops:  FORM TOPS DESC
 ILTD.               Lithology:  INTERP LTH DESC
 SVYD.                  Survey:  SURVEY DESC
 DMOD.             Drill Model:  DRILL MOD DESC
 HPTY.       Minimum Curvature:  HOLE POS TYPE
 NREF.                    Grid:  NORTH REFERENCE
 SPUD.               28-Jun-20:  SPUD DATE
 DATE.      18.27.12 28-Jun-20:  END TIME
 STIM.      18.27.12 28-Jun-20:  START TIME
 DMF .             Drill Floor:  DRILL MEAS FROM
 DFST.                        :  DIST FSL TEXT
 DFWT.                        :  DIST FWL TEXT
 CNTY.                        :  COUNTY
 LOC .                        :  LOCATION
 LMF .             Drill Floor:  LOG MEASURED FROM
 VSNS.m                  -7.75:  VERT SEC N/S
 VSEW.m                  -9.19:  VERT SEC E/W
 MMDE.m                   0.00:  MAGUTM CALC DEP
 AGAP.m                  43.60:  AIR GAP
 DEP .m                4058.99:  DEPTH
 APD .m                  43.60:  DEPTH ABOVE PD
 WDMS.m                 151.80:  WD ELEV
 EGL .m                   0.00:  GROUND ELEVATION
 EPD .m                   0.00:  ELEVATION
 AZTC.deg                 6.19:  AZM TOTAL CORR
 GRDC.deg                 0.27:  GRID CORRECTION
 MDEC.deg                 6.46:  MAGNETIC DECL
 MDIP.deg                59.47:  MAGNETIC DIP
 MFLD.nT              50279.00:  MAGNETIC FIELD
 GVFD.g                   1.00:  GRAVITY FIELD
 VSDR.deg               249.96:  VERT SEC DIRECT
 TDD .m                   0.00:  TOTAL DEPTH (DRILLER)
 SDEP.m                   0.00:  START DEPTH
 DFSL.m                   0.00:  DISTANCE FSL
 DFWL.m                   0.00:  DISTANCE FWL
 UTMY.m             4431880.20:  UTM Y
 UTMX.m              538763.98:  UTM X
 WHEW.m                  -9.19:  WELL HEAD E/W
 WHNS.m                  -7.75:  WELL HEAD N/S
 LONG.deg                51.45:  LONGITUDE
 LATI.deg                40.02:  LATITUDE
 TVDS.m                  43.60:  TVDSS CORRECTN
 EKB .m                  43.60:  KB ELEVATION
 EDF .m                  43.60:  DF ELEVATION
 TDL .m                 248.00:  TOTAL DEPTH (LOGGER)
 MAGU.                 1849075:  MAGUTM CHECKSUM
 VSC .                       0:  VS TO CLOSURE
~Parameter Information Block
#MNEM.UNIT       Value        Description
#---------     -----------    ---------------------------
 AV  .mps                 6.34:  Ann Velocity 
 AVMX.mps                 7.00:  Max Ann Veloc 
 AZIF.deg               260.29:  Azm, Final 
 BHAT.        Rotary Steerable:  BHA Type 
 BROT.°/30m               1.20:  Build Rotating 
 BS  .in                  8.50:  Bit Size 
 BSZ .in                  8.50:  Bit Size 
 BTPL.psig              620.00:  Bit Press Loss 
 CABU.                     Yes:  Customer Abuse 
 COMM.                     3z:  Run Comments 1 
 TCS .hr                 56.22:  Time Ciculation Ended 
 CV  .mps                 3.05:  Crit Velocity 
 CVMX.mps                 3.20:  Max Crit Veloc 
 DD1 .            Musa Ahmadov:  Direct Drillr 1 
 DDSV.                 iCruise:  DD Service 
 DEFF.%                  98.00:  % Det Eff 
 DLRX.°/30m               2.78:  Dogleg Rot Max 
 DLSO.°/30m               0.00:  Dogleg Oriented 
 DLSX.°/30m               0.00:  Dogleg Str Max 
 DRET.      05.20.48 16-Jul-20:  Drill End Time 
 DRST.      10.20.48 13-Jul-20:  Drill Start Tim 
 DTIM.hr                 14.25:  Time Drilling 
 EDEP.m                4326.01:  End Depth 
 ENG1.      Artemiy Matviyanov:  Engineer 1 
 ENG2.           Amrah Tahirov:  Engineer 2 
 ETIM.      22.30.00 18-Jul-20:  End Time 
 FLOI.gpm               550.00:  Flow In 
 FLON.gpm               450.00:  Flow In Min 
 FLOS.cptm                0.00:  Fluid Loss 
 FLOX.gpm               600.00:  Flow In Max 
 HFLO.                      No:  High Flow 
 HPRE.                      No:  High Pressure 
 HTEM.                      No:  High Temp 
 HYDO.m                   1.80:  Hydro Offset 
 IFIN.deg                65.41:  Inc, Final 
 IMAX.deg                65.14:  Inc Max 
 IMIN.deg                58.89:  Inc Min 
 IMND.m                4104.92:  Inc Min Depth 
 IMXD.m                4303.89:  Inc Max Depth 
 JARR.                      No:  Jarring 
 LETM.      10.20.48 17-Jul-20:  Log End Time 
 LOST.hr                     0:  Lost Rig Time 
 LSTM.      10.20.48 13-Jul-20:  Log Start Time 
 MDCL.ppm             37000.00:  Mud Chlorides 
 MDES.     Inversion Oil/Synthetic:  Mud Desc 
 DFD .sg                  1.52:  Mud Density 
 MDMN.sg                  1.52:  Dens Mud Min 
 MDMX.sg                  1.52:  Dens Mud Max 
 MOIL.                   52.70:  Run Mud Oil % 
 MOWR.                   68:32:  Run Mud OWR 
 MSND.                     0.2:  Run Mud Sand % 
 MSOL.                    21.6:  Run Mud Solids% 
 DFV .spqt               79.00:  Mud Viscosity 
 MWOD.in                  6.75:  MWD Tool OD 
 MWSI.                      No:  Serv Intrp, MWD 
 OTIM.hr                114.04:  Time Operating 
 PCON.          Wear / Scratch:  Pad Condition 
 PMAX.psia            11782.92:  Press Op, Max 
 PV  .cP                 49.00:  Mud PV 
 RUN .                     600:  Run Number 
 ROPA.m/hr               20.00:  ROP Avg 
 ROPN.m/hr               15.00:  ROP Min 
 ROPX.m/hr               22.00:  ROP Max 
 RPMA.rpm               120.00:  RPM Surface Avg 
 RPMN.rpm                90.00:  RPM Surface Min 
 RPMX.rpm               140.00:  RPM Surface Max 
 RRUN.                     600:  Rig Run Number 
 SAZI.deg               260.29:  Azm, Start 
 SDEP.m                4078.01:  Start Depth 
 SIDD.                      No:  Serv Intrp, DD 
 SINC.deg                58.89:  Inc, Start 
 SPPA.psig             4560.00:  SPP Avg 
 SPPN.psig             3600.00:  SPP Min 
 SPPX.psig             4800.00:  SPP Max 
 STIM.      10.20.48 13-Jul-20:  Start Time 
 SVCS.                 DD, MWD:  Services 
 SVER.                    9.20:  Sperry Version 
 TDAT.m                4378.01:  Tot Depth Attmp 
 TDDF.                      No:  Trip for DD 
 TDLG.m                 248.00:  Tot Depth Loggd 
 TFF .                      No:  Trip for Fail 
 TQAA.f-kp               18.00:  Torque Abs Avg 
 TQAN.f-kp               15.00:  Torque Abs Min 
 TQAX.f-kp               20.00:  Torque Abs Max 
 TRRT.°/30m               0.70:  Turn Rotating 
 MRT .                    HCIM:  Maximum Recorded Temperature 
 TTMX.degC               86.00:  Max Tool Temp 
 WBMN.klb                 3.00:  WOB Min 
 WOBA.klb                 5.00:  WOB Avg 
 WOBX.klb                 9.00:  WOB Max 
 YP  .lhf2               32.00:  Yield Point 
~Curve Information Block
#MNEM.UNIT                 API CODE     Curve Description
#---------               -----------    ---------------------------
 TIME.HHMMSS            00 000 000 000:  GT Time & Date
 GTDEPTH.m              00 000 000 000:  GT Depth
 GTPQH.psia             00 000 000 000:  GT HR Quartz Pressure
 GTTQ.degC              00 000 000 000:  GT Quartz Temperature
 GTTN.NONE              00 000 000 000:  GT Test Number
 GTET.sec               00 000 000 000:  GT Elapsed Test Time
 GTTVD.m                00 000 000 000:  GT True Vertical Depth
#Other Information
#
#WARRANTY: Halliburton will use its best efforts to furnish customers with 
#accurate information and interpretations that are part of, and incident to, the services 
#provided.  However, Halliburton cannot and does not warrant the accuracy 
#or correctness of such information and interpretations.  Under no circumstances should any 
#such information or interpretation be relied upon as the sole basis for any drilling, 
#completion, production, or financial decision or any procedure involving any risk to the 
#safety of any drilling venture, drilling rig or its crew or any other third party.  The 
#Customer has full responsibility for all drilling, completion and production operation.  
#Halliburton makes no representations or warranties, either expressed or 
#implied, including, but not limited to, the implied warranties of merchantability or fitness 
#for a particular purpose, with respect to the services rendered.  In no event will 
#Halliburton be liable for failure to obtain any particular results or for 
#any damages, including, but not limited to, indirect, special or consequential damages, 
#resulting from the use of any information or interpretation provided by Halliburton.
#
~A           TIME           GTDEPTH  GTPQH  GTTQ  GTTN  GTET   GTTVD  
# ...
   17:02:26.463.16-Jul-2020 4261.01 7070.82 80.12 2.00 391.08 2855.56
   17:02:26.663.16-Jul-2020 4261.01 7070.82 80.12 2.00 391.28 2855.56
   17:02:26.863.16-Jul-2020 4261.01 7068.82 80.12 2.00 391.48 2855.56
   17:02:27.063.16-Jul-2020 4261.01 7069.65 80.12 2.00 391.68 2855.56
   17:02:27.263.16-Jul-2020 4261.01 7069.97 80.12 2.00 391.88 2855.56
   17:02:27.463.16-Jul-2020 4261.01 7070.15 80.12 2.00 392.08 2855.56
   17:02:27.663.16-Jul-2020 4261.01 7070.15 80.12 2.00 392.28 2855.56
   17:02:27.863.16-Jul-2020 4261.01 7068.80 80.12 2.00 392.48 2855.56
   17:02:28.063.16-Jul-2020 4261.01 7066.94 80.12 2.00 392.68 2855.56
   17:02:28.263.16-Jul-2020 4261.01 7079.29 80.12 2.00 392.88 2855.56
   17:02:28.463.16-Jul-2020 4261.01 7074.08 80.12 2.00 393.08 2855.56
   17:02:28.663.16-Jul-2020 4261.01 7074.08 80.12 2.00 393.28 2855.56
   17:02:28.863.16-Jul-2020 4261.01 7070.43 80.12 2.00 393.48 2855.56
   17:02:29.063.16-Jul-2020 4261.01 7066.53 80.12 2.00 393.68 2855.56
   17:02:29.263.16-Jul-2020 4261.01 7082.78 80.12 2.00 393.88 2855.56
   17:02:29.463.16-Jul-2020 4261.01 7070.15 80.12 2.00 394.08 2855.56
   17:02:29.663.16-Jul-2020 4261.01 7069.70 80.12 2.00 394.28 2855.56
   17:02:29.863.16-Jul-2020 4261.01 7069.70 80.12 2.00 394.48 2855.56
   17:02:30.063.16-Jul-2020 4261.01 7069.87 80.12 2.00 394.68 2855.56
   17:02:30.263.16-Jul-2020 4261.01 7085.20 80.12 2.00 394.88 2855.56
   17:02:30.464.16-Jul-2020 4261.01 7067.55 80.12 2.00 395.08 2855.56
   17:02:30.664.16-Jul-2020 4261.01 7069.42 80.12 2.00 395.28 2855.56
   17:02:30.864.16-Jul-2020 4261.01 7071.50 80.12 2.00 395.48 2855.56
   17:02:31.064.16-Jul-2020 4261.01 7071.19 80.12 2.00 395.68 2855.56
   17:02:31.264.16-Jul-2020 4261.01 7067.33 80.12 2.00 395.88 2855.56
   17:02:31.464.16-Jul-2020 4261.01 7083.17 80.12 2.00 396.08 2855.56
   17:02:31.664.16-Jul-2020 4261.01 7083.17 80.12 2.00 396.28 2855.56
   17:02:31.864.16-Jul-2020 4261.01 7066.85 80.12 2.00 396.48 2855.56
   17:02:32.064.16-Jul-2020 4261.01 7070.72 80.12 2.00 396.68 2855.56
   17:02:32.264.16-Jul-2020 4261.01 7073.47 80.12 2.00 396.88 2855.56
   17:02:32.464.16-Jul-2020 4261.01 7071.24 80.12 2.00 397.08 2855.56
   17:02:32.664.16-Jul-2020 4261.01 7071.24 80.12 2.00 397.28 2855.56
   17:02:32.864.16-Jul-2020 4261.01 7070.63 80.12 2.00 397.48 2855.56
   17:02:33.064.16-Jul-2020 4261.01 7069.39 80.12 2.00 397.68 2855.56
   17:02:33.264.16-Jul-2020 4261.01 7070.79 80.12 2.00 397.88 2855.56
   17:02:33.464.16-Jul-2020 4261.01 7069.91 80.12 2.00 398.08 2855.56
   17:02:33.664.16-Jul-2020 4261.01 7069.91 80.12 2.00 398.28 2855.56
   17:02:33.864.16-Jul-2020 4261.01 7069.00 80.12 2.00 398.48 2855.56
   17:02:34.064.16-Jul-2020 4261.01 7067.78 80.12 2.00 398.68 2855.56
   17:02:34.264.16-Jul-2020 4261.01 7085.36 80.12 2.00 398.88 2855.56
   17:02:34.464.16-Jul-2020 4261.01 7066.20 80.12 2.00 399.08 2855.56
   17:02:34.664.16-Jul-2020 4261.01 7066.20 80.12 2.00 399.28 2855.56
   17:02:34.864.16-Jul-2020 4261.01 7071.49 80.12 2.00 399.48 2855.56
   17:02:35.064.16-Jul-2020 4261.01 7070.82 80.12 2.00 399.68 2855.56
   17:02:35.265.16-Jul-2020 4261.01 7068.17 80.12 2.00 399.88 2855.56
   17:02:35.465.16-Jul-2020 4261.01 7068.55 80.12 2.00 400.08 2855.56
   17:02:35.665.16-Jul-2020 4261.01 7068.55 80.12 2.00 400.28 2855.56
   17:02:35.865.16-Jul-2020 4261.01 7069.39 80.12 2.00 400.48 2855.56
   17:02:36.065.16-Jul-2020 4261.01 7069.21 80.12 2.00 400.68 2855.56
   17:02:36.265.16-Jul-2020 4261.01 7067.31 80.12 2.00 400.88 2855.56
   17:02:36.465.16-Jul-2020 4261.01 7069.94 80.12 2.00 401.08 2855.56
   17:02:36.665.16-Jul-2020 4261.01 7069.94 80.12 2.00 401.28 2855.56
   17:02:36.865.16-Jul-2020 4261.01 7068.65 80.12 2.00 401.48 2855.56
   17:02:37.065.16-Jul-2020 4261.01 7068.51 80.12 2.00 401.68 2855.56
   17:02:37.265.16-Jul-2020 4261.01 7066.56 80.12 2.00 401.88 2855.56
   17:02:37.465.16-Jul-2020 4261.01 7081.74 80.12 2.00 402.08 2855.56
   17:02:37.665.16-Jul-2020 4261.01 7081.74 80.12 2.00 402.28 2855.56
   17:02:37.865.16-Jul-2020 4261.01 7066.91 80.12 2.00 402.48 2855.56
   17:02:38.065.16-Jul-2020 4261.01 7067.93 80.12 2.00 402.68 2855.56
   17:02:38.265.16-Jul-2020 4261.01 7070.51 80.11 2.00 402.88 2855.56
   17:02:38.465.16-Jul-2020 4261.01 7068.19 80.11 2.00 403.08 2855.56
   17:02:38.665.16-Jul-2020 4261.01 7068.19 80.11 2.00 403.28 2855.56
   17:02:38.865.16-Jul-2020 4261.01 7072.95 80.11 2.00 403.48 2855.56
   17:02:39.065.16-Jul-2020 4261.01 7069.41 80.11 2.00 403.68 2855.56
   17:02:39.265.16-Jul-2020 4261.01 7071.34 80.11 2.00 403.88 2855.56
   17:02:39.465.16-Jul-2020 4261.01 7070.92 80.11 2.00 404.08 2855.56
   17:02:39.665.16-Jul-2020 4261.01 7073.97 80.11 2.00 404.28 2855.56
   17:02:39.865.16-Jul-2020 4261.01 7073.41 80.11 2.00 404.48 2855.56
   17:02:40.066.16-Jul-2020 4261.01 7070.59 80.11 2.00 404.68 2855.56
   17:02:40.266.16-Jul-2020 4261.01 7071.39 80.11 2.00 404.88 2855.56
   17:02:40.466.16-Jul-2020 4261.01 7068.78 80.11 2.00 405.08 2855.56
   17:02:40.666.16-Jul-2020 4261.01 7068.78 80.11 2.00 405.28 2855.56
   17:02:40.866.16-Jul-2020 4261.01 7078.47 80.11 2.00 405.48 2855.56
   17:02:41.066.16-Jul-2020 4261.01 7073.73 80.11 2.00 405.68 2855.56
   17:02:41.266.16-Jul-2020 4261.01 7070.14 80.11 2.00 405.88 2855.56
   17:02:41.466.16-Jul-2020 4261.01 7072.53 80.11 2.00 406.08 2855.56
   17:02:41.666.16-Jul-2020 4261.01 7072.53 80.11 2.00 406.28 2855.56
   17:02:41.866.16-Jul-2020 4261.01 7069.53 80.11 2.00 406.48 2855.56
   17:02:42.066.16-Jul-2020 4261.01 7070.63 80.11 2.00 406.68 2855.56
   17:02:42.266.16-Jul-2020 4261.01 7068.88 80.11 2.00 406.88 2855.56
   17:02:42.466.16-Jul-2020 4261.01 7070.60 80.11 2.00 407.08 2855.56
   17:02:42.666.16-Jul-2020 4261.01 7070.60 80.11 2.00 407.28 2855.56
   17:02:42.866.16-Jul-2020 4261.01 7069.76 80.11 2.00 407.48 2855.56
   17:02:43.066.16-Jul-2020 4261.01 7068.64 80.11 2.00 407.68 2855.56
   17:02:43.266.16-Jul-2020 4261.01 7068.68 80.11 2.00 407.88 2855.56
   17:02:43.466.16-Jul-2020 4261.01 7072.76 80.11 2.00 408.08 2855.56
   17:02:43.666.16-Jul-2020 4261.01 7074.17 80.11 2.00 408.28 2855.56
   17:02:43.866.16-Jul-2020 4261.01 7072.39 80.11 2.00 408.48 2855.56
   17:02:44.066.16-Jul-2020 4261.01 7069.18 80.11 2.00 408.68 2855.56
   17:02:44.266.16-Jul-2020 4261.01 7072.56 80.11 2.00 408.88 2855.56
   17:02:44.466.16-Jul-2020 4261.01 7068.98 80.11 2.00 409.08 2855.56
   17:02:44.666.16-Jul-2020 4261.01 7068.98 80.11 2.00 409.28 2855.56
   17:02:44.866.16-Jul-2020 4261.01 7069.14 80.11 2.00 409.48 2855.56
   17:02:45.067.16-Jul-2020 4261.01 7069.79 80.11 2.00 409.68 2855.56
   17:02:45.267.16-Jul-2020 4261.01 7069.32 80.11 2.00 409.88 2855.56
   17:02:45.467.16-Jul-2020 4261.01 7067.80 80.11 2.00 410.08 2855.56
   17:02:45.667.16-Jul-2020 4261.01 7067.80 80.11 2.00 410.28 2855.56
   17:02:45.867.16-Jul-2020 4261.01 7069.78 80.11 2.00 410.48 2855.56
   17:02:46.067.16-Jul-2020 4261.01 7070.25 80.11 2.00 410.68 2855.56
   17:02:46.267.16-Jul-2020 4261.01 7068.80 80.11 2.00 410.88 2855.56
   17:02:46.467.16-Jul-2020 4261.01 7068.45 80.11 2.00 411.08 2855.56
   17:02:46.667.16-Jul-2020 4261.01 7067.25 80.11 2.00 411.28 2855.56
   17:02:46.867.16-Jul-2020 4261.01 7078.40 80.11 2.00 411.48 2855.56
   17:02:47.067.16-Jul-2020 4261.01 7073.91 80.11 2.00 411.68 2855.56
   17:02:47.267.16-Jul-2020 4261.01 7069.27 80.11 2.00 411.88 2855.56
