~Version Information
 VERS.                  2.0:   CWLS log ASCII Standard -VERSION 2.0
 WRAP.                   NO:   One line per depth step
~Well Information Block
#MNEM.UNIT     VALUE/NAME     DESCRIPTION
#---------     -----------    ---------------------------
 STRT.S             21:08:23 16-Jul-20: START TIME 21:08:23 16-Jul-20
 STOP.S             21:15:15 16-Jul-20: STOP TIME  21:15:15 16-Jul-20
 STEP.S                   0.00: STEP TIME
 NULL.                 -999.25: NULL VALUE
 MDS .        Operator Entered:  MAG DATA SOURCE
 UNIT.                     N/A:  LOGGING EQUIPMENT ID
 DCON.         Sperry Drilling:  DIRECTNL CONTR
 DOE .                     N/A:  DOE NUMBER
 RIG .               EastAzeri:  RIG NAME
 JOBN.        AZ-XX-0906363297:  JOB TICKET NUMB
 MWDS.                    Baku:  MWD SHOP
 SRVC.     Turan Drilling & Engineering:  CONTRACTOR
 PROV.                    Baku:  PROVINCE
 STAT.                    Baku:  STATE NAME
 REGN.                   EESSA:  REGION
 BASE.              Azerbaijan:  LOGGING EQUIPMENT BASE LOCATION
 WTYP.                Deviated:  WELL TYPE
 UWI .                     N/A:  UNIQUE WELL IDENTIFIER
 API .                     N/A:  API NUMBER
 COMP.     BP Exploration (Caspian Sea) ltd.:  COMPANY
 WELL.                    D07z:  WELL NAME
 CTRY.              Azerbaijan:  COUNTRY NAME
 SON .        AZ-XX-0906363297:  JOB NUMBER
 FLD .                     ACG:  FIELD NAME
 PDAT.          Mean Sea Level:  PERMANENT DATUM
 FTOP.          Formation Tops:  FORM TOPS DESC
 ILTD.               Lithology:  INTERP LTH DESC
 SVYD.                  Survey:  SURVEY DESC
 DMOD.             Drill Model:  DRILL MOD DESC
 HPTY.       Minimum Curvature:  HOLE POS TYPE
 NREF.                    Grid:  NORTH REFERENCE
 SPUD.               28-Jun-20:  SPUD DATE
 DATE.      18.27.12 28-Jun-20:  END TIME
 STIM.      18.27.12 28-Jun-20:  START TIME
 DMF .             Drill Floor:  DRILL MEAS FROM
 DFST.                        :  DIST FSL TEXT
 DFWT.                        :  DIST FWL TEXT
 CNTY.                        :  COUNTY
 LOC .                        :  LOCATION
 LMF .             Drill Floor:  LOG MEASURED FROM
 VSNS.m                  -7.75:  VERT SEC N/S
 VSEW.m                  -9.19:  VERT SEC E/W
 MMDE.m                   0.00:  MAGUTM CALC DEP
 AGAP.m                  43.60:  AIR GAP
 DEP .m                4058.99:  DEPTH
 APD .m                  43.60:  DEPTH ABOVE PD
 WDMS.m                 151.80:  WD ELEV
 EGL .m                   0.00:  GROUND ELEVATION
 EPD .m                   0.00:  ELEVATION
 AZTC.deg                 6.19:  AZM TOTAL CORR
 GRDC.deg                 0.27:  GRID CORRECTION
 MDEC.deg                 6.46:  MAGNETIC DECL
 MDIP.deg                59.47:  MAGNETIC DIP
 MFLD.nT              50279.00:  MAGNETIC FIELD
 GVFD.g                   1.00:  GRAVITY FIELD
 VSDR.deg               249.96:  VERT SEC DIRECT
 TDD .m                   0.00:  TOTAL DEPTH (DRILLER)
 SDEP.m                   0.00:  START DEPTH
 DFSL.m                   0.00:  DISTANCE FSL
 DFWL.m                   0.00:  DISTANCE FWL
 UTMY.m             4431880.20:  UTM Y
 UTMX.m              538763.98:  UTM X
 WHEW.m                  -9.19:  WELL HEAD E/W
 WHNS.m                  -7.75:  WELL HEAD N/S
 LONG.deg                51.45:  LONGITUDE
 LATI.deg                40.02:  LATITUDE
 TVDS.m                  43.60:  TVDSS CORRECTN
 EKB .m                  43.60:  KB ELEVATION
 EDF .m                  43.60:  DF ELEVATION
 TDL .m                 248.00:  TOTAL DEPTH (LOGGER)
 MAGU.                 1849075:  MAGUTM CHECKSUM
 VSC .                       0:  VS TO CLOSURE
~Parameter Information Block
#MNEM.UNIT       Value        Description
#---------     -----------    ---------------------------
 AV  .mps                 6.34:  Ann Velocity 
 AVMX.mps                 7.00:  Max Ann Veloc 
 AZIF.deg               260.29:  Azm, Final 
 BHAT.        Rotary Steerable:  BHA Type 
 BROT.°/30m               1.20:  Build Rotating 
 BS  .in                  8.50:  Bit Size 
 BSZ .in                  8.50:  Bit Size 
 BTPL.psig              620.00:  Bit Press Loss 
 CABU.                     Yes:  Customer Abuse 
 COMM.                     Äá„:  Run Comments 1 
 TCS .hr                 56.22:  Time Ciculation Ended 
 CV  .mps                 3.05:  Crit Velocity 
 CVMX.mps                 3.20:  Max Crit Veloc 
 DD1 .            Musa Ahmadov:  Direct Drillr 1 
 DDSV.                 iCruise:  DD Service 
 DEFF.%                  98.00:  % Det Eff 
 DLRX.°/30m               2.78:  Dogleg Rot Max 
 DLSO.°/30m               0.00:  Dogleg Oriented 
 DLSX.°/30m               0.00:  Dogleg Str Max 
 DRET.      05.20.48 16-Jul-20:  Drill End Time 
 DRST.      10.20.48 13-Jul-20:  Drill Start Tim 
 DTIM.hr                 14.25:  Time Drilling 
 EDEP.m                4326.01:  End Depth 
 ENG1.      Artemiy Matviyanov:  Engineer 1 
 ENG2.           Amrah Tahirov:  Engineer 2 
 ETIM.      22.30.00 18-Jul-20:  End Time 
 FLOI.gpm               550.00:  Flow In 
 FLON.gpm               450.00:  Flow In Min 
 FLOS.cptm                0.00:  Fluid Loss 
 FLOX.gpm               600.00:  Flow In Max 
 HFLO.                      No:  High Flow 
 HPRE.                      No:  High Pressure 
 HTEM.                      No:  High Temp 
 HYDO.m                   1.80:  Hydro Offset 
 IFIN.deg                65.41:  Inc, Final 
 IMAX.deg                65.14:  Inc Max 
 IMIN.deg                58.89:  Inc Min 
 IMND.m                4104.92:  Inc Min Depth 
 IMXD.m                4303.89:  Inc Max Depth 
 JARR.                      No:  Jarring 
 LETM.      10.20.48 17-Jul-20:  Log End Time 
 LOST.hr                     0:  Lost Rig Time 
 LSTM.      10.20.48 13-Jul-20:  Log Start Time 
 MDCL.ppm             37000.00:  Mud Chlorides 
 MDES.     Inversion Oil/Synthetic:  Mud Desc 
 DFD .sg                  1.52:  Mud Density 
 MDMN.sg                  1.52:  Dens Mud Min 
 MDMX.sg                  1.52:  Dens Mud Max 
 MOIL.                   52.70:  Run Mud Oil % 
 MOWR.                   68:32:  Run Mud OWR 
 MSND.                     0.2:  Run Mud Sand % 
 MSOL.                    21.6:  Run Mud Solids% 
 DFV .spqt               79.00:  Mud Viscosity 
 MWOD.in                  6.75:  MWD Tool OD 
 MWSI.                      No:  Serv Intrp, MWD 
 OTIM.hr                114.04:  Time Operating 
 PCON.          Wear / Scratch:  Pad Condition 
 PMAX.psia            11782.92:  Press Op, Max 
 PV  .cP                 49.00:  Mud PV 
 RUN .                     600:  Run Number 
 ROPA.m/hr               20.00:  ROP Avg 
 ROPN.m/hr               15.00:  ROP Min 
 ROPX.m/hr               22.00:  ROP Max 
 RPMA.rpm               120.00:  RPM Surface Avg 
 RPMN.rpm                90.00:  RPM Surface Min 
 RPMX.rpm               140.00:  RPM Surface Max 
 RRUN.                     600:  Rig Run Number 
 SAZI.deg               260.29:  Azm, Start 
 SDEP.m                4078.01:  Start Depth 
 SIDD.                      No:  Serv Intrp, DD 
 SINC.deg                58.89:  Inc, Start 
 SPPA.psig             4560.00:  SPP Avg 
 SPPN.psig             3600.00:  SPP Min 
 SPPX.psig             4800.00:  SPP Max 
 STIM.      10.20.48 13-Jul-20:  Start Time 
 SVCS.                 DD, MWD:  Services 
 SVER.                    9.20:  Sperry Version 
 TDAT.m                4378.01:  Tot Depth Attmp 
 TDDF.                      No:  Trip for DD 
 TDLG.m                 248.00:  Tot Depth Loggd 
 TFF .                      No:  Trip for Fail 
 TQAA.f-kp               18.00:  Torque Abs Avg 
 TQAN.f-kp               15.00:  Torque Abs Min 
 TQAX.f-kp               20.00:  Torque Abs Max 
 TRRT.°/30m               0.70:  Turn Rotating 
 MRT .                    HCIM:  Maximum Recorded Temperature 
 TTMX.degC               86.00:  Max Tool Temp 
 WBMN.klb                 3.00:  WOB Min 
 WOBA.klb                 5.00:  WOB Avg 
 WOBX.klb                 9.00:  WOB Max 
 YP  .lhf2               32.00:  Yield Point 
~Curve Information Block
#MNEM.UNIT                 API CODE     Curve Description
#---------               -----------    ---------------------------
 TIME.HHMMSS            00 000 000 000:  GT Time & Date
 GTDEPTH.m              00 000 000 000:  GT Depth
 GTPQH.psia             00 000 000 000:  GT HR Quartz Pressure
 GTTQ.degC              00 000 000 000:  GT Quartz Temperature
 GTTN.NONE              00 000 000 000:  GT Test Number
 GTET.sec               00 000 000 000:  GT Elapsed Test Time
 GTTVD.m                00 000 000 000:  GT True Vertical Depth
#Other Information
#
#WARRANTY: Halliburton will use its best efforts to furnish customers with 
#accurate information and interpretations that are part of, and incident to, the services 
#provided.  However, Halliburton cannot and does not warrant the accuracy 
#or correctness of such information and interpretations.  Under no circumstances should any 
#such information or interpretation be relied upon as the sole basis for any drilling, 
#completion, production, or financial decision or any procedure involving any risk to the 
#safety of any drilling venture, drilling rig or its crew or any other third party.  The 
#Customer has full responsibility for all drilling, completion and production operation.  
#Halliburton makes no representations or warranties, either expressed or 
#implied, including, but not limited to, the implied warranties of merchantability or fitness 
#for a particular purpose, with respect to the services rendered.  In no event will 
#Halliburton be liable for failure to obtain any particular results or for 
#any damages, including, but not limited to, indirect, special or consequential damages, 
#resulting from the use of any information or interpretation provided by Halliburton.
#
~A           TIME           GTDEPTH  GTPQH  GTTQ  GTTN  GTET   GTTVD  
# ...
   21:14:31.226.16-Jul-2020 4135.51 6909.61 77.22 7.00 368.21 2799.87
   21:14:31.426.16-Jul-2020 4135.51 6907.71 77.22 7.00 368.41 2799.87
   21:14:31.626.16-Jul-2020 4135.51 6908.72 77.22 7.00 368.61 2799.87
   21:14:31.826.16-Jul-2020 4135.51 6907.41 77.22 7.00 368.81 2799.87
   21:14:32.026.16-Jul-2020 4135.51 6906.80 77.22 7.00 369.01 2799.87
   21:14:32.226.16-Jul-2020 4135.51 6917.78 77.22 7.00 369.21 2799.87
   21:14:32.427.16-Jul-2020 4135.51 6917.78 77.22 7.00 369.41 2799.87
   21:14:32.627.16-Jul-2020 4135.51 6909.24 77.22 7.00 369.61 2799.87
   21:14:32.827.16-Jul-2020 4135.51 6908.36 77.22 7.00 369.81 2799.87
   21:14:33.027.16-Jul-2020 4135.51 6909.41 77.22 7.00 370.01 2799.87
   21:14:33.227.16-Jul-2020 4135.51 6908.52 77.22 7.00 370.21 2799.87
   21:14:33.427.16-Jul-2020 4135.51 6908.52 77.22 7.00 370.41 2799.87
   21:14:33.627.16-Jul-2020 4135.51 6908.37 77.22 7.00 370.61 2799.87
   21:14:33.827.16-Jul-2020 4135.51 6907.90 77.22 7.00 370.81 2799.87
   21:14:34.027.16-Jul-2020 4135.51 6909.55 77.22 7.00 371.01 2799.87
   21:14:34.228.16-Jul-2020 4135.51 6907.09 77.22 7.00 371.21 2799.87
   21:14:34.428.16-Jul-2020 4135.51 6907.09 77.22 7.00 371.41 2799.87
   21:14:34.628.16-Jul-2020 4135.51 6907.58 77.22 7.00 371.61 2799.87
   21:14:34.828.16-Jul-2020 4135.51 6908.84 77.22 7.00 371.81 2799.87
   21:14:35.028.16-Jul-2020 4135.51 6907.44 77.22 7.00 372.01 2799.87
   21:14:35.228.16-Jul-2020 4135.51 6908.01 77.22 7.00 372.21 2799.87
   21:14:35.428.16-Jul-2020 4135.51 6917.94 77.22 7.00 372.41 2799.87
   21:14:35.628.16-Jul-2020 4135.51 6905.21 77.22 7.00 372.61 2799.87
   21:14:35.828.16-Jul-2020 4135.51 6909.63 77.22 7.00 372.81 2799.87
   21:14:36.029.16-Jul-2020 4135.51 6908.39 77.22 7.00 373.01 2799.87
   21:14:36.229.16-Jul-2020 4135.51 6909.72 77.22 7.00 373.21 2799.87
   21:14:36.429.16-Jul-2020 4135.51 6909.72 77.22 7.00 373.41 2799.87
   21:14:36.629.16-Jul-2020 4135.51 6908.67 77.22 7.00 373.61 2799.87
   21:14:36.829.16-Jul-2020 4135.51 6922.90 77.21 7.00 373.81 2799.87
   21:14:37.029.16-Jul-2020 4135.51 6902.91 77.21 7.00 374.01 2799.87
   21:14:37.229.16-Jul-2020 4135.51 6909.83 77.21 7.00 374.21 2799.87
   21:14:37.429.16-Jul-2020 4135.51 6909.83 77.21 7.00 374.41 2799.87
   21:14:37.629.16-Jul-2020 4135.51 6908.38 77.21 7.00 374.61 2799.87
   21:14:37.830.16-Jul-2020 4135.51 6907.92 77.21 7.00 374.81 2799.87
   21:14:38.030.16-Jul-2020 4135.51 6918.35 77.21 7.00 375.01 2799.87
   21:14:38.230.16-Jul-2020 4135.51 6905.26 77.21 7.00 375.21 2799.87
   21:14:38.430.16-Jul-2020 4135.51 6905.26 77.21 7.00 375.41 2799.87
   21:14:38.630.16-Jul-2020 4135.51 6910.38 77.21 7.00 375.61 2799.87
   21:14:38.830.16-Jul-2020 4135.51 6908.19 77.21 7.00 375.81 2799.87
   21:14:39.030.16-Jul-2020 4135.51 6914.97 77.21 7.00 376.01 2799.87
   21:14:39.230.16-Jul-2020 4135.51 6908.53 77.21 7.00 376.21 2799.87
   21:14:39.430.16-Jul-2020 4135.51 6911.87 77.21 7.00 376.41 2799.87
   21:14:39.631.16-Jul-2020 4135.51 6910.19 77.21 7.00 376.61 2799.87
   21:14:39.831.16-Jul-2020 4135.51 6911.47 77.21 7.00 376.81 2799.87
   21:14:40.031.16-Jul-2020 4135.51 6908.06 77.21 7.00 377.01 2799.87
   21:14:40.231.16-Jul-2020 4135.51 6909.20 77.21 7.00 377.21 2799.87
   21:14:40.431.16-Jul-2020 4135.51 6909.20 77.21 7.00 377.41 2799.87
   21:14:40.631.16-Jul-2020 4135.51 6906.89 77.21 7.00 377.61 2799.87
   21:14:40.831.16-Jul-2020 4135.51 6909.37 77.21 7.00 377.81 2799.87
   21:14:41.031.16-Jul-2020 4135.51 6906.08 77.21 7.00 378.01 2799.87
   21:14:41.231.16-Jul-2020 4135.51 6908.55 77.21 7.00 378.21 2799.87
   21:14:41.432.16-Jul-2020 4135.51 6908.55 77.21 7.00 378.41 2799.87
   21:14:41.632.16-Jul-2020 4135.51 6917.26 77.21 7.00 378.61 2799.87
   21:14:41.832.16-Jul-2020 4135.51 6906.39 77.21 7.00 378.81 2799.87
   21:14:42.032.16-Jul-2020 4135.51 6907.04 77.21 7.00 379.01 2799.87
   21:14:42.232.16-Jul-2020 4135.51 6911.06 77.21 7.00 379.21 2799.87
   21:14:42.432.16-Jul-2020 4135.51 6911.06 77.21 7.00 379.42 2799.87
   21:14:42.632.16-Jul-2020 4135.51 6911.05 77.21 7.00 379.62 2799.87
   21:14:42.832.16-Jul-2020 4135.51 6906.70 77.21 7.00 379.82 2799.87
   21:14:43.033.16-Jul-2020 4135.51 6909.32 77.21 7.00 380.02 2799.87
   21:14:43.233.16-Jul-2020 4135.51 6907.23 77.21 7.00 380.22 2799.87
   21:14:43.433.16-Jul-2020 4135.51 6908.07 77.21 7.00 380.42 2799.87
   21:14:43.633.16-Jul-2020 4135.51 6908.24 77.21 7.00 380.62 2799.87
   21:14:43.833.16-Jul-2020 4135.51 6906.31 77.21 7.00 380.82 2799.87
   21:14:44.033.16-Jul-2020 4135.51 6908.75 77.21 7.00 381.02 2799.87
   21:14:44.233.16-Jul-2020 4135.51 6905.59 77.20 7.00 381.22 2799.87
   21:14:44.433.16-Jul-2020 4135.51 6905.59 77.20 7.00 381.42 2799.87
   21:14:44.633.16-Jul-2020 4135.51 6905.60 77.20 7.00 381.62 2799.87
   21:14:44.834.16-Jul-2020 4135.51 6917.41 77.20 7.00 381.82 2799.87
   21:14:45.034.16-Jul-2020 4135.51 6905.46 77.20 7.00 382.02 2799.87
   21:14:45.234.16-Jul-2020 4135.51 6906.90 77.20 7.00 382.22 2799.87
   21:14:45.434.16-Jul-2020 4135.51 6906.90 77.20 7.00 382.42 2799.87
   21:14:45.634.16-Jul-2020 4135.51 6906.17 77.20 7.00 382.62 2799.87
   21:14:45.834.16-Jul-2020 4135.51 6909.77 77.20 7.00 382.82 2799.87
   21:14:46.034.16-Jul-2020 4135.51 6905.97 77.20 7.00 383.02 2799.87
   21:14:46.234.16-Jul-2020 4135.51 6905.59 77.20 7.00 383.22 2799.87
   21:14:46.434.16-Jul-2020 4135.51 6923.15 77.20 7.00 383.42 2799.87
   21:14:46.635.16-Jul-2020 4135.51 6923.15 77.20 7.00 383.62 2799.87
   21:14:46.835.16-Jul-2020 4135.51 6909.51 77.20 7.00 383.82 2799.87
   21:14:47.035.16-Jul-2020 4135.51 6905.74 77.20 7.00 384.02 2799.87
   21:14:47.235.16-Jul-2020 4135.51 6910.21 77.20 7.00 384.22 2799.87
   21:14:47.435.16-Jul-2020 4135.51 6910.21 77.20 7.00 384.42 2799.87
   21:14:47.635.16-Jul-2020 4135.51 6906.90 77.20 7.00 384.62 2799.87
   21:14:47.835.16-Jul-2020 4135.51 6907.17 77.20 7.00 384.82 2799.87
   21:14:48.035.16-Jul-2020 4135.51 6910.36 77.20 7.00 385.02 2799.87
   21:14:48.235.16-Jul-2020 4135.51 6908.65 77.20 7.00 385.22 2799.87
   21:14:48.436.16-Jul-2020 4135.51 6908.65 77.20 7.00 385.42 2799.87
   21:14:48.636.16-Jul-2020 4135.51 6910.09 77.20 7.00 385.62 2799.87
   21:14:48.836.16-Jul-2020 4135.51 6908.78 77.20 7.00 385.82 2799.87
   21:14:49.036.16-Jul-2020 4135.51 6912.59 77.20 7.00 386.02 2799.87
   21:14:49.236.16-Jul-2020 4135.51 6909.16 77.20 7.00 386.22 2799.87
   21:14:49.436.16-Jul-2020 4135.51 6909.16 77.20 7.00 386.42 2799.87
   21:14:49.636.16-Jul-2020 4135.51 6908.32 77.20 7.00 386.62 2799.87
   21:14:49.836.16-Jul-2020 4135.51 6908.48 77.20 7.00 386.82 2799.87
   21:14:50.036.16-Jul-2020 4135.51 6908.14 77.20 7.00 387.02 2799.87
   21:14:50.237.16-Jul-2020 4135.51 6907.01 77.20 7.00 387.22 2799.87
   21:14:50.437.16-Jul-2020 4135.51 6907.01 77.20 7.00 387.42 2799.87
   21:14:50.637.16-Jul-2020 4135.51 6906.76 77.20 7.00 387.62 2799.87
   21:14:50.837.16-Jul-2020 4135.51 6909.08 77.20 7.00 387.82 2799.87
   21:14:51.037.16-Jul-2020 4135.51 6915.77 77.20 7.00 388.02 2799.87
   21:14:51.237.16-Jul-2020 4135.51 6907.21 77.20 7.00 388.22 2799.87
   21:14:51.437.16-Jul-2020 4135.51 6907.40 77.20 7.00 388.42 2799.87
   21:14:51.637.16-Jul-2020 4135.51 6910.10 77.20 7.00 388.62 2799.87
   21:14:51.838.16-Jul-2020 4135.51 6908.64 77.20 7.00 388.82 2799.87
   21:14:52.038.16-Jul-2020 4135.51 6908.32 77.20 7.00 389.02 2799.87
   21:14:52.238.16-Jul-2020 4135.51 6909.21 77.20 7.00 389.22 2799.87
   21:14:52.438.16-Jul-2020 4135.51 6906.52 77.20 7.00 389.42 2799.87
   21:14:52.638.16-Jul-2020 4135.51 6908.94 77.20 7.00 389.62 2799.87
   21:14:52.838.16-Jul-2020 4135.51 6906.69 77.20 7.00 389.82 2799.87
   21:14:53.038.16-Jul-2020 4135.51 6908.06 77.20 7.00 390.02 2799.87
   21:14:53.238.16-Jul-2020 4135.51 6906.96 77.20 7.00 390.22 2799.87
   21:14:53.438.16-Jul-2020 4135.51 6906.96 77.20 7.00 390.42 2799.87
   21:14:53.639.16-Jul-2020 4135.51 6908.04 77.20 7.00 390.62 2799.87
   21:14:53.839.16-Jul-2020 4135.51 6905.70 77.20 7.00 390.82 2799.87
   21:14:54.039.16-Jul-2020 4135.51 6908.23 77.20 7.00 391.02 2799.87
