~Version Information
 VERS.                  2.0:   CWLS log ASCII Standard -VERSION 2.0
 WRAP.                   NO:   One line per depth step
~Well Information Block
#MNEM.UNIT     VALUE/NAME     DESCRIPTION
#---------     -----------    ---------------------------
 STRT.S             17:56:46 16-Jul-20: START TIME 17:56:46 16-Jul-20
 STOP.S             18:03:39 16-Jul-20: STOP TIME  18:03:39 16-Jul-20
 STEP.S                   0.00: STEP TIME
 NULL.                 -999.25: NULL VALUE
 MDS .        Operator Entered:  MAG DATA SOURCE
 UNIT.                     N/A:  LOGGING EQUIPMENT ID
 DCON.         Sperry Drilling:  DIRECTNL CONTR
 DOE .                     N/A:  DOE NUMBER
 RIG .               EastAzeri:  RIG NAME
 JOBN.        AZ-XX-0906363297:  JOB TICKET NUMB
 MWDS.                    Baku:  MWD SHOP
 SRVC.     Turan Drilling & Engineering:  CONTRACTOR
 PROV.                    Baku:  PROVINCE
 STAT.                    Baku:  STATE NAME
 REGN.                   EESSA:  REGION
 BASE.              Azerbaijan:  LOGGING EQUIPMENT BASE LOCATION
 WTYP.                Deviated:  WELL TYPE
 UWI .                     N/A:  UNIQUE WELL IDENTIFIER
 API .                     N/A:  API NUMBER
 COMP.     BP Exploration (Caspian Sea) ltd.:  COMPANY
 WELL.                    D07z:  WELL NAME
 CTRY.              Azerbaijan:  COUNTRY NAME
 SON .        AZ-XX-0906363297:  JOB NUMBER
 FLD .                     ACG:  FIELD NAME
 PDAT.          Mean Sea Level:  PERMANENT DATUM
 FTOP.          Formation Tops:  FORM TOPS DESC
 ILTD.               Lithology:  INTERP LTH DESC
 SVYD.                  Survey:  SURVEY DESC
 DMOD.             Drill Model:  DRILL MOD DESC
 HPTY.       Minimum Curvature:  HOLE POS TYPE
 NREF.                    Grid:  NORTH REFERENCE
 SPUD.               28-Jun-20:  SPUD DATE
 DATE.      18.27.12 28-Jun-20:  END TIME
 STIM.      18.27.12 28-Jun-20:  START TIME
 DMF .             Drill Floor:  DRILL MEAS FROM
 DFST.                        :  DIST FSL TEXT
 DFWT.                        :  DIST FWL TEXT
 CNTY.                        :  COUNTY
 LOC .                        :  LOCATION
 LMF .             Drill Floor:  LOG MEASURED FROM
 VSNS.m                  -7.75:  VERT SEC N/S
 VSEW.m                  -9.19:  VERT SEC E/W
 MMDE.m                   0.00:  MAGUTM CALC DEP
 AGAP.m                  43.60:  AIR GAP
 DEP .m                4058.99:  DEPTH
 APD .m                  43.60:  DEPTH ABOVE PD
 WDMS.m                 151.80:  WD ELEV
 EGL .m                   0.00:  GROUND ELEVATION
 EPD .m                   0.00:  ELEVATION
 AZTC.deg                 6.19:  AZM TOTAL CORR
 GRDC.deg                 0.27:  GRID CORRECTION
 MDEC.deg                 6.46:  MAGNETIC DECL
 MDIP.deg                59.47:  MAGNETIC DIP
 MFLD.nT              50279.00:  MAGNETIC FIELD
 GVFD.g                   1.00:  GRAVITY FIELD
 VSDR.deg               249.96:  VERT SEC DIRECT
 TDD .m                   0.00:  TOTAL DEPTH (DRILLER)
 SDEP.m                   0.00:  START DEPTH
 DFSL.m                   0.00:  DISTANCE FSL
 DFWL.m                   0.00:  DISTANCE FWL
 UTMY.m             4431880.20:  UTM Y
 UTMX.m              538763.98:  UTM X
 WHEW.m                  -9.19:  WELL HEAD E/W
 WHNS.m                  -7.75:  WELL HEAD N/S
 LONG.deg                51.45:  LONGITUDE
 LATI.deg                40.02:  LATITUDE
 TVDS.m                  43.60:  TVDSS CORRECTN
 EKB .m                  43.60:  KB ELEVATION
 EDF .m                  43.60:  DF ELEVATION
 TDL .m                 248.00:  TOTAL DEPTH (LOGGER)
 MAGU.                 1849075:  MAGUTM CHECKSUM
 VSC .                       0:  VS TO CLOSURE
~Parameter Information Block
#MNEM.UNIT       Value        Description
#---------     -----------    ---------------------------
 AV  .mps                 6.34:  Ann Velocity 
 AVMX.mps                 7.00:  Max Ann Veloc 
 AZIF.deg               260.29:  Azm, Final 
 BHAT.        Rotary Steerable:  BHA Type 
 BROT.°/30m               1.20:  Build Rotating 
 BS  .in                  8.50:  Bit Size 
 BSZ .in                  8.50:  Bit Size 
 BTPL.psig              620.00:  Bit Press Loss 
 CABU.                     Yes:  Customer Abuse 
 COMM.                     LqT:  Run Comments 1 
 TCS .hr                 56.22:  Time Ciculation Ended 
 CV  .mps                 3.05:  Crit Velocity 
 CVMX.mps                 3.20:  Max Crit Veloc 
 DD1 .            Musa Ahmadov:  Direct Drillr 1 
 DDSV.                 iCruise:  DD Service 
 DEFF.%                  98.00:  % Det Eff 
 DLRX.°/30m               2.78:  Dogleg Rot Max 
 DLSO.°/30m               0.00:  Dogleg Oriented 
 DLSX.°/30m               0.00:  Dogleg Str Max 
 DRET.      05.20.48 16-Jul-20:  Drill End Time 
 DRST.      10.20.48 13-Jul-20:  Drill Start Tim 
 DTIM.hr                 14.25:  Time Drilling 
 EDEP.m                4326.01:  End Depth 
 ENG1.      Artemiy Matviyanov:  Engineer 1 
 ENG2.           Amrah Tahirov:  Engineer 2 
 ETIM.      22.30.00 18-Jul-20:  End Time 
 FLOI.gpm               550.00:  Flow In 
 FLON.gpm               450.00:  Flow In Min 
 FLOS.cptm                0.00:  Fluid Loss 
 FLOX.gpm               600.00:  Flow In Max 
 HFLO.                      No:  High Flow 
 HPRE.                      No:  High Pressure 
 HTEM.                      No:  High Temp 
 HYDO.m                   1.80:  Hydro Offset 
 IFIN.deg                65.41:  Inc, Final 
 IMAX.deg                65.14:  Inc Max 
 IMIN.deg                58.89:  Inc Min 
 IMND.m                4104.92:  Inc Min Depth 
 IMXD.m                4303.89:  Inc Max Depth 
 JARR.                      No:  Jarring 
 LETM.      10.20.48 17-Jul-20:  Log End Time 
 LOST.hr                     0:  Lost Rig Time 
 LSTM.      10.20.48 13-Jul-20:  Log Start Time 
 MDCL.ppm             37000.00:  Mud Chlorides 
 MDES.     Inversion Oil/Synthetic:  Mud Desc 
 DFD .sg                  1.52:  Mud Density 
 MDMN.sg                  1.52:  Dens Mud Min 
 MDMX.sg                  1.52:  Dens Mud Max 
 MOIL.                   52.70:  Run Mud Oil % 
 MOWR.                   68:32:  Run Mud OWR 
 MSND.                     0.2:  Run Mud Sand % 
 MSOL.                    21.6:  Run Mud Solids% 
 DFV .spqt               79.00:  Mud Viscosity 
 MWOD.in                  6.75:  MWD Tool OD 
 MWSI.                      No:  Serv Intrp, MWD 
 OTIM.hr                114.04:  Time Operating 
 PCON.          Wear / Scratch:  Pad Condition 
 PMAX.psia            11782.92:  Press Op, Max 
 PV  .cP                 49.00:  Mud PV 
 RUN .                     600:  Run Number 
 ROPA.m/hr               20.00:  ROP Avg 
 ROPN.m/hr               15.00:  ROP Min 
 ROPX.m/hr               22.00:  ROP Max 
 RPMA.rpm               120.00:  RPM Surface Avg 
 RPMN.rpm                90.00:  RPM Surface Min 
 RPMX.rpm               140.00:  RPM Surface Max 
 RRUN.                     600:  Rig Run Number 
 SAZI.deg               260.29:  Azm, Start 
 SDEP.m                4078.01:  Start Depth 
 SIDD.                      No:  Serv Intrp, DD 
 SINC.deg                58.89:  Inc, Start 
 SPPA.psig             4560.00:  SPP Avg 
 SPPN.psig             3600.00:  SPP Min 
 SPPX.psig             4800.00:  SPP Max 
 STIM.      10.20.48 13-Jul-20:  Start Time 
 SVCS.                 DD, MWD:  Services 
 SVER.                    9.20:  Sperry Version 
 TDAT.m                4378.01:  Tot Depth Attmp 
 TDDF.                      No:  Trip for DD 
 TDLG.m                 248.00:  Tot Depth Loggd 
 TFF .                      No:  Trip for Fail 
 TQAA.f-kp               18.00:  Torque Abs Avg 
 TQAN.f-kp               15.00:  Torque Abs Min 
 TQAX.f-kp               20.00:  Torque Abs Max 
 TRRT.°/30m               0.70:  Turn Rotating 
 MRT .                    HCIM:  Maximum Recorded Temperature 
 TTMX.degC               86.00:  Max Tool Temp 
 WBMN.klb                 3.00:  WOB Min 
 WOBA.klb                 5.00:  WOB Avg 
 WOBX.klb                 9.00:  WOB Max 
 YP  .lhf2               32.00:  Yield Point 
~Curve Information Block
#MNEM.UNIT                 API CODE     Curve Description
#---------               -----------    ---------------------------
 TIME.HHMMSS            00 000 000 000:  GT Time & Date
 GTDEPTH.m              00 000 000 000:  GT Depth
 GTPQH.psia             00 000 000 000:  GT HR Quartz Pressure
 GTTQ.degC              00 000 000 000:  GT Quartz Temperature
 GTTN.NONE              00 000 000 000:  GT Test Number
 GTET.sec               00 000 000 000:  GT Elapsed Test Time
 GTTVD.m                00 000 000 000:  GT True Vertical Depth
#Other Information
#
#WARRANTY: Halliburton will use its best efforts to furnish customers with 
#accurate information and interpretations that are part of, and incident to, the services 
#provided.  However, Halliburton cannot and does not warrant the accuracy 
#or correctness of such information and interpretations.  Under no circumstances should any 
#such information or interpretation be relied upon as the sole basis for any drilling, 
#completion, production, or financial decision or any procedure involving any risk to the 
#safety of any drilling venture, drilling rig or its crew or any other third party.  The 
#Customer has full responsibility for all drilling, completion and production operation.  
#Halliburton makes no representations or warranties, either expressed or 
#implied, including, but not limited to, the implied warranties of merchantability or fitness 
#for a particular purpose, with respect to the services rendered.  In no event will 
#Halliburton be liable for failure to obtain any particular results or for 
#any damages, including, but not limited to, indirect, special or consequential damages, 
#resulting from the use of any information or interpretation provided by Halliburton.
#
~A           TIME           GTDEPTH  GTPQH  GTTQ  GTTN  GTET   GTTVD  
   17:56:46.289.16-Jul-2020 4229.01 6930.62 79.86 4.00   0.00 2841.98
   17:56:46.489.16-Jul-2020 4229.01 6930.62 79.86 4.00   0.20 2841.98
   17:56:46.689.16-Jul-2020 4229.01 6930.62 79.86 4.00   0.40 2841.98
   17:56:46.889.16-Jul-2020 4229.01 6938.85 79.86 4.00   0.60 2841.98
   17:56:47.089.16-Jul-2020 4229.01 6944.11 79.86 4.00   0.80 2841.98
   17:56:47.289.16-Jul-2020 4229.01 6936.66 79.86 4.00   1.00 2841.98
   17:56:47.489.16-Jul-2020 4229.01 6941.40 79.86 4.00   1.20 2841.98
   17:56:47.690.16-Jul-2020 4229.01 6945.05 79.86 4.00   1.40 2841.98
   17:56:47.890.16-Jul-2020 4229.01 6941.95 79.86 4.00   1.60 2841.98
   17:56:48.090.16-Jul-2020 4229.01 6940.57 79.86 4.00   1.80 2841.98
   17:56:48.290.16-Jul-2020 4229.01 6951.41 79.86 4.00   2.00 2841.98
   17:56:48.490.16-Jul-2020 4229.01 6951.41 79.86 4.00   2.20 2841.98
   17:56:48.690.16-Jul-2020 4229.01 6952.65 79.86 4.00   2.40 2841.98
   17:56:48.890.16-Jul-2020 4229.01 6949.71 79.86 4.00   2.60 2841.98
   17:56:49.090.16-Jul-2020 4229.01 6950.35 79.86 4.00   2.80 2841.98
   17:56:49.290.16-Jul-2020 4229.01 6949.10 79.86 4.00   3.00 2841.98
   17:56:49.490.16-Jul-2020 4229.01 6949.10 79.86 4.00   3.20 2841.98
   17:56:49.690.16-Jul-2020 4229.01 6948.24 79.86 4.00   3.40 2841.98
   17:56:49.890.16-Jul-2020 4229.01 6948.12 79.86 4.00   3.60 2841.98
   17:56:50.091.16-Jul-2020 4229.01 6947.26 79.86 4.00   3.80 2841.98
   17:56:50.291.16-Jul-2020 4229.01 6947.56 79.86 4.00   4.00 2841.98
   17:56:50.491.16-Jul-2020 4229.01 6947.56 79.86 4.00   4.20 2841.98
   17:56:50.691.16-Jul-2020 4229.01 6948.24 79.86 4.00   4.40 2841.98
   17:56:50.891.16-Jul-2020 4229.01 6950.19 79.86 4.00   4.60 2841.98
   17:56:51.091.16-Jul-2020 4229.01 6950.70 79.86 4.00   4.80 2841.98
   17:56:51.291.16-Jul-2020 4229.01 6956.89 79.86 4.00   5.00 2841.98
   17:56:51.491.16-Jul-2020 4229.01 6956.89 79.86 4.00   5.20 2841.98
   17:56:51.691.16-Jul-2020 4229.01 6954.50 79.86 4.00   5.40 2841.98
   17:56:51.891.16-Jul-2020 4229.01 6955.26 79.86 4.00   5.60 2841.98
   17:56:52.091.16-Jul-2020 4229.01 6955.43 79.86 4.00   5.80 2841.98
   17:56:52.292.16-Jul-2020 4229.01 6954.08 79.85 4.00   6.00 2841.98
   17:56:52.492.16-Jul-2020 4229.01 6954.08 79.85 4.00   6.20 2841.98
   17:56:52.692.16-Jul-2020 4229.01 6956.11 79.85 4.00   6.40 2841.98
   17:56:52.892.16-Jul-2020 4229.01 6955.68 79.85 4.00   6.60 2841.98
   17:56:53.092.16-Jul-2020 4229.01 6954.97 79.85 4.00   6.80 2841.98
   17:56:53.292.16-Jul-2020 4229.01 6956.01 79.85 4.00   7.00 2841.98
   17:56:53.492.16-Jul-2020 4229.01 6956.01 79.85 4.00   7.20 2841.98
   17:56:53.692.16-Jul-2020 4229.01 6957.51 79.85 4.00   7.40 2841.98
   17:56:53.892.16-Jul-2020 4229.01 6956.59 79.85 4.00   7.60 2841.98
   17:56:54.092.16-Jul-2020 4229.01 6956.13 79.85 4.00   7.80 2841.98
   17:56:54.292.16-Jul-2020 4229.01 6957.28 79.85 4.00   8.00 2841.98
   17:56:54.493.16-Jul-2020 4229.01 6957.76 79.85 4.00   8.20 2841.98
   17:56:54.693.16-Jul-2020 4229.01 6970.18 79.85 4.00   8.40 2841.98
   17:56:54.893.16-Jul-2020 4229.01 6953.45 79.85 4.00   8.60 2841.98
   17:56:55.093.16-Jul-2020 4229.01 6961.19 79.85 4.00   8.80 2841.98
   17:56:55.293.16-Jul-2020 4229.01 6958.19 79.85 4.00   9.00 2841.98
   17:56:55.493.16-Jul-2020 4229.01 6958.19 79.85 4.00   9.20 2841.98
   17:56:55.693.16-Jul-2020 4229.01 6971.68 79.85 4.00   9.40 2841.98
   17:56:55.893.16-Jul-2020 4229.01 6957.69 79.85 4.00   9.60 2841.98
   17:56:56.093.16-Jul-2020 4229.01 6963.21 79.85 4.00   9.80 2841.98
   17:56:56.293.16-Jul-2020 4229.01 6961.70 79.85 4.00  10.00 2841.98
   17:56:56.493.16-Jul-2020 4229.01 6961.70 79.85 4.00  10.20 2841.98
   17:56:56.694.16-Jul-2020 4229.01 6975.64 79.85 4.00  10.40 2841.98
   17:56:56.894.16-Jul-2020 4229.01 6957.20 79.85 4.00  10.60 2841.98
   17:56:57.094.16-Jul-2020 4229.01 6964.43 79.85 4.00  10.80 2841.98
   17:56:57.294.16-Jul-2020 4229.01 6962.50 79.85 4.00  11.00 2841.98
   17:56:57.494.16-Jul-2020 4229.01 6962.50 79.85 4.00  11.20 2841.98
   17:56:57.694.16-Jul-2020 4229.01 6978.16 79.85 4.00  11.41 2841.98
   17:56:57.894.16-Jul-2020 4229.01 6959.50 79.85 4.00  11.61 2841.98
   17:56:58.094.16-Jul-2020 4229.01 6967.12 79.85 4.00  11.81 2841.98
   17:56:58.294.16-Jul-2020 4229.01 6971.09 79.85 4.00  12.01 2841.98
   17:56:58.494.16-Jul-2020 4229.01 6968.82 79.85 4.00  12.21 2841.98
   17:56:58.694.16-Jul-2020 4229.01 6968.00 79.85 4.00  12.41 2841.98
   17:56:58.894.16-Jul-2020 4229.01 6968.71 79.85 4.00  12.61 2841.98
   17:56:59.095.16-Jul-2020 4229.01 6970.86 79.85 4.00  12.81 2841.98
   17:56:59.295.16-Jul-2020 4229.01 6968.29 79.85 4.00  13.01 2841.98
   17:56:59.495.16-Jul-2020 4229.01 6968.29 79.85 4.00  13.21 2841.98
   17:56:59.695.16-Jul-2020 4229.01 6970.95 79.85 4.00  13.41 2841.98
   17:56:59.895.16-Jul-2020 4229.01 6970.92 79.85 4.00  13.61 2841.98
   17:57:00.095.16-Jul-2020 4229.01 6970.66 79.85 4.00  13.81 2841.98
   17:57:00.295.16-Jul-2020 4229.01 6971.43 79.85 4.00  14.01 2841.98
   17:57:00.495.16-Jul-2020 4229.01 6971.43 79.85 4.00  14.21 2841.98
   17:57:00.695.16-Jul-2020 4229.01 6970.01 79.85 4.00  14.41 2841.98
   17:57:00.895.16-Jul-2020 4229.01 6970.40 79.85 4.00  14.61 2841.98
   17:57:01.095.16-Jul-2020 4229.01 6970.74 79.85 4.00  14.81 2841.98
   17:57:01.296.16-Jul-2020 4229.01 6971.05 79.85 4.00  15.01 2841.98
   17:57:01.496.16-Jul-2020 4229.01 6971.05 79.85 4.00  15.21 2841.98
   17:57:01.696.16-Jul-2020 4229.01 6971.09 79.85 4.00  15.41 2841.98
   17:57:01.896.16-Jul-2020 4229.01 6972.04 79.85 4.00  15.61 2841.98
   17:57:02.096.16-Jul-2020 4229.01 6971.66 79.85 4.00  15.81 2841.98
   17:57:02.296.16-Jul-2020 4229.01 6987.38 79.85 4.00  16.01 2841.98
   17:57:02.496.16-Jul-2020 4229.01 6967.47 79.85 4.00  16.21 2841.98
   17:57:02.696.16-Jul-2020 4229.01 6974.31 79.85 4.00  16.41 2841.98
   17:57:02.896.16-Jul-2020 4229.01 6972.36 79.85 4.00  16.61 2841.98
   17:57:03.096.16-Jul-2020 4229.01 6975.47 79.85 4.00  16.81 2841.98
   17:57:03.296.16-Jul-2020 4229.01 6973.70 79.85 4.00  17.01 2841.98
   17:57:03.497.16-Jul-2020 4229.01 6973.70 79.85 4.00  17.21 2841.98
   17:57:03.697.16-Jul-2020 4229.01 6973.30 79.85 4.00  17.41 2841.98
   17:57:03.897.16-Jul-2020 4229.01 6973.97 79.85 4.00  17.61 2841.98
   17:57:04.097.16-Jul-2020 4229.01 6975.43 79.85 4.00  17.81 2841.98
   17:57:04.297.16-Jul-2020 4229.01 6975.37 79.85 4.00  18.01 2841.98
   17:57:04.497.16-Jul-2020 4229.01 6975.37 79.85 4.00  18.21 2841.98
   17:57:04.697.16-Jul-2020 4229.01 6974.62 79.85 4.00  18.41 2841.98
   17:57:04.897.16-Jul-2020 4229.01 6975.13 79.85 4.00  18.61 2841.98
   17:57:05.097.16-Jul-2020 4229.01 6976.72 79.84 4.00  18.81 2841.98
   17:57:05.297.16-Jul-2020 4229.01 6976.66 79.84 4.00  19.01 2841.98
   17:57:05.497.16-Jul-2020 4229.01 6976.66 79.84 4.00  19.21 2841.98
   17:57:05.698.16-Jul-2020 4229.01 6976.47 79.84 4.00  19.41 2841.98
   17:57:05.898.16-Jul-2020 4229.01 6978.53 79.84 4.00  19.61 2841.98
   17:57:06.098.16-Jul-2020 4229.01 6978.95 79.84 4.00  19.81 2841.98
   17:57:06.298.16-Jul-2020 4229.01 6980.26 79.84 4.00  20.01 2841.98
   17:57:06.498.16-Jul-2020 4229.01 6990.77 79.84 4.00  20.21 2841.98
   17:57:06.698.16-Jul-2020 4229.01 6975.19 79.84 4.00  20.41 2841.98
   17:57:06.898.16-Jul-2020 4229.01 6982.49 79.84 4.00  20.61 2841.98
   17:57:07.098.16-Jul-2020 4229.01 6978.70 79.84 4.00  20.81 2841.98
   17:57:07.298.16-Jul-2020 4229.01 6988.97 79.84 4.00  21.01 2841.98
   17:57:07.498.16-Jul-2020 4229.01 6977.23 79.84 4.00  21.21 2841.98
   17:57:07.698.16-Jul-2020 4229.01 6983.90 79.84 4.00  21.41 2841.98
   17:57:07.898.16-Jul-2020 4229.01 6981.86 79.84 4.00  21.61 2841.98
   17:57:08.099.16-Jul-2020 4229.01 6997.40 79.84 4.00  21.81 2841.98
   17:57:08.299.16-Jul-2020 4229.01 6975.61 79.84 4.00  22.01 2841.98
   17:57:08.499.16-Jul-2020 4229.01 6975.61 79.84 4.00  22.21 2841.98
   17:57:08.699.16-Jul-2020 4229.01 6980.82 79.84 4.00  22.41 2841.98
   17:57:08.899.16-Jul-2020 4229.01 6982.63 79.84 4.00  22.61 2841.98
   17:57:09.099.16-Jul-2020 4229.01 6981.73 79.84 4.00  22.81 2841.98
