~Version Information
 VERS.                  2.0:   CWLS log ASCII Standard -VERSION 2.0
 WRAP.                   NO:   One line per depth step
~Well Information Block
#MNEM.UNIT     VALUE/NAME     DESCRIPTION
#---------     -----------    ---------------------------
 STRT.S             21:08:23 16-Jul-20: START TIME 21:08:23 16-Jul-20
 STOP.S             21:15:15 16-Jul-20: STOP TIME  21:15:15 16-Jul-20
 STEP.S                   0.00: STEP TIME
 NULL.                 -999.25: NULL VALUE
 MDS .        Operator Entered:  MAG DATA SOURCE
 UNIT.                     N/A:  LOGGING EQUIPMENT ID
 DCON.         Sperry Drilling:  DIRECTNL CONTR
 DOE .                     N/A:  DOE NUMBER
 RIG .               EastAzeri:  RIG NAME
 JOBN.        AZ-XX-0906363297:  JOB TICKET NUMB
 MWDS.                    Baku:  MWD SHOP
 SRVC.     Turan Drilling & Engineering:  CONTRACTOR
 PROV.                    Baku:  PROVINCE
 STAT.                    Baku:  STATE NAME
 REGN.                   EESSA:  REGION
 BASE.              Azerbaijan:  LOGGING EQUIPMENT BASE LOCATION
 WTYP.                Deviated:  WELL TYPE
 UWI .                     N/A:  UNIQUE WELL IDENTIFIER
 API .                     N/A:  API NUMBER
 COMP.     BP Exploration (Caspian Sea) ltd.:  COMPANY
 WELL.                    D07z:  WELL NAME
 CTRY.              Azerbaijan:  COUNTRY NAME
 SON .        AZ-XX-0906363297:  JOB NUMBER
 FLD .                     ACG:  FIELD NAME
 PDAT.          Mean Sea Level:  PERMANENT DATUM
 FTOP.          Formation Tops:  FORM TOPS DESC
 ILTD.               Lithology:  INTERP LTH DESC
 SVYD.                  Survey:  SURVEY DESC
 DMOD.             Drill Model:  DRILL MOD DESC
 HPTY.       Minimum Curvature:  HOLE POS TYPE
 NREF.                    Grid:  NORTH REFERENCE
 SPUD.               28-Jun-20:  SPUD DATE
 DATE.      18.27.12 28-Jun-20:  END TIME
 STIM.      18.27.12 28-Jun-20:  START TIME
 DMF .             Drill Floor:  DRILL MEAS FROM
 DFST.                        :  DIST FSL TEXT
 DFWT.                        :  DIST FWL TEXT
 CNTY.                        :  COUNTY
 LOC .                        :  LOCATION
 LMF .             Drill Floor:  LOG MEASURED FROM
 VSNS.m                  -7.75:  VERT SEC N/S
 VSEW.m                  -9.19:  VERT SEC E/W
 MMDE.m                   0.00:  MAGUTM CALC DEP
 AGAP.m                  43.60:  AIR GAP
 DEP .m                4058.99:  DEPTH
 APD .m                  43.60:  DEPTH ABOVE PD
 WDMS.m                 151.80:  WD ELEV
 EGL .m                   0.00:  GROUND ELEVATION
 EPD .m                   0.00:  ELEVATION
 AZTC.deg                 6.19:  AZM TOTAL CORR
 GRDC.deg                 0.27:  GRID CORRECTION
 MDEC.deg                 6.46:  MAGNETIC DECL
 MDIP.deg                59.47:  MAGNETIC DIP
 MFLD.nT              50279.00:  MAGNETIC FIELD
 GVFD.g                   1.00:  GRAVITY FIELD
 VSDR.deg               249.96:  VERT SEC DIRECT
 TDD .m                   0.00:  TOTAL DEPTH (DRILLER)
 SDEP.m                   0.00:  START DEPTH
 DFSL.m                   0.00:  DISTANCE FSL
 DFWL.m                   0.00:  DISTANCE FWL
 UTMY.m             4431880.20:  UTM Y
 UTMX.m              538763.98:  UTM X
 WHEW.m                  -9.19:  WELL HEAD E/W
 WHNS.m                  -7.75:  WELL HEAD N/S
 LONG.deg                51.45:  LONGITUDE
 LATI.deg                40.02:  LATITUDE
 TVDS.m                  43.60:  TVDSS CORRECTN
 EKB .m                  43.60:  KB ELEVATION
 EDF .m                  43.60:  DF ELEVATION
 TDL .m                 248.00:  TOTAL DEPTH (LOGGER)
 MAGU.                 1849075:  MAGUTM CHECKSUM
 VSC .                       0:  VS TO CLOSURE
~Parameter Information Block
#MNEM.UNIT       Value        Description
#---------     -----------    ---------------------------
 AV  .mps                 6.34:  Ann Velocity 
 AVMX.mps                 7.00:  Max Ann Veloc 
 AZIF.deg               260.29:  Azm, Final 
 BHAT.        Rotary Steerable:  BHA Type 
 BROT.°/30m               1.20:  Build Rotating 
 BS  .in                  8.50:  Bit Size 
 BSZ .in                  8.50:  Bit Size 
 BTPL.psig              620.00:  Bit Press Loss 
 CABU.                     Yes:  Customer Abuse 
 COMM.                     Äá„:  Run Comments 1 
 TCS .hr                 56.22:  Time Ciculation Ended 
 CV  .mps                 3.05:  Crit Velocity 
 CVMX.mps                 3.20:  Max Crit Veloc 
 DD1 .            Musa Ahmadov:  Direct Drillr 1 
 DDSV.                 iCruise:  DD Service 
 DEFF.%                  98.00:  % Det Eff 
 DLRX.°/30m               2.78:  Dogleg Rot Max 
 DLSO.°/30m               0.00:  Dogleg Oriented 
 DLSX.°/30m               0.00:  Dogleg Str Max 
 DRET.      05.20.48 16-Jul-20:  Drill End Time 
 DRST.      10.20.48 13-Jul-20:  Drill Start Tim 
 DTIM.hr                 14.25:  Time Drilling 
 EDEP.m                4326.01:  End Depth 
 ENG1.      Artemiy Matviyanov:  Engineer 1 
 ENG2.           Amrah Tahirov:  Engineer 2 
 ETIM.      22.30.00 18-Jul-20:  End Time 
 FLOI.gpm               550.00:  Flow In 
 FLON.gpm               450.00:  Flow In Min 
 FLOS.cptm                0.00:  Fluid Loss 
 FLOX.gpm               600.00:  Flow In Max 
 HFLO.                      No:  High Flow 
 HPRE.                      No:  High Pressure 
 HTEM.                      No:  High Temp 
 HYDO.m                   1.80:  Hydro Offset 
 IFIN.deg                65.41:  Inc, Final 
 IMAX.deg                65.14:  Inc Max 
 IMIN.deg                58.89:  Inc Min 
 IMND.m                4104.92:  Inc Min Depth 
 IMXD.m                4303.89:  Inc Max Depth 
 JARR.                      No:  Jarring 
 LETM.      10.20.48 17-Jul-20:  Log End Time 
 LOST.hr                     0:  Lost Rig Time 
 LSTM.      10.20.48 13-Jul-20:  Log Start Time 
 MDCL.ppm             37000.00:  Mud Chlorides 
 MDES.     Inversion Oil/Synthetic:  Mud Desc 
 DFD .sg                  1.52:  Mud Density 
 MDMN.sg                  1.52:  Dens Mud Min 
 MDMX.sg                  1.52:  Dens Mud Max 
 MOIL.                   52.70:  Run Mud Oil % 
 MOWR.                   68:32:  Run Mud OWR 
 MSND.                     0.2:  Run Mud Sand % 
 MSOL.                    21.6:  Run Mud Solids% 
 DFV .spqt               79.00:  Mud Viscosity 
 MWOD.in                  6.75:  MWD Tool OD 
 MWSI.                      No:  Serv Intrp, MWD 
 OTIM.hr                114.04:  Time Operating 
 PCON.          Wear / Scratch:  Pad Condition 
 PMAX.psia            11782.92:  Press Op, Max 
 PV  .cP                 49.00:  Mud PV 
 RUN .                     600:  Run Number 
 ROPA.m/hr               20.00:  ROP Avg 
 ROPN.m/hr               15.00:  ROP Min 
 ROPX.m/hr               22.00:  ROP Max 
 RPMA.rpm               120.00:  RPM Surface Avg 
 RPMN.rpm                90.00:  RPM Surface Min 
 RPMX.rpm               140.00:  RPM Surface Max 
 RRUN.                     600:  Rig Run Number 
 SAZI.deg               260.29:  Azm, Start 
 SDEP.m                4078.01:  Start Depth 
 SIDD.                      No:  Serv Intrp, DD 
 SINC.deg                58.89:  Inc, Start 
 SPPA.psig             4560.00:  SPP Avg 
 SPPN.psig             3600.00:  SPP Min 
 SPPX.psig             4800.00:  SPP Max 
 STIM.      10.20.48 13-Jul-20:  Start Time 
 SVCS.                 DD, MWD:  Services 
 SVER.                    9.20:  Sperry Version 
 TDAT.m                4378.01:  Tot Depth Attmp 
 TDDF.                      No:  Trip for DD 
 TDLG.m                 248.00:  Tot Depth Loggd 
 TFF .                      No:  Trip for Fail 
 TQAA.f-kp               18.00:  Torque Abs Avg 
 TQAN.f-kp               15.00:  Torque Abs Min 
 TQAX.f-kp               20.00:  Torque Abs Max 
 TRRT.°/30m               0.70:  Turn Rotating 
 MRT .                    HCIM:  Maximum Recorded Temperature 
 TTMX.degC               86.00:  Max Tool Temp 
 WBMN.klb                 3.00:  WOB Min 
 WOBA.klb                 5.00:  WOB Avg 
 WOBX.klb                 9.00:  WOB Max 
 YP  .lhf2               32.00:  Yield Point 
~Curve Information Block
#MNEM.UNIT                 API CODE     Curve Description
#---------               -----------    ---------------------------
 TIME.HHMMSS            00 000 000 000:  GT Time & Date
 GTDEPTH.m              00 000 000 000:  GT Depth
 GTPQH.psia             00 000 000 000:  GT HR Quartz Pressure
 GTTQ.degC              00 000 000 000:  GT Quartz Temperature
 GTTN.NONE              00 000 000 000:  GT Test Number
 GTET.sec               00 000 000 000:  GT Elapsed Test Time
 GTTVD.m                00 000 000 000:  GT True Vertical Depth
#Other Information
#
#WARRANTY: Halliburton will use its best efforts to furnish customers with 
#accurate information and interpretations that are part of, and incident to, the services 
#provided.  However, Halliburton cannot and does not warrant the accuracy 
#or correctness of such information and interpretations.  Under no circumstances should any 
#such information or interpretation be relied upon as the sole basis for any drilling, 
#completion, production, or financial decision or any procedure involving any risk to the 
#safety of any drilling venture, drilling rig or its crew or any other third party.  The 
#Customer has full responsibility for all drilling, completion and production operation.  
#Halliburton makes no representations or warranties, either expressed or 
#implied, including, but not limited to, the implied warranties of merchantability or fitness 
#for a particular purpose, with respect to the services rendered.  In no event will 
#Halliburton be liable for failure to obtain any particular results or for 
#any damages, including, but not limited to, indirect, special or consequential damages, 
#resulting from the use of any information or interpretation provided by Halliburton.
#
~A           TIME           GTDEPTH  GTPQH  GTTQ  GTTN  GTET   GTTVD  
# ...
   21:12:59.174.16-Jul-2020 4135.51 4700.06 77.12 7.00 276.16 2799.87
   21:12:59.374.16-Jul-2020 4135.51 4700.06 77.12 7.00 276.36 2799.87
   21:12:59.574.16-Jul-2020 4135.51 4700.05 77.12 7.00 276.56 2799.87
   21:12:59.774.16-Jul-2020 4135.51 4700.06 77.12 7.00 276.76 2799.87
   21:12:59.974.16-Jul-2020 4135.51 4700.03 77.12 7.00 276.96 2799.87
   21:13:00.174.16-Jul-2020 4135.51 4700.07 77.12 7.00 277.16 2799.87
   21:13:00.374.16-Jul-2020 4135.51 4700.07 77.12 7.00 277.36 2799.87
   21:13:00.574.16-Jul-2020 4135.51 4700.04 77.12 7.00 277.56 2799.87
   21:13:00.775.16-Jul-2020 4135.51 4700.06 77.12 7.00 277.76 2799.87
   21:13:00.975.16-Jul-2020 4135.51 4699.96 77.12 7.00 277.96 2799.87
   21:13:01.175.16-Jul-2020 4135.51 4700.13 77.12 7.00 278.16 2799.87
   21:13:01.375.16-Jul-2020 4135.51 4700.05 77.12 7.00 278.36 2799.87
   21:13:01.575.16-Jul-2020 4135.51 4700.10 77.12 7.00 278.56 2799.87
   21:13:01.775.16-Jul-2020 4135.51 4700.12 77.12 7.00 278.76 2799.87
   21:13:01.975.16-Jul-2020 4135.51 4700.02 77.12 7.00 278.96 2799.87
   21:13:02.175.16-Jul-2020 4135.51 4700.03 77.12 7.00 279.16 2799.87
   21:13:02.375.16-Jul-2020 4135.51 4700.03 77.12 7.00 279.36 2799.87
   21:13:02.576.16-Jul-2020 4135.51 4700.06 77.12 7.00 279.56 2799.87
   21:13:02.776.16-Jul-2020 4135.51 4700.04 77.12 7.00 279.76 2799.87
   21:13:02.976.16-Jul-2020 4135.51 4700.04 77.12 7.00 279.96 2799.87
   21:13:03.176.16-Jul-2020 4135.51 4700.13 77.12 7.00 280.16 2799.87
   21:13:03.376.16-Jul-2020 4135.51 4700.13 77.12 7.00 280.36 2799.87
   21:13:03.576.16-Jul-2020 4135.51 4700.13 77.12 7.00 280.56 2799.87
   21:13:03.776.16-Jul-2020 4135.51 4700.05 77.12 7.00 280.76 2799.87
   21:13:03.976.16-Jul-2020 4135.51 4700.17 77.12 7.00 280.96 2799.87
   21:13:04.176.16-Jul-2020 4135.51 4699.97 77.12 7.00 281.16 2799.87
   21:13:04.377.16-Jul-2020 4135.51 4699.97 77.12 7.00 281.36 2799.87
   21:13:04.577.16-Jul-2020 4135.51 4700.07 77.12 7.00 281.56 2799.87
   21:13:04.777.16-Jul-2020 4135.51 4700.04 77.12 7.00 281.76 2799.87
   21:13:04.977.16-Jul-2020 4135.51 4700.05 77.12 7.00 281.96 2799.87
   21:13:05.177.16-Jul-2020 4135.51 4700.05 77.12 7.00 282.16 2799.87
   21:13:05.377.16-Jul-2020 4135.51 4700.04 77.12 7.00 282.36 2799.87
   21:13:05.577.16-Jul-2020 4135.51 4700.06 77.12 7.00 282.56 2799.87
   21:13:05.777.16-Jul-2020 4135.51 4700.06 77.12 7.00 282.76 2799.87
   21:13:05.977.16-Jul-2020 4135.51 4700.05 77.12 7.00 282.96 2799.87
   21:13:06.178.16-Jul-2020 4135.51 4700.06 77.12 7.00 283.16 2799.87
   21:13:06.378.16-Jul-2020 4135.51 4700.06 77.12 7.00 283.36 2799.87
   21:13:06.578.16-Jul-2020 4135.51 4700.08 77.12 7.00 283.56 2799.87
   21:13:06.778.16-Jul-2020 4135.51 4700.07 77.12 7.00 283.76 2799.87
   21:13:06.978.16-Jul-2020 4135.51 4700.05 77.12 7.00 283.96 2799.87
   21:13:07.178.16-Jul-2020 4135.51 4700.05 77.12 7.00 284.16 2799.87
   21:13:07.378.16-Jul-2020 4135.51 4700.05 77.12 7.00 284.36 2799.87
   21:13:07.578.16-Jul-2020 4135.51 4700.07 77.12 7.00 284.56 2799.87
   21:13:07.779.16-Jul-2020 4135.51 4700.05 77.12 7.00 284.76 2799.87
   21:13:07.979.16-Jul-2020 4135.51 4700.05 77.12 7.00 284.96 2799.87
   21:13:08.179.16-Jul-2020 4135.51 4700.06 77.12 7.00 285.16 2799.87
   21:13:08.379.16-Jul-2020 4135.51 4700.06 77.12 7.00 285.36 2799.87
   21:13:08.579.16-Jul-2020 4135.51 4700.08 77.12 7.00 285.56 2799.87
   21:13:08.779.16-Jul-2020 4135.51 4700.05 77.12 7.00 285.76 2799.87
   21:13:08.979.16-Jul-2020 4135.51 4700.05 77.12 7.00 285.96 2799.87
   21:13:09.179.16-Jul-2020 4135.51 4700.06 77.12 7.00 286.16 2799.87
   21:13:09.379.16-Jul-2020 4135.51 4700.06 77.12 7.00 286.36 2799.87
   21:13:09.580.16-Jul-2020 4135.51 4700.04 77.12 7.00 286.56 2799.87
   21:13:09.780.16-Jul-2020 4135.51 4700.10 77.12 7.00 286.76 2799.87
   21:13:09.980.16-Jul-2020 4135.51 4700.06 77.12 7.00 286.96 2799.87
   21:13:10.180.16-Jul-2020 4135.51 4700.06 77.12 7.00 287.16 2799.87
   21:13:10.380.16-Jul-2020 4135.51 4700.06 77.12 7.00 287.36 2799.87
   21:13:10.580.16-Jul-2020 4135.51 4700.06 77.12 7.00 287.56 2799.87
   21:13:10.780.16-Jul-2020 4135.51 4700.07 77.12 7.00 287.76 2799.87
   21:13:10.980.16-Jul-2020 4135.51 4700.07 77.12 7.00 287.96 2799.87
   21:13:11.180.16-Jul-2020 4135.51 4700.06 77.12 7.00 288.16 2799.87
   21:13:11.381.16-Jul-2020 4135.51 4700.06 77.12 7.00 288.36 2799.87
   21:13:11.581.16-Jul-2020 4135.51 4700.07 77.12 7.00 288.56 2799.87
   21:13:11.781.16-Jul-2020 4135.51 4700.07 77.12 7.00 288.76 2799.87
   21:13:11.981.16-Jul-2020 4135.51 4700.06 77.12 7.00 288.96 2799.87
   21:13:12.181.16-Jul-2020 4135.51 4700.06 77.12 7.00 289.16 2799.87
   21:13:12.381.16-Jul-2020 4135.51 4700.06 77.12 7.00 289.36 2799.87
   21:13:12.581.16-Jul-2020 4135.51 4700.06 77.12 7.00 289.56 2799.87
   21:13:12.781.16-Jul-2020 4135.51 4700.04 77.12 7.00 289.76 2799.87
   21:13:12.981.16-Jul-2020 4135.51 4700.07 77.12 7.00 289.96 2799.87
   21:13:13.182.16-Jul-2020 4135.51 4700.06 77.12 7.00 290.16 2799.87
   21:13:13.382.16-Jul-2020 4135.51 4700.06 77.12 7.00 290.36 2799.87
   21:13:13.582.16-Jul-2020 4135.51 4700.06 77.12 7.00 290.56 2799.87
   21:13:13.782.16-Jul-2020 4135.51 4700.04 77.12 7.00 290.76 2799.87
   21:13:13.982.16-Jul-2020 4135.51 4700.07 77.12 7.00 290.96 2799.87
   21:13:14.182.16-Jul-2020 4135.51 4700.05 77.12 7.00 291.17 2799.87
   21:13:14.382.16-Jul-2020 4135.51 4700.05 77.12 7.00 291.37 2799.87
   21:13:14.582.16-Jul-2020 4135.51 4700.04 77.12 7.00 291.57 2799.87
   21:13:14.782.16-Jul-2020 4135.51 4700.07 77.12 7.00 291.77 2799.87
   21:13:14.983.16-Jul-2020 4135.51 4700.04 77.12 7.00 291.97 2799.87
   21:13:15.183.16-Jul-2020 4135.51 4700.07 77.12 7.00 292.17 2799.87
   21:13:15.383.16-Jul-2020 4135.51 4700.07 77.12 7.00 292.37 2799.87
   21:13:15.583.16-Jul-2020 4135.51 4699.97 77.12 7.00 292.57 2799.87
   21:13:15.783.16-Jul-2020 4135.51 4700.07 77.12 7.00 292.77 2799.87
   21:13:15.983.16-Jul-2020 4135.51 4700.04 77.12 7.00 292.97 2799.87
   21:13:16.183.16-Jul-2020 4135.51 4700.06 77.12 7.00 293.17 2799.87
   21:13:16.383.16-Jul-2020 4135.51 4700.06 77.12 7.00 293.37 2799.87
   21:13:16.584.16-Jul-2020 4135.51 4700.07 77.12 7.00 293.57 2799.87
   21:13:16.784.16-Jul-2020 4135.51 4700.05 77.12 7.00 293.77 2799.87
   21:13:16.984.16-Jul-2020 4135.51 4700.06 77.12 7.00 293.97 2799.87
   21:13:17.184.16-Jul-2020 4135.51 4700.05 77.12 7.00 294.17 2799.87
   21:13:17.384.16-Jul-2020 4135.51 4700.05 77.12 7.00 294.37 2799.87
   21:13:17.584.16-Jul-2020 4135.51 4700.07 77.12 7.00 294.57 2799.87
   21:13:17.784.16-Jul-2020 4135.51 4700.06 77.12 7.00 294.77 2799.87
   21:13:17.984.16-Jul-2020 4135.51 4700.07 77.12 7.00 294.97 2799.87
   21:13:18.184.16-Jul-2020 4135.51 4700.04 77.12 7.00 295.17 2799.87
   21:13:18.385.16-Jul-2020 4135.51 4700.04 77.12 7.00 295.37 2799.87
   21:13:18.585.16-Jul-2020 4135.51 4700.16 77.12 7.00 295.57 2799.87
   21:13:18.785.16-Jul-2020 4135.51 4699.99 77.12 7.00 295.77 2799.87
   21:13:18.985.16-Jul-2020 4135.51 4700.06 77.12 7.00 295.97 2799.87
   21:13:19.185.16-Jul-2020 4135.51 4699.98 77.12 7.00 296.17 2799.87
   21:13:19.385.16-Jul-2020 4135.51 4699.98 77.12 7.00 296.37 2799.87
   21:13:19.585.16-Jul-2020 4135.51 4700.05 77.12 7.00 296.57 2799.87
   21:13:19.785.16-Jul-2020 4135.51 4700.10 77.12 7.00 296.77 2799.87
   21:13:19.985.16-Jul-2020 4135.51 4700.03 77.12 7.00 296.97 2799.87
   21:13:20.186.16-Jul-2020 4135.51 4700.07 77.12 7.00 297.17 2799.87
   21:13:20.386.16-Jul-2020 4135.51 4700.07 77.12 7.00 297.37 2799.87
   21:13:20.586.16-Jul-2020 4135.51 4700.18 77.12 7.00 297.57 2799.87
   21:13:20.786.16-Jul-2020 4135.51 4700.02 77.12 7.00 297.77 2799.87
   21:13:20.986.16-Jul-2020 4135.51 4700.02 77.12 7.00 297.97 2799.87
   21:13:21.186.16-Jul-2020 4135.51 4700.09 77.12 7.00 298.17 2799.87
   21:13:21.386.16-Jul-2020 4135.51 4699.94 77.12 7.00 298.37 2799.87
   21:13:21.586.16-Jul-2020 4135.51 4700.13 77.12 7.00 298.57 2799.87
   21:13:21.786.16-Jul-2020 4135.51 4700.07 77.12 7.00 298.77 2799.87
   21:13:21.987.16-Jul-2020 4135.51 4700.06 77.12 7.00 298.97 2799.87
