~Version Information
 VERS.                  2.0:   CWLS log ASCII Standard -VERSION 2.0
 WRAP.                   NO:   One line per depth step
~Well Information Block
#MNEM.UNIT     VALUE/NAME     DESCRIPTION
#---------     -----------    ---------------------------
 STRT.S             19:19:02 16-Jul-20: START TIME 19:19:02 16-Jul-20
 STOP.S             19:25:52 16-Jul-20: STOP TIME  19:25:52 16-Jul-20
 STEP.S                   0.00: STEP TIME
 NULL.                 -999.25: NULL VALUE
 MDS .        Operator Entered:  MAG DATA SOURCE
 UNIT.                     N/A:  LOGGING EQUIPMENT ID
 DCON.         Sperry Drilling:  DIRECTNL CONTR
 DOE .                     N/A:  DOE NUMBER
 RIG .               EastAzeri:  RIG NAME
 JOBN.        AZ-XX-0906363297:  JOB TICKET NUMB
 MWDS.                    Baku:  MWD SHOP
 SRVC.     Turan Drilling & Engineering:  CONTRACTOR
 PROV.                    Baku:  PROVINCE
 STAT.                    Baku:  STATE NAME
 REGN.                   EESSA:  REGION
 BASE.              Azerbaijan:  LOGGING EQUIPMENT BASE LOCATION
 WTYP.                Deviated:  WELL TYPE
 UWI .                     N/A:  UNIQUE WELL IDENTIFIER
 API .                     N/A:  API NUMBER
 COMP.     BP Exploration (Caspian Sea) ltd.:  COMPANY
 WELL.                    D07z:  WELL NAME
 CTRY.              Azerbaijan:  COUNTRY NAME
 SON .        AZ-XX-0906363297:  JOB NUMBER
 FLD .                     ACG:  FIELD NAME
 PDAT.          Mean Sea Level:  PERMANENT DATUM
 FTOP.          Formation Tops:  FORM TOPS DESC
 ILTD.               Lithology:  INTERP LTH DESC
 SVYD.                  Survey:  SURVEY DESC
 DMOD.             Drill Model:  DRILL MOD DESC
 HPTY.       Minimum Curvature:  HOLE POS TYPE
 NREF.                    Grid:  NORTH REFERENCE
 SPUD.               28-Jun-20:  SPUD DATE
 DATE.      18.27.12 28-Jun-20:  END TIME
 STIM.      18.27.12 28-Jun-20:  START TIME
 DMF .             Drill Floor:  DRILL MEAS FROM
 DFST.                        :  DIST FSL TEXT
 DFWT.                        :  DIST FWL TEXT
 CNTY.                        :  COUNTY
 LOC .                        :  LOCATION
 LMF .             Drill Floor:  LOG MEASURED FROM
 VSNS.m                  -7.75:  VERT SEC N/S
 VSEW.m                  -9.19:  VERT SEC E/W
 MMDE.m                   0.00:  MAGUTM CALC DEP
 AGAP.m                  43.60:  AIR GAP
 DEP .m                4058.99:  DEPTH
 APD .m                  43.60:  DEPTH ABOVE PD
 WDMS.m                 151.80:  WD ELEV
 EGL .m                   0.00:  GROUND ELEVATION
 EPD .m                   0.00:  ELEVATION
 AZTC.deg                 6.19:  AZM TOTAL CORR
 GRDC.deg                 0.27:  GRID CORRECTION
 MDEC.deg                 6.46:  MAGNETIC DECL
 MDIP.deg                59.47:  MAGNETIC DIP
 MFLD.nT              50279.00:  MAGNETIC FIELD
 GVFD.g                   1.00:  GRAVITY FIELD
 VSDR.deg               249.96:  VERT SEC DIRECT
 TDD .m                   0.00:  TOTAL DEPTH (DRILLER)
 SDEP.m                   0.00:  START DEPTH
 DFSL.m                   0.00:  DISTANCE FSL
 DFWL.m                   0.00:  DISTANCE FWL
 UTMY.m             4431880.20:  UTM Y
 UTMX.m              538763.98:  UTM X
 WHEW.m                  -9.19:  WELL HEAD E/W
 WHNS.m                  -7.75:  WELL HEAD N/S
 LONG.deg                51.45:  LONGITUDE
 LATI.deg                40.02:  LATITUDE
 TVDS.m                  43.60:  TVDSS CORRECTN
 EKB .m                  43.60:  KB ELEVATION
 EDF .m                  43.60:  DF ELEVATION
 TDL .m                 248.00:  TOTAL DEPTH (LOGGER)
 MAGU.                 1849075:  MAGUTM CHECKSUM
 VSC .                       0:  VS TO CLOSURE
~Parameter Information Block
#MNEM.UNIT       Value        Description
#---------     -----------    ---------------------------
 AV  .mps                 6.34:  Ann Velocity 
 AVMX.mps                 7.00:  Max Ann Veloc 
 AZIF.deg               260.29:  Azm, Final 
 BHAT.        Rotary Steerable:  BHA Type 
 BROT.°/30m               1.20:  Build Rotating 
 BS  .in                  8.50:  Bit Size 
 BSZ .in                  8.50:  Bit Size 
 BTPL.psig              620.00:  Bit Press Loss 
 CABU.                     Yes:  Customer Abuse 
 COMM.                     d)s:  Run Comments 1 
 TCS .hr                 56.22:  Time Ciculation Ended 
 CV  .mps                 3.05:  Crit Velocity 
 CVMX.mps                 3.20:  Max Crit Veloc 
 DD1 .            Musa Ahmadov:  Direct Drillr 1 
 DDSV.                 iCruise:  DD Service 
 DEFF.%                  98.00:  % Det Eff 
 DLRX.°/30m               2.78:  Dogleg Rot Max 
 DLSO.°/30m               0.00:  Dogleg Oriented 
 DLSX.°/30m               0.00:  Dogleg Str Max 
 DRET.      05.20.48 16-Jul-20:  Drill End Time 
 DRST.      10.20.48 13-Jul-20:  Drill Start Tim 
 DTIM.hr                 14.25:  Time Drilling 
 EDEP.m                4326.01:  End Depth 
 ENG1.      Artemiy Matviyanov:  Engineer 1 
 ENG2.           Amrah Tahirov:  Engineer 2 
 ETIM.      22.30.00 18-Jul-20:  End Time 
 FLOI.gpm               550.00:  Flow In 
 FLON.gpm               450.00:  Flow In Min 
 FLOS.cptm                0.00:  Fluid Loss 
 FLOX.gpm               600.00:  Flow In Max 
 HFLO.                      No:  High Flow 
 HPRE.                      No:  High Pressure 
 HTEM.                      No:  High Temp 
 HYDO.m                   1.80:  Hydro Offset 
 IFIN.deg                65.41:  Inc, Final 
 IMAX.deg                65.14:  Inc Max 
 IMIN.deg                58.89:  Inc Min 
 IMND.m                4104.92:  Inc Min Depth 
 IMXD.m                4303.89:  Inc Max Depth 
 JARR.                      No:  Jarring 
 LETM.      10.20.48 17-Jul-20:  Log End Time 
 LOST.hr                     0:  Lost Rig Time 
 LSTM.      10.20.48 13-Jul-20:  Log Start Time 
 MDCL.ppm             37000.00:  Mud Chlorides 
 MDES.     Inversion Oil/Synthetic:  Mud Desc 
 DFD .sg                  1.52:  Mud Density 
 MDMN.sg                  1.52:  Dens Mud Min 
 MDMX.sg                  1.52:  Dens Mud Max 
 MOIL.                   52.70:  Run Mud Oil % 
 MOWR.                   68:32:  Run Mud OWR 
 MSND.                     0.2:  Run Mud Sand % 
 MSOL.                    21.6:  Run Mud Solids% 
 DFV .spqt               79.00:  Mud Viscosity 
 MWOD.in                  6.75:  MWD Tool OD 
 MWSI.                      No:  Serv Intrp, MWD 
 OTIM.hr                114.04:  Time Operating 
 PCON.          Wear / Scratch:  Pad Condition 
 PMAX.psia            11782.92:  Press Op, Max 
 PV  .cP                 49.00:  Mud PV 
 RUN .                     600:  Run Number 
 ROPA.m/hr               20.00:  ROP Avg 
 ROPN.m/hr               15.00:  ROP Min 
 ROPX.m/hr               22.00:  ROP Max 
 RPMA.rpm               120.00:  RPM Surface Avg 
 RPMN.rpm                90.00:  RPM Surface Min 
 RPMX.rpm               140.00:  RPM Surface Max 
 RRUN.                     600:  Rig Run Number 
 SAZI.deg               260.29:  Azm, Start 
 SDEP.m                4078.01:  Start Depth 
 SIDD.                      No:  Serv Intrp, DD 
 SINC.deg                58.89:  Inc, Start 
 SPPA.psig             4560.00:  SPP Avg 
 SPPN.psig             3600.00:  SPP Min 
 SPPX.psig             4800.00:  SPP Max 
 STIM.      10.20.48 13-Jul-20:  Start Time 
 SVCS.                 DD, MWD:  Services 
 SVER.                    9.20:  Sperry Version 
 TDAT.m                4378.01:  Tot Depth Attmp 
 TDDF.                      No:  Trip for DD 
 TDLG.m                 248.00:  Tot Depth Loggd 
 TFF .                      No:  Trip for Fail 
 TQAA.f-kp               18.00:  Torque Abs Avg 
 TQAN.f-kp               15.00:  Torque Abs Min 
 TQAX.f-kp               20.00:  Torque Abs Max 
 TRRT.°/30m               0.70:  Turn Rotating 
 MRT .                    HCIM:  Maximum Recorded Temperature 
 TTMX.degC               86.00:  Max Tool Temp 
 WBMN.klb                 3.00:  WOB Min 
 WOBA.klb                 5.00:  WOB Avg 
 WOBX.klb                 9.00:  WOB Max 
 YP  .lhf2               32.00:  Yield Point 
~Curve Information Block
#MNEM.UNIT                 API CODE     Curve Description
#---------               -----------    ---------------------------
 TIME.HHMMSS            00 000 000 000:  GT Time & Date
 GTDEPTH.m              00 000 000 000:  GT Depth
 GTPQH.psia             00 000 000 000:  GT HR Quartz Pressure
 GTTQ.degC              00 000 000 000:  GT Quartz Temperature
 GTTN.NONE              00 000 000 000:  GT Test Number
 GTET.sec               00 000 000 000:  GT Elapsed Test Time
 GTTVD.m                00 000 000 000:  GT True Vertical Depth
#Other Information
#
#WARRANTY: Halliburton will use its best efforts to furnish customers with 
#accurate information and interpretations that are part of, and incident to, the services 
#provided.  However, Halliburton cannot and does not warrant the accuracy 
#or correctness of such information and interpretations.  Under no circumstances should any 
#such information or interpretation be relied upon as the sole basis for any drilling, 
#completion, production, or financial decision or any procedure involving any risk to the 
#safety of any drilling venture, drilling rig or its crew or any other third party.  The 
#Customer has full responsibility for all drilling, completion and production operation.  
#Halliburton makes no representations or warranties, either expressed or 
#implied, including, but not limited to, the implied warranties of merchantability or fitness 
#for a particular purpose, with respect to the services rendered.  In no event will 
#Halliburton be liable for failure to obtain any particular results or for 
#any damages, including, but not limited to, indirect, special or consequential damages, 
#resulting from the use of any information or interpretation provided by Halliburton.
#
~A           TIME           GTDEPTH  GTPQH  GTTQ  GTTN  GTET   GTTVD  
# ...
   19:23:38.425.16-Jul-2020 4190.01 4791.49 79.02 6.00 276.12 2825.02
   19:23:38.625.16-Jul-2020 4190.01 4791.45 79.02 6.00 276.32 2825.02
   19:23:38.825.16-Jul-2020 4190.01 4791.49 79.02 6.00 276.52 2825.02
   19:23:39.025.16-Jul-2020 4190.01 4791.67 79.02 6.00 276.72 2825.02
   19:23:39.225.16-Jul-2020 4190.01 4791.43 79.02 6.00 276.92 2825.02
   19:23:39.425.16-Jul-2020 4190.01 4791.49 79.02 6.00 277.12 2825.02
   19:23:39.625.16-Jul-2020 4190.01 4791.49 79.02 6.00 277.32 2825.02
   19:23:39.825.16-Jul-2020 4190.01 4791.44 79.02 6.00 277.52 2825.02
   19:23:40.025.16-Jul-2020 4190.01 4791.60 79.02 6.00 277.72 2825.02
   19:23:40.226.16-Jul-2020 4190.01 4791.51 79.02 6.00 277.92 2825.02
   19:23:40.426.16-Jul-2020 4190.01 4791.48 79.02 6.00 278.12 2825.02
   19:23:40.626.16-Jul-2020 4190.01 4791.53 79.02 6.00 278.32 2825.02
   19:23:40.826.16-Jul-2020 4190.01 4791.45 79.02 6.00 278.53 2825.02
   19:23:41.026.16-Jul-2020 4190.01 4791.49 79.02 6.00 278.73 2825.02
   19:23:41.226.16-Jul-2020 4190.01 4791.50 79.02 6.00 278.93 2825.02
   19:23:41.426.16-Jul-2020 4190.01 4791.49 79.02 6.00 279.13 2825.02
   19:23:41.626.16-Jul-2020 4190.01 4791.49 79.02 6.00 279.33 2825.02
   19:23:41.826.16-Jul-2020 4190.01 4791.46 79.02 6.00 279.53 2825.02
   19:23:42.026.16-Jul-2020 4190.01 4791.50 79.02 6.00 279.73 2825.02
   19:23:42.226.16-Jul-2020 4190.01 4791.48 79.02 6.00 279.93 2825.02
   19:23:42.427.16-Jul-2020 4190.01 4791.69 79.02 6.00 280.13 2825.02
   19:23:42.627.16-Jul-2020 4190.01 4791.29 79.02 6.00 280.33 2825.02
   19:23:42.827.16-Jul-2020 4190.01 4791.49 79.02 6.00 280.53 2825.02
   19:23:43.027.16-Jul-2020 4190.01 4791.58 79.02 6.00 280.73 2825.02
   19:23:43.227.16-Jul-2020 4190.01 4791.51 79.02 6.00 280.93 2825.02
   19:23:43.427.16-Jul-2020 4190.01 4791.49 79.02 6.00 281.13 2825.02
   19:23:43.627.16-Jul-2020 4190.01 4791.48 79.02 6.00 281.33 2825.02
   19:23:43.827.16-Jul-2020 4190.01 4791.50 79.02 6.00 281.53 2825.02
   19:23:44.027.16-Jul-2020 4190.01 4791.47 79.02 6.00 281.73 2825.02
   19:23:44.227.16-Jul-2020 4190.01 4791.51 79.02 6.00 281.93 2825.02
   19:23:44.427.16-Jul-2020 4190.01 4791.49 79.02 6.00 282.13 2825.02
   19:23:44.628.16-Jul-2020 4190.01 4791.48 79.02 6.00 282.33 2825.02
   19:23:44.828.16-Jul-2020 4190.01 4791.51 79.02 6.00 282.53 2825.02
   19:23:45.028.16-Jul-2020 4190.01 4791.48 79.02 6.00 282.73 2825.02
   19:23:45.228.16-Jul-2020 4190.01 4791.48 79.02 6.00 282.93 2825.02
   19:23:45.428.16-Jul-2020 4190.01 4791.49 79.02 6.00 283.13 2825.02
   19:23:45.628.16-Jul-2020 4190.01 4791.49 79.02 6.00 283.33 2825.02
   19:23:45.828.16-Jul-2020 4190.01 4791.30 79.02 6.00 283.53 2825.02
   19:23:46.028.16-Jul-2020 4190.01 4791.49 79.02 6.00 283.73 2825.02
   19:23:46.228.16-Jul-2020 4190.01 4791.56 79.02 6.00 283.93 2825.02
   19:23:46.428.16-Jul-2020 4190.01 4791.49 79.02 6.00 284.13 2825.02
   19:23:46.628.16-Jul-2020 4190.01 4791.49 79.02 6.00 284.33 2825.02
   19:23:46.829.16-Jul-2020 4190.01 4791.65 79.02 6.00 284.53 2825.02
   19:23:47.029.16-Jul-2020 4190.01 4791.36 79.02 6.00 284.73 2825.02
   19:23:47.229.16-Jul-2020 4190.01 4791.55 79.02 6.00 284.93 2825.02
   19:23:47.429.16-Jul-2020 4190.01 4791.47 79.02 6.00 285.13 2825.02
   19:23:47.629.16-Jul-2020 4190.01 4791.47 79.02 6.00 285.33 2825.02
   19:23:47.829.16-Jul-2020 4190.01 4791.69 79.02 6.00 285.53 2825.02
   19:23:48.029.16-Jul-2020 4190.01 4791.32 79.02 6.00 285.73 2825.02
   19:23:48.229.16-Jul-2020 4190.01 4791.45 79.02 6.00 285.93 2825.02
   19:23:48.429.16-Jul-2020 4190.01 4791.58 79.02 6.00 286.13 2825.02
   19:23:48.629.16-Jul-2020 4190.01 4791.58 79.02 6.00 286.33 2825.02
   19:23:48.829.16-Jul-2020 4190.01 4791.44 79.02 6.00 286.53 2825.02
   19:23:49.029.16-Jul-2020 4190.01 4791.51 79.02 6.00 286.73 2825.02
   19:23:49.230.16-Jul-2020 4190.01 4791.69 79.02 6.00 286.93 2825.02
   19:23:49.430.16-Jul-2020 4190.01 4791.43 79.02 6.00 287.13 2825.02
   19:23:49.630.16-Jul-2020 4190.01 4791.43 79.02 6.00 287.33 2825.02
   19:23:49.830.16-Jul-2020 4190.01 4791.51 79.02 6.00 287.53 2825.02
   19:23:50.030.16-Jul-2020 4190.01 4791.48 79.02 6.00 287.73 2825.02
   19:23:50.230.16-Jul-2020 4190.01 4791.52 79.02 6.00 287.93 2825.02
   19:23:50.430.16-Jul-2020 4190.01 4791.50 79.02 6.00 288.13 2825.02
   19:23:50.630.16-Jul-2020 4190.01 4791.50 79.02 6.00 288.33 2825.02
   19:23:50.830.16-Jul-2020 4190.01 4791.47 79.02 6.00 288.53 2825.02
   19:23:51.030.16-Jul-2020 4190.01 4791.51 79.02 6.00 288.73 2825.02
   19:23:51.230.16-Jul-2020 4190.01 4791.50 79.02 6.00 288.93 2825.02
   19:23:51.431.16-Jul-2020 4190.01 4791.50 79.02 6.00 289.13 2825.02
   19:23:51.631.16-Jul-2020 4190.01 4791.50 79.02 6.00 289.33 2825.02
   19:23:51.831.16-Jul-2020 4190.01 4791.61 79.02 6.00 289.53 2825.02
   19:23:52.031.16-Jul-2020 4190.01 4791.51 79.02 6.00 289.73 2825.02
   19:23:52.231.16-Jul-2020 4190.01 4791.50 79.02 6.00 289.93 2825.02
   19:23:52.431.16-Jul-2020 4190.01 4791.51 79.02 6.00 290.13 2825.02
   19:23:52.631.16-Jul-2020 4190.01 4791.51 79.02 6.00 290.33 2825.02
   19:23:52.831.16-Jul-2020 4190.01 4791.51 79.02 6.00 290.53 2825.02
   19:23:53.031.16-Jul-2020 4190.01 4791.50 79.02 6.00 290.73 2825.02
   19:23:53.231.16-Jul-2020 4190.01 4791.50 79.02 6.00 290.93 2825.02
   19:23:53.431.16-Jul-2020 4190.01 4791.50 79.02 6.00 291.13 2825.02
   19:23:53.632.16-Jul-2020 4190.01 4791.50 79.02 6.00 291.33 2825.02
   19:23:53.832.16-Jul-2020 4190.01 4791.52 79.02 6.00 291.53 2825.02
   19:23:54.032.16-Jul-2020 4190.01 4791.50 79.02 6.00 291.73 2825.02
   19:23:54.232.16-Jul-2020 4190.01 4791.50 79.02 6.00 291.93 2825.02
   19:23:54.432.16-Jul-2020 4190.01 4791.49 79.02 6.00 292.13 2825.02
   19:23:54.632.16-Jul-2020 4190.01 4791.49 79.02 6.00 292.33 2825.02
   19:23:54.832.16-Jul-2020 4190.01 4791.41 79.02 6.00 292.53 2825.02
   19:23:55.032.16-Jul-2020 4190.01 4791.62 79.02 6.00 292.73 2825.02
   19:23:55.232.16-Jul-2020 4190.01 4791.51 79.02 6.00 292.93 2825.02
   19:23:55.432.16-Jul-2020 4190.01 4791.50 79.02 6.00 293.13 2825.02
   19:23:55.632.16-Jul-2020 4190.01 4791.50 79.02 6.00 293.33 2825.02
   19:23:55.833.16-Jul-2020 4190.01 4791.47 79.02 6.00 293.53 2825.02
   19:23:56.033.16-Jul-2020 4190.01 4791.69 79.02 6.00 293.73 2825.02
   19:23:56.233.16-Jul-2020 4190.01 4791.33 79.02 6.00 293.93 2825.02
   19:23:56.433.16-Jul-2020 4190.01 4791.47 79.02 6.00 294.13 2825.02
   19:23:56.633.16-Jul-2020 4190.01 4791.47 79.02 6.00 294.33 2825.02
   19:23:56.833.16-Jul-2020 4190.01 4791.50 79.02 6.00 294.53 2825.02
   19:23:57.033.16-Jul-2020 4190.01 4791.40 79.02 6.00 294.73 2825.02
   19:23:57.233.16-Jul-2020 4190.01 4791.63 79.02 6.00 294.93 2825.02
   19:23:57.433.16-Jul-2020 4190.01 4791.49 79.02 6.00 295.13 2825.02
   19:23:57.633.16-Jul-2020 4190.01 4791.49 79.02 6.00 295.33 2825.02
   19:23:57.833.16-Jul-2020 4190.01 4791.53 79.02 6.00 295.53 2825.02
   19:23:58.034.16-Jul-2020 4190.01 4791.62 79.02 6.00 295.73 2825.02
   19:23:58.234.16-Jul-2020 4190.01 4791.35 79.02 6.00 295.93 2825.02
   19:23:58.434.16-Jul-2020 4190.01 4791.59 79.02 6.00 296.13 2825.02
   19:23:58.634.16-Jul-2020 4190.01 4791.59 79.02 6.00 296.33 2825.02
   19:23:58.834.16-Jul-2020 4190.01 4791.50 79.02 6.00 296.53 2825.02
   19:23:59.034.16-Jul-2020 4190.01 4791.53 79.02 6.00 296.73 2825.02
   19:23:59.234.16-Jul-2020 4190.01 4791.51 79.02 6.00 296.93 2825.02
   19:23:59.434.16-Jul-2020 4190.01 4791.49 79.02 6.00 297.13 2825.02
   19:23:59.634.16-Jul-2020 4190.01 4791.51 79.02 6.00 297.33 2825.02
   19:23:59.834.16-Jul-2020 4190.01 4791.51 79.02 6.00 297.53 2825.02
   19:24:00.034.16-Jul-2020 4190.01 4791.48 79.02 6.00 297.73 2825.02
   19:24:00.235.16-Jul-2020 4190.01 4791.51 79.02 6.00 297.93 2825.02
   19:24:00.435.16-Jul-2020 4190.01 4791.51 79.02 6.00 298.13 2825.02
   19:24:00.635.16-Jul-2020 4190.01 4791.51 79.02 6.00 298.33 2825.02
   19:24:00.835.16-Jul-2020 4190.01 4791.51 79.02 6.00 298.53 2825.02
   19:24:01.035.16-Jul-2020 4190.01 4791.71 79.02 6.00 298.73 2825.02
   19:24:01.235.16-Jul-2020 4190.01 4791.44 79.02 6.00 298.93 2825.02
