~Version Information
 VERS.                  2.0:   CWLS log ASCII Standard -VERSION 2.0
 WRAP.                   NO:   One line per depth step
~Well Information Block
#MNEM.UNIT     VALUE/NAME     DESCRIPTION
#---------     -----------    ---------------------------
 STRT.S             16:06:05 16-Jul-20: START TIME 16:06:05 16-Jul-20
 STOP.S             16:12:59 16-Jul-20: STOP TIME  16:12:59 16-Jul-20
 STEP.S                   0.00: STEP TIME
 NULL.                 -999.25: NULL VALUE
 MDS .        Operator Entered:  MAG DATA SOURCE
 UNIT.                     N/A:  LOGGING EQUIPMENT ID
 DCON.         Sperry Drilling:  DIRECTNL CONTR
 DOE .                     N/A:  DOE NUMBER
 RIG .               EastAzeri:  RIG NAME
 JOBN.        AZ-XX-0906363297:  JOB TICKET NUMB
 MWDS.                    Baku:  MWD SHOP
 SRVC.     Turan Drilling & Engineering:  CONTRACTOR
 PROV.                    Baku:  PROVINCE
 STAT.                    Baku:  STATE NAME
 REGN.                   EESSA:  REGION
 BASE.              Azerbaijan:  LOGGING EQUIPMENT BASE LOCATION
 WTYP.                Deviated:  WELL TYPE
 UWI .                     N/A:  UNIQUE WELL IDENTIFIER
 API .                     N/A:  API NUMBER
 COMP.     BP Exploration (Caspian Sea) ltd.:  COMPANY
 WELL.                    D07z:  WELL NAME
 CTRY.              Azerbaijan:  COUNTRY NAME
 SON .        AZ-XX-0906363297:  JOB NUMBER
 FLD .                     ACG:  FIELD NAME
 PDAT.          Mean Sea Level:  PERMANENT DATUM
 FTOP.          Formation Tops:  FORM TOPS DESC
 ILTD.               Lithology:  INTERP LTH DESC
 SVYD.                  Survey:  SURVEY DESC
 DMOD.             Drill Model:  DRILL MOD DESC
 HPTY.       Minimum Curvature:  HOLE POS TYPE
 NREF.                    Grid:  NORTH REFERENCE
 SPUD.               28-Jun-20:  SPUD DATE
 DATE.      18.27.12 28-Jun-20:  END TIME
 STIM.      18.27.12 28-Jun-20:  START TIME
 DMF .             Drill Floor:  DRILL MEAS FROM
 DFST.                        :  DIST FSL TEXT
 DFWT.                        :  DIST FWL TEXT
 CNTY.                        :  COUNTY
 LOC .                        :  LOCATION
 LMF .             Drill Floor:  LOG MEASURED FROM
 VSNS.m                  -7.75:  VERT SEC N/S
 VSEW.m                  -9.19:  VERT SEC E/W
 MMDE.m                   0.00:  MAGUTM CALC DEP
 AGAP.m                  43.60:  AIR GAP
 DEP .m                4058.99:  DEPTH
 APD .m                  43.60:  DEPTH ABOVE PD
 WDMS.m                 151.80:  WD ELEV
 EGL .m                   0.00:  GROUND ELEVATION
 EPD .m                   0.00:  ELEVATION
 AZTC.deg                 6.19:  AZM TOTAL CORR
 GRDC.deg                 0.27:  GRID CORRECTION
 MDEC.deg                 6.46:  MAGNETIC DECL
 MDIP.deg                59.47:  MAGNETIC DIP
 MFLD.nT              50279.00:  MAGNETIC FIELD
 GVFD.g                   1.00:  GRAVITY FIELD
 VSDR.deg               249.96:  VERT SEC DIRECT
 TDD .m                   0.00:  TOTAL DEPTH (DRILLER)
 SDEP.m                   0.00:  START DEPTH
 DFSL.m                   0.00:  DISTANCE FSL
 DFWL.m                   0.00:  DISTANCE FWL
 UTMY.m             4431880.20:  UTM Y
 UTMX.m              538763.98:  UTM X
 WHEW.m                  -9.19:  WELL HEAD E/W
 WHNS.m                  -7.75:  WELL HEAD N/S
 LONG.deg                51.45:  LONGITUDE
 LATI.deg                40.02:  LATITUDE
 TVDS.m                  43.60:  TVDSS CORRECTN
 EKB .m                  43.60:  KB ELEVATION
 EDF .m                  43.60:  DF ELEVATION
 TDL .m                 248.00:  TOTAL DEPTH (LOGGER)
 MAGU.                 1849075:  MAGUTM CHECKSUM
 VSC .                       0:  VS TO CLOSURE
~Parameter Information Block
#MNEM.UNIT       Value        Description
#---------     -----------    ---------------------------
 AV  .mps                 6.34:  Ann Velocity 
 AVMX.mps                 7.00:  Max Ann Veloc 
 AZIF.deg               260.29:  Azm, Final 
 BHAT.        Rotary Steerable:  BHA Type 
 BROT.°/30m               1.20:  Build Rotating 
 BS  .in                  8.50:  Bit Size 
 BSZ .in                  8.50:  Bit Size 
 BTPL.psig              620.00:  Bit Press Loss 
 CABU.                     Yes:  Customer Abuse 
 COMM.                     l&q:  Run Comments 1 
 TCS .hr                 56.22:  Time Ciculation Ended 
 CV  .mps                 3.05:  Crit Velocity 
 CVMX.mps                 3.20:  Max Crit Veloc 
 DD1 .            Musa Ahmadov:  Direct Drillr 1 
 DDSV.                 iCruise:  DD Service 
 DEFF.%                  98.00:  % Det Eff 
 DLRX.°/30m               2.78:  Dogleg Rot Max 
 DLSO.°/30m               0.00:  Dogleg Oriented 
 DLSX.°/30m               0.00:  Dogleg Str Max 
 DRET.      05.20.48 16-Jul-20:  Drill End Time 
 DRST.      10.20.48 13-Jul-20:  Drill Start Tim 
 DTIM.hr                 14.25:  Time Drilling 
 EDEP.m                4326.01:  End Depth 
 ENG1.      Artemiy Matviyanov:  Engineer 1 
 ENG2.           Amrah Tahirov:  Engineer 2 
 ETIM.      22.30.00 18-Jul-20:  End Time 
 FLOI.gpm               550.00:  Flow In 
 FLON.gpm               450.00:  Flow In Min 
 FLOS.cptm                0.00:  Fluid Loss 
 FLOX.gpm               600.00:  Flow In Max 
 HFLO.                      No:  High Flow 
 HPRE.                      No:  High Pressure 
 HTEM.                      No:  High Temp 
 HYDO.m                   1.80:  Hydro Offset 
 IFIN.deg                65.41:  Inc, Final 
 IMAX.deg                65.14:  Inc Max 
 IMIN.deg                58.89:  Inc Min 
 IMND.m                4104.92:  Inc Min Depth 
 IMXD.m                4303.89:  Inc Max Depth 
 JARR.                      No:  Jarring 
 LETM.      10.20.48 17-Jul-20:  Log End Time 
 LOST.hr                     0:  Lost Rig Time 
 LSTM.      10.20.48 13-Jul-20:  Log Start Time 
 MDCL.ppm             37000.00:  Mud Chlorides 
 MDES.     Inversion Oil/Synthetic:  Mud Desc 
 DFD .sg                  1.52:  Mud Density 
 MDMN.sg                  1.52:  Dens Mud Min 
 MDMX.sg                  1.52:  Dens Mud Max 
 MOIL.                   52.70:  Run Mud Oil % 
 MOWR.                   68:32:  Run Mud OWR 
 MSND.                     0.2:  Run Mud Sand % 
 MSOL.                    21.6:  Run Mud Solids% 
 DFV .spqt               79.00:  Mud Viscosity 
 MWOD.in                  6.75:  MWD Tool OD 
 MWSI.                      No:  Serv Intrp, MWD 
 OTIM.hr                114.04:  Time Operating 
 PCON.          Wear / Scratch:  Pad Condition 
 PMAX.psia            11782.92:  Press Op, Max 
 PV  .cP                 49.00:  Mud PV 
 RUN .                     600:  Run Number 
 ROPA.m/hr               20.00:  ROP Avg 
 ROPN.m/hr               15.00:  ROP Min 
 ROPX.m/hr               22.00:  ROP Max 
 RPMA.rpm               120.00:  RPM Surface Avg 
 RPMN.rpm                90.00:  RPM Surface Min 
 RPMX.rpm               140.00:  RPM Surface Max 
 RRUN.                     600:  Rig Run Number 
 SAZI.deg               260.29:  Azm, Start 
 SDEP.m                4078.01:  Start Depth 
 SIDD.                      No:  Serv Intrp, DD 
 SINC.deg                58.89:  Inc, Start 
 SPPA.psig             4560.00:  SPP Avg 
 SPPN.psig             3600.00:  SPP Min 
 SPPX.psig             4800.00:  SPP Max 
 STIM.      10.20.48 13-Jul-20:  Start Time 
 SVCS.                 DD, MWD:  Services 
 SVER.                    9.20:  Sperry Version 
 TDAT.m                4378.01:  Tot Depth Attmp 
 TDDF.                      No:  Trip for DD 
 TDLG.m                 248.00:  Tot Depth Loggd 
 TFF .                      No:  Trip for Fail 
 TQAA.f-kp               18.00:  Torque Abs Avg 
 TQAN.f-kp               15.00:  Torque Abs Min 
 TQAX.f-kp               20.00:  Torque Abs Max 
 TRRT.°/30m               0.70:  Turn Rotating 
 MRT .                    HCIM:  Maximum Recorded Temperature 
 TTMX.degC               86.00:  Max Tool Temp 
 WBMN.klb                 3.00:  WOB Min 
 WOBA.klb                 5.00:  WOB Avg 
 WOBX.klb                 9.00:  WOB Max 
 YP  .lhf2               32.00:  Yield Point 
~Curve Information Block
#MNEM.UNIT                 API CODE     Curve Description
#---------               -----------    ---------------------------
 TIME.HHMMSS            00 000 000 000:  GT Time & Date
 GTDEPTH.m              00 000 000 000:  GT Depth
 GTPQH.psia             00 000 000 000:  GT HR Quartz Pressure
 GTTQ.degC              00 000 000 000:  GT Quartz Temperature
 GTTN.NONE              00 000 000 000:  GT Test Number
 GTET.sec               00 000 000 000:  GT Elapsed Test Time
 GTTVD.m                00 000 000 000:  GT True Vertical Depth
#Other Information
#
#WARRANTY: Halliburton will use its best efforts to furnish customers with 
#accurate information and interpretations that are part of, and incident to, the services 
#provided.  However, Halliburton cannot and does not warrant the accuracy 
#or correctness of such information and interpretations.  Under no circumstances should any 
#such information or interpretation be relied upon as the sole basis for any drilling, 
#completion, production, or financial decision or any procedure involving any risk to the 
#safety of any drilling venture, drilling rig or its crew or any other third party.  The 
#Customer has full responsibility for all drilling, completion and production operation.  
#Halliburton makes no representations or warranties, either expressed or 
#implied, including, but not limited to, the implied warranties of merchantability or fitness 
#for a particular purpose, with respect to the services rendered.  In no event will 
#Halliburton be liable for failure to obtain any particular results or for 
#any damages, including, but not limited to, indirect, special or consequential damages, 
#resulting from the use of any information or interpretation provided by Halliburton.
#
~A           TIME           GTDEPTH  GTPQH  GTTQ  GTTN  GTET   GTTVD  
# ...
   16:11:27.833.16-Jul-2020 4280.51 4342.51 80.08 1.00 322.07 2863.78
   16:11:28.033.16-Jul-2020 4280.51 4342.39 80.08 1.00 322.27 2863.78
   16:11:28.233.16-Jul-2020 4280.51 4342.42 80.08 1.00 322.47 2863.78
   16:11:28.433.16-Jul-2020 4280.51 4342.37 80.08 1.00 322.67 2863.78
   16:11:28.633.16-Jul-2020 4280.51 4342.38 80.08 1.00 322.87 2863.78
   16:11:28.833.16-Jul-2020 4280.51 4342.45 80.08 1.00 323.07 2863.78
   16:11:29.033.16-Jul-2020 4280.51 4342.45 80.08 1.00 323.27 2863.78
   16:11:29.233.16-Jul-2020 4280.51 4342.40 80.08 1.00 323.47 2863.78
   16:11:29.433.16-Jul-2020 4280.51 4342.40 80.08 1.00 323.67 2863.78
   16:11:29.633.16-Jul-2020 4280.51 4342.41 80.08 1.00 323.87 2863.78
   16:11:29.833.16-Jul-2020 4280.51 4342.50 80.08 1.00 324.07 2863.78
   16:11:30.033.16-Jul-2020 4280.51 4342.50 80.08 1.00 324.27 2863.78
   16:11:30.234.16-Jul-2020 4280.51 4342.32 80.08 1.00 324.47 2863.78
   16:11:30.434.16-Jul-2020 4280.51 4342.49 80.08 1.00 324.67 2863.78
   16:11:30.634.16-Jul-2020 4280.51 4342.43 80.08 1.00 324.87 2863.78
   16:11:30.834.16-Jul-2020 4280.51 4342.38 80.08 1.00 325.07 2863.78
   16:11:31.034.16-Jul-2020 4280.51 4342.37 80.08 1.00 325.27 2863.78
   16:11:31.234.16-Jul-2020 4280.51 4342.46 80.08 1.00 325.47 2863.78
   16:11:31.434.16-Jul-2020 4280.51 4342.38 80.08 1.00 325.67 2863.78
   16:11:31.634.16-Jul-2020 4280.51 4342.37 80.08 1.00 325.87 2863.78
   16:11:31.834.16-Jul-2020 4280.51 4342.46 80.08 1.00 326.07 2863.78
   16:11:32.034.16-Jul-2020 4280.51 4342.41 80.08 1.00 326.27 2863.78
   16:11:32.234.16-Jul-2020 4280.51 4342.43 80.08 1.00 326.47 2863.78
   16:11:32.434.16-Jul-2020 4280.51 4342.40 80.08 1.00 326.67 2863.78
   16:11:32.634.16-Jul-2020 4280.51 4342.40 80.08 1.00 326.87 2863.78
   16:11:32.834.16-Jul-2020 4280.51 4342.42 80.08 1.00 327.07 2863.78
   16:11:33.034.16-Jul-2020 4280.51 4342.42 80.08 1.00 327.27 2863.78
   16:11:33.234.16-Jul-2020 4280.51 4342.55 80.08 1.00 327.47 2863.78
   16:11:33.434.16-Jul-2020 4280.51 4342.33 80.08 1.00 327.67 2863.78
   16:11:33.634.16-Jul-2020 4280.51 4342.50 80.08 1.00 327.87 2863.78
   16:11:33.834.16-Jul-2020 4280.51 4342.46 80.08 1.00 328.07 2863.78
   16:11:34.034.16-Jul-2020 4280.51 4342.34 80.08 1.00 328.27 2863.78
   16:11:34.234.16-Jul-2020 4280.51 4342.33 80.08 1.00 328.47 2863.78
   16:11:34.434.16-Jul-2020 4280.51 4342.72 80.08 1.00 328.67 2863.78
   16:11:34.634.16-Jul-2020 4280.51 4342.35 80.08 1.00 328.87 2863.78
   16:11:34.834.16-Jul-2020 4280.51 4342.51 80.08 1.00 329.07 2863.78
   16:11:35.035.16-Jul-2020 4280.51 4342.51 80.08 1.00 329.27 2863.78
   16:11:35.235.16-Jul-2020 4280.51 4342.41 80.08 1.00 329.47 2863.78
   16:11:35.435.16-Jul-2020 4280.51 4342.37 80.08 1.00 329.67 2863.78
   16:11:35.635.16-Jul-2020 4280.51 4342.70 80.08 1.00 329.87 2863.78
   16:11:35.835.16-Jul-2020 4280.51 4342.41 80.08 1.00 330.07 2863.78
   16:11:36.035.16-Jul-2020 4280.51 4342.29 80.08 1.00 330.27 2863.78
   16:11:36.235.16-Jul-2020 4280.51 4342.60 80.08 1.00 330.47 2863.78
   16:11:36.435.16-Jul-2020 4280.51 4342.41 80.08 1.00 330.67 2863.78
   16:11:36.635.16-Jul-2020 4280.51 4342.57 80.08 1.00 330.87 2863.78
   16:11:36.835.16-Jul-2020 4280.51 4342.42 80.08 1.00 331.07 2863.78
   16:11:37.035.16-Jul-2020 4280.51 4342.35 80.08 1.00 331.27 2863.78
   16:11:37.235.16-Jul-2020 4280.51 4342.57 80.08 1.00 331.47 2863.78
   16:11:37.435.16-Jul-2020 4280.51 4342.39 80.08 1.00 331.67 2863.78
   16:11:37.635.16-Jul-2020 4280.51 4342.41 80.08 1.00 331.87 2863.78
   16:11:37.835.16-Jul-2020 4280.51 4342.45 80.08 1.00 332.07 2863.78
   16:11:38.035.16-Jul-2020 4280.51 4342.43 80.07 1.00 332.27 2863.78
   16:11:38.235.16-Jul-2020 4280.51 4342.47 80.07 1.00 332.47 2863.78
   16:11:38.435.16-Jul-2020 4280.51 4342.46 80.07 1.00 332.67 2863.78
   16:11:38.635.16-Jul-2020 4280.51 4342.42 80.07 1.00 332.87 2863.78
   16:11:38.835.16-Jul-2020 4280.51 4342.45 80.07 1.00 333.07 2863.78
   16:11:39.035.16-Jul-2020 4280.51 4342.43 80.07 1.00 333.27 2863.78
   16:11:39.235.16-Jul-2020 4280.51 4342.69 80.07 1.00 333.47 2863.78
   16:11:39.435.16-Jul-2020 4280.51 4342.35 80.07 1.00 333.67 2863.78
   16:11:39.635.16-Jul-2020 4280.51 4342.38 80.07 1.00 333.87 2863.78
   16:11:39.836.16-Jul-2020 4280.51 4342.59 80.07 1.00 334.07 2863.78
   16:11:40.036.16-Jul-2020 4280.51 4342.37 80.07 1.00 334.27 2863.78
   16:11:40.236.16-Jul-2020 4280.51 4342.44 80.07 1.00 334.47 2863.78
   16:11:40.436.16-Jul-2020 4280.51 4342.45 80.07 1.00 334.67 2863.78
   16:11:40.636.16-Jul-2020 4280.51 4342.45 80.07 1.00 334.87 2863.78
   16:11:40.836.16-Jul-2020 4280.51 4342.45 80.07 1.00 335.07 2863.78
   16:11:41.036.16-Jul-2020 4280.51 4342.45 80.07 1.00 335.27 2863.78
   16:11:41.236.16-Jul-2020 4280.51 4342.48 80.07 1.00 335.47 2863.78
   16:11:41.436.16-Jul-2020 4280.51 4342.46 80.07 1.00 335.67 2863.78
   16:11:41.636.16-Jul-2020 4280.51 4342.44 80.07 1.00 335.87 2863.78
   16:11:41.836.16-Jul-2020 4280.51 4342.45 80.07 1.00 336.07 2863.78
   16:11:42.036.16-Jul-2020 4280.51 4342.44 80.07 1.00 336.27 2863.78
   16:11:42.236.16-Jul-2020 4280.51 4342.47 80.07 1.00 336.47 2863.78
   16:11:42.436.16-Jul-2020 4280.51 4342.60 80.07 1.00 336.67 2863.78
   16:11:42.636.16-Jul-2020 4280.51 4342.41 80.07 1.00 336.87 2863.78
   16:11:42.836.16-Jul-2020 4280.51 4342.44 80.07 1.00 337.07 2863.78
   16:11:43.036.16-Jul-2020 4280.51 4342.50 80.07 1.00 337.27 2863.78
   16:11:43.236.16-Jul-2020 4280.51 4342.43 80.07 1.00 337.47 2863.78
   16:11:43.436.16-Jul-2020 4280.51 4342.41 80.07 1.00 337.67 2863.78
   16:11:43.636.16-Jul-2020 4280.51 4342.50 80.07 1.00 337.87 2863.78
   16:11:43.836.16-Jul-2020 4280.51 4342.65 80.07 1.00 338.07 2863.78
   16:11:44.036.16-Jul-2020 4280.51 4342.33 80.07 1.00 338.27 2863.78
   16:11:44.236.16-Jul-2020 4280.51 4342.59 80.07 1.00 338.47 2863.78
   16:11:44.436.16-Jul-2020 4280.51 4342.43 80.07 1.00 338.67 2863.78
   16:11:44.637.16-Jul-2020 4280.51 4342.41 80.07 1.00 338.87 2863.78
   16:11:44.837.16-Jul-2020 4280.51 4342.50 80.07 1.00 339.07 2863.78
   16:11:45.037.16-Jul-2020 4280.51 4342.50 80.07 1.00 339.27 2863.78
   16:11:45.237.16-Jul-2020 4280.51 4342.43 80.07 1.00 339.47 2863.78
   16:11:45.437.16-Jul-2020 4280.51 4342.46 80.07 1.00 339.67 2863.78
   16:11:45.637.16-Jul-2020 4280.51 4342.50 80.07 1.00 339.87 2863.78
   16:11:45.837.16-Jul-2020 4280.51 4342.45 80.07 1.00 340.07 2863.78
   16:11:46.037.16-Jul-2020 4280.51 4342.55 80.07 1.00 340.27 2863.78
   16:11:46.237.16-Jul-2020 4280.51 4342.48 80.07 1.00 340.47 2863.78
   16:11:46.437.16-Jul-2020 4280.51 4342.52 80.07 1.00 340.67 2863.78
   16:11:46.637.16-Jul-2020 4280.51 4342.50 80.07 1.00 340.87 2863.78
   16:11:46.837.16-Jul-2020 4280.51 4342.41 80.07 1.00 341.07 2863.78
   16:11:47.037.16-Jul-2020 4280.51 4342.44 80.07 1.00 341.27 2863.78
   16:11:47.237.16-Jul-2020 4280.51 4342.50 80.07 1.00 341.47 2863.78
   16:11:47.437.16-Jul-2020 4280.51 4342.46 80.07 1.00 341.67 2863.78
   16:11:47.637.16-Jul-2020 4280.51 4342.50 80.07 1.00 341.87 2863.78
   16:11:47.837.16-Jul-2020 4280.51 4342.47 80.07 1.00 342.07 2863.78
   16:11:48.037.16-Jul-2020 4280.51 4342.45 80.07 1.00 342.27 2863.78
   16:11:48.237.16-Jul-2020 4280.51 4342.48 80.07 1.00 342.47 2863.78
   16:11:48.437.16-Jul-2020 4280.51 4342.45 80.07 1.00 342.67 2863.78
   16:11:48.637.16-Jul-2020 4280.51 4342.62 80.07 1.00 342.87 2863.78
   16:11:48.837.16-Jul-2020 4280.51 4342.45 80.07 1.00 343.07 2863.78
   16:11:49.037.16-Jul-2020 4280.51 4342.45 80.07 1.00 343.27 2863.78
   16:11:49.237.16-Jul-2020 4280.51 4342.56 80.07 1.00 343.47 2863.78
   16:11:49.437.16-Jul-2020 4280.51 4342.40 80.07 1.00 343.67 2863.78
   16:11:49.638.16-Jul-2020 4280.51 4342.45 80.07 1.00 343.87 2863.78
   16:11:49.838.16-Jul-2020 4280.51 4342.53 80.07 1.00 344.07 2863.78
   16:11:50.038.16-Jul-2020 4280.51 4342.53 80.07 1.00 344.27 2863.78
   16:11:50.238.16-Jul-2020 4280.51 4342.49 80.07 1.00 344.47 2863.78
   16:11:50.438.16-Jul-2020 4280.51 4342.44 80.07 1.00 344.67 2863.78
   16:11:50.638.16-Jul-2020 4280.51 4342.48 80.07 1.00 344.87 2863.78
