~Version Information
 VERS.                  2.0:   CWLS log ASCII Standard -VERSION 2.0
 WRAP.                   NO:   One line per depth step
~Well Information Block
#MNEM.UNIT     VALUE/NAME     DESCRIPTION
#---------     -----------    ---------------------------
 STRT.S             18:36:16 16-Jul-20: START TIME 18:36:16 16-Jul-20
 STOP.S             18:43:12 16-Jul-20: STOP TIME  18:43:12 16-Jul-20
 STEP.S                   0.00: STEP TIME
 NULL.                 -999.25: NULL VALUE
 MDS .        Operator Entered:  MAG DATA SOURCE
 UNIT.                     N/A:  LOGGING EQUIPMENT ID
 DCON.         Sperry Drilling:  DIRECTNL CONTR
 DOE .                     N/A:  DOE NUMBER
 RIG .               EastAzeri:  RIG NAME
 JOBN.        AZ-XX-0906363297:  JOB TICKET NUMB
 MWDS.                    Baku:  MWD SHOP
 SRVC.     Turan Drilling & Engineering:  CONTRACTOR
 PROV.                    Baku:  PROVINCE
 STAT.                    Baku:  STATE NAME
 REGN.                   EESSA:  REGION
 BASE.              Azerbaijan:  LOGGING EQUIPMENT BASE LOCATION
 WTYP.                Deviated:  WELL TYPE
 UWI .                     N/A:  UNIQUE WELL IDENTIFIER
 API .                     N/A:  API NUMBER
 COMP.     BP Exploration (Caspian Sea) ltd.:  COMPANY
 WELL.                    D07z:  WELL NAME
 CTRY.              Azerbaijan:  COUNTRY NAME
 SON .        AZ-XX-0906363297:  JOB NUMBER
 FLD .                     ACG:  FIELD NAME
 PDAT.          Mean Sea Level:  PERMANENT DATUM
 FTOP.          Formation Tops:  FORM TOPS DESC
 ILTD.               Lithology:  INTERP LTH DESC
 SVYD.                  Survey:  SURVEY DESC
 DMOD.             Drill Model:  DRILL MOD DESC
 HPTY.       Minimum Curvature:  HOLE POS TYPE
 NREF.                    Grid:  NORTH REFERENCE
 SPUD.               28-Jun-20:  SPUD DATE
 DATE.      18.27.12 28-Jun-20:  END TIME
 STIM.      18.27.12 28-Jun-20:  START TIME
 DMF .             Drill Floor:  DRILL MEAS FROM
 DFST.                        :  DIST FSL TEXT
 DFWT.                        :  DIST FWL TEXT
 CNTY.                        :  COUNTY
 LOC .                        :  LOCATION
 LMF .             Drill Floor:  LOG MEASURED FROM
 VSNS.m                  -7.75:  VERT SEC N/S
 VSEW.m                  -9.19:  VERT SEC E/W
 MMDE.m                   0.00:  MAGUTM CALC DEP
 AGAP.m                  43.60:  AIR GAP
 DEP .m                4058.99:  DEPTH
 APD .m                  43.60:  DEPTH ABOVE PD
 WDMS.m                 151.80:  WD ELEV
 EGL .m                   0.00:  GROUND ELEVATION
 EPD .m                   0.00:  ELEVATION
 AZTC.deg                 6.19:  AZM TOTAL CORR
 GRDC.deg                 0.27:  GRID CORRECTION
 MDEC.deg                 6.46:  MAGNETIC DECL
 MDIP.deg                59.47:  MAGNETIC DIP
 MFLD.nT              50279.00:  MAGNETIC FIELD
 GVFD.g                   1.00:  GRAVITY FIELD
 VSDR.deg               249.96:  VERT SEC DIRECT
 TDD .m                   0.00:  TOTAL DEPTH (DRILLER)
 SDEP.m                   0.00:  START DEPTH
 DFSL.m                   0.00:  DISTANCE FSL
 DFWL.m                   0.00:  DISTANCE FWL
 UTMY.m             4431880.20:  UTM Y
 UTMX.m              538763.98:  UTM X
 WHEW.m                  -9.19:  WELL HEAD E/W
 WHNS.m                  -7.75:  WELL HEAD N/S
 LONG.deg                51.45:  LONGITUDE
 LATI.deg                40.02:  LATITUDE
 TVDS.m                  43.60:  TVDSS CORRECTN
 EKB .m                  43.60:  KB ELEVATION
 EDF .m                  43.60:  DF ELEVATION
 TDL .m                 248.00:  TOTAL DEPTH (LOGGER)
 MAGU.                 1849075:  MAGUTM CHECKSUM
 VSC .                       0:  VS TO CLOSURE
~Parameter Information Block
#MNEM.UNIT       Value        Description
#---------     -----------    ---------------------------
 AV  .mps                 6.34:  Ann Velocity 
 AVMX.mps                 7.00:  Max Ann Veloc 
 AZIF.deg               260.29:  Azm, Final 
 BHAT.        Rotary Steerable:  BHA Type 
 BROT.°/30m               1.20:  Build Rotating 
 BS  .in                  8.50:  Bit Size 
 BSZ .in                  8.50:  Bit Size 
 BTPL.psig              620.00:  Bit Press Loss 
 CABU.                     Yes:  Customer Abuse 
 COMM.                     Ì>`:  Run Comments 1 
 TCS .hr                 56.22:  Time Ciculation Ended 
 CV  .mps                 3.05:  Crit Velocity 
 CVMX.mps                 3.20:  Max Crit Veloc 
 DD1 .            Musa Ahmadov:  Direct Drillr 1 
 DDSV.                 iCruise:  DD Service 
 DEFF.%                  98.00:  % Det Eff 
 DLRX.°/30m               2.78:  Dogleg Rot Max 
 DLSO.°/30m               0.00:  Dogleg Oriented 
 DLSX.°/30m               0.00:  Dogleg Str Max 
 DRET.      05.20.48 16-Jul-20:  Drill End Time 
 DRST.      10.20.48 13-Jul-20:  Drill Start Tim 
 DTIM.hr                 14.25:  Time Drilling 
 EDEP.m                4326.01:  End Depth 
 ENG1.      Artemiy Matviyanov:  Engineer 1 
 ENG2.           Amrah Tahirov:  Engineer 2 
 ETIM.      22.30.00 18-Jul-20:  End Time 
 FLOI.gpm               550.00:  Flow In 
 FLON.gpm               450.00:  Flow In Min 
 FLOS.cptm                0.00:  Fluid Loss 
 FLOX.gpm               600.00:  Flow In Max 
 HFLO.                      No:  High Flow 
 HPRE.                      No:  High Pressure 
 HTEM.                      No:  High Temp 
 HYDO.m                   1.80:  Hydro Offset 
 IFIN.deg                65.41:  Inc, Final 
 IMAX.deg                65.14:  Inc Max 
 IMIN.deg                58.89:  Inc Min 
 IMND.m                4104.92:  Inc Min Depth 
 IMXD.m                4303.89:  Inc Max Depth 
 JARR.                      No:  Jarring 
 LETM.      10.20.48 17-Jul-20:  Log End Time 
 LOST.hr                     0:  Lost Rig Time 
 LSTM.      10.20.48 13-Jul-20:  Log Start Time 
 MDCL.ppm             37000.00:  Mud Chlorides 
 MDES.     Inversion Oil/Synthetic:  Mud Desc 
 DFD .sg                  1.52:  Mud Density 
 MDMN.sg                  1.52:  Dens Mud Min 
 MDMX.sg                  1.52:  Dens Mud Max 
 MOIL.                   52.70:  Run Mud Oil % 
 MOWR.                   68:32:  Run Mud OWR 
 MSND.                     0.2:  Run Mud Sand % 
 MSOL.                    21.6:  Run Mud Solids% 
 DFV .spqt               79.00:  Mud Viscosity 
 MWOD.in                  6.75:  MWD Tool OD 
 MWSI.                      No:  Serv Intrp, MWD 
 OTIM.hr                114.04:  Time Operating 
 PCON.          Wear / Scratch:  Pad Condition 
 PMAX.psia            11782.92:  Press Op, Max 
 PV  .cP                 49.00:  Mud PV 
 RUN .                     600:  Run Number 
 ROPA.m/hr               20.00:  ROP Avg 
 ROPN.m/hr               15.00:  ROP Min 
 ROPX.m/hr               22.00:  ROP Max 
 RPMA.rpm               120.00:  RPM Surface Avg 
 RPMN.rpm                90.00:  RPM Surface Min 
 RPMX.rpm               140.00:  RPM Surface Max 
 RRUN.                     600:  Rig Run Number 
 SAZI.deg               260.29:  Azm, Start 
 SDEP.m                4078.01:  Start Depth 
 SIDD.                      No:  Serv Intrp, DD 
 SINC.deg                58.89:  Inc, Start 
 SPPA.psig             4560.00:  SPP Avg 
 SPPN.psig             3600.00:  SPP Min 
 SPPX.psig             4800.00:  SPP Max 
 STIM.      10.20.48 13-Jul-20:  Start Time 
 SVCS.                 DD, MWD:  Services 
 SVER.                    9.20:  Sperry Version 
 TDAT.m                4378.01:  Tot Depth Attmp 
 TDDF.                      No:  Trip for DD 
 TDLG.m                 248.00:  Tot Depth Loggd 
 TFF .                      No:  Trip for Fail 
 TQAA.f-kp               18.00:  Torque Abs Avg 
 TQAN.f-kp               15.00:  Torque Abs Min 
 TQAX.f-kp               20.00:  Torque Abs Max 
 TRRT.°/30m               0.70:  Turn Rotating 
 MRT .                    HCIM:  Maximum Recorded Temperature 
 TTMX.degC               86.00:  Max Tool Temp 
 WBMN.klb                 3.00:  WOB Min 
 WOBA.klb                 5.00:  WOB Avg 
 WOBX.klb                 9.00:  WOB Max 
 YP  .lhf2               32.00:  Yield Point 
~Curve Information Block
#MNEM.UNIT                 API CODE     Curve Description
#---------               -----------    ---------------------------
 TIME.HHMMSS            00 000 000 000:  GT Time & Date
 GTDEPTH.m              00 000 000 000:  GT Depth
 GTPQH.psia             00 000 000 000:  GT HR Quartz Pressure
 GTTQ.degC              00 000 000 000:  GT Quartz Temperature
 GTTN.NONE              00 000 000 000:  GT Test Number
 GTET.sec               00 000 000 000:  GT Elapsed Test Time
 GTTVD.m                00 000 000 000:  GT True Vertical Depth
#Other Information
#
#WARRANTY: Halliburton will use its best efforts to furnish customers with 
#accurate information and interpretations that are part of, and incident to, the services 
#provided.  However, Halliburton cannot and does not warrant the accuracy 
#or correctness of such information and interpretations.  Under no circumstances should any 
#such information or interpretation be relied upon as the sole basis for any drilling, 
#completion, production, or financial decision or any procedure involving any risk to the 
#safety of any drilling venture, drilling rig or its crew or any other third party.  The 
#Customer has full responsibility for all drilling, completion and production operation.  
#Halliburton makes no representations or warranties, either expressed or 
#implied, including, but not limited to, the implied warranties of merchantability or fitness 
#for a particular purpose, with respect to the services rendered.  In no event will 
#Halliburton be liable for failure to obtain any particular results or for 
#any damages, including, but not limited to, indirect, special or consequential damages, 
#resulting from the use of any information or interpretation provided by Halliburton.
#
~A           TIME           GTDEPTH  GTPQH  GTTQ  GTTN  GTET   GTTVD  
# ...
   18:40:06.625.16-Jul-2020 4198.01 4795.47 79.29 5.00 229.91 2828.58
   18:40:06.824.16-Jul-2020 4198.01 4796.00 79.29 5.00 230.11 2828.58
   18:40:07.024.16-Jul-2020 4198.01 4795.90 79.29 5.00 230.31 2828.58
   18:40:07.224.16-Jul-2020 4198.01 4795.62 79.29 5.00 230.51 2828.58
   18:40:07.424.16-Jul-2020 4198.01 4795.80 79.29 5.00 230.71 2828.58
   18:40:07.624.16-Jul-2020 4198.01 4795.75 79.29 5.00 230.91 2828.58
   18:40:07.824.16-Jul-2020 4198.01 4795.77 79.29 5.00 231.11 2828.58
   18:40:08.024.16-Jul-2020 4198.01 4795.75 79.29 5.00 231.31 2828.58
   18:40:08.224.16-Jul-2020 4198.01 4795.82 79.29 5.00 231.51 2828.58
   18:40:08.424.16-Jul-2020 4198.01 4795.89 79.29 5.00 231.71 2828.58
   18:40:08.624.16-Jul-2020 4198.01 4795.72 79.29 5.00 231.91 2828.58
   18:40:08.824.16-Jul-2020 4198.01 4795.72 79.29 5.00 232.11 2828.58
   18:40:09.024.16-Jul-2020 4198.01 4795.73 79.29 5.00 232.31 2828.58
   18:40:09.224.16-Jul-2020 4198.01 4795.53 79.29 5.00 232.51 2828.58
   18:40:09.423.16-Jul-2020 4198.01 4795.98 79.29 5.00 232.71 2828.58
   18:40:09.623.16-Jul-2020 4198.01 4795.87 79.29 5.00 232.91 2828.58
   18:40:09.823.16-Jul-2020 4198.01 4795.85 79.29 5.00 233.11 2828.58
   18:40:10.023.16-Jul-2020 4198.01 4795.64 79.29 5.00 233.31 2828.58
   18:40:10.223.16-Jul-2020 4198.01 4795.87 79.29 5.00 233.51 2828.58
   18:40:10.423.16-Jul-2020 4198.01 4795.76 79.29 5.00 233.71 2828.58
   18:40:10.623.16-Jul-2020 4198.01 4795.82 79.29 5.00 233.91 2828.58
   18:40:10.823.16-Jul-2020 4198.01 4795.78 79.29 5.00 234.11 2828.58
   18:40:11.023.16-Jul-2020 4198.01 4795.67 79.29 5.00 234.31 2828.58
   18:40:11.223.16-Jul-2020 4198.01 4795.90 79.29 5.00 234.51 2828.58
   18:40:11.423.16-Jul-2020 4198.01 4795.72 79.29 5.00 234.71 2828.58
   18:40:11.623.16-Jul-2020 4198.01 4795.77 79.29 5.00 234.91 2828.58
   18:40:11.823.16-Jul-2020 4198.01 4795.77 79.29 5.00 235.11 2828.58
   18:40:12.022.16-Jul-2020 4198.01 4795.72 79.29 5.00 235.31 2828.58
   18:40:12.222.16-Jul-2020 4198.01 4795.82 79.29 5.00 235.51 2828.58
   18:40:12.422.16-Jul-2020 4198.01 4795.38 79.29 5.00 235.71 2828.58
   18:40:12.622.16-Jul-2020 4198.01 4796.10 79.29 5.00 235.91 2828.58
   18:40:12.822.16-Jul-2020 4198.01 4796.10 79.29 5.00 236.11 2828.58
   18:40:13.022.16-Jul-2020 4198.01 4795.77 79.29 5.00 236.31 2828.58
   18:40:13.222.16-Jul-2020 4198.01 4795.74 79.29 5.00 236.51 2828.58
   18:40:13.422.16-Jul-2020 4198.01 4795.80 79.29 5.00 236.71 2828.58
   18:40:13.622.16-Jul-2020 4198.01 4795.71 79.29 5.00 236.91 2828.58
   18:40:13.822.16-Jul-2020 4198.01 4795.59 79.29 5.00 237.11 2828.58
   18:40:14.022.16-Jul-2020 4198.01 4796.11 79.29 5.00 237.31 2828.58
   18:40:14.222.16-Jul-2020 4198.01 4795.79 79.29 5.00 237.51 2828.58
   18:40:14.422.16-Jul-2020 4198.01 4795.72 79.29 5.00 237.71 2828.58
   18:40:14.621.16-Jul-2020 4198.01 4795.62 79.29 5.00 237.91 2828.58
   18:40:14.821.16-Jul-2020 4198.01 4795.88 79.29 5.00 238.11 2828.58
   18:40:15.021.16-Jul-2020 4198.01 4796.01 79.29 5.00 238.31 2828.58
   18:40:15.221.16-Jul-2020 4198.01 4795.74 79.29 5.00 238.51 2828.58
   18:40:15.421.16-Jul-2020 4198.01 4795.65 79.29 5.00 238.71 2828.58
   18:40:15.621.16-Jul-2020 4198.01 4795.98 79.29 5.00 238.91 2828.58
   18:40:15.821.16-Jul-2020 4198.01 4795.98 79.29 5.00 239.11 2828.58
   18:40:16.021.16-Jul-2020 4198.01 4795.96 79.29 5.00 239.31 2828.58
   18:40:16.221.16-Jul-2020 4198.01 4795.81 79.29 5.00 239.51 2828.58
   18:40:16.421.16-Jul-2020 4198.01 4795.77 79.29 5.00 239.71 2828.58
   18:40:16.621.16-Jul-2020 4198.01 4795.75 79.29 5.00 239.91 2828.58
   18:40:16.821.16-Jul-2020 4198.01 4795.75 79.29 5.00 240.11 2828.58
   18:40:17.021.16-Jul-2020 4198.01 4795.88 79.29 5.00 240.31 2828.58
   18:40:17.221.16-Jul-2020 4198.01 4795.75 79.29 5.00 240.51 2828.58
   18:40:17.420.16-Jul-2020 4198.01 4795.85 79.29 5.00 240.71 2828.58
   18:40:17.620.16-Jul-2020 4198.01 4795.77 79.29 5.00 240.91 2828.58
   18:40:17.820.16-Jul-2020 4198.01 4795.77 79.29 5.00 241.11 2828.58
   18:40:18.020.16-Jul-2020 4198.01 4795.83 79.29 5.00 241.31 2828.58
   18:40:18.220.16-Jul-2020 4198.01 4795.56 79.29 5.00 241.51 2828.58
   18:40:18.420.16-Jul-2020 4198.01 4796.10 79.29 5.00 241.71 2828.58
   18:40:18.620.16-Jul-2020 4198.01 4795.79 79.29 5.00 241.91 2828.58
   18:40:18.820.16-Jul-2020 4198.01 4795.79 79.29 5.00 242.11 2828.58
   18:40:19.020.16-Jul-2020 4198.01 4795.79 79.29 5.00 242.31 2828.58
   18:40:19.220.16-Jul-2020 4198.01 4795.82 79.29 5.00 242.51 2828.58
   18:40:19.420.16-Jul-2020 4198.01 4795.78 79.29 5.00 242.71 2828.58
   18:40:19.620.16-Jul-2020 4198.01 4795.82 79.29 5.00 242.91 2828.58
   18:40:19.820.16-Jul-2020 4198.01 4795.76 79.29 5.00 243.11 2828.58
   18:40:20.019.16-Jul-2020 4198.01 4795.72 79.29 5.00 243.31 2828.58
   18:40:20.219.16-Jul-2020 4198.01 4795.84 79.29 5.00 243.51 2828.58
   18:40:20.419.16-Jul-2020 4198.01 4795.81 79.29 5.00 243.71 2828.58
   18:40:20.619.16-Jul-2020 4198.01 4795.67 79.29 5.00 243.91 2828.58
   18:40:20.819.16-Jul-2020 4198.01 4795.67 79.29 5.00 244.11 2828.58
   18:40:21.019.16-Jul-2020 4198.01 4795.89 79.29 5.00 244.31 2828.58
   18:40:21.219.16-Jul-2020 4198.01 4795.69 79.29 5.00 244.51 2828.58
   18:40:21.419.16-Jul-2020 4198.01 4795.70 79.29 5.00 244.71 2828.58
   18:40:21.619.16-Jul-2020 4198.01 4796.02 79.29 5.00 244.91 2828.58
   18:40:21.819.16-Jul-2020 4198.01 4795.81 79.29 5.00 245.11 2828.58
   18:40:22.019.16-Jul-2020 4198.01 4795.75 79.29 5.00 245.31 2828.58
   18:40:22.219.16-Jul-2020 4198.01 4795.91 79.29 5.00 245.51 2828.58
   18:40:22.419.16-Jul-2020 4198.01 4795.71 79.29 5.00 245.71 2828.58
   18:40:22.618.16-Jul-2020 4198.01 4795.79 79.29 5.00 245.91 2828.58
   18:40:22.818.16-Jul-2020 4198.01 4795.86 79.29 5.00 246.11 2828.58
   18:40:23.018.16-Jul-2020 4198.01 4795.58 79.29 5.00 246.31 2828.58
   18:40:23.218.16-Jul-2020 4198.01 4796.09 79.29 5.00 246.51 2828.58
   18:40:23.418.16-Jul-2020 4198.01 4795.68 79.29 5.00 246.71 2828.58
   18:40:23.618.16-Jul-2020 4198.01 4795.60 79.29 5.00 246.91 2828.58
   18:40:23.818.16-Jul-2020 4198.01 4795.60 79.29 5.00 247.11 2828.58
   18:40:24.018.16-Jul-2020 4198.01 4795.70 79.29 5.00 247.31 2828.58
   18:40:24.218.16-Jul-2020 4198.01 4795.83 79.29 5.00 247.51 2828.58
   18:40:24.418.16-Jul-2020 4198.01 4795.87 79.29 5.00 247.71 2828.58
   18:40:24.618.16-Jul-2020 4198.01 4795.81 79.29 5.00 247.91 2828.58
   18:40:24.818.16-Jul-2020 4198.01 4795.81 79.29 5.00 248.11 2828.58
   18:40:25.018.16-Jul-2020 4198.01 4796.13 79.29 5.00 248.31 2828.58
   18:40:25.218.16-Jul-2020 4198.01 4795.62 79.29 5.00 248.51 2828.58
   18:40:25.417.16-Jul-2020 4198.01 4795.82 79.29 5.00 248.71 2828.58
   18:40:25.617.16-Jul-2020 4198.01 4795.88 79.29 5.00 248.91 2828.58
   18:40:25.817.16-Jul-2020 4198.01 4795.88 79.29 5.00 249.11 2828.58
   18:40:26.017.16-Jul-2020 4198.01 4795.87 79.29 5.00 249.31 2828.58
   18:40:26.217.16-Jul-2020 4198.01 4795.74 79.29 5.00 249.51 2828.58
   18:40:26.417.16-Jul-2020 4198.01 4795.78 79.29 5.00 249.71 2828.58
   18:40:26.617.16-Jul-2020 4198.01 4795.82 79.29 5.00 249.91 2828.58
   18:40:26.817.16-Jul-2020 4198.01 4795.86 79.29 5.00 250.11 2828.58
   18:40:27.017.16-Jul-2020 4198.01 4795.77 79.29 5.00 250.31 2828.58
   18:40:27.217.16-Jul-2020 4198.01 4795.82 79.29 5.00 250.51 2828.58
   18:40:27.417.16-Jul-2020 4198.01 4795.87 79.29 5.00 250.71 2828.58
   18:40:27.617.16-Jul-2020 4198.01 4795.88 79.29 5.00 250.91 2828.58
   18:40:27.817.16-Jul-2020 4198.01 4795.88 79.29 5.00 251.11 2828.58
   18:40:28.016.16-Jul-2020 4198.01 4795.93 79.29 5.00 251.31 2828.58
   18:40:28.216.16-Jul-2020 4198.01 4795.71 79.29 5.00 251.51 2828.58
   18:40:28.416.16-Jul-2020 4198.01 4795.76 79.29 5.00 251.71 2828.58
   18:40:28.616.16-Jul-2020 4198.01 4795.96 79.29 5.00 251.91 2828.58
   18:40:28.816.16-Jul-2020 4198.01 4795.96 79.29 5.00 252.11 2828.58
   18:40:29.016.16-Jul-2020 4198.01 4649.86 79.29 5.00 252.31 2828.58
   18:40:29.216.16-Jul-2020 4198.01 4498.17 79.29 5.00 252.51 2828.58
   18:40:29.416.16-Jul-2020 4198.01 4466.71 79.29 5.00 252.71 2828.58
