~Version Information
 VERS.                  2.0:   CWLS log ASCII Standard -VERSION 2.0
 WRAP.                   NO:   One line per depth step
~Well Information Block
#MNEM.UNIT     VALUE/NAME     DESCRIPTION
#---------     -----------    ---------------------------
 STRT.S             22:12:50 16-Jul-20: START TIME 22:12:50 16-Jul-20
 STOP.S             22:19:40 16-Jul-20: STOP TIME  22:19:40 16-Jul-20
 STEP.S                   0.00: STEP TIME
 NULL.                 -999.25: NULL VALUE
 MDS .        Operator Entered:  MAG DATA SOURCE
 UNIT.                     N/A:  LOGGING EQUIPMENT ID
 DCON.         Sperry Drilling:  DIRECTNL CONTR
 DOE .                     N/A:  DOE NUMBER
 RIG .               EastAzeri:  RIG NAME
 JOBN.        AZ-XX-0906363297:  JOB TICKET NUMB
 MWDS.                    Baku:  MWD SHOP
 SRVC.     Turan Drilling & Engineering:  CONTRACTOR
 PROV.                    Baku:  PROVINCE
 STAT.                    Baku:  STATE NAME
 REGN.                   EESSA:  REGION
 BASE.              Azerbaijan:  LOGGING EQUIPMENT BASE LOCATION
 WTYP.                Deviated:  WELL TYPE
 UWI .                     N/A:  UNIQUE WELL IDENTIFIER
 API .                     N/A:  API NUMBER
 COMP.     BP Exploration (Caspian Sea) ltd.:  COMPANY
 WELL.                    D07z:  WELL NAME
 CTRY.              Azerbaijan:  COUNTRY NAME
 SON .        AZ-XX-0906363297:  JOB NUMBER
 FLD .                     ACG:  FIELD NAME
 PDAT.          Mean Sea Level:  PERMANENT DATUM
 FTOP.          Formation Tops:  FORM TOPS DESC
 ILTD.               Lithology:  INTERP LTH DESC
 SVYD.                  Survey:  SURVEY DESC
 DMOD.             Drill Model:  DRILL MOD DESC
 HPTY.       Minimum Curvature:  HOLE POS TYPE
 NREF.                    Grid:  NORTH REFERENCE
 SPUD.               28-Jun-20:  SPUD DATE
 DATE.      18.27.12 28-Jun-20:  END TIME
 STIM.      18.27.12 28-Jun-20:  START TIME
 DMF .             Drill Floor:  DRILL MEAS FROM
 DFST.                        :  DIST FSL TEXT
 DFWT.                        :  DIST FWL TEXT
 CNTY.                        :  COUNTY
 LOC .                        :  LOCATION
 LMF .             Drill Floor:  LOG MEASURED FROM
 VSNS.m                  -7.75:  VERT SEC N/S
 VSEW.m                  -9.19:  VERT SEC E/W
 MMDE.m                   0.00:  MAGUTM CALC DEP
 AGAP.m                  43.60:  AIR GAP
 DEP .m                4058.99:  DEPTH
 APD .m                  43.60:  DEPTH ABOVE PD
 WDMS.m                 151.80:  WD ELEV
 EGL .m                   0.00:  GROUND ELEVATION
 EPD .m                   0.00:  ELEVATION
 AZTC.deg                 6.19:  AZM TOTAL CORR
 GRDC.deg                 0.27:  GRID CORRECTION
 MDEC.deg                 6.46:  MAGNETIC DECL
 MDIP.deg                59.47:  MAGNETIC DIP
 MFLD.nT              50279.00:  MAGNETIC FIELD
 GVFD.g                   1.00:  GRAVITY FIELD
 VSDR.deg               249.96:  VERT SEC DIRECT
 TDD .m                   0.00:  TOTAL DEPTH (DRILLER)
 SDEP.m                   0.00:  START DEPTH
 DFSL.m                   0.00:  DISTANCE FSL
 DFWL.m                   0.00:  DISTANCE FWL
 UTMY.m             4431880.20:  UTM Y
 UTMX.m              538763.98:  UTM X
 WHEW.m                  -9.19:  WELL HEAD E/W
 WHNS.m                  -7.75:  WELL HEAD N/S
 LONG.deg                51.45:  LONGITUDE
 LATI.deg                40.02:  LATITUDE
 TVDS.m                  43.60:  TVDSS CORRECTN
 EKB .m                  43.60:  KB ELEVATION
 EDF .m                  43.60:  DF ELEVATION
 TDL .m                 248.00:  TOTAL DEPTH (LOGGER)
 MAGU.                 1849075:  MAGUTM CHECKSUM
 VSC .                       0:  VS TO CLOSURE
~Parameter Information Block
#MNEM.UNIT       Value        Description
#---------     -----------    ---------------------------
 AV  .mps                 6.34:  Ann Velocity 
 AVMX.mps                 7.00:  Max Ann Veloc 
 AZIF.deg               260.29:  Azm, Final 
 BHAT.        Rotary Steerable:  BHA Type 
 BROT.°/30m               1.20:  Build Rotating 
 BS  .in                  8.50:  Bit Size 
 BSZ .in                  8.50:  Bit Size 
 BTPL.psig              620.00:  Bit Press Loss 
 CABU.                     Yes:  Customer Abuse 
 TCS .hr                 56.22:  Time Ciculation Ended 
 CV  .mps                 3.05:  Crit Velocity 
 CVMX.mps                 3.20:  Max Crit Veloc 
 DD1 .            Musa Ahmadov:  Direct Drillr 1 
 DDSV.                 iCruise:  DD Service 
 DEFF.%                  98.00:  % Det Eff 
 DLRX.°/30m               2.78:  Dogleg Rot Max 
 DLSO.°/30m               0.00:  Dogleg Oriented 
 DLSX.°/30m               0.00:  Dogleg Str Max 
 DRET.      05.20.48 16-Jul-20:  Drill End Time 
 DRST.      10.20.48 13-Jul-20:  Drill Start Tim 
 DTIM.hr                 14.25:  Time Drilling 
 EDEP.m                4326.01:  End Depth 
 ENG1.      Artemiy Matviyanov:  Engineer 1 
 ENG2.           Amrah Tahirov:  Engineer 2 
 ETIM.      22.30.00 18-Jul-20:  End Time 
 FLOI.gpm               550.00:  Flow In 
 FLON.gpm               450.00:  Flow In Min 
 FLOS.cptm                0.00:  Fluid Loss 
 FLOX.gpm               600.00:  Flow In Max 
 HFLO.                      No:  High Flow 
 HPRE.                      No:  High Pressure 
 HTEM.                      No:  High Temp 
 HYDO.m                   1.80:  Hydro Offset 
 IFIN.deg                65.41:  Inc, Final 
 IMAX.deg                65.14:  Inc Max 
 IMIN.deg                58.89:  Inc Min 
 IMND.m                4104.92:  Inc Min Depth 
 IMXD.m                4303.89:  Inc Max Depth 
 JARR.                      No:  Jarring 
 LETM.      10.20.48 17-Jul-20:  Log End Time 
 LOST.hr                     0:  Lost Rig Time 
 LSTM.      10.20.48 13-Jul-20:  Log Start Time 
 MDCL.ppm             37000.00:  Mud Chlorides 
 MDES.     Inversion Oil/Synthetic:  Mud Desc 
 DFD .sg                  1.52:  Mud Density 
 MDMN.sg                  1.52:  Dens Mud Min 
 MDMX.sg                  1.52:  Dens Mud Max 
 MOIL.                   52.70:  Run Mud Oil % 
 MOWR.                   68:32:  Run Mud OWR 
 MSND.                     0.2:  Run Mud Sand % 
 MSOL.                    21.6:  Run Mud Solids% 
 DFV .spqt               79.00:  Mud Viscosity 
 MWOD.in                  6.75:  MWD Tool OD 
 MWSI.                      No:  Serv Intrp, MWD 
 OTIM.hr                114.04:  Time Operating 
 PCON.          Wear / Scratch:  Pad Condition 
 PMAX.psia            11782.92:  Press Op, Max 
 PV  .cP                 49.00:  Mud PV 
 RUN .                     600:  Run Number 
 ROPA.m/hr               20.00:  ROP Avg 
 ROPN.m/hr               15.00:  ROP Min 
 ROPX.m/hr               22.00:  ROP Max 
 RPMA.rpm               120.00:  RPM Surface Avg 
 RPMN.rpm                90.00:  RPM Surface Min 
 RPMX.rpm               140.00:  RPM Surface Max 
 RRUN.                     600:  Rig Run Number 
 SAZI.deg               260.29:  Azm, Start 
 SDEP.m                4078.01:  Start Depth 
 SIDD.                      No:  Serv Intrp, DD 
 SINC.deg                58.89:  Inc, Start 
 SPPA.psig             4560.00:  SPP Avg 
 SPPN.psig             3600.00:  SPP Min 
 SPPX.psig             4800.00:  SPP Max 
 STIM.      10.20.48 13-Jul-20:  Start Time 
 SVCS.                 DD, MWD:  Services 
 SVER.                    9.20:  Sperry Version 
 TDAT.m                4378.01:  Tot Depth Attmp 
 TDDF.                      No:  Trip for DD 
 TDLG.m                 248.00:  Tot Depth Loggd 
 TFF .                      No:  Trip for Fail 
 TQAA.f-kp               18.00:  Torque Abs Avg 
 TQAN.f-kp               15.00:  Torque Abs Min 
 TQAX.f-kp               20.00:  Torque Abs Max 
 TRRT.°/30m               0.70:  Turn Rotating 
 MRT .                    HCIM:  Maximum Recorded Temperature 
 TTMX.degC               86.00:  Max Tool Temp 
 WBMN.klb                 3.00:  WOB Min 
 WOBA.klb                 5.00:  WOB Avg 
 WOBX.klb                 9.00:  WOB Max 
 YP  .lhf2               32.00:  Yield Point 
~Curve Information Block
#MNEM.UNIT                 API CODE     Curve Description
#---------               -----------    ---------------------------
 TIME.HHMMSS            00 000 000 000:  GT Time & Date
 GTDEPTH.m              00 000 000 000:  GT Depth
 GTPQH.psia             00 000 000 000:  GT HR Quartz Pressure
 GTTQ.degC              00 000 000 000:  GT Quartz Temperature
 GTTN.NONE              00 000 000 000:  GT Test Number
 GTET.sec               00 000 000 000:  GT Elapsed Test Time
 GTTVD.m                00 000 000 000:  GT True Vertical Depth
#Other Information
#
#WARRANTY: Halliburton will use its best efforts to furnish customers with 
#accurate information and interpretations that are part of, and incident to, the services 
#provided.  However, Halliburton cannot and does not warrant the accuracy 
#or correctness of such information and interpretations.  Under no circumstances should any 
#such information or interpretation be relied upon as the sole basis for any drilling, 
#completion, production, or financial decision or any procedure involving any risk to the 
#safety of any drilling venture, drilling rig or its crew or any other third party.  The 
#Customer has full responsibility for all drilling, completion and production operation.  
#Halliburton makes no representations or warranties, either expressed or 
#implied, including, but not limited to, the implied warranties of merchantability or fitness 
#for a particular purpose, with respect to the services rendered.  In no event will 
#Halliburton be liable for failure to obtain any particular results or for 
#any damages, including, but not limited to, indirect, special or consequential damages, 
#resulting from the use of any information or interpretation provided by Halliburton.
#
~A           TIME           GTDEPTH  GTPQH  GTTQ  GTTN  GTET   GTTVD  
   22:12:50.295.16-Jul-2020 4093.01 6766.43 76.45 8.00   0.00 2778.38
   22:12:50.495.16-Jul-2020 4093.01 6766.43 76.45 8.00   0.20 2778.38
   22:12:50.695.16-Jul-2020 4093.01 6756.50 76.45 8.00   0.40 2778.38
   22:12:50.895.16-Jul-2020 4093.01 6761.93 76.45 8.00   0.60 2778.38
   22:12:51.095.16-Jul-2020 4093.01 6759.90 76.45 8.00   0.80 2778.38
   22:12:51.295.16-Jul-2020 4093.01 6762.33 76.45 8.00   1.00 2778.38
   22:12:51.495.16-Jul-2020 4093.01 6763.33 76.45 8.00   1.20 2778.38
   22:12:51.695.16-Jul-2020 4093.01 6765.06 76.45 8.00   1.40 2778.38
   22:12:51.895.16-Jul-2020 4093.01 6773.67 76.45 8.00   1.60 2778.38
   22:12:52.096.16-Jul-2020 4093.01 6765.03 76.45 8.00   1.80 2778.38
   22:12:52.296.16-Jul-2020 4093.01 6764.73 76.45 8.00   2.00 2778.38
   22:12:52.496.16-Jul-2020 4093.01 6764.73 76.45 8.00   2.20 2778.38
   22:12:52.696.16-Jul-2020 4093.01 6764.73 76.45 8.00   2.40 2778.38
   22:12:52.896.16-Jul-2020 4093.01 6764.73 76.45 8.00   2.60 2778.38
   22:12:53.096.16-Jul-2020 4093.01 6765.76 76.45 8.00   2.80 2778.38
   22:12:53.296.16-Jul-2020 4093.01 6767.62 76.45 8.00   3.00 2778.38
   22:12:53.496.16-Jul-2020 4093.01 6767.13 76.45 8.00   3.20 2778.38
   22:12:53.696.16-Jul-2020 4093.01 6776.89 76.45 8.00   3.40 2778.38
   22:12:53.896.16-Jul-2020 4093.01 6765.32 76.45 8.00   3.60 2778.38
   22:12:54.096.16-Jul-2020 4093.01 6766.46 76.45 8.00   3.80 2778.38
   22:12:54.296.16-Jul-2020 4093.01 6770.19 76.45 8.00   4.00 2778.38
   22:12:54.496.16-Jul-2020 4093.01 6778.13 76.45 8.00   4.20 2778.38
   22:12:54.697.16-Jul-2020 4093.01 6768.43 76.45 8.00   4.40 2778.38
   22:12:54.897.16-Jul-2020 4093.01 6771.28 76.45 8.00   4.60 2778.38
   22:12:55.097.16-Jul-2020 4093.01 6782.54 76.45 8.00   4.80 2778.38
   22:12:55.297.16-Jul-2020 4093.01 6771.43 76.45 8.00   5.00 2778.38
   22:12:55.497.16-Jul-2020 4093.01 6771.43 76.45 8.00   5.20 2778.38
   22:12:55.697.16-Jul-2020 4093.01 6785.04 76.45 8.00   5.40 2778.38
   22:12:55.897.16-Jul-2020 4093.01 6773.65 76.45 8.00   5.60 2778.38
   22:12:56.097.16-Jul-2020 4093.01 6774.23 76.45 8.00   5.80 2778.38
   22:12:56.297.16-Jul-2020 4093.01 6788.01 76.45 8.00   6.00 2778.38
   22:12:56.497.16-Jul-2020 4093.01 6788.01 76.45 8.00   6.20 2778.38
   22:12:56.697.16-Jul-2020 4093.01 6776.73 76.45 8.00   6.40 2778.38
   22:12:56.897.16-Jul-2020 4093.01 6778.81 76.45 8.00   6.60 2778.38
   22:12:57.097.16-Jul-2020 4093.01 6777.96 76.45 8.00   6.80 2778.38
   22:12:57.298.16-Jul-2020 4093.01 6782.82 76.45 8.00   7.00 2778.38
   22:12:57.498.16-Jul-2020 4093.01 6783.57 76.45 8.00   7.20 2778.38
   22:12:57.698.16-Jul-2020 4093.01 6777.12 76.45 8.00   7.40 2778.38
   22:12:57.898.16-Jul-2020 4093.01 6779.81 76.45 8.00   7.60 2778.38
   22:12:58.098.16-Jul-2020 4093.01 6789.83 76.45 8.00   7.80 2778.38
   22:12:58.298.16-Jul-2020 4093.01 6778.14 76.45 8.00   8.00 2778.38
   22:12:58.498.16-Jul-2020 4093.01 6778.14 76.45 8.00   8.20 2778.38
   22:12:58.698.16-Jul-2020 4093.01 6781.27 76.45 8.00   8.40 2778.38
   22:12:58.898.16-Jul-2020 4093.01 6780.36 76.45 8.00   8.60 2778.38
   22:12:59.098.16-Jul-2020 4093.01 6781.61 76.45 8.00   8.80 2778.38
   22:12:59.298.16-Jul-2020 4093.01 6791.74 76.45 8.00   9.00 2778.38
   22:12:59.498.16-Jul-2020 4093.01 6791.74 76.45 8.00   9.20 2778.38
   22:12:59.698.16-Jul-2020 4093.01 6780.43 76.45 8.00   9.40 2778.38
   22:12:59.898.16-Jul-2020 4093.01 6786.90 76.45 8.00   9.60 2778.38
   22:13:00.099.16-Jul-2020 4093.01 6786.34 76.45 8.00   9.80 2778.38
   22:13:00.299.16-Jul-2020 4093.01 6789.81 76.45 8.00  10.00 2778.38
   22:13:00.499.16-Jul-2020 4093.01 6789.81 76.45 8.00  10.20 2778.38
   22:13:00.699.16-Jul-2020 4093.01 6785.94 76.45 8.00  10.40 2778.38
   22:13:00.899.16-Jul-2020 4093.01 6784.42 76.45 8.00  10.60 2778.38
   22:13:01.099.16-Jul-2020 4093.01 6783.79 76.45 8.00  10.80 2778.38
   22:13:01.299.16-Jul-2020 4093.01 6785.63 76.45 8.00  11.00 2778.38
   22:13:01.499.16-Jul-2020 4093.01 6783.50 76.45 8.00  11.20 2778.38
   22:13:01.699.16-Jul-2020 4093.01 6786.26 76.45 8.00  11.40 2778.38
   22:13:01.899.16-Jul-2020 4093.01 6784.43 76.45 8.00  11.60 2778.38
   22:13:02.099.16-Jul-2020 4093.01 6784.97 76.45 8.00  11.80 2778.38
   22:13:02.299.16-Jul-2020 4093.01 6785.81 76.45 8.00  12.00 2778.38
   22:13:02.499.16-Jul-2020 4093.01 6785.81 76.45 8.00  12.20 2778.38
   22:13:02.700.16-Jul-2020 4093.01 6785.09 76.45 8.00  12.40 2778.38
   22:13:02.900.16-Jul-2020 4093.01 6785.47 76.45 8.00  12.60 2778.38
   22:13:03.100.16-Jul-2020 4093.01 6786.53 76.45 8.00  12.80 2778.38
   22:13:03.300.16-Jul-2020 4093.01 6784.84 76.45 8.00  13.00 2778.38
   22:13:03.500.16-Jul-2020 4093.01 6784.84 76.45 8.00  13.20 2778.38
   22:13:03.700.16-Jul-2020 4093.01 6791.81 76.45 8.00  13.41 2778.38
   22:13:03.900.16-Jul-2020 4093.01 6785.08 76.45 8.00  13.61 2778.38
   22:13:04.100.16-Jul-2020 4093.01 6787.30 76.45 8.00  13.81 2778.38
   22:13:04.300.16-Jul-2020 4093.01 6788.12 76.45 8.00  14.01 2778.38
   22:13:04.500.16-Jul-2020 4093.01 6788.12 76.45 8.00  14.21 2778.38
   22:13:04.700.16-Jul-2020 4093.01 6788.12 76.45 8.00  14.41 2778.38
   22:13:04.900.16-Jul-2020 4093.01 6788.25 76.45 8.00  14.61 2778.38
   22:13:05.100.16-Jul-2020 4093.01 6787.27 76.45 8.00  14.81 2778.38
   22:13:05.301.16-Jul-2020 4093.01 6789.49 76.45 8.00  15.01 2778.38
   22:13:05.501.16-Jul-2020 4093.01 6788.56 76.45 8.00  15.21 2778.38
   22:13:05.701.16-Jul-2020 4093.01 6788.88 76.45 8.00  15.41 2778.38
   22:13:05.901.16-Jul-2020 4093.01 6788.91 76.45 8.00  15.61 2778.38
   22:13:06.101.16-Jul-2020 4093.01 6789.37 76.45 8.00  15.81 2778.38
   22:13:06.301.16-Jul-2020 4093.01 6789.84 76.45 8.00  16.01 2778.38
   22:13:06.501.16-Jul-2020 4093.01 6789.44 76.45 8.00  16.21 2778.38
   22:13:06.701.16-Jul-2020 4093.01 6790.74 76.45 8.00  16.41 2778.38
   22:13:06.901.16-Jul-2020 4093.01 6800.92 76.45 8.00  16.61 2778.38
   22:13:07.101.16-Jul-2020 4093.01 6789.59 76.45 8.00  16.81 2778.38
   22:13:07.301.16-Jul-2020 4093.01 6790.94 76.45 8.00  17.01 2778.38
   22:13:07.501.16-Jul-2020 4093.01 6790.94 76.45 8.00  17.21 2778.38
   22:13:07.701.16-Jul-2020 4093.01 6791.81 76.45 8.00  17.41 2778.38
   22:13:07.901.16-Jul-2020 4093.01 6803.65 76.45 8.00  17.61 2778.38
   22:13:08.102.16-Jul-2020 4093.01 6791.29 76.45 8.00  17.81 2778.38
   22:13:08.302.16-Jul-2020 4093.01 6791.47 76.45 8.00  18.01 2778.38
   22:13:08.502.16-Jul-2020 4093.01 6791.47 76.45 8.00  18.21 2778.38
   22:13:08.702.16-Jul-2020 4093.01 6792.59 76.45 8.00  18.41 2778.38
   22:13:08.902.16-Jul-2020 4093.01 6805.43 76.45 8.00  18.61 2778.38
   22:13:09.102.16-Jul-2020 4093.01 6792.89 76.45 8.00  18.81 2778.38
   22:13:09.302.16-Jul-2020 4093.01 6793.48 76.44 8.00  19.01 2778.38
   22:13:09.502.16-Jul-2020 4093.01 6793.48 76.44 8.00  19.21 2778.38
   22:13:09.702.16-Jul-2020 4093.01 6794.50 76.44 8.00  19.41 2778.38
   22:13:09.902.16-Jul-2020 4093.01 6807.41 76.44 8.00  19.61 2778.38
   22:13:10.102.16-Jul-2020 4093.01 6794.71 76.44 8.00  19.81 2778.38
   22:13:10.302.16-Jul-2020 4093.01 6796.02 76.44 8.00  20.01 2778.38
   22:13:10.502.16-Jul-2020 4093.01 6803.35 76.44 8.00  20.21 2778.38
   22:13:10.703.16-Jul-2020 4093.01 6803.18 76.44 8.00  20.41 2778.38
   22:13:10.903.16-Jul-2020 4093.01 6797.43 76.44 8.00  20.61 2778.38
   22:13:11.103.16-Jul-2020 4093.01 6799.21 76.44 8.00  20.81 2778.38
   22:13:11.303.16-Jul-2020 4093.01 6799.22 76.44 8.00  21.01 2778.38
   22:13:11.503.16-Jul-2020 4093.01 6799.22 76.44 8.00  21.21 2778.38
   22:13:11.703.16-Jul-2020 4093.01 6804.68 76.44 8.00  21.41 2778.38
   22:13:11.903.16-Jul-2020 4093.01 6803.39 76.44 8.00  21.61 2778.38
   22:13:12.103.16-Jul-2020 4093.01 6798.69 76.44 8.00  21.81 2778.38
   22:13:12.303.16-Jul-2020 4093.01 6801.02 76.44 8.00  22.01 2778.38
   22:13:12.503.16-Jul-2020 4093.01 6801.02 76.44 8.00  22.21 2778.38
   22:13:12.703.16-Jul-2020 4093.01 6800.95 76.44 8.00  22.41 2778.38
   22:13:12.903.16-Jul-2020 4093.01 6801.09 76.44 8.00  22.61 2778.38
   22:13:13.103.16-Jul-2020 4093.01 6801.32 76.44 8.00  22.81 2778.38
