~Version Information
 VERS.                  2.0:   CWLS log ASCII Standard -VERSION 2.0
 WRAP.                   NO:   One line per depth step
~Well Information Block
#MNEM.UNIT     VALUE/NAME     DESCRIPTION
#---------     -----------    ---------------------------
 STRT.S             16:06:05 16-Jul-20: START TIME 16:06:05 16-Jul-20
 STOP.S             16:12:59 16-Jul-20: STOP TIME  16:12:59 16-Jul-20
 STEP.S                   0.00: STEP TIME
 NULL.                 -999.25: NULL VALUE
 MDS .        Operator Entered:  MAG DATA SOURCE
 UNIT.                     N/A:  LOGGING EQUIPMENT ID
 DCON.         Sperry Drilling:  DIRECTNL CONTR
 DOE .                     N/A:  DOE NUMBER
 RIG .               EastAzeri:  RIG NAME
 JOBN.        AZ-XX-0906363297:  JOB TICKET NUMB
 MWDS.                    Baku:  MWD SHOP
 SRVC.     Turan Drilling & Engineering:  CONTRACTOR
 PROV.                    Baku:  PROVINCE
 STAT.                    Baku:  STATE NAME
 REGN.                   EESSA:  REGION
 BASE.              Azerbaijan:  LOGGING EQUIPMENT BASE LOCATION
 WTYP.                Deviated:  WELL TYPE
 UWI .                     N/A:  UNIQUE WELL IDENTIFIER
 API .                     N/A:  API NUMBER
 COMP.     BP Exploration (Caspian Sea) ltd.:  COMPANY
 WELL.                    D07z:  WELL NAME
 CTRY.              Azerbaijan:  COUNTRY NAME
 SON .        AZ-XX-0906363297:  JOB NUMBER
 FLD .                     ACG:  FIELD NAME
 PDAT.          Mean Sea Level:  PERMANENT DATUM
 FTOP.          Formation Tops:  FORM TOPS DESC
 ILTD.               Lithology:  INTERP LTH DESC
 SVYD.                  Survey:  SURVEY DESC
 DMOD.             Drill Model:  DRILL MOD DESC
 HPTY.       Minimum Curvature:  HOLE POS TYPE
 NREF.                    Grid:  NORTH REFERENCE
 SPUD.               28-Jun-20:  SPUD DATE
 DATE.      18.27.12 28-Jun-20:  END TIME
 STIM.      18.27.12 28-Jun-20:  START TIME
 DMF .             Drill Floor:  DRILL MEAS FROM
 DFST.                        :  DIST FSL TEXT
 DFWT.                        :  DIST FWL TEXT
 CNTY.                        :  COUNTY
 LOC .                        :  LOCATION
 LMF .             Drill Floor:  LOG MEASURED FROM
 VSNS.m                  -7.75:  VERT SEC N/S
 VSEW.m                  -9.19:  VERT SEC E/W
 MMDE.m                   0.00:  MAGUTM CALC DEP
 AGAP.m                  43.60:  AIR GAP
 DEP .m                4058.99:  DEPTH
 APD .m                  43.60:  DEPTH ABOVE PD
 WDMS.m                 151.80:  WD ELEV
 EGL .m                   0.00:  GROUND ELEVATION
 EPD .m                   0.00:  ELEVATION
 AZTC.deg                 6.19:  AZM TOTAL CORR
 GRDC.deg                 0.27:  GRID CORRECTION
 MDEC.deg                 6.46:  MAGNETIC DECL
 MDIP.deg                59.47:  MAGNETIC DIP
 MFLD.nT              50279.00:  MAGNETIC FIELD
 GVFD.g                   1.00:  GRAVITY FIELD
 VSDR.deg               249.96:  VERT SEC DIRECT
 TDD .m                   0.00:  TOTAL DEPTH (DRILLER)
 SDEP.m                   0.00:  START DEPTH
 DFSL.m                   0.00:  DISTANCE FSL
 DFWL.m                   0.00:  DISTANCE FWL
 UTMY.m             4431880.20:  UTM Y
 UTMX.m              538763.98:  UTM X
 WHEW.m                  -9.19:  WELL HEAD E/W
 WHNS.m                  -7.75:  WELL HEAD N/S
 LONG.deg                51.45:  LONGITUDE
 LATI.deg                40.02:  LATITUDE
 TVDS.m                  43.60:  TVDSS CORRECTN
 EKB .m                  43.60:  KB ELEVATION
 EDF .m                  43.60:  DF ELEVATION
 TDL .m                 248.00:  TOTAL DEPTH (LOGGER)
 MAGU.                 1849075:  MAGUTM CHECKSUM
 VSC .                       0:  VS TO CLOSURE
~Parameter Information Block
#MNEM.UNIT       Value        Description
#---------     -----------    ---------------------------
 AV  .mps                 6.34:  Ann Velocity 
 AVMX.mps                 7.00:  Max Ann Veloc 
 AZIF.deg               260.29:  Azm, Final 
 BHAT.        Rotary Steerable:  BHA Type 
 BROT.°/30m               1.20:  Build Rotating 
 BS  .in                  8.50:  Bit Size 
 BSZ .in                  8.50:  Bit Size 
 BTPL.psig              620.00:  Bit Press Loss 
 CABU.                     Yes:  Customer Abuse 
 COMM.                     l&q:  Run Comments 1 
 TCS .hr                 56.22:  Time Ciculation Ended 
 CV  .mps                 3.05:  Crit Velocity 
 CVMX.mps                 3.20:  Max Crit Veloc 
 DD1 .            Musa Ahmadov:  Direct Drillr 1 
 DDSV.                 iCruise:  DD Service 
 DEFF.%                  98.00:  % Det Eff 
 DLRX.°/30m               2.78:  Dogleg Rot Max 
 DLSO.°/30m               0.00:  Dogleg Oriented 
 DLSX.°/30m               0.00:  Dogleg Str Max 
 DRET.      05.20.48 16-Jul-20:  Drill End Time 
 DRST.      10.20.48 13-Jul-20:  Drill Start Tim 
 DTIM.hr                 14.25:  Time Drilling 
 EDEP.m                4326.01:  End Depth 
 ENG1.      Artemiy Matviyanov:  Engineer 1 
 ENG2.           Amrah Tahirov:  Engineer 2 
 ETIM.      22.30.00 18-Jul-20:  End Time 
 FLOI.gpm               550.00:  Flow In 
 FLON.gpm               450.00:  Flow In Min 
 FLOS.cptm                0.00:  Fluid Loss 
 FLOX.gpm               600.00:  Flow In Max 
 HFLO.                      No:  High Flow 
 HPRE.                      No:  High Pressure 
 HTEM.                      No:  High Temp 
 HYDO.m                   1.80:  Hydro Offset 
 IFIN.deg                65.41:  Inc, Final 
 IMAX.deg                65.14:  Inc Max 
 IMIN.deg                58.89:  Inc Min 
 IMND.m                4104.92:  Inc Min Depth 
 IMXD.m                4303.89:  Inc Max Depth 
 JARR.                      No:  Jarring 
 LETM.      10.20.48 17-Jul-20:  Log End Time 
 LOST.hr                     0:  Lost Rig Time 
 LSTM.      10.20.48 13-Jul-20:  Log Start Time 
 MDCL.ppm             37000.00:  Mud Chlorides 
 MDES.     Inversion Oil/Synthetic:  Mud Desc 
 DFD .sg                  1.52:  Mud Density 
 MDMN.sg                  1.52:  Dens Mud Min 
 MDMX.sg                  1.52:  Dens Mud Max 
 MOIL.                   52.70:  Run Mud Oil % 
 MOWR.                   68:32:  Run Mud OWR 
 MSND.                     0.2:  Run Mud Sand % 
 MSOL.                    21.6:  Run Mud Solids% 
 DFV .spqt               79.00:  Mud Viscosity 
 MWOD.in                  6.75:  MWD Tool OD 
 MWSI.                      No:  Serv Intrp, MWD 
 OTIM.hr                114.04:  Time Operating 
 PCON.          Wear / Scratch:  Pad Condition 
 PMAX.psia            11782.92:  Press Op, Max 
 PV  .cP                 49.00:  Mud PV 
 RUN .                     600:  Run Number 
 ROPA.m/hr               20.00:  ROP Avg 
 ROPN.m/hr               15.00:  ROP Min 
 ROPX.m/hr               22.00:  ROP Max 
 RPMA.rpm               120.00:  RPM Surface Avg 
 RPMN.rpm                90.00:  RPM Surface Min 
 RPMX.rpm               140.00:  RPM Surface Max 
 RRUN.                     600:  Rig Run Number 
 SAZI.deg               260.29:  Azm, Start 
 SDEP.m                4078.01:  Start Depth 
 SIDD.                      No:  Serv Intrp, DD 
 SINC.deg                58.89:  Inc, Start 
 SPPA.psig             4560.00:  SPP Avg 
 SPPN.psig             3600.00:  SPP Min 
 SPPX.psig             4800.00:  SPP Max 
 STIM.      10.20.48 13-Jul-20:  Start Time 
 SVCS.                 DD, MWD:  Services 
 SVER.                    9.20:  Sperry Version 
 TDAT.m                4378.01:  Tot Depth Attmp 
 TDDF.                      No:  Trip for DD 
 TDLG.m                 248.00:  Tot Depth Loggd 
 TFF .                      No:  Trip for Fail 
 TQAA.f-kp               18.00:  Torque Abs Avg 
 TQAN.f-kp               15.00:  Torque Abs Min 
 TQAX.f-kp               20.00:  Torque Abs Max 
 TRRT.°/30m               0.70:  Turn Rotating 
 MRT .                    HCIM:  Maximum Recorded Temperature 
 TTMX.degC               86.00:  Max Tool Temp 
 WBMN.klb                 3.00:  WOB Min 
 WOBA.klb                 5.00:  WOB Avg 
 WOBX.klb                 9.00:  WOB Max 
 YP  .lhf2               32.00:  Yield Point 
~Curve Information Block
#MNEM.UNIT                 API CODE     Curve Description
#---------               -----------    ---------------------------
 TIME.HHMMSS            00 000 000 000:  GT Time & Date
 GTDEPTH.m              00 000 000 000:  GT Depth
 GTPQH.psia             00 000 000 000:  GT HR Quartz Pressure
 GTTQ.degC              00 000 000 000:  GT Quartz Temperature
 GTTN.NONE              00 000 000 000:  GT Test Number
 GTET.sec               00 000 000 000:  GT Elapsed Test Time
 GTTVD.m                00 000 000 000:  GT True Vertical Depth
#Other Information
#
#WARRANTY: Halliburton will use its best efforts to furnish customers with 
#accurate information and interpretations that are part of, and incident to, the services 
#provided.  However, Halliburton cannot and does not warrant the accuracy 
#or correctness of such information and interpretations.  Under no circumstances should any 
#such information or interpretation be relied upon as the sole basis for any drilling, 
#completion, production, or financial decision or any procedure involving any risk to the 
#safety of any drilling venture, drilling rig or its crew or any other third party.  The 
#Customer has full responsibility for all drilling, completion and production operation.  
#Halliburton makes no representations or warranties, either expressed or 
#implied, including, but not limited to, the implied warranties of merchantability or fitness 
#for a particular purpose, with respect to the services rendered.  In no event will 
#Halliburton be liable for failure to obtain any particular results or for 
#any damages, including, but not limited to, indirect, special or consequential damages, 
#resulting from the use of any information or interpretation provided by Halliburton.
#
~A           TIME           GTDEPTH  GTPQH  GTTQ  GTTN  GTET   GTTVD  
# ...
   16:12:13.843.16-Jul-2020 4280.51 6992.98 80.16 1.00 368.08 2863.78
   16:12:14.043.16-Jul-2020 4280.51 6992.98 80.16 1.00 368.28 2863.78
   16:12:14.243.16-Jul-2020 4280.51 6995.97 80.16 1.00 368.48 2863.78
   16:12:14.443.16-Jul-2020 4280.51 6991.51 80.16 1.00 368.68 2863.78
   16:12:14.643.16-Jul-2020 4280.51 6998.28 80.16 1.00 368.88 2863.78
   16:12:14.843.16-Jul-2020 4280.51 6994.97 80.16 1.00 369.08 2863.78
   16:12:15.043.16-Jul-2020 4280.51 6994.97 80.16 1.00 369.28 2863.78
   16:12:15.243.16-Jul-2020 4280.51 6995.16 80.16 1.00 369.48 2863.78
   16:12:15.443.16-Jul-2020 4280.51 6993.75 80.16 1.00 369.68 2863.78
   16:12:15.643.16-Jul-2020 4280.51 6993.65 80.16 1.00 369.88 2863.78
   16:12:15.843.16-Jul-2020 4280.51 6995.97 80.16 1.00 370.08 2863.78
   16:12:16.043.16-Jul-2020 4280.51 6991.45 80.16 1.00 370.28 2863.78
   16:12:16.243.16-Jul-2020 4280.51 6994.44 80.16 1.00 370.48 2863.78
   16:12:16.443.16-Jul-2020 4280.51 6992.75 80.16 1.00 370.68 2863.78
   16:12:16.643.16-Jul-2020 4280.51 6992.23 80.16 1.00 370.88 2863.78
   16:12:16.843.16-Jul-2020 4280.51 7004.88 80.16 1.00 371.08 2863.78
   16:12:17.043.16-Jul-2020 4280.51 7004.88 80.16 1.00 371.28 2863.78
   16:12:17.243.16-Jul-2020 4280.51 6993.72 80.16 1.00 371.48 2863.78
   16:12:17.443.16-Jul-2020 4280.51 6997.51 80.16 1.00 371.68 2863.78
   16:12:17.643.16-Jul-2020 4280.51 6992.02 80.16 1.00 371.88 2863.78
   16:12:17.843.16-Jul-2020 4280.51 6994.74 80.16 1.00 372.08 2863.78
   16:12:18.043.16-Jul-2020 4280.51 6994.74 80.16 1.00 372.28 2863.78
   16:12:18.243.16-Jul-2020 4280.51 6995.05 80.16 1.00 372.48 2863.78
   16:12:18.443.16-Jul-2020 4280.51 6992.83 80.16 1.00 372.68 2863.78
   16:12:18.644.16-Jul-2020 4280.51 6990.89 80.16 1.00 372.88 2863.78
   16:12:18.844.16-Jul-2020 4280.51 6995.57 80.16 1.00 373.08 2863.78
   16:12:19.044.16-Jul-2020 4280.51 6995.57 80.16 1.00 373.28 2863.78
   16:12:19.244.16-Jul-2020 4280.51 6993.51 80.16 1.00 373.48 2863.78
   16:12:19.444.16-Jul-2020 4280.51 6992.30 80.16 1.00 373.68 2863.78
   16:12:19.644.16-Jul-2020 4280.51 6990.67 80.16 1.00 373.88 2863.78
   16:12:19.844.16-Jul-2020 4280.51 6992.42 80.16 1.00 374.08 2863.78
   16:12:20.044.16-Jul-2020 4280.51 6992.42 80.16 1.00 374.28 2863.78
   16:12:20.244.16-Jul-2020 4280.51 6995.22 80.16 1.00 374.48 2863.78
   16:12:20.444.16-Jul-2020 4280.51 6989.54 80.16 1.00 374.68 2863.78
   16:12:20.644.16-Jul-2020 4280.51 6997.74 80.16 1.00 374.88 2863.78
   16:12:20.844.16-Jul-2020 4280.51 7001.23 80.16 1.00 375.08 2863.78
   16:12:21.044.16-Jul-2020 4280.51 7001.23 80.16 1.00 375.28 2863.78
   16:12:21.244.16-Jul-2020 4280.51 6992.57 80.16 1.00 375.48 2863.78
   16:12:21.444.16-Jul-2020 4280.51 6998.15 80.16 1.00 375.68 2863.78
   16:12:21.644.16-Jul-2020 4280.51 6992.30 80.16 1.00 375.88 2863.78
   16:12:21.844.16-Jul-2020 4280.51 7008.75 80.16 1.00 376.08 2863.78
   16:12:22.044.16-Jul-2020 4280.51 7008.75 80.16 1.00 376.28 2863.78
   16:12:22.244.16-Jul-2020 4280.51 6990.46 80.16 1.00 376.48 2863.78
   16:12:22.444.16-Jul-2020 4280.51 7012.34 80.16 1.00 376.68 2863.78
   16:12:22.644.16-Jul-2020 4280.51 6990.92 80.16 1.00 376.88 2863.78
   16:12:22.844.16-Jul-2020 4280.51 6991.35 80.16 1.00 377.08 2863.78
   16:12:23.044.16-Jul-2020 4280.51 6994.80 80.16 1.00 377.28 2863.78
   16:12:23.244.16-Jul-2020 4280.51 6997.34 80.16 1.00 377.48 2863.78
   16:12:23.444.16-Jul-2020 4280.51 6991.99 80.16 1.00 377.68 2863.78
   16:12:23.645.16-Jul-2020 4280.51 6992.21 80.15 1.00 377.88 2863.78
   16:12:23.845.16-Jul-2020 4280.51 6996.41 80.15 1.00 378.08 2863.78
   16:12:24.045.16-Jul-2020 4280.51 6992.23 80.15 1.00 378.28 2863.78
   16:12:24.245.16-Jul-2020 4280.51 6995.97 80.15 1.00 378.48 2863.78
   16:12:24.445.16-Jul-2020 4280.51 6995.03 80.15 1.00 378.68 2863.78
   16:12:24.645.16-Jul-2020 4280.51 6993.27 80.15 1.00 378.88 2863.78
   16:12:24.845.16-Jul-2020 4280.51 6994.88 80.15 1.00 379.08 2863.78
   16:12:25.045.16-Jul-2020 4280.51 6994.88 80.15 1.00 379.28 2863.78
   16:12:25.245.16-Jul-2020 4280.51 7006.26 80.15 1.00 379.48 2863.78
   16:12:25.445.16-Jul-2020 4280.51 6994.40 80.15 1.00 379.68 2863.78
   16:12:25.645.16-Jul-2020 4280.51 6989.27 80.15 1.00 379.88 2863.78
   16:12:25.845.16-Jul-2020 4280.51 7000.11 80.15 1.00 380.08 2863.78
   16:12:26.045.16-Jul-2020 4280.51 7000.11 80.15 1.00 380.28 2863.78
   16:12:26.245.16-Jul-2020 4280.51 6993.51 80.15 1.00 380.48 2863.78
   16:12:26.445.16-Jul-2020 4280.51 6992.85 80.15 1.00 380.68 2863.78
   16:12:26.645.16-Jul-2020 4280.51 6992.41 80.15 1.00 380.88 2863.78
   16:12:26.845.16-Jul-2020 4280.51 6994.17 80.15 1.00 381.08 2863.78
   16:12:27.045.16-Jul-2020 4280.51 6990.75 80.15 1.00 381.28 2863.78
   16:12:27.245.16-Jul-2020 4280.51 6994.03 80.15 1.00 381.48 2863.78
   16:12:27.445.16-Jul-2020 4280.51 6992.74 80.15 1.00 381.68 2863.78
   16:12:27.645.16-Jul-2020 4280.51 6992.84 80.15 1.00 381.88 2863.78
   16:12:27.845.16-Jul-2020 4280.51 6994.85 80.15 1.00 382.08 2863.78
   16:12:28.045.16-Jul-2020 4280.51 6990.48 80.15 1.00 382.28 2863.78
   16:12:28.245.16-Jul-2020 4280.51 6993.57 80.15 1.00 382.48 2863.78
   16:12:28.446.16-Jul-2020 4280.51 7008.57 80.14 1.00 382.68 2863.78
   16:12:28.646.16-Jul-2020 4280.51 6988.05 80.14 1.00 382.88 2863.78
   16:12:28.846.16-Jul-2020 4280.51 6989.65 80.14 1.00 383.08 2863.78
   16:12:29.046.16-Jul-2020 4280.51 7007.44 80.14 1.00 383.28 2863.78
   16:12:29.246.16-Jul-2020 4280.51 6991.63 80.14 1.00 383.48 2863.78
   16:12:29.446.16-Jul-2020 4280.51 6991.63 80.14 1.00 383.68 2863.78
   16:12:29.646.16-Jul-2020 4280.51 6995.38 80.14 1.00 383.88 2863.78
   16:12:29.846.16-Jul-2020 4280.51 6994.29 80.14 1.00 384.08 2863.78
   16:12:30.046.16-Jul-2020 4280.51 6994.29 80.14 1.00 384.28 2863.78
   16:12:30.246.16-Jul-2020 4280.51 7009.17 80.14 1.00 384.48 2863.78
   16:12:30.446.16-Jul-2020 4280.51 6989.45 80.14 1.00 384.68 2863.78
   16:12:30.646.16-Jul-2020 4280.51 6987.33 80.14 1.00 384.88 2863.78
   16:12:30.846.16-Jul-2020 4280.51 7012.95 80.14 1.00 385.08 2863.78
   16:12:31.046.16-Jul-2020 4280.51 6989.48 80.14 1.00 385.28 2863.78
   16:12:31.246.16-Jul-2020 4280.51 6990.34 80.14 1.00 385.48 2863.78
   16:12:31.446.16-Jul-2020 4280.51 6995.46 80.14 1.00 385.68 2863.78
   16:12:31.646.16-Jul-2020 4280.51 6994.46 80.14 1.00 385.88 2863.78
   16:12:31.846.16-Jul-2020 4280.51 6994.33 80.14 1.00 386.08 2863.78
   16:12:32.046.16-Jul-2020 4280.51 6991.70 80.14 1.00 386.28 2863.78
   16:12:32.246.16-Jul-2020 4280.51 6995.96 80.14 1.00 386.48 2863.78
   16:12:32.446.16-Jul-2020 4280.51 6993.63 80.14 1.00 386.68 2863.78
   16:12:32.646.16-Jul-2020 4280.51 6993.11 80.14 1.00 386.88 2863.78
   16:12:32.846.16-Jul-2020 4280.51 6996.54 80.14 1.00 387.08 2863.78
   16:12:33.046.16-Jul-2020 4280.51 6996.54 80.14 1.00 387.28 2863.78
   16:12:33.247.16-Jul-2020 4280.51 6994.41 80.14 1.00 387.48 2863.78
   16:12:33.447.16-Jul-2020 4280.51 6992.17 80.14 1.00 387.68 2863.78
   16:12:33.647.16-Jul-2020 4280.51 7003.05 80.14 1.00 387.88 2863.78
   16:12:33.847.16-Jul-2020 4280.51 6995.93 80.14 1.00 388.08 2863.78
   16:12:34.047.16-Jul-2020 4280.51 6995.93 80.14 1.00 388.28 2863.78
   16:12:34.247.16-Jul-2020 4280.51 6999.12 80.13 1.00 388.48 2863.78
   16:12:34.447.16-Jul-2020 4280.51 6989.74 80.13 1.00 388.68 2863.78
   16:12:34.647.16-Jul-2020 4280.51 6991.30 80.13 1.00 388.88 2863.78
   16:12:34.847.16-Jul-2020 4280.51 6994.90 80.13 1.00 389.08 2863.78
   16:12:35.047.16-Jul-2020 4280.51 6994.90 80.13 1.00 389.28 2863.78
   16:12:35.247.16-Jul-2020 4280.51 6993.93 80.13 1.00 389.48 2863.78
   16:12:35.447.16-Jul-2020 4280.51 6993.30 80.13 1.00 389.68 2863.78
   16:12:35.647.16-Jul-2020 4280.51 6992.79 80.13 1.00 389.88 2863.78
   16:12:35.847.16-Jul-2020 4280.51 6995.01 80.13 1.00 390.08 2863.78
   16:12:36.047.16-Jul-2020 4280.51 6991.92 80.13 1.00 390.28 2863.78
   16:12:36.247.16-Jul-2020 4280.51 6994.93 80.13 1.00 390.48 2863.78
   16:12:36.447.16-Jul-2020 4280.51 6992.16 80.13 1.00 390.68 2863.78
   16:12:36.647.16-Jul-2020 4280.51 6991.31 80.13 1.00 390.88 2863.78
