~Version Information
 VERS.                  2.0:   CWLS log ASCII Standard -VERSION 2.0
 WRAP.                   NO:   One line per depth step
~Well Information Block
#MNEM.UNIT     VALUE/NAME     DESCRIPTION
#---------     -----------    ---------------------------
 STRT.S             19:19:02 16-Jul-20: START TIME 19:19:02 16-Jul-20
 STOP.S             19:25:52 16-Jul-20: STOP TIME  19:25:52 16-Jul-20
 STEP.S                   0.00: STEP TIME
 NULL.                 -999.25: NULL VALUE
 MDS .        Operator Entered:  MAG DATA SOURCE
 UNIT.                     N/A:  LOGGING EQUIPMENT ID
 DCON.         Sperry Drilling:  DIRECTNL CONTR
 DOE .                     N/A:  DOE NUMBER
 RIG .               EastAzeri:  RIG NAME
 JOBN.        AZ-XX-0906363297:  JOB TICKET NUMB
 MWDS.                    Baku:  MWD SHOP
 SRVC.     Turan Drilling & Engineering:  CONTRACTOR
 PROV.                    Baku:  PROVINCE
 STAT.                    Baku:  STATE NAME
 REGN.                   EESSA:  REGION
 BASE.              Azerbaijan:  LOGGING EQUIPMENT BASE LOCATION
 WTYP.                Deviated:  WELL TYPE
 UWI .                     N/A:  UNIQUE WELL IDENTIFIER
 API .                     N/A:  API NUMBER
 COMP.     BP Exploration (Caspian Sea) ltd.:  COMPANY
 WELL.                    D07z:  WELL NAME
 CTRY.              Azerbaijan:  COUNTRY NAME
 SON .        AZ-XX-0906363297:  JOB NUMBER
 FLD .                     ACG:  FIELD NAME
 PDAT.          Mean Sea Level:  PERMANENT DATUM
 FTOP.          Formation Tops:  FORM TOPS DESC
 ILTD.               Lithology:  INTERP LTH DESC
 SVYD.                  Survey:  SURVEY DESC
 DMOD.             Drill Model:  DRILL MOD DESC
 HPTY.       Minimum Curvature:  HOLE POS TYPE
 NREF.                    Grid:  NORTH REFERENCE
 SPUD.               28-Jun-20:  SPUD DATE
 DATE.      18.27.12 28-Jun-20:  END TIME
 STIM.      18.27.12 28-Jun-20:  START TIME
 DMF .             Drill Floor:  DRILL MEAS FROM
 DFST.                        :  DIST FSL TEXT
 DFWT.                        :  DIST FWL TEXT
 CNTY.                        :  COUNTY
 LOC .                        :  LOCATION
 LMF .             Drill Floor:  LOG MEASURED FROM
 VSNS.m                  -7.75:  VERT SEC N/S
 VSEW.m                  -9.19:  VERT SEC E/W
 MMDE.m                   0.00:  MAGUTM CALC DEP
 AGAP.m                  43.60:  AIR GAP
 DEP .m                4058.99:  DEPTH
 APD .m                  43.60:  DEPTH ABOVE PD
 WDMS.m                 151.80:  WD ELEV
 EGL .m                   0.00:  GROUND ELEVATION
 EPD .m                   0.00:  ELEVATION
 AZTC.deg                 6.19:  AZM TOTAL CORR
 GRDC.deg                 0.27:  GRID CORRECTION
 MDEC.deg                 6.46:  MAGNETIC DECL
 MDIP.deg                59.47:  MAGNETIC DIP
 MFLD.nT              50279.00:  MAGNETIC FIELD
 GVFD.g                   1.00:  GRAVITY FIELD
 VSDR.deg               249.96:  VERT SEC DIRECT
 TDD .m                   0.00:  TOTAL DEPTH (DRILLER)
 SDEP.m                   0.00:  START DEPTH
 DFSL.m                   0.00:  DISTANCE FSL
 DFWL.m                   0.00:  DISTANCE FWL
 UTMY.m             4431880.20:  UTM Y
 UTMX.m              538763.98:  UTM X
 WHEW.m                  -9.19:  WELL HEAD E/W
 WHNS.m                  -7.75:  WELL HEAD N/S
 LONG.deg                51.45:  LONGITUDE
 LATI.deg                40.02:  LATITUDE
 TVDS.m                  43.60:  TVDSS CORRECTN
 EKB .m                  43.60:  KB ELEVATION
 EDF .m                  43.60:  DF ELEVATION
 TDL .m                 248.00:  TOTAL DEPTH (LOGGER)
 MAGU.                 1849075:  MAGUTM CHECKSUM
 VSC .                       0:  VS TO CLOSURE
~Parameter Information Block
#MNEM.UNIT       Value        Description
#---------     -----------    ---------------------------
 AV  .mps                 6.34:  Ann Velocity 
 AVMX.mps                 7.00:  Max Ann Veloc 
 AZIF.deg               260.29:  Azm, Final 
 BHAT.        Rotary Steerable:  BHA Type 
 BROT.°/30m               1.20:  Build Rotating 
 BS  .in                  8.50:  Bit Size 
 BSZ .in                  8.50:  Bit Size 
 BTPL.psig              620.00:  Bit Press Loss 
 CABU.                     Yes:  Customer Abuse 
 COMM.                     d)s:  Run Comments 1 
 TCS .hr                 56.22:  Time Ciculation Ended 
 CV  .mps                 3.05:  Crit Velocity 
 CVMX.mps                 3.20:  Max Crit Veloc 
 DD1 .            Musa Ahmadov:  Direct Drillr 1 
 DDSV.                 iCruise:  DD Service 
 DEFF.%                  98.00:  % Det Eff 
 DLRX.°/30m               2.78:  Dogleg Rot Max 
 DLSO.°/30m               0.00:  Dogleg Oriented 
 DLSX.°/30m               0.00:  Dogleg Str Max 
 DRET.      05.20.48 16-Jul-20:  Drill End Time 
 DRST.      10.20.48 13-Jul-20:  Drill Start Tim 
 DTIM.hr                 14.25:  Time Drilling 
 EDEP.m                4326.01:  End Depth 
 ENG1.      Artemiy Matviyanov:  Engineer 1 
 ENG2.           Amrah Tahirov:  Engineer 2 
 ETIM.      22.30.00 18-Jul-20:  End Time 
 FLOI.gpm               550.00:  Flow In 
 FLON.gpm               450.00:  Flow In Min 
 FLOS.cptm                0.00:  Fluid Loss 
 FLOX.gpm               600.00:  Flow In Max 
 HFLO.                      No:  High Flow 
 HPRE.                      No:  High Pressure 
 HTEM.                      No:  High Temp 
 HYDO.m                   1.80:  Hydro Offset 
 IFIN.deg                65.41:  Inc, Final 
 IMAX.deg                65.14:  Inc Max 
 IMIN.deg                58.89:  Inc Min 
 IMND.m                4104.92:  Inc Min Depth 
 IMXD.m                4303.89:  Inc Max Depth 
 JARR.                      No:  Jarring 
 LETM.      10.20.48 17-Jul-20:  Log End Time 
 LOST.hr                     0:  Lost Rig Time 
 LSTM.      10.20.48 13-Jul-20:  Log Start Time 
 MDCL.ppm             37000.00:  Mud Chlorides 
 MDES.     Inversion Oil/Synthetic:  Mud Desc 
 DFD .sg                  1.52:  Mud Density 
 MDMN.sg                  1.52:  Dens Mud Min 
 MDMX.sg                  1.52:  Dens Mud Max 
 MOIL.                   52.70:  Run Mud Oil % 
 MOWR.                   68:32:  Run Mud OWR 
 MSND.                     0.2:  Run Mud Sand % 
 MSOL.                    21.6:  Run Mud Solids% 
 DFV .spqt               79.00:  Mud Viscosity 
 MWOD.in                  6.75:  MWD Tool OD 
 MWSI.                      No:  Serv Intrp, MWD 
 OTIM.hr                114.04:  Time Operating 
 PCON.          Wear / Scratch:  Pad Condition 
 PMAX.psia            11782.92:  Press Op, Max 
 PV  .cP                 49.00:  Mud PV 
 RUN .                     600:  Run Number 
 ROPA.m/hr               20.00:  ROP Avg 
 ROPN.m/hr               15.00:  ROP Min 
 ROPX.m/hr               22.00:  ROP Max 
 RPMA.rpm               120.00:  RPM Surface Avg 
 RPMN.rpm                90.00:  RPM Surface Min 
 RPMX.rpm               140.00:  RPM Surface Max 
 RRUN.                     600:  Rig Run Number 
 SAZI.deg               260.29:  Azm, Start 
 SDEP.m                4078.01:  Start Depth 
 SIDD.                      No:  Serv Intrp, DD 
 SINC.deg                58.89:  Inc, Start 
 SPPA.psig             4560.00:  SPP Avg 
 SPPN.psig             3600.00:  SPP Min 
 SPPX.psig             4800.00:  SPP Max 
 STIM.      10.20.48 13-Jul-20:  Start Time 
 SVCS.                 DD, MWD:  Services 
 SVER.                    9.20:  Sperry Version 
 TDAT.m                4378.01:  Tot Depth Attmp 
 TDDF.                      No:  Trip for DD 
 TDLG.m                 248.00:  Tot Depth Loggd 
 TFF .                      No:  Trip for Fail 
 TQAA.f-kp               18.00:  Torque Abs Avg 
 TQAN.f-kp               15.00:  Torque Abs Min 
 TQAX.f-kp               20.00:  Torque Abs Max 
 TRRT.°/30m               0.70:  Turn Rotating 
 MRT .                    HCIM:  Maximum Recorded Temperature 
 TTMX.degC               86.00:  Max Tool Temp 
 WBMN.klb                 3.00:  WOB Min 
 WOBA.klb                 5.00:  WOB Avg 
 WOBX.klb                 9.00:  WOB Max 
 YP  .lhf2               32.00:  Yield Point 
~Curve Information Block
#MNEM.UNIT                 API CODE     Curve Description
#---------               -----------    ---------------------------
 TIME.HHMMSS            00 000 000 000:  GT Time & Date
 GTDEPTH.m              00 000 000 000:  GT Depth
 GTPQH.psia             00 000 000 000:  GT HR Quartz Pressure
 GTTQ.degC              00 000 000 000:  GT Quartz Temperature
 GTTN.NONE              00 000 000 000:  GT Test Number
 GTET.sec               00 000 000 000:  GT Elapsed Test Time
 GTTVD.m                00 000 000 000:  GT True Vertical Depth
#Other Information
#
#WARRANTY: Halliburton will use its best efforts to furnish customers with 
#accurate information and interpretations that are part of, and incident to, the services 
#provided.  However, Halliburton cannot and does not warrant the accuracy 
#or correctness of such information and interpretations.  Under no circumstances should any 
#such information or interpretation be relied upon as the sole basis for any drilling, 
#completion, production, or financial decision or any procedure involving any risk to the 
#safety of any drilling venture, drilling rig or its crew or any other third party.  The 
#Customer has full responsibility for all drilling, completion and production operation.  
#Halliburton makes no representations or warranties, either expressed or 
#implied, including, but not limited to, the implied warranties of merchantability or fitness 
#for a particular purpose, with respect to the services rendered.  In no event will 
#Halliburton be liable for failure to obtain any particular results or for 
#any damages, including, but not limited to, indirect, special or consequential damages, 
#resulting from the use of any information or interpretation provided by Halliburton.
#
~A           TIME           GTDEPTH  GTPQH  GTTQ  GTTN  GTET   GTTVD  
# ...
   19:25:33.476.16-Jul-2020 4190.01 6973.82 79.08 6.00 391.18 2825.02
   19:25:33.676.16-Jul-2020 4190.01 6973.82 79.08 6.00 391.38 2825.02
   19:25:33.877.16-Jul-2020 4190.01 6972.06 79.08 6.00 391.58 2825.02
   19:25:34.077.16-Jul-2020 4190.01 6972.38 79.08 6.00 391.78 2825.02
   19:25:34.277.16-Jul-2020 4190.01 6983.83 79.08 6.00 391.98 2825.02
   19:25:34.477.16-Jul-2020 4190.01 6968.28 79.08 6.00 392.18 2825.02
   19:25:34.677.16-Jul-2020 4190.01 6977.69 79.08 6.00 392.38 2825.02
   19:25:34.877.16-Jul-2020 4190.01 6971.78 79.08 6.00 392.58 2825.02
   19:25:35.077.16-Jul-2020 4190.01 6973.94 79.07 6.00 392.78 2825.02
   19:25:35.277.16-Jul-2020 4190.01 6984.18 79.07 6.00 392.98 2825.02
   19:25:35.477.16-Jul-2020 4190.01 6971.20 79.07 6.00 393.18 2825.02
   19:25:35.677.16-Jul-2020 4190.01 6975.05 79.07 6.00 393.38 2825.02
   19:25:35.877.16-Jul-2020 4190.01 6976.26 79.07 6.00 393.58 2825.02
   19:25:36.078.16-Jul-2020 4190.01 6975.72 79.07 6.00 393.78 2825.02
   19:25:36.278.16-Jul-2020 4190.01 6978.75 79.07 6.00 393.98 2825.02
   19:25:36.478.16-Jul-2020 4190.01 6980.13 79.07 6.00 394.18 2825.02
   19:25:36.678.16-Jul-2020 4190.01 6980.13 79.07 6.00 394.38 2825.02
   19:25:36.878.16-Jul-2020 4190.01 6975.61 79.07 6.00 394.58 2825.02
   19:25:37.078.16-Jul-2020 4190.01 6975.50 79.07 6.00 394.78 2825.02
   19:25:37.278.16-Jul-2020 4190.01 6973.15 79.07 6.00 394.98 2825.02
   19:25:37.478.16-Jul-2020 4190.01 6988.27 79.07 6.00 395.18 2825.02
   19:25:37.678.16-Jul-2020 4190.01 6988.27 79.07 6.00 395.38 2825.02
   19:25:37.878.16-Jul-2020 4190.01 6980.37 79.07 6.00 395.58 2825.02
   19:25:38.078.16-Jul-2020 4190.01 6977.72 79.07 6.00 395.78 2825.02
   19:25:38.279.16-Jul-2020 4190.01 6973.93 79.07 6.00 395.98 2825.02
   19:25:38.479.16-Jul-2020 4190.01 6974.95 79.07 6.00 396.18 2825.02
   19:25:38.679.16-Jul-2020 4190.01 6974.95 79.07 6.00 396.38 2825.02
   19:25:38.879.16-Jul-2020 4190.01 6973.75 79.07 6.00 396.58 2825.02
   19:25:39.079.16-Jul-2020 4190.01 6974.38 79.07 6.00 396.78 2825.02
   19:25:39.279.16-Jul-2020 4190.01 6973.77 79.07 6.00 396.98 2825.02
   19:25:39.479.16-Jul-2020 4190.01 6974.23 79.07 6.00 397.18 2825.02
   19:25:39.679.16-Jul-2020 4190.01 6973.12 79.07 6.00 397.38 2825.02
   19:25:39.879.16-Jul-2020 4190.01 6972.87 79.07 6.00 397.58 2825.02
   19:25:40.079.16-Jul-2020 4190.01 6972.92 79.07 6.00 397.78 2825.02
   19:25:40.279.16-Jul-2020 4190.01 6982.79 79.07 6.00 397.98 2825.02
   19:25:40.480.16-Jul-2020 4190.01 6971.59 79.07 6.00 398.18 2825.02
   19:25:40.680.16-Jul-2020 4190.01 6971.59 79.07 6.00 398.38 2825.02
   19:25:40.880.16-Jul-2020 4190.01 6976.21 79.07 6.00 398.58 2825.02
   19:25:41.080.16-Jul-2020 4190.01 6972.98 79.07 6.00 398.78 2825.02
   19:25:41.280.16-Jul-2020 4190.01 6973.28 79.07 6.00 398.98 2825.02
   19:25:41.480.16-Jul-2020 4190.01 6973.58 79.07 6.00 399.18 2825.02
   19:25:41.680.16-Jul-2020 4190.01 6973.58 79.07 6.00 399.38 2825.02
   19:25:41.880.16-Jul-2020 4190.01 6973.39 79.07 6.00 399.58 2825.02
   19:25:42.080.16-Jul-2020 4190.01 6973.10 79.07 6.00 399.78 2825.02
   19:25:42.280.16-Jul-2020 4190.01 6973.27 79.07 6.00 399.98 2825.02
   19:25:42.480.16-Jul-2020 4190.01 6972.90 79.07 6.00 400.18 2825.02
   19:25:42.681.16-Jul-2020 4190.01 6972.90 79.07 6.00 400.38 2825.02
   19:25:42.881.16-Jul-2020 4190.01 6972.61 79.07 6.00 400.58 2825.02
   19:25:43.081.16-Jul-2020 4190.01 6972.52 79.07 6.00 400.78 2825.02
   19:25:43.281.16-Jul-2020 4190.01 6972.37 79.07 6.00 400.98 2825.02
   19:25:43.481.16-Jul-2020 4190.01 6988.51 79.07 6.00 401.18 2825.02
   19:25:43.681.16-Jul-2020 4190.01 6962.35 79.07 6.00 401.38 2825.02
   19:25:43.881.16-Jul-2020 4190.01 6978.81 79.07 6.00 401.58 2825.02
   19:25:44.081.16-Jul-2020 4190.01 6975.48 79.07 6.00 401.78 2825.02
   19:25:44.281.16-Jul-2020 4190.01 6971.82 79.07 6.00 401.98 2825.02
   19:25:44.481.16-Jul-2020 4190.01 6983.05 79.07 6.00 402.18 2825.02
   19:25:44.681.16-Jul-2020 4190.01 6983.05 79.07 6.00 402.38 2825.02
   19:25:44.881.16-Jul-2020 4190.01 6975.54 79.07 6.00 402.58 2825.02
   19:25:45.082.16-Jul-2020 4190.01 6975.43 79.07 6.00 402.78 2825.02
   19:25:45.282.16-Jul-2020 4190.01 6984.57 79.07 6.00 402.98 2825.02
   19:25:45.482.16-Jul-2020 4190.01 6968.46 79.07 6.00 403.18 2825.02
   19:25:45.682.16-Jul-2020 4190.01 6968.46 79.07 6.00 403.38 2825.02
   19:25:45.882.16-Jul-2020 4190.01 6973.37 79.07 6.00 403.58 2825.02
   19:25:46.082.16-Jul-2020 4190.01 6974.35 79.07 6.00 403.78 2825.02
   19:25:46.282.16-Jul-2020 4190.01 6986.58 79.07 6.00 403.98 2825.02
   19:25:46.482.16-Jul-2020 4190.01 6967.36 79.07 6.00 404.18 2825.02
   19:25:46.682.16-Jul-2020 4190.01 6967.36 79.07 6.00 404.38 2825.02
   19:25:46.882.16-Jul-2020 4190.01 6973.53 79.07 6.00 404.58 2825.02
   19:25:47.082.16-Jul-2020 4190.01 6974.61 79.07 6.00 404.78 2825.02
   19:25:47.283.16-Jul-2020 4190.01 6975.12 79.07 6.00 404.98 2825.02
   19:25:47.483.16-Jul-2020 4190.01 6972.83 79.07 6.00 405.18 2825.02
   19:25:47.683.16-Jul-2020 4190.01 6974.15 79.07 6.00 405.38 2825.02
   19:25:47.883.16-Jul-2020 4190.01 6973.68 79.07 6.00 405.58 2825.02
   19:25:48.083.16-Jul-2020 4190.01 6973.15 79.07 6.00 405.78 2825.02
   19:25:48.283.16-Jul-2020 4190.01 6973.24 79.07 6.00 405.98 2825.02
   19:25:48.483.16-Jul-2020 4190.01 6973.24 79.07 6.00 406.18 2825.02
   19:25:48.683.16-Jul-2020 4190.01 6973.24 79.07 6.00 406.38 2825.02
   19:25:48.883.16-Jul-2020 4190.01 6972.03 79.07 6.00 406.58 2825.02
   19:25:49.083.16-Jul-2020 4190.01 6988.06 79.07 6.00 406.78 2825.02
   19:25:49.283.16-Jul-2020 4190.01 6961.55 79.07 6.00 406.98 2825.02
   19:25:49.484.16-Jul-2020 4190.01 6979.51 79.07 6.00 407.18 2825.02
   19:25:49.684.16-Jul-2020 4190.01 6979.51 79.07 6.00 407.38 2825.02
   19:25:49.884.16-Jul-2020 4190.01 6973.02 79.07 6.00 407.58 2825.02
   19:25:50.084.16-Jul-2020 4190.01 6973.54 79.07 6.00 407.78 2825.02
   19:25:50.284.16-Jul-2020 4190.01 6973.66 79.07 6.00 407.98 2825.02
   19:25:50.484.16-Jul-2020 4190.01 6973.54 79.07 6.00 408.18 2825.02
   19:25:50.684.16-Jul-2020 4190.01 6973.54 79.07 6.00 408.38 2825.02
   19:25:50.884.16-Jul-2020 4190.01 6974.06 79.07 6.00 408.58 2825.02
   19:25:51.084.16-Jul-2020 4190.01 6973.12 79.07 6.00 408.78 2825.02
   19:25:51.284.16-Jul-2020 4190.01 6973.19 79.07 6.00 408.98 2825.02
   19:25:51.484.16-Jul-2020 4190.01 6973.15 79.07 6.00 409.18 2825.02
   19:25:51.685.16-Jul-2020 4190.01 6973.52 79.07 6.00 409.38 2825.02
   19:25:51.885.16-Jul-2020 4190.01 6973.57 79.07 6.00 409.58 2825.02
   19:25:52.085.16-Jul-2020 4190.01 6972.38 79.07 6.00 409.78 2825.02
   19:25:52.285.16-Jul-2020 4190.01 6983.81 79.07 6.00 409.98 2825.02
