~Version Information
 VERS.                  2.0:   CWLS log ASCII Standard -VERSION 2.0
 WRAP.                   NO:   One line per depth step
~Well Information Block
#MNEM.UNIT     VALUE/NAME     DESCRIPTION
#---------     -----------    ---------------------------
 STRT.S             21:08:23 16-Jul-20: START TIME 21:08:23 16-Jul-20
 STOP.S             21:15:15 16-Jul-20: STOP TIME  21:15:15 16-Jul-20
 STEP.S                   0.00: STEP TIME
 NULL.                 -999.25: NULL VALUE
 MDS .        Operator Entered:  MAG DATA SOURCE
 UNIT.                     N/A:  LOGGING EQUIPMENT ID
 DCON.         Sperry Drilling:  DIRECTNL CONTR
 DOE .                     N/A:  DOE NUMBER
 RIG .               EastAzeri:  RIG NAME
 JOBN.        AZ-XX-0906363297:  JOB TICKET NUMB
 MWDS.                    Baku:  MWD SHOP
 SRVC.     Turan Drilling & Engineering:  CONTRACTOR
 PROV.                    Baku:  PROVINCE
 STAT.                    Baku:  STATE NAME
 REGN.                   EESSA:  REGION
 BASE.              Azerbaijan:  LOGGING EQUIPMENT BASE LOCATION
 WTYP.                Deviated:  WELL TYPE
 UWI .                     N/A:  UNIQUE WELL IDENTIFIER
 API .                     N/A:  API NUMBER
 COMP.     BP Exploration (Caspian Sea) ltd.:  COMPANY
 WELL.                    D07z:  WELL NAME
 CTRY.              Azerbaijan:  COUNTRY NAME
 SON .        AZ-XX-0906363297:  JOB NUMBER
 FLD .                     ACG:  FIELD NAME
 PDAT.          Mean Sea Level:  PERMANENT DATUM
 FTOP.          Formation Tops:  FORM TOPS DESC
 ILTD.               Lithology:  INTERP LTH DESC
 SVYD.                  Survey:  SURVEY DESC
 DMOD.             Drill Model:  DRILL MOD DESC
 HPTY.       Minimum Curvature:  HOLE POS TYPE
 NREF.                    Grid:  NORTH REFERENCE
 SPUD.               28-Jun-20:  SPUD DATE
 DATE.      18.27.12 28-Jun-20:  END TIME
 STIM.      18.27.12 28-Jun-20:  START TIME
 DMF .             Drill Floor:  DRILL MEAS FROM
 DFST.                        :  DIST FSL TEXT
 DFWT.                        :  DIST FWL TEXT
 CNTY.                        :  COUNTY
 LOC .                        :  LOCATION
 LMF .             Drill Floor:  LOG MEASURED FROM
 VSNS.m                  -7.75:  VERT SEC N/S
 VSEW.m                  -9.19:  VERT SEC E/W
 MMDE.m                   0.00:  MAGUTM CALC DEP
 AGAP.m                  43.60:  AIR GAP
 DEP .m                4058.99:  DEPTH
 APD .m                  43.60:  DEPTH ABOVE PD
 WDMS.m                 151.80:  WD ELEV
 EGL .m                   0.00:  GROUND ELEVATION
 EPD .m                   0.00:  ELEVATION
 AZTC.deg                 6.19:  AZM TOTAL CORR
 GRDC.deg                 0.27:  GRID CORRECTION
 MDEC.deg                 6.46:  MAGNETIC DECL
 MDIP.deg                59.47:  MAGNETIC DIP
 MFLD.nT              50279.00:  MAGNETIC FIELD
 GVFD.g                   1.00:  GRAVITY FIELD
 VSDR.deg               249.96:  VERT SEC DIRECT
 TDD .m                   0.00:  TOTAL DEPTH (DRILLER)
 SDEP.m                   0.00:  START DEPTH
 DFSL.m                   0.00:  DISTANCE FSL
 DFWL.m                   0.00:  DISTANCE FWL
 UTMY.m             4431880.20:  UTM Y
 UTMX.m              538763.98:  UTM X
 WHEW.m                  -9.19:  WELL HEAD E/W
 WHNS.m                  -7.75:  WELL HEAD N/S
 LONG.deg                51.45:  LONGITUDE
 LATI.deg                40.02:  LATITUDE
 TVDS.m                  43.60:  TVDSS CORRECTN
 EKB .m                  43.60:  KB ELEVATION
 EDF .m                  43.60:  DF ELEVATION
 TDL .m                 248.00:  TOTAL DEPTH (LOGGER)
 MAGU.                 1849075:  MAGUTM CHECKSUM
 VSC .                       0:  VS TO CLOSURE
~Parameter Information Block
#MNEM.UNIT       Value        Description
#---------     -----------    ---------------------------
 AV  .mps                 6.34:  Ann Velocity 
 AVMX.mps                 7.00:  Max Ann Veloc 
 AZIF.deg               260.29:  Azm, Final 
 BHAT.        Rotary Steerable:  BHA Type 
 BROT.°/30m               1.20:  Build Rotating 
 BS  .in                  8.50:  Bit Size 
 BSZ .in                  8.50:  Bit Size 
 BTPL.psig              620.00:  Bit Press Loss 
 CABU.                     Yes:  Customer Abuse 
 COMM.                     Äá„:  Run Comments 1 
 TCS .hr                 56.22:  Time Ciculation Ended 
 CV  .mps                 3.05:  Crit Velocity 
 CVMX.mps                 3.20:  Max Crit Veloc 
 DD1 .            Musa Ahmadov:  Direct Drillr 1 
 DDSV.                 iCruise:  DD Service 
 DEFF.%                  98.00:  % Det Eff 
 DLRX.°/30m               2.78:  Dogleg Rot Max 
 DLSO.°/30m               0.00:  Dogleg Oriented 
 DLSX.°/30m               0.00:  Dogleg Str Max 
 DRET.      05.20.48 16-Jul-20:  Drill End Time 
 DRST.      10.20.48 13-Jul-20:  Drill Start Tim 
 DTIM.hr                 14.25:  Time Drilling 
 EDEP.m                4326.01:  End Depth 
 ENG1.      Artemiy Matviyanov:  Engineer 1 
 ENG2.           Amrah Tahirov:  Engineer 2 
 ETIM.      22.30.00 18-Jul-20:  End Time 
 FLOI.gpm               550.00:  Flow In 
 FLON.gpm               450.00:  Flow In Min 
 FLOS.cptm                0.00:  Fluid Loss 
 FLOX.gpm               600.00:  Flow In Max 
 HFLO.                      No:  High Flow 
 HPRE.                      No:  High Pressure 
 HTEM.                      No:  High Temp 
 HYDO.m                   1.80:  Hydro Offset 
 IFIN.deg                65.41:  Inc, Final 
 IMAX.deg                65.14:  Inc Max 
 IMIN.deg                58.89:  Inc Min 
 IMND.m                4104.92:  Inc Min Depth 
 IMXD.m                4303.89:  Inc Max Depth 
 JARR.                      No:  Jarring 
 LETM.      10.20.48 17-Jul-20:  Log End Time 
 LOST.hr                     0:  Lost Rig Time 
 LSTM.      10.20.48 13-Jul-20:  Log Start Time 
 MDCL.ppm             37000.00:  Mud Chlorides 
 MDES.     Inversion Oil/Synthetic:  Mud Desc 
 DFD .sg                  1.52:  Mud Density 
 MDMN.sg                  1.52:  Dens Mud Min 
 MDMX.sg                  1.52:  Dens Mud Max 
 MOIL.                   52.70:  Run Mud Oil % 
 MOWR.                   68:32:  Run Mud OWR 
 MSND.                     0.2:  Run Mud Sand % 
 MSOL.                    21.6:  Run Mud Solids% 
 DFV .spqt               79.00:  Mud Viscosity 
 MWOD.in                  6.75:  MWD Tool OD 
 MWSI.                      No:  Serv Intrp, MWD 
 OTIM.hr                114.04:  Time Operating 
 PCON.          Wear / Scratch:  Pad Condition 
 PMAX.psia            11782.92:  Press Op, Max 
 PV  .cP                 49.00:  Mud PV 
 RUN .                     600:  Run Number 
 ROPA.m/hr               20.00:  ROP Avg 
 ROPN.m/hr               15.00:  ROP Min 
 ROPX.m/hr               22.00:  ROP Max 
 RPMA.rpm               120.00:  RPM Surface Avg 
 RPMN.rpm                90.00:  RPM Surface Min 
 RPMX.rpm               140.00:  RPM Surface Max 
 RRUN.                     600:  Rig Run Number 
 SAZI.deg               260.29:  Azm, Start 
 SDEP.m                4078.01:  Start Depth 
 SIDD.                      No:  Serv Intrp, DD 
 SINC.deg                58.89:  Inc, Start 
 SPPA.psig             4560.00:  SPP Avg 
 SPPN.psig             3600.00:  SPP Min 
 SPPX.psig             4800.00:  SPP Max 
 STIM.      10.20.48 13-Jul-20:  Start Time 
 SVCS.                 DD, MWD:  Services 
 SVER.                    9.20:  Sperry Version 
 TDAT.m                4378.01:  Tot Depth Attmp 
 TDDF.                      No:  Trip for DD 
 TDLG.m                 248.00:  Tot Depth Loggd 
 TFF .                      No:  Trip for Fail 
 TQAA.f-kp               18.00:  Torque Abs Avg 
 TQAN.f-kp               15.00:  Torque Abs Min 
 TQAX.f-kp               20.00:  Torque Abs Max 
 TRRT.°/30m               0.70:  Turn Rotating 
 MRT .                    HCIM:  Maximum Recorded Temperature 
 TTMX.degC               86.00:  Max Tool Temp 
 WBMN.klb                 3.00:  WOB Min 
 WOBA.klb                 5.00:  WOB Avg 
 WOBX.klb                 9.00:  WOB Max 
 YP  .lhf2               32.00:  Yield Point 
~Curve Information Block
#MNEM.UNIT                 API CODE     Curve Description
#---------               -----------    ---------------------------
 TIME.HHMMSS            00 000 000 000:  GT Time & Date
 GTDEPTH.m              00 000 000 000:  GT Depth
 GTPQH.psia             00 000 000 000:  GT HR Quartz Pressure
 GTTQ.degC              00 000 000 000:  GT Quartz Temperature
 GTTN.NONE              00 000 000 000:  GT Test Number
 GTET.sec               00 000 000 000:  GT Elapsed Test Time
 GTTVD.m                00 000 000 000:  GT True Vertical Depth
#Other Information
#
#WARRANTY: Halliburton will use its best efforts to furnish customers with 
#accurate information and interpretations that are part of, and incident to, the services 
#provided.  However, Halliburton cannot and does not warrant the accuracy 
#or correctness of such information and interpretations.  Under no circumstances should any 
#such information or interpretation be relied upon as the sole basis for any drilling, 
#completion, production, or financial decision or any procedure involving any risk to the 
#safety of any drilling venture, drilling rig or its crew or any other third party.  The 
#Customer has full responsibility for all drilling, completion and production operation.  
#Halliburton makes no representations or warranties, either expressed or 
#implied, including, but not limited to, the implied warranties of merchantability or fitness 
#for a particular purpose, with respect to the services rendered.  In no event will 
#Halliburton be liable for failure to obtain any particular results or for 
#any damages, including, but not limited to, indirect, special or consequential damages, 
#resulting from the use of any information or interpretation provided by Halliburton.
#
~A           TIME           GTDEPTH  GTPQH  GTTQ  GTTN  GTET   GTTVD  
# ...
   21:13:45.200.16-Jul-2020 4135.51 4700.04 77.13 7.00 322.18 2799.87
   21:13:45.400.16-Jul-2020 4135.51 4700.04 77.13 7.00 322.38 2799.87
   21:13:45.600.16-Jul-2020 4135.51 4700.06 77.13 7.00 322.58 2799.87
   21:13:45.800.16-Jul-2020 4135.51 4700.08 77.13 7.00 322.78 2799.87
   21:13:46.000.16-Jul-2020 4135.51 4700.08 77.13 7.00 322.98 2799.87
   21:13:46.200.16-Jul-2020 4135.51 4700.05 77.13 7.00 323.18 2799.87
   21:13:46.400.16-Jul-2020 4135.51 4700.05 77.13 7.00 323.38 2799.87
   21:13:46.601.16-Jul-2020 4135.51 4700.07 77.13 7.00 323.58 2799.87
   21:13:46.801.16-Jul-2020 4135.51 4700.04 77.13 7.00 323.78 2799.87
   21:13:47.001.16-Jul-2020 4135.51 4700.09 77.13 7.00 323.98 2799.87
   21:13:47.201.16-Jul-2020 4135.51 4700.05 77.13 7.00 324.18 2799.87
   21:13:47.401.16-Jul-2020 4135.51 4700.05 77.13 7.00 324.38 2799.87
   21:13:47.601.16-Jul-2020 4135.51 4700.06 77.13 7.00 324.58 2799.87
   21:13:47.801.16-Jul-2020 4135.51 4700.05 77.13 7.00 324.78 2799.87
   21:13:48.001.16-Jul-2020 4135.51 4700.07 77.13 7.00 324.98 2799.87
   21:13:48.201.16-Jul-2020 4135.51 4700.04 77.13 7.00 325.18 2799.87
   21:13:48.402.16-Jul-2020 4135.51 4700.04 77.13 7.00 325.38 2799.87
   21:13:48.602.16-Jul-2020 4135.51 4700.04 77.13 7.00 325.58 2799.87
   21:13:48.802.16-Jul-2020 4135.51 4700.07 77.13 7.00 325.78 2799.87
   21:13:49.002.16-Jul-2020 4135.51 4700.05 77.13 7.00 325.98 2799.87
   21:13:49.202.16-Jul-2020 4135.51 4700.05 77.13 7.00 326.18 2799.87
   21:13:49.402.16-Jul-2020 4135.51 4700.20 77.13 7.00 326.39 2799.87
   21:13:49.602.16-Jul-2020 4135.51 4699.98 77.13 7.00 326.59 2799.87
   21:13:49.802.16-Jul-2020 4135.51 4700.05 77.13 7.00 326.79 2799.87
   21:13:50.002.16-Jul-2020 4135.51 4700.06 77.13 7.00 326.99 2799.87
   21:13:50.203.16-Jul-2020 4135.51 4700.06 77.13 7.00 327.19 2799.87
   21:13:50.403.16-Jul-2020 4135.51 4700.05 77.13 7.00 327.39 2799.87
   21:13:50.603.16-Jul-2020 4135.51 4700.05 77.13 7.00 327.59 2799.87
   21:13:50.803.16-Jul-2020 4135.51 4700.07 77.13 7.00 327.79 2799.87
   21:13:51.003.16-Jul-2020 4135.51 4700.05 77.13 7.00 327.99 2799.87
   21:13:51.203.16-Jul-2020 4135.51 4700.06 77.13 7.00 328.19 2799.87
   21:13:51.403.16-Jul-2020 4135.51 4700.06 77.13 7.00 328.39 2799.87
   21:13:51.603.16-Jul-2020 4135.51 4700.06 77.13 7.00 328.59 2799.87
   21:13:51.803.16-Jul-2020 4135.51 4700.06 77.13 7.00 328.79 2799.87
   21:13:52.004.16-Jul-2020 4135.51 4700.06 77.13 7.00 328.99 2799.87
   21:13:52.204.16-Jul-2020 4135.51 4700.07 77.13 7.00 329.19 2799.87
   21:13:52.404.16-Jul-2020 4135.51 4700.05 77.13 7.00 329.39 2799.87
   21:13:52.604.16-Jul-2020 4135.51 4700.17 77.13 7.00 329.59 2799.87
   21:13:52.804.16-Jul-2020 4135.51 4700.00 77.13 7.00 329.79 2799.87
   21:13:53.004.16-Jul-2020 4135.51 4700.05 77.13 7.00 329.99 2799.87
   21:13:53.204.16-Jul-2020 4135.51 4699.99 77.13 7.00 330.19 2799.87
   21:13:53.404.16-Jul-2020 4135.51 4699.99 77.13 7.00 330.39 2799.87
   21:13:53.604.16-Jul-2020 4135.51 4700.10 77.13 7.00 330.59 2799.87
   21:13:53.805.16-Jul-2020 4135.51 4700.08 77.13 7.00 330.79 2799.87
   21:13:54.005.16-Jul-2020 4135.51 4700.03 77.13 7.00 330.99 2799.87
   21:13:54.205.16-Jul-2020 4135.51 4700.08 77.13 7.00 331.19 2799.87
   21:13:54.405.16-Jul-2020 4135.51 4700.08 77.13 7.00 331.39 2799.87
   21:13:54.605.16-Jul-2020 4135.51 4700.19 77.13 7.00 331.59 2799.87
   21:13:54.805.16-Jul-2020 4135.51 4700.00 77.13 7.00 331.79 2799.87
   21:13:55.005.16-Jul-2020 4135.51 4700.02 77.13 7.00 331.99 2799.87
   21:13:55.205.16-Jul-2020 4135.51 4700.09 77.13 7.00 332.19 2799.87
   21:13:55.406.16-Jul-2020 4135.51 4700.09 77.13 7.00 332.39 2799.87
   21:13:55.606.16-Jul-2020 4135.51 4700.09 77.13 7.00 332.59 2799.87
   21:13:55.806.16-Jul-2020 4135.51 4700.09 77.13 7.00 332.79 2799.87
   21:13:56.006.16-Jul-2020 4135.51 4700.07 77.13 7.00 332.99 2799.87
   21:13:56.206.16-Jul-2020 4135.51 4700.06 77.13 7.00 333.19 2799.87
   21:13:56.406.16-Jul-2020 4135.51 4700.05 77.13 7.00 333.39 2799.87
   21:13:56.606.16-Jul-2020 4135.51 4700.08 77.13 7.00 333.59 2799.87
   21:13:56.806.16-Jul-2020 4135.51 4700.04 77.13 7.00 333.79 2799.87
   21:13:57.006.16-Jul-2020 4135.51 4700.06 77.13 7.00 333.99 2799.87
   21:13:57.207.16-Jul-2020 4135.51 4700.06 77.13 7.00 334.19 2799.87
   21:13:57.407.16-Jul-2020 4135.51 4700.06 77.13 7.00 334.39 2799.87
   21:13:57.607.16-Jul-2020 4135.51 4700.07 77.13 7.00 334.59 2799.87
   21:13:57.807.16-Jul-2020 4135.51 4700.05 77.13 7.00 334.79 2799.87
   21:13:58.007.16-Jul-2020 4135.51 4700.06 77.13 7.00 334.99 2799.87
   21:13:58.207.16-Jul-2020 4135.51 4700.05 77.13 7.00 335.19 2799.87
   21:13:58.407.16-Jul-2020 4135.51 4700.05 77.13 7.00 335.39 2799.87
   21:13:58.607.16-Jul-2020 4135.51 4700.07 77.13 7.00 335.59 2799.87
   21:13:58.807.16-Jul-2020 4135.51 4700.03 77.13 7.00 335.79 2799.87
   21:13:59.008.16-Jul-2020 4135.51 4700.07 77.13 7.00 335.99 2799.87
   21:13:59.208.16-Jul-2020 4135.51 4700.05 77.13 7.00 336.19 2799.87
   21:13:59.408.16-Jul-2020 4135.51 4700.07 77.13 7.00 336.39 2799.87
   21:13:59.608.16-Jul-2020 4135.51 4700.05 77.13 7.00 336.59 2799.87
   21:13:59.808.16-Jul-2020 4135.51 4700.07 77.13 7.00 336.79 2799.87
   21:14:00.008.16-Jul-2020 4135.51 4700.07 77.13 7.00 336.99 2799.87
   21:14:00.208.16-Jul-2020 4135.51 4700.05 77.13 7.00 337.19 2799.87
   21:14:00.408.16-Jul-2020 4135.51 4700.06 77.13 7.00 337.39 2799.87
   21:14:00.608.16-Jul-2020 4135.51 4700.05 77.13 7.00 337.59 2799.87
   21:14:00.809.16-Jul-2020 4135.51 4700.06 77.13 7.00 337.79 2799.87
   21:14:01.009.16-Jul-2020 4135.51 4700.06 77.13 7.00 337.99 2799.87
   21:14:01.209.16-Jul-2020 4135.51 4700.06 77.13 7.00 338.19 2799.87
   21:14:01.409.16-Jul-2020 4135.51 4700.06 77.13 7.00 338.39 2799.87
   21:14:01.609.16-Jul-2020 4135.51 4700.09 77.13 7.00 338.59 2799.87
   21:14:01.809.16-Jul-2020 4135.51 4700.04 77.13 7.00 338.79 2799.87
   21:14:02.009.16-Jul-2020 4135.51 4700.10 77.13 7.00 338.99 2799.87
   21:14:02.209.16-Jul-2020 4135.51 4700.06 77.13 7.00 339.19 2799.87
   21:14:02.409.16-Jul-2020 4135.51 4700.06 77.13 7.00 339.39 2799.87
   21:14:02.610.16-Jul-2020 4135.51 4700.08 77.13 7.00 339.59 2799.87
   21:14:02.810.16-Jul-2020 4135.51 4700.03 77.13 7.00 339.79 2799.87
   21:14:03.010.16-Jul-2020 4135.51 4700.06 77.13 7.00 339.99 2799.87
   21:14:03.210.16-Jul-2020 4135.51 4700.04 77.13 7.00 340.19 2799.87
   21:14:03.410.16-Jul-2020 4135.51 4700.04 77.13 7.00 340.39 2799.87
   21:14:03.610.16-Jul-2020 4135.51 4700.07 77.13 7.00 340.59 2799.87
   21:14:03.810.16-Jul-2020 4135.51 4700.06 77.13 7.00 340.79 2799.87
   21:14:04.010.16-Jul-2020 4135.51 4700.06 77.13 7.00 340.99 2799.87
   21:14:04.211.16-Jul-2020 4135.51 4700.08 77.13 7.00 341.19 2799.87
   21:14:04.411.16-Jul-2020 4135.51 4700.09 77.13 7.00 341.39 2799.87
   21:14:04.611.16-Jul-2020 4135.51 4700.04 77.13 7.00 341.59 2799.87
   21:14:04.811.16-Jul-2020 4135.51 4700.07 77.13 7.00 341.79 2799.87
   21:14:05.011.16-Jul-2020 4135.51 4700.05 77.13 7.00 341.99 2799.87
   21:14:05.211.16-Jul-2020 4135.51 4700.06 77.13 7.00 342.19 2799.87
   21:14:05.411.16-Jul-2020 4135.51 4700.06 77.13 7.00 342.39 2799.87
   21:14:05.611.16-Jul-2020 4135.51 4700.06 77.13 7.00 342.59 2799.87
   21:14:05.811.16-Jul-2020 4135.51 4700.04 77.13 7.00 342.79 2799.87
   21:14:06.012.16-Jul-2020 4135.51 4700.06 77.13 7.00 342.99 2799.87
   21:14:06.212.16-Jul-2020 4135.51 4700.05 77.13 7.00 343.19 2799.87
   21:14:06.412.16-Jul-2020 4135.51 4700.05 77.13 7.00 343.39 2799.87
   21:14:06.612.16-Jul-2020 4135.51 4700.07 77.13 7.00 343.59 2799.87
   21:14:06.812.16-Jul-2020 4135.51 4699.97 77.13 7.00 343.79 2799.87
   21:14:07.012.16-Jul-2020 4135.51 4700.12 77.13 7.00 344.00 2799.87
   21:14:07.212.16-Jul-2020 4135.51 4700.07 77.13 7.00 344.20 2799.87
   21:14:07.412.16-Jul-2020 4135.51 4700.07 77.13 7.00 344.40 2799.87
   21:14:07.612.16-Jul-2020 4135.51 4700.05 77.13 7.00 344.60 2799.87
   21:14:07.813.16-Jul-2020 4135.51 4700.07 77.13 7.00 344.80 2799.87
   21:14:08.013.16-Jul-2020 4135.51 4700.05 77.13 7.00 345.00 2799.87
