~Version Information
 VERS.                  2.0:   CWLS log ASCII Standard -VERSION 2.0
 WRAP.                   NO:   One line per depth step
~Well Information Block
#MNEM.UNIT     VALUE/NAME     DESCRIPTION
#---------     -----------    ---------------------------
 STRT.S             18:36:16 16-Jul-20: START TIME 18:36:16 16-Jul-20
 STOP.S             18:43:12 16-Jul-20: STOP TIME  18:43:12 16-Jul-20
 STEP.S                   0.00: STEP TIME
 NULL.                 -999.25: NULL VALUE
 MDS .        Operator Entered:  MAG DATA SOURCE
 UNIT.                     N/A:  LOGGING EQUIPMENT ID
 DCON.         Sperry Drilling:  DIRECTNL CONTR
 DOE .                     N/A:  DOE NUMBER
 RIG .               EastAzeri:  RIG NAME
 JOBN.        AZ-XX-0906363297:  JOB TICKET NUMB
 MWDS.                    Baku:  MWD SHOP
 SRVC.     Turan Drilling & Engineering:  CONTRACTOR
 PROV.                    Baku:  PROVINCE
 STAT.                    Baku:  STATE NAME
 REGN.                   EESSA:  REGION
 BASE.              Azerbaijan:  LOGGING EQUIPMENT BASE LOCATION
 WTYP.                Deviated:  WELL TYPE
 UWI .                     N/A:  UNIQUE WELL IDENTIFIER
 API .                     N/A:  API NUMBER
 COMP.     BP Exploration (Caspian Sea) ltd.:  COMPANY
 WELL.                    D07z:  WELL NAME
 CTRY.              Azerbaijan:  COUNTRY NAME
 SON .        AZ-XX-0906363297:  JOB NUMBER
 FLD .                     ACG:  FIELD NAME
 PDAT.          Mean Sea Level:  PERMANENT DATUM
 FTOP.          Formation Tops:  FORM TOPS DESC
 ILTD.               Lithology:  INTERP LTH DESC
 SVYD.                  Survey:  SURVEY DESC
 DMOD.             Drill Model:  DRILL MOD DESC
 HPTY.       Minimum Curvature:  HOLE POS TYPE
 NREF.                    Grid:  NORTH REFERENCE
 SPUD.               28-Jun-20:  SPUD DATE
 DATE.      18.27.12 28-Jun-20:  END TIME
 STIM.      18.27.12 28-Jun-20:  START TIME
 DMF .             Drill Floor:  DRILL MEAS FROM
 DFST.                        :  DIST FSL TEXT
 DFWT.                        :  DIST FWL TEXT
 CNTY.                        :  COUNTY
 LOC .                        :  LOCATION
 LMF .             Drill Floor:  LOG MEASURED FROM
 VSNS.m                  -7.75:  VERT SEC N/S
 VSEW.m                  -9.19:  VERT SEC E/W
 MMDE.m                   0.00:  MAGUTM CALC DEP
 AGAP.m                  43.60:  AIR GAP
 DEP .m                4058.99:  DEPTH
 APD .m                  43.60:  DEPTH ABOVE PD
 WDMS.m                 151.80:  WD ELEV
 EGL .m                   0.00:  GROUND ELEVATION
 EPD .m                   0.00:  ELEVATION
 AZTC.deg                 6.19:  AZM TOTAL CORR
 GRDC.deg                 0.27:  GRID CORRECTION
 MDEC.deg                 6.46:  MAGNETIC DECL
 MDIP.deg                59.47:  MAGNETIC DIP
 MFLD.nT              50279.00:  MAGNETIC FIELD
 GVFD.g                   1.00:  GRAVITY FIELD
 VSDR.deg               249.96:  VERT SEC DIRECT
 TDD .m                   0.00:  TOTAL DEPTH (DRILLER)
 SDEP.m                   0.00:  START DEPTH
 DFSL.m                   0.00:  DISTANCE FSL
 DFWL.m                   0.00:  DISTANCE FWL
 UTMY.m             4431880.20:  UTM Y
 UTMX.m              538763.98:  UTM X
 WHEW.m                  -9.19:  WELL HEAD E/W
 WHNS.m                  -7.75:  WELL HEAD N/S
 LONG.deg                51.45:  LONGITUDE
 LATI.deg                40.02:  LATITUDE
 TVDS.m                  43.60:  TVDSS CORRECTN
 EKB .m                  43.60:  KB ELEVATION
 EDF .m                  43.60:  DF ELEVATION
 TDL .m                 248.00:  TOTAL DEPTH (LOGGER)
 MAGU.                 1849075:  MAGUTM CHECKSUM
 VSC .                       0:  VS TO CLOSURE
~Parameter Information Block
#MNEM.UNIT       Value        Description
#---------     -----------    ---------------------------
 AV  .mps                 6.34:  Ann Velocity 
 AVMX.mps                 7.00:  Max Ann Veloc 
 AZIF.deg               260.29:  Azm, Final 
 BHAT.        Rotary Steerable:  BHA Type 
 BROT.°/30m               1.20:  Build Rotating 
 BS  .in                  8.50:  Bit Size 
 BSZ .in                  8.50:  Bit Size 
 BTPL.psig              620.00:  Bit Press Loss 
 CABU.                     Yes:  Customer Abuse 
 COMM.                     Ì>`:  Run Comments 1 
 TCS .hr                 56.22:  Time Ciculation Ended 
 CV  .mps                 3.05:  Crit Velocity 
 CVMX.mps                 3.20:  Max Crit Veloc 
 DD1 .            Musa Ahmadov:  Direct Drillr 1 
 DDSV.                 iCruise:  DD Service 
 DEFF.%                  98.00:  % Det Eff 
 DLRX.°/30m               2.78:  Dogleg Rot Max 
 DLSO.°/30m               0.00:  Dogleg Oriented 
 DLSX.°/30m               0.00:  Dogleg Str Max 
 DRET.      05.20.48 16-Jul-20:  Drill End Time 
 DRST.      10.20.48 13-Jul-20:  Drill Start Tim 
 DTIM.hr                 14.25:  Time Drilling 
 EDEP.m                4326.01:  End Depth 
 ENG1.      Artemiy Matviyanov:  Engineer 1 
 ENG2.           Amrah Tahirov:  Engineer 2 
 ETIM.      22.30.00 18-Jul-20:  End Time 
 FLOI.gpm               550.00:  Flow In 
 FLON.gpm               450.00:  Flow In Min 
 FLOS.cptm                0.00:  Fluid Loss 
 FLOX.gpm               600.00:  Flow In Max 
 HFLO.                      No:  High Flow 
 HPRE.                      No:  High Pressure 
 HTEM.                      No:  High Temp 
 HYDO.m                   1.80:  Hydro Offset 
 IFIN.deg                65.41:  Inc, Final 
 IMAX.deg                65.14:  Inc Max 
 IMIN.deg                58.89:  Inc Min 
 IMND.m                4104.92:  Inc Min Depth 
 IMXD.m                4303.89:  Inc Max Depth 
 JARR.                      No:  Jarring 
 LETM.      10.20.48 17-Jul-20:  Log End Time 
 LOST.hr                     0:  Lost Rig Time 
 LSTM.      10.20.48 13-Jul-20:  Log Start Time 
 MDCL.ppm             37000.00:  Mud Chlorides 
 MDES.     Inversion Oil/Synthetic:  Mud Desc 
 DFD .sg                  1.52:  Mud Density 
 MDMN.sg                  1.52:  Dens Mud Min 
 MDMX.sg                  1.52:  Dens Mud Max 
 MOIL.                   52.70:  Run Mud Oil % 
 MOWR.                   68:32:  Run Mud OWR 
 MSND.                     0.2:  Run Mud Sand % 
 MSOL.                    21.6:  Run Mud Solids% 
 DFV .spqt               79.00:  Mud Viscosity 
 MWOD.in                  6.75:  MWD Tool OD 
 MWSI.                      No:  Serv Intrp, MWD 
 OTIM.hr                114.04:  Time Operating 
 PCON.          Wear / Scratch:  Pad Condition 
 PMAX.psia            11782.92:  Press Op, Max 
 PV  .cP                 49.00:  Mud PV 
 RUN .                     600:  Run Number 
 ROPA.m/hr               20.00:  ROP Avg 
 ROPN.m/hr               15.00:  ROP Min 
 ROPX.m/hr               22.00:  ROP Max 
 RPMA.rpm               120.00:  RPM Surface Avg 
 RPMN.rpm                90.00:  RPM Surface Min 
 RPMX.rpm               140.00:  RPM Surface Max 
 RRUN.                     600:  Rig Run Number 
 SAZI.deg               260.29:  Azm, Start 
 SDEP.m                4078.01:  Start Depth 
 SIDD.                      No:  Serv Intrp, DD 
 SINC.deg                58.89:  Inc, Start 
 SPPA.psig             4560.00:  SPP Avg 
 SPPN.psig             3600.00:  SPP Min 
 SPPX.psig             4800.00:  SPP Max 
 STIM.      10.20.48 13-Jul-20:  Start Time 
 SVCS.                 DD, MWD:  Services 
 SVER.                    9.20:  Sperry Version 
 TDAT.m                4378.01:  Tot Depth Attmp 
 TDDF.                      No:  Trip for DD 
 TDLG.m                 248.00:  Tot Depth Loggd 
 TFF .                      No:  Trip for Fail 
 TQAA.f-kp               18.00:  Torque Abs Avg 
 TQAN.f-kp               15.00:  Torque Abs Min 
 TQAX.f-kp               20.00:  Torque Abs Max 
 TRRT.°/30m               0.70:  Turn Rotating 
 MRT .                    HCIM:  Maximum Recorded Temperature 
 TTMX.degC               86.00:  Max Tool Temp 
 WBMN.klb                 3.00:  WOB Min 
 WOBA.klb                 5.00:  WOB Avg 
 WOBX.klb                 9.00:  WOB Max 
 YP  .lhf2               32.00:  Yield Point 
~Curve Information Block
#MNEM.UNIT                 API CODE     Curve Description
#---------               -----------    ---------------------------
 TIME.HHMMSS            00 000 000 000:  GT Time & Date
 GTDEPTH.m              00 000 000 000:  GT Depth
 GTPQH.psia             00 000 000 000:  GT HR Quartz Pressure
 GTTQ.degC              00 000 000 000:  GT Quartz Temperature
 GTTN.NONE              00 000 000 000:  GT Test Number
 GTET.sec               00 000 000 000:  GT Elapsed Test Time
 GTTVD.m                00 000 000 000:  GT True Vertical Depth
#Other Information
#
#WARRANTY: Halliburton will use its best efforts to furnish customers with 
#accurate information and interpretations that are part of, and incident to, the services 
#provided.  However, Halliburton cannot and does not warrant the accuracy 
#or correctness of such information and interpretations.  Under no circumstances should any 
#such information or interpretation be relied upon as the sole basis for any drilling, 
#completion, production, or financial decision or any procedure involving any risk to the 
#safety of any drilling venture, drilling rig or its crew or any other third party.  The 
#Customer has full responsibility for all drilling, completion and production operation.  
#Halliburton makes no representations or warranties, either expressed or 
#implied, including, but not limited to, the implied warranties of merchantability or fitness 
#for a particular purpose, with respect to the services rendered.  In no event will 
#Halliburton be liable for failure to obtain any particular results or for 
#any damages, including, but not limited to, indirect, special or consequential damages, 
#resulting from the use of any information or interpretation provided by Halliburton.
#
~A           TIME           GTDEPTH  GTPQH  GTTQ  GTTN  GTET   GTTVD  
# ...
   18:37:02.694.16-Jul-2020 4198.01 4449.47 79.32 5.00  45.98 2828.58
   18:37:02.893.16-Jul-2020 4198.01 4446.37 79.32 5.00  46.18 2828.58
   18:37:03.093.16-Jul-2020 4198.01 4457.68 79.32 5.00  46.38 2828.58
   18:37:03.293.16-Jul-2020 4198.01 4457.93 79.32 5.00  46.58 2828.58
   18:37:03.493.16-Jul-2020 4198.01 4459.75 79.31 5.00  46.78 2828.58
   18:37:03.693.16-Jul-2020 4198.01 4457.41 79.31 5.00  46.98 2828.58
   18:37:03.893.16-Jul-2020 4198.01 4457.41 79.31 5.00  47.18 2828.58
   18:37:04.093.16-Jul-2020 4198.01 4450.56 79.31 5.00  47.38 2828.58
   18:37:04.293.16-Jul-2020 4198.01 4447.63 79.31 5.00  47.58 2828.58
   18:37:04.493.16-Jul-2020 4198.01 4449.37 79.31 5.00  47.78 2828.58
   18:37:04.693.16-Jul-2020 4198.01 4457.46 79.31 5.00  47.98 2828.58
   18:37:04.893.16-Jul-2020 4198.01 4457.46 79.31 5.00  48.18 2828.58
   18:37:05.093.16-Jul-2020 4198.01 4454.32 79.31 5.00  48.38 2828.58
   18:37:05.293.16-Jul-2020 4198.01 4478.86 79.30 5.00  48.58 2828.58
   18:37:05.493.16-Jul-2020 4198.01 4713.29 79.30 5.00  48.78 2828.58
   18:37:05.692.16-Jul-2020 4198.01 4782.04 79.30 5.00  48.98 2828.58
   18:37:05.892.16-Jul-2020 4198.01 4791.38 79.30 5.00  49.18 2828.58
   18:37:06.092.16-Jul-2020 4198.01 4793.44 79.30 5.00  49.38 2828.58
   18:37:06.292.16-Jul-2020 4198.01 4793.20 79.30 5.00  49.58 2828.58
   18:37:06.492.16-Jul-2020 4198.01 4793.33 79.30 5.00  49.78 2828.58
   18:37:06.692.16-Jul-2020 4198.01 4793.50 79.30 5.00  49.98 2828.58
   18:37:06.892.16-Jul-2020 4198.01 4793.74 79.30 5.00  50.18 2828.58
   18:37:07.092.16-Jul-2020 4198.01 4793.36 79.30 5.00  50.38 2828.58
   18:37:07.292.16-Jul-2020 4198.01 4794.29 79.30 5.00  50.58 2828.58
   18:37:07.492.16-Jul-2020 4198.01 4794.17 79.30 5.00  50.78 2828.58
   18:37:07.692.16-Jul-2020 4198.01 4793.98 79.30 5.00  50.98 2828.58
   18:37:07.892.16-Jul-2020 4198.01 4793.98 79.30 5.00  51.18 2828.58
   18:37:08.092.16-Jul-2020 4198.01 4794.47 79.30 5.00  51.38 2828.58
   18:37:08.291.16-Jul-2020 4198.01 4794.35 79.30 5.00  51.58 2828.58
   18:37:08.491.16-Jul-2020 4198.01 4794.40 79.30 5.00  51.78 2828.58
   18:37:08.691.16-Jul-2020 4198.01 4794.66 79.30 5.00  51.98 2828.58
   18:37:08.891.16-Jul-2020 4198.01 4794.66 79.30 5.00  52.18 2828.58
   18:37:09.091.16-Jul-2020 4198.01 4794.44 79.30 5.00  52.38 2828.58
   18:37:09.291.16-Jul-2020 4198.01 4794.77 79.30 5.00  52.58 2828.58
   18:37:09.491.16-Jul-2020 4198.01 4794.59 79.30 5.00  52.78 2828.58
   18:37:09.691.16-Jul-2020 4198.01 4794.54 79.30 5.00  52.98 2828.58
   18:37:09.891.16-Jul-2020 4198.01 4794.54 79.30 5.00  53.18 2828.58
   18:37:10.091.16-Jul-2020 4198.01 4794.69 79.30 5.00  53.38 2828.58
   18:37:10.291.16-Jul-2020 4198.01 4794.73 79.30 5.00  53.58 2828.58
   18:37:10.491.16-Jul-2020 4198.01 4794.76 79.30 5.00  53.78 2828.58
   18:37:10.691.16-Jul-2020 4198.01 4794.89 79.30 5.00  53.98 2828.58
   18:37:10.890.16-Jul-2020 4198.01 4794.73 79.30 5.00  54.18 2828.58
   18:37:11.090.16-Jul-2020 4198.01 4794.82 79.30 5.00  54.38 2828.58
   18:37:11.290.16-Jul-2020 4198.01 4794.80 79.31 5.00  54.58 2828.58
   18:37:11.490.16-Jul-2020 4198.01 4794.71 79.31 5.00  54.78 2828.58
   18:37:11.690.16-Jul-2020 4198.01 4795.00 79.31 5.00  54.98 2828.58
   18:37:11.890.16-Jul-2020 4198.01 4794.82 79.31 5.00  55.18 2828.58
   18:37:12.090.16-Jul-2020 4198.01 4794.82 79.31 5.00  55.38 2828.58
   18:37:12.290.16-Jul-2020 4198.01 4794.93 79.31 5.00  55.58 2828.58
   18:37:12.490.16-Jul-2020 4198.01 4794.92 79.31 5.00  55.78 2828.58
   18:37:12.690.16-Jul-2020 4198.01 4794.93 79.31 5.00  55.98 2828.58
   18:37:12.890.16-Jul-2020 4198.01 4794.98 79.31 5.00  56.18 2828.58
   18:37:13.090.16-Jul-2020 4198.01 4794.90 79.31 5.00  56.38 2828.58
   18:37:13.290.16-Jul-2020 4198.01 4795.01 79.31 5.00  56.58 2828.58
   18:37:13.490.16-Jul-2020 4198.01 4795.00 79.31 5.00  56.78 2828.58
   18:37:13.689.16-Jul-2020 4198.01 4795.06 79.31 5.00  56.98 2828.58
   18:37:13.889.16-Jul-2020 4198.01 4794.94 79.31 5.00  57.18 2828.58
   18:37:14.089.16-Jul-2020 4198.01 4794.99 79.31 5.00  57.38 2828.58
   18:37:14.289.16-Jul-2020 4198.01 4795.11 79.31 5.00  57.58 2828.58
   18:37:14.489.16-Jul-2020 4198.01 4794.61 79.31 5.00  57.78 2828.58
   18:37:14.689.16-Jul-2020 4198.01 4795.52 79.31 5.00  57.98 2828.58
   18:37:14.889.16-Jul-2020 4198.01 4794.99 79.31 5.00  58.18 2828.58
   18:37:15.089.16-Jul-2020 4198.01 4794.89 79.31 5.00  58.38 2828.58
   18:37:15.289.16-Jul-2020 4198.01 4795.18 79.31 5.00  58.58 2828.58
   18:37:15.489.16-Jul-2020 4198.01 4794.98 79.31 5.00  58.78 2828.58
   18:37:15.689.16-Jul-2020 4198.01 4794.98 79.31 5.00  58.98 2828.58
   18:37:15.889.16-Jul-2020 4198.01 4795.27 79.31 5.00  59.18 2828.58
   18:37:16.089.16-Jul-2020 4198.01 4795.03 79.31 5.00  59.38 2828.58
   18:37:16.288.16-Jul-2020 4198.01 4795.00 79.31 5.00  59.58 2828.58
   18:37:16.488.16-Jul-2020 4198.01 4795.05 79.31 5.00  59.78 2828.58
   18:37:16.688.16-Jul-2020 4198.01 4795.19 79.31 5.00  59.98 2828.58
   18:37:16.888.16-Jul-2020 4198.01 4795.19 79.31 5.00  60.18 2828.58
   18:37:17.088.16-Jul-2020 4198.01 4795.05 79.31 5.00  60.38 2828.58
   18:37:17.288.16-Jul-2020 4198.01 4795.07 79.31 5.00  60.58 2828.58
   18:37:17.488.16-Jul-2020 4198.01 4795.19 79.31 5.00  60.78 2828.58
   18:37:17.688.16-Jul-2020 4198.01 4795.07 79.32 5.00  60.98 2828.58
   18:37:17.888.16-Jul-2020 4198.01 4795.07 79.32 5.00  61.18 2828.58
   18:37:18.088.16-Jul-2020 4198.01 4795.04 79.32 5.00  61.38 2828.58
   18:37:18.288.16-Jul-2020 4198.01 4795.11 79.32 5.00  61.58 2828.58
   18:37:18.488.16-Jul-2020 4198.01 4795.16 79.32 5.00  61.78 2828.58
   18:37:18.688.16-Jul-2020 4198.01 4795.12 79.32 5.00  61.98 2828.58
   18:37:18.887.16-Jul-2020 4198.01 4795.28 79.32 5.00  62.18 2828.58
   18:37:19.087.16-Jul-2020 4198.01 4795.11 79.32 5.00  62.38 2828.58
   18:37:19.287.16-Jul-2020 4198.01 4795.24 79.32 5.00  62.58 2828.58
   18:37:19.487.16-Jul-2020 4198.01 4795.15 79.32 5.00  62.78 2828.58
   18:37:19.687.16-Jul-2020 4198.01 4794.84 79.32 5.00  62.98 2828.58
   18:37:19.887.16-Jul-2020 4198.01 4794.84 79.32 5.00  63.18 2828.58
   18:37:20.087.16-Jul-2020 4198.01 4795.10 79.32 5.00  63.38 2828.58
   18:37:20.287.16-Jul-2020 4198.01 4795.31 79.32 5.00  63.58 2828.58
   18:37:20.487.16-Jul-2020 4198.01 4795.12 79.32 5.00  63.78 2828.58
   18:37:20.687.16-Jul-2020 4198.01 4795.24 79.32 5.00  63.98 2828.58
   18:37:20.887.16-Jul-2020 4198.01 4795.24 79.32 5.00  64.18 2828.58
   18:37:21.087.16-Jul-2020 4198.01 4795.26 79.32 5.00  64.38 2828.58
   18:37:21.287.16-Jul-2020 4198.01 4795.32 79.32 5.00  64.58 2828.58
   18:37:21.487.16-Jul-2020 4198.01 4795.17 79.32 5.00  64.78 2828.58
   18:37:21.686.16-Jul-2020 4198.01 4795.44 79.32 5.00  64.98 2828.58
   18:37:21.886.16-Jul-2020 4198.01 4795.15 79.32 5.00  65.18 2828.58
   18:37:22.086.16-Jul-2020 4198.01 4795.34 79.32 5.00  65.38 2828.58
   18:37:22.286.16-Jul-2020 4198.01 4795.18 79.32 5.00  65.58 2828.58
   18:37:22.486.16-Jul-2020 4198.01 4795.32 79.32 5.00  65.78 2828.58
   18:37:22.686.16-Jul-2020 4198.01 4795.24 79.32 5.00  65.98 2828.58
   18:37:22.886.16-Jul-2020 4198.01 4795.38 79.32 5.00  66.18 2828.58
   18:37:23.086.16-Jul-2020 4198.01 4795.38 79.32 5.00  66.38 2828.58
   18:37:23.286.16-Jul-2020 4198.01 4795.38 79.32 5.00  66.58 2828.58
   18:37:23.486.16-Jul-2020 4198.01 4795.32 79.32 5.00  66.77 2828.58
   18:37:23.686.16-Jul-2020 4198.01 4795.21 79.32 5.00  66.97 2828.58
   18:37:23.886.16-Jul-2020 4198.01 4795.42 79.32 5.00  67.17 2828.58
   18:37:24.086.16-Jul-2020 4198.01 4795.29 79.32 5.00  67.37 2828.58
   18:37:24.285.16-Jul-2020 4198.01 4795.28 79.32 5.00  67.57 2828.58
   18:37:24.485.16-Jul-2020 4198.01 4795.36 79.32 5.00  67.77 2828.58
   18:37:24.685.16-Jul-2020 4198.01 4795.29 79.32 5.00  67.97 2828.58
   18:37:24.885.16-Jul-2020 4198.01 4795.20 79.32 5.00  68.17 2828.58
   18:37:25.085.16-Jul-2020 4198.01 4795.42 79.32 5.00  68.37 2828.58
   18:37:25.285.16-Jul-2020 4198.01 4795.21 79.32 5.00  68.57 2828.58
   18:37:25.485.16-Jul-2020 4198.01 4795.31 79.32 5.00  68.77 2828.58
