~Version Information
 VERS.                  2.0:   CWLS log ASCII Standard -VERSION 2.0
 WRAP.                   NO:   One line per depth step
~Well Information Block
#MNEM.UNIT     VALUE/NAME     DESCRIPTION
#---------     -----------    ---------------------------
 STRT.S             21:08:23 16-Jul-20: START TIME 21:08:23 16-Jul-20
 STOP.S             21:15:15 16-Jul-20: STOP TIME  21:15:15 16-Jul-20
 STEP.S                   0.00: STEP TIME
 NULL.                 -999.25: NULL VALUE
 MDS .        Operator Entered:  MAG DATA SOURCE
 UNIT.                     N/A:  LOGGING EQUIPMENT ID
 DCON.         Sperry Drilling:  DIRECTNL CONTR
 DOE .                     N/A:  DOE NUMBER
 RIG .               EastAzeri:  RIG NAME
 JOBN.        AZ-XX-0906363297:  JOB TICKET NUMB
 MWDS.                    Baku:  MWD SHOP
 SRVC.     Turan Drilling & Engineering:  CONTRACTOR
 PROV.                    Baku:  PROVINCE
 STAT.                    Baku:  STATE NAME
 REGN.                   EESSA:  REGION
 BASE.              Azerbaijan:  LOGGING EQUIPMENT BASE LOCATION
 WTYP.                Deviated:  WELL TYPE
 UWI .                     N/A:  UNIQUE WELL IDENTIFIER
 API .                     N/A:  API NUMBER
 COMP.     BP Exploration (Caspian Sea) ltd.:  COMPANY
 WELL.                    D07z:  WELL NAME
 CTRY.              Azerbaijan:  COUNTRY NAME
 SON .        AZ-XX-0906363297:  JOB NUMBER
 FLD .                     ACG:  FIELD NAME
 PDAT.          Mean Sea Level:  PERMANENT DATUM
 FTOP.          Formation Tops:  FORM TOPS DESC
 ILTD.               Lithology:  INTERP LTH DESC
 SVYD.                  Survey:  SURVEY DESC
 DMOD.             Drill Model:  DRILL MOD DESC
 HPTY.       Minimum Curvature:  HOLE POS TYPE
 NREF.                    Grid:  NORTH REFERENCE
 SPUD.               28-Jun-20:  SPUD DATE
 DATE.      18.27.12 28-Jun-20:  END TIME
 STIM.      18.27.12 28-Jun-20:  START TIME
 DMF .             Drill Floor:  DRILL MEAS FROM
 DFST.                        :  DIST FSL TEXT
 DFWT.                        :  DIST FWL TEXT
 CNTY.                        :  COUNTY
 LOC .                        :  LOCATION
 LMF .             Drill Floor:  LOG MEASURED FROM
 VSNS.m                  -7.75:  VERT SEC N/S
 VSEW.m                  -9.19:  VERT SEC E/W
 MMDE.m                   0.00:  MAGUTM CALC DEP
 AGAP.m                  43.60:  AIR GAP
 DEP .m                4058.99:  DEPTH
 APD .m                  43.60:  DEPTH ABOVE PD
 WDMS.m                 151.80:  WD ELEV
 EGL .m                   0.00:  GROUND ELEVATION
 EPD .m                   0.00:  ELEVATION
 AZTC.deg                 6.19:  AZM TOTAL CORR
 GRDC.deg                 0.27:  GRID CORRECTION
 MDEC.deg                 6.46:  MAGNETIC DECL
 MDIP.deg                59.47:  MAGNETIC DIP
 MFLD.nT              50279.00:  MAGNETIC FIELD
 GVFD.g                   1.00:  GRAVITY FIELD
 VSDR.deg               249.96:  VERT SEC DIRECT
 TDD .m                   0.00:  TOTAL DEPTH (DRILLER)
 SDEP.m                   0.00:  START DEPTH
 DFSL.m                   0.00:  DISTANCE FSL
 DFWL.m                   0.00:  DISTANCE FWL
 UTMY.m             4431880.20:  UTM Y
 UTMX.m              538763.98:  UTM X
 WHEW.m                  -9.19:  WELL HEAD E/W
 WHNS.m                  -7.75:  WELL HEAD N/S
 LONG.deg                51.45:  LONGITUDE
 LATI.deg                40.02:  LATITUDE
 TVDS.m                  43.60:  TVDSS CORRECTN
 EKB .m                  43.60:  KB ELEVATION
 EDF .m                  43.60:  DF ELEVATION
 TDL .m                 248.00:  TOTAL DEPTH (LOGGER)
 MAGU.                 1849075:  MAGUTM CHECKSUM
 VSC .                       0:  VS TO CLOSURE
~Parameter Information Block
#MNEM.UNIT       Value        Description
#---------     -----------    ---------------------------
 AV  .mps                 6.34:  Ann Velocity 
 AVMX.mps                 7.00:  Max Ann Veloc 
 AZIF.deg               260.29:  Azm, Final 
 BHAT.        Rotary Steerable:  BHA Type 
 BROT.°/30m               1.20:  Build Rotating 
 BS  .in                  8.50:  Bit Size 
 BSZ .in                  8.50:  Bit Size 
 BTPL.psig              620.00:  Bit Press Loss 
 CABU.                     Yes:  Customer Abuse 
 COMM.                     Äá„:  Run Comments 1 
 TCS .hr                 56.22:  Time Ciculation Ended 
 CV  .mps                 3.05:  Crit Velocity 
 CVMX.mps                 3.20:  Max Crit Veloc 
 DD1 .            Musa Ahmadov:  Direct Drillr 1 
 DDSV.                 iCruise:  DD Service 
 DEFF.%                  98.00:  % Det Eff 
 DLRX.°/30m               2.78:  Dogleg Rot Max 
 DLSO.°/30m               0.00:  Dogleg Oriented 
 DLSX.°/30m               0.00:  Dogleg Str Max 
 DRET.      05.20.48 16-Jul-20:  Drill End Time 
 DRST.      10.20.48 13-Jul-20:  Drill Start Tim 
 DTIM.hr                 14.25:  Time Drilling 
 EDEP.m                4326.01:  End Depth 
 ENG1.      Artemiy Matviyanov:  Engineer 1 
 ENG2.           Amrah Tahirov:  Engineer 2 
 ETIM.      22.30.00 18-Jul-20:  End Time 
 FLOI.gpm               550.00:  Flow In 
 FLON.gpm               450.00:  Flow In Min 
 FLOS.cptm                0.00:  Fluid Loss 
 FLOX.gpm               600.00:  Flow In Max 
 HFLO.                      No:  High Flow 
 HPRE.                      No:  High Pressure 
 HTEM.                      No:  High Temp 
 HYDO.m                   1.80:  Hydro Offset 
 IFIN.deg                65.41:  Inc, Final 
 IMAX.deg                65.14:  Inc Max 
 IMIN.deg                58.89:  Inc Min 
 IMND.m                4104.92:  Inc Min Depth 
 IMXD.m                4303.89:  Inc Max Depth 
 JARR.                      No:  Jarring 
 LETM.      10.20.48 17-Jul-20:  Log End Time 
 LOST.hr                     0:  Lost Rig Time 
 LSTM.      10.20.48 13-Jul-20:  Log Start Time 
 MDCL.ppm             37000.00:  Mud Chlorides 
 MDES.     Inversion Oil/Synthetic:  Mud Desc 
 DFD .sg                  1.52:  Mud Density 
 MDMN.sg                  1.52:  Dens Mud Min 
 MDMX.sg                  1.52:  Dens Mud Max 
 MOIL.                   52.70:  Run Mud Oil % 
 MOWR.                   68:32:  Run Mud OWR 
 MSND.                     0.2:  Run Mud Sand % 
 MSOL.                    21.6:  Run Mud Solids% 
 DFV .spqt               79.00:  Mud Viscosity 
 MWOD.in                  6.75:  MWD Tool OD 
 MWSI.                      No:  Serv Intrp, MWD 
 OTIM.hr                114.04:  Time Operating 
 PCON.          Wear / Scratch:  Pad Condition 
 PMAX.psia            11782.92:  Press Op, Max 
 PV  .cP                 49.00:  Mud PV 
 RUN .                     600:  Run Number 
 ROPA.m/hr               20.00:  ROP Avg 
 ROPN.m/hr               15.00:  ROP Min 
 ROPX.m/hr               22.00:  ROP Max 
 RPMA.rpm               120.00:  RPM Surface Avg 
 RPMN.rpm                90.00:  RPM Surface Min 
 RPMX.rpm               140.00:  RPM Surface Max 
 RRUN.                     600:  Rig Run Number 
 SAZI.deg               260.29:  Azm, Start 
 SDEP.m                4078.01:  Start Depth 
 SIDD.                      No:  Serv Intrp, DD 
 SINC.deg                58.89:  Inc, Start 
 SPPA.psig             4560.00:  SPP Avg 
 SPPN.psig             3600.00:  SPP Min 
 SPPX.psig             4800.00:  SPP Max 
 STIM.      10.20.48 13-Jul-20:  Start Time 
 SVCS.                 DD, MWD:  Services 
 SVER.                    9.20:  Sperry Version 
 TDAT.m                4378.01:  Tot Depth Attmp 
 TDDF.                      No:  Trip for DD 
 TDLG.m                 248.00:  Tot Depth Loggd 
 TFF .                      No:  Trip for Fail 
 TQAA.f-kp               18.00:  Torque Abs Avg 
 TQAN.f-kp               15.00:  Torque Abs Min 
 TQAX.f-kp               20.00:  Torque Abs Max 
 TRRT.°/30m               0.70:  Turn Rotating 
 MRT .                    HCIM:  Maximum Recorded Temperature 
 TTMX.degC               86.00:  Max Tool Temp 
 WBMN.klb                 3.00:  WOB Min 
 WOBA.klb                 5.00:  WOB Avg 
 WOBX.klb                 9.00:  WOB Max 
 YP  .lhf2               32.00:  Yield Point 
~Curve Information Block
#MNEM.UNIT                 API CODE     Curve Description
#---------               -----------    ---------------------------
 TIME.HHMMSS            00 000 000 000:  GT Time & Date
 GTDEPTH.m              00 000 000 000:  GT Depth
 GTPQH.psia             00 000 000 000:  GT HR Quartz Pressure
 GTTQ.degC              00 000 000 000:  GT Quartz Temperature
 GTTN.NONE              00 000 000 000:  GT Test Number
 GTET.sec               00 000 000 000:  GT Elapsed Test Time
 GTTVD.m                00 000 000 000:  GT True Vertical Depth
#Other Information
#
#WARRANTY: Halliburton will use its best efforts to furnish customers with 
#accurate information and interpretations that are part of, and incident to, the services 
#provided.  However, Halliburton cannot and does not warrant the accuracy 
#or correctness of such information and interpretations.  Under no circumstances should any 
#such information or interpretation be relied upon as the sole basis for any drilling, 
#completion, production, or financial decision or any procedure involving any risk to the 
#safety of any drilling venture, drilling rig or its crew or any other third party.  The 
#Customer has full responsibility for all drilling, completion and production operation.  
#Halliburton makes no representations or warranties, either expressed or 
#implied, including, but not limited to, the implied warranties of merchantability or fitness 
#for a particular purpose, with respect to the services rendered.  In no event will 
#Halliburton be liable for failure to obtain any particular results or for 
#any damages, including, but not limited to, indirect, special or consequential damages, 
#resulting from the use of any information or interpretation provided by Halliburton.
#
~A           TIME           GTDEPTH  GTPQH  GTTQ  GTTN  GTET   GTTVD  
# ...
   21:11:04.108.16-Jul-2020 4135.51 4700.09 77.11 7.00 161.09 2799.87
   21:11:04.309.16-Jul-2020 4135.51 4700.09 77.11 7.00 161.29 2799.87
   21:11:04.509.16-Jul-2020 4135.51 4700.11 77.11 7.00 161.49 2799.87
   21:11:04.709.16-Jul-2020 4135.51 4700.09 77.11 7.00 161.69 2799.87
   21:11:04.909.16-Jul-2020 4135.51 4700.11 77.11 7.00 161.89 2799.87
   21:11:05.109.16-Jul-2020 4135.51 4700.07 77.11 7.00 162.09 2799.87
   21:11:05.309.16-Jul-2020 4135.51 4700.10 77.11 7.00 162.29 2799.87
   21:11:05.509.16-Jul-2020 4135.51 4700.10 77.11 7.00 162.49 2799.87
   21:11:05.709.16-Jul-2020 4135.51 4700.08 77.11 7.00 162.69 2799.87
   21:11:05.909.16-Jul-2020 4135.51 4700.10 77.11 7.00 162.89 2799.87
   21:11:06.110.16-Jul-2020 4135.51 4700.10 77.11 7.00 163.09 2799.87
   21:11:06.310.16-Jul-2020 4135.51 4700.10 77.11 7.00 163.29 2799.87
   21:11:06.510.16-Jul-2020 4135.51 4700.09 77.11 7.00 163.49 2799.87
   21:11:06.710.16-Jul-2020 4135.51 4700.10 77.11 7.00 163.69 2799.87
   21:11:06.910.16-Jul-2020 4135.51 4700.10 77.11 7.00 163.89 2799.87
   21:11:07.110.16-Jul-2020 4135.51 4700.10 77.11 7.00 164.09 2799.87
   21:11:07.310.16-Jul-2020 4135.51 4700.10 77.11 7.00 164.29 2799.87
   21:11:07.510.16-Jul-2020 4135.51 4700.10 77.11 7.00 164.49 2799.87
   21:11:07.710.16-Jul-2020 4135.51 4700.13 77.11 7.00 164.69 2799.87
   21:11:07.911.16-Jul-2020 4135.51 4700.10 77.11 7.00 164.89 2799.87
   21:11:08.111.16-Jul-2020 4135.51 4700.13 77.11 7.00 165.09 2799.87
   21:11:08.311.16-Jul-2020 4135.51 4700.13 77.11 7.00 165.29 2799.87
   21:11:08.511.16-Jul-2020 4135.51 4700.12 77.11 7.00 165.49 2799.87
   21:11:08.711.16-Jul-2020 4135.51 4700.11 77.11 7.00 165.69 2799.87
   21:11:08.911.16-Jul-2020 4135.51 4700.10 77.11 7.00 165.89 2799.87
   21:11:09.111.16-Jul-2020 4135.51 4700.10 77.11 7.00 166.09 2799.87
   21:11:09.311.16-Jul-2020 4135.51 4700.10 77.11 7.00 166.29 2799.87
   21:11:09.511.16-Jul-2020 4135.51 4700.05 77.11 7.00 166.49 2799.87
   21:11:09.712.16-Jul-2020 4135.51 4700.09 77.11 7.00 166.69 2799.87
   21:11:09.912.16-Jul-2020 4135.51 4700.13 77.11 7.00 166.89 2799.87
   21:11:10.112.16-Jul-2020 4135.51 4700.11 77.11 7.00 167.09 2799.87
   21:11:10.312.16-Jul-2020 4135.51 4700.11 77.11 7.00 167.29 2799.87
   21:11:10.512.16-Jul-2020 4135.51 4700.11 77.11 7.00 167.49 2799.87
   21:11:10.712.16-Jul-2020 4135.51 4700.11 77.11 7.00 167.70 2799.87
   21:11:10.912.16-Jul-2020 4135.51 4700.11 77.11 7.00 167.90 2799.87
   21:11:11.112.16-Jul-2020 4135.51 4700.11 77.11 7.00 168.10 2799.87
   21:11:11.312.16-Jul-2020 4135.51 4700.11 77.11 7.00 168.30 2799.87
   21:11:11.513.16-Jul-2020 4135.51 4700.10 77.11 7.00 168.50 2799.87
   21:11:11.713.16-Jul-2020 4135.51 4700.13 77.11 7.00 168.70 2799.87
   21:11:11.913.16-Jul-2020 4135.51 4700.10 77.11 7.00 168.90 2799.87
   21:11:12.113.16-Jul-2020 4135.51 4700.12 77.11 7.00 169.10 2799.87
   21:11:12.313.16-Jul-2020 4135.51 4700.12 77.11 7.00 169.30 2799.87
   21:11:12.513.16-Jul-2020 4135.51 4700.10 77.11 7.00 169.50 2799.87
   21:11:12.713.16-Jul-2020 4135.51 4700.07 77.11 7.00 169.70 2799.87
   21:11:12.913.16-Jul-2020 4135.51 4700.15 77.11 7.00 169.90 2799.87
   21:11:13.114.16-Jul-2020 4135.51 4700.13 77.11 7.00 170.10 2799.87
   21:11:13.314.16-Jul-2020 4135.51 4700.15 77.11 7.00 170.30 2799.87
   21:11:13.514.16-Jul-2020 4135.51 4700.10 77.11 7.00 170.50 2799.87
   21:11:13.714.16-Jul-2020 4135.51 4700.13 77.11 7.00 170.70 2799.87
   21:11:13.914.16-Jul-2020 4135.51 4700.10 77.11 7.00 170.90 2799.87
   21:11:14.114.16-Jul-2020 4135.51 4700.13 77.11 7.00 171.10 2799.87
   21:11:14.314.16-Jul-2020 4135.51 4700.12 77.11 7.00 171.30 2799.87
   21:11:14.514.16-Jul-2020 4135.51 4700.11 77.11 7.00 171.50 2799.87
   21:11:14.714.16-Jul-2020 4135.51 4700.13 77.11 7.00 171.70 2799.87
   21:11:14.915.16-Jul-2020 4135.51 4700.11 77.11 7.00 171.90 2799.87
   21:11:15.115.16-Jul-2020 4135.51 4700.13 77.11 7.00 172.10 2799.87
   21:11:15.315.16-Jul-2020 4135.51 4700.13 77.11 7.00 172.30 2799.87
   21:11:15.515.16-Jul-2020 4135.51 4700.12 77.11 7.00 172.50 2799.87
   21:11:15.715.16-Jul-2020 4135.51 4700.12 77.11 7.00 172.70 2799.87
   21:11:15.915.16-Jul-2020 4135.51 4700.07 77.11 7.00 172.90 2799.87
   21:11:16.115.16-Jul-2020 4135.51 4700.15 77.11 7.00 173.10 2799.87
   21:11:16.315.16-Jul-2020 4135.51 4700.15 77.11 7.00 173.30 2799.87
   21:11:16.515.16-Jul-2020 4135.51 4700.14 77.11 7.00 173.50 2799.87
   21:11:16.716.16-Jul-2020 4135.51 4700.19 77.11 7.00 173.70 2799.87
   21:11:16.916.16-Jul-2020 4135.51 4700.09 77.11 7.00 173.90 2799.87
   21:11:17.116.16-Jul-2020 4135.51 4700.09 77.11 7.00 174.10 2799.87
   21:11:17.316.16-Jul-2020 4135.51 4700.14 77.11 7.00 174.30 2799.87
   21:11:17.516.16-Jul-2020 4135.51 4700.09 77.11 7.00 174.50 2799.87
   21:11:17.716.16-Jul-2020 4135.51 4700.13 77.11 7.00 174.70 2799.87
   21:11:17.916.16-Jul-2020 4135.51 4700.06 77.11 7.00 174.90 2799.87
   21:11:18.116.16-Jul-2020 4135.51 4700.15 77.11 7.00 175.10 2799.87
   21:11:18.316.16-Jul-2020 4135.51 4700.15 77.11 7.00 175.30 2799.87
   21:11:18.517.16-Jul-2020 4135.51 4700.13 77.11 7.00 175.50 2799.87
   21:11:18.717.16-Jul-2020 4135.51 4700.12 77.11 7.00 175.70 2799.87
   21:11:18.917.16-Jul-2020 4135.51 4700.19 77.11 7.00 175.90 2799.87
   21:11:19.117.16-Jul-2020 4135.51 4700.08 77.11 7.00 176.10 2799.87
   21:11:19.317.16-Jul-2020 4135.51 4700.08 77.11 7.00 176.30 2799.87
   21:11:19.517.16-Jul-2020 4135.51 4700.14 77.11 7.00 176.50 2799.87
   21:11:19.717.16-Jul-2020 4135.51 4700.10 77.11 7.00 176.70 2799.87
   21:11:19.917.16-Jul-2020 4135.51 4700.13 77.11 7.00 176.90 2799.87
   21:11:20.117.16-Jul-2020 4135.51 4700.11 77.11 7.00 177.10 2799.87
   21:11:20.318.16-Jul-2020 4135.51 4700.11 77.11 7.00 177.30 2799.87
   21:11:20.518.16-Jul-2020 4135.51 4700.13 77.11 7.00 177.50 2799.87
   21:11:20.718.16-Jul-2020 4135.51 4700.11 77.11 7.00 177.70 2799.87
   21:11:20.918.16-Jul-2020 4135.51 4700.13 77.11 7.00 177.90 2799.87
   21:11:21.118.16-Jul-2020 4135.51 4700.12 77.11 7.00 178.10 2799.87
   21:11:21.318.16-Jul-2020 4135.51 4700.11 77.11 7.00 178.30 2799.87
   21:11:21.518.16-Jul-2020 4135.51 4700.16 77.11 7.00 178.50 2799.87
   21:11:21.718.16-Jul-2020 4135.51 4700.13 77.11 7.00 178.70 2799.87
   21:11:21.919.16-Jul-2020 4135.51 4700.11 77.11 7.00 178.90 2799.87
   21:11:22.119.16-Jul-2020 4135.51 4700.12 77.11 7.00 179.10 2799.87
   21:11:22.319.16-Jul-2020 4135.51 4700.12 77.11 7.00 179.30 2799.87
   21:11:22.519.16-Jul-2020 4135.51 4700.14 77.11 7.00 179.50 2799.87
   21:11:22.719.16-Jul-2020 4135.51 4700.13 77.11 7.00 179.70 2799.87
   21:11:22.919.16-Jul-2020 4135.51 4700.12 77.11 7.00 179.90 2799.87
   21:11:23.119.16-Jul-2020 4135.51 4700.12 77.11 7.00 180.10 2799.87
   21:11:23.319.16-Jul-2020 4135.51 4700.12 77.11 7.00 180.30 2799.87
   21:11:23.519.16-Jul-2020 4135.51 4700.13 77.11 7.00 180.50 2799.87
   21:11:23.720.16-Jul-2020 4135.51 4700.12 77.11 7.00 180.70 2799.87
   21:11:23.920.16-Jul-2020 4135.51 4700.13 77.11 7.00 180.90 2799.87
   21:11:24.120.16-Jul-2020 4135.51 4700.13 77.11 7.00 181.10 2799.87
   21:11:24.320.16-Jul-2020 4135.51 4700.13 77.11 7.00 181.30 2799.87
   21:11:24.520.16-Jul-2020 4135.51 4700.14 77.11 7.00 181.50 2799.87
   21:11:24.720.16-Jul-2020 4135.51 4700.14 77.11 7.00 181.70 2799.87
   21:11:24.920.16-Jul-2020 4135.51 4700.12 77.11 7.00 181.90 2799.87
   21:11:25.120.16-Jul-2020 4135.51 4700.13 77.11 7.00 182.10 2799.87
   21:11:25.320.16-Jul-2020 4135.51 4700.11 77.11 7.00 182.30 2799.87
   21:11:25.521.16-Jul-2020 4135.51 4700.14 77.11 7.00 182.50 2799.87
   21:11:25.721.16-Jul-2020 4135.51 4700.12 77.11 7.00 182.70 2799.87
   21:11:25.921.16-Jul-2020 4135.51 4700.15 77.11 7.00 182.90 2799.87
   21:11:26.121.16-Jul-2020 4135.51 4700.09 77.11 7.00 183.10 2799.87
   21:11:26.321.16-Jul-2020 4135.51 4700.09 77.11 7.00 183.30 2799.87
   21:11:26.521.16-Jul-2020 4135.51 4700.12 77.11 7.00 183.50 2799.87
   21:11:26.721.16-Jul-2020 4135.51 4700.14 77.11 7.00 183.70 2799.87
   21:11:26.921.16-Jul-2020 4135.51 4700.14 77.11 7.00 183.90 2799.87
