~Version Information
 VERS.                  2.0:   CWLS log ASCII Standard -VERSION 2.0
 WRAP.                   NO:   One line per depth step
~Well Information Block
#MNEM.UNIT     VALUE/NAME     DESCRIPTION
#---------     -----------    ---------------------------
 STRT.S             19:19:02 16-Jul-20: START TIME 19:19:02 16-Jul-20
 STOP.S             19:25:52 16-Jul-20: STOP TIME  19:25:52 16-Jul-20
 STEP.S                   0.00: STEP TIME
 NULL.                 -999.25: NULL VALUE
 MDS .        Operator Entered:  MAG DATA SOURCE
 UNIT.                     N/A:  LOGGING EQUIPMENT ID
 DCON.         Sperry Drilling:  DIRECTNL CONTR
 DOE .                     N/A:  DOE NUMBER
 RIG .               EastAzeri:  RIG NAME
 JOBN.        AZ-XX-0906363297:  JOB TICKET NUMB
 MWDS.                    Baku:  MWD SHOP
 SRVC.     Turan Drilling & Engineering:  CONTRACTOR
 PROV.                    Baku:  PROVINCE
 STAT.                    Baku:  STATE NAME
 REGN.                   EESSA:  REGION
 BASE.              Azerbaijan:  LOGGING EQUIPMENT BASE LOCATION
 WTYP.                Deviated:  WELL TYPE
 UWI .                     N/A:  UNIQUE WELL IDENTIFIER
 API .                     N/A:  API NUMBER
 COMP.     BP Exploration (Caspian Sea) ltd.:  COMPANY
 WELL.                    D07z:  WELL NAME
 CTRY.              Azerbaijan:  COUNTRY NAME
 SON .        AZ-XX-0906363297:  JOB NUMBER
 FLD .                     ACG:  FIELD NAME
 PDAT.          Mean Sea Level:  PERMANENT DATUM
 FTOP.          Formation Tops:  FORM TOPS DESC
 ILTD.               Lithology:  INTERP LTH DESC
 SVYD.                  Survey:  SURVEY DESC
 DMOD.             Drill Model:  DRILL MOD DESC
 HPTY.       Minimum Curvature:  HOLE POS TYPE
 NREF.                    Grid:  NORTH REFERENCE
 SPUD.               28-Jun-20:  SPUD DATE
 DATE.      18.27.12 28-Jun-20:  END TIME
 STIM.      18.27.12 28-Jun-20:  START TIME
 DMF .             Drill Floor:  DRILL MEAS FROM
 DFST.                        :  DIST FSL TEXT
 DFWT.                        :  DIST FWL TEXT
 CNTY.                        :  COUNTY
 LOC .                        :  LOCATION
 LMF .             Drill Floor:  LOG MEASURED FROM
 VSNS.m                  -7.75:  VERT SEC N/S
 VSEW.m                  -9.19:  VERT SEC E/W
 MMDE.m                   0.00:  MAGUTM CALC DEP
 AGAP.m                  43.60:  AIR GAP
 DEP .m                4058.99:  DEPTH
 APD .m                  43.60:  DEPTH ABOVE PD
 WDMS.m                 151.80:  WD ELEV
 EGL .m                   0.00:  GROUND ELEVATION
 EPD .m                   0.00:  ELEVATION
 AZTC.deg                 6.19:  AZM TOTAL CORR
 GRDC.deg                 0.27:  GRID CORRECTION
 MDEC.deg                 6.46:  MAGNETIC DECL
 MDIP.deg                59.47:  MAGNETIC DIP
 MFLD.nT              50279.00:  MAGNETIC FIELD
 GVFD.g                   1.00:  GRAVITY FIELD
 VSDR.deg               249.96:  VERT SEC DIRECT
 TDD .m                   0.00:  TOTAL DEPTH (DRILLER)
 SDEP.m                   0.00:  START DEPTH
 DFSL.m                   0.00:  DISTANCE FSL
 DFWL.m                   0.00:  DISTANCE FWL
 UTMY.m             4431880.20:  UTM Y
 UTMX.m              538763.98:  UTM X
 WHEW.m                  -9.19:  WELL HEAD E/W
 WHNS.m                  -7.75:  WELL HEAD N/S
 LONG.deg                51.45:  LONGITUDE
 LATI.deg                40.02:  LATITUDE
 TVDS.m                  43.60:  TVDSS CORRECTN
 EKB .m                  43.60:  KB ELEVATION
 EDF .m                  43.60:  DF ELEVATION
 TDL .m                 248.00:  TOTAL DEPTH (LOGGER)
 MAGU.                 1849075:  MAGUTM CHECKSUM
 VSC .                       0:  VS TO CLOSURE
~Parameter Information Block
#MNEM.UNIT       Value        Description
#---------     -----------    ---------------------------
 AV  .mps                 6.34:  Ann Velocity 
 AVMX.mps                 7.00:  Max Ann Veloc 
 AZIF.deg               260.29:  Azm, Final 
 BHAT.        Rotary Steerable:  BHA Type 
 BROT.°/30m               1.20:  Build Rotating 
 BS  .in                  8.50:  Bit Size 
 BSZ .in                  8.50:  Bit Size 
 BTPL.psig              620.00:  Bit Press Loss 
 CABU.                     Yes:  Customer Abuse 
 COMM.                     d)s:  Run Comments 1 
 TCS .hr                 56.22:  Time Ciculation Ended 
 CV  .mps                 3.05:  Crit Velocity 
 CVMX.mps                 3.20:  Max Crit Veloc 
 DD1 .            Musa Ahmadov:  Direct Drillr 1 
 DDSV.                 iCruise:  DD Service 
 DEFF.%                  98.00:  % Det Eff 
 DLRX.°/30m               2.78:  Dogleg Rot Max 
 DLSO.°/30m               0.00:  Dogleg Oriented 
 DLSX.°/30m               0.00:  Dogleg Str Max 
 DRET.      05.20.48 16-Jul-20:  Drill End Time 
 DRST.      10.20.48 13-Jul-20:  Drill Start Tim 
 DTIM.hr                 14.25:  Time Drilling 
 EDEP.m                4326.01:  End Depth 
 ENG1.      Artemiy Matviyanov:  Engineer 1 
 ENG2.           Amrah Tahirov:  Engineer 2 
 ETIM.      22.30.00 18-Jul-20:  End Time 
 FLOI.gpm               550.00:  Flow In 
 FLON.gpm               450.00:  Flow In Min 
 FLOS.cptm                0.00:  Fluid Loss 
 FLOX.gpm               600.00:  Flow In Max 
 HFLO.                      No:  High Flow 
 HPRE.                      No:  High Pressure 
 HTEM.                      No:  High Temp 
 HYDO.m                   1.80:  Hydro Offset 
 IFIN.deg                65.41:  Inc, Final 
 IMAX.deg                65.14:  Inc Max 
 IMIN.deg                58.89:  Inc Min 
 IMND.m                4104.92:  Inc Min Depth 
 IMXD.m                4303.89:  Inc Max Depth 
 JARR.                      No:  Jarring 
 LETM.      10.20.48 17-Jul-20:  Log End Time 
 LOST.hr                     0:  Lost Rig Time 
 LSTM.      10.20.48 13-Jul-20:  Log Start Time 
 MDCL.ppm             37000.00:  Mud Chlorides 
 MDES.     Inversion Oil/Synthetic:  Mud Desc 
 DFD .sg                  1.52:  Mud Density 
 MDMN.sg                  1.52:  Dens Mud Min 
 MDMX.sg                  1.52:  Dens Mud Max 
 MOIL.                   52.70:  Run Mud Oil % 
 MOWR.                   68:32:  Run Mud OWR 
 MSND.                     0.2:  Run Mud Sand % 
 MSOL.                    21.6:  Run Mud Solids% 
 DFV .spqt               79.00:  Mud Viscosity 
 MWOD.in                  6.75:  MWD Tool OD 
 MWSI.                      No:  Serv Intrp, MWD 
 OTIM.hr                114.04:  Time Operating 
 PCON.          Wear / Scratch:  Pad Condition 
 PMAX.psia            11782.92:  Press Op, Max 
 PV  .cP                 49.00:  Mud PV 
 RUN .                     600:  Run Number 
 ROPA.m/hr               20.00:  ROP Avg 
 ROPN.m/hr               15.00:  ROP Min 
 ROPX.m/hr               22.00:  ROP Max 
 RPMA.rpm               120.00:  RPM Surface Avg 
 RPMN.rpm                90.00:  RPM Surface Min 
 RPMX.rpm               140.00:  RPM Surface Max 
 RRUN.                     600:  Rig Run Number 
 SAZI.deg               260.29:  Azm, Start 
 SDEP.m                4078.01:  Start Depth 
 SIDD.                      No:  Serv Intrp, DD 
 SINC.deg                58.89:  Inc, Start 
 SPPA.psig             4560.00:  SPP Avg 
 SPPN.psig             3600.00:  SPP Min 
 SPPX.psig             4800.00:  SPP Max 
 STIM.      10.20.48 13-Jul-20:  Start Time 
 SVCS.                 DD, MWD:  Services 
 SVER.                    9.20:  Sperry Version 
 TDAT.m                4378.01:  Tot Depth Attmp 
 TDDF.                      No:  Trip for DD 
 TDLG.m                 248.00:  Tot Depth Loggd 
 TFF .                      No:  Trip for Fail 
 TQAA.f-kp               18.00:  Torque Abs Avg 
 TQAN.f-kp               15.00:  Torque Abs Min 
 TQAX.f-kp               20.00:  Torque Abs Max 
 TRRT.°/30m               0.70:  Turn Rotating 
 MRT .                    HCIM:  Maximum Recorded Temperature 
 TTMX.degC               86.00:  Max Tool Temp 
 WBMN.klb                 3.00:  WOB Min 
 WOBA.klb                 5.00:  WOB Avg 
 WOBX.klb                 9.00:  WOB Max 
 YP  .lhf2               32.00:  Yield Point 
~Curve Information Block
#MNEM.UNIT                 API CODE     Curve Description
#---------               -----------    ---------------------------
 TIME.HHMMSS            00 000 000 000:  GT Time & Date
 GTDEPTH.m              00 000 000 000:  GT Depth
 GTPQH.psia             00 000 000 000:  GT HR Quartz Pressure
 GTTQ.degC              00 000 000 000:  GT Quartz Temperature
 GTTN.NONE              00 000 000 000:  GT Test Number
 GTET.sec               00 000 000 000:  GT Elapsed Test Time
 GTTVD.m                00 000 000 000:  GT True Vertical Depth
#Other Information
#
#WARRANTY: Halliburton will use its best efforts to furnish customers with 
#accurate information and interpretations that are part of, and incident to, the services 
#provided.  However, Halliburton cannot and does not warrant the accuracy 
#or correctness of such information and interpretations.  Under no circumstances should any 
#such information or interpretation be relied upon as the sole basis for any drilling, 
#completion, production, or financial decision or any procedure involving any risk to the 
#safety of any drilling venture, drilling rig or its crew or any other third party.  The 
#Customer has full responsibility for all drilling, completion and production operation.  
#Halliburton makes no representations or warranties, either expressed or 
#implied, including, but not limited to, the implied warranties of merchantability or fitness 
#for a particular purpose, with respect to the services rendered.  In no event will 
#Halliburton be liable for failure to obtain any particular results or for 
#any damages, including, but not limited to, indirect, special or consequential damages, 
#resulting from the use of any information or interpretation provided by Halliburton.
#
~A           TIME           GTDEPTH  GTPQH  GTTQ  GTTN  GTET   GTTVD  
# ...
   19:22:29.394.16-Jul-2020 4190.01 4791.54 79.02 6.00 207.09 2825.02
   19:22:29.594.16-Jul-2020 4190.01 4791.54 79.02 6.00 207.29 2825.02
   19:22:29.794.16-Jul-2020 4190.01 4791.55 79.02 6.00 207.49 2825.02
   19:22:29.994.16-Jul-2020 4190.01 4791.53 79.02 6.00 207.69 2825.02
   19:22:30.194.16-Jul-2020 4190.01 4791.58 79.02 6.00 207.89 2825.02
   19:22:30.394.16-Jul-2020 4190.01 4791.48 79.02 6.00 208.09 2825.02
   19:22:30.594.16-Jul-2020 4190.01 4791.48 79.02 6.00 208.29 2825.02
   19:22:30.794.16-Jul-2020 4190.01 4791.48 79.02 6.00 208.49 2825.02
   19:22:30.994.16-Jul-2020 4190.01 4791.49 79.02 6.00 208.69 2825.02
   19:22:31.195.16-Jul-2020 4190.01 4791.56 79.02 6.00 208.89 2825.02
   19:22:31.395.16-Jul-2020 4190.01 4791.54 79.02 6.00 209.09 2825.02
   19:22:31.595.16-Jul-2020 4190.01 4791.54 79.02 6.00 209.29 2825.02
   19:22:31.795.16-Jul-2020 4190.01 4791.55 79.02 6.00 209.49 2825.02
   19:22:31.995.16-Jul-2020 4190.01 4791.54 79.02 6.00 209.69 2825.02
   19:22:32.195.16-Jul-2020 4190.01 4791.54 79.02 6.00 209.89 2825.02
   19:22:32.395.16-Jul-2020 4190.01 4791.55 79.02 6.00 210.09 2825.02
   19:22:32.595.16-Jul-2020 4190.01 4791.55 79.02 6.00 210.29 2825.02
   19:22:32.795.16-Jul-2020 4190.01 4791.55 79.02 6.00 210.49 2825.02
   19:22:32.995.16-Jul-2020 4190.01 4791.54 79.02 6.00 210.69 2825.02
   19:22:33.195.16-Jul-2020 4190.01 4791.54 79.02 6.00 210.89 2825.02
   19:22:33.396.16-Jul-2020 4190.01 4791.50 79.02 6.00 211.09 2825.02
   19:22:33.596.16-Jul-2020 4190.01 4791.54 79.02 6.00 211.29 2825.02
   19:22:33.796.16-Jul-2020 4190.01 4791.73 79.02 6.00 211.49 2825.02
   19:22:33.996.16-Jul-2020 4190.01 4791.50 79.02 6.00 211.70 2825.02
   19:22:34.196.16-Jul-2020 4190.01 4791.50 79.02 6.00 211.90 2825.02
   19:22:34.396.16-Jul-2020 4190.01 4791.54 79.02 6.00 212.10 2825.02
   19:22:34.596.16-Jul-2020 4190.01 4791.54 79.02 6.00 212.30 2825.02
   19:22:34.796.16-Jul-2020 4190.01 4791.48 79.02 6.00 212.50 2825.02
   19:22:34.996.16-Jul-2020 4190.01 4791.65 79.02 6.00 212.70 2825.02
   19:22:35.196.16-Jul-2020 4190.01 4791.55 79.02 6.00 212.90 2825.02
   19:22:35.396.16-Jul-2020 4190.01 4791.54 79.02 6.00 213.10 2825.02
   19:22:35.597.16-Jul-2020 4190.01 4791.54 79.02 6.00 213.30 2825.02
   19:22:35.797.16-Jul-2020 4190.01 4791.53 79.02 6.00 213.50 2825.02
   19:22:35.997.16-Jul-2020 4190.01 4791.73 79.02 6.00 213.70 2825.02
   19:22:36.197.16-Jul-2020 4190.01 4791.49 79.02 6.00 213.90 2825.02
   19:22:36.397.16-Jul-2020 4190.01 4791.50 79.02 6.00 214.10 2825.02
   19:22:36.597.16-Jul-2020 4190.01 4791.50 79.02 6.00 214.30 2825.02
   19:22:36.797.16-Jul-2020 4190.01 4791.71 79.02 6.00 214.50 2825.02
   19:22:36.997.16-Jul-2020 4190.01 4791.36 79.02 6.00 214.70 2825.02
   19:22:37.197.16-Jul-2020 4190.01 4791.54 79.02 6.00 214.90 2825.02
   19:22:37.397.16-Jul-2020 4190.01 4791.61 79.02 6.00 215.10 2825.02
   19:22:37.597.16-Jul-2020 4190.01 4791.61 79.02 6.00 215.30 2825.02
   19:22:37.798.16-Jul-2020 4190.01 4791.54 79.02 6.00 215.50 2825.02
   19:22:37.998.16-Jul-2020 4190.01 4791.54 79.02 6.00 215.70 2825.02
   19:22:38.198.16-Jul-2020 4190.01 4791.56 79.02 6.00 215.90 2825.02
   19:22:38.398.16-Jul-2020 4190.01 4791.55 79.02 6.00 216.10 2825.02
   19:22:38.598.16-Jul-2020 4190.01 4791.55 79.02 6.00 216.30 2825.02
   19:22:38.798.16-Jul-2020 4190.01 4791.54 79.02 6.00 216.50 2825.02
   19:22:38.998.16-Jul-2020 4190.01 4791.54 79.02 6.00 216.70 2825.02
   19:22:39.198.16-Jul-2020 4190.01 4791.55 79.02 6.00 216.90 2825.02
   19:22:39.398.16-Jul-2020 4190.01 4791.67 79.02 6.00 217.10 2825.02
   19:22:39.598.16-Jul-2020 4190.01 4791.67 79.02 6.00 217.30 2825.02
   19:22:39.798.16-Jul-2020 4190.01 4791.62 79.02 6.00 217.50 2825.02
   19:22:39.999.16-Jul-2020 4190.01 4791.51 79.02 6.00 217.70 2825.02
   19:22:40.199.16-Jul-2020 4190.01 4791.54 79.02 6.00 217.90 2825.02
   19:22:40.399.16-Jul-2020 4190.01 4791.55 79.02 6.00 218.10 2825.02
   19:22:40.599.16-Jul-2020 4190.01 4791.55 79.02 6.00 218.30 2825.02
   19:22:40.799.16-Jul-2020 4190.01 4791.55 79.02 6.00 218.50 2825.02
   19:22:40.999.16-Jul-2020 4190.01 4791.54 79.02 6.00 218.70 2825.02
   19:22:41.199.16-Jul-2020 4190.01 4791.55 79.02 6.00 218.90 2825.02
   19:22:41.399.16-Jul-2020 4190.01 4791.53 79.02 6.00 219.10 2825.02
   19:22:41.599.16-Jul-2020 4190.01 4791.53 79.02 6.00 219.30 2825.02
   19:22:41.799.16-Jul-2020 4190.01 4791.54 79.02 6.00 219.50 2825.02
   19:22:41.999.16-Jul-2020 4190.01 4791.56 79.02 6.00 219.70 2825.02
   19:22:42.200.16-Jul-2020 4190.01 4791.54 79.02 6.00 219.90 2825.02
   19:22:42.400.16-Jul-2020 4190.01 4791.55 79.02 6.00 220.10 2825.02
   19:22:42.600.16-Jul-2020 4190.01 4791.55 79.02 6.00 220.30 2825.02
   19:22:42.800.16-Jul-2020 4190.01 4791.40 79.02 6.00 220.50 2825.02
   19:22:43.000.16-Jul-2020 4190.01 4791.62 79.02 6.00 220.70 2825.02
   19:22:43.200.16-Jul-2020 4190.01 4791.50 79.02 6.00 220.90 2825.02
   19:22:43.400.16-Jul-2020 4190.01 4791.54 79.02 6.00 221.10 2825.02
   19:22:43.600.16-Jul-2020 4190.01 4791.54 79.02 6.00 221.30 2825.02
   19:22:43.800.16-Jul-2020 4190.01 4791.51 79.02 6.00 221.50 2825.02
   19:22:44.000.16-Jul-2020 4190.01 4791.56 79.02 6.00 221.70 2825.02
   19:22:44.200.16-Jul-2020 4190.01 4791.72 79.02 6.00 221.90 2825.02
   19:22:44.400.16-Jul-2020 4190.01 4791.48 79.02 6.00 222.10 2825.02
   19:22:44.601.16-Jul-2020 4190.01 4791.48 79.02 6.00 222.30 2825.02
   19:22:44.801.16-Jul-2020 4190.01 4791.70 79.02 6.00 222.50 2825.02
   19:22:45.001.16-Jul-2020 4190.01 4791.38 79.02 6.00 222.70 2825.02
   19:22:45.201.16-Jul-2020 4190.01 4791.62 79.02 6.00 222.90 2825.02
   19:22:45.401.16-Jul-2020 4190.01 4791.50 79.02 6.00 223.10 2825.02
   19:22:45.601.16-Jul-2020 4190.01 4791.50 79.02 6.00 223.30 2825.02
   19:22:45.801.16-Jul-2020 4190.01 4791.55 79.02 6.00 223.50 2825.02
   19:22:46.001.16-Jul-2020 4190.01 4791.47 79.02 6.00 223.70 2825.02
   19:22:46.201.16-Jul-2020 4190.01 4791.66 79.02 6.00 223.90 2825.02
   19:22:46.401.16-Jul-2020 4190.01 4791.54 79.02 6.00 224.10 2825.02
   19:22:46.601.16-Jul-2020 4190.01 4791.54 79.02 6.00 224.30 2825.02
   19:22:46.802.16-Jul-2020 4190.01 4791.55 79.02 6.00 224.50 2825.02
   19:22:47.002.16-Jul-2020 4190.01 4791.53 79.02 6.00 224.70 2825.02
   19:22:47.202.16-Jul-2020 4190.01 4791.52 79.02 6.00 224.90 2825.02
   19:22:47.402.16-Jul-2020 4190.01 4791.55 79.02 6.00 225.10 2825.02
   19:22:47.602.16-Jul-2020 4190.01 4791.55 79.02 6.00 225.30 2825.02
   19:22:47.802.16-Jul-2020 4190.01 4791.56 79.02 6.00 225.50 2825.02
   19:22:48.002.16-Jul-2020 4190.01 4791.54 79.02 6.00 225.70 2825.02
   19:22:48.202.16-Jul-2020 4190.01 4791.54 79.02 6.00 225.90 2825.02
   19:22:48.402.16-Jul-2020 4190.01 4791.55 79.02 6.00 226.10 2825.02
   19:22:48.602.16-Jul-2020 4190.01 4791.55 79.02 6.00 226.30 2825.02
   19:22:48.802.16-Jul-2020 4190.01 4791.38 79.02 6.00 226.50 2825.02
   19:22:49.003.16-Jul-2020 4190.01 4791.53 79.02 6.00 226.70 2825.02
   19:22:49.203.16-Jul-2020 4190.01 4791.61 79.02 6.00 226.90 2825.02
   19:22:49.403.16-Jul-2020 4190.01 4791.56 79.02 6.00 227.10 2825.02
   19:22:49.603.16-Jul-2020 4190.01 4791.56 79.02 6.00 227.30 2825.02
   19:22:49.803.16-Jul-2020 4190.01 4791.56 79.02 6.00 227.50 2825.02
   19:22:50.003.16-Jul-2020 4190.01 4791.53 79.02 6.00 227.70 2825.02
   19:22:50.203.16-Jul-2020 4190.01 4791.54 79.02 6.00 227.90 2825.02
   19:22:50.403.16-Jul-2020 4190.01 4791.53 79.02 6.00 228.10 2825.02
   19:22:50.603.16-Jul-2020 4190.01 4791.53 79.02 6.00 228.30 2825.02
   19:22:50.803.16-Jul-2020 4190.01 4791.54 79.02 6.00 228.50 2825.02
   19:22:51.003.16-Jul-2020 4190.01 4791.54 79.02 6.00 228.70 2825.02
   19:22:51.204.16-Jul-2020 4190.01 4791.55 79.02 6.00 228.90 2825.02
   19:22:51.404.16-Jul-2020 4190.01 4791.53 79.02 6.00 229.10 2825.02
   19:22:51.604.16-Jul-2020 4190.01 4791.53 79.02 6.00 229.30 2825.02
   19:22:51.804.16-Jul-2020 4190.01 4791.70 79.02 6.00 229.50 2825.02
   19:22:52.004.16-Jul-2020 4190.01 4791.37 79.02 6.00 229.70 2825.02
   19:22:52.204.16-Jul-2020 4190.01 4791.52 79.02 6.00 229.90 2825.02
