~Version Information
 VERS.                  2.0:   CWLS log ASCII Standard -VERSION 2.0
 WRAP.                   NO:   One line per depth step
~Well Information Block
#MNEM.UNIT     VALUE/NAME     DESCRIPTION
#---------     -----------    ---------------------------
 STRT.S             16:55:55 16-Jul-20: START TIME 16:55:55 16-Jul-20
 STOP.S             17:02:47 16-Jul-20: STOP TIME  17:02:47 16-Jul-20
 STEP.S                   0.00: STEP TIME
 NULL.                 -999.25: NULL VALUE
 MDS .        Operator Entered:  MAG DATA SOURCE
 UNIT.                     N/A:  LOGGING EQUIPMENT ID
 DCON.         Sperry Drilling:  DIRECTNL CONTR
 DOE .                     N/A:  DOE NUMBER
 RIG .               EastAzeri:  RIG NAME
 JOBN.        AZ-XX-0906363297:  JOB TICKET NUMB
 MWDS.                    Baku:  MWD SHOP
 SRVC.     Turan Drilling & Engineering:  CONTRACTOR
 PROV.                    Baku:  PROVINCE
 STAT.                    Baku:  STATE NAME
 REGN.                   EESSA:  REGION
 BASE.              Azerbaijan:  LOGGING EQUIPMENT BASE LOCATION
 WTYP.                Deviated:  WELL TYPE
 UWI .                     N/A:  UNIQUE WELL IDENTIFIER
 API .                     N/A:  API NUMBER
 COMP.     BP Exploration (Caspian Sea) ltd.:  COMPANY
 WELL.                    D07z:  WELL NAME
 CTRY.              Azerbaijan:  COUNTRY NAME
 SON .        AZ-XX-0906363297:  JOB NUMBER
 FLD .                     ACG:  FIELD NAME
 PDAT.          Mean Sea Level:  PERMANENT DATUM
 FTOP.          Formation Tops:  FORM TOPS DESC
 ILTD.               Lithology:  INTERP LTH DESC
 SVYD.                  Survey:  SURVEY DESC
 DMOD.             Drill Model:  DRILL MOD DESC
 HPTY.       Minimum Curvature:  HOLE POS TYPE
 NREF.                    Grid:  NORTH REFERENCE
 SPUD.               28-Jun-20:  SPUD DATE
 DATE.      18.27.12 28-Jun-20:  END TIME
 STIM.      18.27.12 28-Jun-20:  START TIME
 DMF .             Drill Floor:  DRILL MEAS FROM
 DFST.                        :  DIST FSL TEXT
 DFWT.                        :  DIST FWL TEXT
 CNTY.                        :  COUNTY
 LOC .                        :  LOCATION
 LMF .             Drill Floor:  LOG MEASURED FROM
 VSNS.m                  -7.75:  VERT SEC N/S
 VSEW.m                  -9.19:  VERT SEC E/W
 MMDE.m                   0.00:  MAGUTM CALC DEP
 AGAP.m                  43.60:  AIR GAP
 DEP .m                4058.99:  DEPTH
 APD .m                  43.60:  DEPTH ABOVE PD
 WDMS.m                 151.80:  WD ELEV
 EGL .m                   0.00:  GROUND ELEVATION
 EPD .m                   0.00:  ELEVATION
 AZTC.deg                 6.19:  AZM TOTAL CORR
 GRDC.deg                 0.27:  GRID CORRECTION
 MDEC.deg                 6.46:  MAGNETIC DECL
 MDIP.deg                59.47:  MAGNETIC DIP
 MFLD.nT              50279.00:  MAGNETIC FIELD
 GVFD.g                   1.00:  GRAVITY FIELD
 VSDR.deg               249.96:  VERT SEC DIRECT
 TDD .m                   0.00:  TOTAL DEPTH (DRILLER)
 SDEP.m                   0.00:  START DEPTH
 DFSL.m                   0.00:  DISTANCE FSL
 DFWL.m                   0.00:  DISTANCE FWL
 UTMY.m             4431880.20:  UTM Y
 UTMX.m              538763.98:  UTM X
 WHEW.m                  -9.19:  WELL HEAD E/W
 WHNS.m                  -7.75:  WELL HEAD N/S
 LONG.deg                51.45:  LONGITUDE
 LATI.deg                40.02:  LATITUDE
 TVDS.m                  43.60:  TVDSS CORRECTN
 EKB .m                  43.60:  KB ELEVATION
 EDF .m                  43.60:  DF ELEVATION
 TDL .m                 248.00:  TOTAL DEPTH (LOGGER)
 MAGU.                 1849075:  MAGUTM CHECKSUM
 VSC .                       0:  VS TO CLOSURE
~Parameter Information Block
#MNEM.UNIT       Value        Description
#---------     -----------    ---------------------------
 AV  .mps                 6.34:  Ann Velocity 
 AVMX.mps                 7.00:  Max Ann Veloc 
 AZIF.deg               260.29:  Azm, Final 
 BHAT.        Rotary Steerable:  BHA Type 
 BROT.°/30m               1.20:  Build Rotating 
 BS  .in                  8.50:  Bit Size 
 BSZ .in                  8.50:  Bit Size 
 BTPL.psig              620.00:  Bit Press Loss 
 CABU.                     Yes:  Customer Abuse 
 COMM.                     3z:  Run Comments 1 
 TCS .hr                 56.22:  Time Ciculation Ended 
 CV  .mps                 3.05:  Crit Velocity 
 CVMX.mps                 3.20:  Max Crit Veloc 
 DD1 .            Musa Ahmadov:  Direct Drillr 1 
 DDSV.                 iCruise:  DD Service 
 DEFF.%                  98.00:  % Det Eff 
 DLRX.°/30m               2.78:  Dogleg Rot Max 
 DLSO.°/30m               0.00:  Dogleg Oriented 
 DLSX.°/30m               0.00:  Dogleg Str Max 
 DRET.      05.20.48 16-Jul-20:  Drill End Time 
 DRST.      10.20.48 13-Jul-20:  Drill Start Tim 
 DTIM.hr                 14.25:  Time Drilling 
 EDEP.m                4326.01:  End Depth 
 ENG1.      Artemiy Matviyanov:  Engineer 1 
 ENG2.           Amrah Tahirov:  Engineer 2 
 ETIM.      22.30.00 18-Jul-20:  End Time 
 FLOI.gpm               550.00:  Flow In 
 FLON.gpm               450.00:  Flow In Min 
 FLOS.cptm                0.00:  Fluid Loss 
 FLOX.gpm               600.00:  Flow In Max 
 HFLO.                      No:  High Flow 
 HPRE.                      No:  High Pressure 
 HTEM.                      No:  High Temp 
 HYDO.m                   1.80:  Hydro Offset 
 IFIN.deg                65.41:  Inc, Final 
 IMAX.deg                65.14:  Inc Max 
 IMIN.deg                58.89:  Inc Min 
 IMND.m                4104.92:  Inc Min Depth 
 IMXD.m                4303.89:  Inc Max Depth 
 JARR.                      No:  Jarring 
 LETM.      10.20.48 17-Jul-20:  Log End Time 
 LOST.hr                     0:  Lost Rig Time 
 LSTM.      10.20.48 13-Jul-20:  Log Start Time 
 MDCL.ppm             37000.00:  Mud Chlorides 
 MDES.     Inversion Oil/Synthetic:  Mud Desc 
 DFD .sg                  1.52:  Mud Density 
 MDMN.sg                  1.52:  Dens Mud Min 
 MDMX.sg                  1.52:  Dens Mud Max 
 MOIL.                   52.70:  Run Mud Oil % 
 MOWR.                   68:32:  Run Mud OWR 
 MSND.                     0.2:  Run Mud Sand % 
 MSOL.                    21.6:  Run Mud Solids% 
 DFV .spqt               79.00:  Mud Viscosity 
 MWOD.in                  6.75:  MWD Tool OD 
 MWSI.                      No:  Serv Intrp, MWD 
 OTIM.hr                114.04:  Time Operating 
 PCON.          Wear / Scratch:  Pad Condition 
 PMAX.psia            11782.92:  Press Op, Max 
 PV  .cP                 49.00:  Mud PV 
 RUN .                     600:  Run Number 
 ROPA.m/hr               20.00:  ROP Avg 
 ROPN.m/hr               15.00:  ROP Min 
 ROPX.m/hr               22.00:  ROP Max 
 RPMA.rpm               120.00:  RPM Surface Avg 
 RPMN.rpm                90.00:  RPM Surface Min 
 RPMX.rpm               140.00:  RPM Surface Max 
 RRUN.                     600:  Rig Run Number 
 SAZI.deg               260.29:  Azm, Start 
 SDEP.m                4078.01:  Start Depth 
 SIDD.                      No:  Serv Intrp, DD 
 SINC.deg                58.89:  Inc, Start 
 SPPA.psig             4560.00:  SPP Avg 
 SPPN.psig             3600.00:  SPP Min 
 SPPX.psig             4800.00:  SPP Max 
 STIM.      10.20.48 13-Jul-20:  Start Time 
 SVCS.                 DD, MWD:  Services 
 SVER.                    9.20:  Sperry Version 
 TDAT.m                4378.01:  Tot Depth Attmp 
 TDDF.                      No:  Trip for DD 
 TDLG.m                 248.00:  Tot Depth Loggd 
 TFF .                      No:  Trip for Fail 
 TQAA.f-kp               18.00:  Torque Abs Avg 
 TQAN.f-kp               15.00:  Torque Abs Min 
 TQAX.f-kp               20.00:  Torque Abs Max 
 TRRT.°/30m               0.70:  Turn Rotating 
 MRT .                    HCIM:  Maximum Recorded Temperature 
 TTMX.degC               86.00:  Max Tool Temp 
 WBMN.klb                 3.00:  WOB Min 
 WOBA.klb                 5.00:  WOB Avg 
 WOBX.klb                 9.00:  WOB Max 
 YP  .lhf2               32.00:  Yield Point 
~Curve Information Block
#MNEM.UNIT                 API CODE     Curve Description
#---------               -----------    ---------------------------
 TIME.HHMMSS            00 000 000 000:  GT Time & Date
 GTDEPTH.m              00 000 000 000:  GT Depth
 GTPQH.psia             00 000 000 000:  GT HR Quartz Pressure
 GTTQ.degC              00 000 000 000:  GT Quartz Temperature
 GTTN.NONE              00 000 000 000:  GT Test Number
 GTET.sec               00 000 000 000:  GT Elapsed Test Time
 GTTVD.m                00 000 000 000:  GT True Vertical Depth
#Other Information
#
#WARRANTY: Halliburton will use its best efforts to furnish customers with 
#accurate information and interpretations that are part of, and incident to, the services 
#provided.  However, Halliburton cannot and does not warrant the accuracy 
#or correctness of such information and interpretations.  Under no circumstances should any 
#such information or interpretation be relied upon as the sole basis for any drilling, 
#completion, production, or financial decision or any procedure involving any risk to the 
#safety of any drilling venture, drilling rig or its crew or any other third party.  The 
#Customer has full responsibility for all drilling, completion and production operation.  
#Halliburton makes no representations or warranties, either expressed or 
#implied, including, but not limited to, the implied warranties of merchantability or fitness 
#for a particular purpose, with respect to the services rendered.  In no event will 
#Halliburton be liable for failure to obtain any particular results or for 
#any damages, including, but not limited to, indirect, special or consequential damages, 
#resulting from the use of any information or interpretation provided by Halliburton.
#
~A           TIME           GTDEPTH  GTPQH  GTTQ  GTTN  GTET   GTTVD  
   16:55:55.382.16-Jul-2020 4261.01 6989.32 80.19 2.00   0.00 2855.56
   16:55:55.582.16-Jul-2020 4261.01 6987.59 80.19 2.00   0.20 2855.56
   16:55:55.782.16-Jul-2020 4261.01 6991.78 80.19 2.00   0.40 2855.56
   16:55:55.982.16-Jul-2020 4261.01 6994.33 80.19 2.00   0.60 2855.56
   16:55:56.182.16-Jul-2020 4261.01 6991.29 80.19 2.00   0.80 2855.56
   16:55:56.382.16-Jul-2020 4261.01 6990.49 80.19 2.00   1.00 2855.56
   16:55:56.582.16-Jul-2020 4261.01 6991.95 80.19 2.00   1.20 2855.56
   16:55:56.782.16-Jul-2020 4261.01 6992.16 80.19 2.00   1.40 2855.56
   16:55:56.983.16-Jul-2020 4261.01 6993.47 80.19 2.00   1.60 2855.56
   16:55:57.183.16-Jul-2020 4261.01 6994.62 80.19 2.00   1.80 2855.56
   16:55:57.383.16-Jul-2020 4261.01 6995.26 80.19 2.00   2.00 2855.56
   16:55:57.583.16-Jul-2020 4261.01 6995.26 80.19 2.00   2.20 2855.56
   16:55:57.783.16-Jul-2020 4261.01 6999.24 80.19 2.00   2.40 2855.56
   16:55:57.983.16-Jul-2020 4261.01 7001.24 80.19 2.00   2.60 2855.56
   16:55:58.183.16-Jul-2020 4261.01 7000.42 80.19 2.00   2.80 2855.56
   16:55:58.383.16-Jul-2020 4261.01 7016.88 80.19 2.00   3.00 2855.56
   16:55:58.583.16-Jul-2020 4261.01 7016.88 80.19 2.00   3.20 2855.56
   16:55:58.783.16-Jul-2020 4261.01 7001.11 80.19 2.00   3.40 2855.56
   16:55:58.983.16-Jul-2020 4261.01 7003.62 80.19 2.00   3.60 2855.56
   16:55:59.183.16-Jul-2020 4261.01 7001.92 80.19 2.00   3.80 2855.56
   16:55:59.383.16-Jul-2020 4261.01 7000.64 80.19 2.00   4.00 2855.56
   16:55:59.583.16-Jul-2020 4261.01 7000.64 80.19 2.00   4.20 2855.56
   16:55:59.783.16-Jul-2020 4261.01 7000.40 80.19 2.00   4.40 2855.56
   16:55:59.983.16-Jul-2020 4261.01 7009.81 80.19 2.00   4.60 2855.56
   16:56:00.183.16-Jul-2020 4261.01 7000.77 80.19 2.00   4.80 2855.56
   16:56:00.383.16-Jul-2020 4261.01 6999.05 80.18 2.00   5.00 2855.56
   16:56:00.583.16-Jul-2020 4261.01 7004.86 80.18 2.00   5.20 2855.56
   16:56:00.783.16-Jul-2020 4261.01 7010.07 80.18 2.00   5.40 2855.56
   16:56:00.983.16-Jul-2020 4261.01 7005.30 80.18 2.00   5.60 2855.56
   16:56:01.183.16-Jul-2020 4261.01 7005.35 80.18 2.00   5.80 2855.56
   16:56:01.383.16-Jul-2020 4261.01 7008.92 80.18 2.00   6.00 2855.56
   16:56:01.583.16-Jul-2020 4261.01 7006.41 80.18 2.00   6.20 2855.56
   16:56:01.784.16-Jul-2020 4261.01 7008.12 80.18 2.00   6.40 2855.56
   16:56:01.984.16-Jul-2020 4261.01 7013.16 80.18 2.00   6.60 2855.56
   16:56:02.184.16-Jul-2020 4261.01 7012.64 80.18 2.00   6.80 2855.56
   16:56:02.384.16-Jul-2020 4261.01 7010.02 80.18 2.00   7.00 2855.56
   16:56:02.584.16-Jul-2020 4261.01 7027.68 80.18 2.00   7.20 2855.56
   16:56:02.784.16-Jul-2020 4261.01 7007.90 80.18 2.00   7.40 2855.56
   16:56:02.984.16-Jul-2020 4261.01 7010.11 80.18 2.00   7.60 2855.56
   16:56:03.184.16-Jul-2020 4261.01 7029.38 80.18 2.00   7.80 2855.56
   16:56:03.384.16-Jul-2020 4261.01 7011.20 80.18 2.00   8.00 2855.56
   16:56:03.584.16-Jul-2020 4261.01 7011.20 80.18 2.00   8.20 2855.56
   16:56:03.784.16-Jul-2020 4261.01 7011.20 80.18 2.00   8.40 2855.56
   16:56:03.984.16-Jul-2020 4261.01 7021.21 80.18 2.00   8.60 2855.56
   16:56:04.184.16-Jul-2020 4261.01 7015.63 80.18 2.00   8.80 2855.56
   16:56:04.384.16-Jul-2020 4261.01 7014.27 80.18 2.00   9.00 2855.56
   16:56:04.584.16-Jul-2020 4261.01 7014.27 80.18 2.00   9.20 2855.56
   16:56:04.784.16-Jul-2020 4261.01 7018.30 80.18 2.00   9.40 2855.56
   16:56:04.984.16-Jul-2020 4261.01 7015.67 80.18 2.00   9.60 2855.56
   16:56:05.184.16-Jul-2020 4261.01 7019.11 80.18 2.00   9.80 2855.56
   16:56:05.384.16-Jul-2020 4261.01 7016.04 80.18 2.00  10.00 2855.56
   16:56:05.584.16-Jul-2020 4261.01 7024.94 80.18 2.00  10.20 2855.56
   16:56:05.784.16-Jul-2020 4261.01 7021.15 80.18 2.00  10.40 2855.56
   16:56:05.984.16-Jul-2020 4261.01 7020.25 80.18 2.00  10.60 2855.56
   16:56:06.184.16-Jul-2020 4261.01 7030.55 80.18 2.00  10.80 2855.56
   16:56:06.384.16-Jul-2020 4261.01 7020.49 80.18 2.00  11.00 2855.56
   16:56:06.585.16-Jul-2020 4261.01 7020.49 80.18 2.00  11.20 2855.56
   16:56:06.785.16-Jul-2020 4261.01 7023.24 80.18 2.00  11.40 2855.56
   16:56:06.985.16-Jul-2020 4261.01 7020.83 80.18 2.00  11.60 2855.56
   16:56:07.185.16-Jul-2020 4261.01 7034.25 80.18 2.00  11.80 2855.56
   16:56:07.385.16-Jul-2020 4261.01 7017.21 80.18 2.00  12.00 2855.56
   16:56:07.585.16-Jul-2020 4261.01 7020.24 80.18 2.00  12.20 2855.56
   16:56:07.785.16-Jul-2020 4261.01 7023.90 80.18 2.00  12.40 2855.56
   16:56:07.985.16-Jul-2020 4261.01 7024.15 80.18 2.00  12.60 2855.56
   16:56:08.185.16-Jul-2020 4261.01 7021.07 80.18 2.00  12.80 2855.56
   16:56:08.385.16-Jul-2020 4261.01 7036.15 80.18 2.00  13.00 2855.56
   16:56:08.585.16-Jul-2020 4261.01 7036.15 80.18 2.00  13.20 2855.56
   16:56:08.785.16-Jul-2020 4261.01 7020.46 80.18 2.00  13.40 2855.56
   16:56:08.985.16-Jul-2020 4261.01 7024.44 80.18 2.00  13.60 2855.56
   16:56:09.185.16-Jul-2020 4261.01 7028.33 80.18 2.00  13.80 2855.56
   16:56:09.385.16-Jul-2020 4261.01 7025.44 80.18 2.00  14.00 2855.56
   16:56:09.585.16-Jul-2020 4261.01 7025.44 80.18 2.00  14.20 2855.56
   16:56:09.785.16-Jul-2020 4261.01 7025.19 80.18 2.00  14.40 2855.56
   16:56:09.985.16-Jul-2020 4261.01 7024.75 80.18 2.00  14.60 2855.56
   16:56:10.185.16-Jul-2020 4261.01 7027.21 80.18 2.00  14.80 2855.56
   16:56:10.385.16-Jul-2020 4261.01 7026.47 80.18 2.00  15.00 2855.56
   16:56:10.585.16-Jul-2020 4261.01 7026.47 80.18 2.00  15.20 2855.56
   16:56:10.785.16-Jul-2020 4261.01 7026.10 80.18 2.00  15.40 2855.56
   16:56:10.985.16-Jul-2020 4261.01 7026.78 80.18 2.00  15.60 2855.56
   16:56:11.185.16-Jul-2020 4261.01 7026.13 80.18 2.00  15.80 2855.56
   16:56:11.385.16-Jul-2020 4261.01 7025.44 80.18 2.00  16.00 2855.56
   16:56:11.586.16-Jul-2020 4261.01 7025.93 80.18 2.00  16.20 2855.56
   16:56:11.786.16-Jul-2020 4261.01 7025.93 80.18 2.00  16.40 2855.56
   16:56:11.986.16-Jul-2020 4261.01 7027.64 80.18 2.00  16.60 2855.56
   16:56:12.186.16-Jul-2020 4261.01 7025.02 80.18 2.00  16.80 2855.56
   16:56:12.386.16-Jul-2020 4261.01 7028.28 80.18 2.00  17.00 2855.56
   16:56:12.586.16-Jul-2020 4261.01 7030.44 80.18 2.00  17.20 2855.56
   16:56:12.786.16-Jul-2020 4261.01 7027.48 80.18 2.00  17.40 2855.56
   16:56:12.986.16-Jul-2020 4261.01 7028.58 80.18 2.00  17.60 2855.56
   16:56:13.186.16-Jul-2020 4261.01 7029.03 80.18 2.00  17.80 2855.56
   16:56:13.386.16-Jul-2020 4261.01 7028.90 80.18 2.00  18.00 2855.56
   16:56:13.586.16-Jul-2020 4261.01 7028.90 80.18 2.00  18.20 2855.56
   16:56:13.786.16-Jul-2020 4261.01 7030.36 80.18 2.00  18.40 2855.56
   16:56:13.986.16-Jul-2020 4261.01 7030.75 80.18 2.00  18.60 2855.56
   16:56:14.186.16-Jul-2020 4261.01 7029.35 80.18 2.00  18.80 2855.56
   16:56:14.386.16-Jul-2020 4261.01 7030.20 80.18 2.00  19.00 2855.56
   16:56:14.586.16-Jul-2020 4261.01 7030.20 80.18 2.00  19.20 2855.56
   16:56:14.786.16-Jul-2020 4261.01 7031.16 80.18 2.00  19.40 2855.56
   16:56:14.986.16-Jul-2020 4261.01 7029.77 80.18 2.00  19.60 2855.56
   16:56:15.186.16-Jul-2020 4261.01 7038.90 80.17 2.00  19.80 2855.56
   16:56:15.386.16-Jul-2020 4261.01 7033.15 80.17 2.00  20.00 2855.56
   16:56:15.586.16-Jul-2020 4261.01 7033.15 80.17 2.00  20.20 2855.56
   16:56:15.786.16-Jul-2020 4261.01 7034.24 80.17 2.00  20.40 2855.56
   16:56:15.986.16-Jul-2020 4261.01 7031.34 80.17 2.00  20.60 2855.56
   16:56:16.186.16-Jul-2020 4261.01 7040.39 80.17 2.00  20.80 2855.56
   16:56:16.387.16-Jul-2020 4261.01 7034.61 80.17 2.00  21.00 2855.56
   16:56:16.587.16-Jul-2020 4261.01 7034.61 80.17 2.00  21.20 2855.56
   16:56:16.787.16-Jul-2020 4261.01 7036.53 80.17 2.00  21.40 2855.56
   16:56:16.987.16-Jul-2020 4261.01 7033.88 80.17 2.00  21.60 2855.56
   16:56:17.187.16-Jul-2020 4261.01 7048.47 80.17 2.00  21.80 2855.56
   16:56:17.387.16-Jul-2020 4261.01 7031.12 80.17 2.00  22.00 2855.56
   16:56:17.587.16-Jul-2020 4261.01 7031.12 80.17 2.00  22.20 2855.56
   16:56:17.787.16-Jul-2020 4261.01 7037.36 80.17 2.00  22.40 2855.56
   16:56:17.987.16-Jul-2020 4261.01 7038.45 80.17 2.00  22.60 2855.56
   16:56:18.187.16-Jul-2020 4261.01 7051.46 80.17 2.00  22.80 2855.56
