~Version Information
 VERS.                  2.0:   CWLS log ASCII Standard -VERSION 2.0
 WRAP.                   NO:   One line per depth step
~Well Information Block
#MNEM.UNIT     VALUE/NAME     DESCRIPTION
#---------     -----------    ---------------------------
 STRT.S             16:06:05 16-Jul-20: START TIME 16:06:05 16-Jul-20
 STOP.S             16:12:59 16-Jul-20: STOP TIME  16:12:59 16-Jul-20
 STEP.S                   0.00: STEP TIME
 NULL.                 -999.25: NULL VALUE
 MDS .        Operator Entered:  MAG DATA SOURCE
 UNIT.                     N/A:  LOGGING EQUIPMENT ID
 DCON.         Sperry Drilling:  DIRECTNL CONTR
 DOE .                     N/A:  DOE NUMBER
 RIG .               EastAzeri:  RIG NAME
 JOBN.        AZ-XX-0906363297:  JOB TICKET NUMB
 MWDS.                    Baku:  MWD SHOP
 SRVC.     Turan Drilling & Engineering:  CONTRACTOR
 PROV.                    Baku:  PROVINCE
 STAT.                    Baku:  STATE NAME
 REGN.                   EESSA:  REGION
 BASE.              Azerbaijan:  LOGGING EQUIPMENT BASE LOCATION
 WTYP.                Deviated:  WELL TYPE
 UWI .                     N/A:  UNIQUE WELL IDENTIFIER
 API .                     N/A:  API NUMBER
 COMP.     BP Exploration (Caspian Sea) ltd.:  COMPANY
 WELL.                    D07z:  WELL NAME
 CTRY.              Azerbaijan:  COUNTRY NAME
 SON .        AZ-XX-0906363297:  JOB NUMBER
 FLD .                     ACG:  FIELD NAME
 PDAT.          Mean Sea Level:  PERMANENT DATUM
 FTOP.          Formation Tops:  FORM TOPS DESC
 ILTD.               Lithology:  INTERP LTH DESC
 SVYD.                  Survey:  SURVEY DESC
 DMOD.             Drill Model:  DRILL MOD DESC
 HPTY.       Minimum Curvature:  HOLE POS TYPE
 NREF.                    Grid:  NORTH REFERENCE
 SPUD.               28-Jun-20:  SPUD DATE
 DATE.      18.27.12 28-Jun-20:  END TIME
 STIM.      18.27.12 28-Jun-20:  START TIME
 DMF .             Drill Floor:  DRILL MEAS FROM
 DFST.                        :  DIST FSL TEXT
 DFWT.                        :  DIST FWL TEXT
 CNTY.                        :  COUNTY
 LOC .                        :  LOCATION
 LMF .             Drill Floor:  LOG MEASURED FROM
 VSNS.m                  -7.75:  VERT SEC N/S
 VSEW.m                  -9.19:  VERT SEC E/W
 MMDE.m                   0.00:  MAGUTM CALC DEP
 AGAP.m                  43.60:  AIR GAP
 DEP .m                4058.99:  DEPTH
 APD .m                  43.60:  DEPTH ABOVE PD
 WDMS.m                 151.80:  WD ELEV
 EGL .m                   0.00:  GROUND ELEVATION
 EPD .m                   0.00:  ELEVATION
 AZTC.deg                 6.19:  AZM TOTAL CORR
 GRDC.deg                 0.27:  GRID CORRECTION
 MDEC.deg                 6.46:  MAGNETIC DECL
 MDIP.deg                59.47:  MAGNETIC DIP
 MFLD.nT              50279.00:  MAGNETIC FIELD
 GVFD.g                   1.00:  GRAVITY FIELD
 VSDR.deg               249.96:  VERT SEC DIRECT
 TDD .m                   0.00:  TOTAL DEPTH (DRILLER)
 SDEP.m                   0.00:  START DEPTH
 DFSL.m                   0.00:  DISTANCE FSL
 DFWL.m                   0.00:  DISTANCE FWL
 UTMY.m             4431880.20:  UTM Y
 UTMX.m              538763.98:  UTM X
 WHEW.m                  -9.19:  WELL HEAD E/W
 WHNS.m                  -7.75:  WELL HEAD N/S
 LONG.deg                51.45:  LONGITUDE
 LATI.deg                40.02:  LATITUDE
 TVDS.m                  43.60:  TVDSS CORRECTN
 EKB .m                  43.60:  KB ELEVATION
 EDF .m                  43.60:  DF ELEVATION
 TDL .m                 248.00:  TOTAL DEPTH (LOGGER)
 MAGU.                 1849075:  MAGUTM CHECKSUM
 VSC .                       0:  VS TO CLOSURE
~Parameter Information Block
#MNEM.UNIT       Value        Description
#---------     -----------    ---------------------------
 AV  .mps                 6.34:  Ann Velocity 
 AVMX.mps                 7.00:  Max Ann Veloc 
 AZIF.deg               260.29:  Azm, Final 
 BHAT.        Rotary Steerable:  BHA Type 
 BROT.°/30m               1.20:  Build Rotating 
 BS  .in                  8.50:  Bit Size 
 BSZ .in                  8.50:  Bit Size 
 BTPL.psig              620.00:  Bit Press Loss 
 CABU.                     Yes:  Customer Abuse 
 COMM.                     l&q:  Run Comments 1 
 TCS .hr                 56.22:  Time Ciculation Ended 
 CV  .mps                 3.05:  Crit Velocity 
 CVMX.mps                 3.20:  Max Crit Veloc 
 DD1 .            Musa Ahmadov:  Direct Drillr 1 
 DDSV.                 iCruise:  DD Service 
 DEFF.%                  98.00:  % Det Eff 
 DLRX.°/30m               2.78:  Dogleg Rot Max 
 DLSO.°/30m               0.00:  Dogleg Oriented 
 DLSX.°/30m               0.00:  Dogleg Str Max 
 DRET.      05.20.48 16-Jul-20:  Drill End Time 
 DRST.      10.20.48 13-Jul-20:  Drill Start Tim 
 DTIM.hr                 14.25:  Time Drilling 
 EDEP.m                4326.01:  End Depth 
 ENG1.      Artemiy Matviyanov:  Engineer 1 
 ENG2.           Amrah Tahirov:  Engineer 2 
 ETIM.      22.30.00 18-Jul-20:  End Time 
 FLOI.gpm               550.00:  Flow In 
 FLON.gpm               450.00:  Flow In Min 
 FLOS.cptm                0.00:  Fluid Loss 
 FLOX.gpm               600.00:  Flow In Max 
 HFLO.                      No:  High Flow 
 HPRE.                      No:  High Pressure 
 HTEM.                      No:  High Temp 
 HYDO.m                   1.80:  Hydro Offset 
 IFIN.deg                65.41:  Inc, Final 
 IMAX.deg                65.14:  Inc Max 
 IMIN.deg                58.89:  Inc Min 
 IMND.m                4104.92:  Inc Min Depth 
 IMXD.m                4303.89:  Inc Max Depth 
 JARR.                      No:  Jarring 
 LETM.      10.20.48 17-Jul-20:  Log End Time 
 LOST.hr                     0:  Lost Rig Time 
 LSTM.      10.20.48 13-Jul-20:  Log Start Time 
 MDCL.ppm             37000.00:  Mud Chlorides 
 MDES.     Inversion Oil/Synthetic:  Mud Desc 
 DFD .sg                  1.52:  Mud Density 
 MDMN.sg                  1.52:  Dens Mud Min 
 MDMX.sg                  1.52:  Dens Mud Max 
 MOIL.                   52.70:  Run Mud Oil % 
 MOWR.                   68:32:  Run Mud OWR 
 MSND.                     0.2:  Run Mud Sand % 
 MSOL.                    21.6:  Run Mud Solids% 
 DFV .spqt               79.00:  Mud Viscosity 
 MWOD.in                  6.75:  MWD Tool OD 
 MWSI.                      No:  Serv Intrp, MWD 
 OTIM.hr                114.04:  Time Operating 
 PCON.          Wear / Scratch:  Pad Condition 
 PMAX.psia            11782.92:  Press Op, Max 
 PV  .cP                 49.00:  Mud PV 
 RUN .                     600:  Run Number 
 ROPA.m/hr               20.00:  ROP Avg 
 ROPN.m/hr               15.00:  ROP Min 
 ROPX.m/hr               22.00:  ROP Max 
 RPMA.rpm               120.00:  RPM Surface Avg 
 RPMN.rpm                90.00:  RPM Surface Min 
 RPMX.rpm               140.00:  RPM Surface Max 
 RRUN.                     600:  Rig Run Number 
 SAZI.deg               260.29:  Azm, Start 
 SDEP.m                4078.01:  Start Depth 
 SIDD.                      No:  Serv Intrp, DD 
 SINC.deg                58.89:  Inc, Start 
 SPPA.psig             4560.00:  SPP Avg 
 SPPN.psig             3600.00:  SPP Min 
 SPPX.psig             4800.00:  SPP Max 
 STIM.      10.20.48 13-Jul-20:  Start Time 
 SVCS.                 DD, MWD:  Services 
 SVER.                    9.20:  Sperry Version 
 TDAT.m                4378.01:  Tot Depth Attmp 
 TDDF.                      No:  Trip for DD 
 TDLG.m                 248.00:  Tot Depth Loggd 
 TFF .                      No:  Trip for Fail 
 TQAA.f-kp               18.00:  Torque Abs Avg 
 TQAN.f-kp               15.00:  Torque Abs Min 
 TQAX.f-kp               20.00:  Torque Abs Max 
 TRRT.°/30m               0.70:  Turn Rotating 
 MRT .                    HCIM:  Maximum Recorded Temperature 
 TTMX.degC               86.00:  Max Tool Temp 
 WBMN.klb                 3.00:  WOB Min 
 WOBA.klb                 5.00:  WOB Avg 
 WOBX.klb                 9.00:  WOB Max 
 YP  .lhf2               32.00:  Yield Point 
~Curve Information Block
#MNEM.UNIT                 API CODE     Curve Description
#---------               -----------    ---------------------------
 TIME.HHMMSS            00 000 000 000:  GT Time & Date
 GTDEPTH.m              00 000 000 000:  GT Depth
 GTPQH.psia             00 000 000 000:  GT HR Quartz Pressure
 GTTQ.degC              00 000 000 000:  GT Quartz Temperature
 GTTN.NONE              00 000 000 000:  GT Test Number
 GTET.sec               00 000 000 000:  GT Elapsed Test Time
 GTTVD.m                00 000 000 000:  GT True Vertical Depth
#Other Information
#
#WARRANTY: Halliburton will use its best efforts to furnish customers with 
#accurate information and interpretations that are part of, and incident to, the services 
#provided.  However, Halliburton cannot and does not warrant the accuracy 
#or correctness of such information and interpretations.  Under no circumstances should any 
#such information or interpretation be relied upon as the sole basis for any drilling, 
#completion, production, or financial decision or any procedure involving any risk to the 
#safety of any drilling venture, drilling rig or its crew or any other third party.  The 
#Customer has full responsibility for all drilling, completion and production operation.  
#Halliburton makes no representations or warranties, either expressed or 
#implied, including, but not limited to, the implied warranties of merchantability or fitness 
#for a particular purpose, with respect to the services rendered.  In no event will 
#Halliburton be liable for failure to obtain any particular results or for 
#any damages, including, but not limited to, indirect, special or consequential damages, 
#resulting from the use of any information or interpretation provided by Halliburton.
#
~A           TIME           GTDEPTH  GTPQH  GTTQ  GTTN  GTET   GTTVD  
# ...
   16:09:09.805.16-Jul-2020 4280.51 4342.14 80.11 1.00 184.04 2863.78
   16:09:10.005.16-Jul-2020 4280.51 4342.14 80.11 1.00 184.24 2863.78
   16:09:10.205.16-Jul-2020 4280.51 4342.08 80.11 1.00 184.44 2863.78
   16:09:10.405.16-Jul-2020 4280.51 4342.10 80.11 1.00 184.64 2863.78
   16:09:10.605.16-Jul-2020 4280.51 4342.08 80.11 1.00 184.84 2863.78
   16:09:10.805.16-Jul-2020 4280.51 4342.11 80.11 1.00 185.04 2863.78
   16:09:11.005.16-Jul-2020 4280.51 4342.11 80.11 1.00 185.24 2863.78
   16:09:11.205.16-Jul-2020 4280.51 4342.33 80.11 1.00 185.44 2863.78
   16:09:11.405.16-Jul-2020 4280.51 4342.11 80.11 1.00 185.64 2863.78
   16:09:11.605.16-Jul-2020 4280.51 4342.01 80.11 1.00 185.84 2863.78
   16:09:11.805.16-Jul-2020 4280.51 4342.27 80.11 1.00 186.04 2863.78
   16:09:12.005.16-Jul-2020 4280.51 4342.05 80.11 1.00 186.24 2863.78
   16:09:12.205.16-Jul-2020 4280.51 4342.09 80.11 1.00 186.44 2863.78
   16:09:12.405.16-Jul-2020 4280.51 4342.17 80.11 1.00 186.64 2863.78
   16:09:12.605.16-Jul-2020 4280.51 4342.11 80.11 1.00 186.84 2863.78
   16:09:12.805.16-Jul-2020 4280.51 4342.14 80.11 1.00 187.04 2863.78
   16:09:13.005.16-Jul-2020 4280.51 4342.14 80.11 1.00 187.24 2863.78
   16:09:13.205.16-Jul-2020 4280.51 4342.13 80.11 1.00 187.44 2863.78
   16:09:13.405.16-Jul-2020 4280.51 4342.16 80.11 1.00 187.64 2863.78
   16:09:13.605.16-Jul-2020 4280.51 4342.15 80.11 1.00 187.84 2863.78
   16:09:13.805.16-Jul-2020 4280.51 4342.16 80.11 1.00 188.04 2863.78
   16:09:14.005.16-Jul-2020 4280.51 4342.16 80.11 1.00 188.24 2863.78
   16:09:14.206.16-Jul-2020 4280.51 4342.16 80.11 1.00 188.44 2863.78
   16:09:14.406.16-Jul-2020 4280.51 4342.40 80.11 1.00 188.64 2863.78
   16:09:14.606.16-Jul-2020 4280.51 4342.07 80.11 1.00 188.84 2863.78
   16:09:14.806.16-Jul-2020 4280.51 4342.12 80.11 1.00 189.04 2863.78
   16:09:15.006.16-Jul-2020 4280.51 4342.12 80.11 1.00 189.24 2863.78
   16:09:15.206.16-Jul-2020 4280.51 4342.09 80.11 1.00 189.44 2863.78
   16:09:15.406.16-Jul-2020 4280.51 4342.18 80.11 1.00 189.64 2863.78
   16:09:15.606.16-Jul-2020 4280.51 4342.19 80.11 1.00 189.84 2863.78
   16:09:15.806.16-Jul-2020 4280.51 4342.35 80.11 1.00 190.04 2863.78
   16:09:16.006.16-Jul-2020 4280.51 4342.04 80.11 1.00 190.24 2863.78
   16:09:16.206.16-Jul-2020 4280.51 4342.25 80.11 1.00 190.44 2863.78
   16:09:16.406.16-Jul-2020 4280.51 4342.20 80.11 1.00 190.64 2863.78
   16:09:16.606.16-Jul-2020 4280.51 4342.11 80.11 1.00 190.84 2863.78
   16:09:16.806.16-Jul-2020 4280.51 4342.21 80.11 1.00 191.04 2863.78
   16:09:17.006.16-Jul-2020 4280.51 4342.21 80.11 1.00 191.24 2863.78
   16:09:17.206.16-Jul-2020 4280.51 4342.12 80.11 1.00 191.44 2863.78
   16:09:17.406.16-Jul-2020 4280.51 4342.21 80.11 1.00 191.64 2863.78
   16:09:17.606.16-Jul-2020 4280.51 4342.20 80.11 1.00 191.84 2863.78
   16:09:17.806.16-Jul-2020 4280.51 4342.16 80.11 1.00 192.04 2863.78
   16:09:18.006.16-Jul-2020 4280.51 4342.16 80.11 1.00 192.24 2863.78
   16:09:18.206.16-Jul-2020 4280.51 4342.15 80.11 1.00 192.44 2863.78
   16:09:18.406.16-Jul-2020 4280.51 4342.24 80.11 1.00 192.64 2863.78
   16:09:18.606.16-Jul-2020 4280.51 4342.24 80.11 1.00 192.84 2863.78
   16:09:18.806.16-Jul-2020 4280.51 4342.20 80.11 1.00 193.04 2863.78
   16:09:19.007.16-Jul-2020 4280.51 4342.19 80.11 1.00 193.24 2863.78
   16:09:19.207.16-Jul-2020 4280.51 4342.18 80.11 1.00 193.44 2863.78
   16:09:19.407.16-Jul-2020 4280.51 4342.25 80.11 1.00 193.64 2863.78
   16:09:19.607.16-Jul-2020 4280.51 4342.24 80.11 1.00 193.84 2863.78
   16:09:19.807.16-Jul-2020 4280.51 4342.22 80.11 1.00 194.04 2863.78
   16:09:20.007.16-Jul-2020 4280.51 4342.20 80.11 1.00 194.24 2863.78
   16:09:20.207.16-Jul-2020 4280.51 4342.21 80.11 1.00 194.44 2863.78
   16:09:20.407.16-Jul-2020 4280.51 4342.24 80.11 1.00 194.64 2863.78
   16:09:20.607.16-Jul-2020 4280.51 4342.36 80.11 1.00 194.84 2863.78
   16:09:20.807.16-Jul-2020 4280.51 4342.21 80.11 1.00 195.04 2863.78
   16:09:21.007.16-Jul-2020 4280.51 4342.21 80.11 1.00 195.24 2863.78
   16:09:21.207.16-Jul-2020 4280.51 4342.28 80.11 1.00 195.44 2863.78
   16:09:21.407.16-Jul-2020 4280.51 4342.19 80.11 1.00 195.64 2863.78
   16:09:21.607.16-Jul-2020 4280.51 4342.19 80.11 1.00 195.84 2863.78
   16:09:21.807.16-Jul-2020 4280.51 4342.28 80.11 1.00 196.04 2863.78
   16:09:22.007.16-Jul-2020 4280.51 4342.27 80.11 1.00 196.24 2863.78
   16:09:22.207.16-Jul-2020 4280.51 4342.26 80.11 1.00 196.44 2863.78
   16:09:22.407.16-Jul-2020 4280.51 4342.22 80.11 1.00 196.64 2863.78
   16:09:22.607.16-Jul-2020 4280.51 4342.25 80.11 1.00 196.84 2863.78
   16:09:22.807.16-Jul-2020 4280.51 4342.32 80.11 1.00 197.04 2863.78
   16:09:23.007.16-Jul-2020 4280.51 4342.22 80.11 1.00 197.24 2863.78
   16:09:23.207.16-Jul-2020 4280.51 4342.24 80.11 1.00 197.44 2863.78
   16:09:23.407.16-Jul-2020 4280.51 4342.28 80.11 1.00 197.64 2863.78
   16:09:23.607.16-Jul-2020 4280.51 4342.23 80.11 1.00 197.84 2863.78
   16:09:23.808.16-Jul-2020 4280.51 4342.46 80.11 1.00 198.04 2863.78
   16:09:24.008.16-Jul-2020 4280.51 4342.21 80.11 1.00 198.24 2863.78
   16:09:24.208.16-Jul-2020 4280.51 4342.28 80.11 1.00 198.44 2863.78
   16:09:24.408.16-Jul-2020 4280.51 4342.34 80.11 1.00 198.64 2863.78
   16:09:24.608.16-Jul-2020 4280.51 4342.17 80.11 1.00 198.84 2863.78
   16:09:24.808.16-Jul-2020 4280.51 4342.24 80.11 1.00 199.04 2863.78
   16:09:25.008.16-Jul-2020 4280.51 4342.24 80.11 1.00 199.24 2863.78
   16:09:25.208.16-Jul-2020 4280.51 4342.25 80.11 1.00 199.44 2863.78
   16:09:25.408.16-Jul-2020 4280.51 4342.24 80.11 1.00 199.64 2863.78
   16:09:25.608.16-Jul-2020 4280.51 4342.33 80.11 1.00 199.84 2863.78
   16:09:25.808.16-Jul-2020 4280.51 4342.27 80.11 1.00 200.04 2863.78
   16:09:26.008.16-Jul-2020 4280.51 4342.27 80.11 1.00 200.24 2863.78
   16:09:26.208.16-Jul-2020 4280.51 4342.15 80.11 1.00 200.44 2863.78
   16:09:26.408.16-Jul-2020 4280.51 4342.67 80.11 1.00 200.64 2863.78
   16:09:26.608.16-Jul-2020 4280.51 4342.23 80.11 1.00 200.84 2863.78
   16:09:26.808.16-Jul-2020 4280.51 4342.35 80.11 1.00 201.04 2863.78
   16:09:27.008.16-Jul-2020 4280.51 4342.28 80.11 1.00 201.24 2863.78
   16:09:27.208.16-Jul-2020 4280.51 4342.11 80.11 1.00 201.44 2863.78
   16:09:27.408.16-Jul-2020 4280.51 4342.62 80.11 1.00 201.64 2863.78
   16:09:27.608.16-Jul-2020 4280.51 4342.24 80.11 1.00 201.84 2863.78
   16:09:27.808.16-Jul-2020 4280.51 4342.36 80.11 1.00 202.04 2863.78
   16:09:28.008.16-Jul-2020 4280.51 4342.30 80.11 1.00 202.24 2863.78
   16:09:28.208.16-Jul-2020 4280.51 4342.29 80.11 1.00 202.44 2863.78
   16:09:28.408.16-Jul-2020 4280.51 4342.27 80.11 1.00 202.64 2863.78
   16:09:28.609.16-Jul-2020 4280.51 4342.29 80.11 1.00 202.84 2863.78
   16:09:28.809.16-Jul-2020 4280.51 4342.36 80.11 1.00 203.04 2863.78
   16:09:29.009.16-Jul-2020 4280.51 4342.36 80.11 1.00 203.24 2863.78
   16:09:29.209.16-Jul-2020 4280.51 4342.30 80.11 1.00 203.44 2863.78
   16:09:29.409.16-Jul-2020 4280.51 4342.35 80.11 1.00 203.64 2863.78
   16:09:29.609.16-Jul-2020 4280.51 4342.31 80.11 1.00 203.84 2863.78
   16:09:29.809.16-Jul-2020 4280.51 4342.19 80.11 1.00 204.04 2863.78
   16:09:30.009.16-Jul-2020 4280.51 4342.19 80.11 1.00 204.24 2863.78
   16:09:30.209.16-Jul-2020 4280.51 4342.27 80.10 1.00 204.44 2863.78
   16:09:30.409.16-Jul-2020 4280.51 4342.38 80.11 1.00 204.64 2863.78
   16:09:30.609.16-Jul-2020 4280.51 4342.29 80.10 1.00 204.84 2863.78
   16:09:30.809.16-Jul-2020 4280.51 4342.27 80.10 1.00 205.04 2863.78
   16:09:31.009.16-Jul-2020 4280.51 4342.28 80.10 1.00 205.24 2863.78
   16:09:31.209.16-Jul-2020 4280.51 4342.38 80.10 1.00 205.44 2863.78
   16:09:31.409.16-Jul-2020 4280.51 4342.33 80.10 1.00 205.64 2863.78
   16:09:31.609.16-Jul-2020 4280.51 4342.27 80.10 1.00 205.84 2863.78
   16:09:31.809.16-Jul-2020 4280.51 4342.34 80.10 1.00 206.04 2863.78
   16:09:32.009.16-Jul-2020 4280.51 4342.32 80.10 1.00 206.24 2863.78
   16:09:32.209.16-Jul-2020 4280.51 4342.32 80.10 1.00 206.44 2863.78
   16:09:32.409.16-Jul-2020 4280.51 4342.33 80.10 1.00 206.64 2863.78
   16:09:32.609.16-Jul-2020 4280.51 4342.30 80.10 1.00 206.84 2863.78
