~Version Information
 VERS.                  2.0:   CWLS log ASCII Standard -VERSION 2.0
 WRAP.                   NO:   One line per depth step
~Well Information Block
#MNEM.UNIT     VALUE/NAME     DESCRIPTION
#---------     -----------    ---------------------------
 STRT.S             22:12:50 16-Jul-20: START TIME 22:12:50 16-Jul-20
 STOP.S             22:19:40 16-Jul-20: STOP TIME  22:19:40 16-Jul-20
 STEP.S                   0.00: STEP TIME
 NULL.                 -999.25: NULL VALUE
 MDS .        Operator Entered:  MAG DATA SOURCE
 UNIT.                     N/A:  LOGGING EQUIPMENT ID
 DCON.         Sperry Drilling:  DIRECTNL CONTR
 DOE .                     N/A:  DOE NUMBER
 RIG .               EastAzeri:  RIG NAME
 JOBN.        AZ-XX-0906363297:  JOB TICKET NUMB
 MWDS.                    Baku:  MWD SHOP
 SRVC.     Turan Drilling & Engineering:  CONTRACTOR
 PROV.                    Baku:  PROVINCE
 STAT.                    Baku:  STATE NAME
 REGN.                   EESSA:  REGION
 BASE.              Azerbaijan:  LOGGING EQUIPMENT BASE LOCATION
 WTYP.                Deviated:  WELL TYPE
 UWI .                     N/A:  UNIQUE WELL IDENTIFIER
 API .                     N/A:  API NUMBER
 COMP.     BP Exploration (Caspian Sea) ltd.:  COMPANY
 WELL.                    D07z:  WELL NAME
 CTRY.              Azerbaijan:  COUNTRY NAME
 SON .        AZ-XX-0906363297:  JOB NUMBER
 FLD .                     ACG:  FIELD NAME
 PDAT.          Mean Sea Level:  PERMANENT DATUM
 FTOP.          Formation Tops:  FORM TOPS DESC
 ILTD.               Lithology:  INTERP LTH DESC
 SVYD.                  Survey:  SURVEY DESC
 DMOD.             Drill Model:  DRILL MOD DESC
 HPTY.       Minimum Curvature:  HOLE POS TYPE
 NREF.                    Grid:  NORTH REFERENCE
 SPUD.               28-Jun-20:  SPUD DATE
 DATE.      18.27.12 28-Jun-20:  END TIME
 STIM.      18.27.12 28-Jun-20:  START TIME
 DMF .             Drill Floor:  DRILL MEAS FROM
 DFST.                        :  DIST FSL TEXT
 DFWT.                        :  DIST FWL TEXT
 CNTY.                        :  COUNTY
 LOC .                        :  LOCATION
 LMF .             Drill Floor:  LOG MEASURED FROM
 VSNS.m                  -7.75:  VERT SEC N/S
 VSEW.m                  -9.19:  VERT SEC E/W
 MMDE.m                   0.00:  MAGUTM CALC DEP
 AGAP.m                  43.60:  AIR GAP
 DEP .m                4058.99:  DEPTH
 APD .m                  43.60:  DEPTH ABOVE PD
 WDMS.m                 151.80:  WD ELEV
 EGL .m                   0.00:  GROUND ELEVATION
 EPD .m                   0.00:  ELEVATION
 AZTC.deg                 6.19:  AZM TOTAL CORR
 GRDC.deg                 0.27:  GRID CORRECTION
 MDEC.deg                 6.46:  MAGNETIC DECL
 MDIP.deg                59.47:  MAGNETIC DIP
 MFLD.nT              50279.00:  MAGNETIC FIELD
 GVFD.g                   1.00:  GRAVITY FIELD
 VSDR.deg               249.96:  VERT SEC DIRECT
 TDD .m                   0.00:  TOTAL DEPTH (DRILLER)
 SDEP.m                   0.00:  START DEPTH
 DFSL.m                   0.00:  DISTANCE FSL
 DFWL.m                   0.00:  DISTANCE FWL
 UTMY.m             4431880.20:  UTM Y
 UTMX.m              538763.98:  UTM X
 WHEW.m                  -9.19:  WELL HEAD E/W
 WHNS.m                  -7.75:  WELL HEAD N/S
 LONG.deg                51.45:  LONGITUDE
 LATI.deg                40.02:  LATITUDE
 TVDS.m                  43.60:  TVDSS CORRECTN
 EKB .m                  43.60:  KB ELEVATION
 EDF .m                  43.60:  DF ELEVATION
 TDL .m                 248.00:  TOTAL DEPTH (LOGGER)
 MAGU.                 1849075:  MAGUTM CHECKSUM
 VSC .                       0:  VS TO CLOSURE
~Parameter Information Block
#MNEM.UNIT       Value        Description
#---------     -----------    ---------------------------
 AV  .mps                 6.34:  Ann Velocity 
 AVMX.mps                 7.00:  Max Ann Veloc 
 AZIF.deg               260.29:  Azm, Final 
 BHAT.        Rotary Steerable:  BHA Type 
 BROT.°/30m               1.20:  Build Rotating 
 BS  .in                  8.50:  Bit Size 
 BSZ .in                  8.50:  Bit Size 
 BTPL.psig              620.00:  Bit Press Loss 
 CABU.                     Yes:  Customer Abuse 
 TCS .hr                 56.22:  Time Ciculation Ended 
 CV  .mps                 3.05:  Crit Velocity 
 CVMX.mps                 3.20:  Max Crit Veloc 
 DD1 .            Musa Ahmadov:  Direct Drillr 1 
 DDSV.                 iCruise:  DD Service 
 DEFF.%                  98.00:  % Det Eff 
 DLRX.°/30m               2.78:  Dogleg Rot Max 
 DLSO.°/30m               0.00:  Dogleg Oriented 
 DLSX.°/30m               0.00:  Dogleg Str Max 
 DRET.      05.20.48 16-Jul-20:  Drill End Time 
 DRST.      10.20.48 13-Jul-20:  Drill Start Tim 
 DTIM.hr                 14.25:  Time Drilling 
 EDEP.m                4326.01:  End Depth 
 ENG1.      Artemiy Matviyanov:  Engineer 1 
 ENG2.           Amrah Tahirov:  Engineer 2 
 ETIM.      22.30.00 18-Jul-20:  End Time 
 FLOI.gpm               550.00:  Flow In 
 FLON.gpm               450.00:  Flow In Min 
 FLOS.cptm                0.00:  Fluid Loss 
 FLOX.gpm               600.00:  Flow In Max 
 HFLO.                      No:  High Flow 
 HPRE.                      No:  High Pressure 
 HTEM.                      No:  High Temp 
 HYDO.m                   1.80:  Hydro Offset 
 IFIN.deg                65.41:  Inc, Final 
 IMAX.deg                65.14:  Inc Max 
 IMIN.deg                58.89:  Inc Min 
 IMND.m                4104.92:  Inc Min Depth 
 IMXD.m                4303.89:  Inc Max Depth 
 JARR.                      No:  Jarring 
 LETM.      10.20.48 17-Jul-20:  Log End Time 
 LOST.hr                     0:  Lost Rig Time 
 LSTM.      10.20.48 13-Jul-20:  Log Start Time 
 MDCL.ppm             37000.00:  Mud Chlorides 
 MDES.     Inversion Oil/Synthetic:  Mud Desc 
 DFD .sg                  1.52:  Mud Density 
 MDMN.sg                  1.52:  Dens Mud Min 
 MDMX.sg                  1.52:  Dens Mud Max 
 MOIL.                   52.70:  Run Mud Oil % 
 MOWR.                   68:32:  Run Mud OWR 
 MSND.                     0.2:  Run Mud Sand % 
 MSOL.                    21.6:  Run Mud Solids% 
 DFV .spqt               79.00:  Mud Viscosity 
 MWOD.in                  6.75:  MWD Tool OD 
 MWSI.                      No:  Serv Intrp, MWD 
 OTIM.hr                114.04:  Time Operating 
 PCON.          Wear / Scratch:  Pad Condition 
 PMAX.psia            11782.92:  Press Op, Max 
 PV  .cP                 49.00:  Mud PV 
 RUN .                     600:  Run Number 
 ROPA.m/hr               20.00:  ROP Avg 
 ROPN.m/hr               15.00:  ROP Min 
 ROPX.m/hr               22.00:  ROP Max 
 RPMA.rpm               120.00:  RPM Surface Avg 
 RPMN.rpm                90.00:  RPM Surface Min 
 RPMX.rpm               140.00:  RPM Surface Max 
 RRUN.                     600:  Rig Run Number 
 SAZI.deg               260.29:  Azm, Start 
 SDEP.m                4078.01:  Start Depth 
 SIDD.                      No:  Serv Intrp, DD 
 SINC.deg                58.89:  Inc, Start 
 SPPA.psig             4560.00:  SPP Avg 
 SPPN.psig             3600.00:  SPP Min 
 SPPX.psig             4800.00:  SPP Max 
 STIM.      10.20.48 13-Jul-20:  Start Time 
 SVCS.                 DD, MWD:  Services 
 SVER.                    9.20:  Sperry Version 
 TDAT.m                4378.01:  Tot Depth Attmp 
 TDDF.                      No:  Trip for DD 
 TDLG.m                 248.00:  Tot Depth Loggd 
 TFF .                      No:  Trip for Fail 
 TQAA.f-kp               18.00:  Torque Abs Avg 
 TQAN.f-kp               15.00:  Torque Abs Min 
 TQAX.f-kp               20.00:  Torque Abs Max 
 TRRT.°/30m               0.70:  Turn Rotating 
 MRT .                    HCIM:  Maximum Recorded Temperature 
 TTMX.degC               86.00:  Max Tool Temp 
 WBMN.klb                 3.00:  WOB Min 
 WOBA.klb                 5.00:  WOB Avg 
 WOBX.klb                 9.00:  WOB Max 
 YP  .lhf2               32.00:  Yield Point 
~Curve Information Block
#MNEM.UNIT                 API CODE     Curve Description
#---------               -----------    ---------------------------
 TIME.HHMMSS            00 000 000 000:  GT Time & Date
 GTDEPTH.m              00 000 000 000:  GT Depth
 GTPQH.psia             00 000 000 000:  GT HR Quartz Pressure
 GTTQ.degC              00 000 000 000:  GT Quartz Temperature
 GTTN.NONE              00 000 000 000:  GT Test Number
 GTET.sec               00 000 000 000:  GT Elapsed Test Time
 GTTVD.m                00 000 000 000:  GT True Vertical Depth
#Other Information
#
#WARRANTY: Halliburton will use its best efforts to furnish customers with 
#accurate information and interpretations that are part of, and incident to, the services 
#provided.  However, Halliburton cannot and does not warrant the accuracy 
#or correctness of such information and interpretations.  Under no circumstances should any 
#such information or interpretation be relied upon as the sole basis for any drilling, 
#completion, production, or financial decision or any procedure involving any risk to the 
#safety of any drilling venture, drilling rig or its crew or any other third party.  The 
#Customer has full responsibility for all drilling, completion and production operation.  
#Halliburton makes no representations or warranties, either expressed or 
#implied, including, but not limited to, the implied warranties of merchantability or fitness 
#for a particular purpose, with respect to the services rendered.  In no event will 
#Halliburton be liable for failure to obtain any particular results or for 
#any damages, including, but not limited to, indirect, special or consequential damages, 
#resulting from the use of any information or interpretation provided by Halliburton.
#
~A           TIME           GTDEPTH  GTPQH  GTTQ  GTTN  GTET   GTTVD  
# ...
   22:14:45.338.16-Jul-2020 4093.01 4653.00 76.38 8.00 115.04 2778.38
   22:14:45.538.16-Jul-2020 4093.01 4653.00 76.38 8.00 115.24 2778.38
   22:14:45.738.16-Jul-2020 4093.01 4653.00 76.38 8.00 115.44 2778.38
   22:14:45.938.16-Jul-2020 4093.01 4653.03 76.38 8.00 115.64 2778.38
   22:14:46.139.16-Jul-2020 4093.01 4653.02 76.38 8.00 115.84 2778.38
   22:14:46.339.16-Jul-2020 4093.01 4653.03 76.38 8.00 116.04 2778.38
   22:14:46.539.16-Jul-2020 4093.01 4653.03 76.38 8.00 116.24 2778.38
   22:14:46.739.16-Jul-2020 4093.01 4653.02 76.38 8.00 116.44 2778.38
   22:14:46.939.16-Jul-2020 4093.01 4653.04 76.38 8.00 116.64 2778.38
   22:14:47.139.16-Jul-2020 4093.01 4653.03 76.38 8.00 116.84 2778.38
   22:14:47.339.16-Jul-2020 4093.01 4653.04 76.38 8.00 117.04 2778.38
   22:14:47.539.16-Jul-2020 4093.01 4653.05 76.38 8.00 117.24 2778.38
   22:14:47.739.16-Jul-2020 4093.01 4653.04 76.38 8.00 117.44 2778.38
   22:14:47.939.16-Jul-2020 4093.01 4653.05 76.38 8.00 117.64 2778.38
   22:14:48.139.16-Jul-2020 4093.01 4653.09 76.38 8.00 117.84 2778.38
   22:14:48.339.16-Jul-2020 4093.01 4652.99 76.38 8.00 118.04 2778.38
   22:14:48.539.16-Jul-2020 4093.01 4652.99 76.38 8.00 118.24 2778.38
   22:14:48.740.16-Jul-2020 4093.01 4653.03 76.38 8.00 118.44 2778.38
   22:14:48.940.16-Jul-2020 4093.01 4653.02 76.38 8.00 118.64 2778.38
   22:14:49.140.16-Jul-2020 4093.01 4653.06 76.38 8.00 118.84 2778.38
   22:14:49.340.16-Jul-2020 4093.01 4652.97 76.38 8.00 119.04 2778.38
   22:14:49.540.16-Jul-2020 4093.01 4652.97 76.38 8.00 119.24 2778.38
   22:14:49.740.16-Jul-2020 4093.01 4653.08 76.38 8.00 119.45 2778.38
   22:14:49.940.16-Jul-2020 4093.01 4652.95 76.38 8.00 119.65 2778.38
   22:14:50.140.16-Jul-2020 4093.01 4652.99 76.38 8.00 119.85 2778.38
   22:14:50.340.16-Jul-2020 4093.01 4653.01 76.38 8.00 120.05 2778.38
   22:14:50.540.16-Jul-2020 4093.01 4653.01 76.38 8.00 120.25 2778.38
   22:14:50.740.16-Jul-2020 4093.01 4653.01 76.38 8.00 120.45 2778.38
   22:14:50.940.16-Jul-2020 4093.01 4653.09 76.38 8.00 120.65 2778.38
   22:14:51.140.16-Jul-2020 4093.01 4652.95 76.38 8.00 120.85 2778.38
   22:14:51.341.16-Jul-2020 4093.01 4652.98 76.38 8.00 121.05 2778.38
   22:14:51.541.16-Jul-2020 4093.01 4652.98 76.38 8.00 121.25 2778.38
   22:14:51.741.16-Jul-2020 4093.01 4652.99 76.38 8.00 121.45 2778.38
   22:14:51.941.16-Jul-2020 4093.01 4653.01 76.38 8.00 121.65 2778.38
   22:14:52.141.16-Jul-2020 4093.01 4653.01 76.38 8.00 121.85 2778.38
   22:14:52.341.16-Jul-2020 4093.01 4653.00 76.38 8.00 122.05 2778.38
   22:14:52.541.16-Jul-2020 4093.01 4653.00 76.38 8.00 122.25 2778.38
   22:14:52.741.16-Jul-2020 4093.01 4653.01 76.38 8.00 122.45 2778.38
   22:14:52.941.16-Jul-2020 4093.01 4653.02 76.38 8.00 122.65 2778.38
   22:14:53.141.16-Jul-2020 4093.01 4653.02 76.38 8.00 122.85 2778.38
   22:14:53.341.16-Jul-2020 4093.01 4653.02 76.38 8.00 123.05 2778.38
   22:14:53.541.16-Jul-2020 4093.01 4653.02 76.38 8.00 123.25 2778.38
   22:14:53.741.16-Jul-2020 4093.01 4653.05 76.38 8.00 123.45 2778.38
   22:14:53.941.16-Jul-2020 4093.01 4652.98 76.38 8.00 123.65 2778.38
   22:14:54.142.16-Jul-2020 4093.01 4653.00 76.38 8.00 123.85 2778.38
   22:14:54.342.16-Jul-2020 4093.01 4653.01 76.38 8.00 124.05 2778.38
   22:14:54.542.16-Jul-2020 4093.01 4653.00 76.38 8.00 124.25 2778.38
   22:14:54.742.16-Jul-2020 4093.01 4653.02 76.38 8.00 124.45 2778.38
   22:14:54.942.16-Jul-2020 4093.01 4653.01 76.38 8.00 124.65 2778.38
   22:14:55.142.16-Jul-2020 4093.01 4653.02 76.38 8.00 124.85 2778.38
   22:14:55.342.16-Jul-2020 4093.01 4653.02 76.38 8.00 125.05 2778.38
   22:14:55.542.16-Jul-2020 4093.01 4653.02 76.38 8.00 125.25 2778.38
   22:14:55.742.16-Jul-2020 4093.01 4653.02 76.38 8.00 125.45 2778.38
   22:14:55.942.16-Jul-2020 4093.01 4653.03 76.38 8.00 125.65 2778.38
   22:14:56.142.16-Jul-2020 4093.01 4653.02 76.38 8.00 125.85 2778.38
   22:14:56.342.16-Jul-2020 4093.01 4653.02 76.38 8.00 126.05 2778.38
   22:14:56.542.16-Jul-2020 4093.01 4653.02 76.38 8.00 126.25 2778.38
   22:14:56.743.16-Jul-2020 4093.01 4653.04 76.38 8.00 126.45 2778.38
   22:14:56.943.16-Jul-2020 4093.01 4653.05 76.38 8.00 126.65 2778.38
   22:14:57.143.16-Jul-2020 4093.01 4652.98 76.38 8.00 126.85 2778.38
   22:14:57.343.16-Jul-2020 4093.01 4653.01 76.38 8.00 127.05 2778.38
   22:14:57.543.16-Jul-2020 4093.01 4653.00 76.38 8.00 127.25 2778.38
   22:14:57.743.16-Jul-2020 4093.01 4653.07 76.38 8.00 127.45 2778.38
   22:14:57.943.16-Jul-2020 4093.01 4652.97 76.38 8.00 127.65 2778.38
   22:14:58.143.16-Jul-2020 4093.01 4652.99 76.38 8.00 127.85 2778.38
   22:14:58.343.16-Jul-2020 4093.01 4652.97 76.38 8.00 128.05 2778.38
   22:14:58.543.16-Jul-2020 4093.01 4652.97 76.38 8.00 128.25 2778.38
   22:14:58.743.16-Jul-2020 4093.01 4652.97 76.38 8.00 128.45 2778.38
   22:14:58.943.16-Jul-2020 4093.01 4652.98 76.38 8.00 128.65 2778.38
   22:14:59.143.16-Jul-2020 4093.01 4653.00 76.38 8.00 128.85 2778.38
   22:14:59.344.16-Jul-2020 4093.01 4652.99 76.38 8.00 129.05 2778.38
   22:14:59.544.16-Jul-2020 4093.01 4652.97 76.38 8.00 129.25 2778.38
   22:14:59.744.16-Jul-2020 4093.01 4653.08 76.38 8.00 129.45 2778.38
   22:14:59.944.16-Jul-2020 4093.01 4652.97 76.38 8.00 129.65 2778.38
   22:15:00.144.16-Jul-2020 4093.01 4652.98 76.38 8.00 129.85 2778.38
   22:15:00.344.16-Jul-2020 4093.01 4652.99 76.38 8.00 130.05 2778.38
   22:15:00.544.16-Jul-2020 4093.01 4652.99 76.38 8.00 130.25 2778.38
   22:15:00.744.16-Jul-2020 4093.01 4653.00 76.38 8.00 130.45 2778.38
   22:15:00.944.16-Jul-2020 4093.01 4652.99 76.38 8.00 130.65 2778.38
   22:15:01.144.16-Jul-2020 4093.01 4653.01 76.38 8.00 130.85 2778.38
   22:15:01.344.16-Jul-2020 4093.01 4653.00 76.38 8.00 131.05 2778.38
   22:15:01.544.16-Jul-2020 4093.01 4653.00 76.38 8.00 131.25 2778.38
   22:15:01.744.16-Jul-2020 4093.01 4653.00 76.38 8.00 131.45 2778.38
   22:15:01.945.16-Jul-2020 4093.01 4653.01 76.38 8.00 131.65 2778.38
   22:15:02.145.16-Jul-2020 4093.01 4653.01 76.38 8.00 131.85 2778.38
   22:15:02.345.16-Jul-2020 4093.01 4653.06 76.38 8.00 132.05 2778.38
   22:15:02.545.16-Jul-2020 4093.01 4653.06 76.38 8.00 132.25 2778.38
   22:15:02.745.16-Jul-2020 4093.01 4652.99 76.38 8.00 132.45 2778.38
   22:15:02.945.16-Jul-2020 4093.01 4653.00 76.38 8.00 132.65 2778.38
   22:15:03.145.16-Jul-2020 4093.01 4652.99 76.38 8.00 132.85 2778.38
   22:15:03.345.16-Jul-2020 4093.01 4653.00 76.38 8.00 133.05 2778.38
   22:15:03.545.16-Jul-2020 4093.01 4653.00 76.38 8.00 133.25 2778.38
   22:15:03.745.16-Jul-2020 4093.01 4653.01 76.38 8.00 133.45 2778.38
   22:15:03.945.16-Jul-2020 4093.01 4653.00 76.38 8.00 133.65 2778.38
   22:15:04.145.16-Jul-2020 4093.01 4653.01 76.38 8.00 133.85 2778.38
   22:15:04.345.16-Jul-2020 4093.01 4653.00 76.38 8.00 134.05 2778.38
   22:15:04.545.16-Jul-2020 4093.01 4653.00 76.38 8.00 134.25 2778.38
   22:15:04.746.16-Jul-2020 4093.01 4653.02 76.38 8.00 134.45 2778.38
   22:15:04.946.16-Jul-2020 4093.01 4653.01 76.38 8.00 134.65 2778.38
   22:15:05.146.16-Jul-2020 4093.01 4653.02 76.38 8.00 134.85 2778.38
   22:15:05.346.16-Jul-2020 4093.01 4653.01 76.38 8.00 135.05 2778.38
   22:15:05.546.16-Jul-2020 4093.01 4653.08 76.38 8.00 135.25 2778.38
   22:15:05.746.16-Jul-2020 4093.01 4652.97 76.38 8.00 135.45 2778.38
   22:15:05.946.16-Jul-2020 4093.01 4652.98 76.38 8.00 135.65 2778.38
   22:15:06.146.16-Jul-2020 4093.01 4653.00 76.38 8.00 135.85 2778.38
   22:15:06.346.16-Jul-2020 4093.01 4653.00 76.38 8.00 136.05 2778.38
   22:15:06.546.16-Jul-2020 4093.01 4653.05 76.38 8.00 136.25 2778.38
   22:15:06.746.16-Jul-2020 4093.01 4652.95 76.38 8.00 136.45 2778.38
   22:15:06.946.16-Jul-2020 4093.01 4653.00 76.38 8.00 136.65 2778.38
   22:15:07.146.16-Jul-2020 4093.01 4653.08 76.38 8.00 136.85 2778.38
   22:15:07.347.16-Jul-2020 4093.01 4652.94 76.38 8.00 137.05 2778.38
   22:15:07.547.16-Jul-2020 4093.01 4652.94 76.38 8.00 137.25 2778.38
   22:15:07.747.16-Jul-2020 4093.01 4652.99 76.38 8.00 137.45 2778.38
   22:15:07.947.16-Jul-2020 4093.01 4652.97 76.38 8.00 137.65 2778.38
   22:15:08.147.16-Jul-2020 4093.01 4652.99 76.38 8.00 137.85 2778.38
