~Version Information
 VERS.                  2.0:   CWLS log ASCII Standard -VERSION 2.0
 WRAP.                   NO:   One line per depth step
~Well Information Block
#MNEM.UNIT     VALUE/NAME     DESCRIPTION
#---------     -----------    ---------------------------
 STRT.S             22:12:50 16-Jul-20: START TIME 22:12:50 16-Jul-20
 STOP.S             22:19:40 16-Jul-20: STOP TIME  22:19:40 16-Jul-20
 STEP.S                   0.00: STEP TIME
 NULL.                 -999.25: NULL VALUE
 MDS .        Operator Entered:  MAG DATA SOURCE
 UNIT.                     N/A:  LOGGING EQUIPMENT ID
 DCON.         Sperry Drilling:  DIRECTNL CONTR
 DOE .                     N/A:  DOE NUMBER
 RIG .               EastAzeri:  RIG NAME
 JOBN.        AZ-XX-0906363297:  JOB TICKET NUMB
 MWDS.                    Baku:  MWD SHOP
 SRVC.     Turan Drilling & Engineering:  CONTRACTOR
 PROV.                    Baku:  PROVINCE
 STAT.                    Baku:  STATE NAME
 REGN.                   EESSA:  REGION
 BASE.              Azerbaijan:  LOGGING EQUIPMENT BASE LOCATION
 WTYP.                Deviated:  WELL TYPE
 UWI .                     N/A:  UNIQUE WELL IDENTIFIER
 API .                     N/A:  API NUMBER
 COMP.     BP Exploration (Caspian Sea) ltd.:  COMPANY
 WELL.                    D07z:  WELL NAME
 CTRY.              Azerbaijan:  COUNTRY NAME
 SON .        AZ-XX-0906363297:  JOB NUMBER
 FLD .                     ACG:  FIELD NAME
 PDAT.          Mean Sea Level:  PERMANENT DATUM
 FTOP.          Formation Tops:  FORM TOPS DESC
 ILTD.               Lithology:  INTERP LTH DESC
 SVYD.                  Survey:  SURVEY DESC
 DMOD.             Drill Model:  DRILL MOD DESC
 HPTY.       Minimum Curvature:  HOLE POS TYPE
 NREF.                    Grid:  NORTH REFERENCE
 SPUD.               28-Jun-20:  SPUD DATE
 DATE.      18.27.12 28-Jun-20:  END TIME
 STIM.      18.27.12 28-Jun-20:  START TIME
 DMF .             Drill Floor:  DRILL MEAS FROM
 DFST.                        :  DIST FSL TEXT
 DFWT.                        :  DIST FWL TEXT
 CNTY.                        :  COUNTY
 LOC .                        :  LOCATION
 LMF .             Drill Floor:  LOG MEASURED FROM
 VSNS.m                  -7.75:  VERT SEC N/S
 VSEW.m                  -9.19:  VERT SEC E/W
 MMDE.m                   0.00:  MAGUTM CALC DEP
 AGAP.m                  43.60:  AIR GAP
 DEP .m                4058.99:  DEPTH
 APD .m                  43.60:  DEPTH ABOVE PD
 WDMS.m                 151.80:  WD ELEV
 EGL .m                   0.00:  GROUND ELEVATION
 EPD .m                   0.00:  ELEVATION
 AZTC.deg                 6.19:  AZM TOTAL CORR
 GRDC.deg                 0.27:  GRID CORRECTION
 MDEC.deg                 6.46:  MAGNETIC DECL
 MDIP.deg                59.47:  MAGNETIC DIP
 MFLD.nT              50279.00:  MAGNETIC FIELD
 GVFD.g                   1.00:  GRAVITY FIELD
 VSDR.deg               249.96:  VERT SEC DIRECT
 TDD .m                   0.00:  TOTAL DEPTH (DRILLER)
 SDEP.m                   0.00:  START DEPTH
 DFSL.m                   0.00:  DISTANCE FSL
 DFWL.m                   0.00:  DISTANCE FWL
 UTMY.m             4431880.20:  UTM Y
 UTMX.m              538763.98:  UTM X
 WHEW.m                  -9.19:  WELL HEAD E/W
 WHNS.m                  -7.75:  WELL HEAD N/S
 LONG.deg                51.45:  LONGITUDE
 LATI.deg                40.02:  LATITUDE
 TVDS.m                  43.60:  TVDSS CORRECTN
 EKB .m                  43.60:  KB ELEVATION
 EDF .m                  43.60:  DF ELEVATION
 TDL .m                 248.00:  TOTAL DEPTH (LOGGER)
 MAGU.                 1849075:  MAGUTM CHECKSUM
 VSC .                       0:  VS TO CLOSURE
~Parameter Information Block
#MNEM.UNIT       Value        Description
#---------     -----------    ---------------------------
 AV  .mps                 6.34:  Ann Velocity 
 AVMX.mps                 7.00:  Max Ann Veloc 
 AZIF.deg               260.29:  Azm, Final 
 BHAT.        Rotary Steerable:  BHA Type 
 BROT.°/30m               1.20:  Build Rotating 
 BS  .in                  8.50:  Bit Size 
 BSZ .in                  8.50:  Bit Size 
 BTPL.psig              620.00:  Bit Press Loss 
 CABU.                     Yes:  Customer Abuse 
 TCS .hr                 56.22:  Time Ciculation Ended 
 CV  .mps                 3.05:  Crit Velocity 
 CVMX.mps                 3.20:  Max Crit Veloc 
 DD1 .            Musa Ahmadov:  Direct Drillr 1 
 DDSV.                 iCruise:  DD Service 
 DEFF.%                  98.00:  % Det Eff 
 DLRX.°/30m               2.78:  Dogleg Rot Max 
 DLSO.°/30m               0.00:  Dogleg Oriented 
 DLSX.°/30m               0.00:  Dogleg Str Max 
 DRET.      05.20.48 16-Jul-20:  Drill End Time 
 DRST.      10.20.48 13-Jul-20:  Drill Start Tim 
 DTIM.hr                 14.25:  Time Drilling 
 EDEP.m                4326.01:  End Depth 
 ENG1.      Artemiy Matviyanov:  Engineer 1 
 ENG2.           Amrah Tahirov:  Engineer 2 
 ETIM.      22.30.00 18-Jul-20:  End Time 
 FLOI.gpm               550.00:  Flow In 
 FLON.gpm               450.00:  Flow In Min 
 FLOS.cptm                0.00:  Fluid Loss 
 FLOX.gpm               600.00:  Flow In Max 
 HFLO.                      No:  High Flow 
 HPRE.                      No:  High Pressure 
 HTEM.                      No:  High Temp 
 HYDO.m                   1.80:  Hydro Offset 
 IFIN.deg                65.41:  Inc, Final 
 IMAX.deg                65.14:  Inc Max 
 IMIN.deg                58.89:  Inc Min 
 IMND.m                4104.92:  Inc Min Depth 
 IMXD.m                4303.89:  Inc Max Depth 
 JARR.                      No:  Jarring 
 LETM.      10.20.48 17-Jul-20:  Log End Time 
 LOST.hr                     0:  Lost Rig Time 
 LSTM.      10.20.48 13-Jul-20:  Log Start Time 
 MDCL.ppm             37000.00:  Mud Chlorides 
 MDES.     Inversion Oil/Synthetic:  Mud Desc 
 DFD .sg                  1.52:  Mud Density 
 MDMN.sg                  1.52:  Dens Mud Min 
 MDMX.sg                  1.52:  Dens Mud Max 
 MOIL.                   52.70:  Run Mud Oil % 
 MOWR.                   68:32:  Run Mud OWR 
 MSND.                     0.2:  Run Mud Sand % 
 MSOL.                    21.6:  Run Mud Solids% 
 DFV .spqt               79.00:  Mud Viscosity 
 MWOD.in                  6.75:  MWD Tool OD 
 MWSI.                      No:  Serv Intrp, MWD 
 OTIM.hr                114.04:  Time Operating 
 PCON.          Wear / Scratch:  Pad Condition 
 PMAX.psia            11782.92:  Press Op, Max 
 PV  .cP                 49.00:  Mud PV 
 RUN .                     600:  Run Number 
 ROPA.m/hr               20.00:  ROP Avg 
 ROPN.m/hr               15.00:  ROP Min 
 ROPX.m/hr               22.00:  ROP Max 
 RPMA.rpm               120.00:  RPM Surface Avg 
 RPMN.rpm                90.00:  RPM Surface Min 
 RPMX.rpm               140.00:  RPM Surface Max 
 RRUN.                     600:  Rig Run Number 
 SAZI.deg               260.29:  Azm, Start 
 SDEP.m                4078.01:  Start Depth 
 SIDD.                      No:  Serv Intrp, DD 
 SINC.deg                58.89:  Inc, Start 
 SPPA.psig             4560.00:  SPP Avg 
 SPPN.psig             3600.00:  SPP Min 
 SPPX.psig             4800.00:  SPP Max 
 STIM.      10.20.48 13-Jul-20:  Start Time 
 SVCS.                 DD, MWD:  Services 
 SVER.                    9.20:  Sperry Version 
 TDAT.m                4378.01:  Tot Depth Attmp 
 TDDF.                      No:  Trip for DD 
 TDLG.m                 248.00:  Tot Depth Loggd 
 TFF .                      No:  Trip for Fail 
 TQAA.f-kp               18.00:  Torque Abs Avg 
 TQAN.f-kp               15.00:  Torque Abs Min 
 TQAX.f-kp               20.00:  Torque Abs Max 
 TRRT.°/30m               0.70:  Turn Rotating 
 MRT .                    HCIM:  Maximum Recorded Temperature 
 TTMX.degC               86.00:  Max Tool Temp 
 WBMN.klb                 3.00:  WOB Min 
 WOBA.klb                 5.00:  WOB Avg 
 WOBX.klb                 9.00:  WOB Max 
 YP  .lhf2               32.00:  Yield Point 
~Curve Information Block
#MNEM.UNIT                 API CODE     Curve Description
#---------               -----------    ---------------------------
 TIME.HHMMSS            00 000 000 000:  GT Time & Date
 GTDEPTH.m              00 000 000 000:  GT Depth
 GTPQH.psia             00 000 000 000:  GT HR Quartz Pressure
 GTTQ.degC              00 000 000 000:  GT Quartz Temperature
 GTTN.NONE              00 000 000 000:  GT Test Number
 GTET.sec               00 000 000 000:  GT Elapsed Test Time
 GTTVD.m                00 000 000 000:  GT True Vertical Depth
#Other Information
#
#WARRANTY: Halliburton will use its best efforts to furnish customers with 
#accurate information and interpretations that are part of, and incident to, the services 
#provided.  However, Halliburton cannot and does not warrant the accuracy 
#or correctness of such information and interpretations.  Under no circumstances should any 
#such information or interpretation be relied upon as the sole basis for any drilling, 
#completion, production, or financial decision or any procedure involving any risk to the 
#safety of any drilling venture, drilling rig or its crew or any other third party.  The 
#Customer has full responsibility for all drilling, completion and production operation.  
#Halliburton makes no representations or warranties, either expressed or 
#implied, including, but not limited to, the implied warranties of merchantability or fitness 
#for a particular purpose, with respect to the services rendered.  In no event will 
#Halliburton be liable for failure to obtain any particular results or for 
#any damages, including, but not limited to, indirect, special or consequential damages, 
#resulting from the use of any information or interpretation provided by Halliburton.
#
~A           TIME           GTDEPTH  GTPQH  GTTQ  GTTN  GTET   GTTVD  
# ...
   22:18:35.425.16-Jul-2020 4093.01 4652.92 76.40 8.00 345.13 2778.38
   22:18:35.625.16-Jul-2020 4093.01 4652.92 76.40 8.00 345.33 2778.38
   22:18:35.825.16-Jul-2020 4093.01 4652.80 76.40 8.00 345.53 2778.38
   22:18:36.025.16-Jul-2020 4093.01 4652.81 76.40 8.00 345.73 2778.38
   22:18:36.225.16-Jul-2020 4093.01 4652.81 76.40 8.00 345.93 2778.38
   22:18:36.425.16-Jul-2020 4093.01 4652.81 76.40 8.00 346.13 2778.38
   22:18:36.625.16-Jul-2020 4093.01 4652.81 76.40 8.00 346.33 2778.38
   22:18:36.826.16-Jul-2020 4093.01 4652.81 76.40 8.00 346.53 2778.38
   22:18:37.026.16-Jul-2020 4093.01 4652.82 76.40 8.00 346.73 2778.38
   22:18:37.226.16-Jul-2020 4093.01 4652.80 76.40 8.00 346.93 2778.38
   22:18:37.426.16-Jul-2020 4093.01 4652.80 76.40 8.00 347.13 2778.38
   22:18:37.626.16-Jul-2020 4093.01 4652.80 76.40 8.00 347.33 2778.38
   22:18:37.826.16-Jul-2020 4093.01 4652.80 76.40 8.00 347.53 2778.38
   22:18:38.026.16-Jul-2020 4093.01 4652.89 76.40 8.00 347.73 2778.38
   22:18:38.226.16-Jul-2020 4093.01 4652.78 76.40 8.00 347.93 2778.38
   22:18:38.426.16-Jul-2020 4093.01 4652.79 76.40 8.00 348.13 2778.38
   22:18:38.626.16-Jul-2020 4093.01 4652.79 76.40 8.00 348.33 2778.38
   22:18:38.826.16-Jul-2020 4093.01 4652.80 76.40 8.00 348.53 2778.38
   22:18:39.026.16-Jul-2020 4093.01 4652.82 76.40 8.00 348.73 2778.38
   22:18:39.226.16-Jul-2020 4093.01 4652.79 76.40 8.00 348.93 2778.38
   22:18:39.427.16-Jul-2020 4093.01 4652.81 76.40 8.00 349.13 2778.38
   22:18:39.627.16-Jul-2020 4093.01 4652.81 76.40 8.00 349.33 2778.38
   22:18:39.827.16-Jul-2020 4093.01 4652.80 76.40 8.00 349.53 2778.38
   22:18:40.027.16-Jul-2020 4093.01 4652.81 76.40 8.00 349.73 2778.38
   22:18:40.227.16-Jul-2020 4093.01 4652.81 76.40 8.00 349.93 2778.38
   22:18:40.427.16-Jul-2020 4093.01 4652.79 76.40 8.00 350.13 2778.38
   22:18:40.627.16-Jul-2020 4093.01 4652.80 76.40 8.00 350.33 2778.38
   22:18:40.827.16-Jul-2020 4093.01 4652.80 76.40 8.00 350.53 2778.38
   22:18:41.027.16-Jul-2020 4093.01 4652.78 76.40 8.00 350.73 2778.38
   22:18:41.227.16-Jul-2020 4093.01 4652.94 76.40 8.00 350.93 2778.38
   22:18:41.427.16-Jul-2020 4093.01 4652.77 76.40 8.00 351.13 2778.38
   22:18:41.627.16-Jul-2020 4093.01 4652.77 76.40 8.00 351.33 2778.38
   22:18:41.827.16-Jul-2020 4093.01 4652.80 76.40 8.00 351.53 2778.38
   22:18:42.027.16-Jul-2020 4093.01 4652.83 76.40 8.00 351.73 2778.38
   22:18:42.228.16-Jul-2020 4093.01 4652.85 76.40 8.00 351.93 2778.38
   22:18:42.428.16-Jul-2020 4093.01 4652.78 76.40 8.00 352.13 2778.38
   22:18:42.628.16-Jul-2020 4093.01 4652.78 76.40 8.00 352.33 2778.38
   22:18:42.828.16-Jul-2020 4093.01 4652.90 76.40 8.00 352.53 2778.38
   22:18:43.028.16-Jul-2020 4093.01 4652.78 76.40 8.00 352.73 2778.38
   22:18:43.228.16-Jul-2020 4093.01 4652.80 76.40 8.00 352.93 2778.38
   22:18:43.428.16-Jul-2020 4093.01 4652.81 76.40 8.00 353.13 2778.38
   22:18:43.628.16-Jul-2020 4093.01 4652.81 76.40 8.00 353.33 2778.38
   22:18:43.828.16-Jul-2020 4093.01 4652.81 76.40 8.00 353.53 2778.38
   22:18:44.028.16-Jul-2020 4093.01 4652.76 76.41 8.00 353.73 2778.38
   22:18:44.228.16-Jul-2020 4093.01 4652.88 76.40 8.00 353.93 2778.38
   22:18:44.428.16-Jul-2020 4093.01 4656.92 76.41 8.00 354.13 2778.38
   22:18:44.628.16-Jul-2020 4093.01 4656.92 76.41 8.00 354.33 2778.38
   22:18:44.829.16-Jul-2020 4093.01 6815.49 76.40 8.00 354.53 2778.38
   22:18:45.029.16-Jul-2020 4093.01 6816.10 76.41 8.00 354.73 2778.38
   22:18:45.229.16-Jul-2020 4093.01 6814.65 76.41 8.00 354.93 2778.38
   22:18:45.429.16-Jul-2020 4093.01 6814.32 76.41 8.00 355.13 2778.38
   22:18:45.629.16-Jul-2020 4093.01 6814.32 76.41 8.00 355.33 2778.38
   22:18:45.829.16-Jul-2020 4093.01 6815.53 76.41 8.00 355.53 2778.38
   22:18:46.029.16-Jul-2020 4093.01 6815.96 76.41 8.00 355.73 2778.38
   22:18:46.229.16-Jul-2020 4093.01 6815.46 76.41 8.00 355.93 2778.38
   22:18:46.429.16-Jul-2020 4093.01 6816.57 76.41 8.00 356.13 2778.38
   22:18:46.629.16-Jul-2020 4093.01 6816.57 76.41 8.00 356.33 2778.38
   22:18:46.829.16-Jul-2020 4093.01 6823.05 76.42 8.00 356.53 2778.38
   22:18:47.029.16-Jul-2020 4093.01 6817.39 76.42 8.00 356.73 2778.38
   22:18:47.229.16-Jul-2020 4093.01 6820.62 76.42 8.00 356.93 2778.38
   22:18:47.430.16-Jul-2020 4093.01 6819.99 76.42 8.00 357.13 2778.38
   22:18:47.630.16-Jul-2020 4093.01 6819.89 76.43 8.00 357.33 2778.38
   22:18:47.830.16-Jul-2020 4093.01 6820.91 76.43 8.00 357.53 2778.38
   22:18:48.030.16-Jul-2020 4093.01 6820.17 76.43 8.00 357.73 2778.38
   22:18:48.230.16-Jul-2020 4093.01 6820.79 76.43 8.00 357.93 2778.38
   22:18:48.430.16-Jul-2020 4093.01 6820.72 76.44 8.00 358.14 2778.38
   22:18:48.630.16-Jul-2020 4093.01 6820.51 76.44 8.00 358.34 2778.38
   22:18:48.830.16-Jul-2020 4093.01 6820.52 76.44 8.00 358.54 2778.38
   22:18:49.030.16-Jul-2020 4093.01 6820.60 76.44 8.00 358.74 2778.38
   22:18:49.230.16-Jul-2020 4093.01 6821.08 76.45 8.00 358.94 2778.38
   22:18:49.430.16-Jul-2020 4093.01 6819.82 76.45 8.00 359.14 2778.38
   22:18:49.630.16-Jul-2020 4093.01 6819.82 76.45 8.00 359.34 2778.38
   22:18:49.830.16-Jul-2020 4093.01 6825.96 76.45 8.00 359.54 2778.38
   22:18:50.031.16-Jul-2020 4093.01 6826.43 76.45 8.00 359.74 2778.38
   22:18:50.231.16-Jul-2020 4093.01 6819.12 76.46 8.00 359.94 2778.38
   22:18:50.431.16-Jul-2020 4093.01 6821.91 76.46 8.00 360.14 2778.38
   22:18:50.631.16-Jul-2020 4093.01 6821.91 76.46 8.00 360.34 2778.38
   22:18:50.831.16-Jul-2020 4093.01 6832.58 76.46 8.00 360.54 2778.38
   22:18:51.031.16-Jul-2020 4093.01 6819.58 76.46 8.00 360.74 2778.38
   22:18:51.231.16-Jul-2020 4093.01 6820.42 76.47 8.00 360.94 2778.38
   22:18:51.431.16-Jul-2020 4093.01 6829.82 76.47 8.00 361.14 2778.38
   22:18:51.631.16-Jul-2020 4093.01 6829.82 76.47 8.00 361.34 2778.38
   22:18:51.831.16-Jul-2020 4093.01 6822.20 76.47 8.00 361.54 2778.38
   22:18:52.031.16-Jul-2020 4093.01 6824.14 76.47 8.00 361.74 2778.38
   22:18:52.231.16-Jul-2020 4093.01 6822.79 76.47 8.00 361.94 2778.38
   22:18:52.431.16-Jul-2020 4093.01 6822.53 76.47 8.00 362.14 2778.38
   22:18:52.631.16-Jul-2020 4093.01 6822.53 76.47 8.00 362.34 2778.38
   22:18:52.832.16-Jul-2020 4093.01 6833.99 76.48 8.00 362.54 2778.38
   22:18:53.032.16-Jul-2020 4093.01 6820.48 76.48 8.00 362.74 2778.38
   22:18:53.232.16-Jul-2020 4093.01 6822.21 76.48 8.00 362.94 2778.38
   22:18:53.432.16-Jul-2020 4093.01 6825.87 76.48 8.00 363.14 2778.38
   22:18:53.632.16-Jul-2020 4093.01 6825.87 76.48 8.00 363.34 2778.38
   22:18:53.832.16-Jul-2020 4093.01 6824.76 76.48 8.00 363.54 2778.38
   22:18:54.032.16-Jul-2020 4093.01 6822.60 76.48 8.00 363.74 2778.38
   22:18:54.232.16-Jul-2020 4093.01 6823.09 76.48 8.00 363.94 2778.38
   22:18:54.432.16-Jul-2020 4093.01 6822.41 76.48 8.00 364.14 2778.38
   22:18:54.632.16-Jul-2020 4093.01 6822.41 76.48 8.00 364.34 2778.38
   22:18:54.832.16-Jul-2020 4093.01 6822.40 76.48 8.00 364.54 2778.38
   22:18:55.032.16-Jul-2020 4093.01 6821.92 76.48 8.00 364.74 2778.38
   22:18:55.232.16-Jul-2020 4093.01 6821.92 76.48 8.00 364.94 2778.38
   22:18:55.433.16-Jul-2020 4093.01 6822.04 76.48 8.00 365.14 2778.38
   22:18:55.633.16-Jul-2020 4093.01 6832.98 76.48 8.00 365.34 2778.38
   22:18:55.833.16-Jul-2020 4093.01 6820.91 76.48 8.00 365.54 2778.38
   22:18:56.033.16-Jul-2020 4093.01 6823.18 76.48 8.00 365.74 2778.38
   22:18:56.233.16-Jul-2020 4093.01 6824.11 76.48 8.00 365.94 2778.38
   22:18:56.433.16-Jul-2020 4093.01 6823.00 76.48 8.00 366.14 2778.38
   22:18:56.633.16-Jul-2020 4093.01 6823.00 76.48 8.00 366.34 2778.38
   22:18:56.833.16-Jul-2020 4093.01 6822.36 76.49 8.00 366.54 2778.38
   22:18:57.033.16-Jul-2020 4093.01 6823.47 76.49 8.00 366.74 2778.38
   22:18:57.233.16-Jul-2020 4093.01 6822.56 76.49 8.00 366.94 2778.38
   22:18:57.433.16-Jul-2020 4093.01 6823.20 76.49 8.00 367.14 2778.38
   22:18:57.633.16-Jul-2020 4093.01 6823.20 76.49 8.00 367.34 2778.38
   22:18:57.833.16-Jul-2020 4093.01 6823.60 76.49 8.00 367.54 2778.38
   22:18:58.034.16-Jul-2020 4093.01 6823.01 76.49 8.00 367.74 2778.38
   22:18:58.234.16-Jul-2020 4093.01 6822.26 76.49 8.00 367.94 2778.38
