~Version Information
 VERS.                  2.0:   CWLS log ASCII Standard -VERSION 2.0
 WRAP.                   NO:   One line per depth step
~Well Information Block
#MNEM.UNIT     VALUE/NAME     DESCRIPTION
#---------     -----------    ---------------------------
 STRT.S             18:36:16 16-Jul-20: START TIME 18:36:16 16-Jul-20
 STOP.S             18:43:12 16-Jul-20: STOP TIME  18:43:12 16-Jul-20
 STEP.S                   0.00: STEP TIME
 NULL.                 -999.25: NULL VALUE
 MDS .        Operator Entered:  MAG DATA SOURCE
 UNIT.                     N/A:  LOGGING EQUIPMENT ID
 DCON.         Sperry Drilling:  DIRECTNL CONTR
 DOE .                     N/A:  DOE NUMBER
 RIG .               EastAzeri:  RIG NAME
 JOBN.        AZ-XX-0906363297:  JOB TICKET NUMB
 MWDS.                    Baku:  MWD SHOP
 SRVC.     Turan Drilling & Engineering:  CONTRACTOR
 PROV.                    Baku:  PROVINCE
 STAT.                    Baku:  STATE NAME
 REGN.                   EESSA:  REGION
 BASE.              Azerbaijan:  LOGGING EQUIPMENT BASE LOCATION
 WTYP.                Deviated:  WELL TYPE
 UWI .                     N/A:  UNIQUE WELL IDENTIFIER
 API .                     N/A:  API NUMBER
 COMP.     BP Exploration (Caspian Sea) ltd.:  COMPANY
 WELL.                    D07z:  WELL NAME
 CTRY.              Azerbaijan:  COUNTRY NAME
 SON .        AZ-XX-0906363297:  JOB NUMBER
 FLD .                     ACG:  FIELD NAME
 PDAT.          Mean Sea Level:  PERMANENT DATUM
 FTOP.          Formation Tops:  FORM TOPS DESC
 ILTD.               Lithology:  INTERP LTH DESC
 SVYD.                  Survey:  SURVEY DESC
 DMOD.             Drill Model:  DRILL MOD DESC
 HPTY.       Minimum Curvature:  HOLE POS TYPE
 NREF.                    Grid:  NORTH REFERENCE
 SPUD.               28-Jun-20:  SPUD DATE
 DATE.      18.27.12 28-Jun-20:  END TIME
 STIM.      18.27.12 28-Jun-20:  START TIME
 DMF .             Drill Floor:  DRILL MEAS FROM
 DFST.                        :  DIST FSL TEXT
 DFWT.                        :  DIST FWL TEXT
 CNTY.                        :  COUNTY
 LOC .                        :  LOCATION
 LMF .             Drill Floor:  LOG MEASURED FROM
 VSNS.m                  -7.75:  VERT SEC N/S
 VSEW.m                  -9.19:  VERT SEC E/W
 MMDE.m                   0.00:  MAGUTM CALC DEP
 AGAP.m                  43.60:  AIR GAP
 DEP .m                4058.99:  DEPTH
 APD .m                  43.60:  DEPTH ABOVE PD
 WDMS.m                 151.80:  WD ELEV
 EGL .m                   0.00:  GROUND ELEVATION
 EPD .m                   0.00:  ELEVATION
 AZTC.deg                 6.19:  AZM TOTAL CORR
 GRDC.deg                 0.27:  GRID CORRECTION
 MDEC.deg                 6.46:  MAGNETIC DECL
 MDIP.deg                59.47:  MAGNETIC DIP
 MFLD.nT              50279.00:  MAGNETIC FIELD
 GVFD.g                   1.00:  GRAVITY FIELD
 VSDR.deg               249.96:  VERT SEC DIRECT
 TDD .m                   0.00:  TOTAL DEPTH (DRILLER)
 SDEP.m                   0.00:  START DEPTH
 DFSL.m                   0.00:  DISTANCE FSL
 DFWL.m                   0.00:  DISTANCE FWL
 UTMY.m             4431880.20:  UTM Y
 UTMX.m              538763.98:  UTM X
 WHEW.m                  -9.19:  WELL HEAD E/W
 WHNS.m                  -7.75:  WELL HEAD N/S
 LONG.deg                51.45:  LONGITUDE
 LATI.deg                40.02:  LATITUDE
 TVDS.m                  43.60:  TVDSS CORRECTN
 EKB .m                  43.60:  KB ELEVATION
 EDF .m                  43.60:  DF ELEVATION
 TDL .m                 248.00:  TOTAL DEPTH (LOGGER)
 MAGU.                 1849075:  MAGUTM CHECKSUM
 VSC .                       0:  VS TO CLOSURE
~Parameter Information Block
#MNEM.UNIT       Value        Description
#---------     -----------    ---------------------------
 AV  .mps                 6.34:  Ann Velocity 
 AVMX.mps                 7.00:  Max Ann Veloc 
 AZIF.deg               260.29:  Azm, Final 
 BHAT.        Rotary Steerable:  BHA Type 
 BROT.°/30m               1.20:  Build Rotating 
 BS  .in                  8.50:  Bit Size 
 BSZ .in                  8.50:  Bit Size 
 BTPL.psig              620.00:  Bit Press Loss 
 CABU.                     Yes:  Customer Abuse 
 COMM.                     Ì>`:  Run Comments 1 
 TCS .hr                 56.22:  Time Ciculation Ended 
 CV  .mps                 3.05:  Crit Velocity 
 CVMX.mps                 3.20:  Max Crit Veloc 
 DD1 .            Musa Ahmadov:  Direct Drillr 1 
 DDSV.                 iCruise:  DD Service 
 DEFF.%                  98.00:  % Det Eff 
 DLRX.°/30m               2.78:  Dogleg Rot Max 
 DLSO.°/30m               0.00:  Dogleg Oriented 
 DLSX.°/30m               0.00:  Dogleg Str Max 
 DRET.      05.20.48 16-Jul-20:  Drill End Time 
 DRST.      10.20.48 13-Jul-20:  Drill Start Tim 
 DTIM.hr                 14.25:  Time Drilling 
 EDEP.m                4326.01:  End Depth 
 ENG1.      Artemiy Matviyanov:  Engineer 1 
 ENG2.           Amrah Tahirov:  Engineer 2 
 ETIM.      22.30.00 18-Jul-20:  End Time 
 FLOI.gpm               550.00:  Flow In 
 FLON.gpm               450.00:  Flow In Min 
 FLOS.cptm                0.00:  Fluid Loss 
 FLOX.gpm               600.00:  Flow In Max 
 HFLO.                      No:  High Flow 
 HPRE.                      No:  High Pressure 
 HTEM.                      No:  High Temp 
 HYDO.m                   1.80:  Hydro Offset 
 IFIN.deg                65.41:  Inc, Final 
 IMAX.deg                65.14:  Inc Max 
 IMIN.deg                58.89:  Inc Min 
 IMND.m                4104.92:  Inc Min Depth 
 IMXD.m                4303.89:  Inc Max Depth 
 JARR.                      No:  Jarring 
 LETM.      10.20.48 17-Jul-20:  Log End Time 
 LOST.hr                     0:  Lost Rig Time 
 LSTM.      10.20.48 13-Jul-20:  Log Start Time 
 MDCL.ppm             37000.00:  Mud Chlorides 
 MDES.     Inversion Oil/Synthetic:  Mud Desc 
 DFD .sg                  1.52:  Mud Density 
 MDMN.sg                  1.52:  Dens Mud Min 
 MDMX.sg                  1.52:  Dens Mud Max 
 MOIL.                   52.70:  Run Mud Oil % 
 MOWR.                   68:32:  Run Mud OWR 
 MSND.                     0.2:  Run Mud Sand % 
 MSOL.                    21.6:  Run Mud Solids% 
 DFV .spqt               79.00:  Mud Viscosity 
 MWOD.in                  6.75:  MWD Tool OD 
 MWSI.                      No:  Serv Intrp, MWD 
 OTIM.hr                114.04:  Time Operating 
 PCON.          Wear / Scratch:  Pad Condition 
 PMAX.psia            11782.92:  Press Op, Max 
 PV  .cP                 49.00:  Mud PV 
 RUN .                     600:  Run Number 
 ROPA.m/hr               20.00:  ROP Avg 
 ROPN.m/hr               15.00:  ROP Min 
 ROPX.m/hr               22.00:  ROP Max 
 RPMA.rpm               120.00:  RPM Surface Avg 
 RPMN.rpm                90.00:  RPM Surface Min 
 RPMX.rpm               140.00:  RPM Surface Max 
 RRUN.                     600:  Rig Run Number 
 SAZI.deg               260.29:  Azm, Start 
 SDEP.m                4078.01:  Start Depth 
 SIDD.                      No:  Serv Intrp, DD 
 SINC.deg                58.89:  Inc, Start 
 SPPA.psig             4560.00:  SPP Avg 
 SPPN.psig             3600.00:  SPP Min 
 SPPX.psig             4800.00:  SPP Max 
 STIM.      10.20.48 13-Jul-20:  Start Time 
 SVCS.                 DD, MWD:  Services 
 SVER.                    9.20:  Sperry Version 
 TDAT.m                4378.01:  Tot Depth Attmp 
 TDDF.                      No:  Trip for DD 
 TDLG.m                 248.00:  Tot Depth Loggd 
 TFF .                      No:  Trip for Fail 
 TQAA.f-kp               18.00:  Torque Abs Avg 
 TQAN.f-kp               15.00:  Torque Abs Min 
 TQAX.f-kp               20.00:  Torque Abs Max 
 TRRT.°/30m               0.70:  Turn Rotating 
 MRT .                    HCIM:  Maximum Recorded Temperature 
 TTMX.degC               86.00:  Max Tool Temp 
 WBMN.klb                 3.00:  WOB Min 
 WOBA.klb                 5.00:  WOB Avg 
 WOBX.klb                 9.00:  WOB Max 
 YP  .lhf2               32.00:  Yield Point 
~Curve Information Block
#MNEM.UNIT                 API CODE     Curve Description
#---------               -----------    ---------------------------
 TIME.HHMMSS            00 000 000 000:  GT Time & Date
 GTDEPTH.m              00 000 000 000:  GT Depth
 GTPQH.psia             00 000 000 000:  GT HR Quartz Pressure
 GTTQ.degC              00 000 000 000:  GT Quartz Temperature
 GTTN.NONE              00 000 000 000:  GT Test Number
 GTET.sec               00 000 000 000:  GT Elapsed Test Time
 GTTVD.m                00 000 000 000:  GT True Vertical Depth
#Other Information
#
#WARRANTY: Halliburton will use its best efforts to furnish customers with 
#accurate information and interpretations that are part of, and incident to, the services 
#provided.  However, Halliburton cannot and does not warrant the accuracy 
#or correctness of such information and interpretations.  Under no circumstances should any 
#such information or interpretation be relied upon as the sole basis for any drilling, 
#completion, production, or financial decision or any procedure involving any risk to the 
#safety of any drilling venture, drilling rig or its crew or any other third party.  The 
#Customer has full responsibility for all drilling, completion and production operation.  
#Halliburton makes no representations or warranties, either expressed or 
#implied, including, but not limited to, the implied warranties of merchantability or fitness 
#for a particular purpose, with respect to the services rendered.  In no event will 
#Halliburton be liable for failure to obtain any particular results or for 
#any damages, including, but not limited to, indirect, special or consequential damages, 
#resulting from the use of any information or interpretation provided by Halliburton.
#
~A           TIME           GTDEPTH  GTPQH  GTTQ  GTTN  GTET   GTTVD  
# ...
   18:36:39.702.16-Jul-2020 4198.01 6957.49 79.41 5.00  22.99 2828.58
   18:36:39.902.16-Jul-2020 4198.01 6975.75 79.41 5.00  23.19 2828.58
   18:36:40.102.16-Jul-2020 4198.01 6948.04 79.41 5.00  23.39 2828.58
   18:36:40.302.16-Jul-2020 4198.01 6965.21 79.41 5.00  23.59 2828.58
   18:36:40.502.16-Jul-2020 4198.01 6959.66 79.41 5.00  23.79 2828.58
   18:36:40.702.16-Jul-2020 4198.01 6960.47 79.41 5.00  23.99 2828.58
   18:36:40.902.16-Jul-2020 4198.01 6960.47 79.41 5.00  24.19 2828.58
   18:36:41.102.16-Jul-2020 4198.01 6959.79 79.41 5.00  24.39 2828.58
   18:36:41.302.16-Jul-2020 4198.01 6961.58 79.41 5.00  24.59 2828.58
   18:36:41.502.16-Jul-2020 4198.01 6960.57 79.41 5.00  24.79 2828.58
   18:36:41.701.16-Jul-2020 4198.01 6961.85 79.41 5.00  24.99 2828.58
   18:36:41.901.16-Jul-2020 4198.01 6961.85 79.41 5.00  25.19 2828.58
   18:36:42.101.16-Jul-2020 4198.01 6961.55 79.41 5.00  25.39 2828.58
   18:36:42.301.16-Jul-2020 4198.01 6961.61 79.41 5.00  25.59 2828.58
   18:36:42.501.16-Jul-2020 4198.01 6961.09 79.41 5.00  25.79 2828.58
   18:36:42.701.16-Jul-2020 4198.01 6973.27 79.41 5.00  25.99 2828.58
   18:36:42.901.16-Jul-2020 4198.01 6955.63 79.41 5.00  26.19 2828.58
   18:36:43.101.16-Jul-2020 4198.01 6967.00 79.41 5.00  26.39 2828.58
   18:36:43.301.16-Jul-2020 4198.01 6963.41 79.41 5.00  26.59 2828.58
   18:36:43.501.16-Jul-2020 4198.01 6962.81 79.41 5.00  26.79 2828.58
   18:36:43.701.16-Jul-2020 4198.01 6963.69 79.41 5.00  26.99 2828.58
   18:36:43.901.16-Jul-2020 4198.01 6963.69 79.41 5.00  27.19 2828.58
   18:36:44.101.16-Jul-2020 4198.01 6964.03 79.41 5.00  27.39 2828.58
   18:36:44.300.16-Jul-2020 4198.01 6963.72 79.41 5.00  27.59 2828.58
   18:36:44.500.16-Jul-2020 4198.01 6965.19 79.41 5.00  27.79 2828.58
   18:36:44.700.16-Jul-2020 4198.01 6964.06 79.41 5.00  27.99 2828.58
   18:36:44.900.16-Jul-2020 4198.01 6964.06 79.41 5.00  28.19 2828.58
   18:36:45.100.16-Jul-2020 4198.01 6963.95 79.41 5.00  28.39 2828.58
   18:36:45.300.16-Jul-2020 4198.01 6965.22 79.41 5.00  28.59 2828.58
   18:36:45.500.16-Jul-2020 4198.01 6965.52 79.41 5.00  28.79 2828.58
   18:36:45.700.16-Jul-2020 4198.01 6965.02 79.41 5.00  28.99 2828.58
   18:36:45.900.16-Jul-2020 4198.01 6980.59 79.41 5.00  29.19 2828.58
   18:36:46.100.16-Jul-2020 4198.01 6953.48 79.41 5.00  29.39 2828.58
   18:36:46.300.16-Jul-2020 4198.01 6971.60 79.41 5.00  29.59 2828.58
   18:36:46.500.16-Jul-2020 4198.01 6964.84 79.41 5.00  29.79 2828.58
   18:36:46.700.16-Jul-2020 4198.01 6974.58 79.41 5.00  29.99 2828.58
   18:36:46.900.16-Jul-2020 4198.01 6964.09 79.41 5.00  30.19 2828.58
   18:36:47.099.16-Jul-2020 4198.01 6969.42 79.41 5.00  30.39 2828.58
   18:36:47.299.16-Jul-2020 4198.01 6964.60 79.41 5.00  30.59 2828.58
   18:36:47.499.16-Jul-2020 4198.01 6979.49 79.41 5.00  30.79 2828.58
   18:36:47.699.16-Jul-2020 4198.01 6965.02 79.41 5.00  30.99 2828.58
   18:36:47.899.16-Jul-2020 4198.01 6962.96 79.41 5.00  31.19 2828.58
   18:36:48.099.16-Jul-2020 4198.01 6962.96 79.41 5.00  31.39 2828.58
   18:36:48.299.16-Jul-2020 4198.01 6967.69 79.41 5.00  31.59 2828.58
   18:36:48.499.16-Jul-2020 4198.01 6980.13 79.41 5.00  31.79 2828.58
   18:36:48.699.16-Jul-2020 4198.01 6962.61 79.41 5.00  31.99 2828.58
   18:36:48.899.16-Jul-2020 4198.01 6962.61 79.41 5.00  32.19 2828.58
   18:36:49.099.16-Jul-2020 4198.01 6970.38 79.40 5.00  32.39 2828.58
   18:36:49.299.16-Jul-2020 4198.01 6967.67 79.40 5.00  32.59 2828.58
   18:36:49.499.16-Jul-2020 4198.01 6970.14 79.40 5.00  32.79 2828.58
   18:36:49.698.16-Jul-2020 4198.01 6968.78 79.40 5.00  32.99 2828.58
   18:36:49.898.16-Jul-2020 4198.01 6968.78 79.40 5.00  33.19 2828.58
   18:36:50.098.16-Jul-2020 4198.01 6969.08 79.40 5.00  33.39 2828.58
   18:36:50.298.16-Jul-2020 4198.01 7044.35 79.40 5.00  33.59 2828.58
   18:36:50.498.16-Jul-2020 4198.01 7139.38 79.40 5.00  33.79 2828.58
   18:36:50.698.16-Jul-2020 4198.01 7140.99 79.40 5.00  33.99 2828.58
   18:36:50.898.16-Jul-2020 4198.01 7149.54 79.40 5.00  34.19 2828.58
   18:36:51.098.16-Jul-2020 4198.01 7130.13 79.40 5.00  34.39 2828.58
   18:36:51.298.16-Jul-2020 4198.01 7107.60 79.40 5.00  34.59 2828.58
   18:36:51.498.16-Jul-2020 4198.01 7077.11 79.40 5.00  34.79 2828.58
   18:36:51.698.16-Jul-2020 4198.01 7038.23 79.40 5.00  34.99 2828.58
   18:36:51.898.16-Jul-2020 4198.01 7038.23 79.40 5.00  35.19 2828.58
   18:36:52.098.16-Jul-2020 4198.01 6969.03 79.40 5.00  35.39 2828.58
   18:36:52.297.16-Jul-2020 4198.01 6941.60 79.40 5.00  35.59 2828.58
   18:36:52.497.16-Jul-2020 4198.01 6914.17 79.40 5.00  35.79 2828.58
   18:36:52.697.16-Jul-2020 4198.01 6896.97 79.40 5.00  35.99 2828.58
   18:36:52.897.16-Jul-2020 4198.01 6896.97 79.40 5.00  36.19 2828.58
   18:36:53.097.16-Jul-2020 4198.01 6875.56 79.40 5.00  36.39 2828.58
   18:36:53.297.16-Jul-2020 4198.01 6867.93 79.40 5.00  36.59 2828.58
   18:36:53.497.16-Jul-2020 4198.01 6861.27 79.40 5.00  36.79 2828.58
   18:36:53.697.16-Jul-2020 4198.01 6855.98 79.40 5.00  36.99 2828.58
   18:36:53.897.16-Jul-2020 4198.01 6850.11 79.40 5.00  37.19 2828.58
   18:36:54.097.16-Jul-2020 4198.01 6845.18 79.40 5.00  37.39 2828.58
   18:36:54.297.16-Jul-2020 4198.01 6839.32 79.40 5.00  37.59 2828.58
   18:36:54.497.16-Jul-2020 4198.01 6832.91 79.40 5.00  37.79 2828.58
   18:36:54.697.16-Jul-2020 4198.01 6826.86 79.40 5.00  37.99 2828.58
   18:36:54.896.16-Jul-2020 4198.01 6819.97 79.40 5.00  38.19 2828.58
   18:36:55.096.16-Jul-2020 4198.01 6812.99 79.40 5.00  38.39 2828.58
   18:36:55.296.16-Jul-2020 4198.01 6813.52 79.40 5.00  38.59 2828.58
   18:36:55.496.16-Jul-2020 4198.01 6810.80 79.40 5.00  38.79 2828.58
   18:36:55.696.16-Jul-2020 4198.01 6541.84 79.40 5.00  38.99 2828.58
   18:36:55.896.16-Jul-2020 4198.01 6541.84 79.40 5.00  39.19 2828.58
   18:36:56.096.16-Jul-2020 4198.01 4746.08 79.40 5.00  39.39 2828.58
   18:36:56.296.16-Jul-2020 4198.01 4551.94 79.40 5.00  39.59 2828.58
   18:36:56.496.16-Jul-2020 4198.01 4420.63 79.40 5.00  39.79 2828.58
   18:36:56.696.16-Jul-2020 4198.01 4415.01 79.40 5.00  39.98 2828.58
   18:36:56.896.16-Jul-2020 4198.01 4415.01 79.40 5.00  40.18 2828.58
   18:36:57.096.16-Jul-2020 4198.01 4423.27 79.39 5.00  40.38 2828.58
   18:36:57.296.16-Jul-2020 4198.01 4423.75 79.39 5.00  40.58 2828.58
   18:36:57.496.16-Jul-2020 4198.01 4424.63 79.39 5.00  40.78 2828.58
   18:36:57.695.16-Jul-2020 4198.01 4427.10 79.39 5.00  40.98 2828.58
   18:36:57.895.16-Jul-2020 4198.01 4427.10 79.39 5.00  41.18 2828.58
   18:36:58.095.16-Jul-2020 4198.01 4430.36 79.38 5.00  41.38 2828.58
   18:36:58.295.16-Jul-2020 4198.01 4433.89 79.38 5.00  41.58 2828.58
   18:36:58.495.16-Jul-2020 4198.01 4441.25 79.38 5.00  41.78 2828.58
   18:36:58.695.16-Jul-2020 4198.01 4426.67 79.37 5.00  41.98 2828.58
   18:36:58.895.16-Jul-2020 4198.01 4428.58 79.37 5.00  42.18 2828.58
   18:36:59.095.16-Jul-2020 4198.01 4422.65 79.37 5.00  42.38 2828.58
   18:36:59.295.16-Jul-2020 4198.01 4431.78 79.36 5.00  42.58 2828.58
   18:36:59.495.16-Jul-2020 4198.01 4433.85 79.36 5.00  42.78 2828.58
   18:36:59.695.16-Jul-2020 4198.01 4426.56 79.36 5.00  42.98 2828.58
   18:36:59.895.16-Jul-2020 4198.01 4426.56 79.36 5.00  43.18 2828.58
   18:37:00.095.16-Jul-2020 4198.01 4440.90 79.35 5.00  43.38 2828.58
   18:37:00.294.16-Jul-2020 4198.01 4446.09 79.35 5.00  43.58 2828.58
   18:37:00.494.16-Jul-2020 4198.01 4457.83 79.35 5.00  43.78 2828.58
   18:37:00.694.16-Jul-2020 4198.01 4440.70 79.34 5.00  43.98 2828.58
   18:37:00.894.16-Jul-2020 4198.01 4440.70 79.34 5.00  44.18 2828.58
   18:37:01.094.16-Jul-2020 4198.01 4439.05 79.34 5.00  44.38 2828.58
   18:37:01.294.16-Jul-2020 4198.01 4442.08 79.34 5.00  44.58 2828.58
   18:37:01.494.16-Jul-2020 4198.01 4452.29 79.33 5.00  44.78 2828.58
   18:37:01.694.16-Jul-2020 4198.01 4456.41 79.33 5.00  44.98 2828.58
   18:37:01.894.16-Jul-2020 4198.01 4454.91 79.33 5.00  45.18 2828.58
   18:37:02.094.16-Jul-2020 4198.01 4451.16 79.33 5.00  45.38 2828.58
   18:37:02.294.16-Jul-2020 4198.01 4454.54 79.33 5.00  45.58 2828.58
   18:37:02.494.16-Jul-2020 4198.01 4453.14 79.32 5.00  45.78 2828.58
