~Version Information
 VERS.                  2.0:   CWLS log ASCII Standard -VERSION 2.0
 WRAP.                   NO:   One line per depth step
~Well Information Block
#MNEM.UNIT     VALUE/NAME     DESCRIPTION
#---------     -----------    ---------------------------
 STRT.S             18:36:16 16-Jul-20: START TIME 18:36:16 16-Jul-20
 STOP.S             18:43:12 16-Jul-20: STOP TIME  18:43:12 16-Jul-20
 STEP.S                   0.00: STEP TIME
 NULL.                 -999.25: NULL VALUE
 MDS .        Operator Entered:  MAG DATA SOURCE
 UNIT.                     N/A:  LOGGING EQUIPMENT ID
 DCON.         Sperry Drilling:  DIRECTNL CONTR
 DOE .                     N/A:  DOE NUMBER
 RIG .               EastAzeri:  RIG NAME
 JOBN.        AZ-XX-0906363297:  JOB TICKET NUMB
 MWDS.                    Baku:  MWD SHOP
 SRVC.     Turan Drilling & Engineering:  CONTRACTOR
 PROV.                    Baku:  PROVINCE
 STAT.                    Baku:  STATE NAME
 REGN.                   EESSA:  REGION
 BASE.              Azerbaijan:  LOGGING EQUIPMENT BASE LOCATION
 WTYP.                Deviated:  WELL TYPE
 UWI .                     N/A:  UNIQUE WELL IDENTIFIER
 API .                     N/A:  API NUMBER
 COMP.     BP Exploration (Caspian Sea) ltd.:  COMPANY
 WELL.                    D07z:  WELL NAME
 CTRY.              Azerbaijan:  COUNTRY NAME
 SON .        AZ-XX-0906363297:  JOB NUMBER
 FLD .                     ACG:  FIELD NAME
 PDAT.          Mean Sea Level:  PERMANENT DATUM
 FTOP.          Formation Tops:  FORM TOPS DESC
 ILTD.               Lithology:  INTERP LTH DESC
 SVYD.                  Survey:  SURVEY DESC
 DMOD.             Drill Model:  DRILL MOD DESC
 HPTY.       Minimum Curvature:  HOLE POS TYPE
 NREF.                    Grid:  NORTH REFERENCE
 SPUD.               28-Jun-20:  SPUD DATE
 DATE.      18.27.12 28-Jun-20:  END TIME
 STIM.      18.27.12 28-Jun-20:  START TIME
 DMF .             Drill Floor:  DRILL MEAS FROM
 DFST.                        :  DIST FSL TEXT
 DFWT.                        :  DIST FWL TEXT
 CNTY.                        :  COUNTY
 LOC .                        :  LOCATION
 LMF .             Drill Floor:  LOG MEASURED FROM
 VSNS.m                  -7.75:  VERT SEC N/S
 VSEW.m                  -9.19:  VERT SEC E/W
 MMDE.m                   0.00:  MAGUTM CALC DEP
 AGAP.m                  43.60:  AIR GAP
 DEP .m                4058.99:  DEPTH
 APD .m                  43.60:  DEPTH ABOVE PD
 WDMS.m                 151.80:  WD ELEV
 EGL .m                   0.00:  GROUND ELEVATION
 EPD .m                   0.00:  ELEVATION
 AZTC.deg                 6.19:  AZM TOTAL CORR
 GRDC.deg                 0.27:  GRID CORRECTION
 MDEC.deg                 6.46:  MAGNETIC DECL
 MDIP.deg                59.47:  MAGNETIC DIP
 MFLD.nT              50279.00:  MAGNETIC FIELD
 GVFD.g                   1.00:  GRAVITY FIELD
 VSDR.deg               249.96:  VERT SEC DIRECT
 TDD .m                   0.00:  TOTAL DEPTH (DRILLER)
 SDEP.m                   0.00:  START DEPTH
 DFSL.m                   0.00:  DISTANCE FSL
 DFWL.m                   0.00:  DISTANCE FWL
 UTMY.m             4431880.20:  UTM Y
 UTMX.m              538763.98:  UTM X
 WHEW.m                  -9.19:  WELL HEAD E/W
 WHNS.m                  -7.75:  WELL HEAD N/S
 LONG.deg                51.45:  LONGITUDE
 LATI.deg                40.02:  LATITUDE
 TVDS.m                  43.60:  TVDSS CORRECTN
 EKB .m                  43.60:  KB ELEVATION
 EDF .m                  43.60:  DF ELEVATION
 TDL .m                 248.00:  TOTAL DEPTH (LOGGER)
 MAGU.                 1849075:  MAGUTM CHECKSUM
 VSC .                       0:  VS TO CLOSURE
~Parameter Information Block
#MNEM.UNIT       Value        Description
#---------     -----------    ---------------------------
 AV  .mps                 6.34:  Ann Velocity 
 AVMX.mps                 7.00:  Max Ann Veloc 
 AZIF.deg               260.29:  Azm, Final 
 BHAT.        Rotary Steerable:  BHA Type 
 BROT.°/30m               1.20:  Build Rotating 
 BS  .in                  8.50:  Bit Size 
 BSZ .in                  8.50:  Bit Size 
 BTPL.psig              620.00:  Bit Press Loss 
 CABU.                     Yes:  Customer Abuse 
 COMM.                     Ì>`:  Run Comments 1 
 TCS .hr                 56.22:  Time Ciculation Ended 
 CV  .mps                 3.05:  Crit Velocity 
 CVMX.mps                 3.20:  Max Crit Veloc 
 DD1 .            Musa Ahmadov:  Direct Drillr 1 
 DDSV.                 iCruise:  DD Service 
 DEFF.%                  98.00:  % Det Eff 
 DLRX.°/30m               2.78:  Dogleg Rot Max 
 DLSO.°/30m               0.00:  Dogleg Oriented 
 DLSX.°/30m               0.00:  Dogleg Str Max 
 DRET.      05.20.48 16-Jul-20:  Drill End Time 
 DRST.      10.20.48 13-Jul-20:  Drill Start Tim 
 DTIM.hr                 14.25:  Time Drilling 
 EDEP.m                4326.01:  End Depth 
 ENG1.      Artemiy Matviyanov:  Engineer 1 
 ENG2.           Amrah Tahirov:  Engineer 2 
 ETIM.      22.30.00 18-Jul-20:  End Time 
 FLOI.gpm               550.00:  Flow In 
 FLON.gpm               450.00:  Flow In Min 
 FLOS.cptm                0.00:  Fluid Loss 
 FLOX.gpm               600.00:  Flow In Max 
 HFLO.                      No:  High Flow 
 HPRE.                      No:  High Pressure 
 HTEM.                      No:  High Temp 
 HYDO.m                   1.80:  Hydro Offset 
 IFIN.deg                65.41:  Inc, Final 
 IMAX.deg                65.14:  Inc Max 
 IMIN.deg                58.89:  Inc Min 
 IMND.m                4104.92:  Inc Min Depth 
 IMXD.m                4303.89:  Inc Max Depth 
 JARR.                      No:  Jarring 
 LETM.      10.20.48 17-Jul-20:  Log End Time 
 LOST.hr                     0:  Lost Rig Time 
 LSTM.      10.20.48 13-Jul-20:  Log Start Time 
 MDCL.ppm             37000.00:  Mud Chlorides 
 MDES.     Inversion Oil/Synthetic:  Mud Desc 
 DFD .sg                  1.52:  Mud Density 
 MDMN.sg                  1.52:  Dens Mud Min 
 MDMX.sg                  1.52:  Dens Mud Max 
 MOIL.                   52.70:  Run Mud Oil % 
 MOWR.                   68:32:  Run Mud OWR 
 MSND.                     0.2:  Run Mud Sand % 
 MSOL.                    21.6:  Run Mud Solids% 
 DFV .spqt               79.00:  Mud Viscosity 
 MWOD.in                  6.75:  MWD Tool OD 
 MWSI.                      No:  Serv Intrp, MWD 
 OTIM.hr                114.04:  Time Operating 
 PCON.          Wear / Scratch:  Pad Condition 
 PMAX.psia            11782.92:  Press Op, Max 
 PV  .cP                 49.00:  Mud PV 
 RUN .                     600:  Run Number 
 ROPA.m/hr               20.00:  ROP Avg 
 ROPN.m/hr               15.00:  ROP Min 
 ROPX.m/hr               22.00:  ROP Max 
 RPMA.rpm               120.00:  RPM Surface Avg 
 RPMN.rpm                90.00:  RPM Surface Min 
 RPMX.rpm               140.00:  RPM Surface Max 
 RRUN.                     600:  Rig Run Number 
 SAZI.deg               260.29:  Azm, Start 
 SDEP.m                4078.01:  Start Depth 
 SIDD.                      No:  Serv Intrp, DD 
 SINC.deg                58.89:  Inc, Start 
 SPPA.psig             4560.00:  SPP Avg 
 SPPN.psig             3600.00:  SPP Min 
 SPPX.psig             4800.00:  SPP Max 
 STIM.      10.20.48 13-Jul-20:  Start Time 
 SVCS.                 DD, MWD:  Services 
 SVER.                    9.20:  Sperry Version 
 TDAT.m                4378.01:  Tot Depth Attmp 
 TDDF.                      No:  Trip for DD 
 TDLG.m                 248.00:  Tot Depth Loggd 
 TFF .                      No:  Trip for Fail 
 TQAA.f-kp               18.00:  Torque Abs Avg 
 TQAN.f-kp               15.00:  Torque Abs Min 
 TQAX.f-kp               20.00:  Torque Abs Max 
 TRRT.°/30m               0.70:  Turn Rotating 
 MRT .                    HCIM:  Maximum Recorded Temperature 
 TTMX.degC               86.00:  Max Tool Temp 
 WBMN.klb                 3.00:  WOB Min 
 WOBA.klb                 5.00:  WOB Avg 
 WOBX.klb                 9.00:  WOB Max 
 YP  .lhf2               32.00:  Yield Point 
~Curve Information Block
#MNEM.UNIT                 API CODE     Curve Description
#---------               -----------    ---------------------------
 TIME.HHMMSS            00 000 000 000:  GT Time & Date
 GTDEPTH.m              00 000 000 000:  GT Depth
 GTPQH.psia             00 000 000 000:  GT HR Quartz Pressure
 GTTQ.degC              00 000 000 000:  GT Quartz Temperature
 GTTN.NONE              00 000 000 000:  GT Test Number
 GTET.sec               00 000 000 000:  GT Elapsed Test Time
 GTTVD.m                00 000 000 000:  GT True Vertical Depth
#Other Information
#
#WARRANTY: Halliburton will use its best efforts to furnish customers with 
#accurate information and interpretations that are part of, and incident to, the services 
#provided.  However, Halliburton cannot and does not warrant the accuracy 
#or correctness of such information and interpretations.  Under no circumstances should any 
#such information or interpretation be relied upon as the sole basis for any drilling, 
#completion, production, or financial decision or any procedure involving any risk to the 
#safety of any drilling venture, drilling rig or its crew or any other third party.  The 
#Customer has full responsibility for all drilling, completion and production operation.  
#Halliburton makes no representations or warranties, either expressed or 
#implied, including, but not limited to, the implied warranties of merchantability or fitness 
#for a particular purpose, with respect to the services rendered.  In no event will 
#Halliburton be liable for failure to obtain any particular results or for 
#any damages, including, but not limited to, indirect, special or consequential damages, 
#resulting from the use of any information or interpretation provided by Halliburton.
#
~A           TIME           GTDEPTH  GTPQH  GTTQ  GTTN  GTET   GTTVD  
# ...
   18:42:01.581.16-Jul-2020 4198.01 4795.78 79.29 5.00 344.87 2828.58
   18:42:01.781.16-Jul-2020 4198.01 4795.93 79.29 5.00 345.07 2828.58
   18:42:01.981.16-Jul-2020 4198.01 4796.04 79.29 5.00 345.27 2828.58
   18:42:02.181.16-Jul-2020 4198.01 4795.83 79.29 5.00 345.47 2828.58
   18:42:02.381.16-Jul-2020 4198.01 4795.81 79.29 5.00 345.67 2828.58
   18:42:02.581.16-Jul-2020 4198.01 4795.86 79.29 5.00 345.87 2828.58
   18:42:02.781.16-Jul-2020 4198.01 4795.85 79.29 5.00 346.07 2828.58
   18:42:02.981.16-Jul-2020 4198.01 4796.09 79.29 5.00 346.27 2828.58
   18:42:03.181.16-Jul-2020 4198.01 4795.76 79.29 5.00 346.47 2828.58
   18:42:03.381.16-Jul-2020 4198.01 4795.81 79.29 5.00 346.67 2828.58
   18:42:03.581.16-Jul-2020 4198.01 4795.96 79.29 5.00 346.87 2828.58
   18:42:03.781.16-Jul-2020 4198.01 4795.96 79.29 5.00 347.07 2828.58
   18:42:03.980.16-Jul-2020 4198.01 4795.91 79.29 5.00 347.27 2828.58
   18:42:04.180.16-Jul-2020 4198.01 4795.87 79.29 5.00 347.47 2828.58
   18:42:04.380.16-Jul-2020 4198.01 4795.82 79.29 5.00 347.67 2828.58
   18:42:04.580.16-Jul-2020 4198.01 4795.96 79.29 5.00 347.87 2828.58
   18:42:04.780.16-Jul-2020 4198.01 4795.96 79.29 5.00 348.07 2828.58
   18:42:04.980.16-Jul-2020 4198.01 4795.81 79.29 5.00 348.27 2828.58
   18:42:05.180.16-Jul-2020 4198.01 4795.96 79.29 5.00 348.47 2828.58
   18:42:05.380.16-Jul-2020 4198.01 4795.77 79.29 5.00 348.67 2828.58
   18:42:05.580.16-Jul-2020 4198.01 4796.04 79.29 5.00 348.87 2828.58
   18:42:05.780.16-Jul-2020 4198.01 4795.94 79.29 5.00 349.07 2828.58
   18:42:05.980.16-Jul-2020 4198.01 4795.84 79.29 5.00 349.27 2828.58
   18:42:06.180.16-Jul-2020 4198.01 4795.90 79.29 5.00 349.47 2828.58
   18:42:06.380.16-Jul-2020 4198.01 4795.87 79.29 5.00 349.67 2828.58
   18:42:06.579.16-Jul-2020 4198.01 4796.01 79.29 5.00 349.87 2828.58
   18:42:06.779.16-Jul-2020 4198.01 4795.68 79.29 5.00 350.07 2828.58
   18:42:06.979.16-Jul-2020 4198.01 4795.93 79.29 5.00 350.27 2828.58
   18:42:07.179.16-Jul-2020 4198.01 4795.81 79.29 5.00 350.47 2828.58
   18:42:07.379.16-Jul-2020 4198.01 4795.84 79.29 5.00 350.67 2828.58
   18:42:07.579.16-Jul-2020 4198.01 4795.96 79.29 5.00 350.87 2828.58
   18:42:07.779.16-Jul-2020 4198.01 4795.96 79.29 5.00 351.07 2828.58
   18:42:07.979.16-Jul-2020 4198.01 4796.00 79.29 5.00 351.27 2828.58
   18:42:08.179.16-Jul-2020 4198.01 4795.76 79.29 5.00 351.47 2828.58
   18:42:08.379.16-Jul-2020 4198.01 4795.96 79.29 5.00 351.67 2828.58
   18:42:08.579.16-Jul-2020 4198.01 4795.78 79.29 5.00 351.87 2828.58
   18:42:08.779.16-Jul-2020 4198.01 4795.78 79.29 5.00 352.07 2828.58
   18:42:08.979.16-Jul-2020 4198.01 4795.98 79.29 5.00 352.27 2828.58
   18:42:09.178.16-Jul-2020 4198.01 4795.75 79.29 5.00 352.47 2828.58
   18:42:09.378.16-Jul-2020 4198.01 4795.90 79.29 5.00 352.67 2828.58
   18:42:09.578.16-Jul-2020 4198.01 4795.76 79.29 5.00 352.87 2828.58
   18:42:09.778.16-Jul-2020 4198.01 4795.97 79.29 5.00 353.07 2828.58
   18:42:09.978.16-Jul-2020 4198.01 4796.01 79.29 5.00 353.27 2828.58
   18:42:10.178.16-Jul-2020 4198.01 4795.91 79.29 5.00 353.47 2828.58
   18:42:10.378.16-Jul-2020 4198.01 4795.83 79.29 5.00 353.67 2828.58
   18:42:10.578.16-Jul-2020 4198.01 4796.01 79.29 5.00 353.87 2828.58
   18:42:10.778.16-Jul-2020 4198.01 4796.01 79.29 5.00 354.07 2828.58
   18:42:10.978.16-Jul-2020 4198.01 4796.00 79.29 5.00 354.27 2828.58
   18:42:11.178.16-Jul-2020 4198.01 4795.88 79.29 5.00 354.47 2828.58
   18:42:11.378.16-Jul-2020 4198.01 4795.65 79.29 5.00 354.67 2828.58
   18:42:11.578.16-Jul-2020 4198.01 4796.06 79.29 5.00 354.87 2828.58
   18:42:11.778.16-Jul-2020 4198.01 4796.06 79.29 5.00 355.07 2828.58
   18:42:11.977.16-Jul-2020 4198.01 4795.96 79.29 5.00 355.27 2828.58
   18:42:12.177.16-Jul-2020 4198.01 4795.79 79.29 5.00 355.47 2828.58
   18:42:12.377.16-Jul-2020 4198.01 4795.96 79.29 5.00 355.67 2828.58
   18:42:12.577.16-Jul-2020 4198.01 4795.84 79.29 5.00 355.87 2828.58
   18:42:12.777.16-Jul-2020 4198.01 4795.84 79.29 5.00 356.07 2828.58
   18:42:12.977.16-Jul-2020 4198.01 4795.95 79.29 5.00 356.27 2828.58
   18:42:13.177.16-Jul-2020 4198.01 4795.82 79.29 5.00 356.47 2828.58
   18:42:13.377.16-Jul-2020 4198.01 4796.03 79.29 5.00 356.67 2828.58
   18:42:13.577.16-Jul-2020 4198.01 4795.83 79.29 5.00 356.87 2828.58
   18:42:13.777.16-Jul-2020 4198.01 4795.92 79.29 5.00 357.07 2828.58
   18:42:13.977.16-Jul-2020 4198.01 4795.82 79.29 5.00 357.27 2828.58
   18:42:14.177.16-Jul-2020 4198.01 4795.78 79.29 5.00 357.47 2828.58
   18:42:14.377.16-Jul-2020 4198.01 4796.01 79.29 5.00 357.67 2828.58
   18:42:14.576.16-Jul-2020 4198.01 4796.01 79.29 5.00 357.87 2828.58
   18:42:14.776.16-Jul-2020 4198.01 4795.86 79.29 5.00 358.07 2828.58
   18:42:14.976.16-Jul-2020 4198.01 4795.78 79.29 5.00 358.27 2828.58
   18:42:15.176.16-Jul-2020 4198.01 4796.04 79.29 5.00 358.47 2828.58
   18:42:15.376.16-Jul-2020 4198.01 4795.83 79.29 5.00 358.67 2828.58
   18:42:15.576.16-Jul-2020 4198.01 4795.43 79.29 5.00 358.87 2828.58
   18:42:15.776.16-Jul-2020 4198.01 4795.43 79.29 5.00 359.07 2828.58
   18:42:15.976.16-Jul-2020 4198.01 4858.37 79.29 5.00 359.27 2828.58
   18:42:16.176.16-Jul-2020 4198.01 6105.08 79.29 5.00 359.47 2828.58
   18:42:16.376.16-Jul-2020 4198.01 6981.31 79.29 5.00 359.66 2828.58
   18:42:16.576.16-Jul-2020 4198.01 6981.60 79.29 5.00 359.86 2828.58
   18:42:16.776.16-Jul-2020 4198.01 6980.61 79.29 5.00 360.06 2828.58
   18:42:16.976.16-Jul-2020 4198.01 6980.75 79.29 5.00 360.26 2828.58
   18:42:17.175.16-Jul-2020 4198.01 6981.12 79.29 5.00 360.46 2828.58
   18:42:17.375.16-Jul-2020 4198.01 6989.84 79.29 5.00 360.66 2828.58
   18:42:17.575.16-Jul-2020 4198.01 6986.14 79.29 5.00 360.86 2828.58
   18:42:17.775.16-Jul-2020 4198.01 6986.14 79.29 5.00 361.06 2828.58
   18:42:17.975.16-Jul-2020 4198.01 6987.20 79.30 5.00 361.26 2828.58
   18:42:18.175.16-Jul-2020 4198.01 6985.89 79.30 5.00 361.46 2828.58
   18:42:18.375.16-Jul-2020 4198.01 6985.27 79.30 5.00 361.66 2828.58
   18:42:18.575.16-Jul-2020 4198.01 6993.87 79.30 5.00 361.86 2828.58
   18:42:18.775.16-Jul-2020 4198.01 6985.04 79.31 5.00 362.06 2828.58
   18:42:18.975.16-Jul-2020 4198.01 6990.02 79.31 5.00 362.26 2828.58
   18:42:19.175.16-Jul-2020 4198.01 6983.75 79.31 5.00 362.46 2828.58
   18:42:19.375.16-Jul-2020 4198.01 6988.09 79.31 5.00 362.66 2828.58
   18:42:19.575.16-Jul-2020 4198.01 6994.58 79.32 5.00 362.86 2828.58
   18:42:19.775.16-Jul-2020 4198.01 6994.58 79.32 5.00 363.06 2828.58
   18:42:19.974.16-Jul-2020 4198.01 6985.33 79.32 5.00 363.26 2828.58
   18:42:20.174.16-Jul-2020 4198.01 6989.13 79.32 5.00 363.46 2828.58
   18:42:20.374.16-Jul-2020 4198.01 7005.30 79.32 5.00 363.66 2828.58
   18:42:20.574.16-Jul-2020 4198.01 6975.81 79.33 5.00 363.86 2828.58
   18:42:20.774.16-Jul-2020 4198.01 6975.81 79.33 5.00 364.06 2828.58
   18:42:20.974.16-Jul-2020 4198.01 6988.15 79.33 5.00 364.26 2828.58
   18:42:21.174.16-Jul-2020 4198.01 6989.49 79.33 5.00 364.46 2828.58
   18:42:21.374.16-Jul-2020 4198.01 6987.56 79.34 5.00 364.66 2828.58
   18:42:21.574.16-Jul-2020 4198.01 6989.35 79.34 5.00 364.86 2828.58
   18:42:21.774.16-Jul-2020 4198.01 6988.04 79.34 5.00 365.06 2828.58
   18:42:21.974.16-Jul-2020 4198.01 6987.87 79.34 5.00 365.26 2828.58
   18:42:22.174.16-Jul-2020 4198.01 6988.42 79.34 5.00 365.46 2828.58
   18:42:22.374.16-Jul-2020 4198.01 6987.80 79.35 5.00 365.66 2828.58
   18:42:22.573.16-Jul-2020 4198.01 6988.86 79.35 5.00 365.86 2828.58
   18:42:22.773.16-Jul-2020 4198.01 6986.85 79.35 5.00 366.06 2828.58
   18:42:22.973.16-Jul-2020 4198.01 6997.61 79.35 5.00 366.26 2828.58
   18:42:23.173.16-Jul-2020 4198.01 6986.25 79.35 5.00 366.46 2828.58
   18:42:23.373.16-Jul-2020 4198.01 6992.27 79.35 5.00 366.66 2828.58
   18:42:23.573.16-Jul-2020 4198.01 6986.49 79.35 5.00 366.86 2828.58
   18:42:23.773.16-Jul-2020 4198.01 6986.49 79.36 5.00 367.06 2828.58
   18:42:23.973.16-Jul-2020 4198.01 6990.11 79.36 5.00 367.26 2828.58
   18:42:24.173.16-Jul-2020 4198.01 6987.51 79.36 5.00 367.46 2828.58
   18:42:24.373.16-Jul-2020 4198.01 6989.53 79.36 5.00 367.66 2828.58
