~Version Information
 VERS.                  2.0:   CWLS log ASCII Standard -VERSION 2.0
 WRAP.                   NO:   One line per depth step
~Well Information Block
#MNEM.UNIT     VALUE/NAME     DESCRIPTION
#---------     -----------    ---------------------------
 STRT.S             22:12:50 16-Jul-20: START TIME 22:12:50 16-Jul-20
 STOP.S             22:19:40 16-Jul-20: STOP TIME  22:19:40 16-Jul-20
 STEP.S                   0.00: STEP TIME
 NULL.                 -999.25: NULL VALUE
 MDS .        Operator Entered:  MAG DATA SOURCE
 UNIT.                     N/A:  LOGGING EQUIPMENT ID
 DCON.         Sperry Drilling:  DIRECTNL CONTR
 DOE .                     N/A:  DOE NUMBER
 RIG .               EastAzeri:  RIG NAME
 JOBN.        AZ-XX-0906363297:  JOB TICKET NUMB
 MWDS.                    Baku:  MWD SHOP
 SRVC.     Turan Drilling & Engineering:  CONTRACTOR
 PROV.                    Baku:  PROVINCE
 STAT.                    Baku:  STATE NAME
 REGN.                   EESSA:  REGION
 BASE.              Azerbaijan:  LOGGING EQUIPMENT BASE LOCATION
 WTYP.                Deviated:  WELL TYPE
 UWI .                     N/A:  UNIQUE WELL IDENTIFIER
 API .                     N/A:  API NUMBER
 COMP.     BP Exploration (Caspian Sea) ltd.:  COMPANY
 WELL.                    D07z:  WELL NAME
 CTRY.              Azerbaijan:  COUNTRY NAME
 SON .        AZ-XX-0906363297:  JOB NUMBER
 FLD .                     ACG:  FIELD NAME
 PDAT.          Mean Sea Level:  PERMANENT DATUM
 FTOP.          Formation Tops:  FORM TOPS DESC
 ILTD.               Lithology:  INTERP LTH DESC
 SVYD.                  Survey:  SURVEY DESC
 DMOD.             Drill Model:  DRILL MOD DESC
 HPTY.       Minimum Curvature:  HOLE POS TYPE
 NREF.                    Grid:  NORTH REFERENCE
 SPUD.               28-Jun-20:  SPUD DATE
 DATE.      18.27.12 28-Jun-20:  END TIME
 STIM.      18.27.12 28-Jun-20:  START TIME
 DMF .             Drill Floor:  DRILL MEAS FROM
 DFST.                        :  DIST FSL TEXT
 DFWT.                        :  DIST FWL TEXT
 CNTY.                        :  COUNTY
 LOC .                        :  LOCATION
 LMF .             Drill Floor:  LOG MEASURED FROM
 VSNS.m                  -7.75:  VERT SEC N/S
 VSEW.m                  -9.19:  VERT SEC E/W
 MMDE.m                   0.00:  MAGUTM CALC DEP
 AGAP.m                  43.60:  AIR GAP
 DEP .m                4058.99:  DEPTH
 APD .m                  43.60:  DEPTH ABOVE PD
 WDMS.m                 151.80:  WD ELEV
 EGL .m                   0.00:  GROUND ELEVATION
 EPD .m                   0.00:  ELEVATION
 AZTC.deg                 6.19:  AZM TOTAL CORR
 GRDC.deg                 0.27:  GRID CORRECTION
 MDEC.deg                 6.46:  MAGNETIC DECL
 MDIP.deg                59.47:  MAGNETIC DIP
 MFLD.nT              50279.00:  MAGNETIC FIELD
 GVFD.g                   1.00:  GRAVITY FIELD
 VSDR.deg               249.96:  VERT SEC DIRECT
 TDD .m                   0.00:  TOTAL DEPTH (DRILLER)
 SDEP.m                   0.00:  START DEPTH
 DFSL.m                   0.00:  DISTANCE FSL
 DFWL.m                   0.00:  DISTANCE FWL
 UTMY.m             4431880.20:  UTM Y
 UTMX.m              538763.98:  UTM X
 WHEW.m                  -9.19:  WELL HEAD E/W
 WHNS.m                  -7.75:  WELL HEAD N/S
 LONG.deg                51.45:  LONGITUDE
 LATI.deg                40.02:  LATITUDE
 TVDS.m                  43.60:  TVDSS CORRECTN
 EKB .m                  43.60:  KB ELEVATION
 EDF .m                  43.60:  DF ELEVATION
 TDL .m                 248.00:  TOTAL DEPTH (LOGGER)
 MAGU.                 1849075:  MAGUTM CHECKSUM
 VSC .                       0:  VS TO CLOSURE
~Parameter Information Block
#MNEM.UNIT       Value        Description
#---------     -----------    ---------------------------
 AV  .mps                 6.34:  Ann Velocity 
 AVMX.mps                 7.00:  Max Ann Veloc 
 AZIF.deg               260.29:  Azm, Final 
 BHAT.        Rotary Steerable:  BHA Type 
 BROT.°/30m               1.20:  Build Rotating 
 BS  .in                  8.50:  Bit Size 
 BSZ .in                  8.50:  Bit Size 
 BTPL.psig              620.00:  Bit Press Loss 
 CABU.                     Yes:  Customer Abuse 
 TCS .hr                 56.22:  Time Ciculation Ended 
 CV  .mps                 3.05:  Crit Velocity 
 CVMX.mps                 3.20:  Max Crit Veloc 
 DD1 .            Musa Ahmadov:  Direct Drillr 1 
 DDSV.                 iCruise:  DD Service 
 DEFF.%                  98.00:  % Det Eff 
 DLRX.°/30m               2.78:  Dogleg Rot Max 
 DLSO.°/30m               0.00:  Dogleg Oriented 
 DLSX.°/30m               0.00:  Dogleg Str Max 
 DRET.      05.20.48 16-Jul-20:  Drill End Time 
 DRST.      10.20.48 13-Jul-20:  Drill Start Tim 
 DTIM.hr                 14.25:  Time Drilling 
 EDEP.m                4326.01:  End Depth 
 ENG1.      Artemiy Matviyanov:  Engineer 1 
 ENG2.           Amrah Tahirov:  Engineer 2 
 ETIM.      22.30.00 18-Jul-20:  End Time 
 FLOI.gpm               550.00:  Flow In 
 FLON.gpm               450.00:  Flow In Min 
 FLOS.cptm                0.00:  Fluid Loss 
 FLOX.gpm               600.00:  Flow In Max 
 HFLO.                      No:  High Flow 
 HPRE.                      No:  High Pressure 
 HTEM.                      No:  High Temp 
 HYDO.m                   1.80:  Hydro Offset 
 IFIN.deg                65.41:  Inc, Final 
 IMAX.deg                65.14:  Inc Max 
 IMIN.deg                58.89:  Inc Min 
 IMND.m                4104.92:  Inc Min Depth 
 IMXD.m                4303.89:  Inc Max Depth 
 JARR.                      No:  Jarring 
 LETM.      10.20.48 17-Jul-20:  Log End Time 
 LOST.hr                     0:  Lost Rig Time 
 LSTM.      10.20.48 13-Jul-20:  Log Start Time 
 MDCL.ppm             37000.00:  Mud Chlorides 
 MDES.     Inversion Oil/Synthetic:  Mud Desc 
 DFD .sg                  1.52:  Mud Density 
 MDMN.sg                  1.52:  Dens Mud Min 
 MDMX.sg                  1.52:  Dens Mud Max 
 MOIL.                   52.70:  Run Mud Oil % 
 MOWR.                   68:32:  Run Mud OWR 
 MSND.                     0.2:  Run Mud Sand % 
 MSOL.                    21.6:  Run Mud Solids% 
 DFV .spqt               79.00:  Mud Viscosity 
 MWOD.in                  6.75:  MWD Tool OD 
 MWSI.                      No:  Serv Intrp, MWD 
 OTIM.hr                114.04:  Time Operating 
 PCON.          Wear / Scratch:  Pad Condition 
 PMAX.psia            11782.92:  Press Op, Max 
 PV  .cP                 49.00:  Mud PV 
 RUN .                     600:  Run Number 
 ROPA.m/hr               20.00:  ROP Avg 
 ROPN.m/hr               15.00:  ROP Min 
 ROPX.m/hr               22.00:  ROP Max 
 RPMA.rpm               120.00:  RPM Surface Avg 
 RPMN.rpm                90.00:  RPM Surface Min 
 RPMX.rpm               140.00:  RPM Surface Max 
 RRUN.                     600:  Rig Run Number 
 SAZI.deg               260.29:  Azm, Start 
 SDEP.m                4078.01:  Start Depth 
 SIDD.                      No:  Serv Intrp, DD 
 SINC.deg                58.89:  Inc, Start 
 SPPA.psig             4560.00:  SPP Avg 
 SPPN.psig             3600.00:  SPP Min 
 SPPX.psig             4800.00:  SPP Max 
 STIM.      10.20.48 13-Jul-20:  Start Time 
 SVCS.                 DD, MWD:  Services 
 SVER.                    9.20:  Sperry Version 
 TDAT.m                4378.01:  Tot Depth Attmp 
 TDDF.                      No:  Trip for DD 
 TDLG.m                 248.00:  Tot Depth Loggd 
 TFF .                      No:  Trip for Fail 
 TQAA.f-kp               18.00:  Torque Abs Avg 
 TQAN.f-kp               15.00:  Torque Abs Min 
 TQAX.f-kp               20.00:  Torque Abs Max 
 TRRT.°/30m               0.70:  Turn Rotating 
 MRT .                    HCIM:  Maximum Recorded Temperature 
 TTMX.degC               86.00:  Max Tool Temp 
 WBMN.klb                 3.00:  WOB Min 
 WOBA.klb                 5.00:  WOB Avg 
 WOBX.klb                 9.00:  WOB Max 
 YP  .lhf2               32.00:  Yield Point 
~Curve Information Block
#MNEM.UNIT                 API CODE     Curve Description
#---------               -----------    ---------------------------
 TIME.HHMMSS            00 000 000 000:  GT Time & Date
 GTDEPTH.m              00 000 000 000:  GT Depth
 GTPQH.psia             00 000 000 000:  GT HR Quartz Pressure
 GTTQ.degC              00 000 000 000:  GT Quartz Temperature
 GTTN.NONE              00 000 000 000:  GT Test Number
 GTET.sec               00 000 000 000:  GT Elapsed Test Time
 GTTVD.m                00 000 000 000:  GT True Vertical Depth
#Other Information
#
#WARRANTY: Halliburton will use its best efforts to furnish customers with 
#accurate information and interpretations that are part of, and incident to, the services 
#provided.  However, Halliburton cannot and does not warrant the accuracy 
#or correctness of such information and interpretations.  Under no circumstances should any 
#such information or interpretation be relied upon as the sole basis for any drilling, 
#completion, production, or financial decision or any procedure involving any risk to the 
#safety of any drilling venture, drilling rig or its crew or any other third party.  The 
#Customer has full responsibility for all drilling, completion and production operation.  
#Halliburton makes no representations or warranties, either expressed or 
#implied, including, but not limited to, the implied warranties of merchantability or fitness 
#for a particular purpose, with respect to the services rendered.  In no event will 
#Halliburton be liable for failure to obtain any particular results or for 
#any damages, including, but not limited to, indirect, special or consequential damages, 
#resulting from the use of any information or interpretation provided by Halliburton.
#
~A           TIME           GTDEPTH  GTPQH  GTTQ  GTTN  GTET   GTTVD  
# ...
   22:13:36.312.16-Jul-2020 4093.01 4652.61 76.35 8.00  46.02 2778.38
   22:13:36.512.16-Jul-2020 4093.01 4652.61 76.35 8.00  46.22 2778.38
   22:13:36.712.16-Jul-2020 4093.01 4652.58 76.35 8.00  46.42 2778.38
   22:13:36.912.16-Jul-2020 4093.01 4652.61 76.35 8.00  46.62 2778.38
   22:13:37.113.16-Jul-2020 4093.01 4652.59 76.35 8.00  46.82 2778.38
   22:13:37.313.16-Jul-2020 4093.01 4652.71 76.35 8.00  47.02 2778.38
   22:13:37.513.16-Jul-2020 4093.01 4652.61 76.35 8.00  47.22 2778.38
   22:13:37.713.16-Jul-2020 4093.01 4652.66 76.35 8.00  47.42 2778.38
   22:13:37.913.16-Jul-2020 4093.01 4652.68 76.35 8.00  47.62 2778.38
   22:13:38.113.16-Jul-2020 4093.01 4652.70 76.35 8.00  47.82 2778.38
   22:13:38.313.16-Jul-2020 4093.01 4652.72 76.35 8.00  48.02 2778.38
   22:13:38.513.16-Jul-2020 4093.01 4652.72 76.35 8.00  48.22 2778.38
   22:13:38.713.16-Jul-2020 4093.01 4652.69 76.35 8.00  48.42 2778.38
   22:13:38.913.16-Jul-2020 4093.01 4652.72 76.35 8.00  48.62 2778.38
   22:13:39.113.16-Jul-2020 4093.01 4652.72 76.35 8.00  48.82 2778.38
   22:13:39.313.16-Jul-2020 4093.01 4652.73 76.35 8.00  49.02 2778.38
   22:13:39.513.16-Jul-2020 4093.01 4652.66 76.35 8.00  49.22 2778.38
   22:13:39.713.16-Jul-2020 4093.01 4652.71 76.35 8.00  49.42 2778.38
   22:13:39.914.16-Jul-2020 4093.01 4652.79 76.35 8.00  49.62 2778.38
   22:13:40.114.16-Jul-2020 4093.01 4652.64 76.35 8.00  49.82 2778.38
   22:13:40.314.16-Jul-2020 4093.01 4652.70 76.35 8.00  50.02 2778.38
   22:13:40.514.16-Jul-2020 4093.01 4652.70 76.35 8.00  50.22 2778.38
   22:13:40.714.16-Jul-2020 4093.01 4652.75 76.35 8.00  50.42 2778.38
   22:13:40.914.16-Jul-2020 4093.01 4652.75 76.35 8.00  50.62 2778.38
   22:13:41.114.16-Jul-2020 4093.01 4652.80 76.35 8.00  50.82 2778.38
   22:13:41.314.16-Jul-2020 4093.01 4652.65 76.35 8.00  51.02 2778.38
   22:13:41.514.16-Jul-2020 4093.01 4652.71 76.35 8.00  51.22 2778.38
   22:13:41.714.16-Jul-2020 4093.01 4652.75 76.35 8.00  51.42 2778.38
   22:13:41.914.16-Jul-2020 4093.01 4652.75 76.35 8.00  51.62 2778.38
   22:13:42.114.16-Jul-2020 4093.01 4652.77 76.35 8.00  51.82 2778.38
   22:13:42.314.16-Jul-2020 4093.01 4652.77 76.35 8.00  52.02 2778.38
   22:13:42.515.16-Jul-2020 4093.01 4652.77 76.35 8.00  52.22 2778.38
   22:13:42.715.16-Jul-2020 4093.01 4652.79 76.35 8.00  52.42 2778.38
   22:13:42.915.16-Jul-2020 4093.01 4652.78 76.35 8.00  52.62 2778.38
   22:13:43.115.16-Jul-2020 4093.01 4652.79 76.35 8.00  52.82 2778.38
   22:13:43.315.16-Jul-2020 4093.01 4652.79 76.35 8.00  53.02 2778.38
   22:13:43.515.16-Jul-2020 4093.01 4652.79 76.35 8.00  53.22 2778.38
   22:13:43.715.16-Jul-2020 4093.01 4652.78 76.35 8.00  53.42 2778.38
   22:13:43.915.16-Jul-2020 4093.01 4652.76 76.36 8.00  53.62 2778.38
   22:13:44.115.16-Jul-2020 4093.01 4652.74 76.36 8.00  53.82 2778.38
   22:13:44.315.16-Jul-2020 4093.01 4652.77 76.36 8.00  54.02 2778.38
   22:13:44.515.16-Jul-2020 4093.01 4652.77 76.36 8.00  54.22 2778.38
   22:13:44.715.16-Jul-2020 4093.01 4652.79 76.36 8.00  54.42 2778.38
   22:13:44.915.16-Jul-2020 4093.01 4652.81 76.36 8.00  54.62 2778.38
   22:13:45.116.16-Jul-2020 4093.01 4652.81 76.36 8.00  54.82 2778.38
   22:13:45.316.16-Jul-2020 4093.01 4652.81 76.36 8.00  55.02 2778.38
   22:13:45.516.16-Jul-2020 4093.01 4652.82 76.36 8.00  55.22 2778.38
   22:13:45.716.16-Jul-2020 4093.01 4652.82 76.36 8.00  55.42 2778.38
   22:13:45.916.16-Jul-2020 4093.01 4652.83 76.36 8.00  55.62 2778.38
   22:13:46.116.16-Jul-2020 4093.01 4652.83 76.36 8.00  55.82 2778.38
   22:13:46.316.16-Jul-2020 4093.01 4652.84 76.36 8.00  56.02 2778.38
   22:13:46.516.16-Jul-2020 4093.01 4652.84 76.36 8.00  56.22 2778.38
   22:13:46.716.16-Jul-2020 4093.01 4652.83 76.36 8.00  56.42 2778.38
   22:13:46.916.16-Jul-2020 4093.01 4652.82 76.36 8.00  56.62 2778.38
   22:13:47.116.16-Jul-2020 4093.01 4652.81 76.36 8.00  56.82 2778.38
   22:13:47.316.16-Jul-2020 4093.01 4652.76 76.36 8.00  57.02 2778.38
   22:13:47.516.16-Jul-2020 4093.01 4652.81 76.36 8.00  57.22 2778.38
   22:13:47.717.16-Jul-2020 4093.01 4652.82 76.36 8.00  57.42 2778.38
   22:13:47.917.16-Jul-2020 4093.01 4652.83 76.36 8.00  57.62 2778.38
   22:13:48.117.16-Jul-2020 4093.01 4652.76 76.36 8.00  57.82 2778.38
   22:13:48.317.16-Jul-2020 4093.01 4652.79 76.36 8.00  58.02 2778.38
   22:13:48.517.16-Jul-2020 4093.01 4652.79 76.36 8.00  58.22 2778.38
   22:13:48.717.16-Jul-2020 4093.01 4652.82 76.36 8.00  58.42 2778.38
   22:13:48.917.16-Jul-2020 4093.01 4652.78 76.36 8.00  58.62 2778.38
   22:13:49.117.16-Jul-2020 4093.01 4652.82 76.36 8.00  58.82 2778.38
   22:13:49.317.16-Jul-2020 4093.01 4652.83 76.36 8.00  59.02 2778.38
   22:13:49.517.16-Jul-2020 4093.01 4652.86 76.36 8.00  59.22 2778.38
   22:13:49.717.16-Jul-2020 4093.01 4652.86 76.36 8.00  59.42 2778.38
   22:13:49.917.16-Jul-2020 4093.01 4652.88 76.36 8.00  59.62 2778.38
   22:13:50.117.16-Jul-2020 4093.01 4652.78 76.36 8.00  59.82 2778.38
   22:13:50.317.16-Jul-2020 4093.01 4652.82 76.36 8.00  60.02 2778.38
   22:13:50.518.16-Jul-2020 4093.01 4652.86 76.36 8.00  60.22 2778.38
   22:13:50.718.16-Jul-2020 4093.01 4652.86 76.36 8.00  60.42 2778.38
   22:13:50.918.16-Jul-2020 4093.01 4652.88 76.36 8.00  60.62 2778.38
   22:13:51.118.16-Jul-2020 4093.01 4652.88 76.36 8.00  60.82 2778.38
   22:13:51.318.16-Jul-2020 4093.01 4652.90 76.36 8.00  61.02 2778.38
   22:13:51.518.16-Jul-2020 4093.01 4652.90 76.36 8.00  61.22 2778.38
   22:13:51.718.16-Jul-2020 4093.01 4652.91 76.36 8.00  61.42 2778.38
   22:13:51.918.16-Jul-2020 4093.01 4652.89 76.36 8.00  61.62 2778.38
   22:13:52.118.16-Jul-2020 4093.01 4652.91 76.36 8.00  61.82 2778.38
   22:13:52.318.16-Jul-2020 4093.01 4652.91 76.36 8.00  62.02 2778.38
   22:13:52.518.16-Jul-2020 4093.01 4652.91 76.36 8.00  62.22 2778.38
   22:13:52.718.16-Jul-2020 4093.01 4652.79 76.36 8.00  62.42 2778.38
   22:13:52.918.16-Jul-2020 4093.01 4652.84 76.36 8.00  62.62 2778.38
   22:13:53.119.16-Jul-2020 4093.01 4652.89 76.36 8.00  62.82 2778.38
   22:13:53.319.16-Jul-2020 4093.01 4652.89 76.36 8.00  63.02 2778.38
   22:13:53.519.16-Jul-2020 4093.01 4652.89 76.36 8.00  63.22 2778.38
   22:13:53.719.16-Jul-2020 4093.01 4652.91 76.37 8.00  63.42 2778.38
   22:13:53.919.16-Jul-2020 4093.01 4652.93 76.37 8.00  63.62 2778.38
   22:13:54.119.16-Jul-2020 4093.01 4652.93 76.37 8.00  63.82 2778.38
   22:13:54.319.16-Jul-2020 4093.01 4652.93 76.37 8.00  64.02 2778.38
   22:13:54.519.16-Jul-2020 4093.01 4652.94 76.37 8.00  64.22 2778.38
   22:13:54.719.16-Jul-2020 4093.01 4652.93 76.37 8.00  64.42 2778.38
   22:13:54.919.16-Jul-2020 4093.01 4652.95 76.37 8.00  64.62 2778.38
   22:13:55.119.16-Jul-2020 4093.01 4652.95 76.37 8.00  64.82 2778.38
   22:13:55.319.16-Jul-2020 4093.01 4652.94 76.37 8.00  65.02 2778.38
   22:13:55.519.16-Jul-2020 4093.01 4652.94 76.37 8.00  65.22 2778.38
   22:13:55.720.16-Jul-2020 4093.01 4653.00 76.37 8.00  65.42 2778.38
   22:13:55.920.16-Jul-2020 4093.01 4652.84 76.37 8.00  65.62 2778.38
   22:13:56.120.16-Jul-2020 4093.01 4652.87 76.37 8.00  65.82 2778.38
   22:13:56.320.16-Jul-2020 4093.01 4652.91 76.37 8.00  66.02 2778.38
   22:13:56.520.16-Jul-2020 4093.01 4652.87 76.37 8.00  66.22 2778.38
   22:13:56.720.16-Jul-2020 4093.01 4652.98 76.37 8.00  66.43 2778.38
   22:13:56.920.16-Jul-2020 4093.01 4652.86 76.37 8.00  66.63 2778.38
   22:13:57.120.16-Jul-2020 4093.01 4652.88 76.37 8.00  66.83 2778.38
   22:13:57.320.16-Jul-2020 4093.01 4653.00 76.37 8.00  67.03 2778.38
   22:13:57.520.16-Jul-2020 4093.01 4652.82 76.37 8.00  67.23 2778.38
   22:13:57.720.16-Jul-2020 4093.01 4652.89 76.37 8.00  67.43 2778.38
   22:13:57.920.16-Jul-2020 4093.01 4652.91 76.37 8.00  67.63 2778.38
   22:13:58.120.16-Jul-2020 4093.01 4652.92 76.37 8.00  67.83 2778.38
   22:13:58.321.16-Jul-2020 4093.01 4652.94 76.37 8.00  68.03 2778.38
   22:13:58.521.16-Jul-2020 4093.01 4652.94 76.37 8.00  68.23 2778.38
   22:13:58.721.16-Jul-2020 4093.01 4653.00 76.37 8.00  68.43 2778.38
   22:13:58.921.16-Jul-2020 4093.01 4652.87 76.37 8.00  68.63 2778.38
   22:13:59.121.16-Jul-2020 4093.01 4652.92 76.37 8.00  68.83 2778.38
