~Version Information
 VERS.                  2.0:   CWLS log ASCII Standard -VERSION 2.0
 WRAP.                   NO:   One line per depth step
~Well Information Block
#MNEM.UNIT     VALUE/NAME     DESCRIPTION
#---------     -----------    ---------------------------
 STRT.S             16:06:05 16-Jul-20: START TIME 16:06:05 16-Jul-20
 STOP.S             16:12:59 16-Jul-20: STOP TIME  16:12:59 16-Jul-20
 STEP.S                   0.00: STEP TIME
 NULL.                 -999.25: NULL VALUE
 MDS .        Operator Entered:  MAG DATA SOURCE
 UNIT.                     N/A:  LOGGING EQUIPMENT ID
 DCON.         Sperry Drilling:  DIRECTNL CONTR
 DOE .                     N/A:  DOE NUMBER
 RIG .               EastAzeri:  RIG NAME
 JOBN.        AZ-XX-0906363297:  JOB TICKET NUMB
 MWDS.                    Baku:  MWD SHOP
 SRVC.     Turan Drilling & Engineering:  CONTRACTOR
 PROV.                    Baku:  PROVINCE
 STAT.                    Baku:  STATE NAME
 REGN.                   EESSA:  REGION
 BASE.              Azerbaijan:  LOGGING EQUIPMENT BASE LOCATION
 WTYP.                Deviated:  WELL TYPE
 UWI .                     N/A:  UNIQUE WELL IDENTIFIER
 API .                     N/A:  API NUMBER
 COMP.     BP Exploration (Caspian Sea) ltd.:  COMPANY
 WELL.                    D07z:  WELL NAME
 CTRY.              Azerbaijan:  COUNTRY NAME
 SON .        AZ-XX-0906363297:  JOB NUMBER
 FLD .                     ACG:  FIELD NAME
 PDAT.          Mean Sea Level:  PERMANENT DATUM
 FTOP.          Formation Tops:  FORM TOPS DESC
 ILTD.               Lithology:  INTERP LTH DESC
 SVYD.                  Survey:  SURVEY DESC
 DMOD.             Drill Model:  DRILL MOD DESC
 HPTY.       Minimum Curvature:  HOLE POS TYPE
 NREF.                    Grid:  NORTH REFERENCE
 SPUD.               28-Jun-20:  SPUD DATE
 DATE.      18.27.12 28-Jun-20:  END TIME
 STIM.      18.27.12 28-Jun-20:  START TIME
 DMF .             Drill Floor:  DRILL MEAS FROM
 DFST.                        :  DIST FSL TEXT
 DFWT.                        :  DIST FWL TEXT
 CNTY.                        :  COUNTY
 LOC .                        :  LOCATION
 LMF .             Drill Floor:  LOG MEASURED FROM
 VSNS.m                  -7.75:  VERT SEC N/S
 VSEW.m                  -9.19:  VERT SEC E/W
 MMDE.m                   0.00:  MAGUTM CALC DEP
 AGAP.m                  43.60:  AIR GAP
 DEP .m                4058.99:  DEPTH
 APD .m                  43.60:  DEPTH ABOVE PD
 WDMS.m                 151.80:  WD ELEV
 EGL .m                   0.00:  GROUND ELEVATION
 EPD .m                   0.00:  ELEVATION
 AZTC.deg                 6.19:  AZM TOTAL CORR
 GRDC.deg                 0.27:  GRID CORRECTION
 MDEC.deg                 6.46:  MAGNETIC DECL
 MDIP.deg                59.47:  MAGNETIC DIP
 MFLD.nT              50279.00:  MAGNETIC FIELD
 GVFD.g                   1.00:  GRAVITY FIELD
 VSDR.deg               249.96:  VERT SEC DIRECT
 TDD .m                   0.00:  TOTAL DEPTH (DRILLER)
 SDEP.m                   0.00:  START DEPTH
 DFSL.m                   0.00:  DISTANCE FSL
 DFWL.m                   0.00:  DISTANCE FWL
 UTMY.m             4431880.20:  UTM Y
 UTMX.m              538763.98:  UTM X
 WHEW.m                  -9.19:  WELL HEAD E/W
 WHNS.m                  -7.75:  WELL HEAD N/S
 LONG.deg                51.45:  LONGITUDE
 LATI.deg                40.02:  LATITUDE
 TVDS.m                  43.60:  TVDSS CORRECTN
 EKB .m                  43.60:  KB ELEVATION
 EDF .m                  43.60:  DF ELEVATION
 TDL .m                 248.00:  TOTAL DEPTH (LOGGER)
 MAGU.                 1849075:  MAGUTM CHECKSUM
 VSC .                       0:  VS TO CLOSURE
~Parameter Information Block
#MNEM.UNIT       Value        Description
#---------     -----------    ---------------------------
 AV  .mps                 6.34:  Ann Velocity 
 AVMX.mps                 7.00:  Max Ann Veloc 
 AZIF.deg               260.29:  Azm, Final 
 BHAT.        Rotary Steerable:  BHA Type 
 BROT.°/30m               1.20:  Build Rotating 
 BS  .in                  8.50:  Bit Size 
 BSZ .in                  8.50:  Bit Size 
 BTPL.psig              620.00:  Bit Press Loss 
 CABU.                     Yes:  Customer Abuse 
 COMM.                     l&q:  Run Comments 1 
 TCS .hr                 56.22:  Time Ciculation Ended 
 CV  .mps                 3.05:  Crit Velocity 
 CVMX.mps                 3.20:  Max Crit Veloc 
 DD1 .            Musa Ahmadov:  Direct Drillr 1 
 DDSV.                 iCruise:  DD Service 
 DEFF.%                  98.00:  % Det Eff 
 DLRX.°/30m               2.78:  Dogleg Rot Max 
 DLSO.°/30m               0.00:  Dogleg Oriented 
 DLSX.°/30m               0.00:  Dogleg Str Max 
 DRET.      05.20.48 16-Jul-20:  Drill End Time 
 DRST.      10.20.48 13-Jul-20:  Drill Start Tim 
 DTIM.hr                 14.25:  Time Drilling 
 EDEP.m                4326.01:  End Depth 
 ENG1.      Artemiy Matviyanov:  Engineer 1 
 ENG2.           Amrah Tahirov:  Engineer 2 
 ETIM.      22.30.00 18-Jul-20:  End Time 
 FLOI.gpm               550.00:  Flow In 
 FLON.gpm               450.00:  Flow In Min 
 FLOS.cptm                0.00:  Fluid Loss 
 FLOX.gpm               600.00:  Flow In Max 
 HFLO.                      No:  High Flow 
 HPRE.                      No:  High Pressure 
 HTEM.                      No:  High Temp 
 HYDO.m                   1.80:  Hydro Offset 
 IFIN.deg                65.41:  Inc, Final 
 IMAX.deg                65.14:  Inc Max 
 IMIN.deg                58.89:  Inc Min 
 IMND.m                4104.92:  Inc Min Depth 
 IMXD.m                4303.89:  Inc Max Depth 
 JARR.                      No:  Jarring 
 LETM.      10.20.48 17-Jul-20:  Log End Time 
 LOST.hr                     0:  Lost Rig Time 
 LSTM.      10.20.48 13-Jul-20:  Log Start Time 
 MDCL.ppm             37000.00:  Mud Chlorides 
 MDES.     Inversion Oil/Synthetic:  Mud Desc 
 DFD .sg                  1.52:  Mud Density 
 MDMN.sg                  1.52:  Dens Mud Min 
 MDMX.sg                  1.52:  Dens Mud Max 
 MOIL.                   52.70:  Run Mud Oil % 
 MOWR.                   68:32:  Run Mud OWR 
 MSND.                     0.2:  Run Mud Sand % 
 MSOL.                    21.6:  Run Mud Solids% 
 DFV .spqt               79.00:  Mud Viscosity 
 MWOD.in                  6.75:  MWD Tool OD 
 MWSI.                      No:  Serv Intrp, MWD 
 OTIM.hr                114.04:  Time Operating 
 PCON.          Wear / Scratch:  Pad Condition 
 PMAX.psia            11782.92:  Press Op, Max 
 PV  .cP                 49.00:  Mud PV 
 RUN .                     600:  Run Number 
 ROPA.m/hr               20.00:  ROP Avg 
 ROPN.m/hr               15.00:  ROP Min 
 ROPX.m/hr               22.00:  ROP Max 
 RPMA.rpm               120.00:  RPM Surface Avg 
 RPMN.rpm                90.00:  RPM Surface Min 
 RPMX.rpm               140.00:  RPM Surface Max 
 RRUN.                     600:  Rig Run Number 
 SAZI.deg               260.29:  Azm, Start 
 SDEP.m                4078.01:  Start Depth 
 SIDD.                      No:  Serv Intrp, DD 
 SINC.deg                58.89:  Inc, Start 
 SPPA.psig             4560.00:  SPP Avg 
 SPPN.psig             3600.00:  SPP Min 
 SPPX.psig             4800.00:  SPP Max 
 STIM.      10.20.48 13-Jul-20:  Start Time 
 SVCS.                 DD, MWD:  Services 
 SVER.                    9.20:  Sperry Version 
 TDAT.m                4378.01:  Tot Depth Attmp 
 TDDF.                      No:  Trip for DD 
 TDLG.m                 248.00:  Tot Depth Loggd 
 TFF .                      No:  Trip for Fail 
 TQAA.f-kp               18.00:  Torque Abs Avg 
 TQAN.f-kp               15.00:  Torque Abs Min 
 TQAX.f-kp               20.00:  Torque Abs Max 
 TRRT.°/30m               0.70:  Turn Rotating 
 MRT .                    HCIM:  Maximum Recorded Temperature 
 TTMX.degC               86.00:  Max Tool Temp 
 WBMN.klb                 3.00:  WOB Min 
 WOBA.klb                 5.00:  WOB Avg 
 WOBX.klb                 9.00:  WOB Max 
 YP  .lhf2               32.00:  Yield Point 
~Curve Information Block
#MNEM.UNIT                 API CODE     Curve Description
#---------               -----------    ---------------------------
 TIME.HHMMSS            00 000 000 000:  GT Time & Date
 GTDEPTH.m              00 000 000 000:  GT Depth
 GTPQH.psia             00 000 000 000:  GT HR Quartz Pressure
 GTTQ.degC              00 000 000 000:  GT Quartz Temperature
 GTTN.NONE              00 000 000 000:  GT Test Number
 GTET.sec               00 000 000 000:  GT Elapsed Test Time
 GTTVD.m                00 000 000 000:  GT True Vertical Depth
#Other Information
#
#WARRANTY: Halliburton will use its best efforts to furnish customers with 
#accurate information and interpretations that are part of, and incident to, the services 
#provided.  However, Halliburton cannot and does not warrant the accuracy 
#or correctness of such information and interpretations.  Under no circumstances should any 
#such information or interpretation be relied upon as the sole basis for any drilling, 
#completion, production, or financial decision or any procedure involving any risk to the 
#safety of any drilling venture, drilling rig or its crew or any other third party.  The 
#Customer has full responsibility for all drilling, completion and production operation.  
#Halliburton makes no representations or warranties, either expressed or 
#implied, including, but not limited to, the implied warranties of merchantability or fitness 
#for a particular purpose, with respect to the services rendered.  In no event will 
#Halliburton be liable for failure to obtain any particular results or for 
#any damages, including, but not limited to, indirect, special or consequential damages, 
#resulting from the use of any information or interpretation provided by Halliburton.
#
~A           TIME           GTDEPTH  GTPQH  GTTQ  GTTN  GTET   GTTVD  
# ...
   16:10:18.819.16-Jul-2020 4280.51 4100.15 80.09 1.00 253.05 2863.78
   16:10:19.019.16-Jul-2020 4280.51 4085.85 80.09 1.00 253.25 2863.78
   16:10:19.219.16-Jul-2020 4280.51 4074.53 80.09 1.00 253.45 2863.78
   16:10:19.419.16-Jul-2020 4280.51 4066.92 80.09 1.00 253.65 2863.78
   16:10:19.619.16-Jul-2020 4280.51 4057.97 80.09 1.00 253.85 2863.78
   16:10:19.819.16-Jul-2020 4280.51 4056.30 80.09 1.00 254.05 2863.78
   16:10:20.019.16-Jul-2020 4280.51 4040.79 80.09 1.00 254.25 2863.78
   16:10:20.219.16-Jul-2020 4280.51 4033.64 80.09 1.00 254.45 2863.78
   16:10:20.419.16-Jul-2020 4280.51 4022.12 80.09 1.00 254.65 2863.78
   16:10:20.619.16-Jul-2020 4280.51 4008.19 80.09 1.00 254.85 2863.78
   16:10:20.819.16-Jul-2020 4280.51 4006.58 80.09 1.00 255.05 2863.78
   16:10:21.019.16-Jul-2020 4280.51 4006.58 80.09 1.00 255.25 2863.78
   16:10:21.219.16-Jul-2020 4280.51 3996.22 80.09 1.00 255.45 2863.78
   16:10:21.419.16-Jul-2020 4280.51 4012.97 80.09 1.00 255.65 2863.78
   16:10:21.619.16-Jul-2020 4280.51 4007.77 80.09 1.00 255.85 2863.78
   16:10:21.819.16-Jul-2020 4280.51 3986.51 80.09 1.00 256.05 2863.78
   16:10:22.019.16-Jul-2020 4280.51 3981.45 80.09 1.00 256.25 2863.78
   16:10:22.220.16-Jul-2020 4280.51 3985.66 80.08 1.00 256.45 2863.78
   16:10:22.420.16-Jul-2020 4280.51 3990.25 80.08 1.00 256.65 2863.78
   16:10:22.620.16-Jul-2020 4280.51 3995.58 80.08 1.00 256.85 2863.78
   16:10:22.820.16-Jul-2020 4280.51 3988.82 80.08 1.00 257.05 2863.78
   16:10:23.020.16-Jul-2020 4280.51 3985.16 80.08 1.00 257.25 2863.78
   16:10:23.220.16-Jul-2020 4280.51 3983.52 80.08 1.00 257.45 2863.78
   16:10:23.420.16-Jul-2020 4280.51 3994.69 80.08 1.00 257.65 2863.78
   16:10:23.620.16-Jul-2020 4280.51 3990.64 80.08 1.00 257.85 2863.78
   16:10:23.820.16-Jul-2020 4280.51 3999.83 80.08 1.00 258.05 2863.78
   16:10:24.020.16-Jul-2020 4280.51 3984.97 80.08 1.00 258.25 2863.78
   16:10:24.220.16-Jul-2020 4280.51 3977.44 80.08 1.00 258.45 2863.78
   16:10:24.420.16-Jul-2020 4280.51 3985.91 80.08 1.00 258.65 2863.78
   16:10:24.620.16-Jul-2020 4280.51 3992.29 80.08 1.00 258.85 2863.78
   16:10:24.820.16-Jul-2020 4280.51 4006.03 80.08 1.00 259.05 2863.78
   16:10:25.020.16-Jul-2020 4280.51 4006.03 80.08 1.00 259.25 2863.78
   16:10:25.220.16-Jul-2020 4280.51 3974.48 80.08 1.00 259.45 2863.78
   16:10:25.420.16-Jul-2020 4280.51 3969.37 80.08 1.00 259.65 2863.78
   16:10:25.620.16-Jul-2020 4280.51 3970.70 80.08 1.00 259.85 2863.78
   16:10:25.820.16-Jul-2020 4280.51 3969.51 80.08 1.00 260.05 2863.78
   16:10:26.020.16-Jul-2020 4280.51 3976.96 80.08 1.00 260.25 2863.78
   16:10:26.220.16-Jul-2020 4280.51 3995.26 80.08 1.00 260.45 2863.78
   16:10:26.420.16-Jul-2020 4280.51 3994.04 80.08 1.00 260.65 2863.78
   16:10:26.620.16-Jul-2020 4280.51 3980.01 80.08 1.00 260.85 2863.78
   16:10:26.820.16-Jul-2020 4280.51 3965.18 80.08 1.00 261.05 2863.78
   16:10:27.021.16-Jul-2020 4280.51 3962.56 80.08 1.00 261.25 2863.78
   16:10:27.221.16-Jul-2020 4280.51 4162.35 80.08 1.00 261.45 2863.78
   16:10:27.421.16-Jul-2020 4280.51 4295.12 80.08 1.00 261.65 2863.78
   16:10:27.621.16-Jul-2020 4280.51 4328.14 80.08 1.00 261.85 2863.78
   16:10:27.821.16-Jul-2020 4280.51 4335.01 80.08 1.00 262.05 2863.78
   16:10:28.021.16-Jul-2020 4280.51 4336.68 80.08 1.00 262.25 2863.78
   16:10:28.221.16-Jul-2020 4280.51 4337.47 80.08 1.00 262.45 2863.78
   16:10:28.421.16-Jul-2020 4280.51 4337.87 80.08 1.00 262.65 2863.78
   16:10:28.621.16-Jul-2020 4280.51 4338.15 80.08 1.00 262.85 2863.78
   16:10:28.821.16-Jul-2020 4280.51 4338.50 80.08 1.00 263.05 2863.78
   16:10:29.021.16-Jul-2020 4280.51 4338.50 80.08 1.00 263.25 2863.78
   16:10:29.221.16-Jul-2020 4280.51 4338.93 80.08 1.00 263.45 2863.78
   16:10:29.421.16-Jul-2020 4280.51 4339.21 80.08 1.00 263.65 2863.78
   16:10:29.621.16-Jul-2020 4280.51 4339.40 80.08 1.00 263.85 2863.78
   16:10:29.821.16-Jul-2020 4280.51 4340.01 80.08 1.00 264.05 2863.78
   16:10:30.021.16-Jul-2020 4280.51 4340.01 80.08 1.00 264.25 2863.78
   16:10:30.221.16-Jul-2020 4280.51 4339.81 80.08 1.00 264.45 2863.78
   16:10:30.421.16-Jul-2020 4280.51 4340.08 80.08 1.00 264.65 2863.78
   16:10:30.621.16-Jul-2020 4280.51 4340.26 80.08 1.00 264.85 2863.78
   16:10:30.821.16-Jul-2020 4280.51 4340.15 80.08 1.00 265.05 2863.78
   16:10:31.021.16-Jul-2020 4280.51 4340.29 80.08 1.00 265.25 2863.78
   16:10:31.221.16-Jul-2020 4280.51 4340.37 80.08 1.00 265.45 2863.78
   16:10:31.421.16-Jul-2020 4280.51 4340.59 80.08 1.00 265.65 2863.78
   16:10:31.621.16-Jul-2020 4280.51 4340.38 80.08 1.00 265.85 2863.78
   16:10:31.822.16-Jul-2020 4280.51 4340.60 80.08 1.00 266.05 2863.78
   16:10:32.022.16-Jul-2020 4280.51 4340.70 80.08 1.00 266.25 2863.78
   16:10:32.222.16-Jul-2020 4280.51 4340.60 80.08 1.00 266.45 2863.78
   16:10:32.422.16-Jul-2020 4280.51 4340.65 80.08 1.00 266.65 2863.78
   16:10:32.622.16-Jul-2020 4280.51 4340.73 80.08 1.00 266.85 2863.78
   16:10:32.822.16-Jul-2020 4280.51 4340.84 80.08 1.00 267.05 2863.78
   16:10:33.022.16-Jul-2020 4280.51 4340.78 80.08 1.00 267.26 2863.78
   16:10:33.222.16-Jul-2020 4280.51 4340.84 80.08 1.00 267.46 2863.78
   16:10:33.422.16-Jul-2020 4280.51 4340.92 80.08 1.00 267.66 2863.78
   16:10:33.622.16-Jul-2020 4280.51 4340.92 80.08 1.00 267.86 2863.78
   16:10:33.822.16-Jul-2020 4280.51 4340.96 80.08 1.00 268.06 2863.78
   16:10:34.022.16-Jul-2020 4280.51 4340.92 80.08 1.00 268.26 2863.78
   16:10:34.222.16-Jul-2020 4280.51 4341.21 80.09 1.00 268.46 2863.78
   16:10:34.422.16-Jul-2020 4280.51 4341.09 80.09 1.00 268.66 2863.78
   16:10:34.622.16-Jul-2020 4280.51 4341.14 80.09 1.00 268.86 2863.78
   16:10:34.822.16-Jul-2020 4280.51 4341.20 80.09 1.00 269.06 2863.78
   16:10:35.022.16-Jul-2020 4280.51 4341.05 80.09 1.00 269.26 2863.78
   16:10:35.222.16-Jul-2020 4280.51 4341.18 80.09 1.00 269.46 2863.78
   16:10:35.422.16-Jul-2020 4280.51 4341.25 80.09 1.00 269.66 2863.78
   16:10:35.622.16-Jul-2020 4280.51 4341.20 80.09 1.00 269.86 2863.78
   16:10:35.822.16-Jul-2020 4280.51 4341.24 80.09 1.00 270.06 2863.78
   16:10:36.022.16-Jul-2020 4280.51 4341.25 80.09 1.00 270.26 2863.78
   16:10:36.222.16-Jul-2020 4280.51 4341.32 80.09 1.00 270.46 2863.78
   16:10:36.422.16-Jul-2020 4280.51 4341.31 80.09 1.00 270.66 2863.78
   16:10:36.623.16-Jul-2020 4280.51 4341.31 80.09 1.00 270.86 2863.78
   16:10:36.823.16-Jul-2020 4280.51 4341.34 80.09 1.00 271.06 2863.78
   16:10:37.023.16-Jul-2020 4280.51 4341.34 80.09 1.00 271.26 2863.78
   16:10:37.223.16-Jul-2020 4280.51 4341.31 80.09 1.00 271.46 2863.78
   16:10:37.423.16-Jul-2020 4280.51 4341.71 80.09 1.00 271.66 2863.78
   16:10:37.623.16-Jul-2020 4280.51 4341.33 80.09 1.00 271.86 2863.78
   16:10:37.823.16-Jul-2020 4280.51 4341.48 80.09 1.00 272.06 2863.78
   16:10:38.023.16-Jul-2020 4280.51 4341.48 80.09 1.00 272.26 2863.78
   16:10:38.223.16-Jul-2020 4280.51 4341.48 80.09 1.00 272.46 2863.78
   16:10:38.423.16-Jul-2020 4280.51 4341.69 80.09 1.00 272.66 2863.78
   16:10:38.623.16-Jul-2020 4280.51 4341.43 80.09 1.00 272.86 2863.78
   16:10:38.823.16-Jul-2020 4280.51 4341.51 80.09 1.00 273.06 2863.78
   16:10:39.023.16-Jul-2020 4280.51 4341.63 80.09 1.00 273.26 2863.78
   16:10:39.223.16-Jul-2020 4280.51 4341.77 80.09 1.00 273.46 2863.78
   16:10:39.423.16-Jul-2020 4280.51 4341.44 80.09 1.00 273.66 2863.78
   16:10:39.623.16-Jul-2020 4280.51 4341.65 80.09 1.00 273.86 2863.78
   16:10:39.823.16-Jul-2020 4280.51 4341.66 80.09 1.00 274.06 2863.78
   16:10:40.023.16-Jul-2020 4280.51 4341.66 80.09 1.00 274.26 2863.78
   16:10:40.223.16-Jul-2020 4280.51 4341.53 80.09 1.00 274.46 2863.78
   16:10:40.423.16-Jul-2020 4280.51 4341.75 80.09 1.00 274.66 2863.78
   16:10:40.623.16-Jul-2020 4280.51 4341.65 80.09 1.00 274.86 2863.78
   16:10:40.823.16-Jul-2020 4280.51 4341.68 80.09 1.00 275.06 2863.78
   16:10:41.023.16-Jul-2020 4280.51 4341.68 80.09 1.00 275.26 2863.78
   16:10:41.223.16-Jul-2020 4280.51 4341.77 80.09 1.00 275.46 2863.78
   16:10:41.423.16-Jul-2020 4280.51 4341.69 80.09 1.00 275.66 2863.78
   16:10:41.624.16-Jul-2020 4280.51 4341.71 80.09 1.00 275.86 2863.78
