~Version Information
 VERS.                  2.0:   CWLS log ASCII Standard -VERSION 2.0
 WRAP.                   NO:   One line per depth step
~Well Information Block
#MNEM.UNIT     VALUE/NAME     DESCRIPTION
#---------     -----------    ---------------------------
 STRT.S             17:17:21 16-Jul-20: START TIME 17:17:21 16-Jul-20
 STOP.S             17:24:07 16-Jul-20: STOP TIME  17:24:07 16-Jul-20
 STEP.S                   0.00: STEP TIME
 NULL.                 -999.25: NULL VALUE
 MDS .        Operator Entered:  MAG DATA SOURCE
 UNIT.                     N/A:  LOGGING EQUIPMENT ID
 DCON.         Sperry Drilling:  DIRECTNL CONTR
 DOE .                     N/A:  DOE NUMBER
 RIG .               EastAzeri:  RIG NAME
 JOBN.        AZ-XX-0906363297:  JOB TICKET NUMB
 MWDS.                    Baku:  MWD SHOP
 SRVC.     Turan Drilling & Engineering:  CONTRACTOR
 PROV.                    Baku:  PROVINCE
 STAT.                    Baku:  STATE NAME
 REGN.                   EESSA:  REGION
 BASE.              Azerbaijan:  LOGGING EQUIPMENT BASE LOCATION
 WTYP.                Deviated:  WELL TYPE
 UWI .                     N/A:  UNIQUE WELL IDENTIFIER
 API .                     N/A:  API NUMBER
 COMP.     BP Exploration (Caspian Sea) ltd.:  COMPANY
 WELL.                    D07z:  WELL NAME
 CTRY.              Azerbaijan:  COUNTRY NAME
 SON .        AZ-XX-0906363297:  JOB NUMBER
 FLD .                     ACG:  FIELD NAME
 PDAT.          Mean Sea Level:  PERMANENT DATUM
 FTOP.          Formation Tops:  FORM TOPS DESC
 ILTD.               Lithology:  INTERP LTH DESC
 SVYD.                  Survey:  SURVEY DESC
 DMOD.             Drill Model:  DRILL MOD DESC
 HPTY.       Minimum Curvature:  HOLE POS TYPE
 NREF.                    Grid:  NORTH REFERENCE
 SPUD.               28-Jun-20:  SPUD DATE
 DATE.      18.27.12 28-Jun-20:  END TIME
 STIM.      18.27.12 28-Jun-20:  START TIME
 DMF .             Drill Floor:  DRILL MEAS FROM
 DFST.                        :  DIST FSL TEXT
 DFWT.                        :  DIST FWL TEXT
 CNTY.                        :  COUNTY
 LOC .                        :  LOCATION
 LMF .             Drill Floor:  LOG MEASURED FROM
 VSNS.m                  -7.75:  VERT SEC N/S
 VSEW.m                  -9.19:  VERT SEC E/W
 MMDE.m                   0.00:  MAGUTM CALC DEP
 AGAP.m                  43.60:  AIR GAP
 DEP .m                4058.99:  DEPTH
 APD .m                  43.60:  DEPTH ABOVE PD
 WDMS.m                 151.80:  WD ELEV
 EGL .m                   0.00:  GROUND ELEVATION
 EPD .m                   0.00:  ELEVATION
 AZTC.deg                 6.19:  AZM TOTAL CORR
 GRDC.deg                 0.27:  GRID CORRECTION
 MDEC.deg                 6.46:  MAGNETIC DECL
 MDIP.deg                59.47:  MAGNETIC DIP
 MFLD.nT              50279.00:  MAGNETIC FIELD
 GVFD.g                   1.00:  GRAVITY FIELD
 VSDR.deg               249.96:  VERT SEC DIRECT
 TDD .m                   0.00:  TOTAL DEPTH (DRILLER)
 SDEP.m                   0.00:  START DEPTH
 DFSL.m                   0.00:  DISTANCE FSL
 DFWL.m                   0.00:  DISTANCE FWL
 UTMY.m             4431880.20:  UTM Y
 UTMX.m              538763.98:  UTM X
 WHEW.m                  -9.19:  WELL HEAD E/W
 WHNS.m                  -7.75:  WELL HEAD N/S
 LONG.deg                51.45:  LONGITUDE
 LATI.deg                40.02:  LATITUDE
 TVDS.m                  43.60:  TVDSS CORRECTN
 EKB .m                  43.60:  KB ELEVATION
 EDF .m                  43.60:  DF ELEVATION
 TDL .m                 248.00:  TOTAL DEPTH (LOGGER)
 MAGU.                 1849075:  MAGUTM CHECKSUM
 VSC .                       0:  VS TO CLOSURE
~Parameter Information Block
#MNEM.UNIT       Value        Description
#---------     -----------    ---------------------------
 AV  .mps                 6.34:  Ann Velocity 
 AVMX.mps                 7.00:  Max Ann Veloc 
 AZIF.deg               260.29:  Azm, Final 
 BHAT.        Rotary Steerable:  BHA Type 
 BROT.°/30m               1.20:  Build Rotating 
 BS  .in                  8.50:  Bit Size 
 BSZ .in                  8.50:  Bit Size 
 BTPL.psig              620.00:  Bit Press Loss 
 CABU.                     Yes:  Customer Abuse 
 COMM.                     fb:  Run Comments 1 
 TCS .hr                 56.22:  Time Ciculation Ended 
 CV  .mps                 3.05:  Crit Velocity 
 CVMX.mps                 3.20:  Max Crit Veloc 
 DD1 .            Musa Ahmadov:  Direct Drillr 1 
 DDSV.                 iCruise:  DD Service 
 DEFF.%                  98.00:  % Det Eff 
 DLRX.°/30m               2.78:  Dogleg Rot Max 
 DLSO.°/30m               0.00:  Dogleg Oriented 
 DLSX.°/30m               0.00:  Dogleg Str Max 
 DRET.      05.20.48 16-Jul-20:  Drill End Time 
 DRST.      10.20.48 13-Jul-20:  Drill Start Tim 
 DTIM.hr                 14.25:  Time Drilling 
 EDEP.m                4326.01:  End Depth 
 ENG1.      Artemiy Matviyanov:  Engineer 1 
 ENG2.           Amrah Tahirov:  Engineer 2 
 ETIM.      22.30.00 18-Jul-20:  End Time 
 FLOI.gpm               550.00:  Flow In 
 FLON.gpm               450.00:  Flow In Min 
 FLOS.cptm                0.00:  Fluid Loss 
 FLOX.gpm               600.00:  Flow In Max 
 HFLO.                      No:  High Flow 
 HPRE.                      No:  High Pressure 
 HTEM.                      No:  High Temp 
 HYDO.m                   1.80:  Hydro Offset 
 IFIN.deg                65.41:  Inc, Final 
 IMAX.deg                65.14:  Inc Max 
 IMIN.deg                58.89:  Inc Min 
 IMND.m                4104.92:  Inc Min Depth 
 IMXD.m                4303.89:  Inc Max Depth 
 JARR.                      No:  Jarring 
 LETM.      10.20.48 17-Jul-20:  Log End Time 
 LOST.hr                     0:  Lost Rig Time 
 LSTM.      10.20.48 13-Jul-20:  Log Start Time 
 MDCL.ppm             37000.00:  Mud Chlorides 
 MDES.     Inversion Oil/Synthetic:  Mud Desc 
 DFD .sg                  1.52:  Mud Density 
 MDMN.sg                  1.52:  Dens Mud Min 
 MDMX.sg                  1.52:  Dens Mud Max 
 MOIL.                   52.70:  Run Mud Oil % 
 MOWR.                   68:32:  Run Mud OWR 
 MSND.                     0.2:  Run Mud Sand % 
 MSOL.                    21.6:  Run Mud Solids% 
 DFV .spqt               79.00:  Mud Viscosity 
 MWOD.in                  6.75:  MWD Tool OD 
 MWSI.                      No:  Serv Intrp, MWD 
 OTIM.hr                114.04:  Time Operating 
 PCON.          Wear / Scratch:  Pad Condition 
 PMAX.psia            11782.92:  Press Op, Max 
 PV  .cP                 49.00:  Mud PV 
 RUN .                     600:  Run Number 
 ROPA.m/hr               20.00:  ROP Avg 
 ROPN.m/hr               15.00:  ROP Min 
 ROPX.m/hr               22.00:  ROP Max 
 RPMA.rpm               120.00:  RPM Surface Avg 
 RPMN.rpm                90.00:  RPM Surface Min 
 RPMX.rpm               140.00:  RPM Surface Max 
 RRUN.                     600:  Rig Run Number 
 SAZI.deg               260.29:  Azm, Start 
 SDEP.m                4078.01:  Start Depth 
 SIDD.                      No:  Serv Intrp, DD 
 SINC.deg                58.89:  Inc, Start 
 SPPA.psig             4560.00:  SPP Avg 
 SPPN.psig             3600.00:  SPP Min 
 SPPX.psig             4800.00:  SPP Max 
 STIM.      10.20.48 13-Jul-20:  Start Time 
 SVCS.                 DD, MWD:  Services 
 SVER.                    9.20:  Sperry Version 
 TDAT.m                4378.01:  Tot Depth Attmp 
 TDDF.                      No:  Trip for DD 
 TDLG.m                 248.00:  Tot Depth Loggd 
 TFF .                      No:  Trip for Fail 
 TQAA.f-kp               18.00:  Torque Abs Avg 
 TQAN.f-kp               15.00:  Torque Abs Min 
 TQAX.f-kp               20.00:  Torque Abs Max 
 TRRT.°/30m               0.70:  Turn Rotating 
 MRT .                    HCIM:  Maximum Recorded Temperature 
 TTMX.degC               86.00:  Max Tool Temp 
 WBMN.klb                 3.00:  WOB Min 
 WOBA.klb                 5.00:  WOB Avg 
 WOBX.klb                 9.00:  WOB Max 
 YP  .lhf2               32.00:  Yield Point 
~Curve Information Block
#MNEM.UNIT                 API CODE     Curve Description
#---------               -----------    ---------------------------
 TIME.HHMMSS            00 000 000 000:  GT Time & Date
 GTDEPTH.m              00 000 000 000:  GT Depth
 GTPQH.psia             00 000 000 000:  GT HR Quartz Pressure
 GTTQ.degC              00 000 000 000:  GT Quartz Temperature
 GTTN.NONE              00 000 000 000:  GT Test Number
 GTET.sec               00 000 000 000:  GT Elapsed Test Time
 GTTVD.m                00 000 000 000:  GT True Vertical Depth
#Other Information
#
#WARRANTY: Halliburton will use its best efforts to furnish customers with 
#accurate information and interpretations that are part of, and incident to, the services 
#provided.  However, Halliburton cannot and does not warrant the accuracy 
#or correctness of such information and interpretations.  Under no circumstances should any 
#such information or interpretation be relied upon as the sole basis for any drilling, 
#completion, production, or financial decision or any procedure involving any risk to the 
#safety of any drilling venture, drilling rig or its crew or any other third party.  The 
#Customer has full responsibility for all drilling, completion and production operation.  
#Halliburton makes no representations or warranties, either expressed or 
#implied, including, but not limited to, the implied warranties of merchantability or fitness 
#for a particular purpose, with respect to the services rendered.  In no event will 
#Halliburton be liable for failure to obtain any particular results or for 
#any damages, including, but not limited to, indirect, special or consequential damages, 
#resulting from the use of any information or interpretation provided by Halliburton.
#
~A           TIME           GTDEPTH  GTPQH  GTTQ  GTTN  GTET   GTTVD  
# ...
   17:21:11.694.16-Jul-2020 4251.01 4628.46 79.84 3.00 230.05 2851.33
   17:21:11.894.16-Jul-2020 4251.01 4628.46 79.84 3.00 230.25 2851.33
   17:21:12.094.16-Jul-2020 4251.01 4628.46 79.84 3.00 230.45 2851.33
   17:21:12.294.16-Jul-2020 4251.01 4628.46 79.84 3.00 230.65 2851.33
   17:21:12.495.16-Jul-2020 4251.01 4628.46 79.84 3.00 230.85 2851.33
   17:21:12.695.16-Jul-2020 4251.01 4628.45 79.84 3.00 231.05 2851.33
   17:21:12.895.16-Jul-2020 4251.01 4628.45 79.84 3.00 231.25 2851.33
   17:21:13.095.16-Jul-2020 4251.01 4628.46 79.84 3.00 231.45 2851.33
   17:21:13.295.16-Jul-2020 4251.01 4628.46 79.84 3.00 231.65 2851.33
   17:21:13.495.16-Jul-2020 4251.01 4628.45 79.84 3.00 231.85 2851.33
   17:21:13.695.16-Jul-2020 4251.01 4628.45 79.84 3.00 232.05 2851.33
   17:21:13.895.16-Jul-2020 4251.01 4628.45 79.84 3.00 232.25 2851.33
   17:21:14.095.16-Jul-2020 4251.01 4628.50 79.84 3.00 232.45 2851.33
   17:21:14.295.16-Jul-2020 4251.01 4628.50 79.84 3.00 232.65 2851.33
   17:21:14.495.16-Jul-2020 4251.01 4628.41 79.84 3.00 232.85 2851.33
   17:21:14.695.16-Jul-2020 4251.01 4628.49 79.84 3.00 233.05 2851.33
   17:21:14.895.16-Jul-2020 4251.01 4628.49 79.84 3.00 233.25 2851.33
   17:21:15.095.16-Jul-2020 4251.01 4628.45 79.84 3.00 233.45 2851.33
   17:21:15.295.16-Jul-2020 4251.01 4628.53 79.84 3.00 233.65 2851.33
   17:21:15.495.16-Jul-2020 4251.01 4628.43 79.84 3.00 233.85 2851.33
   17:21:15.695.16-Jul-2020 4251.01 4628.44 79.84 3.00 234.05 2851.33
   17:21:15.895.16-Jul-2020 4251.01 4628.44 79.84 3.00 234.25 2851.33
   17:21:16.095.16-Jul-2020 4251.01 4628.46 79.84 3.00 234.45 2851.33
   17:21:16.295.16-Jul-2020 4251.01 4628.45 79.84 3.00 234.65 2851.33
   17:21:16.495.16-Jul-2020 4251.01 4628.46 79.84 3.00 234.85 2851.33
   17:21:16.695.16-Jul-2020 4251.01 4628.50 79.84 3.00 235.05 2851.33
   17:21:16.895.16-Jul-2020 4251.01 4628.44 79.84 3.00 235.25 2851.33
   17:21:17.095.16-Jul-2020 4251.01 4628.51 79.84 3.00 235.45 2851.33
   17:21:17.296.16-Jul-2020 4251.01 4628.45 79.84 3.00 235.65 2851.33
   17:21:17.496.16-Jul-2020 4251.01 4628.45 79.84 3.00 235.85 2851.33
   17:21:17.696.16-Jul-2020 4251.01 4628.45 79.84 3.00 236.05 2851.33
   17:21:17.896.16-Jul-2020 4251.01 4628.46 79.84 3.00 236.25 2851.33
   17:21:18.096.16-Jul-2020 4251.01 4628.46 79.84 3.00 236.45 2851.33
   17:21:18.296.16-Jul-2020 4251.01 4628.46 79.84 3.00 236.65 2851.33
   17:21:18.496.16-Jul-2020 4251.01 4628.45 79.84 3.00 236.85 2851.33
   17:21:18.696.16-Jul-2020 4251.01 4628.46 79.84 3.00 237.05 2851.33
   17:21:18.896.16-Jul-2020 4251.01 4628.46 79.84 3.00 237.25 2851.33
   17:21:19.096.16-Jul-2020 4251.01 4628.45 79.84 3.00 237.45 2851.33
   17:21:19.296.16-Jul-2020 4251.01 4628.53 79.84 3.00 237.65 2851.33
   17:21:19.496.16-Jul-2020 4251.01 4628.42 79.84 3.00 237.85 2851.33
   17:21:19.696.16-Jul-2020 4251.01 4628.44 79.84 3.00 238.05 2851.33
   17:21:19.896.16-Jul-2020 4251.01 4628.48 79.84 3.00 238.25 2851.33
   17:21:20.096.16-Jul-2020 4251.01 4628.45 79.84 3.00 238.45 2851.33
   17:21:20.296.16-Jul-2020 4251.01 4628.46 79.84 3.00 238.65 2851.33
   17:21:20.496.16-Jul-2020 4251.01 4628.45 79.84 3.00 238.85 2851.33
   17:21:20.696.16-Jul-2020 4251.01 4628.47 79.84 3.00 239.05 2851.33
   17:21:20.896.16-Jul-2020 4251.01 4628.46 79.84 3.00 239.25 2851.33
   17:21:21.096.16-Jul-2020 4251.01 4628.47 79.84 3.00 239.45 2851.33
   17:21:21.296.16-Jul-2020 4251.01 4628.46 79.84 3.00 239.65 2851.33
   17:21:21.496.16-Jul-2020 4251.01 4628.45 79.84 3.00 239.85 2851.33
   17:21:21.696.16-Jul-2020 4251.01 4628.46 79.84 3.00 240.05 2851.33
   17:21:21.896.16-Jul-2020 4251.01 4628.46 79.84 3.00 240.25 2851.33
   17:21:22.096.16-Jul-2020 4251.01 4628.45 79.84 3.00 240.45 2851.33
   17:21:22.297.16-Jul-2020 4251.01 4628.45 79.84 3.00 240.65 2851.33
   17:21:22.497.16-Jul-2020 4251.01 4628.54 79.84 3.00 240.85 2851.33
   17:21:22.697.16-Jul-2020 4251.01 4628.44 79.84 3.00 241.05 2851.33
   17:21:22.897.16-Jul-2020 4251.01 4628.44 79.84 3.00 241.25 2851.33
   17:21:23.097.16-Jul-2020 4251.01 4628.53 79.84 3.00 241.45 2851.33
   17:21:23.297.16-Jul-2020 4251.01 4628.45 79.84 3.00 241.65 2851.33
   17:21:23.497.16-Jul-2020 4251.01 4628.41 79.84 3.00 241.85 2851.33
   17:21:23.697.16-Jul-2020 4251.01 4628.47 79.84 3.00 242.05 2851.33
   17:21:23.897.16-Jul-2020 4251.01 4628.47 79.84 3.00 242.25 2851.33
   17:21:24.097.16-Jul-2020 4251.01 4628.41 79.84 3.00 242.45 2851.33
   17:21:24.297.16-Jul-2020 4251.01 4628.49 79.84 3.00 242.65 2851.33
   17:21:24.497.16-Jul-2020 4251.01 4628.50 79.84 3.00 242.85 2851.33
   17:21:24.697.16-Jul-2020 4251.01 4628.45 79.84 3.00 243.05 2851.33
   17:21:24.897.16-Jul-2020 4251.01 4628.47 79.84 3.00 243.25 2851.33
   17:21:25.097.16-Jul-2020 4251.01 4628.45 79.84 3.00 243.45 2851.33
   17:21:25.297.16-Jul-2020 4251.01 4628.48 79.84 3.00 243.65 2851.33
   17:21:25.497.16-Jul-2020 4251.01 4628.47 79.84 3.00 243.85 2851.33
   17:21:25.697.16-Jul-2020 4251.01 4628.44 79.84 3.00 244.05 2851.33
   17:21:25.897.16-Jul-2020 4251.01 4628.44 79.84 3.00 244.25 2851.33
   17:21:26.097.16-Jul-2020 4251.01 4628.50 79.84 3.00 244.45 2851.33
   17:21:26.297.16-Jul-2020 4251.01 4628.45 79.84 3.00 244.65 2851.33
   17:21:26.497.16-Jul-2020 4251.01 4628.46 79.84 3.00 244.85 2851.33
   17:21:26.697.16-Jul-2020 4251.01 4628.46 79.84 3.00 245.05 2851.33
   17:21:26.897.16-Jul-2020 4251.01 4628.46 79.84 3.00 245.25 2851.33
   17:21:27.098.16-Jul-2020 4251.01 4628.45 79.84 3.00 245.45 2851.33
   17:21:27.298.16-Jul-2020 4251.01 4628.45 79.84 3.00 245.65 2851.33
   17:21:27.498.16-Jul-2020 4251.01 4628.46 79.84 3.00 245.85 2851.33
   17:21:27.698.16-Jul-2020 4251.01 4628.45 79.84 3.00 246.05 2851.33
   17:21:27.898.16-Jul-2020 4251.01 4628.46 79.84 3.00 246.25 2851.33
   17:21:28.098.16-Jul-2020 4251.01 4628.42 79.84 3.00 246.45 2851.33
   17:21:28.298.16-Jul-2020 4251.01 4628.49 79.84 3.00 246.65 2851.33
   17:21:28.498.16-Jul-2020 4251.01 4628.50 79.84 3.00 246.85 2851.33
   17:21:28.698.16-Jul-2020 4251.01 4628.45 79.84 3.00 247.05 2851.33
   17:21:28.898.16-Jul-2020 4251.01 4628.45 79.84 3.00 247.25 2851.33
   17:21:29.098.16-Jul-2020 4251.01 4628.47 79.84 3.00 247.45 2851.33
   17:21:29.298.16-Jul-2020 4251.01 4628.46 79.84 3.00 247.65 2851.33
   17:21:29.498.16-Jul-2020 4251.01 4628.45 79.84 3.00 247.85 2851.33
   17:21:29.698.16-Jul-2020 4251.01 4628.46 79.84 3.00 248.05 2851.33
   17:21:29.898.16-Jul-2020 4251.01 4628.46 79.84 3.00 248.25 2851.33
   17:21:30.098.16-Jul-2020 4251.01 4628.45 79.84 3.00 248.45 2851.33
   17:21:30.298.16-Jul-2020 4251.01 4628.45 79.84 3.00 248.65 2851.33
   17:21:30.498.16-Jul-2020 4251.01 4628.47 79.84 3.00 248.85 2851.33
   17:21:30.698.16-Jul-2020 4251.01 4497.72 79.84 3.00 249.05 2851.33
   17:21:30.898.16-Jul-2020 4251.01 4029.76 79.84 3.00 249.25 2851.33
   17:21:31.098.16-Jul-2020 4251.01 3722.86 79.84 3.00 249.45 2851.33
   17:21:31.298.16-Jul-2020 4251.01 3506.27 79.84 3.00 249.65 2851.33
   17:21:31.498.16-Jul-2020 4251.01 3325.76 79.84 3.00 249.85 2851.33
   17:21:31.698.16-Jul-2020 4251.01 3192.63 79.84 3.00 250.05 2851.33
   17:21:31.899.16-Jul-2020 4251.01 3034.07 79.84 3.00 250.25 2851.33
   17:21:32.099.16-Jul-2020 4251.01 2869.75 79.84 3.00 250.45 2851.33
   17:21:32.299.16-Jul-2020 4251.01 2758.65 79.84 3.00 250.65 2851.33
   17:21:32.499.16-Jul-2020 4251.01 2652.19 79.84 3.00 250.85 2851.33
   17:21:32.699.16-Jul-2020 4251.01 2551.47 79.84 3.00 251.05 2851.33
   17:21:32.899.16-Jul-2020 4251.01 2433.31 79.83 3.00 251.25 2851.33
   17:21:33.099.16-Jul-2020 4251.01 2255.70 79.83 3.00 251.45 2851.33
   17:21:33.299.16-Jul-2020 4251.01 2092.54 79.83 3.00 251.65 2851.33
   17:21:33.499.16-Jul-2020 4251.01 1956.55 79.83 3.00 251.85 2851.33
   17:21:33.699.16-Jul-2020 4251.01 1845.67 79.83 3.00 252.05 2851.33
   17:21:33.899.16-Jul-2020 4251.01 1708.81 79.83 3.00 252.25 2851.33
   17:21:34.099.16-Jul-2020 4251.01 1600.77 79.82 3.00 252.45 2851.33
   17:21:34.299.16-Jul-2020 4251.01 1465.78 79.82 3.00 252.65 2851.33
   17:21:34.499.16-Jul-2020 4251.01 1372.86 79.82 3.00 252.85 2851.33
