~Version Information
 VERS.                  2.0:   CWLS log ASCII Standard -VERSION 2.0
 WRAP.                   NO:   One line per depth step
~Well Information Block
#MNEM.UNIT     VALUE/NAME     DESCRIPTION
#---------     -----------    ---------------------------
 STRT.S             16:55:55 16-Jul-20: START TIME 16:55:55 16-Jul-20
 STOP.S             17:02:47 16-Jul-20: STOP TIME  17:02:47 16-Jul-20
 STEP.S                   0.00: STEP TIME
 NULL.                 -999.25: NULL VALUE
 MDS .        Operator Entered:  MAG DATA SOURCE
 UNIT.                     N/A:  LOGGING EQUIPMENT ID
 DCON.         Sperry Drilling:  DIRECTNL CONTR
 DOE .                     N/A:  DOE NUMBER
 RIG .               EastAzeri:  RIG NAME
 JOBN.        AZ-XX-0906363297:  JOB TICKET NUMB
 MWDS.                    Baku:  MWD SHOP
 SRVC.     Turan Drilling & Engineering:  CONTRACTOR
 PROV.                    Baku:  PROVINCE
 STAT.                    Baku:  STATE NAME
 REGN.                   EESSA:  REGION
 BASE.              Azerbaijan:  LOGGING EQUIPMENT BASE LOCATION
 WTYP.                Deviated:  WELL TYPE
 UWI .                     N/A:  UNIQUE WELL IDENTIFIER
 API .                     N/A:  API NUMBER
 COMP.     BP Exploration (Caspian Sea) ltd.:  COMPANY
 WELL.                    D07z:  WELL NAME
 CTRY.              Azerbaijan:  COUNTRY NAME
 SON .        AZ-XX-0906363297:  JOB NUMBER
 FLD .                     ACG:  FIELD NAME
 PDAT.          Mean Sea Level:  PERMANENT DATUM
 FTOP.          Formation Tops:  FORM TOPS DESC
 ILTD.               Lithology:  INTERP LTH DESC
 SVYD.                  Survey:  SURVEY DESC
 DMOD.             Drill Model:  DRILL MOD DESC
 HPTY.       Minimum Curvature:  HOLE POS TYPE
 NREF.                    Grid:  NORTH REFERENCE
 SPUD.               28-Jun-20:  SPUD DATE
 DATE.      18.27.12 28-Jun-20:  END TIME
 STIM.      18.27.12 28-Jun-20:  START TIME
 DMF .             Drill Floor:  DRILL MEAS FROM
 DFST.                        :  DIST FSL TEXT
 DFWT.                        :  DIST FWL TEXT
 CNTY.                        :  COUNTY
 LOC .                        :  LOCATION
 LMF .             Drill Floor:  LOG MEASURED FROM
 VSNS.m                  -7.75:  VERT SEC N/S
 VSEW.m                  -9.19:  VERT SEC E/W
 MMDE.m                   0.00:  MAGUTM CALC DEP
 AGAP.m                  43.60:  AIR GAP
 DEP .m                4058.99:  DEPTH
 APD .m                  43.60:  DEPTH ABOVE PD
 WDMS.m                 151.80:  WD ELEV
 EGL .m                   0.00:  GROUND ELEVATION
 EPD .m                   0.00:  ELEVATION
 AZTC.deg                 6.19:  AZM TOTAL CORR
 GRDC.deg                 0.27:  GRID CORRECTION
 MDEC.deg                 6.46:  MAGNETIC DECL
 MDIP.deg                59.47:  MAGNETIC DIP
 MFLD.nT              50279.00:  MAGNETIC FIELD
 GVFD.g                   1.00:  GRAVITY FIELD
 VSDR.deg               249.96:  VERT SEC DIRECT
 TDD .m                   0.00:  TOTAL DEPTH (DRILLER)
 SDEP.m                   0.00:  START DEPTH
 DFSL.m                   0.00:  DISTANCE FSL
 DFWL.m                   0.00:  DISTANCE FWL
 UTMY.m             4431880.20:  UTM Y
 UTMX.m              538763.98:  UTM X
 WHEW.m                  -9.19:  WELL HEAD E/W
 WHNS.m                  -7.75:  WELL HEAD N/S
 LONG.deg                51.45:  LONGITUDE
 LATI.deg                40.02:  LATITUDE
 TVDS.m                  43.60:  TVDSS CORRECTN
 EKB .m                  43.60:  KB ELEVATION
 EDF .m                  43.60:  DF ELEVATION
 TDL .m                 248.00:  TOTAL DEPTH (LOGGER)
 MAGU.                 1849075:  MAGUTM CHECKSUM
 VSC .                       0:  VS TO CLOSURE
~Parameter Information Block
#MNEM.UNIT       Value        Description
#---------     -----------    ---------------------------
 AV  .mps                 6.34:  Ann Velocity 
 AVMX.mps                 7.00:  Max Ann Veloc 
 AZIF.deg               260.29:  Azm, Final 
 BHAT.        Rotary Steerable:  BHA Type 
 BROT.°/30m               1.20:  Build Rotating 
 BS  .in                  8.50:  Bit Size 
 BSZ .in                  8.50:  Bit Size 
 BTPL.psig              620.00:  Bit Press Loss 
 CABU.                     Yes:  Customer Abuse 
 COMM.                     3z:  Run Comments 1 
 TCS .hr                 56.22:  Time Ciculation Ended 
 CV  .mps                 3.05:  Crit Velocity 
 CVMX.mps                 3.20:  Max Crit Veloc 
 DD1 .            Musa Ahmadov:  Direct Drillr 1 
 DDSV.                 iCruise:  DD Service 
 DEFF.%                  98.00:  % Det Eff 
 DLRX.°/30m               2.78:  Dogleg Rot Max 
 DLSO.°/30m               0.00:  Dogleg Oriented 
 DLSX.°/30m               0.00:  Dogleg Str Max 
 DRET.      05.20.48 16-Jul-20:  Drill End Time 
 DRST.      10.20.48 13-Jul-20:  Drill Start Tim 
 DTIM.hr                 14.25:  Time Drilling 
 EDEP.m                4326.01:  End Depth 
 ENG1.      Artemiy Matviyanov:  Engineer 1 
 ENG2.           Amrah Tahirov:  Engineer 2 
 ETIM.      22.30.00 18-Jul-20:  End Time 
 FLOI.gpm               550.00:  Flow In 
 FLON.gpm               450.00:  Flow In Min 
 FLOS.cptm                0.00:  Fluid Loss 
 FLOX.gpm               600.00:  Flow In Max 
 HFLO.                      No:  High Flow 
 HPRE.                      No:  High Pressure 
 HTEM.                      No:  High Temp 
 HYDO.m                   1.80:  Hydro Offset 
 IFIN.deg                65.41:  Inc, Final 
 IMAX.deg                65.14:  Inc Max 
 IMIN.deg                58.89:  Inc Min 
 IMND.m                4104.92:  Inc Min Depth 
 IMXD.m                4303.89:  Inc Max Depth 
 JARR.                      No:  Jarring 
 LETM.      10.20.48 17-Jul-20:  Log End Time 
 LOST.hr                     0:  Lost Rig Time 
 LSTM.      10.20.48 13-Jul-20:  Log Start Time 
 MDCL.ppm             37000.00:  Mud Chlorides 
 MDES.     Inversion Oil/Synthetic:  Mud Desc 
 DFD .sg                  1.52:  Mud Density 
 MDMN.sg                  1.52:  Dens Mud Min 
 MDMX.sg                  1.52:  Dens Mud Max 
 MOIL.                   52.70:  Run Mud Oil % 
 MOWR.                   68:32:  Run Mud OWR 
 MSND.                     0.2:  Run Mud Sand % 
 MSOL.                    21.6:  Run Mud Solids% 
 DFV .spqt               79.00:  Mud Viscosity 
 MWOD.in                  6.75:  MWD Tool OD 
 MWSI.                      No:  Serv Intrp, MWD 
 OTIM.hr                114.04:  Time Operating 
 PCON.          Wear / Scratch:  Pad Condition 
 PMAX.psia            11782.92:  Press Op, Max 
 PV  .cP                 49.00:  Mud PV 
 RUN .                     600:  Run Number 
 ROPA.m/hr               20.00:  ROP Avg 
 ROPN.m/hr               15.00:  ROP Min 
 ROPX.m/hr               22.00:  ROP Max 
 RPMA.rpm               120.00:  RPM Surface Avg 
 RPMN.rpm                90.00:  RPM Surface Min 
 RPMX.rpm               140.00:  RPM Surface Max 
 RRUN.                     600:  Rig Run Number 
 SAZI.deg               260.29:  Azm, Start 
 SDEP.m                4078.01:  Start Depth 
 SIDD.                      No:  Serv Intrp, DD 
 SINC.deg                58.89:  Inc, Start 
 SPPA.psig             4560.00:  SPP Avg 
 SPPN.psig             3600.00:  SPP Min 
 SPPX.psig             4800.00:  SPP Max 
 STIM.      10.20.48 13-Jul-20:  Start Time 
 SVCS.                 DD, MWD:  Services 
 SVER.                    9.20:  Sperry Version 
 TDAT.m                4378.01:  Tot Depth Attmp 
 TDDF.                      No:  Trip for DD 
 TDLG.m                 248.00:  Tot Depth Loggd 
 TFF .                      No:  Trip for Fail 
 TQAA.f-kp               18.00:  Torque Abs Avg 
 TQAN.f-kp               15.00:  Torque Abs Min 
 TQAX.f-kp               20.00:  Torque Abs Max 
 TRRT.°/30m               0.70:  Turn Rotating 
 MRT .                    HCIM:  Maximum Recorded Temperature 
 TTMX.degC               86.00:  Max Tool Temp 
 WBMN.klb                 3.00:  WOB Min 
 WOBA.klb                 5.00:  WOB Avg 
 WOBX.klb                 9.00:  WOB Max 
 YP  .lhf2               32.00:  Yield Point 
~Curve Information Block
#MNEM.UNIT                 API CODE     Curve Description
#---------               -----------    ---------------------------
 TIME.HHMMSS            00 000 000 000:  GT Time & Date
 GTDEPTH.m              00 000 000 000:  GT Depth
 GTPQH.psia             00 000 000 000:  GT HR Quartz Pressure
 GTTQ.degC              00 000 000 000:  GT Quartz Temperature
 GTTN.NONE              00 000 000 000:  GT Test Number
 GTET.sec               00 000 000 000:  GT Elapsed Test Time
 GTTVD.m                00 000 000 000:  GT True Vertical Depth
#Other Information
#
#WARRANTY: Halliburton will use its best efforts to furnish customers with 
#accurate information and interpretations that are part of, and incident to, the services 
#provided.  However, Halliburton cannot and does not warrant the accuracy 
#or correctness of such information and interpretations.  Under no circumstances should any 
#such information or interpretation be relied upon as the sole basis for any drilling, 
#completion, production, or financial decision or any procedure involving any risk to the 
#safety of any drilling venture, drilling rig or its crew or any other third party.  The 
#Customer has full responsibility for all drilling, completion and production operation.  
#Halliburton makes no representations or warranties, either expressed or 
#implied, including, but not limited to, the implied warranties of merchantability or fitness 
#for a particular purpose, with respect to the services rendered.  In no event will 
#Halliburton be liable for failure to obtain any particular results or for 
#any damages, including, but not limited to, indirect, special or consequential damages, 
#resulting from the use of any information or interpretation provided by Halliburton.
#
~A           TIME           GTDEPTH  GTPQH  GTTQ  GTTN  GTET   GTTVD  
# ...
   17:02:03.458.16-Jul-2020 4261.01 7070.75 80.15 2.00 368.08 2855.56
   17:02:03.658.16-Jul-2020 4261.01 7070.75 80.15 2.00 368.28 2855.56
   17:02:03.858.16-Jul-2020 4261.01 7071.00 80.15 2.00 368.48 2855.56
   17:02:04.058.16-Jul-2020 4261.01 7065.52 80.15 2.00 368.68 2855.56
   17:02:04.258.16-Jul-2020 4261.01 7070.16 80.15 2.00 368.88 2855.56
   17:02:04.458.16-Jul-2020 4261.01 7077.49 80.15 2.00 369.08 2855.56
   17:02:04.658.16-Jul-2020 4261.01 7077.49 80.15 2.00 369.28 2855.56
   17:02:04.858.16-Jul-2020 4261.01 7072.35 80.15 2.00 369.48 2855.56
   17:02:05.058.16-Jul-2020 4261.01 7069.84 80.15 2.00 369.68 2855.56
   17:02:05.258.16-Jul-2020 4261.01 7073.09 80.15 2.00 369.88 2855.56
   17:02:05.458.16-Jul-2020 4261.01 7069.85 80.15 2.00 370.08 2855.56
   17:02:05.658.16-Jul-2020 4261.01 7069.85 80.15 2.00 370.28 2855.56
   17:02:05.858.16-Jul-2020 4261.01 7070.40 80.15 2.00 370.48 2855.56
   17:02:06.059.16-Jul-2020 4261.01 7071.53 80.15 2.00 370.68 2855.56
   17:02:06.259.16-Jul-2020 4261.01 7070.35 80.15 2.00 370.88 2855.56
   17:02:06.459.16-Jul-2020 4261.01 7071.25 80.15 2.00 371.08 2855.56
   17:02:06.659.16-Jul-2020 4261.01 7071.25 80.15 2.00 371.28 2855.56
   17:02:06.859.16-Jul-2020 4261.01 7069.19 80.15 2.00 371.48 2855.56
   17:02:07.059.16-Jul-2020 4261.01 7070.19 80.15 2.00 371.68 2855.56
   17:02:07.259.16-Jul-2020 4261.01 7083.55 80.15 2.00 371.88 2855.56
   17:02:07.459.16-Jul-2020 4261.01 7071.14 80.15 2.00 372.08 2855.56
   17:02:07.659.16-Jul-2020 4261.01 7071.14 80.15 2.00 372.28 2855.56
   17:02:07.859.16-Jul-2020 4261.01 7069.52 80.15 2.00 372.48 2855.56
   17:02:08.059.16-Jul-2020 4261.01 7072.59 80.15 2.00 372.68 2855.56
   17:02:08.259.16-Jul-2020 4261.01 7069.52 80.15 2.00 372.88 2855.56
   17:02:08.459.16-Jul-2020 4261.01 7069.44 80.15 2.00 373.08 2855.56
   17:02:08.659.16-Jul-2020 4261.01 7069.36 80.15 2.00 373.28 2855.56
   17:02:08.859.16-Jul-2020 4261.01 7070.26 80.15 2.00 373.48 2855.56
   17:02:09.059.16-Jul-2020 4261.01 7069.33 80.15 2.00 373.68 2855.56
   17:02:09.259.16-Jul-2020 4261.01 7070.20 80.15 2.00 373.88 2855.56
   17:02:09.459.16-Jul-2020 4261.01 7069.87 80.15 2.00 374.08 2855.56
   17:02:09.659.16-Jul-2020 4261.01 7069.87 80.15 2.00 374.28 2855.56
   17:02:09.859.16-Jul-2020 4261.01 7069.54 80.15 2.00 374.48 2855.56
   17:02:10.059.16-Jul-2020 4261.01 7068.33 80.15 2.00 374.68 2855.56
   17:02:10.259.16-Jul-2020 4261.01 7069.71 80.15 2.00 374.88 2855.56
   17:02:10.459.16-Jul-2020 4261.01 7074.09 80.15 2.00 375.08 2855.56
   17:02:10.659.16-Jul-2020 4261.01 7074.09 80.15 2.00 375.28 2855.56
   17:02:10.859.16-Jul-2020 4261.01 7070.11 80.15 2.00 375.48 2855.56
   17:02:11.060.16-Jul-2020 4261.01 7069.16 80.15 2.00 375.68 2855.56
   17:02:11.260.16-Jul-2020 4261.01 7072.48 80.15 2.00 375.88 2855.56
   17:02:11.460.16-Jul-2020 4261.01 7069.11 80.15 2.00 376.08 2855.56
   17:02:11.660.16-Jul-2020 4261.01 7069.11 80.15 2.00 376.28 2855.56
   17:02:11.860.16-Jul-2020 4261.01 7065.69 80.15 2.00 376.48 2855.56
   17:02:12.060.16-Jul-2020 4261.01 7069.40 80.15 2.00 376.68 2855.56
   17:02:12.260.16-Jul-2020 4261.01 7071.60 80.15 2.00 376.88 2855.56
   17:02:12.460.16-Jul-2020 4261.01 7074.78 80.15 2.00 377.08 2855.56
   17:02:12.660.16-Jul-2020 4261.01 7074.78 80.15 2.00 377.28 2855.56
   17:02:12.860.16-Jul-2020 4261.01 7073.52 80.15 2.00 377.48 2855.56
   17:02:13.060.16-Jul-2020 4261.01 7071.27 80.15 2.00 377.68 2855.56
   17:02:13.260.16-Jul-2020 4261.01 7072.23 80.14 2.00 377.88 2855.56
   17:02:13.460.16-Jul-2020 4261.01 7070.06 80.14 2.00 378.08 2855.56
   17:02:13.660.16-Jul-2020 4261.01 7070.06 80.14 2.00 378.28 2855.56
   17:02:13.860.16-Jul-2020 4261.01 7084.49 80.14 2.00 378.48 2855.56
   17:02:14.060.16-Jul-2020 4261.01 7070.81 80.14 2.00 378.68 2855.56
   17:02:14.260.16-Jul-2020 4261.01 7067.77 80.14 2.00 378.88 2855.56
   17:02:14.460.16-Jul-2020 4261.01 7070.94 80.14 2.00 379.08 2855.56
   17:02:14.660.16-Jul-2020 4261.01 7070.94 80.14 2.00 379.28 2855.56
   17:02:14.860.16-Jul-2020 4261.01 7071.75 80.14 2.00 379.48 2855.56
   17:02:15.060.16-Jul-2020 4261.01 7069.90 80.14 2.00 379.68 2855.56
   17:02:15.260.16-Jul-2020 4261.01 7070.84 80.14 2.00 379.88 2855.56
   17:02:15.460.16-Jul-2020 4261.01 7070.04 80.14 2.00 380.08 2855.56
   17:02:15.660.16-Jul-2020 4261.01 7071.29 80.14 2.00 380.28 2855.56
   17:02:15.861.16-Jul-2020 4261.01 7069.64 80.14 2.00 380.48 2855.56
   17:02:16.061.16-Jul-2020 4261.01 7069.47 80.14 2.00 380.68 2855.56
   17:02:16.261.16-Jul-2020 4261.01 7069.10 80.14 2.00 380.88 2855.56
   17:02:16.461.16-Jul-2020 4261.01 7068.49 80.14 2.00 381.08 2855.56
   17:02:16.661.16-Jul-2020 4261.01 7068.49 80.14 2.00 381.28 2855.56
   17:02:16.861.16-Jul-2020 4261.01 7066.99 80.14 2.00 381.48 2855.56
   17:02:17.061.16-Jul-2020 4261.01 7068.37 80.14 2.00 381.68 2855.56
   17:02:17.261.16-Jul-2020 4261.01 7071.29 80.14 2.00 381.88 2855.56
   17:02:17.461.16-Jul-2020 4261.01 7071.88 80.14 2.00 382.08 2855.56
   17:02:17.661.16-Jul-2020 4261.01 7068.08 80.14 2.00 382.28 2855.56
   17:02:17.861.16-Jul-2020 4261.01 7069.67 80.14 2.00 382.48 2855.56
   17:02:18.061.16-Jul-2020 4261.01 7070.46 80.14 2.00 382.68 2855.56
   17:02:18.261.16-Jul-2020 4261.01 7069.66 80.14 2.00 382.88 2855.56
   17:02:18.461.16-Jul-2020 4261.01 7069.07 80.14 2.00 383.08 2855.56
   17:02:18.661.16-Jul-2020 4261.01 7069.07 80.14 2.00 383.28 2855.56
   17:02:18.861.16-Jul-2020 4261.01 7070.83 80.14 2.00 383.48 2855.56
   17:02:19.061.16-Jul-2020 4261.01 7069.53 80.14 2.00 383.68 2855.56
   17:02:19.261.16-Jul-2020 4261.01 7070.07 80.13 2.00 383.88 2855.56
   17:02:19.461.16-Jul-2020 4261.01 7068.13 80.13 2.00 384.08 2855.56
   17:02:19.661.16-Jul-2020 4261.01 7067.46 80.13 2.00 384.28 2855.56
   17:02:19.861.16-Jul-2020 4261.01 7082.64 80.13 2.00 384.48 2855.56
   17:02:20.061.16-Jul-2020 4261.01 7070.99 80.13 2.00 384.68 2855.56
   17:02:20.261.16-Jul-2020 4261.01 7066.75 80.13 2.00 384.88 2855.56
   17:02:20.461.16-Jul-2020 4261.01 7067.98 80.13 2.00 385.08 2855.56
   17:02:20.662.16-Jul-2020 4261.01 7072.35 80.13 2.00 385.28 2855.56
   17:02:20.862.16-Jul-2020 4261.01 7069.32 80.13 2.00 385.48 2855.56
   17:02:21.062.16-Jul-2020 4261.01 7078.67 80.13 2.00 385.68 2855.56
   17:02:21.262.16-Jul-2020 4261.01 7072.54 80.13 2.00 385.88 2855.56
   17:02:21.462.16-Jul-2020 4261.01 7070.27 80.13 2.00 386.08 2855.56
   17:02:21.662.16-Jul-2020 4261.01 7071.73 80.13 2.00 386.28 2855.56
   17:02:21.862.16-Jul-2020 4261.01 7071.80 80.13 2.00 386.48 2855.56
   17:02:22.062.16-Jul-2020 4261.01 7074.54 80.13 2.00 386.68 2855.56
   17:02:22.262.16-Jul-2020 4261.01 7073.64 80.13 2.00 386.88 2855.56
   17:02:22.462.16-Jul-2020 4261.01 7071.03 80.13 2.00 387.08 2855.56
   17:02:22.662.16-Jul-2020 4261.01 7071.03 80.13 2.00 387.28 2855.56
   17:02:22.862.16-Jul-2020 4261.01 7069.54 80.13 2.00 387.48 2855.56
   17:02:23.062.16-Jul-2020 4261.01 7069.65 80.13 2.00 387.68 2855.56
   17:02:23.262.16-Jul-2020 4261.01 7079.68 80.13 2.00 387.88 2855.56
   17:02:23.462.16-Jul-2020 4261.01 7071.12 80.13 2.00 388.08 2855.56
   17:02:23.662.16-Jul-2020 4261.01 7069.77 80.13 2.00 388.28 2855.56
   17:02:23.862.16-Jul-2020 4261.01 7070.85 80.13 2.00 388.48 2855.56
   17:02:24.062.16-Jul-2020 4261.01 7070.29 80.13 2.00 388.68 2855.56
   17:02:24.262.16-Jul-2020 4261.01 7070.01 80.13 2.00 388.88 2855.56
   17:02:24.462.16-Jul-2020 4261.01 7068.78 80.13 2.00 389.08 2855.56
   17:02:24.662.16-Jul-2020 4261.01 7068.78 80.13 2.00 389.28 2855.56
   17:02:24.862.16-Jul-2020 4261.01 7072.87 80.13 2.00 389.48 2855.56
   17:02:25.062.16-Jul-2020 4261.01 7075.22 80.13 2.00 389.68 2855.56
   17:02:25.262.16-Jul-2020 4261.01 7072.19 80.13 2.00 389.88 2855.56
   17:02:25.462.16-Jul-2020 4261.01 7069.80 80.13 2.00 390.08 2855.56
   17:02:25.663.16-Jul-2020 4261.01 7069.80 80.13 2.00 390.28 2855.56
   17:02:25.863.16-Jul-2020 4261.01 7069.22 80.13 2.00 390.48 2855.56
   17:02:26.063.16-Jul-2020 4261.01 7069.58 80.13 2.00 390.68 2855.56
   17:02:26.263.16-Jul-2020 4261.01 7069.39 80.12 2.00 390.88 2855.56
