~Version Information
 VERS.                  2.0:   CWLS log ASCII Standard -VERSION 2.0
 WRAP.                   NO:   One line per depth step
~Well Information Block
#MNEM.UNIT     VALUE/NAME     DESCRIPTION
#---------     -----------    ---------------------------
 STRT.S             19:19:02 16-Jul-20: START TIME 19:19:02 16-Jul-20
 STOP.S             19:25:52 16-Jul-20: STOP TIME  19:25:52 16-Jul-20
 STEP.S                   0.00: STEP TIME
 NULL.                 -999.25: NULL VALUE
 MDS .        Operator Entered:  MAG DATA SOURCE
 UNIT.                     N/A:  LOGGING EQUIPMENT ID
 DCON.         Sperry Drilling:  DIRECTNL CONTR
 DOE .                     N/A:  DOE NUMBER
 RIG .               EastAzeri:  RIG NAME
 JOBN.        AZ-XX-0906363297:  JOB TICKET NUMB
 MWDS.                    Baku:  MWD SHOP
 SRVC.     Turan Drilling & Engineering:  CONTRACTOR
 PROV.                    Baku:  PROVINCE
 STAT.                    Baku:  STATE NAME
 REGN.                   EESSA:  REGION
 BASE.              Azerbaijan:  LOGGING EQUIPMENT BASE LOCATION
 WTYP.                Deviated:  WELL TYPE
 UWI .                     N/A:  UNIQUE WELL IDENTIFIER
 API .                     N/A:  API NUMBER
 COMP.     BP Exploration (Caspian Sea) ltd.:  COMPANY
 WELL.                    D07z:  WELL NAME
 CTRY.              Azerbaijan:  COUNTRY NAME
 SON .        AZ-XX-0906363297:  JOB NUMBER
 FLD .                     ACG:  FIELD NAME
 PDAT.          Mean Sea Level:  PERMANENT DATUM
 FTOP.          Formation Tops:  FORM TOPS DESC
 ILTD.               Lithology:  INTERP LTH DESC
 SVYD.                  Survey:  SURVEY DESC
 DMOD.             Drill Model:  DRILL MOD DESC
 HPTY.       Minimum Curvature:  HOLE POS TYPE
 NREF.                    Grid:  NORTH REFERENCE
 SPUD.               28-Jun-20:  SPUD DATE
 DATE.      18.27.12 28-Jun-20:  END TIME
 STIM.      18.27.12 28-Jun-20:  START TIME
 DMF .             Drill Floor:  DRILL MEAS FROM
 DFST.                        :  DIST FSL TEXT
 DFWT.                        :  DIST FWL TEXT
 CNTY.                        :  COUNTY
 LOC .                        :  LOCATION
 LMF .             Drill Floor:  LOG MEASURED FROM
 VSNS.m                  -7.75:  VERT SEC N/S
 VSEW.m                  -9.19:  VERT SEC E/W
 MMDE.m                   0.00:  MAGUTM CALC DEP
 AGAP.m                  43.60:  AIR GAP
 DEP .m                4058.99:  DEPTH
 APD .m                  43.60:  DEPTH ABOVE PD
 WDMS.m                 151.80:  WD ELEV
 EGL .m                   0.00:  GROUND ELEVATION
 EPD .m                   0.00:  ELEVATION
 AZTC.deg                 6.19:  AZM TOTAL CORR
 GRDC.deg                 0.27:  GRID CORRECTION
 MDEC.deg                 6.46:  MAGNETIC DECL
 MDIP.deg                59.47:  MAGNETIC DIP
 MFLD.nT              50279.00:  MAGNETIC FIELD
 GVFD.g                   1.00:  GRAVITY FIELD
 VSDR.deg               249.96:  VERT SEC DIRECT
 TDD .m                   0.00:  TOTAL DEPTH (DRILLER)
 SDEP.m                   0.00:  START DEPTH
 DFSL.m                   0.00:  DISTANCE FSL
 DFWL.m                   0.00:  DISTANCE FWL
 UTMY.m             4431880.20:  UTM Y
 UTMX.m              538763.98:  UTM X
 WHEW.m                  -9.19:  WELL HEAD E/W
 WHNS.m                  -7.75:  WELL HEAD N/S
 LONG.deg                51.45:  LONGITUDE
 LATI.deg                40.02:  LATITUDE
 TVDS.m                  43.60:  TVDSS CORRECTN
 EKB .m                  43.60:  KB ELEVATION
 EDF .m                  43.60:  DF ELEVATION
 TDL .m                 248.00:  TOTAL DEPTH (LOGGER)
 MAGU.                 1849075:  MAGUTM CHECKSUM
 VSC .                       0:  VS TO CLOSURE
~Parameter Information Block
#MNEM.UNIT       Value        Description
#---------     -----------    ---------------------------
 AV  .mps                 6.34:  Ann Velocity 
 AVMX.mps                 7.00:  Max Ann Veloc 
 AZIF.deg               260.29:  Azm, Final 
 BHAT.        Rotary Steerable:  BHA Type 
 BROT.°/30m               1.20:  Build Rotating 
 BS  .in                  8.50:  Bit Size 
 BSZ .in                  8.50:  Bit Size 
 BTPL.psig              620.00:  Bit Press Loss 
 CABU.                     Yes:  Customer Abuse 
 COMM.                     d)s:  Run Comments 1 
 TCS .hr                 56.22:  Time Ciculation Ended 
 CV  .mps                 3.05:  Crit Velocity 
 CVMX.mps                 3.20:  Max Crit Veloc 
 DD1 .            Musa Ahmadov:  Direct Drillr 1 
 DDSV.                 iCruise:  DD Service 
 DEFF.%                  98.00:  % Det Eff 
 DLRX.°/30m               2.78:  Dogleg Rot Max 
 DLSO.°/30m               0.00:  Dogleg Oriented 
 DLSX.°/30m               0.00:  Dogleg Str Max 
 DRET.      05.20.48 16-Jul-20:  Drill End Time 
 DRST.      10.20.48 13-Jul-20:  Drill Start Tim 
 DTIM.hr                 14.25:  Time Drilling 
 EDEP.m                4326.01:  End Depth 
 ENG1.      Artemiy Matviyanov:  Engineer 1 
 ENG2.           Amrah Tahirov:  Engineer 2 
 ETIM.      22.30.00 18-Jul-20:  End Time 
 FLOI.gpm               550.00:  Flow In 
 FLON.gpm               450.00:  Flow In Min 
 FLOS.cptm                0.00:  Fluid Loss 
 FLOX.gpm               600.00:  Flow In Max 
 HFLO.                      No:  High Flow 
 HPRE.                      No:  High Pressure 
 HTEM.                      No:  High Temp 
 HYDO.m                   1.80:  Hydro Offset 
 IFIN.deg                65.41:  Inc, Final 
 IMAX.deg                65.14:  Inc Max 
 IMIN.deg                58.89:  Inc Min 
 IMND.m                4104.92:  Inc Min Depth 
 IMXD.m                4303.89:  Inc Max Depth 
 JARR.                      No:  Jarring 
 LETM.      10.20.48 17-Jul-20:  Log End Time 
 LOST.hr                     0:  Lost Rig Time 
 LSTM.      10.20.48 13-Jul-20:  Log Start Time 
 MDCL.ppm             37000.00:  Mud Chlorides 
 MDES.     Inversion Oil/Synthetic:  Mud Desc 
 DFD .sg                  1.52:  Mud Density 
 MDMN.sg                  1.52:  Dens Mud Min 
 MDMX.sg                  1.52:  Dens Mud Max 
 MOIL.                   52.70:  Run Mud Oil % 
 MOWR.                   68:32:  Run Mud OWR 
 MSND.                     0.2:  Run Mud Sand % 
 MSOL.                    21.6:  Run Mud Solids% 
 DFV .spqt               79.00:  Mud Viscosity 
 MWOD.in                  6.75:  MWD Tool OD 
 MWSI.                      No:  Serv Intrp, MWD 
 OTIM.hr                114.04:  Time Operating 
 PCON.          Wear / Scratch:  Pad Condition 
 PMAX.psia            11782.92:  Press Op, Max 
 PV  .cP                 49.00:  Mud PV 
 RUN .                     600:  Run Number 
 ROPA.m/hr               20.00:  ROP Avg 
 ROPN.m/hr               15.00:  ROP Min 
 ROPX.m/hr               22.00:  ROP Max 
 RPMA.rpm               120.00:  RPM Surface Avg 
 RPMN.rpm                90.00:  RPM Surface Min 
 RPMX.rpm               140.00:  RPM Surface Max 
 RRUN.                     600:  Rig Run Number 
 SAZI.deg               260.29:  Azm, Start 
 SDEP.m                4078.01:  Start Depth 
 SIDD.                      No:  Serv Intrp, DD 
 SINC.deg                58.89:  Inc, Start 
 SPPA.psig             4560.00:  SPP Avg 
 SPPN.psig             3600.00:  SPP Min 
 SPPX.psig             4800.00:  SPP Max 
 STIM.      10.20.48 13-Jul-20:  Start Time 
 SVCS.                 DD, MWD:  Services 
 SVER.                    9.20:  Sperry Version 
 TDAT.m                4378.01:  Tot Depth Attmp 
 TDDF.                      No:  Trip for DD 
 TDLG.m                 248.00:  Tot Depth Loggd 
 TFF .                      No:  Trip for Fail 
 TQAA.f-kp               18.00:  Torque Abs Avg 
 TQAN.f-kp               15.00:  Torque Abs Min 
 TQAX.f-kp               20.00:  Torque Abs Max 
 TRRT.°/30m               0.70:  Turn Rotating 
 MRT .                    HCIM:  Maximum Recorded Temperature 
 TTMX.degC               86.00:  Max Tool Temp 
 WBMN.klb                 3.00:  WOB Min 
 WOBA.klb                 5.00:  WOB Avg 
 WOBX.klb                 9.00:  WOB Max 
 YP  .lhf2               32.00:  Yield Point 
~Curve Information Block
#MNEM.UNIT                 API CODE     Curve Description
#---------               -----------    ---------------------------
 TIME.HHMMSS            00 000 000 000:  GT Time & Date
 GTDEPTH.m              00 000 000 000:  GT Depth
 GTPQH.psia             00 000 000 000:  GT HR Quartz Pressure
 GTTQ.degC              00 000 000 000:  GT Quartz Temperature
 GTTN.NONE              00 000 000 000:  GT Test Number
 GTET.sec               00 000 000 000:  GT Elapsed Test Time
 GTTVD.m                00 000 000 000:  GT True Vertical Depth
#Other Information
#
#WARRANTY: Halliburton will use its best efforts to furnish customers with 
#accurate information and interpretations that are part of, and incident to, the services 
#provided.  However, Halliburton cannot and does not warrant the accuracy 
#or correctness of such information and interpretations.  Under no circumstances should any 
#such information or interpretation be relied upon as the sole basis for any drilling, 
#completion, production, or financial decision or any procedure involving any risk to the 
#safety of any drilling venture, drilling rig or its crew or any other third party.  The 
#Customer has full responsibility for all drilling, completion and production operation.  
#Halliburton makes no representations or warranties, either expressed or 
#implied, including, but not limited to, the implied warranties of merchantability or fitness 
#for a particular purpose, with respect to the services rendered.  In no event will 
#Halliburton be liable for failure to obtain any particular results or for 
#any damages, including, but not limited to, indirect, special or consequential damages, 
#resulting from the use of any information or interpretation provided by Halliburton.
#
~A           TIME           GTDEPTH  GTPQH  GTTQ  GTTN  GTET   GTTVD  
# ...
   19:24:47.456.16-Jul-2020 4190.01 4791.55 79.02 6.00 345.15 2825.02
   19:24:47.656.16-Jul-2020 4190.01 4791.51 79.02 6.00 345.36 2825.02
   19:24:47.856.16-Jul-2020 4190.01 4791.52 79.02 6.00 345.56 2825.02
   19:24:48.056.16-Jul-2020 4190.01 4791.53 79.02 6.00 345.76 2825.02
   19:24:48.256.16-Jul-2020 4190.01 4791.50 79.02 6.00 345.96 2825.02
   19:24:48.456.16-Jul-2020 4190.01 4791.63 79.02 6.00 346.16 2825.02
   19:24:48.656.16-Jul-2020 4190.01 4791.53 79.02 6.00 346.36 2825.02
   19:24:48.856.16-Jul-2020 4190.01 4791.53 79.02 6.00 346.56 2825.02
   19:24:49.056.16-Jul-2020 4190.01 4791.53 79.02 6.00 346.76 2825.02
   19:24:49.257.16-Jul-2020 4190.01 4791.50 79.02 6.00 346.96 2825.02
   19:24:49.457.16-Jul-2020 4190.01 4791.51 79.02 6.00 347.16 2825.02
   19:24:49.657.16-Jul-2020 4190.01 4791.66 79.02 6.00 347.36 2825.02
   19:24:49.857.16-Jul-2020 4190.01 4791.38 79.02 6.00 347.56 2825.02
   19:24:50.057.16-Jul-2020 4190.01 4791.58 79.02 6.00 347.76 2825.02
   19:24:50.257.16-Jul-2020 4190.01 4791.49 79.02 6.00 347.96 2825.02
   19:24:50.457.16-Jul-2020 4190.01 4791.50 79.02 6.00 348.16 2825.02
   19:24:50.657.16-Jul-2020 4190.01 4791.50 79.02 6.00 348.36 2825.02
   19:24:50.857.16-Jul-2020 4190.01 4791.49 79.02 6.00 348.56 2825.02
   19:24:51.057.16-Jul-2020 4190.01 4791.51 79.02 6.00 348.76 2825.02
   19:24:51.257.16-Jul-2020 4190.01 4791.70 79.02 6.00 348.96 2825.02
   19:24:51.458.16-Jul-2020 4190.01 4791.45 79.02 6.00 349.16 2825.02
   19:24:51.658.16-Jul-2020 4190.01 4791.45 79.02 6.00 349.36 2825.02
   19:24:51.858.16-Jul-2020 4190.01 4791.67 79.02 6.00 349.56 2825.02
   19:24:52.058.16-Jul-2020 4190.01 4791.39 79.02 6.00 349.76 2825.02
   19:24:52.258.16-Jul-2020 4190.01 4791.57 79.02 6.00 349.96 2825.02
   19:24:52.458.16-Jul-2020 4190.01 4791.49 79.02 6.00 350.16 2825.02
   19:24:52.658.16-Jul-2020 4190.01 4791.51 79.02 6.00 350.36 2825.02
   19:24:52.858.16-Jul-2020 4190.01 4791.52 79.02 6.00 350.56 2825.02
   19:24:53.058.16-Jul-2020 4190.01 4791.45 79.02 6.00 350.76 2825.02
   19:24:53.258.16-Jul-2020 4190.01 4791.63 79.02 6.00 350.96 2825.02
   19:24:53.458.16-Jul-2020 4190.01 4791.52 79.02 6.00 351.16 2825.02
   19:24:53.659.16-Jul-2020 4190.01 4791.53 79.02 6.00 351.36 2825.02
   19:24:53.859.16-Jul-2020 4190.01 4791.53 79.02 6.00 351.56 2825.02
   19:24:54.059.16-Jul-2020 4190.01 4791.49 79.02 6.00 351.76 2825.02
   19:24:54.259.16-Jul-2020 4190.01 4791.51 79.02 6.00 351.96 2825.02
   19:24:54.459.16-Jul-2020 4190.01 4791.53 79.02 6.00 352.16 2825.02
   19:24:54.659.16-Jul-2020 4190.01 4791.53 79.02 6.00 352.36 2825.02
   19:24:54.859.16-Jul-2020 4190.01 4791.54 79.02 6.00 352.56 2825.02
   19:24:55.059.16-Jul-2020 4190.01 4791.50 79.02 6.00 352.76 2825.02
   19:24:55.259.16-Jul-2020 4190.01 4791.53 79.02 6.00 352.96 2825.02
   19:24:55.459.16-Jul-2020 4190.01 4791.53 79.02 6.00 353.16 2825.02
   19:24:55.659.16-Jul-2020 4190.01 4791.53 79.02 6.00 353.36 2825.02
   19:24:55.859.16-Jul-2020 4190.01 4791.33 79.02 6.00 353.56 2825.02
   19:24:56.060.16-Jul-2020 4190.01 4791.51 79.02 6.00 353.76 2825.02
   19:24:56.260.16-Jul-2020 4190.01 4791.60 79.02 6.00 353.96 2825.02
   19:24:56.460.16-Jul-2020 4190.01 4791.53 79.02 6.00 354.16 2825.02
   19:24:56.660.16-Jul-2020 4190.01 4791.52 79.02 6.00 354.36 2825.02
   19:24:56.860.16-Jul-2020 4190.01 4791.53 79.02 6.00 354.56 2825.02
   19:24:57.060.16-Jul-2020 4190.01 4791.51 79.02 6.00 354.76 2825.02
   19:24:57.260.16-Jul-2020 4190.01 4791.52 79.02 6.00 354.96 2825.02
   19:24:57.460.16-Jul-2020 4190.01 4791.29 79.02 6.00 355.16 2825.02
   19:24:57.660.16-Jul-2020 4190.01 4791.29 79.02 6.00 355.36 2825.02
   19:24:57.860.16-Jul-2020 4190.01 4975.59 79.02 6.00 355.56 2825.02
   19:24:58.060.16-Jul-2020 4190.01 6969.17 79.02 6.00 355.76 2825.02
   19:24:58.261.16-Jul-2020 4190.01 6967.06 79.02 6.00 355.96 2825.02
   19:24:58.461.16-Jul-2020 4190.01 6965.82 79.02 6.00 356.16 2825.02
   19:24:58.661.16-Jul-2020 4190.01 6965.82 79.02 6.00 356.36 2825.02
   19:24:58.861.16-Jul-2020 4190.01 6980.85 79.03 6.00 356.56 2825.02
   19:24:59.061.16-Jul-2020 4190.01 6956.39 79.03 6.00 356.76 2825.02
   19:24:59.261.16-Jul-2020 4190.01 6974.50 79.03 6.00 356.96 2825.02
   19:24:59.461.16-Jul-2020 4190.01 6971.99 79.03 6.00 357.16 2825.02
   19:24:59.661.16-Jul-2020 4190.01 6971.99 79.03 6.00 357.36 2825.02
   19:24:59.861.16-Jul-2020 4190.01 6969.61 79.03 6.00 357.56 2825.02
   19:25:00.061.16-Jul-2020 4190.01 6982.76 79.04 6.00 357.76 2825.02
   19:25:00.261.16-Jul-2020 4190.01 6966.21 79.04 6.00 357.96 2825.02
   19:25:00.462.16-Jul-2020 4190.01 6976.99 79.04 6.00 358.16 2825.02
   19:25:00.662.16-Jul-2020 4190.01 6970.61 79.04 6.00 358.36 2825.02
   19:25:00.862.16-Jul-2020 4190.01 6972.51 79.04 6.00 358.56 2825.02
   19:25:01.062.16-Jul-2020 4190.01 6988.51 79.05 6.00 358.76 2825.02
   19:25:01.262.16-Jul-2020 4190.01 6960.86 79.05 6.00 358.96 2825.02
   19:25:01.462.16-Jul-2020 4190.01 6978.93 79.05 6.00 359.16 2825.02
   19:25:01.662.16-Jul-2020 4190.01 6978.93 79.05 6.00 359.36 2825.02
   19:25:01.862.16-Jul-2020 4190.01 6972.49 79.06 6.00 359.56 2825.02
   19:25:02.062.16-Jul-2020 4190.01 6975.27 79.06 6.00 359.76 2825.02
   19:25:02.262.16-Jul-2020 4190.01 6979.30 79.06 6.00 359.96 2825.02
   19:25:02.462.16-Jul-2020 4190.01 6979.09 79.06 6.00 360.16 2825.02
   19:25:02.663.16-Jul-2020 4190.01 6979.09 79.06 6.00 360.36 2825.02
   19:25:02.863.16-Jul-2020 4190.01 6975.90 79.07 6.00 360.56 2825.02
   19:25:03.063.16-Jul-2020 4190.01 6976.99 79.07 6.00 360.76 2825.02
   19:25:03.263.16-Jul-2020 4190.01 6974.00 79.07 6.00 360.96 2825.02
   19:25:03.463.16-Jul-2020 4190.01 6973.57 79.07 6.00 361.16 2825.02
   19:25:03.663.16-Jul-2020 4190.01 6973.57 79.07 6.00 361.36 2825.02
   19:25:03.863.16-Jul-2020 4190.01 6973.42 79.08 6.00 361.56 2825.02
   19:25:04.063.16-Jul-2020 4190.01 6974.01 79.08 6.00 361.76 2825.02
   19:25:04.263.16-Jul-2020 4190.01 6972.94 79.08 6.00 361.96 2825.02
   19:25:04.463.16-Jul-2020 4190.01 6972.96 79.08 6.00 362.16 2825.02
   19:25:04.663.16-Jul-2020 4190.01 6972.77 79.08 6.00 362.36 2825.02
   19:25:04.864.16-Jul-2020 4190.01 6983.08 79.09 6.00 362.56 2825.02
   19:25:05.064.16-Jul-2020 4190.01 6971.98 79.09 6.00 362.76 2825.02
   19:25:05.264.16-Jul-2020 4190.01 6975.77 79.09 6.00 362.96 2825.02
   19:25:05.464.16-Jul-2020 4190.01 6976.29 79.09 6.00 363.16 2825.02
   19:25:05.664.16-Jul-2020 4190.01 6973.57 79.09 6.00 363.36 2825.02
   19:25:05.864.16-Jul-2020 4190.01 6974.03 79.09 6.00 363.56 2825.02
   19:25:06.064.16-Jul-2020 4190.01 6974.29 79.09 6.00 363.76 2825.02
   19:25:06.264.16-Jul-2020 4190.01 6974.52 79.09 6.00 363.96 2825.02
   19:25:06.464.16-Jul-2020 4190.01 6974.38 79.10 6.00 364.16 2825.02
   19:25:06.664.16-Jul-2020 4190.01 6974.38 79.10 6.00 364.36 2825.02
   19:25:06.864.16-Jul-2020 4190.01 6974.45 79.10 6.00 364.56 2825.02
   19:25:07.065.16-Jul-2020 4190.01 6973.49 79.10 6.00 364.76 2825.02
   19:25:07.265.16-Jul-2020 4190.01 6974.42 79.10 6.00 364.96 2825.02
   19:25:07.465.16-Jul-2020 4190.01 6973.66 79.10 6.00 365.16 2825.02
   19:25:07.665.16-Jul-2020 4190.01 6973.66 79.10 6.00 365.36 2825.02
   19:25:07.865.16-Jul-2020 4190.01 6973.41 79.10 6.00 365.56 2825.02
   19:25:08.065.16-Jul-2020 4190.01 6983.08 79.10 6.00 365.76 2825.02
   19:25:08.265.16-Jul-2020 4190.01 6971.97 79.10 6.00 365.96 2825.02
   19:25:08.465.16-Jul-2020 4190.01 6976.58 79.10 6.00 366.16 2825.02
   19:25:08.665.16-Jul-2020 4190.01 6976.75 79.10 6.00 366.36 2825.02
   19:25:08.865.16-Jul-2020 4190.01 6973.15 79.10 6.00 366.56 2825.02
   19:25:09.065.16-Jul-2020 4190.01 6973.74 79.10 6.00 366.76 2825.02
   19:25:09.266.16-Jul-2020 4190.01 6989.10 79.10 6.00 366.96 2825.02
   19:25:09.466.16-Jul-2020 4190.01 6963.24 79.10 6.00 367.16 2825.02
   19:25:09.666.16-Jul-2020 4190.01 6963.24 79.10 6.00 367.36 2825.02
   19:25:09.866.16-Jul-2020 4190.01 6977.42 79.10 6.00 367.56 2825.02
   19:25:10.066.16-Jul-2020 4190.01 6973.71 79.10 6.00 367.77 2825.02
   19:25:10.266.16-Jul-2020 4190.01 6984.00 79.10 6.00 367.97 2825.02
