~Version Information
 VERS.                  2.0:   CWLS log ASCII Standard -VERSION 2.0
 WRAP.                   NO:   One line per depth step
~Well Information Block
#MNEM.UNIT     VALUE/NAME     DESCRIPTION
#---------     -----------    ---------------------------
 STRT.S             16:55:55 16-Jul-20: START TIME 16:55:55 16-Jul-20
 STOP.S             17:02:47 16-Jul-20: STOP TIME  17:02:47 16-Jul-20
 STEP.S                   0.00: STEP TIME
 NULL.                 -999.25: NULL VALUE
 MDS .        Operator Entered:  MAG DATA SOURCE
 UNIT.                     N/A:  LOGGING EQUIPMENT ID
 DCON.         Sperry Drilling:  DIRECTNL CONTR
 DOE .                     N/A:  DOE NUMBER
 RIG .               EastAzeri:  RIG NAME
 JOBN.        AZ-XX-0906363297:  JOB TICKET NUMB
 MWDS.                    Baku:  MWD SHOP
 SRVC.     Turan Drilling & Engineering:  CONTRACTOR
 PROV.                    Baku:  PROVINCE
 STAT.                    Baku:  STATE NAME
 REGN.                   EESSA:  REGION
 BASE.              Azerbaijan:  LOGGING EQUIPMENT BASE LOCATION
 WTYP.                Deviated:  WELL TYPE
 UWI .                     N/A:  UNIQUE WELL IDENTIFIER
 API .                     N/A:  API NUMBER
 COMP.     BP Exploration (Caspian Sea) ltd.:  COMPANY
 WELL.                    D07z:  WELL NAME
 CTRY.              Azerbaijan:  COUNTRY NAME
 SON .        AZ-XX-0906363297:  JOB NUMBER
 FLD .                     ACG:  FIELD NAME
 PDAT.          Mean Sea Level:  PERMANENT DATUM
 FTOP.          Formation Tops:  FORM TOPS DESC
 ILTD.               Lithology:  INTERP LTH DESC
 SVYD.                  Survey:  SURVEY DESC
 DMOD.             Drill Model:  DRILL MOD DESC
 HPTY.       Minimum Curvature:  HOLE POS TYPE
 NREF.                    Grid:  NORTH REFERENCE
 SPUD.               28-Jun-20:  SPUD DATE
 DATE.      18.27.12 28-Jun-20:  END TIME
 STIM.      18.27.12 28-Jun-20:  START TIME
 DMF .             Drill Floor:  DRILL MEAS FROM
 DFST.                        :  DIST FSL TEXT
 DFWT.                        :  DIST FWL TEXT
 CNTY.                        :  COUNTY
 LOC .                        :  LOCATION
 LMF .             Drill Floor:  LOG MEASURED FROM
 VSNS.m                  -7.75:  VERT SEC N/S
 VSEW.m                  -9.19:  VERT SEC E/W
 MMDE.m                   0.00:  MAGUTM CALC DEP
 AGAP.m                  43.60:  AIR GAP
 DEP .m                4058.99:  DEPTH
 APD .m                  43.60:  DEPTH ABOVE PD
 WDMS.m                 151.80:  WD ELEV
 EGL .m                   0.00:  GROUND ELEVATION
 EPD .m                   0.00:  ELEVATION
 AZTC.deg                 6.19:  AZM TOTAL CORR
 GRDC.deg                 0.27:  GRID CORRECTION
 MDEC.deg                 6.46:  MAGNETIC DECL
 MDIP.deg                59.47:  MAGNETIC DIP
 MFLD.nT              50279.00:  MAGNETIC FIELD
 GVFD.g                   1.00:  GRAVITY FIELD
 VSDR.deg               249.96:  VERT SEC DIRECT
 TDD .m                   0.00:  TOTAL DEPTH (DRILLER)
 SDEP.m                   0.00:  START DEPTH
 DFSL.m                   0.00:  DISTANCE FSL
 DFWL.m                   0.00:  DISTANCE FWL
 UTMY.m             4431880.20:  UTM Y
 UTMX.m              538763.98:  UTM X
 WHEW.m                  -9.19:  WELL HEAD E/W
 WHNS.m                  -7.75:  WELL HEAD N/S
 LONG.deg                51.45:  LONGITUDE
 LATI.deg                40.02:  LATITUDE
 TVDS.m                  43.60:  TVDSS CORRECTN
 EKB .m                  43.60:  KB ELEVATION
 EDF .m                  43.60:  DF ELEVATION
 TDL .m                 248.00:  TOTAL DEPTH (LOGGER)
 MAGU.                 1849075:  MAGUTM CHECKSUM
 VSC .                       0:  VS TO CLOSURE
~Parameter Information Block
#MNEM.UNIT       Value        Description
#---------     -----------    ---------------------------
 AV  .mps                 6.34:  Ann Velocity 
 AVMX.mps                 7.00:  Max Ann Veloc 
 AZIF.deg               260.29:  Azm, Final 
 BHAT.        Rotary Steerable:  BHA Type 
 BROT.°/30m               1.20:  Build Rotating 
 BS  .in                  8.50:  Bit Size 
 BSZ .in                  8.50:  Bit Size 
 BTPL.psig              620.00:  Bit Press Loss 
 CABU.                     Yes:  Customer Abuse 
 COMM.                     3z:  Run Comments 1 
 TCS .hr                 56.22:  Time Ciculation Ended 
 CV  .mps                 3.05:  Crit Velocity 
 CVMX.mps                 3.20:  Max Crit Veloc 
 DD1 .            Musa Ahmadov:  Direct Drillr 1 
 DDSV.                 iCruise:  DD Service 
 DEFF.%                  98.00:  % Det Eff 
 DLRX.°/30m               2.78:  Dogleg Rot Max 
 DLSO.°/30m               0.00:  Dogleg Oriented 
 DLSX.°/30m               0.00:  Dogleg Str Max 
 DRET.      05.20.48 16-Jul-20:  Drill End Time 
 DRST.      10.20.48 13-Jul-20:  Drill Start Tim 
 DTIM.hr                 14.25:  Time Drilling 
 EDEP.m                4326.01:  End Depth 
 ENG1.      Artemiy Matviyanov:  Engineer 1 
 ENG2.           Amrah Tahirov:  Engineer 2 
 ETIM.      22.30.00 18-Jul-20:  End Time 
 FLOI.gpm               550.00:  Flow In 
 FLON.gpm               450.00:  Flow In Min 
 FLOS.cptm                0.00:  Fluid Loss 
 FLOX.gpm               600.00:  Flow In Max 
 HFLO.                      No:  High Flow 
 HPRE.                      No:  High Pressure 
 HTEM.                      No:  High Temp 
 HYDO.m                   1.80:  Hydro Offset 
 IFIN.deg                65.41:  Inc, Final 
 IMAX.deg                65.14:  Inc Max 
 IMIN.deg                58.89:  Inc Min 
 IMND.m                4104.92:  Inc Min Depth 
 IMXD.m                4303.89:  Inc Max Depth 
 JARR.                      No:  Jarring 
 LETM.      10.20.48 17-Jul-20:  Log End Time 
 LOST.hr                     0:  Lost Rig Time 
 LSTM.      10.20.48 13-Jul-20:  Log Start Time 
 MDCL.ppm             37000.00:  Mud Chlorides 
 MDES.     Inversion Oil/Synthetic:  Mud Desc 
 DFD .sg                  1.52:  Mud Density 
 MDMN.sg                  1.52:  Dens Mud Min 
 MDMX.sg                  1.52:  Dens Mud Max 
 MOIL.                   52.70:  Run Mud Oil % 
 MOWR.                   68:32:  Run Mud OWR 
 MSND.                     0.2:  Run Mud Sand % 
 MSOL.                    21.6:  Run Mud Solids% 
 DFV .spqt               79.00:  Mud Viscosity 
 MWOD.in                  6.75:  MWD Tool OD 
 MWSI.                      No:  Serv Intrp, MWD 
 OTIM.hr                114.04:  Time Operating 
 PCON.          Wear / Scratch:  Pad Condition 
 PMAX.psia            11782.92:  Press Op, Max 
 PV  .cP                 49.00:  Mud PV 
 RUN .                     600:  Run Number 
 ROPA.m/hr               20.00:  ROP Avg 
 ROPN.m/hr               15.00:  ROP Min 
 ROPX.m/hr               22.00:  ROP Max 
 RPMA.rpm               120.00:  RPM Surface Avg 
 RPMN.rpm                90.00:  RPM Surface Min 
 RPMX.rpm               140.00:  RPM Surface Max 
 RRUN.                     600:  Rig Run Number 
 SAZI.deg               260.29:  Azm, Start 
 SDEP.m                4078.01:  Start Depth 
 SIDD.                      No:  Serv Intrp, DD 
 SINC.deg                58.89:  Inc, Start 
 SPPA.psig             4560.00:  SPP Avg 
 SPPN.psig             3600.00:  SPP Min 
 SPPX.psig             4800.00:  SPP Max 
 STIM.      10.20.48 13-Jul-20:  Start Time 
 SVCS.                 DD, MWD:  Services 
 SVER.                    9.20:  Sperry Version 
 TDAT.m                4378.01:  Tot Depth Attmp 
 TDDF.                      No:  Trip for DD 
 TDLG.m                 248.00:  Tot Depth Loggd 
 TFF .                      No:  Trip for Fail 
 TQAA.f-kp               18.00:  Torque Abs Avg 
 TQAN.f-kp               15.00:  Torque Abs Min 
 TQAX.f-kp               20.00:  Torque Abs Max 
 TRRT.°/30m               0.70:  Turn Rotating 
 MRT .                    HCIM:  Maximum Recorded Temperature 
 TTMX.degC               86.00:  Max Tool Temp 
 WBMN.klb                 3.00:  WOB Min 
 WOBA.klb                 5.00:  WOB Avg 
 WOBX.klb                 9.00:  WOB Max 
 YP  .lhf2               32.00:  Yield Point 
~Curve Information Block
#MNEM.UNIT                 API CODE     Curve Description
#---------               -----------    ---------------------------
 TIME.HHMMSS            00 000 000 000:  GT Time & Date
 GTDEPTH.m              00 000 000 000:  GT Depth
 GTPQH.psia             00 000 000 000:  GT HR Quartz Pressure
 GTTQ.degC              00 000 000 000:  GT Quartz Temperature
 GTTN.NONE              00 000 000 000:  GT Test Number
 GTET.sec               00 000 000 000:  GT Elapsed Test Time
 GTTVD.m                00 000 000 000:  GT True Vertical Depth
#Other Information
#
#WARRANTY: Halliburton will use its best efforts to furnish customers with 
#accurate information and interpretations that are part of, and incident to, the services 
#provided.  However, Halliburton cannot and does not warrant the accuracy 
#or correctness of such information and interpretations.  Under no circumstances should any 
#such information or interpretation be relied upon as the sole basis for any drilling, 
#completion, production, or financial decision or any procedure involving any risk to the 
#safety of any drilling venture, drilling rig or its crew or any other third party.  The 
#Customer has full responsibility for all drilling, completion and production operation.  
#Halliburton makes no representations or warranties, either expressed or 
#implied, including, but not limited to, the implied warranties of merchantability or fitness 
#for a particular purpose, with respect to the services rendered.  In no event will 
#Halliburton be liable for failure to obtain any particular results or for 
#any damages, including, but not limited to, indirect, special or consequential damages, 
#resulting from the use of any information or interpretation provided by Halliburton.
#
~A           TIME           GTDEPTH  GTPQH  GTTQ  GTTN  GTET   GTTVD  
# ...
   17:01:40.453.16-Jul-2020 4261.01 4635.62 80.07 2.00 345.07 2855.56
   17:01:40.653.16-Jul-2020 4261.01 4635.62 80.07 2.00 345.27 2855.56
   17:01:40.853.16-Jul-2020 4261.01 4635.63 80.07 2.00 345.47 2855.56
   17:01:41.053.16-Jul-2020 4261.01 4635.63 80.07 2.00 345.67 2855.56
   17:01:41.253.16-Jul-2020 4261.01 4635.65 80.07 2.00 345.87 2855.56
   17:01:41.453.16-Jul-2020 4261.01 4635.63 80.07 2.00 346.07 2855.56
   17:01:41.653.16-Jul-2020 4261.01 4635.62 80.07 2.00 346.27 2855.56
   17:01:41.854.16-Jul-2020 4261.01 4635.61 80.07 2.00 346.47 2855.56
   17:01:42.054.16-Jul-2020 4261.01 4635.63 80.07 2.00 346.67 2855.56
   17:01:42.254.16-Jul-2020 4261.01 4635.65 80.07 2.00 346.87 2855.56
   17:01:42.454.16-Jul-2020 4261.01 4635.73 80.07 2.00 347.07 2855.56
   17:01:42.654.16-Jul-2020 4261.01 4635.73 80.07 2.00 347.27 2855.56
   17:01:42.854.16-Jul-2020 4261.01 4635.62 80.07 2.00 347.47 2855.56
   17:01:43.054.16-Jul-2020 4261.01 4635.63 80.07 2.00 347.67 2855.56
   17:01:43.254.16-Jul-2020 4261.01 4635.63 80.07 2.00 347.87 2855.56
   17:01:43.454.16-Jul-2020 4261.01 4635.63 80.07 2.00 348.07 2855.56
   17:01:43.654.16-Jul-2020 4261.01 4635.63 80.07 2.00 348.27 2855.56
   17:01:43.854.16-Jul-2020 4261.01 4635.63 80.07 2.00 348.47 2855.56
   17:01:44.054.16-Jul-2020 4261.01 4635.64 80.07 2.00 348.67 2855.56
   17:01:44.254.16-Jul-2020 4261.01 4635.63 80.07 2.00 348.87 2855.56
   17:01:44.454.16-Jul-2020 4261.01 4635.64 80.07 2.00 349.07 2855.56
   17:01:44.654.16-Jul-2020 4261.01 4635.64 80.07 2.00 349.27 2855.56
   17:01:44.854.16-Jul-2020 4261.01 4635.61 80.07 2.00 349.47 2855.56
   17:01:45.054.16-Jul-2020 4261.01 4635.60 80.07 2.00 349.67 2855.56
   17:01:45.254.16-Jul-2020 4261.01 4635.64 80.07 2.00 349.87 2855.56
   17:01:45.454.16-Jul-2020 4261.01 4635.67 80.07 2.00 350.07 2855.56
   17:01:45.654.16-Jul-2020 4261.01 4635.75 80.07 2.00 350.27 2855.56
   17:01:45.854.16-Jul-2020 4261.01 4635.51 80.07 2.00 350.47 2855.56
   17:01:46.054.16-Jul-2020 4261.01 4635.62 80.07 2.00 350.67 2855.56
   17:01:46.254.16-Jul-2020 4261.01 4635.95 80.07 2.00 350.87 2855.56
   17:01:46.454.16-Jul-2020 4261.01 4635.47 80.07 2.00 351.07 2855.56
   17:01:46.655.16-Jul-2020 4261.01 4635.48 80.07 2.00 351.27 2855.56
   17:01:46.855.16-Jul-2020 4261.01 4635.70 80.07 2.00 351.47 2855.56
   17:01:47.055.16-Jul-2020 4261.01 4635.66 80.07 2.00 351.67 2855.56
   17:01:47.255.16-Jul-2020 4261.01 4635.68 80.07 2.00 351.87 2855.56
   17:01:47.455.16-Jul-2020 4261.01 4635.50 80.07 2.00 352.07 2855.56
   17:01:47.655.16-Jul-2020 4261.01 4635.65 80.07 2.00 352.27 2855.56
   17:01:47.855.16-Jul-2020 4261.01 4635.59 80.07 2.00 352.47 2855.56
   17:01:48.055.16-Jul-2020 4261.01 4635.79 80.07 2.00 352.67 2855.56
   17:01:48.255.16-Jul-2020 4261.01 4635.61 80.07 2.00 352.87 2855.56
   17:01:48.455.16-Jul-2020 4261.01 4635.70 80.07 2.00 353.07 2855.56
   17:01:48.655.16-Jul-2020 4261.01 4635.70 80.07 2.00 353.27 2855.56
   17:01:48.855.16-Jul-2020 4261.01 4635.60 80.07 2.00 353.47 2855.56
   17:01:49.055.16-Jul-2020 4261.01 4635.63 80.07 2.00 353.67 2855.56
   17:01:49.255.16-Jul-2020 4261.01 4635.64 80.07 2.00 353.87 2855.56
   17:01:49.455.16-Jul-2020 4261.01 4635.63 80.07 2.00 354.07 2855.56
   17:01:49.655.16-Jul-2020 4261.01 4635.63 80.07 2.00 354.27 2855.56
   17:01:49.855.16-Jul-2020 4261.01 4635.64 80.07 2.00 354.47 2855.56
   17:01:50.055.16-Jul-2020 4261.01 4635.61 80.07 2.00 354.67 2855.56
   17:01:50.255.16-Jul-2020 4261.01 4635.61 80.07 2.00 354.87 2855.56
   17:01:50.455.16-Jul-2020 4261.01 4635.65 80.07 2.00 355.07 2855.56
   17:01:50.655.16-Jul-2020 4261.01 4635.65 80.07 2.00 355.27 2855.56
   17:01:50.855.16-Jul-2020 4261.01 4635.58 80.07 2.00 355.47 2855.56
   17:01:51.055.16-Jul-2020 4261.01 4635.61 80.07 2.00 355.67 2855.56
   17:01:51.255.16-Jul-2020 4261.01 4635.59 80.07 2.00 355.87 2855.56
   17:01:51.455.16-Jul-2020 4261.01 4635.62 80.07 2.00 356.07 2855.56
   17:01:51.656.16-Jul-2020 4261.01 4635.62 80.07 2.00 356.27 2855.56
   17:01:51.856.16-Jul-2020 4261.01 4635.64 80.07 2.00 356.47 2855.56
   17:01:52.056.16-Jul-2020 4261.01 4635.64 80.07 2.00 356.67 2855.56
   17:01:52.256.16-Jul-2020 4261.01 4634.46 80.07 2.00 356.87 2855.56
   17:01:52.456.16-Jul-2020 4261.01 4626.74 80.07 2.00 357.07 2855.56
   17:01:52.656.16-Jul-2020 4261.01 4675.83 80.07 2.00 357.27 2855.56
   17:01:52.856.16-Jul-2020 4261.01 6226.50 80.07 2.00 357.47 2855.56
   17:01:53.056.16-Jul-2020 4261.01 7063.15 80.07 2.00 357.67 2855.56
   17:01:53.256.16-Jul-2020 4261.01 7061.58 80.07 2.00 357.87 2855.56
   17:01:53.456.16-Jul-2020 4261.01 7060.83 80.07 2.00 358.07 2855.56
   17:01:53.656.16-Jul-2020 4261.01 7061.04 80.07 2.00 358.27 2855.56
   17:01:53.856.16-Jul-2020 4261.01 7073.85 80.07 2.00 358.47 2855.56
   17:01:54.056.16-Jul-2020 4261.01 7065.67 80.07 2.00 358.67 2855.56
   17:01:54.256.16-Jul-2020 4261.01 7063.27 80.07 2.00 358.87 2855.56
   17:01:54.456.16-Jul-2020 4261.01 7069.56 80.07 2.00 359.07 2855.56
   17:01:54.656.16-Jul-2020 4261.01 7069.56 80.07 2.00 359.27 2855.56
   17:01:54.856.16-Jul-2020 4261.01 7066.95 80.08 2.00 359.47 2855.56
   17:01:55.056.16-Jul-2020 4261.01 7065.05 80.08 2.00 359.67 2855.56
   17:01:55.256.16-Jul-2020 4261.01 7068.45 80.08 2.00 359.87 2855.56
   17:01:55.456.16-Jul-2020 4261.01 7077.13 80.09 2.00 360.07 2855.56
   17:01:55.656.16-Jul-2020 4261.01 7071.31 80.09 2.00 360.27 2855.56
   17:01:55.856.16-Jul-2020 4261.01 7067.20 80.09 2.00 360.47 2855.56
   17:01:56.056.16-Jul-2020 4261.01 7069.33 80.09 2.00 360.67 2855.56
   17:01:56.256.16-Jul-2020 4261.01 7083.58 80.10 2.00 360.87 2855.56
   17:01:56.457.16-Jul-2020 4261.01 7065.28 80.10 2.00 361.07 2855.56
   17:01:56.657.16-Jul-2020 4261.01 7066.11 80.10 2.00 361.27 2855.56
   17:01:56.857.16-Jul-2020 4261.01 7070.60 80.10 2.00 361.47 2855.56
   17:01:57.057.16-Jul-2020 4261.01 7070.32 80.11 2.00 361.67 2855.56
   17:01:57.257.16-Jul-2020 4261.01 7067.28 80.11 2.00 361.87 2855.56
   17:01:57.457.16-Jul-2020 4261.01 7069.58 80.11 2.00 362.07 2855.56
   17:01:57.657.16-Jul-2020 4261.01 7069.12 80.11 2.00 362.27 2855.56
   17:01:57.857.16-Jul-2020 4261.01 7070.17 80.12 2.00 362.47 2855.56
   17:01:58.057.16-Jul-2020 4261.01 7069.49 80.12 2.00 362.67 2855.56
   17:01:58.257.16-Jul-2020 4261.01 7069.78 80.12 2.00 362.87 2855.56
   17:01:58.457.16-Jul-2020 4261.01 7069.26 80.12 2.00 363.07 2855.56
   17:01:58.657.16-Jul-2020 4261.01 7069.26 80.13 2.00 363.27 2855.56
   17:01:58.857.16-Jul-2020 4261.01 7082.71 80.13 2.00 363.47 2855.56
   17:01:59.057.16-Jul-2020 4261.01 7069.45 80.13 2.00 363.67 2855.56
   17:01:59.257.16-Jul-2020 4261.01 7065.47 80.13 2.00 363.87 2855.56
   17:01:59.457.16-Jul-2020 4261.01 7068.06 80.13 2.00 364.07 2855.56
   17:01:59.657.16-Jul-2020 4261.01 7071.47 80.13 2.00 364.27 2855.56
   17:01:59.857.16-Jul-2020 4261.01 7068.38 80.14 2.00 364.48 2855.56
   17:02:00.057.16-Jul-2020 4261.01 7067.42 80.14 2.00 364.68 2855.56
   17:02:00.257.16-Jul-2020 4261.01 7068.92 80.14 2.00 364.88 2855.56
   17:02:00.457.16-Jul-2020 4261.01 7068.30 80.14 2.00 365.08 2855.56
   17:02:00.657.16-Jul-2020 4261.01 7068.30 80.14 2.00 365.28 2855.56
   17:02:00.857.16-Jul-2020 4261.01 7068.03 80.14 2.00 365.48 2855.56
   17:02:01.057.16-Jul-2020 4261.01 7069.29 80.14 2.00 365.68 2855.56
   17:02:01.258.16-Jul-2020 4261.01 7068.94 80.15 2.00 365.88 2855.56
   17:02:01.458.16-Jul-2020 4261.01 7068.06 80.13 2.00 366.08 2855.56
   17:02:01.658.16-Jul-2020 4261.01 7069.19 80.15 2.00 366.28 2855.56
   17:02:01.858.16-Jul-2020 4261.01 7069.19 80.15 2.00 366.48 2855.56
   17:02:02.058.16-Jul-2020 4261.01 7086.24 80.15 2.00 366.68 2855.56
   17:02:02.258.16-Jul-2020 4261.01 7065.88 80.15 2.00 366.88 2855.56
   17:02:02.458.16-Jul-2020 4261.01 7065.81 80.15 2.00 367.08 2855.56
   17:02:02.658.16-Jul-2020 4261.01 7065.81 80.15 2.00 367.28 2855.56
   17:02:02.858.16-Jul-2020 4261.01 7090.08 80.15 2.00 367.48 2855.56
   17:02:03.058.16-Jul-2020 4261.01 7067.78 80.15 2.00 367.68 2855.56
   17:02:03.258.16-Jul-2020 4261.01 7066.23 80.15 2.00 367.88 2855.56
