~Version Information
 VERS.                  2.0:   CWLS log ASCII Standard -VERSION 2.0
 WRAP.                   NO:   One line per depth step
~Well Information Block
#MNEM.UNIT     VALUE/NAME     DESCRIPTION
#---------     -----------    ---------------------------
 STRT.S             21:08:23 16-Jul-20: START TIME 21:08:23 16-Jul-20
 STOP.S             21:15:15 16-Jul-20: STOP TIME  21:15:15 16-Jul-20
 STEP.S                   0.00: STEP TIME
 NULL.                 -999.25: NULL VALUE
 MDS .        Operator Entered:  MAG DATA SOURCE
 UNIT.                     N/A:  LOGGING EQUIPMENT ID
 DCON.         Sperry Drilling:  DIRECTNL CONTR
 DOE .                     N/A:  DOE NUMBER
 RIG .               EastAzeri:  RIG NAME
 JOBN.        AZ-XX-0906363297:  JOB TICKET NUMB
 MWDS.                    Baku:  MWD SHOP
 SRVC.     Turan Drilling & Engineering:  CONTRACTOR
 PROV.                    Baku:  PROVINCE
 STAT.                    Baku:  STATE NAME
 REGN.                   EESSA:  REGION
 BASE.              Azerbaijan:  LOGGING EQUIPMENT BASE LOCATION
 WTYP.                Deviated:  WELL TYPE
 UWI .                     N/A:  UNIQUE WELL IDENTIFIER
 API .                     N/A:  API NUMBER
 COMP.     BP Exploration (Caspian Sea) ltd.:  COMPANY
 WELL.                    D07z:  WELL NAME
 CTRY.              Azerbaijan:  COUNTRY NAME
 SON .        AZ-XX-0906363297:  JOB NUMBER
 FLD .                     ACG:  FIELD NAME
 PDAT.          Mean Sea Level:  PERMANENT DATUM
 FTOP.          Formation Tops:  FORM TOPS DESC
 ILTD.               Lithology:  INTERP LTH DESC
 SVYD.                  Survey:  SURVEY DESC
 DMOD.             Drill Model:  DRILL MOD DESC
 HPTY.       Minimum Curvature:  HOLE POS TYPE
 NREF.                    Grid:  NORTH REFERENCE
 SPUD.               28-Jun-20:  SPUD DATE
 DATE.      18.27.12 28-Jun-20:  END TIME
 STIM.      18.27.12 28-Jun-20:  START TIME
 DMF .             Drill Floor:  DRILL MEAS FROM
 DFST.                        :  DIST FSL TEXT
 DFWT.                        :  DIST FWL TEXT
 CNTY.                        :  COUNTY
 LOC .                        :  LOCATION
 LMF .             Drill Floor:  LOG MEASURED FROM
 VSNS.m                  -7.75:  VERT SEC N/S
 VSEW.m                  -9.19:  VERT SEC E/W
 MMDE.m                   0.00:  MAGUTM CALC DEP
 AGAP.m                  43.60:  AIR GAP
 DEP .m                4058.99:  DEPTH
 APD .m                  43.60:  DEPTH ABOVE PD
 WDMS.m                 151.80:  WD ELEV
 EGL .m                   0.00:  GROUND ELEVATION
 EPD .m                   0.00:  ELEVATION
 AZTC.deg                 6.19:  AZM TOTAL CORR
 GRDC.deg                 0.27:  GRID CORRECTION
 MDEC.deg                 6.46:  MAGNETIC DECL
 MDIP.deg                59.47:  MAGNETIC DIP
 MFLD.nT              50279.00:  MAGNETIC FIELD
 GVFD.g                   1.00:  GRAVITY FIELD
 VSDR.deg               249.96:  VERT SEC DIRECT
 TDD .m                   0.00:  TOTAL DEPTH (DRILLER)
 SDEP.m                   0.00:  START DEPTH
 DFSL.m                   0.00:  DISTANCE FSL
 DFWL.m                   0.00:  DISTANCE FWL
 UTMY.m             4431880.20:  UTM Y
 UTMX.m              538763.98:  UTM X
 WHEW.m                  -9.19:  WELL HEAD E/W
 WHNS.m                  -7.75:  WELL HEAD N/S
 LONG.deg                51.45:  LONGITUDE
 LATI.deg                40.02:  LATITUDE
 TVDS.m                  43.60:  TVDSS CORRECTN
 EKB .m                  43.60:  KB ELEVATION
 EDF .m                  43.60:  DF ELEVATION
 TDL .m                 248.00:  TOTAL DEPTH (LOGGER)
 MAGU.                 1849075:  MAGUTM CHECKSUM
 VSC .                       0:  VS TO CLOSURE
~Parameter Information Block
#MNEM.UNIT       Value        Description
#---------     -----------    ---------------------------
 AV  .mps                 6.34:  Ann Velocity 
 AVMX.mps                 7.00:  Max Ann Veloc 
 AZIF.deg               260.29:  Azm, Final 
 BHAT.        Rotary Steerable:  BHA Type 
 BROT.°/30m               1.20:  Build Rotating 
 BS  .in                  8.50:  Bit Size 
 BSZ .in                  8.50:  Bit Size 
 BTPL.psig              620.00:  Bit Press Loss 
 CABU.                     Yes:  Customer Abuse 
 COMM.                     Äá„:  Run Comments 1 
 TCS .hr                 56.22:  Time Ciculation Ended 
 CV  .mps                 3.05:  Crit Velocity 
 CVMX.mps                 3.20:  Max Crit Veloc 
 DD1 .            Musa Ahmadov:  Direct Drillr 1 
 DDSV.                 iCruise:  DD Service 
 DEFF.%                  98.00:  % Det Eff 
 DLRX.°/30m               2.78:  Dogleg Rot Max 
 DLSO.°/30m               0.00:  Dogleg Oriented 
 DLSX.°/30m               0.00:  Dogleg Str Max 
 DRET.      05.20.48 16-Jul-20:  Drill End Time 
 DRST.      10.20.48 13-Jul-20:  Drill Start Tim 
 DTIM.hr                 14.25:  Time Drilling 
 EDEP.m                4326.01:  End Depth 
 ENG1.      Artemiy Matviyanov:  Engineer 1 
 ENG2.           Amrah Tahirov:  Engineer 2 
 ETIM.      22.30.00 18-Jul-20:  End Time 
 FLOI.gpm               550.00:  Flow In 
 FLON.gpm               450.00:  Flow In Min 
 FLOS.cptm                0.00:  Fluid Loss 
 FLOX.gpm               600.00:  Flow In Max 
 HFLO.                      No:  High Flow 
 HPRE.                      No:  High Pressure 
 HTEM.                      No:  High Temp 
 HYDO.m                   1.80:  Hydro Offset 
 IFIN.deg                65.41:  Inc, Final 
 IMAX.deg                65.14:  Inc Max 
 IMIN.deg                58.89:  Inc Min 
 IMND.m                4104.92:  Inc Min Depth 
 IMXD.m                4303.89:  Inc Max Depth 
 JARR.                      No:  Jarring 
 LETM.      10.20.48 17-Jul-20:  Log End Time 
 LOST.hr                     0:  Lost Rig Time 
 LSTM.      10.20.48 13-Jul-20:  Log Start Time 
 MDCL.ppm             37000.00:  Mud Chlorides 
 MDES.     Inversion Oil/Synthetic:  Mud Desc 
 DFD .sg                  1.52:  Mud Density 
 MDMN.sg                  1.52:  Dens Mud Min 
 MDMX.sg                  1.52:  Dens Mud Max 
 MOIL.                   52.70:  Run Mud Oil % 
 MOWR.                   68:32:  Run Mud OWR 
 MSND.                     0.2:  Run Mud Sand % 
 MSOL.                    21.6:  Run Mud Solids% 
 DFV .spqt               79.00:  Mud Viscosity 
 MWOD.in                  6.75:  MWD Tool OD 
 MWSI.                      No:  Serv Intrp, MWD 
 OTIM.hr                114.04:  Time Operating 
 PCON.          Wear / Scratch:  Pad Condition 
 PMAX.psia            11782.92:  Press Op, Max 
 PV  .cP                 49.00:  Mud PV 
 RUN .                     600:  Run Number 
 ROPA.m/hr               20.00:  ROP Avg 
 ROPN.m/hr               15.00:  ROP Min 
 ROPX.m/hr               22.00:  ROP Max 
 RPMA.rpm               120.00:  RPM Surface Avg 
 RPMN.rpm                90.00:  RPM Surface Min 
 RPMX.rpm               140.00:  RPM Surface Max 
 RRUN.                     600:  Rig Run Number 
 SAZI.deg               260.29:  Azm, Start 
 SDEP.m                4078.01:  Start Depth 
 SIDD.                      No:  Serv Intrp, DD 
 SINC.deg                58.89:  Inc, Start 
 SPPA.psig             4560.00:  SPP Avg 
 SPPN.psig             3600.00:  SPP Min 
 SPPX.psig             4800.00:  SPP Max 
 STIM.      10.20.48 13-Jul-20:  Start Time 
 SVCS.                 DD, MWD:  Services 
 SVER.                    9.20:  Sperry Version 
 TDAT.m                4378.01:  Tot Depth Attmp 
 TDDF.                      No:  Trip for DD 
 TDLG.m                 248.00:  Tot Depth Loggd 
 TFF .                      No:  Trip for Fail 
 TQAA.f-kp               18.00:  Torque Abs Avg 
 TQAN.f-kp               15.00:  Torque Abs Min 
 TQAX.f-kp               20.00:  Torque Abs Max 
 TRRT.°/30m               0.70:  Turn Rotating 
 MRT .                    HCIM:  Maximum Recorded Temperature 
 TTMX.degC               86.00:  Max Tool Temp 
 WBMN.klb                 3.00:  WOB Min 
 WOBA.klb                 5.00:  WOB Avg 
 WOBX.klb                 9.00:  WOB Max 
 YP  .lhf2               32.00:  Yield Point 
~Curve Information Block
#MNEM.UNIT                 API CODE     Curve Description
#---------               -----------    ---------------------------
 TIME.HHMMSS            00 000 000 000:  GT Time & Date
 GTDEPTH.m              00 000 000 000:  GT Depth
 GTPQH.psia             00 000 000 000:  GT HR Quartz Pressure
 GTTQ.degC              00 000 000 000:  GT Quartz Temperature
 GTTN.NONE              00 000 000 000:  GT Test Number
 GTET.sec               00 000 000 000:  GT Elapsed Test Time
 GTTVD.m                00 000 000 000:  GT True Vertical Depth
#Other Information
#
#WARRANTY: Halliburton will use its best efforts to furnish customers with 
#accurate information and interpretations that are part of, and incident to, the services 
#provided.  However, Halliburton cannot and does not warrant the accuracy 
#or correctness of such information and interpretations.  Under no circumstances should any 
#such information or interpretation be relied upon as the sole basis for any drilling, 
#completion, production, or financial decision or any procedure involving any risk to the 
#safety of any drilling venture, drilling rig or its crew or any other third party.  The 
#Customer has full responsibility for all drilling, completion and production operation.  
#Halliburton makes no representations or warranties, either expressed or 
#implied, including, but not limited to, the implied warranties of merchantability or fitness 
#for a particular purpose, with respect to the services rendered.  In no event will 
#Halliburton be liable for failure to obtain any particular results or for 
#any damages, including, but not limited to, indirect, special or consequential damages, 
#resulting from the use of any information or interpretation provided by Halliburton.
#
~A           TIME           GTDEPTH  GTPQH  GTTQ  GTTN  GTET   GTTVD  
   21:08:23.017.16-Jul-2020 4135.51 6834.46 77.22 7.00   0.00 2799.87
   21:08:23.217.16-Jul-2020 4135.51 6834.46 77.22 7.00   0.20 2799.87
   21:08:23.417.16-Jul-2020 4135.51 6836.53 77.22 7.00   0.40 2799.87
   21:08:23.617.16-Jul-2020 4135.51 6834.54 77.22 7.00   0.60 2799.87
   21:08:23.818.16-Jul-2020 4135.51 6849.33 77.22 7.00   0.80 2799.87
   21:08:24.018.16-Jul-2020 4135.51 6973.15 79.07 7.00   1.00 2799.87
   21:08:24.218.16-Jul-2020 4135.51 6832.35 77.22 7.00   1.20 2799.87
   21:08:24.418.16-Jul-2020 4135.51 6832.35 77.22 7.00   1.40 2799.87
   21:08:24.618.16-Jul-2020 4135.51 6832.35 77.22 7.00   1.60 2799.87
   21:08:24.818.16-Jul-2020 4135.51 6854.99 77.22 7.00   1.80 2799.87
   21:08:25.018.16-Jul-2020 4135.51 6835.90 77.22 7.00   2.00 2799.87
   21:08:25.218.16-Jul-2020 4135.51 6835.90 77.22 7.00   2.20 2799.87
   21:08:25.418.16-Jul-2020 4135.51 6845.55 77.22 7.00   2.40 2799.87
   21:08:25.619.16-Jul-2020 4135.51 6852.06 77.22 7.00   2.60 2799.87
   21:08:25.819.16-Jul-2020 4135.51 6846.56 77.22 7.00   2.80 2799.87
   21:08:26.019.16-Jul-2020 4135.51 6846.68 77.22 7.00   3.00 2799.87
   21:08:26.219.16-Jul-2020 4135.51 6849.19 77.22 7.00   3.20 2799.87
   21:08:26.419.16-Jul-2020 4135.51 6848.03 77.22 7.00   3.40 2799.87
   21:08:26.619.16-Jul-2020 4135.51 6848.54 77.22 7.00   3.60 2799.87
   21:08:26.819.16-Jul-2020 4135.51 6846.60 77.22 7.00   3.80 2799.87
   21:08:27.019.16-Jul-2020 4135.51 6850.31 77.22 7.00   4.00 2799.87
   21:08:27.219.16-Jul-2020 4135.51 6849.11 77.22 7.00   4.20 2799.87
   21:08:27.420.16-Jul-2020 4135.51 6847.14 77.22 7.00   4.40 2799.87
   21:08:27.620.16-Jul-2020 4135.51 6849.70 77.22 7.00   4.60 2799.87
   21:08:27.820.16-Jul-2020 4135.51 6862.86 77.22 7.00   4.80 2799.87
   21:08:28.020.16-Jul-2020 4135.51 6843.03 77.22 7.00   5.00 2799.87
   21:08:28.220.16-Jul-2020 4135.51 6843.03 77.22 7.00   5.20 2799.87
   21:08:28.420.16-Jul-2020 4135.51 6851.75 77.22 7.00   5.40 2799.87
   21:08:28.620.16-Jul-2020 4135.51 6849.54 77.22 7.00   5.60 2799.87
   21:08:28.820.16-Jul-2020 4135.51 6852.36 77.22 7.00   5.80 2799.87
   21:08:29.020.16-Jul-2020 4135.51 6852.07 77.22 7.00   6.00 2799.87
   21:08:29.221.16-Jul-2020 4135.51 6851.88 77.22 7.00   6.20 2799.87
   21:08:29.421.16-Jul-2020 4135.51 6853.47 77.22 7.00   6.40 2799.87
   21:08:29.621.16-Jul-2020 4135.51 6852.40 77.22 7.00   6.60 2799.87
   21:08:29.821.16-Jul-2020 4135.51 6854.62 77.22 7.00   6.80 2799.87
   21:08:30.021.16-Jul-2020 4135.51 6854.14 77.22 7.00   7.00 2799.87
   21:08:30.221.16-Jul-2020 4135.51 6854.14 77.22 7.00   7.20 2799.87
   21:08:30.421.16-Jul-2020 4135.51 6854.14 77.22 7.00   7.40 2799.87
   21:08:30.621.16-Jul-2020 4135.51 6854.98 77.22 7.00   7.60 2799.87
   21:08:30.822.16-Jul-2020 4135.51 6855.94 77.22 7.00   7.80 2799.87
   21:08:31.022.16-Jul-2020 4135.51 6855.01 77.22 7.00   8.00 2799.87
   21:08:31.222.16-Jul-2020 4135.51 6855.01 77.22 7.00   8.20 2799.87
   21:08:31.422.16-Jul-2020 4135.51 6850.81 77.22 7.00   8.40 2799.87
   21:08:31.622.16-Jul-2020 4135.51 6856.30 77.22 7.00   8.60 2799.87
   21:08:31.822.16-Jul-2020 4135.51 6858.22 77.22 7.00   8.80 2799.87
   21:08:32.022.16-Jul-2020 4135.51 6855.91 77.22 7.00   9.01 2799.87
   21:08:32.222.16-Jul-2020 4135.51 6855.91 77.22 7.00   9.21 2799.87
   21:08:32.422.16-Jul-2020 4135.51 6857.17 77.22 7.00   9.41 2799.87
   21:08:32.623.16-Jul-2020 4135.51 6858.19 77.22 7.00   9.61 2799.87
   21:08:32.823.16-Jul-2020 4135.51 6858.54 77.22 7.00   9.81 2799.87
   21:08:33.023.16-Jul-2020 4135.51 6859.78 77.22 7.00  10.01 2799.87
   21:08:33.223.16-Jul-2020 4135.51 6859.78 77.22 7.00  10.21 2799.87
   21:08:33.423.16-Jul-2020 4135.51 6859.95 77.22 7.00  10.41 2799.87
   21:08:33.623.16-Jul-2020 4135.51 6859.90 77.22 7.00  10.61 2799.87
   21:08:33.823.16-Jul-2020 4135.51 6860.09 77.22 7.00  10.81 2799.87
   21:08:34.023.16-Jul-2020 4135.51 6860.80 77.21 7.00  11.01 2799.87
   21:08:34.223.16-Jul-2020 4135.51 6860.44 77.21 7.00  11.21 2799.87
   21:08:34.424.16-Jul-2020 4135.51 6861.29 77.21 7.00  11.41 2799.87
   21:08:34.624.16-Jul-2020 4135.51 6864.88 77.21 7.00  11.61 2799.87
   21:08:34.824.16-Jul-2020 4135.51 6863.77 77.21 7.00  11.81 2799.87
   21:08:35.024.16-Jul-2020 4135.51 6863.11 77.21 7.00  12.01 2799.87
   21:08:35.224.16-Jul-2020 4135.51 6863.11 77.21 7.00  12.21 2799.87
   21:08:35.424.16-Jul-2020 4135.51 6864.67 77.21 7.00  12.41 2799.87
   21:08:35.624.16-Jul-2020 4135.51 6866.06 77.21 7.00  12.61 2799.87
   21:08:35.824.16-Jul-2020 4135.51 6867.24 77.21 7.00  12.81 2799.87
   21:08:36.024.16-Jul-2020 4135.51 6864.43 77.21 7.00  13.01 2799.87
   21:08:36.225.16-Jul-2020 4135.51 6864.43 77.21 7.00  13.21 2799.87
   21:08:36.425.16-Jul-2020 4135.51 6866.62 77.21 7.00  13.41 2799.87
   21:08:36.625.16-Jul-2020 4135.51 6873.19 77.21 7.00  13.61 2799.87
   21:08:36.825.16-Jul-2020 4135.51 6866.80 77.21 7.00  13.81 2799.87
   21:08:37.025.16-Jul-2020 4135.51 6866.79 77.21 7.00  14.01 2799.87
   21:08:37.225.16-Jul-2020 4135.51 6866.79 77.21 7.00  14.21 2799.87
   21:08:37.425.16-Jul-2020 4135.51 6868.19 77.21 7.00  14.41 2799.87
   21:08:37.625.16-Jul-2020 4135.51 6876.83 77.21 7.00  14.61 2799.87
   21:08:37.825.16-Jul-2020 4135.51 6868.75 77.21 7.00  14.81 2799.87
   21:08:38.026.16-Jul-2020 4135.51 6869.22 77.21 7.00  15.01 2799.87
   21:08:38.226.16-Jul-2020 4135.51 6885.07 77.21 7.00  15.21 2799.87
   21:08:38.426.16-Jul-2020 4135.51 6865.91 77.21 7.00  15.41 2799.87
   21:08:38.626.16-Jul-2020 4135.51 6871.31 77.21 7.00  15.61 2799.87
   21:08:38.826.16-Jul-2020 4135.51 6872.35 77.21 7.00  15.81 2799.87
   21:08:39.026.16-Jul-2020 4135.51 6869.44 77.21 7.00  16.01 2799.87
   21:08:39.226.16-Jul-2020 4135.51 6869.44 77.21 7.00  16.21 2799.87
   21:08:39.426.16-Jul-2020 4135.51 6886.18 77.21 7.00  16.41 2799.87
   21:08:39.627.16-Jul-2020 4135.51 6865.63 77.21 7.00  16.61 2799.87
   21:08:39.827.16-Jul-2020 4135.51 6872.97 77.21 7.00  16.81 2799.87
   21:08:40.027.16-Jul-2020 4135.51 6873.18 77.21 7.00  17.01 2799.87
   21:08:40.227.16-Jul-2020 4135.51 6873.18 77.21 7.00  17.21 2799.87
   21:08:40.427.16-Jul-2020 4135.51 6873.97 77.21 7.00  17.41 2799.87
   21:08:40.627.16-Jul-2020 4135.51 6872.45 77.21 7.00  17.61 2799.87
   21:08:40.827.16-Jul-2020 4135.51 6873.56 77.21 7.00  17.81 2799.87
   21:08:41.027.16-Jul-2020 4135.51 6873.12 77.21 7.00  18.01 2799.87
   21:08:41.227.16-Jul-2020 4135.51 6874.72 77.21 7.00  18.21 2799.87
   21:08:41.428.16-Jul-2020 4135.51 6874.32 77.21 7.00  18.41 2799.87
   21:08:41.628.16-Jul-2020 4135.51 6875.06 77.21 7.00  18.61 2799.87
   21:08:41.828.16-Jul-2020 4135.51 6875.50 77.21 7.00  18.81 2799.87
   21:08:42.028.16-Jul-2020 4135.51 6875.27 77.21 7.00  19.01 2799.87
   21:08:42.228.16-Jul-2020 4135.51 6883.70 77.21 7.00  19.21 2799.87
   21:08:42.428.16-Jul-2020 4135.51 6875.65 77.21 7.00  19.41 2799.87
   21:08:42.628.16-Jul-2020 4135.51 6877.17 77.21 7.00  19.61 2799.87
   21:08:42.828.16-Jul-2020 4135.51 6877.77 77.21 7.00  19.81 2799.87
   21:08:43.028.16-Jul-2020 4135.51 6877.34 77.21 7.00  20.01 2799.87
   21:08:43.229.16-Jul-2020 4135.51 6877.34 77.21 7.00  20.21 2799.87
   21:08:43.429.16-Jul-2020 4135.51 6877.37 77.21 7.00  20.41 2799.87
   21:08:43.629.16-Jul-2020 4135.51 6877.23 77.21 7.00  20.61 2799.87
   21:08:43.829.16-Jul-2020 4135.51 6877.32 77.21 7.00  20.81 2799.87
   21:08:44.029.16-Jul-2020 4135.51 6878.21 77.21 7.00  21.01 2799.87
   21:08:44.229.16-Jul-2020 4135.51 6878.21 77.21 7.00  21.21 2799.87
   21:08:44.429.16-Jul-2020 4135.51 6878.21 77.21 7.00  21.41 2799.87
   21:08:44.629.16-Jul-2020 4135.51 6877.75 77.21 7.00  21.61 2799.87
   21:08:44.829.16-Jul-2020 4135.51 6878.76 77.21 7.00  21.81 2799.87
   21:08:45.030.16-Jul-2020 4135.51 6878.18 77.21 7.00  22.01 2799.87
   21:08:45.230.16-Jul-2020 4135.51 6878.18 77.21 7.00  22.21 2799.87
   21:08:45.430.16-Jul-2020 4135.51 6886.89 77.21 7.00  22.41 2799.87
   21:08:45.630.16-Jul-2020 4135.51 6879.26 77.21 7.00  22.61 2799.87
   21:08:45.830.16-Jul-2020 4135.51 6880.16 77.21 7.00  22.81 2799.87
