~Version Information
 VERS.                  2.0:   CWLS log ASCII Standard -VERSION 2.0
 WRAP.                   NO:   One line per depth step
~Well Information Block
#MNEM.UNIT     VALUE/NAME     DESCRIPTION
#---------     -----------    ---------------------------
 STRT.S             21:08:23 16-Jul-20: START TIME 21:08:23 16-Jul-20
 STOP.S             21:15:15 16-Jul-20: STOP TIME  21:15:15 16-Jul-20
 STEP.S                   0.00: STEP TIME
 NULL.                 -999.25: NULL VALUE
 MDS .        Operator Entered:  MAG DATA SOURCE
 UNIT.                     N/A:  LOGGING EQUIPMENT ID
 DCON.         Sperry Drilling:  DIRECTNL CONTR
 DOE .                     N/A:  DOE NUMBER
 RIG .               EastAzeri:  RIG NAME
 JOBN.        AZ-XX-0906363297:  JOB TICKET NUMB
 MWDS.                    Baku:  MWD SHOP
 SRVC.     Turan Drilling & Engineering:  CONTRACTOR
 PROV.                    Baku:  PROVINCE
 STAT.                    Baku:  STATE NAME
 REGN.                   EESSA:  REGION
 BASE.              Azerbaijan:  LOGGING EQUIPMENT BASE LOCATION
 WTYP.                Deviated:  WELL TYPE
 UWI .                     N/A:  UNIQUE WELL IDENTIFIER
 API .                     N/A:  API NUMBER
 COMP.     BP Exploration (Caspian Sea) ltd.:  COMPANY
 WELL.                    D07z:  WELL NAME
 CTRY.              Azerbaijan:  COUNTRY NAME
 SON .        AZ-XX-0906363297:  JOB NUMBER
 FLD .                     ACG:  FIELD NAME
 PDAT.          Mean Sea Level:  PERMANENT DATUM
 FTOP.          Formation Tops:  FORM TOPS DESC
 ILTD.               Lithology:  INTERP LTH DESC
 SVYD.                  Survey:  SURVEY DESC
 DMOD.             Drill Model:  DRILL MOD DESC
 HPTY.       Minimum Curvature:  HOLE POS TYPE
 NREF.                    Grid:  NORTH REFERENCE
 SPUD.               28-Jun-20:  SPUD DATE
 DATE.      18.27.12 28-Jun-20:  END TIME
 STIM.      18.27.12 28-Jun-20:  START TIME
 DMF .             Drill Floor:  DRILL MEAS FROM
 DFST.                        :  DIST FSL TEXT
 DFWT.                        :  DIST FWL TEXT
 CNTY.                        :  COUNTY
 LOC .                        :  LOCATION
 LMF .             Drill Floor:  LOG MEASURED FROM
 VSNS.m                  -7.75:  VERT SEC N/S
 VSEW.m                  -9.19:  VERT SEC E/W
 MMDE.m                   0.00:  MAGUTM CALC DEP
 AGAP.m                  43.60:  AIR GAP
 DEP .m                4058.99:  DEPTH
 APD .m                  43.60:  DEPTH ABOVE PD
 WDMS.m                 151.80:  WD ELEV
 EGL .m                   0.00:  GROUND ELEVATION
 EPD .m                   0.00:  ELEVATION
 AZTC.deg                 6.19:  AZM TOTAL CORR
 GRDC.deg                 0.27:  GRID CORRECTION
 MDEC.deg                 6.46:  MAGNETIC DECL
 MDIP.deg                59.47:  MAGNETIC DIP
 MFLD.nT              50279.00:  MAGNETIC FIELD
 GVFD.g                   1.00:  GRAVITY FIELD
 VSDR.deg               249.96:  VERT SEC DIRECT
 TDD .m                   0.00:  TOTAL DEPTH (DRILLER)
 SDEP.m                   0.00:  START DEPTH
 DFSL.m                   0.00:  DISTANCE FSL
 DFWL.m                   0.00:  DISTANCE FWL
 UTMY.m             4431880.20:  UTM Y
 UTMX.m              538763.98:  UTM X
 WHEW.m                  -9.19:  WELL HEAD E/W
 WHNS.m                  -7.75:  WELL HEAD N/S
 LONG.deg                51.45:  LONGITUDE
 LATI.deg                40.02:  LATITUDE
 TVDS.m                  43.60:  TVDSS CORRECTN
 EKB .m                  43.60:  KB ELEVATION
 EDF .m                  43.60:  DF ELEVATION
 TDL .m                 248.00:  TOTAL DEPTH (LOGGER)
 MAGU.                 1849075:  MAGUTM CHECKSUM
 VSC .                       0:  VS TO CLOSURE
~Parameter Information Block
#MNEM.UNIT       Value        Description
#---------     -----------    ---------------------------
 AV  .mps                 6.34:  Ann Velocity 
 AVMX.mps                 7.00:  Max Ann Veloc 
 AZIF.deg               260.29:  Azm, Final 
 BHAT.        Rotary Steerable:  BHA Type 
 BROT.°/30m               1.20:  Build Rotating 
 BS  .in                  8.50:  Bit Size 
 BSZ .in                  8.50:  Bit Size 
 BTPL.psig              620.00:  Bit Press Loss 
 CABU.                     Yes:  Customer Abuse 
 COMM.                     Äá„:  Run Comments 1 
 TCS .hr                 56.22:  Time Ciculation Ended 
 CV  .mps                 3.05:  Crit Velocity 
 CVMX.mps                 3.20:  Max Crit Veloc 
 DD1 .            Musa Ahmadov:  Direct Drillr 1 
 DDSV.                 iCruise:  DD Service 
 DEFF.%                  98.00:  % Det Eff 
 DLRX.°/30m               2.78:  Dogleg Rot Max 
 DLSO.°/30m               0.00:  Dogleg Oriented 
 DLSX.°/30m               0.00:  Dogleg Str Max 
 DRET.      05.20.48 16-Jul-20:  Drill End Time 
 DRST.      10.20.48 13-Jul-20:  Drill Start Tim 
 DTIM.hr                 14.25:  Time Drilling 
 EDEP.m                4326.01:  End Depth 
 ENG1.      Artemiy Matviyanov:  Engineer 1 
 ENG2.           Amrah Tahirov:  Engineer 2 
 ETIM.      22.30.00 18-Jul-20:  End Time 
 FLOI.gpm               550.00:  Flow In 
 FLON.gpm               450.00:  Flow In Min 
 FLOS.cptm                0.00:  Fluid Loss 
 FLOX.gpm               600.00:  Flow In Max 
 HFLO.                      No:  High Flow 
 HPRE.                      No:  High Pressure 
 HTEM.                      No:  High Temp 
 HYDO.m                   1.80:  Hydro Offset 
 IFIN.deg                65.41:  Inc, Final 
 IMAX.deg                65.14:  Inc Max 
 IMIN.deg                58.89:  Inc Min 
 IMND.m                4104.92:  Inc Min Depth 
 IMXD.m                4303.89:  Inc Max Depth 
 JARR.                      No:  Jarring 
 LETM.      10.20.48 17-Jul-20:  Log End Time 
 LOST.hr                     0:  Lost Rig Time 
 LSTM.      10.20.48 13-Jul-20:  Log Start Time 
 MDCL.ppm             37000.00:  Mud Chlorides 
 MDES.     Inversion Oil/Synthetic:  Mud Desc 
 DFD .sg                  1.52:  Mud Density 
 MDMN.sg                  1.52:  Dens Mud Min 
 MDMX.sg                  1.52:  Dens Mud Max 
 MOIL.                   52.70:  Run Mud Oil % 
 MOWR.                   68:32:  Run Mud OWR 
 MSND.                     0.2:  Run Mud Sand % 
 MSOL.                    21.6:  Run Mud Solids% 
 DFV .spqt               79.00:  Mud Viscosity 
 MWOD.in                  6.75:  MWD Tool OD 
 MWSI.                      No:  Serv Intrp, MWD 
 OTIM.hr                114.04:  Time Operating 
 PCON.          Wear / Scratch:  Pad Condition 
 PMAX.psia            11782.92:  Press Op, Max 
 PV  .cP                 49.00:  Mud PV 
 RUN .                     600:  Run Number 
 ROPA.m/hr               20.00:  ROP Avg 
 ROPN.m/hr               15.00:  ROP Min 
 ROPX.m/hr               22.00:  ROP Max 
 RPMA.rpm               120.00:  RPM Surface Avg 
 RPMN.rpm                90.00:  RPM Surface Min 
 RPMX.rpm               140.00:  RPM Surface Max 
 RRUN.                     600:  Rig Run Number 
 SAZI.deg               260.29:  Azm, Start 
 SDEP.m                4078.01:  Start Depth 
 SIDD.                      No:  Serv Intrp, DD 
 SINC.deg                58.89:  Inc, Start 
 SPPA.psig             4560.00:  SPP Avg 
 SPPN.psig             3600.00:  SPP Min 
 SPPX.psig             4800.00:  SPP Max 
 STIM.      10.20.48 13-Jul-20:  Start Time 
 SVCS.                 DD, MWD:  Services 
 SVER.                    9.20:  Sperry Version 
 TDAT.m                4378.01:  Tot Depth Attmp 
 TDDF.                      No:  Trip for DD 
 TDLG.m                 248.00:  Tot Depth Loggd 
 TFF .                      No:  Trip for Fail 
 TQAA.f-kp               18.00:  Torque Abs Avg 
 TQAN.f-kp               15.00:  Torque Abs Min 
 TQAX.f-kp               20.00:  Torque Abs Max 
 TRRT.°/30m               0.70:  Turn Rotating 
 MRT .                    HCIM:  Maximum Recorded Temperature 
 TTMX.degC               86.00:  Max Tool Temp 
 WBMN.klb                 3.00:  WOB Min 
 WOBA.klb                 5.00:  WOB Avg 
 WOBX.klb                 9.00:  WOB Max 
 YP  .lhf2               32.00:  Yield Point 
~Curve Information Block
#MNEM.UNIT                 API CODE     Curve Description
#---------               -----------    ---------------------------
 TIME.HHMMSS            00 000 000 000:  GT Time & Date
 GTDEPTH.m              00 000 000 000:  GT Depth
 GTPQH.psia             00 000 000 000:  GT HR Quartz Pressure
 GTTQ.degC              00 000 000 000:  GT Quartz Temperature
 GTTN.NONE              00 000 000 000:  GT Test Number
 GTET.sec               00 000 000 000:  GT Elapsed Test Time
 GTTVD.m                00 000 000 000:  GT True Vertical Depth
#Other Information
#
#WARRANTY: Halliburton will use its best efforts to furnish customers with 
#accurate information and interpretations that are part of, and incident to, the services 
#provided.  However, Halliburton cannot and does not warrant the accuracy 
#or correctness of such information and interpretations.  Under no circumstances should any 
#such information or interpretation be relied upon as the sole basis for any drilling, 
#completion, production, or financial decision or any procedure involving any risk to the 
#safety of any drilling venture, drilling rig or its crew or any other third party.  The 
#Customer has full responsibility for all drilling, completion and production operation.  
#Halliburton makes no representations or warranties, either expressed or 
#implied, including, but not limited to, the implied warranties of merchantability or fitness 
#for a particular purpose, with respect to the services rendered.  In no event will 
#Halliburton be liable for failure to obtain any particular results or for 
#any damages, including, but not limited to, indirect, special or consequential damages, 
#resulting from the use of any information or interpretation provided by Halliburton.
#
~A           TIME           GTDEPTH  GTPQH  GTTQ  GTTN  GTET   GTTVD  
# ...
   21:14:08.213.16-Jul-2020 4135.51 4700.05 77.13 7.00 345.20 2799.87
   21:14:08.413.16-Jul-2020 4135.51 4700.05 77.13 7.00 345.40 2799.87
   21:14:08.613.16-Jul-2020 4135.51 4700.05 77.13 7.00 345.60 2799.87
   21:14:08.813.16-Jul-2020 4135.51 4700.07 77.13 7.00 345.80 2799.87
   21:14:09.013.16-Jul-2020 4135.51 4700.05 77.13 7.00 346.00 2799.87
   21:14:09.213.16-Jul-2020 4135.51 4700.05 77.13 7.00 346.20 2799.87
   21:14:09.413.16-Jul-2020 4135.51 4700.05 77.13 7.00 346.40 2799.87
   21:14:09.614.16-Jul-2020 4135.51 4700.04 77.13 7.00 346.60 2799.87
   21:14:09.814.16-Jul-2020 4135.51 4700.09 77.13 7.00 346.80 2799.87
   21:14:10.014.16-Jul-2020 4135.51 4699.96 77.13 7.00 347.00 2799.87
   21:14:10.214.16-Jul-2020 4135.51 4700.14 77.13 7.00 347.20 2799.87
   21:14:10.414.16-Jul-2020 4135.51 4700.14 77.13 7.00 347.40 2799.87
   21:14:10.614.16-Jul-2020 4135.51 4700.08 77.13 7.00 347.60 2799.87
   21:14:10.814.16-Jul-2020 4135.51 4700.18 77.13 7.00 347.80 2799.87
   21:14:11.014.16-Jul-2020 4135.51 4699.98 77.13 7.00 348.00 2799.87
   21:14:11.214.16-Jul-2020 4135.51 4700.09 77.13 7.00 348.20 2799.87
   21:14:11.415.16-Jul-2020 4135.51 4700.09 77.13 7.00 348.40 2799.87
   21:14:11.615.16-Jul-2020 4135.51 4700.05 77.13 7.00 348.60 2799.87
   21:14:11.815.16-Jul-2020 4135.51 4700.05 77.13 7.00 348.80 2799.87
   21:14:12.015.16-Jul-2020 4135.51 4699.98 77.13 7.00 349.00 2799.87
   21:14:12.215.16-Jul-2020 4135.51 4699.99 77.13 7.00 349.20 2799.87
   21:14:12.415.16-Jul-2020 4135.51 4699.99 77.13 7.00 349.40 2799.87
   21:14:12.615.16-Jul-2020 4135.51 4700.08 77.13 7.00 349.60 2799.87
   21:14:12.815.16-Jul-2020 4135.51 4700.02 77.13 7.00 349.80 2799.87
   21:14:13.015.16-Jul-2020 4135.51 4700.07 77.13 7.00 350.00 2799.87
   21:14:13.216.16-Jul-2020 4135.51 4700.05 77.13 7.00 350.20 2799.87
   21:14:13.416.16-Jul-2020 4135.51 4700.05 77.13 7.00 350.40 2799.87
   21:14:13.616.16-Jul-2020 4135.51 4700.06 77.13 7.00 350.60 2799.87
   21:14:13.816.16-Jul-2020 4135.51 4700.06 77.13 7.00 350.80 2799.87
   21:14:14.016.16-Jul-2020 4135.51 4700.05 77.13 7.00 351.00 2799.87
   21:14:14.216.16-Jul-2020 4135.51 4700.06 77.13 7.00 351.20 2799.87
   21:14:14.416.16-Jul-2020 4135.51 4700.06 77.13 7.00 351.40 2799.87
   21:14:14.616.16-Jul-2020 4135.51 4700.08 77.13 7.00 351.60 2799.87
   21:14:14.817.16-Jul-2020 4135.51 4700.09 77.13 7.00 351.80 2799.87
   21:14:15.017.16-Jul-2020 4135.51 4700.04 77.13 7.00 352.00 2799.87
   21:14:15.217.16-Jul-2020 4135.51 4700.06 77.13 7.00 352.20 2799.87
   21:14:15.417.16-Jul-2020 4135.51 4700.04 77.13 7.00 352.40 2799.87
   21:14:15.617.16-Jul-2020 4135.51 4700.07 77.13 7.00 352.60 2799.87
   21:14:15.817.16-Jul-2020 4135.51 4700.05 77.13 7.00 352.80 2799.87
   21:14:16.017.16-Jul-2020 4135.51 4700.05 77.13 7.00 353.00 2799.87
   21:14:16.217.16-Jul-2020 4135.51 4700.09 77.13 7.00 353.20 2799.87
   21:14:16.417.16-Jul-2020 4135.51 4700.09 77.13 7.00 353.40 2799.87
   21:14:16.618.16-Jul-2020 4135.51 4700.06 77.13 7.00 353.60 2799.87
   21:14:16.818.16-Jul-2020 4135.51 4700.05 77.13 7.00 353.80 2799.87
   21:14:17.018.16-Jul-2020 4135.51 4700.08 77.13 7.00 354.00 2799.87
   21:14:17.218.16-Jul-2020 4135.51 4700.05 77.13 7.00 354.20 2799.87
   21:14:17.418.16-Jul-2020 4135.51 4700.05 77.13 7.00 354.40 2799.87
   21:14:17.618.16-Jul-2020 4135.51 4700.08 77.14 7.00 354.60 2799.87
   21:14:17.818.16-Jul-2020 4135.51 4700.09 77.13 7.00 354.80 2799.87
   21:14:18.018.16-Jul-2020 4135.51 4700.06 77.14 7.00 355.00 2799.87
   21:14:18.218.16-Jul-2020 4135.51 4700.04 77.14 7.00 355.20 2799.87
   21:14:18.419.16-Jul-2020 4135.51 4700.04 77.14 7.00 355.40 2799.87
   21:14:18.619.16-Jul-2020 4135.51 4700.05 77.14 7.00 355.60 2799.87
   21:14:18.819.16-Jul-2020 4135.51 4700.09 77.14 7.00 355.80 2799.87
   21:14:19.019.16-Jul-2020 4135.51 4699.09 77.14 7.00 356.00 2799.87
   21:14:19.219.16-Jul-2020 4135.51 4703.99 77.14 7.00 356.20 2799.87
   21:14:19.419.16-Jul-2020 4135.51 4781.05 77.14 7.00 356.40 2799.87
   21:14:19.619.16-Jul-2020 4135.51 6901.66 77.14 7.00 356.60 2799.87
   21:14:19.819.16-Jul-2020 4135.51 6911.37 77.14 7.00 356.80 2799.87
   21:14:20.019.16-Jul-2020 4135.51 6898.10 77.14 7.00 357.00 2799.87
   21:14:20.220.16-Jul-2020 4135.51 6901.02 77.14 7.00 357.20 2799.87
   21:14:20.420.16-Jul-2020 4135.51 6901.02 77.14 7.00 357.40 2799.87
   21:14:20.620.16-Jul-2020 4135.51 6899.99 77.14 7.00 357.60 2799.87
   21:14:20.820.16-Jul-2020 4135.51 6911.40 77.14 7.00 357.80 2799.87
   21:14:21.020.16-Jul-2020 4135.51 6902.10 77.14 7.00 358.00 2799.87
   21:14:21.220.16-Jul-2020 4135.51 6905.14 77.14 7.00 358.20 2799.87
   21:14:21.420.16-Jul-2020 4135.51 6905.14 77.14 7.00 358.40 2799.87
   21:14:21.620.16-Jul-2020 4135.51 6905.91 77.15 7.00 358.60 2799.87
   21:14:21.820.16-Jul-2020 4135.51 6905.17 77.15 7.00 358.80 2799.87
   21:14:22.021.16-Jul-2020 4135.51 6905.35 77.15 7.00 359.00 2799.87
   21:14:22.221.16-Jul-2020 4135.51 6905.73 77.15 7.00 359.20 2799.87
   21:14:22.421.16-Jul-2020 4135.51 6905.73 77.16 7.00 359.40 2799.87
   21:14:22.621.16-Jul-2020 4135.51 6906.93 77.16 7.00 359.60 2799.87
   21:14:22.821.16-Jul-2020 4135.51 6903.78 77.16 7.00 359.80 2799.87
   21:14:23.021.16-Jul-2020 4135.51 6906.35 77.16 7.00 360.00 2799.87
   21:14:23.221.16-Jul-2020 4135.51 6903.79 77.17 7.00 360.20 2799.87
   21:14:23.421.16-Jul-2020 4135.51 6919.91 77.17 7.00 360.40 2799.87
   21:14:23.622.16-Jul-2020 4135.51 6900.50 77.17 7.00 360.60 2799.87
   21:14:23.822.16-Jul-2020 4135.51 6905.45 77.17 7.00 360.80 2799.87
   21:14:24.022.16-Jul-2020 4135.51 6908.76 77.18 7.00 361.00 2799.87
   21:14:24.222.16-Jul-2020 4135.51 6904.27 77.18 7.00 361.20 2799.87
   21:14:24.422.16-Jul-2020 4135.51 6904.27 77.18 7.00 361.40 2799.87
   21:14:24.622.16-Jul-2020 4135.51 6905.48 77.18 7.00 361.60 2799.87
   21:14:24.822.16-Jul-2020 4135.51 6907.98 77.18 7.00 361.81 2799.87
   21:14:25.022.16-Jul-2020 4135.51 6907.17 77.19 7.00 362.01 2799.87
   21:14:25.222.16-Jul-2020 4135.51 6907.65 77.19 7.00 362.21 2799.87
   21:14:25.423.16-Jul-2020 4135.51 6907.65 77.19 7.00 362.41 2799.87
   21:14:25.623.16-Jul-2020 4135.51 6906.53 77.19 7.00 362.61 2799.87
   21:14:25.823.16-Jul-2020 4135.51 6909.58 77.19 7.00 362.81 2799.87
   21:14:26.023.16-Jul-2020 4135.51 6905.84 77.20 7.00 363.01 2799.87
   21:14:26.223.16-Jul-2020 4135.51 6908.56 77.20 7.00 363.21 2799.87
   21:14:26.423.16-Jul-2020 4135.51 6908.56 77.20 7.00 363.41 2799.87
   21:14:26.623.16-Jul-2020 4135.51 6922.00 77.20 7.00 363.61 2799.87
   21:14:26.823.16-Jul-2020 4135.51 6902.15 77.20 7.00 363.81 2799.87
   21:14:27.023.16-Jul-2020 4135.51 6907.42 77.20 7.00 364.01 2799.87
   21:14:27.224.16-Jul-2020 4135.51 6910.55 77.20 7.00 364.21 2799.87
   21:14:27.424.16-Jul-2020 4135.51 6910.55 77.20 7.00 364.41 2799.87
   21:14:27.624.16-Jul-2020 4135.51 6911.90 77.21 7.00 364.61 2799.87
   21:14:27.824.16-Jul-2020 4135.51 6907.95 77.21 7.00 364.81 2799.87
   21:14:28.024.16-Jul-2020 4135.51 6911.29 77.21 7.00 365.01 2799.87
   21:14:28.224.16-Jul-2020 4135.51 6908.79 77.21 7.00 365.21 2799.87
   21:14:28.424.16-Jul-2020 4135.51 6908.79 77.21 7.00 365.41 2799.87
   21:14:28.624.16-Jul-2020 4135.51 6922.50 77.21 7.00 365.61 2799.87
   21:14:28.824.16-Jul-2020 4135.51 6902.62 77.21 7.00 365.81 2799.87
   21:14:29.025.16-Jul-2020 4135.51 6909.48 77.21 7.00 366.01 2799.87
   21:14:29.225.16-Jul-2020 4135.51 6907.88 77.21 7.00 366.21 2799.87
   21:14:29.425.16-Jul-2020 4135.51 6907.88 77.21 7.00 366.41 2799.87
   21:14:29.625.16-Jul-2020 4135.51 6911.08 77.21 7.00 366.61 2799.87
   21:14:29.825.16-Jul-2020 4135.51 6910.89 77.22 7.00 366.81 2799.87
   21:14:30.025.16-Jul-2020 4135.51 6908.01 77.22 7.00 367.01 2799.87
   21:14:30.225.16-Jul-2020 4135.51 6910.88 77.22 7.00 367.21 2799.87
   21:14:30.425.16-Jul-2020 4135.51 6910.88 77.22 7.00 367.41 2799.87
   21:14:30.625.16-Jul-2020 4135.51 6907.20 77.22 7.00 367.61 2799.87
   21:14:30.826.16-Jul-2020 4135.51 6910.64 77.22 7.00 367.81 2799.87
   21:14:31.026.16-Jul-2020 4135.51 6907.25 77.22 7.00 368.01 2799.87
