~Version Information
 VERS.                  2.0:   CWLS log ASCII Standard -VERSION 2.0
 WRAP.                   NO:   One line per depth step
~Well Information Block
#MNEM.UNIT     VALUE/NAME     DESCRIPTION
#---------     -----------    ---------------------------
 STRT.S             17:56:46 16-Jul-20: START TIME 17:56:46 16-Jul-20
 STOP.S             18:03:39 16-Jul-20: STOP TIME  18:03:39 16-Jul-20
 STEP.S                   0.00: STEP TIME
 NULL.                 -999.25: NULL VALUE
 MDS .        Operator Entered:  MAG DATA SOURCE
 UNIT.                     N/A:  LOGGING EQUIPMENT ID
 DCON.         Sperry Drilling:  DIRECTNL CONTR
 DOE .                     N/A:  DOE NUMBER
 RIG .               EastAzeri:  RIG NAME
 JOBN.        AZ-XX-0906363297:  JOB TICKET NUMB
 MWDS.                    Baku:  MWD SHOP
 SRVC.     Turan Drilling & Engineering:  CONTRACTOR
 PROV.                    Baku:  PROVINCE
 STAT.                    Baku:  STATE NAME
 REGN.                   EESSA:  REGION
 BASE.              Azerbaijan:  LOGGING EQUIPMENT BASE LOCATION
 WTYP.                Deviated:  WELL TYPE
 UWI .                     N/A:  UNIQUE WELL IDENTIFIER
 API .                     N/A:  API NUMBER
 COMP.     BP Exploration (Caspian Sea) ltd.:  COMPANY
 WELL.                    D07z:  WELL NAME
 CTRY.              Azerbaijan:  COUNTRY NAME
 SON .        AZ-XX-0906363297:  JOB NUMBER
 FLD .                     ACG:  FIELD NAME
 PDAT.          Mean Sea Level:  PERMANENT DATUM
 FTOP.          Formation Tops:  FORM TOPS DESC
 ILTD.               Lithology:  INTERP LTH DESC
 SVYD.                  Survey:  SURVEY DESC
 DMOD.             Drill Model:  DRILL MOD DESC
 HPTY.       Minimum Curvature:  HOLE POS TYPE
 NREF.                    Grid:  NORTH REFERENCE
 SPUD.               28-Jun-20:  SPUD DATE
 DATE.      18.27.12 28-Jun-20:  END TIME
 STIM.      18.27.12 28-Jun-20:  START TIME
 DMF .             Drill Floor:  DRILL MEAS FROM
 DFST.                        :  DIST FSL TEXT
 DFWT.                        :  DIST FWL TEXT
 CNTY.                        :  COUNTY
 LOC .                        :  LOCATION
 LMF .             Drill Floor:  LOG MEASURED FROM
 VSNS.m                  -7.75:  VERT SEC N/S
 VSEW.m                  -9.19:  VERT SEC E/W
 MMDE.m                   0.00:  MAGUTM CALC DEP
 AGAP.m                  43.60:  AIR GAP
 DEP .m                4058.99:  DEPTH
 APD .m                  43.60:  DEPTH ABOVE PD
 WDMS.m                 151.80:  WD ELEV
 EGL .m                   0.00:  GROUND ELEVATION
 EPD .m                   0.00:  ELEVATION
 AZTC.deg                 6.19:  AZM TOTAL CORR
 GRDC.deg                 0.27:  GRID CORRECTION
 MDEC.deg                 6.46:  MAGNETIC DECL
 MDIP.deg                59.47:  MAGNETIC DIP
 MFLD.nT              50279.00:  MAGNETIC FIELD
 GVFD.g                   1.00:  GRAVITY FIELD
 VSDR.deg               249.96:  VERT SEC DIRECT
 TDD .m                   0.00:  TOTAL DEPTH (DRILLER)
 SDEP.m                   0.00:  START DEPTH
 DFSL.m                   0.00:  DISTANCE FSL
 DFWL.m                   0.00:  DISTANCE FWL
 UTMY.m             4431880.20:  UTM Y
 UTMX.m              538763.98:  UTM X
 WHEW.m                  -9.19:  WELL HEAD E/W
 WHNS.m                  -7.75:  WELL HEAD N/S
 LONG.deg                51.45:  LONGITUDE
 LATI.deg                40.02:  LATITUDE
 TVDS.m                  43.60:  TVDSS CORRECTN
 EKB .m                  43.60:  KB ELEVATION
 EDF .m                  43.60:  DF ELEVATION
 TDL .m                 248.00:  TOTAL DEPTH (LOGGER)
 MAGU.                 1849075:  MAGUTM CHECKSUM
 VSC .                       0:  VS TO CLOSURE
~Parameter Information Block
#MNEM.UNIT       Value        Description
#---------     -----------    ---------------------------
 AV  .mps                 6.34:  Ann Velocity 
 AVMX.mps                 7.00:  Max Ann Veloc 
 AZIF.deg               260.29:  Azm, Final 
 BHAT.        Rotary Steerable:  BHA Type 
 BROT.°/30m               1.20:  Build Rotating 
 BS  .in                  8.50:  Bit Size 
 BSZ .in                  8.50:  Bit Size 
 BTPL.psig              620.00:  Bit Press Loss 
 CABU.                     Yes:  Customer Abuse 
 COMM.                     LqT:  Run Comments 1 
 TCS .hr                 56.22:  Time Ciculation Ended 
 CV  .mps                 3.05:  Crit Velocity 
 CVMX.mps                 3.20:  Max Crit Veloc 
 DD1 .            Musa Ahmadov:  Direct Drillr 1 
 DDSV.                 iCruise:  DD Service 
 DEFF.%                  98.00:  % Det Eff 
 DLRX.°/30m               2.78:  Dogleg Rot Max 
 DLSO.°/30m               0.00:  Dogleg Oriented 
 DLSX.°/30m               0.00:  Dogleg Str Max 
 DRET.      05.20.48 16-Jul-20:  Drill End Time 
 DRST.      10.20.48 13-Jul-20:  Drill Start Tim 
 DTIM.hr                 14.25:  Time Drilling 
 EDEP.m                4326.01:  End Depth 
 ENG1.      Artemiy Matviyanov:  Engineer 1 
 ENG2.           Amrah Tahirov:  Engineer 2 
 ETIM.      22.30.00 18-Jul-20:  End Time 
 FLOI.gpm               550.00:  Flow In 
 FLON.gpm               450.00:  Flow In Min 
 FLOS.cptm                0.00:  Fluid Loss 
 FLOX.gpm               600.00:  Flow In Max 
 HFLO.                      No:  High Flow 
 HPRE.                      No:  High Pressure 
 HTEM.                      No:  High Temp 
 HYDO.m                   1.80:  Hydro Offset 
 IFIN.deg                65.41:  Inc, Final 
 IMAX.deg                65.14:  Inc Max 
 IMIN.deg                58.89:  Inc Min 
 IMND.m                4104.92:  Inc Min Depth 
 IMXD.m                4303.89:  Inc Max Depth 
 JARR.                      No:  Jarring 
 LETM.      10.20.48 17-Jul-20:  Log End Time 
 LOST.hr                     0:  Lost Rig Time 
 LSTM.      10.20.48 13-Jul-20:  Log Start Time 
 MDCL.ppm             37000.00:  Mud Chlorides 
 MDES.     Inversion Oil/Synthetic:  Mud Desc 
 DFD .sg                  1.52:  Mud Density 
 MDMN.sg                  1.52:  Dens Mud Min 
 MDMX.sg                  1.52:  Dens Mud Max 
 MOIL.                   52.70:  Run Mud Oil % 
 MOWR.                   68:32:  Run Mud OWR 
 MSND.                     0.2:  Run Mud Sand % 
 MSOL.                    21.6:  Run Mud Solids% 
 DFV .spqt               79.00:  Mud Viscosity 
 MWOD.in                  6.75:  MWD Tool OD 
 MWSI.                      No:  Serv Intrp, MWD 
 OTIM.hr                114.04:  Time Operating 
 PCON.          Wear / Scratch:  Pad Condition 
 PMAX.psia            11782.92:  Press Op, Max 
 PV  .cP                 49.00:  Mud PV 
 RUN .                     600:  Run Number 
 ROPA.m/hr               20.00:  ROP Avg 
 ROPN.m/hr               15.00:  ROP Min 
 ROPX.m/hr               22.00:  ROP Max 
 RPMA.rpm               120.00:  RPM Surface Avg 
 RPMN.rpm                90.00:  RPM Surface Min 
 RPMX.rpm               140.00:  RPM Surface Max 
 RRUN.                     600:  Rig Run Number 
 SAZI.deg               260.29:  Azm, Start 
 SDEP.m                4078.01:  Start Depth 
 SIDD.                      No:  Serv Intrp, DD 
 SINC.deg                58.89:  Inc, Start 
 SPPA.psig             4560.00:  SPP Avg 
 SPPN.psig             3600.00:  SPP Min 
 SPPX.psig             4800.00:  SPP Max 
 STIM.      10.20.48 13-Jul-20:  Start Time 
 SVCS.                 DD, MWD:  Services 
 SVER.                    9.20:  Sperry Version 
 TDAT.m                4378.01:  Tot Depth Attmp 
 TDDF.                      No:  Trip for DD 
 TDLG.m                 248.00:  Tot Depth Loggd 
 TFF .                      No:  Trip for Fail 
 TQAA.f-kp               18.00:  Torque Abs Avg 
 TQAN.f-kp               15.00:  Torque Abs Min 
 TQAX.f-kp               20.00:  Torque Abs Max 
 TRRT.°/30m               0.70:  Turn Rotating 
 MRT .                    HCIM:  Maximum Recorded Temperature 
 TTMX.degC               86.00:  Max Tool Temp 
 WBMN.klb                 3.00:  WOB Min 
 WOBA.klb                 5.00:  WOB Avg 
 WOBX.klb                 9.00:  WOB Max 
 YP  .lhf2               32.00:  Yield Point 
~Curve Information Block
#MNEM.UNIT                 API CODE     Curve Description
#---------               -----------    ---------------------------
 TIME.HHMMSS            00 000 000 000:  GT Time & Date
 GTDEPTH.m              00 000 000 000:  GT Depth
 GTPQH.psia             00 000 000 000:  GT HR Quartz Pressure
 GTTQ.degC              00 000 000 000:  GT Quartz Temperature
 GTTN.NONE              00 000 000 000:  GT Test Number
 GTET.sec               00 000 000 000:  GT Elapsed Test Time
 GTTVD.m                00 000 000 000:  GT True Vertical Depth
#Other Information
#
#WARRANTY: Halliburton will use its best efforts to furnish customers with 
#accurate information and interpretations that are part of, and incident to, the services 
#provided.  However, Halliburton cannot and does not warrant the accuracy 
#or correctness of such information and interpretations.  Under no circumstances should any 
#such information or interpretation be relied upon as the sole basis for any drilling, 
#completion, production, or financial decision or any procedure involving any risk to the 
#safety of any drilling venture, drilling rig or its crew or any other third party.  The 
#Customer has full responsibility for all drilling, completion and production operation.  
#Halliburton makes no representations or warranties, either expressed or 
#implied, including, but not limited to, the implied warranties of merchantability or fitness 
#for a particular purpose, with respect to the services rendered.  In no event will 
#Halliburton be liable for failure to obtain any particular results or for 
#any damages, including, but not limited to, indirect, special or consequential damages, 
#resulting from the use of any information or interpretation provided by Halliburton.
#
~A           TIME           GTDEPTH  GTPQH  GTTQ  GTTN  GTET   GTTVD  
# ...
   17:59:04.350.16-Jul-2020 4229.01 4706.10 79.74 4.00 138.06 2841.98
   17:59:04.550.16-Jul-2020 4229.01 4706.10 79.74 4.00 138.26 2841.98
   17:59:04.750.16-Jul-2020 4229.01 4706.18 79.74 4.00 138.46 2841.98
   17:59:04.950.16-Jul-2020 4229.01 4706.19 79.74 4.00 138.66 2841.98
   17:59:05.150.16-Jul-2020 4229.01 4706.19 79.74 4.00 138.86 2841.98
   17:59:05.351.16-Jul-2020 4229.01 4706.19 79.74 4.00 139.06 2841.98
   17:59:05.551.16-Jul-2020 4229.01 4706.19 79.74 4.00 139.26 2841.98
   17:59:05.751.16-Jul-2020 4229.01 4706.22 79.74 4.00 139.46 2841.98
   17:59:05.951.16-Jul-2020 4229.01 4706.22 79.74 4.00 139.66 2841.98
   17:59:06.151.16-Jul-2020 4229.01 4706.19 79.74 4.00 139.86 2841.98
   17:59:06.351.16-Jul-2020 4229.01 4706.24 79.74 4.00 140.06 2841.98
   17:59:06.551.16-Jul-2020 4229.01 4706.29 79.74 4.00 140.26 2841.98
   17:59:06.751.16-Jul-2020 4229.01 4706.23 79.74 4.00 140.46 2841.98
   17:59:06.951.16-Jul-2020 4229.01 4706.20 79.74 4.00 140.66 2841.98
   17:59:07.151.16-Jul-2020 4229.01 4706.19 79.74 4.00 140.86 2841.98
   17:59:07.351.16-Jul-2020 4229.01 4706.21 79.74 4.00 141.06 2841.98
   17:59:07.552.16-Jul-2020 4229.01 4706.21 79.74 4.00 141.26 2841.98
   17:59:07.752.16-Jul-2020 4229.01 4706.19 79.74 4.00 141.46 2841.98
   17:59:07.952.16-Jul-2020 4229.01 4706.21 79.74 4.00 141.66 2841.98
   17:59:08.152.16-Jul-2020 4229.01 4706.20 79.74 4.00 141.86 2841.98
   17:59:08.352.16-Jul-2020 4229.01 4706.21 79.74 4.00 142.06 2841.98
   17:59:08.552.16-Jul-2020 4229.01 4706.21 79.74 4.00 142.26 2841.98
   17:59:08.752.16-Jul-2020 4229.01 4706.23 79.74 4.00 142.46 2841.98
   17:59:08.952.16-Jul-2020 4229.01 4706.24 79.74 4.00 142.66 2841.98
   17:59:09.152.16-Jul-2020 4229.01 4706.19 79.74 4.00 142.86 2841.98
   17:59:09.352.16-Jul-2020 4229.01 4706.19 79.74 4.00 143.06 2841.98
   17:59:09.552.16-Jul-2020 4229.01 4706.19 79.74 4.00 143.26 2841.98
   17:59:09.753.16-Jul-2020 4229.01 4706.21 79.74 4.00 143.46 2841.98
   17:59:09.953.16-Jul-2020 4229.01 4706.22 79.74 4.00 143.66 2841.98
   17:59:10.153.16-Jul-2020 4229.01 4706.26 79.74 4.00 143.86 2841.98
   17:59:10.353.16-Jul-2020 4229.01 4624.87 79.74 4.00 144.06 2841.98
   17:59:10.553.16-Jul-2020 4229.01 4599.52 79.74 4.00 144.26 2841.98
   17:59:10.753.16-Jul-2020 4229.01 4604.56 79.74 4.00 144.46 2841.98
   17:59:10.953.16-Jul-2020 4229.01 4612.93 79.74 4.00 144.66 2841.98
   17:59:11.153.16-Jul-2020 4229.01 4615.88 79.74 4.00 144.86 2841.98
   17:59:11.353.16-Jul-2020 4229.01 4611.39 79.74 4.00 145.06 2841.98
   17:59:11.553.16-Jul-2020 4229.01 4611.39 79.74 4.00 145.26 2841.98
   17:59:11.753.16-Jul-2020 4229.01 4605.40 79.74 4.00 145.46 2841.98
   17:59:11.954.16-Jul-2020 4229.01 4605.77 79.74 4.00 145.66 2841.98
   17:59:12.154.16-Jul-2020 4229.01 4605.66 79.74 4.00 145.86 2841.98
   17:59:12.354.16-Jul-2020 4229.01 4608.57 79.74 4.00 146.06 2841.98
   17:59:12.554.16-Jul-2020 4229.01 4608.57 79.74 4.00 146.26 2841.98
   17:59:12.754.16-Jul-2020 4229.01 4620.06 79.74 4.00 146.46 2841.98
   17:59:12.954.16-Jul-2020 4229.01 4619.72 79.74 4.00 146.67 2841.98
   17:59:13.154.16-Jul-2020 4229.01 4620.70 79.74 4.00 146.87 2841.98
   17:59:13.354.16-Jul-2020 4229.01 4621.34 79.74 4.00 147.07 2841.98
   17:59:13.554.16-Jul-2020 4229.01 4621.34 79.74 4.00 147.27 2841.98
   17:59:13.754.16-Jul-2020 4229.01 4620.91 79.74 4.00 147.47 2841.98
   17:59:13.954.16-Jul-2020 4229.01 4618.66 79.73 4.00 147.67 2841.98
   17:59:14.154.16-Jul-2020 4229.01 4619.29 79.73 4.00 147.87 2841.98
   17:59:14.355.16-Jul-2020 4229.01 4620.56 79.73 4.00 148.07 2841.98
   17:59:14.555.16-Jul-2020 4229.01 4618.00 79.73 4.00 148.27 2841.98
   17:59:14.755.16-Jul-2020 4229.01 4618.32 79.73 4.00 148.47 2841.98
   17:59:14.955.16-Jul-2020 4229.01 4617.68 79.73 4.00 148.67 2841.98
   17:59:15.155.16-Jul-2020 4229.01 4616.72 79.73 4.00 148.87 2841.98
   17:59:15.355.16-Jul-2020 4229.01 4617.95 79.73 4.00 149.07 2841.98
   17:59:15.555.16-Jul-2020 4229.01 4619.50 79.73 4.00 149.27 2841.98
   17:59:15.755.16-Jul-2020 4229.01 4618.52 79.73 4.00 149.47 2841.98
   17:59:15.955.16-Jul-2020 4229.01 4618.94 79.73 4.00 149.67 2841.98
   17:59:16.155.16-Jul-2020 4229.01 4617.74 79.73 4.00 149.87 2841.98
   17:59:16.355.16-Jul-2020 4229.01 4618.31 79.73 4.00 150.07 2841.98
   17:59:16.556.16-Jul-2020 4229.01 4618.31 79.73 4.00 150.27 2841.98
   17:59:16.756.16-Jul-2020 4229.01 4618.91 79.73 4.00 150.47 2841.98
   17:59:16.956.16-Jul-2020 4229.01 4617.08 79.73 4.00 150.67 2841.98
   17:59:17.156.16-Jul-2020 4229.01 4620.02 79.73 4.00 150.87 2841.98
   17:59:17.356.16-Jul-2020 4229.01 4618.82 79.73 4.00 151.07 2841.98
   17:59:17.556.16-Jul-2020 4229.01 4618.82 79.73 4.00 151.27 2841.98
   17:59:17.756.16-Jul-2020 4229.01 4620.44 79.73 4.00 151.47 2841.98
   17:59:17.956.16-Jul-2020 4229.01 4619.09 79.73 4.00 151.67 2841.98
   17:59:18.156.16-Jul-2020 4229.01 4618.16 79.73 4.00 151.87 2841.98
   17:59:18.356.16-Jul-2020 4229.01 4615.87 79.73 4.00 152.07 2841.98
   17:59:18.556.16-Jul-2020 4229.01 4619.71 79.73 4.00 152.27 2841.98
   17:59:18.757.16-Jul-2020 4229.01 4620.65 79.73 4.00 152.47 2841.98
   17:59:18.957.16-Jul-2020 4229.01 4621.25 79.73 4.00 152.67 2841.98
   17:59:19.157.16-Jul-2020 4229.01 4620.22 79.73 4.00 152.87 2841.98
   17:59:19.357.16-Jul-2020 4229.01 4617.43 79.73 4.00 153.07 2841.98
   17:59:19.557.16-Jul-2020 4229.01 4617.43 79.73 4.00 153.27 2841.98
   17:59:19.757.16-Jul-2020 4229.01 4621.73 79.73 4.00 153.47 2841.98
   17:59:19.957.16-Jul-2020 4229.01 4620.30 79.73 4.00 153.67 2841.98
   17:59:20.157.16-Jul-2020 4229.01 4621.40 79.73 4.00 153.87 2841.98
   17:59:20.357.16-Jul-2020 4229.01 4685.81 79.73 4.00 154.07 2841.98
   17:59:20.557.16-Jul-2020 4229.01 4685.81 79.73 4.00 154.27 2841.98
   17:59:20.757.16-Jul-2020 4229.01 4705.54 79.73 4.00 154.47 2841.98
   17:59:20.958.16-Jul-2020 4229.01 4705.58 79.73 4.00 154.67 2841.98
   17:59:21.158.16-Jul-2020 4229.01 4705.72 79.73 4.00 154.87 2841.98
   17:59:21.358.16-Jul-2020 4229.01 4705.73 79.73 4.00 155.07 2841.98
   17:59:21.558.16-Jul-2020 4229.01 4705.73 79.73 4.00 155.27 2841.98
   17:59:21.758.16-Jul-2020 4229.01 4705.74 79.73 4.00 155.47 2841.98
   17:59:21.958.16-Jul-2020 4229.01 4705.81 79.73 4.00 155.67 2841.98
   17:59:22.158.16-Jul-2020 4229.01 4705.82 79.73 4.00 155.87 2841.98
   17:59:22.358.16-Jul-2020 4229.01 4705.88 79.73 4.00 156.07 2841.98
   17:59:22.558.16-Jul-2020 4229.01 4705.87 79.73 4.00 156.27 2841.98
   17:59:22.758.16-Jul-2020 4229.01 4705.85 79.73 4.00 156.47 2841.98
   17:59:22.958.16-Jul-2020 4229.01 4705.91 79.73 4.00 156.67 2841.98
   17:59:23.158.16-Jul-2020 4229.01 4705.91 79.73 4.00 156.87 2841.98
   17:59:23.359.16-Jul-2020 4229.01 4705.94 79.73 4.00 157.07 2841.98
   17:59:23.559.16-Jul-2020 4229.01 4705.94 79.73 4.00 157.27 2841.98
   17:59:23.759.16-Jul-2020 4229.01 4706.15 79.73 4.00 157.47 2841.98
   17:59:23.959.16-Jul-2020 4229.01 4705.80 79.73 4.00 157.67 2841.98
   17:59:24.159.16-Jul-2020 4229.01 4706.07 79.73 4.00 157.87 2841.98
   17:59:24.359.16-Jul-2020 4229.01 4705.96 79.73 4.00 158.07 2841.98
   17:59:24.559.16-Jul-2020 4229.01 4705.96 79.73 4.00 158.27 2841.98
   17:59:24.759.16-Jul-2020 4229.01 4706.00 79.73 4.00 158.47 2841.98
   17:59:24.959.16-Jul-2020 4229.01 4706.00 79.73 4.00 158.67 2841.98
   17:59:25.159.16-Jul-2020 4229.01 4706.02 79.73 4.00 158.87 2841.98
   17:59:25.359.16-Jul-2020 4229.01 4705.99 79.73 4.00 159.07 2841.98
   17:59:25.560.16-Jul-2020 4229.01 4705.99 79.73 4.00 159.27 2841.98
   17:59:25.760.16-Jul-2020 4229.01 4706.03 79.73 4.00 159.47 2841.98
   17:59:25.960.16-Jul-2020 4229.01 4706.00 79.73 4.00 159.67 2841.98
   17:59:26.160.16-Jul-2020 4229.01 4706.03 79.73 4.00 159.87 2841.98
   17:59:26.360.16-Jul-2020 4229.01 4706.03 79.73 4.00 160.07 2841.98
   17:59:26.560.16-Jul-2020 4229.01 4706.07 79.73 4.00 160.27 2841.98
   17:59:26.760.16-Jul-2020 4229.01 4706.03 79.73 4.00 160.47 2841.98
   17:59:26.960.16-Jul-2020 4229.01 4706.20 79.73 4.00 160.67 2841.98
   17:59:27.160.16-Jul-2020 4229.01 4705.92 79.73 4.00 160.87 2841.98
