~Version Information
 VERS.                  2.0:   CWLS log ASCII Standard -VERSION 2.0
 WRAP.                   NO:   One line per depth step
~Well Information Block
#MNEM.UNIT     VALUE/NAME     DESCRIPTION
#---------     -----------    ---------------------------
 STRT.S             16:06:05 16-Jul-20: START TIME 16:06:05 16-Jul-20
 STOP.S             16:12:59 16-Jul-20: STOP TIME  16:12:59 16-Jul-20
 STEP.S                   0.00: STEP TIME
 NULL.                 -999.25: NULL VALUE
 MDS .        Operator Entered:  MAG DATA SOURCE
 UNIT.                     N/A:  LOGGING EQUIPMENT ID
 DCON.         Sperry Drilling:  DIRECTNL CONTR
 DOE .                     N/A:  DOE NUMBER
 RIG .               EastAzeri:  RIG NAME
 JOBN.        AZ-XX-0906363297:  JOB TICKET NUMB
 MWDS.                    Baku:  MWD SHOP
 SRVC.     Turan Drilling & Engineering:  CONTRACTOR
 PROV.                    Baku:  PROVINCE
 STAT.                    Baku:  STATE NAME
 REGN.                   EESSA:  REGION
 BASE.              Azerbaijan:  LOGGING EQUIPMENT BASE LOCATION
 WTYP.                Deviated:  WELL TYPE
 UWI .                     N/A:  UNIQUE WELL IDENTIFIER
 API .                     N/A:  API NUMBER
 COMP.     BP Exploration (Caspian Sea) ltd.:  COMPANY
 WELL.                    D07z:  WELL NAME
 CTRY.              Azerbaijan:  COUNTRY NAME
 SON .        AZ-XX-0906363297:  JOB NUMBER
 FLD .                     ACG:  FIELD NAME
 PDAT.          Mean Sea Level:  PERMANENT DATUM
 FTOP.          Formation Tops:  FORM TOPS DESC
 ILTD.               Lithology:  INTERP LTH DESC
 SVYD.                  Survey:  SURVEY DESC
 DMOD.             Drill Model:  DRILL MOD DESC
 HPTY.       Minimum Curvature:  HOLE POS TYPE
 NREF.                    Grid:  NORTH REFERENCE
 SPUD.               28-Jun-20:  SPUD DATE
 DATE.      18.27.12 28-Jun-20:  END TIME
 STIM.      18.27.12 28-Jun-20:  START TIME
 DMF .             Drill Floor:  DRILL MEAS FROM
 DFST.                        :  DIST FSL TEXT
 DFWT.                        :  DIST FWL TEXT
 CNTY.                        :  COUNTY
 LOC .                        :  LOCATION
 LMF .             Drill Floor:  LOG MEASURED FROM
 VSNS.m                  -7.75:  VERT SEC N/S
 VSEW.m                  -9.19:  VERT SEC E/W
 MMDE.m                   0.00:  MAGUTM CALC DEP
 AGAP.m                  43.60:  AIR GAP
 DEP .m                4058.99:  DEPTH
 APD .m                  43.60:  DEPTH ABOVE PD
 WDMS.m                 151.80:  WD ELEV
 EGL .m                   0.00:  GROUND ELEVATION
 EPD .m                   0.00:  ELEVATION
 AZTC.deg                 6.19:  AZM TOTAL CORR
 GRDC.deg                 0.27:  GRID CORRECTION
 MDEC.deg                 6.46:  MAGNETIC DECL
 MDIP.deg                59.47:  MAGNETIC DIP
 MFLD.nT              50279.00:  MAGNETIC FIELD
 GVFD.g                   1.00:  GRAVITY FIELD
 VSDR.deg               249.96:  VERT SEC DIRECT
 TDD .m                   0.00:  TOTAL DEPTH (DRILLER)
 SDEP.m                   0.00:  START DEPTH
 DFSL.m                   0.00:  DISTANCE FSL
 DFWL.m                   0.00:  DISTANCE FWL
 UTMY.m             4431880.20:  UTM Y
 UTMX.m              538763.98:  UTM X
 WHEW.m                  -9.19:  WELL HEAD E/W
 WHNS.m                  -7.75:  WELL HEAD N/S
 LONG.deg                51.45:  LONGITUDE
 LATI.deg                40.02:  LATITUDE
 TVDS.m                  43.60:  TVDSS CORRECTN
 EKB .m                  43.60:  KB ELEVATION
 EDF .m                  43.60:  DF ELEVATION
 TDL .m                 248.00:  TOTAL DEPTH (LOGGER)
 MAGU.                 1849075:  MAGUTM CHECKSUM
 VSC .                       0:  VS TO CLOSURE
~Parameter Information Block
#MNEM.UNIT       Value        Description
#---------     -----------    ---------------------------
 AV  .mps                 6.34:  Ann Velocity 
 AVMX.mps                 7.00:  Max Ann Veloc 
 AZIF.deg               260.29:  Azm, Final 
 BHAT.        Rotary Steerable:  BHA Type 
 BROT.°/30m               1.20:  Build Rotating 
 BS  .in                  8.50:  Bit Size 
 BSZ .in                  8.50:  Bit Size 
 BTPL.psig              620.00:  Bit Press Loss 
 CABU.                     Yes:  Customer Abuse 
 COMM.                     l&q:  Run Comments 1 
 TCS .hr                 56.22:  Time Ciculation Ended 
 CV  .mps                 3.05:  Crit Velocity 
 CVMX.mps                 3.20:  Max Crit Veloc 
 DD1 .            Musa Ahmadov:  Direct Drillr 1 
 DDSV.                 iCruise:  DD Service 
 DEFF.%                  98.00:  % Det Eff 
 DLRX.°/30m               2.78:  Dogleg Rot Max 
 DLSO.°/30m               0.00:  Dogleg Oriented 
 DLSX.°/30m               0.00:  Dogleg Str Max 
 DRET.      05.20.48 16-Jul-20:  Drill End Time 
 DRST.      10.20.48 13-Jul-20:  Drill Start Tim 
 DTIM.hr                 14.25:  Time Drilling 
 EDEP.m                4326.01:  End Depth 
 ENG1.      Artemiy Matviyanov:  Engineer 1 
 ENG2.           Amrah Tahirov:  Engineer 2 
 ETIM.      22.30.00 18-Jul-20:  End Time 
 FLOI.gpm               550.00:  Flow In 
 FLON.gpm               450.00:  Flow In Min 
 FLOS.cptm                0.00:  Fluid Loss 
 FLOX.gpm               600.00:  Flow In Max 
 HFLO.                      No:  High Flow 
 HPRE.                      No:  High Pressure 
 HTEM.                      No:  High Temp 
 HYDO.m                   1.80:  Hydro Offset 
 IFIN.deg                65.41:  Inc, Final 
 IMAX.deg                65.14:  Inc Max 
 IMIN.deg                58.89:  Inc Min 
 IMND.m                4104.92:  Inc Min Depth 
 IMXD.m                4303.89:  Inc Max Depth 
 JARR.                      No:  Jarring 
 LETM.      10.20.48 17-Jul-20:  Log End Time 
 LOST.hr                     0:  Lost Rig Time 
 LSTM.      10.20.48 13-Jul-20:  Log Start Time 
 MDCL.ppm             37000.00:  Mud Chlorides 
 MDES.     Inversion Oil/Synthetic:  Mud Desc 
 DFD .sg                  1.52:  Mud Density 
 MDMN.sg                  1.52:  Dens Mud Min 
 MDMX.sg                  1.52:  Dens Mud Max 
 MOIL.                   52.70:  Run Mud Oil % 
 MOWR.                   68:32:  Run Mud OWR 
 MSND.                     0.2:  Run Mud Sand % 
 MSOL.                    21.6:  Run Mud Solids% 
 DFV .spqt               79.00:  Mud Viscosity 
 MWOD.in                  6.75:  MWD Tool OD 
 MWSI.                      No:  Serv Intrp, MWD 
 OTIM.hr                114.04:  Time Operating 
 PCON.          Wear / Scratch:  Pad Condition 
 PMAX.psia            11782.92:  Press Op, Max 
 PV  .cP                 49.00:  Mud PV 
 RUN .                     600:  Run Number 
 ROPA.m/hr               20.00:  ROP Avg 
 ROPN.m/hr               15.00:  ROP Min 
 ROPX.m/hr               22.00:  ROP Max 
 RPMA.rpm               120.00:  RPM Surface Avg 
 RPMN.rpm                90.00:  RPM Surface Min 
 RPMX.rpm               140.00:  RPM Surface Max 
 RRUN.                     600:  Rig Run Number 
 SAZI.deg               260.29:  Azm, Start 
 SDEP.m                4078.01:  Start Depth 
 SIDD.                      No:  Serv Intrp, DD 
 SINC.deg                58.89:  Inc, Start 
 SPPA.psig             4560.00:  SPP Avg 
 SPPN.psig             3600.00:  SPP Min 
 SPPX.psig             4800.00:  SPP Max 
 STIM.      10.20.48 13-Jul-20:  Start Time 
 SVCS.                 DD, MWD:  Services 
 SVER.                    9.20:  Sperry Version 
 TDAT.m                4378.01:  Tot Depth Attmp 
 TDDF.                      No:  Trip for DD 
 TDLG.m                 248.00:  Tot Depth Loggd 
 TFF .                      No:  Trip for Fail 
 TQAA.f-kp               18.00:  Torque Abs Avg 
 TQAN.f-kp               15.00:  Torque Abs Min 
 TQAX.f-kp               20.00:  Torque Abs Max 
 TRRT.°/30m               0.70:  Turn Rotating 
 MRT .                    HCIM:  Maximum Recorded Temperature 
 TTMX.degC               86.00:  Max Tool Temp 
 WBMN.klb                 3.00:  WOB Min 
 WOBA.klb                 5.00:  WOB Avg 
 WOBX.klb                 9.00:  WOB Max 
 YP  .lhf2               32.00:  Yield Point 
~Curve Information Block
#MNEM.UNIT                 API CODE     Curve Description
#---------               -----------    ---------------------------
 TIME.HHMMSS            00 000 000 000:  GT Time & Date
 GTDEPTH.m              00 000 000 000:  GT Depth
 GTPQH.psia             00 000 000 000:  GT HR Quartz Pressure
 GTTQ.degC              00 000 000 000:  GT Quartz Temperature
 GTTN.NONE              00 000 000 000:  GT Test Number
 GTET.sec               00 000 000 000:  GT Elapsed Test Time
 GTTVD.m                00 000 000 000:  GT True Vertical Depth
#Other Information
#
#WARRANTY: Halliburton will use its best efforts to furnish customers with 
#accurate information and interpretations that are part of, and incident to, the services 
#provided.  However, Halliburton cannot and does not warrant the accuracy 
#or correctness of such information and interpretations.  Under no circumstances should any 
#such information or interpretation be relied upon as the sole basis for any drilling, 
#completion, production, or financial decision or any procedure involving any risk to the 
#safety of any drilling venture, drilling rig or its crew or any other third party.  The 
#Customer has full responsibility for all drilling, completion and production operation.  
#Halliburton makes no representations or warranties, either expressed or 
#implied, including, but not limited to, the implied warranties of merchantability or fitness 
#for a particular purpose, with respect to the services rendered.  In no event will 
#Halliburton be liable for failure to obtain any particular results or for 
#any damages, including, but not limited to, indirect, special or consequential damages, 
#resulting from the use of any information or interpretation provided by Halliburton.
#
~A           TIME           GTDEPTH  GTPQH  GTTQ  GTTN  GTET   GTTVD  
# ...
   16:06:51.776.16-Jul-2020 4280.51 4066.57 80.13 1.00  46.01 2863.78
   16:06:51.976.16-Jul-2020 4280.51 4073.58 80.13 1.00  46.21 2863.78
   16:06:52.176.16-Jul-2020 4280.51 4058.24 80.13 1.00  46.41 2863.78
   16:06:52.376.16-Jul-2020 4280.51 4052.51 80.13 1.00  46.61 2863.78
   16:06:52.576.16-Jul-2020 4280.51 4047.73 80.13 1.00  46.81 2863.78
   16:06:52.776.16-Jul-2020 4280.51 4055.67 80.12 1.00  47.01 2863.78
   16:06:52.976.16-Jul-2020 4280.51 4055.67 80.12 1.00  47.21 2863.78
   16:06:53.177.16-Jul-2020 4280.51 4044.74 80.12 1.00  47.41 2863.78
   16:06:53.377.16-Jul-2020 4280.51 4093.75 80.12 1.00  47.61 2863.78
   16:06:53.577.16-Jul-2020 4280.51 4300.16 80.12 1.00  47.81 2863.78
   16:06:53.777.16-Jul-2020 4280.51 4333.21 80.12 1.00  48.01 2863.78
   16:06:53.977.16-Jul-2020 4280.51 4333.21 80.12 1.00  48.21 2863.78
   16:06:54.177.16-Jul-2020 4280.51 4336.87 80.12 1.00  48.41 2863.78
   16:06:54.377.16-Jul-2020 4280.51 4337.31 80.12 1.00  48.61 2863.78
   16:06:54.577.16-Jul-2020 4280.51 4337.63 80.12 1.00  48.81 2863.78
   16:06:54.777.16-Jul-2020 4280.51 4338.33 80.12 1.00  49.01 2863.78
   16:06:54.977.16-Jul-2020 4280.51 4338.12 80.11 1.00  49.21 2863.78
   16:06:55.177.16-Jul-2020 4280.51 4338.37 80.11 1.00  49.41 2863.78
   16:06:55.377.16-Jul-2020 4280.51 4339.02 80.11 1.00  49.61 2863.78
   16:06:55.577.16-Jul-2020 4280.51 4338.68 80.11 1.00  49.81 2863.78
   16:06:55.777.16-Jul-2020 4280.51 4338.87 80.11 1.00  50.01 2863.78
   16:06:55.977.16-Jul-2020 4280.51 4339.23 80.11 1.00  50.21 2863.78
   16:06:56.177.16-Jul-2020 4280.51 4339.35 80.11 1.00  50.41 2863.78
   16:06:56.377.16-Jul-2020 4280.51 4339.22 80.11 1.00  50.61 2863.78
   16:06:56.577.16-Jul-2020 4280.51 4339.41 80.11 1.00  50.81 2863.78
   16:06:56.777.16-Jul-2020 4280.51 4339.56 80.11 1.00  51.01 2863.78
   16:06:56.977.16-Jul-2020 4280.51 4339.36 80.11 1.00  51.21 2863.78
   16:06:57.177.16-Jul-2020 4280.51 4340.03 80.11 1.00  51.41 2863.78
   16:06:57.377.16-Jul-2020 4280.51 4339.75 80.11 1.00  51.61 2863.78
   16:06:57.577.16-Jul-2020 4280.51 4339.77 80.11 1.00  51.81 2863.78
   16:06:57.777.16-Jul-2020 4280.51 4339.83 80.11 1.00  52.01 2863.78
   16:06:57.977.16-Jul-2020 4280.51 4339.93 80.11 1.00  52.21 2863.78
   16:06:58.178.16-Jul-2020 4280.51 4339.97 80.11 1.00  52.41 2863.78
   16:06:58.378.16-Jul-2020 4280.51 4340.09 80.12 1.00  52.61 2863.78
   16:06:58.578.16-Jul-2020 4280.51 4340.08 80.12 1.00  52.81 2863.78
   16:06:58.778.16-Jul-2020 4280.51 4340.16 80.12 1.00  53.01 2863.78
   16:06:58.978.16-Jul-2020 4280.51 4340.21 80.12 1.00  53.21 2863.78
   16:06:59.178.16-Jul-2020 4280.51 4340.21 80.12 1.00  53.41 2863.78
   16:06:59.378.16-Jul-2020 4280.51 4340.29 80.12 1.00  53.61 2863.78
   16:06:59.578.16-Jul-2020 4280.51 4340.29 80.12 1.00  53.81 2863.78
   16:06:59.778.16-Jul-2020 4280.51 4340.31 80.12 1.00  54.01 2863.78
   16:06:59.978.16-Jul-2020 4280.51 4340.60 80.12 1.00  54.21 2863.78
   16:07:00.178.16-Jul-2020 4280.51 4340.23 80.12 1.00  54.41 2863.78
   16:07:00.378.16-Jul-2020 4280.51 4340.45 80.12 1.00  54.61 2863.78
   16:07:00.578.16-Jul-2020 4280.51 4340.42 80.12 1.00  54.81 2863.78
   16:07:00.778.16-Jul-2020 4280.51 4340.44 80.12 1.00  55.01 2863.78
   16:07:00.978.16-Jul-2020 4280.51 4340.44 80.12 1.00  55.21 2863.78
   16:07:01.178.16-Jul-2020 4280.51 4340.54 80.12 1.00  55.41 2863.78
   16:07:01.378.16-Jul-2020 4280.51 4340.60 80.12 1.00  55.61 2863.78
   16:07:01.578.16-Jul-2020 4280.51 4340.62 80.12 1.00  55.81 2863.78
   16:07:01.778.16-Jul-2020 4280.51 4340.61 80.12 1.00  56.01 2863.78
   16:07:01.978.16-Jul-2020 4280.51 4340.61 80.12 1.00  56.21 2863.78
   16:07:02.178.16-Jul-2020 4280.51 4340.70 80.12 1.00  56.41 2863.78
   16:07:02.378.16-Jul-2020 4280.51 4340.71 80.12 1.00  56.61 2863.78
   16:07:02.578.16-Jul-2020 4280.51 4340.72 80.12 1.00  56.81 2863.78
   16:07:02.778.16-Jul-2020 4280.51 4340.73 80.12 1.00  57.01 2863.78
   16:07:02.979.16-Jul-2020 4280.51 4341.03 80.12 1.00  57.21 2863.78
   16:07:03.179.16-Jul-2020 4280.51 4340.68 80.12 1.00  57.41 2863.78
   16:07:03.379.16-Jul-2020 4280.51 4340.70 80.12 1.00  57.61 2863.78
   16:07:03.579.16-Jul-2020 4280.51 4340.83 80.12 1.00  57.81 2863.78
   16:07:03.779.16-Jul-2020 4280.51 4340.80 80.12 1.00  58.01 2863.78
   16:07:03.979.16-Jul-2020 4280.51 4340.82 80.12 1.00  58.21 2863.78
   16:07:04.179.16-Jul-2020 4280.51 4340.73 80.12 1.00  58.41 2863.78
   16:07:04.379.16-Jul-2020 4280.51 4341.09 80.13 1.00  58.61 2863.78
   16:07:04.579.16-Jul-2020 4280.51 4340.80 80.13 1.00  58.81 2863.78
   16:07:04.779.16-Jul-2020 4280.51 4340.96 80.13 1.00  59.01 2863.78
   16:07:04.979.16-Jul-2020 4280.51 4340.96 80.13 1.00  59.21 2863.78
   16:07:05.179.16-Jul-2020 4280.51 4340.83 80.13 1.00  59.41 2863.78
   16:07:05.379.16-Jul-2020 4280.51 4341.17 80.13 1.00  59.61 2863.78
   16:07:05.579.16-Jul-2020 4280.51 4340.89 80.13 1.00  59.81 2863.78
   16:07:05.779.16-Jul-2020 4280.51 4341.04 80.13 1.00  60.01 2863.78
   16:07:05.979.16-Jul-2020 4280.51 4341.04 80.13 1.00  60.21 2863.78
   16:07:06.179.16-Jul-2020 4280.51 4340.94 80.13 1.00  60.41 2863.78
   16:07:06.379.16-Jul-2020 4280.51 4341.06 80.13 1.00  60.61 2863.78
   16:07:06.579.16-Jul-2020 4280.51 4341.28 80.13 1.00  60.81 2863.78
   16:07:06.779.16-Jul-2020 4280.51 4340.94 80.13 1.00  61.01 2863.78
   16:07:06.979.16-Jul-2020 4280.51 4341.14 80.13 1.00  61.21 2863.78
   16:07:07.179.16-Jul-2020 4280.51 4341.08 80.13 1.00  61.41 2863.78
   16:07:07.379.16-Jul-2020 4280.51 4341.11 80.13 1.00  61.61 2863.78
   16:07:07.579.16-Jul-2020 4280.51 4341.12 80.13 1.00  61.81 2863.78
   16:07:07.780.16-Jul-2020 4280.51 4341.16 80.13 1.00  62.01 2863.78
   16:07:07.980.16-Jul-2020 4280.51 4341.16 80.13 1.00  62.21 2863.78
   16:07:08.180.16-Jul-2020 4280.51 4341.19 80.13 1.00  62.41 2863.78
   16:07:08.380.16-Jul-2020 4280.51 4341.27 80.13 1.00  62.61 2863.78
   16:07:08.580.16-Jul-2020 4280.51 4341.15 80.13 1.00  62.81 2863.78
   16:07:08.780.16-Jul-2020 4280.51 4341.19 80.13 1.00  63.01 2863.78
   16:07:08.980.16-Jul-2020 4280.51 4341.23 80.13 1.00  63.21 2863.78
   16:07:09.180.16-Jul-2020 4280.51 4341.41 80.13 1.00  63.41 2863.78
   16:07:09.380.16-Jul-2020 4280.51 4341.13 80.13 1.00  63.61 2863.78
   16:07:09.580.16-Jul-2020 4280.51 4341.27 80.13 1.00  63.81 2863.78
   16:07:09.780.16-Jul-2020 4280.51 4341.28 80.13 1.00  64.01 2863.78
   16:07:09.980.16-Jul-2020 4280.51 4341.26 80.13 1.00  64.21 2863.78
   16:07:10.180.16-Jul-2020 4280.51 4341.26 80.13 1.00  64.41 2863.78
   16:07:10.380.16-Jul-2020 4280.51 4341.35 80.13 1.00  64.61 2863.78
   16:07:10.580.16-Jul-2020 4280.51 4341.34 80.13 1.00  64.81 2863.78
   16:07:10.780.16-Jul-2020 4280.51 4341.31 80.13 1.00  65.01 2863.78
   16:07:10.980.16-Jul-2020 4280.51 4341.34 80.13 1.00  65.21 2863.78
   16:07:11.180.16-Jul-2020 4280.51 4341.37 80.13 1.00  65.41 2863.78
   16:07:11.380.16-Jul-2020 4280.51 4341.41 80.13 1.00  65.61 2863.78
   16:07:11.580.16-Jul-2020 4280.51 4341.36 80.13 1.00  65.81 2863.78
   16:07:11.780.16-Jul-2020 4280.51 4341.38 80.13 1.00  66.01 2863.78
   16:07:11.980.16-Jul-2020 4280.51 4341.41 80.13 1.00  66.21 2863.78
   16:07:12.180.16-Jul-2020 4280.51 4341.35 80.13 1.00  66.41 2863.78
   16:07:12.380.16-Jul-2020 4280.51 4341.62 80.13 1.00  66.61 2863.78
   16:07:12.580.16-Jul-2020 4280.51 4341.28 80.13 1.00  66.81 2863.78
   16:07:12.781.16-Jul-2020 4280.51 4341.51 80.13 1.00  67.01 2863.78
   16:07:12.981.16-Jul-2020 4280.51 4341.51 80.13 1.00  67.21 2863.78
   16:07:13.181.16-Jul-2020 4280.51 4341.32 80.13 1.00  67.41 2863.78
   16:07:13.381.16-Jul-2020 4280.51 4341.41 80.13 1.00  67.61 2863.78
   16:07:13.581.16-Jul-2020 4280.51 4341.70 80.13 1.00  67.81 2863.78
   16:07:13.781.16-Jul-2020 4280.51 4341.70 80.13 1.00  68.01 2863.78
   16:07:13.981.16-Jul-2020 4280.51 4341.34 80.13 1.00  68.21 2863.78
   16:07:14.181.16-Jul-2020 4280.51 4341.34 80.13 1.00  68.41 2863.78
   16:07:14.381.16-Jul-2020 4280.51 4341.45 80.13 1.00  68.61 2863.78
   16:07:14.581.16-Jul-2020 4280.51 4341.46 80.13 1.00  68.81 2863.78
