~Version Information
 VERS.                  2.0:   CWLS log ASCII Standard -VERSION 2.0
 WRAP.                   NO:   One line per depth step
~Well Information Block
#MNEM.UNIT     VALUE/NAME     DESCRIPTION
#---------     -----------    ---------------------------
 STRT.S             17:17:21 16-Jul-20: START TIME 17:17:21 16-Jul-20
 STOP.S             17:24:07 16-Jul-20: STOP TIME  17:24:07 16-Jul-20
 STEP.S                   0.00: STEP TIME
 NULL.                 -999.25: NULL VALUE
 MDS .        Operator Entered:  MAG DATA SOURCE
 UNIT.                     N/A:  LOGGING EQUIPMENT ID
 DCON.         Sperry Drilling:  DIRECTNL CONTR
 DOE .                     N/A:  DOE NUMBER
 RIG .               EastAzeri:  RIG NAME
 JOBN.        AZ-XX-0906363297:  JOB TICKET NUMB
 MWDS.                    Baku:  MWD SHOP
 SRVC.     Turan Drilling & Engineering:  CONTRACTOR
 PROV.                    Baku:  PROVINCE
 STAT.                    Baku:  STATE NAME
 REGN.                   EESSA:  REGION
 BASE.              Azerbaijan:  LOGGING EQUIPMENT BASE LOCATION
 WTYP.                Deviated:  WELL TYPE
 UWI .                     N/A:  UNIQUE WELL IDENTIFIER
 API .                     N/A:  API NUMBER
 COMP.     BP Exploration (Caspian Sea) ltd.:  COMPANY
 WELL.                    D07z:  WELL NAME
 CTRY.              Azerbaijan:  COUNTRY NAME
 SON .        AZ-XX-0906363297:  JOB NUMBER
 FLD .                     ACG:  FIELD NAME
 PDAT.          Mean Sea Level:  PERMANENT DATUM
 FTOP.          Formation Tops:  FORM TOPS DESC
 ILTD.               Lithology:  INTERP LTH DESC
 SVYD.                  Survey:  SURVEY DESC
 DMOD.             Drill Model:  DRILL MOD DESC
 HPTY.       Minimum Curvature:  HOLE POS TYPE
 NREF.                    Grid:  NORTH REFERENCE
 SPUD.               28-Jun-20:  SPUD DATE
 DATE.      18.27.12 28-Jun-20:  END TIME
 STIM.      18.27.12 28-Jun-20:  START TIME
 DMF .             Drill Floor:  DRILL MEAS FROM
 DFST.                        :  DIST FSL TEXT
 DFWT.                        :  DIST FWL TEXT
 CNTY.                        :  COUNTY
 LOC .                        :  LOCATION
 LMF .             Drill Floor:  LOG MEASURED FROM
 VSNS.m                  -7.75:  VERT SEC N/S
 VSEW.m                  -9.19:  VERT SEC E/W
 MMDE.m                   0.00:  MAGUTM CALC DEP
 AGAP.m                  43.60:  AIR GAP
 DEP .m                4058.99:  DEPTH
 APD .m                  43.60:  DEPTH ABOVE PD
 WDMS.m                 151.80:  WD ELEV
 EGL .m                   0.00:  GROUND ELEVATION
 EPD .m                   0.00:  ELEVATION
 AZTC.deg                 6.19:  AZM TOTAL CORR
 GRDC.deg                 0.27:  GRID CORRECTION
 MDEC.deg                 6.46:  MAGNETIC DECL
 MDIP.deg                59.47:  MAGNETIC DIP
 MFLD.nT              50279.00:  MAGNETIC FIELD
 GVFD.g                   1.00:  GRAVITY FIELD
 VSDR.deg               249.96:  VERT SEC DIRECT
 TDD .m                   0.00:  TOTAL DEPTH (DRILLER)
 SDEP.m                   0.00:  START DEPTH
 DFSL.m                   0.00:  DISTANCE FSL
 DFWL.m                   0.00:  DISTANCE FWL
 UTMY.m             4431880.20:  UTM Y
 UTMX.m              538763.98:  UTM X
 WHEW.m                  -9.19:  WELL HEAD E/W
 WHNS.m                  -7.75:  WELL HEAD N/S
 LONG.deg                51.45:  LONGITUDE
 LATI.deg                40.02:  LATITUDE
 TVDS.m                  43.60:  TVDSS CORRECTN
 EKB .m                  43.60:  KB ELEVATION
 EDF .m                  43.60:  DF ELEVATION
 TDL .m                 248.00:  TOTAL DEPTH (LOGGER)
 MAGU.                 1849075:  MAGUTM CHECKSUM
 VSC .                       0:  VS TO CLOSURE
~Parameter Information Block
#MNEM.UNIT       Value        Description
#---------     -----------    ---------------------------
 AV  .mps                 6.34:  Ann Velocity 
 AVMX.mps                 7.00:  Max Ann Veloc 
 AZIF.deg               260.29:  Azm, Final 
 BHAT.        Rotary Steerable:  BHA Type 
 BROT.°/30m               1.20:  Build Rotating 
 BS  .in                  8.50:  Bit Size 
 BSZ .in                  8.50:  Bit Size 
 BTPL.psig              620.00:  Bit Press Loss 
 CABU.                     Yes:  Customer Abuse 
 COMM.                     fb:  Run Comments 1 
 TCS .hr                 56.22:  Time Ciculation Ended 
 CV  .mps                 3.05:  Crit Velocity 
 CVMX.mps                 3.20:  Max Crit Veloc 
 DD1 .            Musa Ahmadov:  Direct Drillr 1 
 DDSV.                 iCruise:  DD Service 
 DEFF.%                  98.00:  % Det Eff 
 DLRX.°/30m               2.78:  Dogleg Rot Max 
 DLSO.°/30m               0.00:  Dogleg Oriented 
 DLSX.°/30m               0.00:  Dogleg Str Max 
 DRET.      05.20.48 16-Jul-20:  Drill End Time 
 DRST.      10.20.48 13-Jul-20:  Drill Start Tim 
 DTIM.hr                 14.25:  Time Drilling 
 EDEP.m                4326.01:  End Depth 
 ENG1.      Artemiy Matviyanov:  Engineer 1 
 ENG2.           Amrah Tahirov:  Engineer 2 
 ETIM.      22.30.00 18-Jul-20:  End Time 
 FLOI.gpm               550.00:  Flow In 
 FLON.gpm               450.00:  Flow In Min 
 FLOS.cptm                0.00:  Fluid Loss 
 FLOX.gpm               600.00:  Flow In Max 
 HFLO.                      No:  High Flow 
 HPRE.                      No:  High Pressure 
 HTEM.                      No:  High Temp 
 HYDO.m                   1.80:  Hydro Offset 
 IFIN.deg                65.41:  Inc, Final 
 IMAX.deg                65.14:  Inc Max 
 IMIN.deg                58.89:  Inc Min 
 IMND.m                4104.92:  Inc Min Depth 
 IMXD.m                4303.89:  Inc Max Depth 
 JARR.                      No:  Jarring 
 LETM.      10.20.48 17-Jul-20:  Log End Time 
 LOST.hr                     0:  Lost Rig Time 
 LSTM.      10.20.48 13-Jul-20:  Log Start Time 
 MDCL.ppm             37000.00:  Mud Chlorides 
 MDES.     Inversion Oil/Synthetic:  Mud Desc 
 DFD .sg                  1.52:  Mud Density 
 MDMN.sg                  1.52:  Dens Mud Min 
 MDMX.sg                  1.52:  Dens Mud Max 
 MOIL.                   52.70:  Run Mud Oil % 
 MOWR.                   68:32:  Run Mud OWR 
 MSND.                     0.2:  Run Mud Sand % 
 MSOL.                    21.6:  Run Mud Solids% 
 DFV .spqt               79.00:  Mud Viscosity 
 MWOD.in                  6.75:  MWD Tool OD 
 MWSI.                      No:  Serv Intrp, MWD 
 OTIM.hr                114.04:  Time Operating 
 PCON.          Wear / Scratch:  Pad Condition 
 PMAX.psia            11782.92:  Press Op, Max 
 PV  .cP                 49.00:  Mud PV 
 RUN .                     600:  Run Number 
 ROPA.m/hr               20.00:  ROP Avg 
 ROPN.m/hr               15.00:  ROP Min 
 ROPX.m/hr               22.00:  ROP Max 
 RPMA.rpm               120.00:  RPM Surface Avg 
 RPMN.rpm                90.00:  RPM Surface Min 
 RPMX.rpm               140.00:  RPM Surface Max 
 RRUN.                     600:  Rig Run Number 
 SAZI.deg               260.29:  Azm, Start 
 SDEP.m                4078.01:  Start Depth 
 SIDD.                      No:  Serv Intrp, DD 
 SINC.deg                58.89:  Inc, Start 
 SPPA.psig             4560.00:  SPP Avg 
 SPPN.psig             3600.00:  SPP Min 
 SPPX.psig             4800.00:  SPP Max 
 STIM.      10.20.48 13-Jul-20:  Start Time 
 SVCS.                 DD, MWD:  Services 
 SVER.                    9.20:  Sperry Version 
 TDAT.m                4378.01:  Tot Depth Attmp 
 TDDF.                      No:  Trip for DD 
 TDLG.m                 248.00:  Tot Depth Loggd 
 TFF .                      No:  Trip for Fail 
 TQAA.f-kp               18.00:  Torque Abs Avg 
 TQAN.f-kp               15.00:  Torque Abs Min 
 TQAX.f-kp               20.00:  Torque Abs Max 
 TRRT.°/30m               0.70:  Turn Rotating 
 MRT .                    HCIM:  Maximum Recorded Temperature 
 TTMX.degC               86.00:  Max Tool Temp 
 WBMN.klb                 3.00:  WOB Min 
 WOBA.klb                 5.00:  WOB Avg 
 WOBX.klb                 9.00:  WOB Max 
 YP  .lhf2               32.00:  Yield Point 
~Curve Information Block
#MNEM.UNIT                 API CODE     Curve Description
#---------               -----------    ---------------------------
 TIME.HHMMSS            00 000 000 000:  GT Time & Date
 GTDEPTH.m              00 000 000 000:  GT Depth
 GTPQH.psia             00 000 000 000:  GT HR Quartz Pressure
 GTTQ.degC              00 000 000 000:  GT Quartz Temperature
 GTTN.NONE              00 000 000 000:  GT Test Number
 GTET.sec               00 000 000 000:  GT Elapsed Test Time
 GTTVD.m                00 000 000 000:  GT True Vertical Depth
#Other Information
#
#WARRANTY: Halliburton will use its best efforts to furnish customers with 
#accurate information and interpretations that are part of, and incident to, the services 
#provided.  However, Halliburton cannot and does not warrant the accuracy 
#or correctness of such information and interpretations.  Under no circumstances should any 
#such information or interpretation be relied upon as the sole basis for any drilling, 
#completion, production, or financial decision or any procedure involving any risk to the 
#safety of any drilling venture, drilling rig or its crew or any other third party.  The 
#Customer has full responsibility for all drilling, completion and production operation.  
#Halliburton makes no representations or warranties, either expressed or 
#implied, including, but not limited to, the implied warranties of merchantability or fitness 
#for a particular purpose, with respect to the services rendered.  In no event will 
#Halliburton be liable for failure to obtain any particular results or for 
#any damages, including, but not limited to, indirect, special or consequential damages, 
#resulting from the use of any information or interpretation provided by Halliburton.
#
~A           TIME           GTDEPTH  GTPQH  GTTQ  GTTN  GTET   GTTVD  
# ...
   17:18:07.656.16-Jul-2020 4251.01  992.25 79.79 3.00  46.01 2851.33
   17:18:07.857.16-Jul-2020 4251.01  992.25 79.79 3.00  46.21 2851.33
   17:18:08.057.16-Jul-2020 4251.01  967.52 79.79 3.00  46.41 2851.33
   17:18:08.257.16-Jul-2020 4251.01  960.09 79.78 3.00  46.61 2851.33
   17:18:08.457.16-Jul-2020 4251.01  950.00 79.78 3.00  46.81 2851.33
   17:18:08.657.16-Jul-2020 4251.01  962.61 79.77 3.00  47.01 2851.33
   17:18:08.857.16-Jul-2020 4251.01  962.61 79.77 3.00  47.21 2851.33
   17:18:09.057.16-Jul-2020 4251.01 1084.92 79.77 3.00  47.41 2851.33
   17:18:09.257.16-Jul-2020 4251.01 1143.29 79.76 3.00  47.61 2851.33
   17:18:09.457.16-Jul-2020 4251.01 1196.52 79.76 3.00  47.81 2851.33
   17:18:09.657.16-Jul-2020 4251.01 1246.85 79.75 3.00  48.01 2851.33
   17:18:09.857.16-Jul-2020 4251.01 1246.85 79.75 3.00  48.21 2851.33
   17:18:10.057.16-Jul-2020 4251.01 1342.39 79.75 3.00  48.41 2851.33
   17:18:10.257.16-Jul-2020 4251.01 1388.27 79.74 3.00  48.61 2851.33
   17:18:10.457.16-Jul-2020 4251.01 1432.70 79.74 3.00  48.81 2851.33
   17:18:10.657.16-Jul-2020 4251.01 1475.78 79.73 3.00  49.01 2851.33
   17:18:10.857.16-Jul-2020 4251.01 1517.85 79.73 3.00  49.21 2851.33
   17:18:11.057.16-Jul-2020 4251.01 1559.49 79.73 3.00  49.41 2851.33
   17:18:11.257.16-Jul-2020 4251.01 1600.14 79.73 3.00  49.61 2851.33
   17:18:11.457.16-Jul-2020 4251.01 1640.20 79.72 3.00  49.81 2851.33
   17:18:11.657.16-Jul-2020 4251.01 1679.36 79.72 3.00  50.01 2851.33
   17:18:11.857.16-Jul-2020 4251.01 1679.36 79.72 3.00  50.21 2851.33
   17:18:12.057.16-Jul-2020 4251.01 1754.77 79.72 3.00  50.41 2851.33
   17:18:12.257.16-Jul-2020 4251.01 1793.55 79.71 3.00  50.61 2851.33
   17:18:12.457.16-Jul-2020 4251.01 1832.01 79.71 3.00  50.81 2851.33
   17:18:12.657.16-Jul-2020 4251.01 1869.34 79.71 3.00  51.01 2851.33
   17:18:12.858.16-Jul-2020 4251.01 1869.34 79.71 3.00  51.21 2851.33
   17:18:13.058.16-Jul-2020 4251.01 1945.00 79.71 3.00  51.41 2851.33
   17:18:13.258.16-Jul-2020 4251.01 1982.67 79.71 3.00  51.61 2851.33
   17:18:13.458.16-Jul-2020 4251.01 2018.92 79.70 3.00  51.81 2851.33
   17:18:13.658.16-Jul-2020 4251.01 2053.85 79.70 3.00  52.01 2851.33
   17:18:13.858.16-Jul-2020 4251.01 2088.67 79.70 3.00  52.21 2851.33
   17:18:14.058.16-Jul-2020 4251.01 2124.59 79.70 3.00  52.41 2851.33
   17:18:14.258.16-Jul-2020 4251.01 2160.02 79.70 3.00  52.61 2851.33
   17:18:14.458.16-Jul-2020 4251.01 2193.86 79.70 3.00  52.81 2851.33
   17:18:14.658.16-Jul-2020 4251.01 2226.89 79.70 3.00  53.01 2851.33
   17:18:14.858.16-Jul-2020 4251.01 2259.11 79.70 3.00  53.21 2851.33
   17:18:15.058.16-Jul-2020 4251.01 2290.09 79.70 3.00  53.41 2851.33
   17:18:15.258.16-Jul-2020 4251.01 2323.72 79.70 3.00  53.61 2851.33
   17:18:15.458.16-Jul-2020 4251.01 2357.77 79.70 3.00  53.81 2851.33
   17:18:15.658.16-Jul-2020 4251.01 2390.93 79.70 3.00  54.01 2851.33
   17:18:15.858.16-Jul-2020 4251.01 2390.93 79.70 3.00  54.21 2851.33
   17:18:16.058.16-Jul-2020 4251.01 2454.97 79.70 3.00  54.41 2851.33
   17:18:16.258.16-Jul-2020 4251.01 2486.41 79.71 3.00  54.61 2851.33
   17:18:16.458.16-Jul-2020 4251.01 2518.02 79.71 3.00  54.81 2851.33
   17:18:16.658.16-Jul-2020 4251.01 2549.16 79.71 3.00  55.01 2851.33
   17:18:16.858.16-Jul-2020 4251.01 2549.16 79.71 3.00  55.21 2851.33
   17:18:17.058.16-Jul-2020 4251.01 2610.73 79.71 3.00  55.41 2851.33
   17:18:17.258.16-Jul-2020 4251.01 2641.14 79.71 3.00  55.61 2851.33
   17:18:17.458.16-Jul-2020 4251.01 2670.66 79.71 3.00  55.81 2851.33
   17:18:17.659.16-Jul-2020 4251.01 2699.50 79.71 3.00  56.01 2851.33
   17:18:17.859.16-Jul-2020 4251.01 2699.50 79.71 3.00  56.21 2851.33
   17:18:18.059.16-Jul-2020 4251.01 2763.99 79.72 3.00  56.41 2851.33
   17:18:18.259.16-Jul-2020 4251.01 2795.12 79.72 3.00  56.61 2851.33
   17:18:18.459.16-Jul-2020 4251.01 2825.28 79.72 3.00  56.81 2851.33
   17:18:18.659.16-Jul-2020 4251.01 2549.16 79.71 3.00  57.01 2851.33
   17:18:18.859.16-Jul-2020 4251.01 2854.66 79.72 3.00  57.21 2851.33
   17:18:19.059.16-Jul-2020 4251.01 2854.66 79.72 3.00  57.41 2851.33
   17:18:19.259.16-Jul-2020 4251.01 2940.71 79.73 3.00  57.61 2851.33
   17:18:19.459.16-Jul-2020 4251.01 2966.55 79.73 3.00  57.81 2851.33
   17:18:19.659.16-Jul-2020 4251.01 2993.32 79.73 3.00  58.01 2851.33
   17:18:19.859.16-Jul-2020 4251.01 2993.32 79.73 3.00  58.21 2851.33
   17:18:20.059.16-Jul-2020 4251.01 3046.68 79.73 3.00  58.41 2851.33
   17:18:20.259.16-Jul-2020 4251.01 3074.03 79.73 3.00  58.61 2851.33
   17:18:20.459.16-Jul-2020 4251.01 3101.09 79.74 3.00  58.81 2851.33
   17:18:20.659.16-Jul-2020 4251.01 3128.36 79.74 3.00  59.01 2851.33
   17:18:20.859.16-Jul-2020 4251.01 3128.36 79.74 3.00  59.21 2851.33
   17:18:21.059.16-Jul-2020 4251.01 3189.51 79.74 3.00  59.41 2851.33
   17:18:21.259.16-Jul-2020 4251.01 3219.84 79.74 3.00  59.61 2851.33
   17:18:21.459.16-Jul-2020 4251.01 3249.31 79.75 3.00  59.81 2851.33
   17:18:21.659.16-Jul-2020 4251.01 3277.36 79.75 3.00  60.01 2851.33
   17:18:21.859.16-Jul-2020 4251.01 3277.36 79.75 3.00  60.21 2851.33
   17:18:22.059.16-Jul-2020 4251.01 3334.32 79.75 3.00  60.41 2851.33
   17:18:22.259.16-Jul-2020 4251.01 3364.41 79.75 3.00  60.61 2851.33
   17:18:22.460.16-Jul-2020 4251.01 3393.28 79.75 3.00  60.81 2851.33
   17:18:22.660.16-Jul-2020 4251.01 3420.61 79.76 3.00  61.01 2851.33
   17:18:22.860.16-Jul-2020 4251.01 3446.79 79.76 3.00  61.21 2851.33
   17:18:23.060.16-Jul-2020 4251.01 3474.83 79.76 3.00  61.41 2851.33
   17:18:23.260.16-Jul-2020 4251.01 3504.86 79.76 3.00  61.61 2851.33
   17:18:23.460.16-Jul-2020 4251.01 3533.18 79.76 3.00  61.81 2851.33
   17:18:23.660.16-Jul-2020 4251.01 3559.92 79.77 3.00  62.01 2851.33
   17:18:23.860.16-Jul-2020 4251.01 3559.92 79.77 3.00  62.21 2851.33
   17:18:24.060.16-Jul-2020 4251.01 3611.79 79.77 3.00  62.41 2851.33
   17:18:24.260.16-Jul-2020 4251.01 3639.00 79.77 3.00  62.61 2851.33
   17:18:24.460.16-Jul-2020 4251.01 3668.67 79.77 3.00  62.81 2851.33
   17:18:24.660.16-Jul-2020 4251.01 3697.11 79.77 3.00  63.01 2851.33
   17:18:24.860.16-Jul-2020 4251.01 3697.11 79.77 3.00  63.21 2851.33
   17:18:25.060.16-Jul-2020 4251.01 3749.91 79.78 3.00  63.41 2851.33
   17:18:25.260.16-Jul-2020 4251.01 3775.20 79.78 3.00  63.61 2851.33
   17:18:25.460.16-Jul-2020 4251.01 3800.04 79.78 3.00  63.81 2851.33
   17:18:25.660.16-Jul-2020 4251.01 3824.92 79.78 3.00  64.01 2851.33
   17:18:25.860.16-Jul-2020 4251.01 3824.92 79.79 3.00  64.21 2851.33
   17:18:26.060.16-Jul-2020 4251.01 3874.46 79.79 3.00  64.41 2851.33
   17:18:26.260.16-Jul-2020 4251.01 3899.11 79.79 3.00  64.61 2851.33
   17:18:26.460.16-Jul-2020 4251.01 3923.61 79.79 3.00  64.81 2851.33
   17:18:26.660.16-Jul-2020 4251.01 3947.80 79.79 3.00  65.01 2851.33
   17:18:26.860.16-Jul-2020 4251.01 3971.16 79.79 3.00  65.21 2851.33
   17:18:27.060.16-Jul-2020 4251.01 3998.08 79.80 3.00  65.41 2851.33
   17:18:27.260.16-Jul-2020 4251.01 4023.60 79.80 3.00  65.61 2851.33
   17:18:27.461.16-Jul-2020 4251.01 4048.04 79.80 3.00  65.81 2851.33
   17:18:27.661.16-Jul-2020 4251.01 4071.26 79.80 3.00  66.01 2851.33
   17:18:27.861.16-Jul-2020 4251.01 4094.35 79.80 3.00  66.21 2851.33
   17:18:28.061.16-Jul-2020 4251.01 4116.55 79.80 3.00  66.41 2851.33
   17:18:28.261.16-Jul-2020 4251.01 4138.33 79.81 3.00  66.61 2851.33
   17:18:28.461.16-Jul-2020 4251.01 4159.67 79.81 3.00  66.81 2851.33
   17:18:28.661.16-Jul-2020 4251.01 4180.56 79.81 3.00  67.01 2851.33
   17:18:28.861.16-Jul-2020 4251.01 4180.56 79.81 3.00  67.21 2851.33
   17:18:29.061.16-Jul-2020 4251.01 4221.46 79.81 3.00  67.41 2851.33
   17:18:29.261.16-Jul-2020 4251.01 4241.24 79.81 3.00  67.61 2851.33
   17:18:29.461.16-Jul-2020 4251.01 4260.37 79.81 3.00  67.81 2851.33
   17:18:29.661.16-Jul-2020 4251.01 4279.43 79.82 3.00  68.01 2851.33
   17:18:29.861.16-Jul-2020 4251.01 4298.44 79.82 3.00  68.21 2851.33
   17:18:30.061.16-Jul-2020 4251.01 4319.26 79.82 3.00  68.41 2851.33
   17:18:30.261.16-Jul-2020 4251.01 4340.16 79.82 3.00  68.61 2851.33
   17:18:30.461.16-Jul-2020 4251.01 4359.21 79.82 3.00  68.81 2851.33
