~Version Information
 VERS.                  2.0:   CWLS log ASCII Standard -VERSION 2.0
 WRAP.                   NO:   One line per depth step
~Well Information Block
#MNEM.UNIT     VALUE/NAME     DESCRIPTION
#---------     -----------    ---------------------------
 STRT.S             17:17:21 16-Jul-20: START TIME 17:17:21 16-Jul-20
 STOP.S             17:24:07 16-Jul-20: STOP TIME  17:24:07 16-Jul-20
 STEP.S                   0.00: STEP TIME
 NULL.                 -999.25: NULL VALUE
 MDS .        Operator Entered:  MAG DATA SOURCE
 UNIT.                     N/A:  LOGGING EQUIPMENT ID
 DCON.         Sperry Drilling:  DIRECTNL CONTR
 DOE .                     N/A:  DOE NUMBER
 RIG .               EastAzeri:  RIG NAME
 JOBN.        AZ-XX-0906363297:  JOB TICKET NUMB
 MWDS.                    Baku:  MWD SHOP
 SRVC.     Turan Drilling & Engineering:  CONTRACTOR
 PROV.                    Baku:  PROVINCE
 STAT.                    Baku:  STATE NAME
 REGN.                   EESSA:  REGION
 BASE.              Azerbaijan:  LOGGING EQUIPMENT BASE LOCATION
 WTYP.                Deviated:  WELL TYPE
 UWI .                     N/A:  UNIQUE WELL IDENTIFIER
 API .                     N/A:  API NUMBER
 COMP.     BP Exploration (Caspian Sea) ltd.:  COMPANY
 WELL.                    D07z:  WELL NAME
 CTRY.              Azerbaijan:  COUNTRY NAME
 SON .        AZ-XX-0906363297:  JOB NUMBER
 FLD .                     ACG:  FIELD NAME
 PDAT.          Mean Sea Level:  PERMANENT DATUM
 FTOP.          Formation Tops:  FORM TOPS DESC
 ILTD.               Lithology:  INTERP LTH DESC
 SVYD.                  Survey:  SURVEY DESC
 DMOD.             Drill Model:  DRILL MOD DESC
 HPTY.       Minimum Curvature:  HOLE POS TYPE
 NREF.                    Grid:  NORTH REFERENCE
 SPUD.               28-Jun-20:  SPUD DATE
 DATE.      18.27.12 28-Jun-20:  END TIME
 STIM.      18.27.12 28-Jun-20:  START TIME
 DMF .             Drill Floor:  DRILL MEAS FROM
 DFST.                        :  DIST FSL TEXT
 DFWT.                        :  DIST FWL TEXT
 CNTY.                        :  COUNTY
 LOC .                        :  LOCATION
 LMF .             Drill Floor:  LOG MEASURED FROM
 VSNS.m                  -7.75:  VERT SEC N/S
 VSEW.m                  -9.19:  VERT SEC E/W
 MMDE.m                   0.00:  MAGUTM CALC DEP
 AGAP.m                  43.60:  AIR GAP
 DEP .m                4058.99:  DEPTH
 APD .m                  43.60:  DEPTH ABOVE PD
 WDMS.m                 151.80:  WD ELEV
 EGL .m                   0.00:  GROUND ELEVATION
 EPD .m                   0.00:  ELEVATION
 AZTC.deg                 6.19:  AZM TOTAL CORR
 GRDC.deg                 0.27:  GRID CORRECTION
 MDEC.deg                 6.46:  MAGNETIC DECL
 MDIP.deg                59.47:  MAGNETIC DIP
 MFLD.nT              50279.00:  MAGNETIC FIELD
 GVFD.g                   1.00:  GRAVITY FIELD
 VSDR.deg               249.96:  VERT SEC DIRECT
 TDD .m                   0.00:  TOTAL DEPTH (DRILLER)
 SDEP.m                   0.00:  START DEPTH
 DFSL.m                   0.00:  DISTANCE FSL
 DFWL.m                   0.00:  DISTANCE FWL
 UTMY.m             4431880.20:  UTM Y
 UTMX.m              538763.98:  UTM X
 WHEW.m                  -9.19:  WELL HEAD E/W
 WHNS.m                  -7.75:  WELL HEAD N/S
 LONG.deg                51.45:  LONGITUDE
 LATI.deg                40.02:  LATITUDE
 TVDS.m                  43.60:  TVDSS CORRECTN
 EKB .m                  43.60:  KB ELEVATION
 EDF .m                  43.60:  DF ELEVATION
 TDL .m                 248.00:  TOTAL DEPTH (LOGGER)
 MAGU.                 1849075:  MAGUTM CHECKSUM
 VSC .                       0:  VS TO CLOSURE
~Parameter Information Block
#MNEM.UNIT       Value        Description
#---------     -----------    ---------------------------
 AV  .mps                 6.34:  Ann Velocity 
 AVMX.mps                 7.00:  Max Ann Veloc 
 AZIF.deg               260.29:  Azm, Final 
 BHAT.        Rotary Steerable:  BHA Type 
 BROT.°/30m               1.20:  Build Rotating 
 BS  .in                  8.50:  Bit Size 
 BSZ .in                  8.50:  Bit Size 
 BTPL.psig              620.00:  Bit Press Loss 
 CABU.                     Yes:  Customer Abuse 
 COMM.                     fb:  Run Comments 1 
 TCS .hr                 56.22:  Time Ciculation Ended 
 CV  .mps                 3.05:  Crit Velocity 
 CVMX.mps                 3.20:  Max Crit Veloc 
 DD1 .            Musa Ahmadov:  Direct Drillr 1 
 DDSV.                 iCruise:  DD Service 
 DEFF.%                  98.00:  % Det Eff 
 DLRX.°/30m               2.78:  Dogleg Rot Max 
 DLSO.°/30m               0.00:  Dogleg Oriented 
 DLSX.°/30m               0.00:  Dogleg Str Max 
 DRET.      05.20.48 16-Jul-20:  Drill End Time 
 DRST.      10.20.48 13-Jul-20:  Drill Start Tim 
 DTIM.hr                 14.25:  Time Drilling 
 EDEP.m                4326.01:  End Depth 
 ENG1.      Artemiy Matviyanov:  Engineer 1 
 ENG2.           Amrah Tahirov:  Engineer 2 
 ETIM.      22.30.00 18-Jul-20:  End Time 
 FLOI.gpm               550.00:  Flow In 
 FLON.gpm               450.00:  Flow In Min 
 FLOS.cptm                0.00:  Fluid Loss 
 FLOX.gpm               600.00:  Flow In Max 
 HFLO.                      No:  High Flow 
 HPRE.                      No:  High Pressure 
 HTEM.                      No:  High Temp 
 HYDO.m                   1.80:  Hydro Offset 
 IFIN.deg                65.41:  Inc, Final 
 IMAX.deg                65.14:  Inc Max 
 IMIN.deg                58.89:  Inc Min 
 IMND.m                4104.92:  Inc Min Depth 
 IMXD.m                4303.89:  Inc Max Depth 
 JARR.                      No:  Jarring 
 LETM.      10.20.48 17-Jul-20:  Log End Time 
 LOST.hr                     0:  Lost Rig Time 
 LSTM.      10.20.48 13-Jul-20:  Log Start Time 
 MDCL.ppm             37000.00:  Mud Chlorides 
 MDES.     Inversion Oil/Synthetic:  Mud Desc 
 DFD .sg                  1.52:  Mud Density 
 MDMN.sg                  1.52:  Dens Mud Min 
 MDMX.sg                  1.52:  Dens Mud Max 
 MOIL.                   52.70:  Run Mud Oil % 
 MOWR.                   68:32:  Run Mud OWR 
 MSND.                     0.2:  Run Mud Sand % 
 MSOL.                    21.6:  Run Mud Solids% 
 DFV .spqt               79.00:  Mud Viscosity 
 MWOD.in                  6.75:  MWD Tool OD 
 MWSI.                      No:  Serv Intrp, MWD 
 OTIM.hr                114.04:  Time Operating 
 PCON.          Wear / Scratch:  Pad Condition 
 PMAX.psia            11782.92:  Press Op, Max 
 PV  .cP                 49.00:  Mud PV 
 RUN .                     600:  Run Number 
 ROPA.m/hr               20.00:  ROP Avg 
 ROPN.m/hr               15.00:  ROP Min 
 ROPX.m/hr               22.00:  ROP Max 
 RPMA.rpm               120.00:  RPM Surface Avg 
 RPMN.rpm                90.00:  RPM Surface Min 
 RPMX.rpm               140.00:  RPM Surface Max 
 RRUN.                     600:  Rig Run Number 
 SAZI.deg               260.29:  Azm, Start 
 SDEP.m                4078.01:  Start Depth 
 SIDD.                      No:  Serv Intrp, DD 
 SINC.deg                58.89:  Inc, Start 
 SPPA.psig             4560.00:  SPP Avg 
 SPPN.psig             3600.00:  SPP Min 
 SPPX.psig             4800.00:  SPP Max 
 STIM.      10.20.48 13-Jul-20:  Start Time 
 SVCS.                 DD, MWD:  Services 
 SVER.                    9.20:  Sperry Version 
 TDAT.m                4378.01:  Tot Depth Attmp 
 TDDF.                      No:  Trip for DD 
 TDLG.m                 248.00:  Tot Depth Loggd 
 TFF .                      No:  Trip for Fail 
 TQAA.f-kp               18.00:  Torque Abs Avg 
 TQAN.f-kp               15.00:  Torque Abs Min 
 TQAX.f-kp               20.00:  Torque Abs Max 
 TRRT.°/30m               0.70:  Turn Rotating 
 MRT .                    HCIM:  Maximum Recorded Temperature 
 TTMX.degC               86.00:  Max Tool Temp 
 WBMN.klb                 3.00:  WOB Min 
 WOBA.klb                 5.00:  WOB Avg 
 WOBX.klb                 9.00:  WOB Max 
 YP  .lhf2               32.00:  Yield Point 
~Curve Information Block
#MNEM.UNIT                 API CODE     Curve Description
#---------               -----------    ---------------------------
 TIME.HHMMSS            00 000 000 000:  GT Time & Date
 GTDEPTH.m              00 000 000 000:  GT Depth
 GTPQH.psia             00 000 000 000:  GT HR Quartz Pressure
 GTTQ.degC              00 000 000 000:  GT Quartz Temperature
 GTTN.NONE              00 000 000 000:  GT Test Number
 GTET.sec               00 000 000 000:  GT Elapsed Test Time
 GTTVD.m                00 000 000 000:  GT True Vertical Depth
#Other Information
#
#WARRANTY: Halliburton will use its best efforts to furnish customers with 
#accurate information and interpretations that are part of, and incident to, the services 
#provided.  However, Halliburton cannot and does not warrant the accuracy 
#or correctness of such information and interpretations.  Under no circumstances should any 
#such information or interpretation be relied upon as the sole basis for any drilling, 
#completion, production, or financial decision or any procedure involving any risk to the 
#safety of any drilling venture, drilling rig or its crew or any other third party.  The 
#Customer has full responsibility for all drilling, completion and production operation.  
#Halliburton makes no representations or warranties, either expressed or 
#implied, including, but not limited to, the implied warranties of merchantability or fitness 
#for a particular purpose, with respect to the services rendered.  In no event will 
#Halliburton be liable for failure to obtain any particular results or for 
#any damages, including, but not limited to, indirect, special or consequential damages, 
#resulting from the use of any information or interpretation provided by Halliburton.
#
~A           TIME           GTDEPTH  GTPQH  GTTQ  GTTN  GTET   GTTVD  
# ...
   17:23:52.727.16-Jul-2020 4251.01 7038.19 79.92 3.00 391.08 2851.33
   17:23:52.928.16-Jul-2020 4251.01 7043.89 79.92 3.00 391.28 2851.33
   17:23:53.128.16-Jul-2020 4251.01 7045.43 79.92 3.00 391.48 2851.33
   17:23:53.328.16-Jul-2020 4251.01 7041.98 79.92 3.00 391.68 2851.33
   17:23:53.528.16-Jul-2020 4251.01 7041.04 79.92 3.00 391.88 2851.33
   17:23:53.728.16-Jul-2020 4251.01 7054.29 79.92 3.00 392.08 2851.33
   17:23:53.928.16-Jul-2020 4251.01 7041.51 79.92 3.00 392.28 2851.33
   17:23:54.128.16-Jul-2020 4251.01 7042.42 79.92 3.00 392.48 2851.33
   17:23:54.328.16-Jul-2020 4251.01 7043.68 79.92 3.00 392.68 2851.33
   17:23:54.528.16-Jul-2020 4251.01 7042.09 79.92 3.00 392.88 2851.33
   17:23:54.728.16-Jul-2020 4251.01 7041.14 79.92 3.00 393.08 2851.33
   17:23:54.928.16-Jul-2020 4251.01 7041.14 79.92 3.00 393.28 2851.33
   17:23:55.128.16-Jul-2020 4251.01 7042.27 79.92 3.00 393.48 2851.33
   17:23:55.328.16-Jul-2020 4251.01 7041.99 79.92 3.00 393.68 2851.33
   17:23:55.528.16-Jul-2020 4251.01 7040.19 79.92 3.00 393.88 2851.33
   17:23:55.728.16-Jul-2020 4251.01 7042.39 79.92 3.00 394.08 2851.33
   17:23:55.928.16-Jul-2020 4251.01 7040.74 79.92 3.00 394.28 2851.33
   17:23:56.128.16-Jul-2020 4251.01 7040.82 79.92 3.00 394.48 2851.33
   17:23:56.328.16-Jul-2020 4251.01 7039.51 79.92 3.00 394.68 2851.33
   17:23:56.528.16-Jul-2020 4251.01 7048.41 79.92 3.00 394.88 2851.33
   17:23:56.728.16-Jul-2020 4251.01 7042.96 79.92 3.00 395.08 2851.33
   17:23:56.928.16-Jul-2020 4251.01 7042.62 79.92 3.00 395.28 2851.33
   17:23:57.128.16-Jul-2020 4251.01 7043.53 79.92 3.00 395.48 2851.33
   17:23:57.328.16-Jul-2020 4251.01 7040.89 79.92 3.00 395.68 2851.33
   17:23:57.528.16-Jul-2020 4251.01 7041.64 79.92 3.00 395.88 2851.33
   17:23:57.729.16-Jul-2020 4251.01 7041.07 79.92 3.00 396.08 2851.33
   17:23:57.929.16-Jul-2020 4251.01 7041.07 79.92 3.00 396.28 2851.33
   17:23:58.129.16-Jul-2020 4251.01 7041.07 79.92 3.00 396.48 2851.33
   17:23:58.329.16-Jul-2020 4251.01 7042.07 79.92 3.00 396.68 2851.33
   17:23:58.529.16-Jul-2020 4251.01 7041.73 79.92 3.00 396.88 2851.33
   17:23:58.729.16-Jul-2020 4251.01 7039.97 79.92 3.00 397.08 2851.33
   17:23:58.929.16-Jul-2020 4251.01 7039.97 79.92 3.00 397.28 2851.33
   17:23:59.129.16-Jul-2020 4251.01 7041.22 79.92 3.00 397.48 2851.33
   17:23:59.329.16-Jul-2020 4251.01 7041.54 79.92 3.00 397.68 2851.33
   17:23:59.529.16-Jul-2020 4251.01 7039.42 79.92 3.00 397.88 2851.33
   17:23:59.729.16-Jul-2020 4251.01 7052.97 79.92 3.00 398.08 2851.33
   17:23:59.929.16-Jul-2020 4251.01 7039.36 79.92 3.00 398.28 2851.33
   17:24:00.129.16-Jul-2020 4251.01 7043.19 79.92 3.00 398.48 2851.33
   17:24:00.329.16-Jul-2020 4251.01 7041.89 79.92 3.00 398.68 2851.33
   17:24:00.529.16-Jul-2020 4251.01 7040.33 79.92 3.00 398.88 2851.33
   17:24:00.729.16-Jul-2020 4251.01 7052.82 79.92 3.00 399.08 2851.33
   17:24:00.929.16-Jul-2020 4251.01 7038.41 79.92 3.00 399.28 2851.33
   17:24:01.129.16-Jul-2020 4251.01 7042.86 79.92 3.00 399.48 2851.33
   17:24:01.329.16-Jul-2020 4251.01 7054.60 79.92 3.00 399.68 2851.33
   17:24:01.529.16-Jul-2020 4251.01 7040.51 79.92 3.00 399.88 2851.33
   17:24:01.729.16-Jul-2020 4251.01 7041.00 79.92 3.00 400.08 2851.33
   17:24:01.929.16-Jul-2020 4251.01 7041.00 79.92 3.00 400.28 2851.33
   17:24:02.129.16-Jul-2020 4251.01 7043.91 79.92 3.00 400.48 2851.33
   17:24:02.329.16-Jul-2020 4251.01 7039.95 79.92 3.00 400.68 2851.33
   17:24:02.530.16-Jul-2020 4251.01 7049.64 79.92 3.00 400.88 2851.33
   17:24:02.730.16-Jul-2020 4251.01 7043.17 79.92 3.00 401.08 2851.33
   17:24:02.930.16-Jul-2020 4251.01 7044.46 79.92 3.00 401.28 2851.33
   17:24:03.130.16-Jul-2020 4251.01 7043.17 79.92 3.00 401.48 2851.33
   17:24:03.330.16-Jul-2020 4251.01 7042.65 79.92 3.00 401.68 2851.33
   17:24:03.530.16-Jul-2020 4251.01 7041.69 79.92 3.00 401.88 2851.33
   17:24:03.730.16-Jul-2020 4251.01 7041.72 79.92 3.00 402.08 2851.33
   17:24:03.930.16-Jul-2020 4251.01 7042.70 79.92 3.00 402.28 2851.33
   17:24:04.130.16-Jul-2020 4251.01 7041.03 79.92 3.00 402.48 2851.33
   17:24:04.330.16-Jul-2020 4251.01 7042.20 79.92 3.00 402.68 2851.33
   17:24:04.530.16-Jul-2020 4251.01 7040.17 79.92 3.00 402.88 2851.33
   17:24:04.730.16-Jul-2020 4251.01 7042.33 79.92 3.00 403.08 2851.33
   17:24:04.930.16-Jul-2020 4251.01 7041.53 79.92 3.00 403.28 2851.33
   17:24:05.130.16-Jul-2020 4251.01 7048.24 79.92 3.00 403.48 2851.33
   17:24:05.330.16-Jul-2020 4251.01 7041.85 79.92 3.00 403.68 2851.33
   17:24:05.530.16-Jul-2020 4251.01 7039.58 79.92 3.00 403.88 2851.33
   17:24:05.730.16-Jul-2020 4251.01 7043.02 79.92 3.00 404.08 2851.33
   17:24:05.930.16-Jul-2020 4251.01 7043.02 79.92 3.00 404.28 2851.33
   17:24:06.130.16-Jul-2020 4251.01 7041.88 79.91 3.00 404.48 2851.33
   17:24:06.330.16-Jul-2020 4251.01 7040.18 79.91 3.00 404.68 2851.33
   17:24:06.530.16-Jul-2020 4251.01 7041.29 79.91 3.00 404.88 2851.33
   17:24:06.730.16-Jul-2020 4251.01 7039.62 79.91 3.00 405.08 2851.33
   17:24:06.930.16-Jul-2020 4251.01 7041.26 79.91 3.00 405.28 2851.33
   17:24:07.130.16-Jul-2020 4251.01 7041.18 79.91 3.00 405.48 2851.33
   17:24:07.331.16-Jul-2020 4251.01 7040.69 79.91 3.00 405.68 2851.33
   17:24:07.531.16-Jul-2020 4251.01 7047.72 79.91 3.00 405.88 2851.33
