~Version Information
 VERS.                  2.0:   CWLS log ASCII Standard -VERSION 2.0
 WRAP.                   NO:   One line per depth step
~Well Information Block
#MNEM.UNIT     VALUE/NAME     DESCRIPTION
#---------     -----------    ---------------------------
 STRT.S             16:55:55 16-Jul-20: START TIME 16:55:55 16-Jul-20
 STOP.S             17:02:47 16-Jul-20: STOP TIME  17:02:47 16-Jul-20
 STEP.S                   0.00: STEP TIME
 NULL.                 -999.25: NULL VALUE
 MDS .        Operator Entered:  MAG DATA SOURCE
 UNIT.                     N/A:  LOGGING EQUIPMENT ID
 DCON.         Sperry Drilling:  DIRECTNL CONTR
 DOE .                     N/A:  DOE NUMBER
 RIG .               EastAzeri:  RIG NAME
 JOBN.        AZ-XX-0906363297:  JOB TICKET NUMB
 MWDS.                    Baku:  MWD SHOP
 SRVC.     Turan Drilling & Engineering:  CONTRACTOR
 PROV.                    Baku:  PROVINCE
 STAT.                    Baku:  STATE NAME
 REGN.                   EESSA:  REGION
 BASE.              Azerbaijan:  LOGGING EQUIPMENT BASE LOCATION
 WTYP.                Deviated:  WELL TYPE
 UWI .                     N/A:  UNIQUE WELL IDENTIFIER
 API .                     N/A:  API NUMBER
 COMP.     BP Exploration (Caspian Sea) ltd.:  COMPANY
 WELL.                    D07z:  WELL NAME
 CTRY.              Azerbaijan:  COUNTRY NAME
 SON .        AZ-XX-0906363297:  JOB NUMBER
 FLD .                     ACG:  FIELD NAME
 PDAT.          Mean Sea Level:  PERMANENT DATUM
 FTOP.          Formation Tops:  FORM TOPS DESC
 ILTD.               Lithology:  INTERP LTH DESC
 SVYD.                  Survey:  SURVEY DESC
 DMOD.             Drill Model:  DRILL MOD DESC
 HPTY.       Minimum Curvature:  HOLE POS TYPE
 NREF.                    Grid:  NORTH REFERENCE
 SPUD.               28-Jun-20:  SPUD DATE
 DATE.      18.27.12 28-Jun-20:  END TIME
 STIM.      18.27.12 28-Jun-20:  START TIME
 DMF .             Drill Floor:  DRILL MEAS FROM
 DFST.                        :  DIST FSL TEXT
 DFWT.                        :  DIST FWL TEXT
 CNTY.                        :  COUNTY
 LOC .                        :  LOCATION
 LMF .             Drill Floor:  LOG MEASURED FROM
 VSNS.m                  -7.75:  VERT SEC N/S
 VSEW.m                  -9.19:  VERT SEC E/W
 MMDE.m                   0.00:  MAGUTM CALC DEP
 AGAP.m                  43.60:  AIR GAP
 DEP .m                4058.99:  DEPTH
 APD .m                  43.60:  DEPTH ABOVE PD
 WDMS.m                 151.80:  WD ELEV
 EGL .m                   0.00:  GROUND ELEVATION
 EPD .m                   0.00:  ELEVATION
 AZTC.deg                 6.19:  AZM TOTAL CORR
 GRDC.deg                 0.27:  GRID CORRECTION
 MDEC.deg                 6.46:  MAGNETIC DECL
 MDIP.deg                59.47:  MAGNETIC DIP
 MFLD.nT              50279.00:  MAGNETIC FIELD
 GVFD.g                   1.00:  GRAVITY FIELD
 VSDR.deg               249.96:  VERT SEC DIRECT
 TDD .m                   0.00:  TOTAL DEPTH (DRILLER)
 SDEP.m                   0.00:  START DEPTH
 DFSL.m                   0.00:  DISTANCE FSL
 DFWL.m                   0.00:  DISTANCE FWL
 UTMY.m             4431880.20:  UTM Y
 UTMX.m              538763.98:  UTM X
 WHEW.m                  -9.19:  WELL HEAD E/W
 WHNS.m                  -7.75:  WELL HEAD N/S
 LONG.deg                51.45:  LONGITUDE
 LATI.deg                40.02:  LATITUDE
 TVDS.m                  43.60:  TVDSS CORRECTN
 EKB .m                  43.60:  KB ELEVATION
 EDF .m                  43.60:  DF ELEVATION
 TDL .m                 248.00:  TOTAL DEPTH (LOGGER)
 MAGU.                 1849075:  MAGUTM CHECKSUM
 VSC .                       0:  VS TO CLOSURE
~Parameter Information Block
#MNEM.UNIT       Value        Description
#---------     -----------    ---------------------------
 AV  .mps                 6.34:  Ann Velocity 
 AVMX.mps                 7.00:  Max Ann Veloc 
 AZIF.deg               260.29:  Azm, Final 
 BHAT.        Rotary Steerable:  BHA Type 
 BROT.°/30m               1.20:  Build Rotating 
 BS  .in                  8.50:  Bit Size 
 BSZ .in                  8.50:  Bit Size 
 BTPL.psig              620.00:  Bit Press Loss 
 CABU.                     Yes:  Customer Abuse 
 COMM.                     3z:  Run Comments 1 
 TCS .hr                 56.22:  Time Ciculation Ended 
 CV  .mps                 3.05:  Crit Velocity 
 CVMX.mps                 3.20:  Max Crit Veloc 
 DD1 .            Musa Ahmadov:  Direct Drillr 1 
 DDSV.                 iCruise:  DD Service 
 DEFF.%                  98.00:  % Det Eff 
 DLRX.°/30m               2.78:  Dogleg Rot Max 
 DLSO.°/30m               0.00:  Dogleg Oriented 
 DLSX.°/30m               0.00:  Dogleg Str Max 
 DRET.      05.20.48 16-Jul-20:  Drill End Time 
 DRST.      10.20.48 13-Jul-20:  Drill Start Tim 
 DTIM.hr                 14.25:  Time Drilling 
 EDEP.m                4326.01:  End Depth 
 ENG1.      Artemiy Matviyanov:  Engineer 1 
 ENG2.           Amrah Tahirov:  Engineer 2 
 ETIM.      22.30.00 18-Jul-20:  End Time 
 FLOI.gpm               550.00:  Flow In 
 FLON.gpm               450.00:  Flow In Min 
 FLOS.cptm                0.00:  Fluid Loss 
 FLOX.gpm               600.00:  Flow In Max 
 HFLO.                      No:  High Flow 
 HPRE.                      No:  High Pressure 
 HTEM.                      No:  High Temp 
 HYDO.m                   1.80:  Hydro Offset 
 IFIN.deg                65.41:  Inc, Final 
 IMAX.deg                65.14:  Inc Max 
 IMIN.deg                58.89:  Inc Min 
 IMND.m                4104.92:  Inc Min Depth 
 IMXD.m                4303.89:  Inc Max Depth 
 JARR.                      No:  Jarring 
 LETM.      10.20.48 17-Jul-20:  Log End Time 
 LOST.hr                     0:  Lost Rig Time 
 LSTM.      10.20.48 13-Jul-20:  Log Start Time 
 MDCL.ppm             37000.00:  Mud Chlorides 
 MDES.     Inversion Oil/Synthetic:  Mud Desc 
 DFD .sg                  1.52:  Mud Density 
 MDMN.sg                  1.52:  Dens Mud Min 
 MDMX.sg                  1.52:  Dens Mud Max 
 MOIL.                   52.70:  Run Mud Oil % 
 MOWR.                   68:32:  Run Mud OWR 
 MSND.                     0.2:  Run Mud Sand % 
 MSOL.                    21.6:  Run Mud Solids% 
 DFV .spqt               79.00:  Mud Viscosity 
 MWOD.in                  6.75:  MWD Tool OD 
 MWSI.                      No:  Serv Intrp, MWD 
 OTIM.hr                114.04:  Time Operating 
 PCON.          Wear / Scratch:  Pad Condition 
 PMAX.psia            11782.92:  Press Op, Max 
 PV  .cP                 49.00:  Mud PV 
 RUN .                     600:  Run Number 
 ROPA.m/hr               20.00:  ROP Avg 
 ROPN.m/hr               15.00:  ROP Min 
 ROPX.m/hr               22.00:  ROP Max 
 RPMA.rpm               120.00:  RPM Surface Avg 
 RPMN.rpm                90.00:  RPM Surface Min 
 RPMX.rpm               140.00:  RPM Surface Max 
 RRUN.                     600:  Rig Run Number 
 SAZI.deg               260.29:  Azm, Start 
 SDEP.m                4078.01:  Start Depth 
 SIDD.                      No:  Serv Intrp, DD 
 SINC.deg                58.89:  Inc, Start 
 SPPA.psig             4560.00:  SPP Avg 
 SPPN.psig             3600.00:  SPP Min 
 SPPX.psig             4800.00:  SPP Max 
 STIM.      10.20.48 13-Jul-20:  Start Time 
 SVCS.                 DD, MWD:  Services 
 SVER.                    9.20:  Sperry Version 
 TDAT.m                4378.01:  Tot Depth Attmp 
 TDDF.                      No:  Trip for DD 
 TDLG.m                 248.00:  Tot Depth Loggd 
 TFF .                      No:  Trip for Fail 
 TQAA.f-kp               18.00:  Torque Abs Avg 
 TQAN.f-kp               15.00:  Torque Abs Min 
 TQAX.f-kp               20.00:  Torque Abs Max 
 TRRT.°/30m               0.70:  Turn Rotating 
 MRT .                    HCIM:  Maximum Recorded Temperature 
 TTMX.degC               86.00:  Max Tool Temp 
 WBMN.klb                 3.00:  WOB Min 
 WOBA.klb                 5.00:  WOB Avg 
 WOBX.klb                 9.00:  WOB Max 
 YP  .lhf2               32.00:  Yield Point 
~Curve Information Block
#MNEM.UNIT                 API CODE     Curve Description
#---------               -----------    ---------------------------
 TIME.HHMMSS            00 000 000 000:  GT Time & Date
 GTDEPTH.m              00 000 000 000:  GT Depth
 GTPQH.psia             00 000 000 000:  GT HR Quartz Pressure
 GTTQ.degC              00 000 000 000:  GT Quartz Temperature
 GTTN.NONE              00 000 000 000:  GT Test Number
 GTET.sec               00 000 000 000:  GT Elapsed Test Time
 GTTVD.m                00 000 000 000:  GT True Vertical Depth
#Other Information
#
#WARRANTY: Halliburton will use its best efforts to furnish customers with 
#accurate information and interpretations that are part of, and incident to, the services 
#provided.  However, Halliburton cannot and does not warrant the accuracy 
#or correctness of such information and interpretations.  Under no circumstances should any 
#such information or interpretation be relied upon as the sole basis for any drilling, 
#completion, production, or financial decision or any procedure involving any risk to the 
#safety of any drilling venture, drilling rig or its crew or any other third party.  The 
#Customer has full responsibility for all drilling, completion and production operation.  
#Halliburton makes no representations or warranties, either expressed or 
#implied, including, but not limited to, the implied warranties of merchantability or fitness 
#for a particular purpose, with respect to the services rendered.  In no event will 
#Halliburton be liable for failure to obtain any particular results or for 
#any damages, including, but not limited to, indirect, special or consequential damages, 
#resulting from the use of any information or interpretation provided by Halliburton.
#
~A           TIME           GTDEPTH  GTPQH  GTTQ  GTTN  GTET   GTTVD  
# ...
   17:01:17.448.16-Jul-2020 4261.01 4635.79 80.07 2.00 322.07 2855.56
   17:01:17.649.16-Jul-2020 4261.01 4635.58 80.07 2.00 322.27 2855.56
   17:01:17.849.16-Jul-2020 4261.01 4635.61 80.07 2.00 322.47 2855.56
   17:01:18.049.16-Jul-2020 4261.01 4635.60 80.07 2.00 322.67 2855.56
   17:01:18.249.16-Jul-2020 4261.01 4635.58 80.07 2.00 322.87 2855.56
   17:01:18.449.16-Jul-2020 4261.01 4635.61 80.07 2.00 323.07 2855.56
   17:01:18.649.16-Jul-2020 4261.01 4635.61 80.07 2.00 323.27 2855.56
   17:01:18.849.16-Jul-2020 4261.01 4635.63 80.07 2.00 323.47 2855.56
   17:01:19.049.16-Jul-2020 4261.01 4635.62 80.07 2.00 323.67 2855.56
   17:01:19.249.16-Jul-2020 4261.01 4635.62 80.07 2.00 323.87 2855.56
   17:01:19.449.16-Jul-2020 4261.01 4635.64 80.07 2.00 324.07 2855.56
   17:01:19.649.16-Jul-2020 4261.01 4635.64 80.07 2.00 324.27 2855.56
   17:01:19.849.16-Jul-2020 4261.01 4635.62 80.07 2.00 324.47 2855.56
   17:01:20.049.16-Jul-2020 4261.01 4635.59 80.07 2.00 324.67 2855.56
   17:01:20.249.16-Jul-2020 4261.01 4635.61 80.07 2.00 324.87 2855.56
   17:01:20.449.16-Jul-2020 4261.01 4635.66 80.07 2.00 325.07 2855.56
   17:01:20.649.16-Jul-2020 4261.01 4635.66 80.07 2.00 325.27 2855.56
   17:01:20.849.16-Jul-2020 4261.01 4635.56 80.07 2.00 325.47 2855.56
   17:01:21.049.16-Jul-2020 4261.01 4635.62 80.07 2.00 325.67 2855.56
   17:01:21.249.16-Jul-2020 4261.01 4635.53 80.07 2.00 325.87 2855.56
   17:01:21.449.16-Jul-2020 4261.01 4635.78 80.07 2.00 326.07 2855.56
   17:01:21.649.16-Jul-2020 4261.01 4635.78 80.07 2.00 326.27 2855.56
   17:01:21.849.16-Jul-2020 4261.01 4635.66 80.07 2.00 326.47 2855.56
   17:01:22.049.16-Jul-2020 4261.01 4635.60 80.07 2.00 326.67 2855.56
   17:01:22.249.16-Jul-2020 4261.01 4635.75 80.07 2.00 326.87 2855.56
   17:01:22.450.16-Jul-2020 4261.01 4635.56 80.07 2.00 327.07 2855.56
   17:01:22.650.16-Jul-2020 4261.01 4635.56 80.07 2.00 327.27 2855.56
   17:01:22.850.16-Jul-2020 4261.01 4635.60 80.07 2.00 327.47 2855.56
   17:01:23.050.16-Jul-2020 4261.01 4635.88 80.07 2.00 327.67 2855.56
   17:01:23.250.16-Jul-2020 4261.01 4635.44 80.07 2.00 327.87 2855.56
   17:01:23.450.16-Jul-2020 4261.01 4635.55 80.07 2.00 328.07 2855.56
   17:01:23.650.16-Jul-2020 4261.01 4635.55 80.07 2.00 328.27 2855.56
   17:01:23.850.16-Jul-2020 4261.01 4635.60 80.07 2.00 328.47 2855.56
   17:01:24.050.16-Jul-2020 4261.01 4635.61 80.07 2.00 328.67 2855.56
   17:01:24.250.16-Jul-2020 4261.01 4635.62 80.07 2.00 328.87 2855.56
   17:01:24.450.16-Jul-2020 4261.01 4635.64 80.07 2.00 329.07 2855.56
   17:01:24.650.16-Jul-2020 4261.01 4635.64 80.07 2.00 329.27 2855.56
   17:01:24.850.16-Jul-2020 4261.01 4635.62 80.07 2.00 329.47 2855.56
   17:01:25.050.16-Jul-2020 4261.01 4635.63 80.07 2.00 329.67 2855.56
   17:01:25.250.16-Jul-2020 4261.01 4635.61 80.07 2.00 329.87 2855.56
   17:01:25.450.16-Jul-2020 4261.01 4635.61 80.07 2.00 330.07 2855.56
   17:01:25.650.16-Jul-2020 4261.01 4635.61 80.07 2.00 330.27 2855.56
   17:01:25.850.16-Jul-2020 4261.01 4635.70 80.07 2.00 330.47 2855.56
   17:01:26.050.16-Jul-2020 4261.01 4635.54 80.07 2.00 330.67 2855.56
   17:01:26.250.16-Jul-2020 4261.01 4635.61 80.07 2.00 330.87 2855.56
   17:01:26.450.16-Jul-2020 4261.01 4635.65 80.07 2.00 331.07 2855.56
   17:01:26.650.16-Jul-2020 4261.01 4635.65 80.07 2.00 331.27 2855.56
   17:01:26.850.16-Jul-2020 4261.01 4635.65 80.07 2.00 331.47 2855.56
   17:01:27.050.16-Jul-2020 4261.01 4635.65 80.07 2.00 331.67 2855.56
   17:01:27.251.16-Jul-2020 4261.01 4635.63 80.07 2.00 331.87 2855.56
   17:01:27.451.16-Jul-2020 4261.01 4635.61 80.07 2.00 332.07 2855.56
   17:01:27.651.16-Jul-2020 4261.01 4635.64 80.07 2.00 332.27 2855.56
   17:01:27.851.16-Jul-2020 4261.01 4635.62 80.07 2.00 332.47 2855.56
   17:01:28.051.16-Jul-2020 4261.01 4635.61 80.07 2.00 332.67 2855.56
   17:01:28.251.16-Jul-2020 4261.01 4635.64 80.07 2.00 332.87 2855.56
   17:01:28.451.16-Jul-2020 4261.01 4635.61 80.07 2.00 333.07 2855.56
   17:01:28.651.16-Jul-2020 4261.01 4635.61 80.07 2.00 333.27 2855.56
   17:01:28.851.16-Jul-2020 4261.01 4635.66 80.07 2.00 333.47 2855.56
   17:01:29.051.16-Jul-2020 4261.01 4635.72 80.07 2.00 333.67 2855.56
   17:01:29.251.16-Jul-2020 4261.01 4635.50 80.07 2.00 333.87 2855.56
   17:01:29.451.16-Jul-2020 4261.01 4635.61 80.07 2.00 334.07 2855.56
   17:01:29.651.16-Jul-2020 4261.01 4635.61 80.07 2.00 334.27 2855.56
   17:01:29.851.16-Jul-2020 4261.01 4635.48 80.07 2.00 334.47 2855.56
   17:01:30.051.16-Jul-2020 4261.01 4635.48 80.07 2.00 334.67 2855.56
   17:01:30.251.16-Jul-2020 4261.01 4635.67 80.07 2.00 334.87 2855.56
   17:01:30.451.16-Jul-2020 4261.01 4635.70 80.07 2.00 335.07 2855.56
   17:01:30.651.16-Jul-2020 4261.01 4635.70 80.07 2.00 335.27 2855.56
   17:01:30.851.16-Jul-2020 4261.01 4635.48 80.07 2.00 335.47 2855.56
   17:01:31.051.16-Jul-2020 4261.01 4635.62 80.07 2.00 335.67 2855.56
   17:01:31.251.16-Jul-2020 4261.01 4635.56 80.07 2.00 335.87 2855.56
   17:01:31.451.16-Jul-2020 4261.01 4635.80 80.07 2.00 336.07 2855.56
   17:01:31.651.16-Jul-2020 4261.01 4635.80 80.07 2.00 336.27 2855.56
   17:01:31.851.16-Jul-2020 4261.01 4635.68 80.07 2.00 336.47 2855.56
   17:01:32.052.16-Jul-2020 4261.01 4635.55 80.07 2.00 336.67 2855.56
   17:01:32.252.16-Jul-2020 4261.01 4635.61 80.07 2.00 336.87 2855.56
   17:01:32.452.16-Jul-2020 4261.01 4635.62 80.07 2.00 337.07 2855.56
   17:01:32.652.16-Jul-2020 4261.01 4635.62 80.07 2.00 337.27 2855.56
   17:01:32.852.16-Jul-2020 4261.01 4635.61 80.07 2.00 337.47 2855.56
   17:01:33.052.16-Jul-2020 4261.01 4635.64 80.07 2.00 337.67 2855.56
   17:01:33.252.16-Jul-2020 4261.01 4635.62 80.07 2.00 337.87 2855.56
   17:01:33.452.16-Jul-2020 4261.01 4635.65 80.07 2.00 338.07 2855.56
   17:01:33.652.16-Jul-2020 4261.01 4635.65 80.07 2.00 338.27 2855.56
   17:01:33.852.16-Jul-2020 4261.01 4635.61 80.07 2.00 338.47 2855.56
   17:01:34.052.16-Jul-2020 4261.01 4635.77 80.07 2.00 338.67 2855.56
   17:01:34.252.16-Jul-2020 4261.01 4635.59 80.07 2.00 338.87 2855.56
   17:01:34.452.16-Jul-2020 4261.01 4635.63 80.07 2.00 339.07 2855.56
   17:01:34.652.16-Jul-2020 4261.01 4635.60 80.07 2.00 339.27 2855.56
   17:01:34.852.16-Jul-2020 4261.01 4635.57 80.07 2.00 339.47 2855.56
   17:01:35.052.16-Jul-2020 4261.01 4635.62 80.07 2.00 339.67 2855.56
   17:01:35.252.16-Jul-2020 4261.01 4635.62 80.07 2.00 339.87 2855.56
   17:01:35.452.16-Jul-2020 4261.01 4635.65 80.07 2.00 340.07 2855.56
   17:01:35.652.16-Jul-2020 4261.01 4635.62 80.07 2.00 340.27 2855.56
   17:01:35.852.16-Jul-2020 4261.01 4635.64 80.07 2.00 340.47 2855.56
   17:01:36.052.16-Jul-2020 4261.01 4635.64 80.07 2.00 340.67 2855.56
   17:01:36.252.16-Jul-2020 4261.01 4635.63 80.07 2.00 340.87 2855.56
   17:01:36.452.16-Jul-2020 4261.01 4635.63 80.07 2.00 341.07 2855.56
   17:01:36.652.16-Jul-2020 4261.01 4635.63 80.07 2.00 341.27 2855.56
   17:01:36.852.16-Jul-2020 4261.01 4635.63 80.07 2.00 341.47 2855.56
   17:01:37.053.16-Jul-2020 4261.01 4635.62 80.07 2.00 341.67 2855.56
   17:01:37.253.16-Jul-2020 4261.01 4635.79 80.07 2.00 341.87 2855.56
   17:01:37.453.16-Jul-2020 4261.01 4635.55 80.07 2.00 342.07 2855.56
   17:01:37.653.16-Jul-2020 4261.01 4635.55 80.07 2.00 342.27 2855.56
   17:01:37.853.16-Jul-2020 4261.01 4635.55 80.07 2.00 342.47 2855.56
   17:01:38.053.16-Jul-2020 4261.01 4635.77 80.07 2.00 342.67 2855.56
   17:01:38.253.16-Jul-2020 4261.01 4635.58 80.07 2.00 342.87 2855.56
   17:01:38.453.16-Jul-2020 4261.01 4635.66 80.07 2.00 343.07 2855.56
   17:01:38.653.16-Jul-2020 4261.01 4635.66 80.07 2.00 343.27 2855.56
   17:01:38.853.16-Jul-2020 4261.01 4635.79 80.07 2.00 343.47 2855.56
   17:01:39.053.16-Jul-2020 4261.01 4635.55 80.07 2.00 343.67 2855.56
   17:01:39.253.16-Jul-2020 4261.01 4635.63 80.07 2.00 343.87 2855.56
   17:01:39.453.16-Jul-2020 4261.01 4635.61 80.07 2.00 344.07 2855.56
   17:01:39.653.16-Jul-2020 4261.01 4635.61 80.07 2.00 344.27 2855.56
   17:01:39.853.16-Jul-2020 4261.01 4635.47 80.07 2.00 344.47 2855.56
   17:01:40.053.16-Jul-2020 4261.01 4635.53 80.07 2.00 344.67 2855.56
   17:01:40.253.16-Jul-2020 4261.01 4635.66 80.07 2.00 344.87 2855.56
