~Version Information
 VERS.                  2.0:   CWLS log ASCII Standard -VERSION 2.0
 WRAP.                   NO:   One line per depth step
~Well Information Block
#MNEM.UNIT     VALUE/NAME     DESCRIPTION
#---------     -----------    ---------------------------
 STRT.S             21:08:23 16-Jul-20: START TIME 21:08:23 16-Jul-20
 STOP.S             21:15:15 16-Jul-20: STOP TIME  21:15:15 16-Jul-20
 STEP.S                   0.00: STEP TIME
 NULL.                 -999.25: NULL VALUE
 MDS .        Operator Entered:  MAG DATA SOURCE
 UNIT.                     N/A:  LOGGING EQUIPMENT ID
 DCON.         Sperry Drilling:  DIRECTNL CONTR
 DOE .                     N/A:  DOE NUMBER
 RIG .               EastAzeri:  RIG NAME
 JOBN.        AZ-XX-0906363297:  JOB TICKET NUMB
 MWDS.                    Baku:  MWD SHOP
 SRVC.     Turan Drilling & Engineering:  CONTRACTOR
 PROV.                    Baku:  PROVINCE
 STAT.                    Baku:  STATE NAME
 REGN.                   EESSA:  REGION
 BASE.              Azerbaijan:  LOGGING EQUIPMENT BASE LOCATION
 WTYP.                Deviated:  WELL TYPE
 UWI .                     N/A:  UNIQUE WELL IDENTIFIER
 API .                     N/A:  API NUMBER
 COMP.     BP Exploration (Caspian Sea) ltd.:  COMPANY
 WELL.                    D07z:  WELL NAME
 CTRY.              Azerbaijan:  COUNTRY NAME
 SON .        AZ-XX-0906363297:  JOB NUMBER
 FLD .                     ACG:  FIELD NAME
 PDAT.          Mean Sea Level:  PERMANENT DATUM
 FTOP.          Formation Tops:  FORM TOPS DESC
 ILTD.               Lithology:  INTERP LTH DESC
 SVYD.                  Survey:  SURVEY DESC
 DMOD.             Drill Model:  DRILL MOD DESC
 HPTY.       Minimum Curvature:  HOLE POS TYPE
 NREF.                    Grid:  NORTH REFERENCE
 SPUD.               28-Jun-20:  SPUD DATE
 DATE.      18.27.12 28-Jun-20:  END TIME
 STIM.      18.27.12 28-Jun-20:  START TIME
 DMF .             Drill Floor:  DRILL MEAS FROM
 DFST.                        :  DIST FSL TEXT
 DFWT.                        :  DIST FWL TEXT
 CNTY.                        :  COUNTY
 LOC .                        :  LOCATION
 LMF .             Drill Floor:  LOG MEASURED FROM
 VSNS.m                  -7.75:  VERT SEC N/S
 VSEW.m                  -9.19:  VERT SEC E/W
 MMDE.m                   0.00:  MAGUTM CALC DEP
 AGAP.m                  43.60:  AIR GAP
 DEP .m                4058.99:  DEPTH
 APD .m                  43.60:  DEPTH ABOVE PD
 WDMS.m                 151.80:  WD ELEV
 EGL .m                   0.00:  GROUND ELEVATION
 EPD .m                   0.00:  ELEVATION
 AZTC.deg                 6.19:  AZM TOTAL CORR
 GRDC.deg                 0.27:  GRID CORRECTION
 MDEC.deg                 6.46:  MAGNETIC DECL
 MDIP.deg                59.47:  MAGNETIC DIP
 MFLD.nT              50279.00:  MAGNETIC FIELD
 GVFD.g                   1.00:  GRAVITY FIELD
 VSDR.deg               249.96:  VERT SEC DIRECT
 TDD .m                   0.00:  TOTAL DEPTH (DRILLER)
 SDEP.m                   0.00:  START DEPTH
 DFSL.m                   0.00:  DISTANCE FSL
 DFWL.m                   0.00:  DISTANCE FWL
 UTMY.m             4431880.20:  UTM Y
 UTMX.m              538763.98:  UTM X
 WHEW.m                  -9.19:  WELL HEAD E/W
 WHNS.m                  -7.75:  WELL HEAD N/S
 LONG.deg                51.45:  LONGITUDE
 LATI.deg                40.02:  LATITUDE
 TVDS.m                  43.60:  TVDSS CORRECTN
 EKB .m                  43.60:  KB ELEVATION
 EDF .m                  43.60:  DF ELEVATION
 TDL .m                 248.00:  TOTAL DEPTH (LOGGER)
 MAGU.                 1849075:  MAGUTM CHECKSUM
 VSC .                       0:  VS TO CLOSURE
~Parameter Information Block
#MNEM.UNIT       Value        Description
#---------     -----------    ---------------------------
 AV  .mps                 6.34:  Ann Velocity 
 AVMX.mps                 7.00:  Max Ann Veloc 
 AZIF.deg               260.29:  Azm, Final 
 BHAT.        Rotary Steerable:  BHA Type 
 BROT.°/30m               1.20:  Build Rotating 
 BS  .in                  8.50:  Bit Size 
 BSZ .in                  8.50:  Bit Size 
 BTPL.psig              620.00:  Bit Press Loss 
 CABU.                     Yes:  Customer Abuse 
 COMM.                     Äá„:  Run Comments 1 
 TCS .hr                 56.22:  Time Ciculation Ended 
 CV  .mps                 3.05:  Crit Velocity 
 CVMX.mps                 3.20:  Max Crit Veloc 
 DD1 .            Musa Ahmadov:  Direct Drillr 1 
 DDSV.                 iCruise:  DD Service 
 DEFF.%                  98.00:  % Det Eff 
 DLRX.°/30m               2.78:  Dogleg Rot Max 
 DLSO.°/30m               0.00:  Dogleg Oriented 
 DLSX.°/30m               0.00:  Dogleg Str Max 
 DRET.      05.20.48 16-Jul-20:  Drill End Time 
 DRST.      10.20.48 13-Jul-20:  Drill Start Tim 
 DTIM.hr                 14.25:  Time Drilling 
 EDEP.m                4326.01:  End Depth 
 ENG1.      Artemiy Matviyanov:  Engineer 1 
 ENG2.           Amrah Tahirov:  Engineer 2 
 ETIM.      22.30.00 18-Jul-20:  End Time 
 FLOI.gpm               550.00:  Flow In 
 FLON.gpm               450.00:  Flow In Min 
 FLOS.cptm                0.00:  Fluid Loss 
 FLOX.gpm               600.00:  Flow In Max 
 HFLO.                      No:  High Flow 
 HPRE.                      No:  High Pressure 
 HTEM.                      No:  High Temp 
 HYDO.m                   1.80:  Hydro Offset 
 IFIN.deg                65.41:  Inc, Final 
 IMAX.deg                65.14:  Inc Max 
 IMIN.deg                58.89:  Inc Min 
 IMND.m                4104.92:  Inc Min Depth 
 IMXD.m                4303.89:  Inc Max Depth 
 JARR.                      No:  Jarring 
 LETM.      10.20.48 17-Jul-20:  Log End Time 
 LOST.hr                     0:  Lost Rig Time 
 LSTM.      10.20.48 13-Jul-20:  Log Start Time 
 MDCL.ppm             37000.00:  Mud Chlorides 
 MDES.     Inversion Oil/Synthetic:  Mud Desc 
 DFD .sg                  1.52:  Mud Density 
 MDMN.sg                  1.52:  Dens Mud Min 
 MDMX.sg                  1.52:  Dens Mud Max 
 MOIL.                   52.70:  Run Mud Oil % 
 MOWR.                   68:32:  Run Mud OWR 
 MSND.                     0.2:  Run Mud Sand % 
 MSOL.                    21.6:  Run Mud Solids% 
 DFV .spqt               79.00:  Mud Viscosity 
 MWOD.in                  6.75:  MWD Tool OD 
 MWSI.                      No:  Serv Intrp, MWD 
 OTIM.hr                114.04:  Time Operating 
 PCON.          Wear / Scratch:  Pad Condition 
 PMAX.psia            11782.92:  Press Op, Max 
 PV  .cP                 49.00:  Mud PV 
 RUN .                     600:  Run Number 
 ROPA.m/hr               20.00:  ROP Avg 
 ROPN.m/hr               15.00:  ROP Min 
 ROPX.m/hr               22.00:  ROP Max 
 RPMA.rpm               120.00:  RPM Surface Avg 
 RPMN.rpm                90.00:  RPM Surface Min 
 RPMX.rpm               140.00:  RPM Surface Max 
 RRUN.                     600:  Rig Run Number 
 SAZI.deg               260.29:  Azm, Start 
 SDEP.m                4078.01:  Start Depth 
 SIDD.                      No:  Serv Intrp, DD 
 SINC.deg                58.89:  Inc, Start 
 SPPA.psig             4560.00:  SPP Avg 
 SPPN.psig             3600.00:  SPP Min 
 SPPX.psig             4800.00:  SPP Max 
 STIM.      10.20.48 13-Jul-20:  Start Time 
 SVCS.                 DD, MWD:  Services 
 SVER.                    9.20:  Sperry Version 
 TDAT.m                4378.01:  Tot Depth Attmp 
 TDDF.                      No:  Trip for DD 
 TDLG.m                 248.00:  Tot Depth Loggd 
 TFF .                      No:  Trip for Fail 
 TQAA.f-kp               18.00:  Torque Abs Avg 
 TQAN.f-kp               15.00:  Torque Abs Min 
 TQAX.f-kp               20.00:  Torque Abs Max 
 TRRT.°/30m               0.70:  Turn Rotating 
 MRT .                    HCIM:  Maximum Recorded Temperature 
 TTMX.degC               86.00:  Max Tool Temp 
 WBMN.klb                 3.00:  WOB Min 
 WOBA.klb                 5.00:  WOB Avg 
 WOBX.klb                 9.00:  WOB Max 
 YP  .lhf2               32.00:  Yield Point 
~Curve Information Block
#MNEM.UNIT                 API CODE     Curve Description
#---------               -----------    ---------------------------
 TIME.HHMMSS            00 000 000 000:  GT Time & Date
 GTDEPTH.m              00 000 000 000:  GT Depth
 GTPQH.psia             00 000 000 000:  GT HR Quartz Pressure
 GTTQ.degC              00 000 000 000:  GT Quartz Temperature
 GTTN.NONE              00 000 000 000:  GT Test Number
 GTET.sec               00 000 000 000:  GT Elapsed Test Time
 GTTVD.m                00 000 000 000:  GT True Vertical Depth
#Other Information
#
#WARRANTY: Halliburton will use its best efforts to furnish customers with 
#accurate information and interpretations that are part of, and incident to, the services 
#provided.  However, Halliburton cannot and does not warrant the accuracy 
#or correctness of such information and interpretations.  Under no circumstances should any 
#such information or interpretation be relied upon as the sole basis for any drilling, 
#completion, production, or financial decision or any procedure involving any risk to the 
#safety of any drilling venture, drilling rig or its crew or any other third party.  The 
#Customer has full responsibility for all drilling, completion and production operation.  
#Halliburton makes no representations or warranties, either expressed or 
#implied, including, but not limited to, the implied warranties of merchantability or fitness 
#for a particular purpose, with respect to the services rendered.  In no event will 
#Halliburton be liable for failure to obtain any particular results or for 
#any damages, including, but not limited to, indirect, special or consequential damages, 
#resulting from the use of any information or interpretation provided by Halliburton.
#
~A           TIME           GTDEPTH  GTPQH  GTTQ  GTTN  GTET   GTTVD  
# ...
   21:10:41.095.16-Jul-2020 4135.51 4700.25 77.12 7.00 138.08 2799.87
   21:10:41.295.16-Jul-2020 4135.51 4700.27 77.12 7.00 138.28 2799.87
   21:10:41.496.16-Jul-2020 4135.51 4700.22 77.12 7.00 138.48 2799.87
   21:10:41.696.16-Jul-2020 4135.51 4700.24 77.12 7.00 138.68 2799.87
   21:10:41.896.16-Jul-2020 4135.51 4700.21 77.12 7.00 138.88 2799.87
   21:10:42.096.16-Jul-2020 4135.51 4700.21 77.12 7.00 139.08 2799.87
   21:10:42.296.16-Jul-2020 4135.51 4700.21 77.12 7.00 139.28 2799.87
   21:10:42.496.16-Jul-2020 4135.51 4700.21 77.12 7.00 139.48 2799.87
   21:10:42.696.16-Jul-2020 4135.51 4700.22 77.12 7.00 139.68 2799.87
   21:10:42.896.16-Jul-2020 4135.51 4700.20 77.12 7.00 139.88 2799.87
   21:10:43.096.16-Jul-2020 4135.51 4700.25 77.12 7.00 140.08 2799.87
   21:10:43.297.16-Jul-2020 4135.51 4700.24 77.12 7.00 140.28 2799.87
   21:10:43.497.16-Jul-2020 4135.51 4700.24 77.12 7.00 140.48 2799.87
   21:10:43.697.16-Jul-2020 4135.51 4700.24 77.12 7.00 140.68 2799.87
   21:10:43.897.16-Jul-2020 4135.51 4700.20 77.12 7.00 140.88 2799.87
   21:10:44.097.16-Jul-2020 4135.51 4700.22 77.12 7.00 141.08 2799.87
   21:10:44.297.16-Jul-2020 4135.51 4700.24 77.12 7.00 141.28 2799.87
   21:10:44.497.16-Jul-2020 4135.51 4700.22 77.12 7.00 141.48 2799.87
   21:10:44.697.16-Jul-2020 4135.51 4700.20 77.12 7.00 141.68 2799.87
   21:10:44.898.16-Jul-2020 4135.51 4700.20 77.12 7.00 141.88 2799.87
   21:10:45.098.16-Jul-2020 4135.51 4700.22 77.12 7.00 142.08 2799.87
   21:10:45.298.16-Jul-2020 4135.51 4700.22 77.12 7.00 142.28 2799.87
   21:10:45.498.16-Jul-2020 4135.51 4700.22 77.12 7.00 142.48 2799.87
   21:10:45.698.16-Jul-2020 4135.51 4700.20 77.12 7.00 142.68 2799.87
   21:10:45.898.16-Jul-2020 4135.51 4700.22 77.12 7.00 142.88 2799.87
   21:10:46.098.16-Jul-2020 4135.51 4700.23 77.12 7.00 143.08 2799.87
   21:10:46.298.16-Jul-2020 4135.51 4700.23 77.12 7.00 143.28 2799.87
   21:10:46.498.16-Jul-2020 4135.51 4700.22 77.12 7.00 143.48 2799.87
   21:10:46.699.16-Jul-2020 4135.51 4700.21 77.12 7.00 143.68 2799.87
   21:10:46.899.16-Jul-2020 4135.51 4700.31 77.12 7.00 143.88 2799.87
   21:10:47.099.16-Jul-2020 4135.51 4700.18 77.12 7.00 144.08 2799.87
   21:10:47.299.16-Jul-2020 4135.51 4700.18 77.12 7.00 144.28 2799.87
   21:10:47.499.16-Jul-2020 4135.51 4668.71 77.12 7.00 144.48 2799.87
   21:10:47.699.16-Jul-2020 4135.51 4661.18 77.12 7.00 144.68 2799.87
   21:10:47.899.16-Jul-2020 4135.51 4655.76 77.12 7.00 144.88 2799.87
   21:10:48.099.16-Jul-2020 4135.51 4653.39 77.12 7.00 145.08 2799.87
   21:10:48.299.16-Jul-2020 4135.51 4653.39 77.12 7.00 145.28 2799.87
   21:10:48.500.16-Jul-2020 4135.51 4653.76 77.12 7.00 145.48 2799.87
   21:10:48.700.16-Jul-2020 4135.51 4650.28 77.12 7.00 145.68 2799.87
   21:10:48.900.16-Jul-2020 4135.51 4650.97 77.12 7.00 145.88 2799.87
   21:10:49.100.16-Jul-2020 4135.51 4650.69 77.11 7.00 146.08 2799.87
   21:10:49.300.16-Jul-2020 4135.51 4650.69 77.11 7.00 146.28 2799.87
   21:10:49.500.16-Jul-2020 4135.51 4645.99 77.11 7.00 146.48 2799.87
   21:10:49.700.16-Jul-2020 4135.51 4646.41 77.11 7.00 146.68 2799.87
   21:10:49.900.16-Jul-2020 4135.51 4649.84 77.11 7.00 146.88 2799.87
   21:10:50.100.16-Jul-2020 4135.51 4646.69 77.11 7.00 147.08 2799.87
   21:10:50.301.16-Jul-2020 4135.51 4646.69 77.11 7.00 147.28 2799.87
   21:10:50.501.16-Jul-2020 4135.51 4649.91 77.11 7.00 147.48 2799.87
   21:10:50.701.16-Jul-2020 4135.51 4651.57 77.11 7.00 147.68 2799.87
   21:10:50.901.16-Jul-2020 4135.51 4649.84 77.11 7.00 147.88 2799.87
   21:10:51.101.16-Jul-2020 4135.51 4648.36 77.11 7.00 148.08 2799.87
   21:10:51.301.16-Jul-2020 4135.51 4648.36 77.11 7.00 148.28 2799.87
   21:10:51.501.16-Jul-2020 4135.51 4645.02 77.11 7.00 148.48 2799.87
   21:10:51.701.16-Jul-2020 4135.51 4644.91 77.11 7.00 148.68 2799.87
   21:10:51.901.16-Jul-2020 4135.51 4643.83 77.11 7.00 148.88 2799.87
   21:10:52.102.16-Jul-2020 4135.51 4645.23 77.11 7.00 149.08 2799.87
   21:10:52.302.16-Jul-2020 4135.51 4645.23 77.11 7.00 149.28 2799.87
   21:10:52.502.16-Jul-2020 4135.51 4647.02 77.11 7.00 149.48 2799.87
   21:10:52.702.16-Jul-2020 4135.51 4646.69 77.11 7.00 149.68 2799.87
   21:10:52.902.16-Jul-2020 4135.51 4645.91 77.11 7.00 149.88 2799.87
   21:10:53.102.16-Jul-2020 4135.51 4646.76 77.11 7.00 150.09 2799.87
   21:10:53.302.16-Jul-2020 4135.51 4647.24 77.11 7.00 150.29 2799.87
   21:10:53.502.16-Jul-2020 4135.51 4645.99 77.11 7.00 150.49 2799.87
   21:10:53.703.16-Jul-2020 4135.51 4647.03 77.11 7.00 150.69 2799.87
   21:10:53.903.16-Jul-2020 4135.51 4648.70 77.11 7.00 150.89 2799.87
   21:10:54.103.16-Jul-2020 4135.51 4655.58 77.11 7.00 151.09 2799.87
   21:10:54.303.16-Jul-2020 4135.51 4655.58 77.11 7.00 151.29 2799.87
   21:10:54.503.16-Jul-2020 4135.51 4668.24 77.11 7.00 151.49 2799.87
   21:10:54.703.16-Jul-2020 4135.51 4665.20 77.11 7.00 151.69 2799.87
   21:10:54.903.16-Jul-2020 4135.51 4663.03 77.11 7.00 151.89 2799.87
   21:10:55.103.16-Jul-2020 4135.51 4658.96 77.11 7.00 152.09 2799.87
   21:10:55.303.16-Jul-2020 4135.51 4657.05 77.11 7.00 152.29 2799.87
   21:10:55.504.16-Jul-2020 4135.51 4656.72 77.11 7.00 152.49 2799.87
   21:10:55.704.16-Jul-2020 4135.51 4654.44 77.11 7.00 152.69 2799.87
   21:10:55.904.16-Jul-2020 4135.51 4653.90 77.11 7.00 152.89 2799.87
   21:10:56.104.16-Jul-2020 4135.51 4651.61 77.11 7.00 153.09 2799.87
   21:10:56.304.16-Jul-2020 4135.51 4646.25 77.11 7.00 153.29 2799.87
   21:10:56.504.16-Jul-2020 4135.51 4642.12 77.11 7.00 153.49 2799.87
   21:10:56.704.16-Jul-2020 4135.51 4642.19 77.11 7.00 153.69 2799.87
   21:10:56.904.16-Jul-2020 4135.51 4637.58 77.11 7.00 153.89 2799.87
   21:10:57.104.16-Jul-2020 4135.51 4640.66 77.11 7.00 154.09 2799.87
   21:10:57.305.16-Jul-2020 4135.51 4640.50 77.11 7.00 154.29 2799.87
   21:10:57.505.16-Jul-2020 4135.51 4683.60 77.11 7.00 154.49 2799.87
   21:10:57.705.16-Jul-2020 4135.51 4699.73 77.11 7.00 154.69 2799.87
   21:10:57.905.16-Jul-2020 4135.51 4699.72 77.11 7.00 154.89 2799.87
   21:10:58.105.16-Jul-2020 4135.51 4699.76 77.11 7.00 155.09 2799.87
   21:10:58.305.16-Jul-2020 4135.51 4699.76 77.11 7.00 155.29 2799.87
   21:10:58.505.16-Jul-2020 4135.51 4699.78 77.11 7.00 155.49 2799.87
   21:10:58.705.16-Jul-2020 4135.51 4699.82 77.11 7.00 155.69 2799.87
   21:10:58.905.16-Jul-2020 4135.51 4699.91 77.11 7.00 155.89 2799.87
   21:10:59.106.16-Jul-2020 4135.51 4699.96 77.11 7.00 156.09 2799.87
   21:10:59.306.16-Jul-2020 4135.51 4699.93 77.11 7.00 156.29 2799.87
   21:10:59.506.16-Jul-2020 4135.51 4699.94 77.11 7.00 156.49 2799.87
   21:10:59.706.16-Jul-2020 4135.51 4699.97 77.11 7.00 156.69 2799.87
   21:10:59.906.16-Jul-2020 4135.51 4699.99 77.11 7.00 156.89 2799.87
   21:11:00.106.16-Jul-2020 4135.51 4700.00 77.11 7.00 157.09 2799.87
   21:11:00.306.16-Jul-2020 4135.51 4700.00 77.11 7.00 157.29 2799.87
   21:11:00.506.16-Jul-2020 4135.51 4699.95 77.11 7.00 157.49 2799.87
   21:11:00.706.16-Jul-2020 4135.51 4700.03 77.11 7.00 157.69 2799.87
   21:11:00.907.16-Jul-2020 4135.51 4700.06 77.11 7.00 157.89 2799.87
   21:11:01.107.16-Jul-2020 4135.51 4700.04 77.11 7.00 158.09 2799.87
   21:11:01.307.16-Jul-2020 4135.51 4700.03 77.11 7.00 158.29 2799.87
   21:11:01.507.16-Jul-2020 4135.51 4700.05 77.11 7.00 158.49 2799.87
   21:11:01.707.16-Jul-2020 4135.51 4699.97 77.11 7.00 158.69 2799.87
   21:11:01.907.16-Jul-2020 4135.51 4700.09 77.11 7.00 158.89 2799.87
   21:11:02.107.16-Jul-2020 4135.51 4700.09 77.11 7.00 159.09 2799.87
   21:11:02.307.16-Jul-2020 4135.51 4700.09 77.11 7.00 159.29 2799.87
   21:11:02.507.16-Jul-2020 4135.51 4700.04 77.11 7.00 159.49 2799.87
   21:11:02.708.16-Jul-2020 4135.51 4700.08 77.11 7.00 159.69 2799.87
   21:11:02.908.16-Jul-2020 4135.51 4700.04 77.11 7.00 159.89 2799.87
   21:11:03.108.16-Jul-2020 4135.51 4700.09 77.11 7.00 160.09 2799.87
   21:11:03.308.16-Jul-2020 4135.51 4700.05 77.11 7.00 160.29 2799.87
   21:11:03.508.16-Jul-2020 4135.51 4700.08 77.11 7.00 160.49 2799.87
   21:11:03.708.16-Jul-2020 4135.51 4700.06 77.11 7.00 160.69 2799.87
   21:11:03.908.16-Jul-2020 4135.51 4700.07 77.11 7.00 160.89 2799.87
