~Version Information
 VERS.                  2.0:   CWLS log ASCII Standard -VERSION 2.0
 WRAP.                   NO:   One line per depth step
~Well Information Block
#MNEM.UNIT     VALUE/NAME     DESCRIPTION
#---------     -----------    ---------------------------
 STRT.S             17:56:46 16-Jul-20: START TIME 17:56:46 16-Jul-20
 STOP.S             18:03:39 16-Jul-20: STOP TIME  18:03:39 16-Jul-20
 STEP.S                   0.00: STEP TIME
 NULL.                 -999.25: NULL VALUE
 MDS .        Operator Entered:  MAG DATA SOURCE
 UNIT.                     N/A:  LOGGING EQUIPMENT ID
 DCON.         Sperry Drilling:  DIRECTNL CONTR
 DOE .                     N/A:  DOE NUMBER
 RIG .               EastAzeri:  RIG NAME
 JOBN.        AZ-XX-0906363297:  JOB TICKET NUMB
 MWDS.                    Baku:  MWD SHOP
 SRVC.     Turan Drilling & Engineering:  CONTRACTOR
 PROV.                    Baku:  PROVINCE
 STAT.                    Baku:  STATE NAME
 REGN.                   EESSA:  REGION
 BASE.              Azerbaijan:  LOGGING EQUIPMENT BASE LOCATION
 WTYP.                Deviated:  WELL TYPE
 UWI .                     N/A:  UNIQUE WELL IDENTIFIER
 API .                     N/A:  API NUMBER
 COMP.     BP Exploration (Caspian Sea) ltd.:  COMPANY
 WELL.                    D07z:  WELL NAME
 CTRY.              Azerbaijan:  COUNTRY NAME
 SON .        AZ-XX-0906363297:  JOB NUMBER
 FLD .                     ACG:  FIELD NAME
 PDAT.          Mean Sea Level:  PERMANENT DATUM
 FTOP.          Formation Tops:  FORM TOPS DESC
 ILTD.               Lithology:  INTERP LTH DESC
 SVYD.                  Survey:  SURVEY DESC
 DMOD.             Drill Model:  DRILL MOD DESC
 HPTY.       Minimum Curvature:  HOLE POS TYPE
 NREF.                    Grid:  NORTH REFERENCE
 SPUD.               28-Jun-20:  SPUD DATE
 DATE.      18.27.12 28-Jun-20:  END TIME
 STIM.      18.27.12 28-Jun-20:  START TIME
 DMF .             Drill Floor:  DRILL MEAS FROM
 DFST.                        :  DIST FSL TEXT
 DFWT.                        :  DIST FWL TEXT
 CNTY.                        :  COUNTY
 LOC .                        :  LOCATION
 LMF .             Drill Floor:  LOG MEASURED FROM
 VSNS.m                  -7.75:  VERT SEC N/S
 VSEW.m                  -9.19:  VERT SEC E/W
 MMDE.m                   0.00:  MAGUTM CALC DEP
 AGAP.m                  43.60:  AIR GAP
 DEP .m                4058.99:  DEPTH
 APD .m                  43.60:  DEPTH ABOVE PD
 WDMS.m                 151.80:  WD ELEV
 EGL .m                   0.00:  GROUND ELEVATION
 EPD .m                   0.00:  ELEVATION
 AZTC.deg                 6.19:  AZM TOTAL CORR
 GRDC.deg                 0.27:  GRID CORRECTION
 MDEC.deg                 6.46:  MAGNETIC DECL
 MDIP.deg                59.47:  MAGNETIC DIP
 MFLD.nT              50279.00:  MAGNETIC FIELD
 GVFD.g                   1.00:  GRAVITY FIELD
 VSDR.deg               249.96:  VERT SEC DIRECT
 TDD .m                   0.00:  TOTAL DEPTH (DRILLER)
 SDEP.m                   0.00:  START DEPTH
 DFSL.m                   0.00:  DISTANCE FSL
 DFWL.m                   0.00:  DISTANCE FWL
 UTMY.m             4431880.20:  UTM Y
 UTMX.m              538763.98:  UTM X
 WHEW.m                  -9.19:  WELL HEAD E/W
 WHNS.m                  -7.75:  WELL HEAD N/S
 LONG.deg                51.45:  LONGITUDE
 LATI.deg                40.02:  LATITUDE
 TVDS.m                  43.60:  TVDSS CORRECTN
 EKB .m                  43.60:  KB ELEVATION
 EDF .m                  43.60:  DF ELEVATION
 TDL .m                 248.00:  TOTAL DEPTH (LOGGER)
 MAGU.                 1849075:  MAGUTM CHECKSUM
 VSC .                       0:  VS TO CLOSURE
~Parameter Information Block
#MNEM.UNIT       Value        Description
#---------     -----------    ---------------------------
 AV  .mps                 6.34:  Ann Velocity 
 AVMX.mps                 7.00:  Max Ann Veloc 
 AZIF.deg               260.29:  Azm, Final 
 BHAT.        Rotary Steerable:  BHA Type 
 BROT.°/30m               1.20:  Build Rotating 
 BS  .in                  8.50:  Bit Size 
 BSZ .in                  8.50:  Bit Size 
 BTPL.psig              620.00:  Bit Press Loss 
 CABU.                     Yes:  Customer Abuse 
 COMM.                     LqT:  Run Comments 1 
 TCS .hr                 56.22:  Time Ciculation Ended 
 CV  .mps                 3.05:  Crit Velocity 
 CVMX.mps                 3.20:  Max Crit Veloc 
 DD1 .            Musa Ahmadov:  Direct Drillr 1 
 DDSV.                 iCruise:  DD Service 
 DEFF.%                  98.00:  % Det Eff 
 DLRX.°/30m               2.78:  Dogleg Rot Max 
 DLSO.°/30m               0.00:  Dogleg Oriented 
 DLSX.°/30m               0.00:  Dogleg Str Max 
 DRET.      05.20.48 16-Jul-20:  Drill End Time 
 DRST.      10.20.48 13-Jul-20:  Drill Start Tim 
 DTIM.hr                 14.25:  Time Drilling 
 EDEP.m                4326.01:  End Depth 
 ENG1.      Artemiy Matviyanov:  Engineer 1 
 ENG2.           Amrah Tahirov:  Engineer 2 
 ETIM.      22.30.00 18-Jul-20:  End Time 
 FLOI.gpm               550.00:  Flow In 
 FLON.gpm               450.00:  Flow In Min 
 FLOS.cptm                0.00:  Fluid Loss 
 FLOX.gpm               600.00:  Flow In Max 
 HFLO.                      No:  High Flow 
 HPRE.                      No:  High Pressure 
 HTEM.                      No:  High Temp 
 HYDO.m                   1.80:  Hydro Offset 
 IFIN.deg                65.41:  Inc, Final 
 IMAX.deg                65.14:  Inc Max 
 IMIN.deg                58.89:  Inc Min 
 IMND.m                4104.92:  Inc Min Depth 
 IMXD.m                4303.89:  Inc Max Depth 
 JARR.                      No:  Jarring 
 LETM.      10.20.48 17-Jul-20:  Log End Time 
 LOST.hr                     0:  Lost Rig Time 
 LSTM.      10.20.48 13-Jul-20:  Log Start Time 
 MDCL.ppm             37000.00:  Mud Chlorides 
 MDES.     Inversion Oil/Synthetic:  Mud Desc 
 DFD .sg                  1.52:  Mud Density 
 MDMN.sg                  1.52:  Dens Mud Min 
 MDMX.sg                  1.52:  Dens Mud Max 
 MOIL.                   52.70:  Run Mud Oil % 
 MOWR.                   68:32:  Run Mud OWR 
 MSND.                     0.2:  Run Mud Sand % 
 MSOL.                    21.6:  Run Mud Solids% 
 DFV .spqt               79.00:  Mud Viscosity 
 MWOD.in                  6.75:  MWD Tool OD 
 MWSI.                      No:  Serv Intrp, MWD 
 OTIM.hr                114.04:  Time Operating 
 PCON.          Wear / Scratch:  Pad Condition 
 PMAX.psia            11782.92:  Press Op, Max 
 PV  .cP                 49.00:  Mud PV 
 RUN .                     600:  Run Number 
 ROPA.m/hr               20.00:  ROP Avg 
 ROPN.m/hr               15.00:  ROP Min 
 ROPX.m/hr               22.00:  ROP Max 
 RPMA.rpm               120.00:  RPM Surface Avg 
 RPMN.rpm                90.00:  RPM Surface Min 
 RPMX.rpm               140.00:  RPM Surface Max 
 RRUN.                     600:  Rig Run Number 
 SAZI.deg               260.29:  Azm, Start 
 SDEP.m                4078.01:  Start Depth 
 SIDD.                      No:  Serv Intrp, DD 
 SINC.deg                58.89:  Inc, Start 
 SPPA.psig             4560.00:  SPP Avg 
 SPPN.psig             3600.00:  SPP Min 
 SPPX.psig             4800.00:  SPP Max 
 STIM.      10.20.48 13-Jul-20:  Start Time 
 SVCS.                 DD, MWD:  Services 
 SVER.                    9.20:  Sperry Version 
 TDAT.m                4378.01:  Tot Depth Attmp 
 TDDF.                      No:  Trip for DD 
 TDLG.m                 248.00:  Tot Depth Loggd 
 TFF .                      No:  Trip for Fail 
 TQAA.f-kp               18.00:  Torque Abs Avg 
 TQAN.f-kp               15.00:  Torque Abs Min 
 TQAX.f-kp               20.00:  Torque Abs Max 
 TRRT.°/30m               0.70:  Turn Rotating 
 MRT .                    HCIM:  Maximum Recorded Temperature 
 TTMX.degC               86.00:  Max Tool Temp 
 WBMN.klb                 3.00:  WOB Min 
 WOBA.klb                 5.00:  WOB Avg 
 WOBX.klb                 9.00:  WOB Max 
 YP  .lhf2               32.00:  Yield Point 
~Curve Information Block
#MNEM.UNIT                 API CODE     Curve Description
#---------               -----------    ---------------------------
 TIME.HHMMSS            00 000 000 000:  GT Time & Date
 GTDEPTH.m              00 000 000 000:  GT Depth
 GTPQH.psia             00 000 000 000:  GT HR Quartz Pressure
 GTTQ.degC              00 000 000 000:  GT Quartz Temperature
 GTTN.NONE              00 000 000 000:  GT Test Number
 GTET.sec               00 000 000 000:  GT Elapsed Test Time
 GTTVD.m                00 000 000 000:  GT True Vertical Depth
#Other Information
#
#WARRANTY: Halliburton will use its best efforts to furnish customers with 
#accurate information and interpretations that are part of, and incident to, the services 
#provided.  However, Halliburton cannot and does not warrant the accuracy 
#or correctness of such information and interpretations.  Under no circumstances should any 
#such information or interpretation be relied upon as the sole basis for any drilling, 
#completion, production, or financial decision or any procedure involving any risk to the 
#safety of any drilling venture, drilling rig or its crew or any other third party.  The 
#Customer has full responsibility for all drilling, completion and production operation.  
#Halliburton makes no representations or warranties, either expressed or 
#implied, including, but not limited to, the implied warranties of merchantability or fitness 
#for a particular purpose, with respect to the services rendered.  In no event will 
#Halliburton be liable for failure to obtain any particular results or for 
#any damages, including, but not limited to, indirect, special or consequential damages, 
#resulting from the use of any information or interpretation provided by Halliburton.
#
~A           TIME           GTDEPTH  GTPQH  GTTQ  GTTN  GTET   GTTVD  
# ...
   18:02:54.452.16-Jul-2020 4229.01 7006.60 79.80 4.00 368.16 2841.98
   18:02:54.652.16-Jul-2020 4229.01 7006.60 79.80 4.00 368.36 2841.98
   18:02:54.852.16-Jul-2020 4229.01 7013.20 79.80 4.00 368.56 2841.98
   18:02:55.052.16-Jul-2020 4229.01 7015.02 79.80 4.00 368.76 2841.98
   18:02:55.253.16-Jul-2020 4229.01 7025.99 79.80 4.00 368.96 2841.98
   18:02:55.453.16-Jul-2020 4229.01 7010.23 79.80 4.00 369.16 2841.98
   18:02:55.653.16-Jul-2020 4229.01 7010.23 79.80 4.00 369.36 2841.98
   18:02:55.853.16-Jul-2020 4229.01 7013.33 79.80 4.00 369.56 2841.98
   18:02:56.053.16-Jul-2020 4229.01 7016.05 79.80 4.00 369.76 2841.98
   18:02:56.253.16-Jul-2020 4229.01 7013.44 79.80 4.00 369.96 2841.98
   18:02:56.453.16-Jul-2020 4229.01 7014.46 79.80 4.00 370.16 2841.98
   18:02:56.653.16-Jul-2020 4229.01 7014.46 79.80 4.00 370.36 2841.98
   18:02:56.853.16-Jul-2020 4229.01 7014.47 79.80 4.00 370.56 2841.98
   18:02:57.053.16-Jul-2020 4229.01 7014.35 79.80 4.00 370.76 2841.98
   18:02:57.253.16-Jul-2020 4229.01 7013.26 79.80 4.00 370.96 2841.98
   18:02:57.454.16-Jul-2020 4229.01 7014.03 79.80 4.00 371.16 2841.98
   18:02:57.654.16-Jul-2020 4229.01 7013.52 79.80 4.00 371.36 2841.98
   18:02:57.854.16-Jul-2020 4229.01 7012.85 79.80 4.00 371.56 2841.98
   18:02:58.054.16-Jul-2020 4229.01 7019.69 79.80 4.00 371.76 2841.98
   18:02:58.254.16-Jul-2020 4229.01 7012.02 79.80 4.00 371.97 2841.98
   18:02:58.454.16-Jul-2020 4229.01 7016.93 79.80 4.00 372.17 2841.98
   18:02:58.654.16-Jul-2020 4229.01 7016.93 79.80 4.00 372.37 2841.98
   18:02:58.854.16-Jul-2020 4229.01 7014.74 79.80 4.00 372.57 2841.98
   18:02:59.054.16-Jul-2020 4229.01 7012.54 79.80 4.00 372.77 2841.98
   18:02:59.254.16-Jul-2020 4229.01 7013.47 79.80 4.00 372.97 2841.98
   18:02:59.454.16-Jul-2020 4229.01 7013.33 79.79 4.00 373.17 2841.98
   18:02:59.655.16-Jul-2020 4229.01 7013.33 79.79 4.00 373.37 2841.98
   18:02:59.855.16-Jul-2020 4229.01 7013.43 79.79 4.00 373.57 2841.98
   18:03:00.055.16-Jul-2020 4229.01 7013.43 79.79 4.00 373.77 2841.98
   18:03:00.255.16-Jul-2020 4229.01 7013.59 79.79 4.00 373.97 2841.98
   18:03:00.455.16-Jul-2020 4229.01 7012.80 79.79 4.00 374.17 2841.98
   18:03:00.655.16-Jul-2020 4229.01 7012.80 79.79 4.00 374.37 2841.98
   18:03:00.855.16-Jul-2020 4229.01 7013.85 79.79 4.00 374.57 2841.98
   18:03:01.055.16-Jul-2020 4229.01 7012.88 79.79 4.00 374.77 2841.98
   18:03:01.255.16-Jul-2020 4229.01 7024.80 79.79 4.00 374.97 2841.98
   18:03:01.455.16-Jul-2020 4229.01 7009.77 79.79 4.00 375.17 2841.98
   18:03:01.655.16-Jul-2020 4229.01 7016.80 79.79 4.00 375.37 2841.98
   18:03:01.856.16-Jul-2020 4229.01 7013.03 79.79 4.00 375.57 2841.98
   18:03:02.056.16-Jul-2020 4229.01 7027.53 79.79 4.00 375.77 2841.98
   18:03:02.256.16-Jul-2020 4229.01 7008.11 79.79 4.00 375.97 2841.98
   18:03:02.456.16-Jul-2020 4229.01 7016.75 79.79 4.00 376.17 2841.98
   18:03:02.656.16-Jul-2020 4229.01 7016.75 79.79 4.00 376.37 2841.98
   18:03:02.856.16-Jul-2020 4229.01 7015.31 79.79 4.00 376.57 2841.98
   18:03:03.056.16-Jul-2020 4229.01 7019.09 79.79 4.00 376.77 2841.98
   18:03:03.256.16-Jul-2020 4229.01 7013.00 79.79 4.00 376.97 2841.98
   18:03:03.456.16-Jul-2020 4229.01 7015.33 79.79 4.00 377.17 2841.98
   18:03:03.656.16-Jul-2020 4229.01 7015.33 79.79 4.00 377.37 2841.98
   18:03:03.856.16-Jul-2020 4229.01 7016.21 79.79 4.00 377.57 2841.98
   18:03:04.056.16-Jul-2020 4229.01 7013.14 79.79 4.00 377.77 2841.98
   18:03:04.257.16-Jul-2020 4229.01 7013.75 79.79 4.00 377.97 2841.98
   18:03:04.457.16-Jul-2020 4229.01 7021.50 79.79 4.00 378.17 2841.98
   18:03:04.657.16-Jul-2020 4229.01 7021.50 79.79 4.00 378.37 2841.98
   18:03:04.857.16-Jul-2020 4229.01 7018.73 79.79 4.00 378.57 2841.98
   18:03:05.057.16-Jul-2020 4229.01 7015.89 79.79 4.00 378.77 2841.98
   18:03:05.257.16-Jul-2020 4229.01 7016.41 79.79 4.00 378.97 2841.98
   18:03:05.457.16-Jul-2020 4229.01 7014.60 79.78 4.00 379.17 2841.98
   18:03:05.657.16-Jul-2020 4229.01 7014.75 79.78 4.00 379.37 2841.98
   18:03:05.857.16-Jul-2020 4229.01 7014.21 79.78 4.00 379.57 2841.98
   18:03:06.057.16-Jul-2020 4229.01 7013.98 79.78 4.00 379.77 2841.98
   18:03:06.257.16-Jul-2020 4229.01 7014.22 79.78 4.00 379.97 2841.98
   18:03:06.458.16-Jul-2020 4229.01 7013.92 79.78 4.00 380.17 2841.98
   18:03:06.658.16-Jul-2020 4229.01 7013.92 79.78 4.00 380.37 2841.98
   18:03:06.858.16-Jul-2020 4229.01 7012.62 79.78 4.00 380.57 2841.98
   18:03:07.058.16-Jul-2020 4229.01 7020.40 79.78 4.00 380.77 2841.98
   18:03:07.258.16-Jul-2020 4229.01 7013.52 79.78 4.00 380.97 2841.98
   18:03:07.458.16-Jul-2020 4229.01 7015.49 79.78 4.00 381.17 2841.98
   18:03:07.658.16-Jul-2020 4229.01 7015.49 79.78 4.00 381.37 2841.98
   18:03:07.858.16-Jul-2020 4229.01 7016.40 79.78 4.00 381.57 2841.98
   18:03:08.058.16-Jul-2020 4229.01 7013.76 79.78 4.00 381.77 2841.98
   18:03:08.258.16-Jul-2020 4229.01 7014.01 79.78 4.00 381.97 2841.98
   18:03:08.458.16-Jul-2020 4229.01 7014.10 79.78 4.00 382.17 2841.98
   18:03:08.659.16-Jul-2020 4229.01 7014.10 79.78 4.00 382.37 2841.98
   18:03:08.859.16-Jul-2020 4229.01 7014.26 79.78 4.00 382.57 2841.98
   18:03:09.059.16-Jul-2020 4229.01 7013.43 79.78 4.00 382.77 2841.98
   18:03:09.259.16-Jul-2020 4229.01 7013.04 79.78 4.00 382.97 2841.98
   18:03:09.459.16-Jul-2020 4229.01 7013.85 79.78 4.00 383.17 2841.98
   18:03:09.659.16-Jul-2020 4229.01 7013.98 79.78 4.00 383.37 2841.98
   18:03:09.859.16-Jul-2020 4229.01 7012.54 79.78 4.00 383.57 2841.98
   18:03:10.059.16-Jul-2020 4229.01 7011.76 79.78 4.00 383.77 2841.98
   18:03:10.259.16-Jul-2020 4229.01 7012.57 79.78 4.00 383.97 2841.98
   18:03:10.459.16-Jul-2020 4229.01 7020.39 79.78 4.00 384.17 2841.98
   18:03:10.659.16-Jul-2020 4229.01 7012.33 79.78 4.00 384.37 2841.98
   18:03:10.860.16-Jul-2020 4229.01 7016.32 79.78 4.00 384.57 2841.98
   18:03:11.060.16-Jul-2020 4229.01 7013.38 79.78 4.00 384.77 2841.98
   18:03:11.260.16-Jul-2020 4229.01 7021.59 79.78 4.00 384.97 2841.98
   18:03:11.460.16-Jul-2020 4229.01 7012.75 79.78 4.00 385.17 2841.98
   18:03:11.660.16-Jul-2020 4229.01 7012.75 79.78 4.00 385.37 2841.98
   18:03:11.860.16-Jul-2020 4229.01 7012.75 79.78 4.00 385.57 2841.98
   18:03:12.060.16-Jul-2020 4229.01 7012.75 79.78 4.00 385.77 2841.98
   18:03:12.260.16-Jul-2020 4229.01 7029.37 79.77 4.00 385.97 2841.98
   18:03:12.460.16-Jul-2020 4229.01 7005.95 79.77 4.00 386.17 2841.98
   18:03:12.660.16-Jul-2020 4229.01 7017.11 79.77 4.00 386.37 2841.98
   18:03:12.860.16-Jul-2020 4229.01 7013.48 79.77 4.00 386.57 2841.98
   18:03:13.060.16-Jul-2020 4229.01 7014.79 79.77 4.00 386.77 2841.98
   18:03:13.261.16-Jul-2020 4229.01 7012.71 79.77 4.00 386.97 2841.98
   18:03:13.461.16-Jul-2020 4229.01 7021.06 79.77 4.00 387.17 2841.98
   18:03:13.661.16-Jul-2020 4229.01 7013.85 79.77 4.00 387.37 2841.98
   18:03:13.861.16-Jul-2020 4229.01 7016.18 79.77 4.00 387.57 2841.98
   18:03:14.061.16-Jul-2020 4229.01 7014.93 79.77 4.00 387.77 2841.98
   18:03:14.261.16-Jul-2020 4229.01 7016.92 79.77 4.00 387.97 2841.98
   18:03:14.461.16-Jul-2020 4229.01 7015.18 79.77 4.00 388.17 2841.98
   18:03:14.661.16-Jul-2020 4229.01 7015.80 79.77 4.00 388.37 2841.98
   18:03:14.861.16-Jul-2020 4229.01 7015.03 79.77 4.00 388.57 2841.98
   18:03:15.061.16-Jul-2020 4229.01 7014.09 79.77 4.00 388.77 2841.98
   18:03:15.261.16-Jul-2020 4229.01 7014.25 79.77 4.00 388.97 2841.98
   18:03:15.462.16-Jul-2020 4229.01 7013.88 79.77 4.00 389.17 2841.98
   18:03:15.662.16-Jul-2020 4229.01 7013.90 79.77 4.00 389.37 2841.98
   18:03:15.862.16-Jul-2020 4229.01 7012.92 79.77 4.00 389.57 2841.98
   18:03:16.062.16-Jul-2020 4229.01 7012.39 79.77 4.00 389.77 2841.98
   18:03:16.262.16-Jul-2020 4229.01 7029.10 79.77 4.00 389.97 2841.98
   18:03:16.462.16-Jul-2020 4229.01 7007.32 79.77 4.00 390.17 2841.98
   18:03:16.662.16-Jul-2020 4229.01 7015.82 79.77 4.00 390.37 2841.98
   18:03:16.862.16-Jul-2020 4229.01 7012.27 79.77 4.00 390.57 2841.98
   18:03:17.062.16-Jul-2020 4229.01 7014.72 79.77 4.00 390.77 2841.98
   18:03:17.262.16-Jul-2020 4229.01 7012.45 79.77 4.00 390.97 2841.98
