~Version Information
 VERS.                  2.0:   CWLS log ASCII Standard -VERSION 2.0
 WRAP.                   NO:   One line per depth step
~Well Information Block
#MNEM.UNIT     VALUE/NAME     DESCRIPTION
#---------     -----------    ---------------------------
 STRT.S             16:06:05 16-Jul-20: START TIME 16:06:05 16-Jul-20
 STOP.S             16:12:59 16-Jul-20: STOP TIME  16:12:59 16-Jul-20
 STEP.S                   0.00: STEP TIME
 NULL.                 -999.25: NULL VALUE
 MDS .        Operator Entered:  MAG DATA SOURCE
 UNIT.                     N/A:  LOGGING EQUIPMENT ID
 DCON.         Sperry Drilling:  DIRECTNL CONTR
 DOE .                     N/A:  DOE NUMBER
 RIG .               EastAzeri:  RIG NAME
 JOBN.        AZ-XX-0906363297:  JOB TICKET NUMB
 MWDS.                    Baku:  MWD SHOP
 SRVC.     Turan Drilling & Engineering:  CONTRACTOR
 PROV.                    Baku:  PROVINCE
 STAT.                    Baku:  STATE NAME
 REGN.                   EESSA:  REGION
 BASE.              Azerbaijan:  LOGGING EQUIPMENT BASE LOCATION
 WTYP.                Deviated:  WELL TYPE
 UWI .                     N/A:  UNIQUE WELL IDENTIFIER
 API .                     N/A:  API NUMBER
 COMP.     BP Exploration (Caspian Sea) ltd.:  COMPANY
 WELL.                    D07z:  WELL NAME
 CTRY.              Azerbaijan:  COUNTRY NAME
 SON .        AZ-XX-0906363297:  JOB NUMBER
 FLD .                     ACG:  FIELD NAME
 PDAT.          Mean Sea Level:  PERMANENT DATUM
 FTOP.          Formation Tops:  FORM TOPS DESC
 ILTD.               Lithology:  INTERP LTH DESC
 SVYD.                  Survey:  SURVEY DESC
 DMOD.             Drill Model:  DRILL MOD DESC
 HPTY.       Minimum Curvature:  HOLE POS TYPE
 NREF.                    Grid:  NORTH REFERENCE
 SPUD.               28-Jun-20:  SPUD DATE
 DATE.      18.27.12 28-Jun-20:  END TIME
 STIM.      18.27.12 28-Jun-20:  START TIME
 DMF .             Drill Floor:  DRILL MEAS FROM
 DFST.                        :  DIST FSL TEXT
 DFWT.                        :  DIST FWL TEXT
 CNTY.                        :  COUNTY
 LOC .                        :  LOCATION
 LMF .             Drill Floor:  LOG MEASURED FROM
 VSNS.m                  -7.75:  VERT SEC N/S
 VSEW.m                  -9.19:  VERT SEC E/W
 MMDE.m                   0.00:  MAGUTM CALC DEP
 AGAP.m                  43.60:  AIR GAP
 DEP .m                4058.99:  DEPTH
 APD .m                  43.60:  DEPTH ABOVE PD
 WDMS.m                 151.80:  WD ELEV
 EGL .m                   0.00:  GROUND ELEVATION
 EPD .m                   0.00:  ELEVATION
 AZTC.deg                 6.19:  AZM TOTAL CORR
 GRDC.deg                 0.27:  GRID CORRECTION
 MDEC.deg                 6.46:  MAGNETIC DECL
 MDIP.deg                59.47:  MAGNETIC DIP
 MFLD.nT              50279.00:  MAGNETIC FIELD
 GVFD.g                   1.00:  GRAVITY FIELD
 VSDR.deg               249.96:  VERT SEC DIRECT
 TDD .m                   0.00:  TOTAL DEPTH (DRILLER)
 SDEP.m                   0.00:  START DEPTH
 DFSL.m                   0.00:  DISTANCE FSL
 DFWL.m                   0.00:  DISTANCE FWL
 UTMY.m             4431880.20:  UTM Y
 UTMX.m              538763.98:  UTM X
 WHEW.m                  -9.19:  WELL HEAD E/W
 WHNS.m                  -7.75:  WELL HEAD N/S
 LONG.deg                51.45:  LONGITUDE
 LATI.deg                40.02:  LATITUDE
 TVDS.m                  43.60:  TVDSS CORRECTN
 EKB .m                  43.60:  KB ELEVATION
 EDF .m                  43.60:  DF ELEVATION
 TDL .m                 248.00:  TOTAL DEPTH (LOGGER)
 MAGU.                 1849075:  MAGUTM CHECKSUM
 VSC .                       0:  VS TO CLOSURE
~Parameter Information Block
#MNEM.UNIT       Value        Description
#---------     -----------    ---------------------------
 AV  .mps                 6.34:  Ann Velocity 
 AVMX.mps                 7.00:  Max Ann Veloc 
 AZIF.deg               260.29:  Azm, Final 
 BHAT.        Rotary Steerable:  BHA Type 
 BROT.°/30m               1.20:  Build Rotating 
 BS  .in                  8.50:  Bit Size 
 BSZ .in                  8.50:  Bit Size 
 BTPL.psig              620.00:  Bit Press Loss 
 CABU.                     Yes:  Customer Abuse 
 COMM.                     l&q:  Run Comments 1 
 TCS .hr                 56.22:  Time Ciculation Ended 
 CV  .mps                 3.05:  Crit Velocity 
 CVMX.mps                 3.20:  Max Crit Veloc 
 DD1 .            Musa Ahmadov:  Direct Drillr 1 
 DDSV.                 iCruise:  DD Service 
 DEFF.%                  98.00:  % Det Eff 
 DLRX.°/30m               2.78:  Dogleg Rot Max 
 DLSO.°/30m               0.00:  Dogleg Oriented 
 DLSX.°/30m               0.00:  Dogleg Str Max 
 DRET.      05.20.48 16-Jul-20:  Drill End Time 
 DRST.      10.20.48 13-Jul-20:  Drill Start Tim 
 DTIM.hr                 14.25:  Time Drilling 
 EDEP.m                4326.01:  End Depth 
 ENG1.      Artemiy Matviyanov:  Engineer 1 
 ENG2.           Amrah Tahirov:  Engineer 2 
 ETIM.      22.30.00 18-Jul-20:  End Time 
 FLOI.gpm               550.00:  Flow In 
 FLON.gpm               450.00:  Flow In Min 
 FLOS.cptm                0.00:  Fluid Loss 
 FLOX.gpm               600.00:  Flow In Max 
 HFLO.                      No:  High Flow 
 HPRE.                      No:  High Pressure 
 HTEM.                      No:  High Temp 
 HYDO.m                   1.80:  Hydro Offset 
 IFIN.deg                65.41:  Inc, Final 
 IMAX.deg                65.14:  Inc Max 
 IMIN.deg                58.89:  Inc Min 
 IMND.m                4104.92:  Inc Min Depth 
 IMXD.m                4303.89:  Inc Max Depth 
 JARR.                      No:  Jarring 
 LETM.      10.20.48 17-Jul-20:  Log End Time 
 LOST.hr                     0:  Lost Rig Time 
 LSTM.      10.20.48 13-Jul-20:  Log Start Time 
 MDCL.ppm             37000.00:  Mud Chlorides 
 MDES.     Inversion Oil/Synthetic:  Mud Desc 
 DFD .sg                  1.52:  Mud Density 
 MDMN.sg                  1.52:  Dens Mud Min 
 MDMX.sg                  1.52:  Dens Mud Max 
 MOIL.                   52.70:  Run Mud Oil % 
 MOWR.                   68:32:  Run Mud OWR 
 MSND.                     0.2:  Run Mud Sand % 
 MSOL.                    21.6:  Run Mud Solids% 
 DFV .spqt               79.00:  Mud Viscosity 
 MWOD.in                  6.75:  MWD Tool OD 
 MWSI.                      No:  Serv Intrp, MWD 
 OTIM.hr                114.04:  Time Operating 
 PCON.          Wear / Scratch:  Pad Condition 
 PMAX.psia            11782.92:  Press Op, Max 
 PV  .cP                 49.00:  Mud PV 
 RUN .                     600:  Run Number 
 ROPA.m/hr               20.00:  ROP Avg 
 ROPN.m/hr               15.00:  ROP Min 
 ROPX.m/hr               22.00:  ROP Max 
 RPMA.rpm               120.00:  RPM Surface Avg 
 RPMN.rpm                90.00:  RPM Surface Min 
 RPMX.rpm               140.00:  RPM Surface Max 
 RRUN.                     600:  Rig Run Number 
 SAZI.deg               260.29:  Azm, Start 
 SDEP.m                4078.01:  Start Depth 
 SIDD.                      No:  Serv Intrp, DD 
 SINC.deg                58.89:  Inc, Start 
 SPPA.psig             4560.00:  SPP Avg 
 SPPN.psig             3600.00:  SPP Min 
 SPPX.psig             4800.00:  SPP Max 
 STIM.      10.20.48 13-Jul-20:  Start Time 
 SVCS.                 DD, MWD:  Services 
 SVER.                    9.20:  Sperry Version 
 TDAT.m                4378.01:  Tot Depth Attmp 
 TDDF.                      No:  Trip for DD 
 TDLG.m                 248.00:  Tot Depth Loggd 
 TFF .                      No:  Trip for Fail 
 TQAA.f-kp               18.00:  Torque Abs Avg 
 TQAN.f-kp               15.00:  Torque Abs Min 
 TQAX.f-kp               20.00:  Torque Abs Max 
 TRRT.°/30m               0.70:  Turn Rotating 
 MRT .                    HCIM:  Maximum Recorded Temperature 
 TTMX.degC               86.00:  Max Tool Temp 
 WBMN.klb                 3.00:  WOB Min 
 WOBA.klb                 5.00:  WOB Avg 
 WOBX.klb                 9.00:  WOB Max 
 YP  .lhf2               32.00:  Yield Point 
~Curve Information Block
#MNEM.UNIT                 API CODE     Curve Description
#---------               -----------    ---------------------------
 TIME.HHMMSS            00 000 000 000:  GT Time & Date
 GTDEPTH.m              00 000 000 000:  GT Depth
 GTPQH.psia             00 000 000 000:  GT HR Quartz Pressure
 GTTQ.degC              00 000 000 000:  GT Quartz Temperature
 GTTN.NONE              00 000 000 000:  GT Test Number
 GTET.sec               00 000 000 000:  GT Elapsed Test Time
 GTTVD.m                00 000 000 000:  GT True Vertical Depth
#Other Information
#
#WARRANTY: Halliburton will use its best efforts to furnish customers with 
#accurate information and interpretations that are part of, and incident to, the services 
#provided.  However, Halliburton cannot and does not warrant the accuracy 
#or correctness of such information and interpretations.  Under no circumstances should any 
#such information or interpretation be relied upon as the sole basis for any drilling, 
#completion, production, or financial decision or any procedure involving any risk to the 
#safety of any drilling venture, drilling rig or its crew or any other third party.  The 
#Customer has full responsibility for all drilling, completion and production operation.  
#Halliburton makes no representations or warranties, either expressed or 
#implied, including, but not limited to, the implied warranties of merchantability or fitness 
#for a particular purpose, with respect to the services rendered.  In no event will 
#Halliburton be liable for failure to obtain any particular results or for 
#any damages, including, but not limited to, indirect, special or consequential damages, 
#resulting from the use of any information or interpretation provided by Halliburton.
#
~A           TIME           GTDEPTH  GTPQH  GTTQ  GTTN  GTET   GTTVD  
# ...
   16:11:50.838.16-Jul-2020 4280.51 4342.53 80.07 1.00 345.07 2863.78
   16:11:51.038.16-Jul-2020 4280.51 4342.45 80.07 1.00 345.27 2863.78
   16:11:51.238.16-Jul-2020 4280.51 4342.47 80.07 1.00 345.47 2863.78
   16:11:51.438.16-Jul-2020 4280.51 4342.45 80.07 1.00 345.67 2863.78
   16:11:51.638.16-Jul-2020 4280.51 4342.47 80.07 1.00 345.87 2863.78
   16:11:51.838.16-Jul-2020 4280.51 4342.67 80.07 1.00 346.07 2863.78
   16:11:52.038.16-Jul-2020 4280.51 4342.42 80.07 1.00 346.27 2863.78
   16:11:52.238.16-Jul-2020 4280.51 4342.53 80.07 1.00 346.47 2863.78
   16:11:52.438.16-Jul-2020 4280.51 4342.52 80.07 1.00 346.67 2863.78
   16:11:52.638.16-Jul-2020 4280.51 4342.40 80.07 1.00 346.87 2863.78
   16:11:52.838.16-Jul-2020 4280.51 4342.48 80.07 1.00 347.07 2863.78
   16:11:53.038.16-Jul-2020 4280.51 4342.48 80.07 1.00 347.27 2863.78
   16:11:53.238.16-Jul-2020 4280.51 4342.46 80.07 1.00 347.47 2863.78
   16:11:53.438.16-Jul-2020 4280.51 4342.46 80.07 1.00 347.67 2863.78
   16:11:53.638.16-Jul-2020 4280.51 4342.59 80.07 1.00 347.87 2863.78
   16:11:53.838.16-Jul-2020 4280.51 4342.67 80.07 1.00 348.07 2863.78
   16:11:54.038.16-Jul-2020 4280.51 4342.43 80.07 1.00 348.27 2863.78
   16:11:54.238.16-Jul-2020 4280.51 4342.43 80.07 1.00 348.47 2863.78
   16:11:54.439.16-Jul-2020 4280.51 4342.69 80.07 1.00 348.67 2863.78
   16:11:54.639.16-Jul-2020 4280.51 4342.38 80.07 1.00 348.87 2863.78
   16:11:54.839.16-Jul-2020 4280.51 4342.51 80.07 1.00 349.07 2863.78
   16:11:55.039.16-Jul-2020 4280.51 4342.51 80.07 1.00 349.27 2863.78
   16:11:55.239.16-Jul-2020 4280.51 4342.46 80.07 1.00 349.47 2863.78
   16:11:55.439.16-Jul-2020 4280.51 4342.73 80.07 1.00 349.67 2863.78
   16:11:55.639.16-Jul-2020 4280.51 4342.41 80.07 1.00 349.87 2863.78
   16:11:55.839.16-Jul-2020 4280.51 4342.57 80.07 1.00 350.07 2863.78
   16:11:56.039.16-Jul-2020 4280.51 4342.50 80.07 1.00 350.27 2863.78
   16:11:56.239.16-Jul-2020 4280.51 4342.48 80.07 1.00 350.47 2863.78
   16:11:56.439.16-Jul-2020 4280.51 4342.45 80.07 1.00 350.67 2863.78
   16:11:56.639.16-Jul-2020 4280.51 4342.53 80.07 1.00 350.87 2863.78
   16:11:56.839.16-Jul-2020 4280.51 4342.51 80.07 1.00 351.07 2863.78
   16:11:57.039.16-Jul-2020 4280.51 4342.51 80.07 1.00 351.27 2863.78
   16:11:57.239.16-Jul-2020 4280.51 4342.53 80.07 1.00 351.47 2863.78
   16:11:57.439.16-Jul-2020 4280.51 4342.47 80.07 1.00 351.67 2863.78
   16:11:57.639.16-Jul-2020 4280.51 4342.46 80.07 1.00 351.87 2863.78
   16:11:57.839.16-Jul-2020 4280.51 4342.44 80.07 1.00 352.07 2863.78
   16:11:58.039.16-Jul-2020 4280.51 4342.44 80.07 1.00 352.27 2863.78
   16:11:58.239.16-Jul-2020 4280.51 4342.45 80.07 1.00 352.47 2863.78
   16:11:58.439.16-Jul-2020 4280.51 4342.51 80.07 1.00 352.67 2863.78
   16:11:58.639.16-Jul-2020 4280.51 4342.52 80.07 1.00 352.87 2863.78
   16:11:58.839.16-Jul-2020 4280.51 4342.48 80.07 1.00 353.07 2863.78
   16:11:59.039.16-Jul-2020 4280.51 4342.48 80.07 1.00 353.27 2863.78
   16:11:59.240.16-Jul-2020 4280.51 4342.58 80.07 1.00 353.47 2863.78
   16:11:59.440.16-Jul-2020 4280.51 4342.46 80.07 1.00 353.67 2863.78
   16:11:59.640.16-Jul-2020 4280.51 4342.48 80.07 1.00 353.87 2863.78
   16:11:59.840.16-Jul-2020 4280.51 4342.53 80.07 1.00 354.07 2863.78
   16:12:00.040.16-Jul-2020 4280.51 4342.53 80.07 1.00 354.27 2863.78
   16:12:00.240.16-Jul-2020 4280.51 4342.52 80.07 1.00 354.47 2863.78
   16:12:00.440.16-Jul-2020 4280.51 4342.47 80.07 1.00 354.67 2863.78
   16:12:00.640.16-Jul-2020 4280.51 4342.50 80.07 1.00 354.87 2863.78
   16:12:00.840.16-Jul-2020 4280.51 4342.53 80.07 1.00 355.07 2863.78
   16:12:01.040.16-Jul-2020 4280.51 4342.53 80.07 1.00 355.27 2863.78
   16:12:01.240.16-Jul-2020 4280.51 4342.79 80.07 1.00 355.47 2863.78
   16:12:01.440.16-Jul-2020 4280.51 4342.40 80.07 1.00 355.67 2863.78
   16:12:01.640.16-Jul-2020 4280.51 4342.55 80.07 1.00 355.87 2863.78
   16:12:01.840.16-Jul-2020 4280.51 4342.55 80.07 1.00 356.07 2863.78
   16:12:02.040.16-Jul-2020 4280.51 4342.46 80.07 1.00 356.27 2863.78
   16:12:02.240.16-Jul-2020 4280.51 4342.48 80.07 1.00 356.47 2863.78
   16:12:02.440.16-Jul-2020 4280.51 4342.68 80.07 1.00 356.67 2863.78
   16:12:02.640.16-Jul-2020 4280.51 4342.48 80.07 1.00 356.87 2863.78
   16:12:02.840.16-Jul-2020 4280.51 4342.60 80.07 1.00 357.07 2863.78
   16:12:03.040.16-Jul-2020 4280.51 4342.49 80.07 1.00 357.27 2863.78
   16:12:03.240.16-Jul-2020 4280.51 4342.45 80.07 1.00 357.47 2863.78
   16:12:03.440.16-Jul-2020 4280.51 4342.48 80.07 1.00 357.67 2863.78
   16:12:03.640.16-Jul-2020 4280.51 4342.64 80.07 1.00 357.87 2863.78
   16:12:03.840.16-Jul-2020 4280.51 4338.46 80.07 1.00 358.07 2863.78
   16:12:04.041.16-Jul-2020 4280.51 4356.05 80.07 1.00 358.27 2863.78
   16:12:04.241.16-Jul-2020 4280.51 4787.33 80.07 1.00 358.47 2863.78
   16:12:04.441.16-Jul-2020 4280.51 6988.35 80.07 1.00 358.67 2863.78
   16:12:04.641.16-Jul-2020 4280.51 6997.36 80.07 1.00 358.87 2863.78
   16:12:04.841.16-Jul-2020 4280.51 6982.52 80.07 1.00 359.07 2863.78
   16:12:05.041.16-Jul-2020 4280.51 6982.52 80.07 1.00 359.27 2863.78
   16:12:05.241.16-Jul-2020 4280.51 6990.60 80.07 1.00 359.47 2863.78
   16:12:05.441.16-Jul-2020 4280.51 6988.99 80.07 1.00 359.67 2863.78
   16:12:05.641.16-Jul-2020 4280.51 6985.97 80.08 1.00 359.87 2863.78
   16:12:05.841.16-Jul-2020 4280.51 6990.05 80.08 1.00 360.07 2863.78
   16:12:06.041.16-Jul-2020 4280.51 6987.25 80.08 1.00 360.27 2863.78
   16:12:06.241.16-Jul-2020 4280.51 6991.14 80.08 1.00 360.47 2863.78
   16:12:06.441.16-Jul-2020 4280.51 6991.13 80.08 1.00 360.67 2863.78
   16:12:06.641.16-Jul-2020 4280.51 6989.11 80.09 1.00 360.87 2863.78
   16:12:06.841.16-Jul-2020 4280.51 6992.18 80.09 1.00 361.07 2863.78
   16:12:07.041.16-Jul-2020 4280.51 6988.41 80.09 1.00 361.27 2863.78
   16:12:07.241.16-Jul-2020 4280.51 7006.39 80.10 1.00 361.47 2863.78
   16:12:07.441.16-Jul-2020 4280.51 6986.94 80.10 1.00 361.67 2863.78
   16:12:07.641.16-Jul-2020 4280.51 6987.10 80.10 1.00 361.87 2863.78
   16:12:07.841.16-Jul-2020 4280.51 6996.71 80.10 1.00 362.07 2863.78
   16:12:08.041.16-Jul-2020 4280.51 6991.39 80.11 1.00 362.27 2863.78
   16:12:08.241.16-Jul-2020 4280.51 6991.25 80.11 1.00 362.47 2863.78
   16:12:08.441.16-Jul-2020 4280.51 6990.41 80.11 1.00 362.67 2863.78
   16:12:08.641.16-Jul-2020 4280.51 6990.89 80.12 1.00 362.87 2863.78
   16:12:08.841.16-Jul-2020 4280.51 6993.52 80.12 1.00 363.07 2863.78
   16:12:09.042.16-Jul-2020 4280.51 6993.52 80.12 1.00 363.27 2863.78
   16:12:09.242.16-Jul-2020 4280.51 6990.81 80.12 1.00 363.47 2863.78
   16:12:09.442.16-Jul-2020 4280.51 6991.75 80.13 1.00 363.67 2863.78
   16:12:09.642.16-Jul-2020 4280.51 6990.56 80.13 1.00 363.87 2863.78
   16:12:09.842.16-Jul-2020 4280.51 6992.75 80.13 1.00 364.07 2863.78
   16:12:10.042.16-Jul-2020 4280.51 6992.75 80.13 1.00 364.27 2863.78
   16:12:10.242.16-Jul-2020 4280.51 6991.59 80.13 1.00 364.48 2863.78
   16:12:10.442.16-Jul-2020 4280.51 7004.67 80.14 1.00 364.68 2863.78
   16:12:10.642.16-Jul-2020 4280.51 6986.09 80.14 1.00 364.88 2863.78
   16:12:10.842.16-Jul-2020 4280.51 6991.36 80.14 1.00 365.08 2863.78
   16:12:11.042.16-Jul-2020 4280.51 6993.21 80.14 1.00 365.28 2863.78
   16:12:11.242.16-Jul-2020 4280.51 6994.86 80.14 1.00 365.48 2863.78
   16:12:11.442.16-Jul-2020 4280.51 6990.31 80.15 1.00 365.68 2863.78
   16:12:11.642.16-Jul-2020 4280.51 6997.02 80.15 1.00 365.88 2863.78
   16:12:11.842.16-Jul-2020 4280.51 6998.46 80.15 1.00 366.08 2863.78
   16:12:12.042.16-Jul-2020 4280.51 6987.85 80.15 1.00 366.28 2863.78
   16:12:12.242.16-Jul-2020 4280.51 6994.37 80.15 1.00 366.48 2863.78
   16:12:12.442.16-Jul-2020 4280.51 6995.64 80.15 1.00 366.68 2863.78
   16:12:12.642.16-Jul-2020 4280.51 6990.23 80.15 1.00 366.88 2863.78
   16:12:12.842.16-Jul-2020 4280.51 6991.61 80.16 1.00 367.08 2863.78
   16:12:13.042.16-Jul-2020 4280.51 6991.61 80.16 1.00 367.28 2863.78
   16:12:13.242.16-Jul-2020 4280.51 6995.23 80.16 1.00 367.48 2863.78
   16:12:13.442.16-Jul-2020 4280.51 6989.73 80.16 1.00 367.68 2863.78
   16:12:13.642.16-Jul-2020 4280.51 6997.25 80.16 1.00 367.88 2863.78
