~Version Information
 VERS.                  2.0:   CWLS log ASCII Standard -VERSION 2.0
 WRAP.                   NO:   One line per depth step
~Well Information Block
#MNEM.UNIT     VALUE/NAME     DESCRIPTION
#---------     -----------    ---------------------------
 STRT.S             17:56:46 16-Jul-20: START TIME 17:56:46 16-Jul-20
 STOP.S             18:03:39 16-Jul-20: STOP TIME  18:03:39 16-Jul-20
 STEP.S                   0.00: STEP TIME
 NULL.                 -999.25: NULL VALUE
 MDS .        Operator Entered:  MAG DATA SOURCE
 UNIT.                     N/A:  LOGGING EQUIPMENT ID
 DCON.         Sperry Drilling:  DIRECTNL CONTR
 DOE .                     N/A:  DOE NUMBER
 RIG .               EastAzeri:  RIG NAME
 JOBN.        AZ-XX-0906363297:  JOB TICKET NUMB
 MWDS.                    Baku:  MWD SHOP
 SRVC.     Turan Drilling & Engineering:  CONTRACTOR
 PROV.                    Baku:  PROVINCE
 STAT.                    Baku:  STATE NAME
 REGN.                   EESSA:  REGION
 BASE.              Azerbaijan:  LOGGING EQUIPMENT BASE LOCATION
 WTYP.                Deviated:  WELL TYPE
 UWI .                     N/A:  UNIQUE WELL IDENTIFIER
 API .                     N/A:  API NUMBER
 COMP.     BP Exploration (Caspian Sea) ltd.:  COMPANY
 WELL.                    D07z:  WELL NAME
 CTRY.              Azerbaijan:  COUNTRY NAME
 SON .        AZ-XX-0906363297:  JOB NUMBER
 FLD .                     ACG:  FIELD NAME
 PDAT.          Mean Sea Level:  PERMANENT DATUM
 FTOP.          Formation Tops:  FORM TOPS DESC
 ILTD.               Lithology:  INTERP LTH DESC
 SVYD.                  Survey:  SURVEY DESC
 DMOD.             Drill Model:  DRILL MOD DESC
 HPTY.       Minimum Curvature:  HOLE POS TYPE
 NREF.                    Grid:  NORTH REFERENCE
 SPUD.               28-Jun-20:  SPUD DATE
 DATE.      18.27.12 28-Jun-20:  END TIME
 STIM.      18.27.12 28-Jun-20:  START TIME
 DMF .             Drill Floor:  DRILL MEAS FROM
 DFST.                        :  DIST FSL TEXT
 DFWT.                        :  DIST FWL TEXT
 CNTY.                        :  COUNTY
 LOC .                        :  LOCATION
 LMF .             Drill Floor:  LOG MEASURED FROM
 VSNS.m                  -7.75:  VERT SEC N/S
 VSEW.m                  -9.19:  VERT SEC E/W
 MMDE.m                   0.00:  MAGUTM CALC DEP
 AGAP.m                  43.60:  AIR GAP
 DEP .m                4058.99:  DEPTH
 APD .m                  43.60:  DEPTH ABOVE PD
 WDMS.m                 151.80:  WD ELEV
 EGL .m                   0.00:  GROUND ELEVATION
 EPD .m                   0.00:  ELEVATION
 AZTC.deg                 6.19:  AZM TOTAL CORR
 GRDC.deg                 0.27:  GRID CORRECTION
 MDEC.deg                 6.46:  MAGNETIC DECL
 MDIP.deg                59.47:  MAGNETIC DIP
 MFLD.nT              50279.00:  MAGNETIC FIELD
 GVFD.g                   1.00:  GRAVITY FIELD
 VSDR.deg               249.96:  VERT SEC DIRECT
 TDD .m                   0.00:  TOTAL DEPTH (DRILLER)
 SDEP.m                   0.00:  START DEPTH
 DFSL.m                   0.00:  DISTANCE FSL
 DFWL.m                   0.00:  DISTANCE FWL
 UTMY.m             4431880.20:  UTM Y
 UTMX.m              538763.98:  UTM X
 WHEW.m                  -9.19:  WELL HEAD E/W
 WHNS.m                  -7.75:  WELL HEAD N/S
 LONG.deg                51.45:  LONGITUDE
 LATI.deg                40.02:  LATITUDE
 TVDS.m                  43.60:  TVDSS CORRECTN
 EKB .m                  43.60:  KB ELEVATION
 EDF .m                  43.60:  DF ELEVATION
 TDL .m                 248.00:  TOTAL DEPTH (LOGGER)
 MAGU.                 1849075:  MAGUTM CHECKSUM
 VSC .                       0:  VS TO CLOSURE
~Parameter Information Block
#MNEM.UNIT       Value        Description
#---------     -----------    ---------------------------
 AV  .mps                 6.34:  Ann Velocity 
 AVMX.mps                 7.00:  Max Ann Veloc 
 AZIF.deg               260.29:  Azm, Final 
 BHAT.        Rotary Steerable:  BHA Type 
 BROT.°/30m               1.20:  Build Rotating 
 BS  .in                  8.50:  Bit Size 
 BSZ .in                  8.50:  Bit Size 
 BTPL.psig              620.00:  Bit Press Loss 
 CABU.                     Yes:  Customer Abuse 
 COMM.                     LqT:  Run Comments 1 
 TCS .hr                 56.22:  Time Ciculation Ended 
 CV  .mps                 3.05:  Crit Velocity 
 CVMX.mps                 3.20:  Max Crit Veloc 
 DD1 .            Musa Ahmadov:  Direct Drillr 1 
 DDSV.                 iCruise:  DD Service 
 DEFF.%                  98.00:  % Det Eff 
 DLRX.°/30m               2.78:  Dogleg Rot Max 
 DLSO.°/30m               0.00:  Dogleg Oriented 
 DLSX.°/30m               0.00:  Dogleg Str Max 
 DRET.      05.20.48 16-Jul-20:  Drill End Time 
 DRST.      10.20.48 13-Jul-20:  Drill Start Tim 
 DTIM.hr                 14.25:  Time Drilling 
 EDEP.m                4326.01:  End Depth 
 ENG1.      Artemiy Matviyanov:  Engineer 1 
 ENG2.           Amrah Tahirov:  Engineer 2 
 ETIM.      22.30.00 18-Jul-20:  End Time 
 FLOI.gpm               550.00:  Flow In 
 FLON.gpm               450.00:  Flow In Min 
 FLOS.cptm                0.00:  Fluid Loss 
 FLOX.gpm               600.00:  Flow In Max 
 HFLO.                      No:  High Flow 
 HPRE.                      No:  High Pressure 
 HTEM.                      No:  High Temp 
 HYDO.m                   1.80:  Hydro Offset 
 IFIN.deg                65.41:  Inc, Final 
 IMAX.deg                65.14:  Inc Max 
 IMIN.deg                58.89:  Inc Min 
 IMND.m                4104.92:  Inc Min Depth 
 IMXD.m                4303.89:  Inc Max Depth 
 JARR.                      No:  Jarring 
 LETM.      10.20.48 17-Jul-20:  Log End Time 
 LOST.hr                     0:  Lost Rig Time 
 LSTM.      10.20.48 13-Jul-20:  Log Start Time 
 MDCL.ppm             37000.00:  Mud Chlorides 
 MDES.     Inversion Oil/Synthetic:  Mud Desc 
 DFD .sg                  1.52:  Mud Density 
 MDMN.sg                  1.52:  Dens Mud Min 
 MDMX.sg                  1.52:  Dens Mud Max 
 MOIL.                   52.70:  Run Mud Oil % 
 MOWR.                   68:32:  Run Mud OWR 
 MSND.                     0.2:  Run Mud Sand % 
 MSOL.                    21.6:  Run Mud Solids% 
 DFV .spqt               79.00:  Mud Viscosity 
 MWOD.in                  6.75:  MWD Tool OD 
 MWSI.                      No:  Serv Intrp, MWD 
 OTIM.hr                114.04:  Time Operating 
 PCON.          Wear / Scratch:  Pad Condition 
 PMAX.psia            11782.92:  Press Op, Max 
 PV  .cP                 49.00:  Mud PV 
 RUN .                     600:  Run Number 
 ROPA.m/hr               20.00:  ROP Avg 
 ROPN.m/hr               15.00:  ROP Min 
 ROPX.m/hr               22.00:  ROP Max 
 RPMA.rpm               120.00:  RPM Surface Avg 
 RPMN.rpm                90.00:  RPM Surface Min 
 RPMX.rpm               140.00:  RPM Surface Max 
 RRUN.                     600:  Rig Run Number 
 SAZI.deg               260.29:  Azm, Start 
 SDEP.m                4078.01:  Start Depth 
 SIDD.                      No:  Serv Intrp, DD 
 SINC.deg                58.89:  Inc, Start 
 SPPA.psig             4560.00:  SPP Avg 
 SPPN.psig             3600.00:  SPP Min 
 SPPX.psig             4800.00:  SPP Max 
 STIM.      10.20.48 13-Jul-20:  Start Time 
 SVCS.                 DD, MWD:  Services 
 SVER.                    9.20:  Sperry Version 
 TDAT.m                4378.01:  Tot Depth Attmp 
 TDDF.                      No:  Trip for DD 
 TDLG.m                 248.00:  Tot Depth Loggd 
 TFF .                      No:  Trip for Fail 
 TQAA.f-kp               18.00:  Torque Abs Avg 
 TQAN.f-kp               15.00:  Torque Abs Min 
 TQAX.f-kp               20.00:  Torque Abs Max 
 TRRT.°/30m               0.70:  Turn Rotating 
 MRT .                    HCIM:  Maximum Recorded Temperature 
 TTMX.degC               86.00:  Max Tool Temp 
 WBMN.klb                 3.00:  WOB Min 
 WOBA.klb                 5.00:  WOB Avg 
 WOBX.klb                 9.00:  WOB Max 
 YP  .lhf2               32.00:  Yield Point 
~Curve Information Block
#MNEM.UNIT                 API CODE     Curve Description
#---------               -----------    ---------------------------
 TIME.HHMMSS            00 000 000 000:  GT Time & Date
 GTDEPTH.m              00 000 000 000:  GT Depth
 GTPQH.psia             00 000 000 000:  GT HR Quartz Pressure
 GTTQ.degC              00 000 000 000:  GT Quartz Temperature
 GTTN.NONE              00 000 000 000:  GT Test Number
 GTET.sec               00 000 000 000:  GT Elapsed Test Time
 GTTVD.m                00 000 000 000:  GT True Vertical Depth
#Other Information
#
#WARRANTY: Halliburton will use its best efforts to furnish customers with 
#accurate information and interpretations that are part of, and incident to, the services 
#provided.  However, Halliburton cannot and does not warrant the accuracy 
#or correctness of such information and interpretations.  Under no circumstances should any 
#such information or interpretation be relied upon as the sole basis for any drilling, 
#completion, production, or financial decision or any procedure involving any risk to the 
#safety of any drilling venture, drilling rig or its crew or any other third party.  The 
#Customer has full responsibility for all drilling, completion and production operation.  
#Halliburton makes no representations or warranties, either expressed or 
#implied, including, but not limited to, the implied warranties of merchantability or fitness 
#for a particular purpose, with respect to the services rendered.  In no event will 
#Halliburton be liable for failure to obtain any particular results or for 
#any damages, including, but not limited to, indirect, special or consequential damages, 
#resulting from the use of any information or interpretation provided by Halliburton.
#
~A           TIME           GTDEPTH  GTPQH  GTTQ  GTTN  GTET   GTTVD  
# ...
   18:00:59.401.16-Jul-2020 4229.01 4623.61 79.72 4.00 253.11 2841.98
   18:00:59.601.16-Jul-2020 4229.01 4623.61 79.72 4.00 253.31 2841.98
   18:00:59.801.16-Jul-2020 4229.01 4623.33 79.72 4.00 253.51 2841.98
   18:01:00.001.16-Jul-2020 4229.01 4622.91 79.72 4.00 253.71 2841.98
   18:01:00.202.16-Jul-2020 4229.01 4625.15 79.72 4.00 253.91 2841.98
   18:01:00.402.16-Jul-2020 4229.01 4627.90 79.72 4.00 254.11 2841.98
   18:01:00.602.16-Jul-2020 4229.01 4627.90 79.72 4.00 254.31 2841.98
   18:01:00.802.16-Jul-2020 4229.01 4624.18 79.72 4.00 254.51 2841.98
   18:01:01.002.16-Jul-2020 4229.01 4623.19 79.72 4.00 254.71 2841.98
   18:01:01.202.16-Jul-2020 4229.01 4622.51 79.72 4.00 254.91 2841.98
   18:01:01.402.16-Jul-2020 4229.01 4623.62 79.72 4.00 255.11 2841.98
   18:01:01.602.16-Jul-2020 4229.01 4623.62 79.72 4.00 255.31 2841.98
   18:01:01.802.16-Jul-2020 4229.01 4623.49 79.72 4.00 255.51 2841.98
   18:01:02.002.16-Jul-2020 4229.01 4622.51 79.72 4.00 255.71 2841.98
   18:01:02.202.16-Jul-2020 4229.01 4624.23 79.72 4.00 255.91 2841.98
   18:01:02.403.16-Jul-2020 4229.01 4619.64 79.72 4.00 256.11 2841.98
   18:01:02.603.16-Jul-2020 4229.01 4623.59 79.72 4.00 256.31 2841.98
   18:01:02.803.16-Jul-2020 4229.01 4622.96 79.72 4.00 256.51 2841.98
   18:01:03.003.16-Jul-2020 4229.01 4624.31 79.72 4.00 256.71 2841.98
   18:01:03.203.16-Jul-2020 4229.01 4624.85 79.72 4.00 256.91 2841.98
   18:01:03.403.16-Jul-2020 4229.01 4621.22 79.72 4.00 257.11 2841.98
   18:01:03.603.16-Jul-2020 4229.01 4621.22 79.72 4.00 257.31 2841.98
   18:01:03.803.16-Jul-2020 4229.01 4622.71 79.72 4.00 257.51 2841.98
   18:01:04.003.16-Jul-2020 4229.01 4623.09 79.72 4.00 257.71 2841.98
   18:01:04.203.16-Jul-2020 4229.01 4623.91 79.72 4.00 257.91 2841.98
   18:01:04.403.16-Jul-2020 4229.01 4619.61 79.72 4.00 258.11 2841.98
   18:01:04.603.16-Jul-2020 4229.01 4619.61 79.72 4.00 258.31 2841.98
   18:01:04.804.16-Jul-2020 4229.01 4621.20 79.72 4.00 258.51 2841.98
   18:01:05.004.16-Jul-2020 4229.01 4622.19 79.72 4.00 258.71 2841.98
   18:01:05.204.16-Jul-2020 4229.01 4621.57 79.72 4.00 258.91 2841.98
   18:01:05.404.16-Jul-2020 4229.01 4622.93 79.72 4.00 259.11 2841.98
   18:01:05.604.16-Jul-2020 4229.01 4622.93 79.72 4.00 259.32 2841.98
   18:01:05.804.16-Jul-2020 4229.01 4622.06 79.72 4.00 259.52 2841.98
   18:01:06.004.16-Jul-2020 4229.01 4622.14 79.72 4.00 259.72 2841.98
   18:01:06.204.16-Jul-2020 4229.01 4622.57 79.72 4.00 259.92 2841.98
   18:01:06.404.16-Jul-2020 4229.01 4623.22 79.72 4.00 260.12 2841.98
   18:01:06.604.16-Jul-2020 4229.01 4622.91 79.72 4.00 260.32 2841.98
   18:01:06.804.16-Jul-2020 4229.01 4623.43 79.72 4.00 260.52 2841.98
   18:01:07.005.16-Jul-2020 4229.01 4635.30 79.72 4.00 260.72 2841.98
   18:01:07.205.16-Jul-2020 4229.01 4701.92 79.72 4.00 260.92 2841.98
   18:01:07.405.16-Jul-2020 4229.01 4705.57 79.72 4.00 261.12 2841.98
   18:01:07.605.16-Jul-2020 4229.01 4705.57 79.72 4.00 261.32 2841.98
   18:01:07.805.16-Jul-2020 4229.01 4705.52 79.71 4.00 261.52 2841.98
   18:01:08.005.16-Jul-2020 4229.01 4705.61 79.72 4.00 261.72 2841.98
   18:01:08.205.16-Jul-2020 4229.01 4705.64 79.72 4.00 261.92 2841.98
   18:01:08.405.16-Jul-2020 4229.01 4705.65 79.71 4.00 262.12 2841.98
   18:01:08.605.16-Jul-2020 4229.01 4705.70 79.72 4.00 262.32 2841.98
   18:01:08.805.16-Jul-2020 4229.01 4705.72 79.72 4.00 262.52 2841.98
   18:01:09.005.16-Jul-2020 4229.01 4705.75 79.72 4.00 262.72 2841.98
   18:01:09.206.16-Jul-2020 4229.01 4705.73 79.72 4.00 262.92 2841.98
   18:01:09.406.16-Jul-2020 4229.01 4705.78 79.72 4.00 263.12 2841.98
   18:01:09.606.16-Jul-2020 4229.01 4705.78 79.72 4.00 263.32 2841.98
   18:01:09.806.16-Jul-2020 4229.01 4705.82 79.72 4.00 263.52 2841.98
   18:01:10.006.16-Jul-2020 4229.01 4705.96 79.72 4.00 263.72 2841.98
   18:01:10.206.16-Jul-2020 4229.01 4705.87 79.72 4.00 263.92 2841.98
   18:01:10.406.16-Jul-2020 4229.01 4705.99 79.72 4.00 264.12 2841.98
   18:01:10.606.16-Jul-2020 4229.01 4705.93 79.72 4.00 264.32 2841.98
   18:01:10.806.16-Jul-2020 4229.01 4706.15 79.72 4.00 264.52 2841.98
   18:01:11.006.16-Jul-2020 4229.01 4705.79 79.72 4.00 264.72 2841.98
   18:01:11.206.16-Jul-2020 4229.01 4706.00 79.72 4.00 264.92 2841.98
   18:01:11.407.16-Jul-2020 4229.01 4705.93 79.72 4.00 265.12 2841.98
   18:01:11.607.16-Jul-2020 4229.01 4705.93 79.72 4.00 265.32 2841.98
   18:01:11.807.16-Jul-2020 4229.01 4705.97 79.72 4.00 265.52 2841.98
   18:01:12.007.16-Jul-2020 4229.01 4706.05 79.72 4.00 265.72 2841.98
   18:01:12.207.16-Jul-2020 4229.01 4705.97 79.72 4.00 265.92 2841.98
   18:01:12.407.16-Jul-2020 4229.01 4706.02 79.72 4.00 266.12 2841.98
   18:01:12.607.16-Jul-2020 4229.01 4706.02 79.72 4.00 266.32 2841.98
   18:01:12.807.16-Jul-2020 4229.01 4705.94 79.72 4.00 266.52 2841.98
   18:01:13.007.16-Jul-2020 4229.01 4706.05 79.72 4.00 266.72 2841.98
   18:01:13.207.16-Jul-2020 4229.01 4706.00 79.72 4.00 266.92 2841.98
   18:01:13.407.16-Jul-2020 4229.01 4706.04 79.72 4.00 267.12 2841.98
   18:01:13.607.16-Jul-2020 4229.01 4706.04 79.72 4.00 267.32 2841.98
   18:01:13.808.16-Jul-2020 4229.01 4705.99 79.72 4.00 267.52 2841.98
   18:01:14.008.16-Jul-2020 4229.01 4706.03 79.72 4.00 267.72 2841.98
   18:01:14.208.16-Jul-2020 4229.01 4706.02 79.72 4.00 267.92 2841.98
   18:01:14.408.16-Jul-2020 4229.01 4706.00 79.72 4.00 268.12 2841.98
   18:01:14.608.16-Jul-2020 4229.01 4706.02 79.72 4.00 268.32 2841.98
   18:01:14.808.16-Jul-2020 4229.01 4706.02 79.72 4.00 268.52 2841.98
   18:01:15.008.16-Jul-2020 4229.01 4706.03 79.72 4.00 268.72 2841.98
   18:01:15.208.16-Jul-2020 4229.01 4706.00 79.72 4.00 268.92 2841.98
   18:01:15.408.16-Jul-2020 4229.01 4705.98 79.72 4.00 269.12 2841.98
   18:01:15.608.16-Jul-2020 4229.01 4705.98 79.72 4.00 269.32 2841.98
   18:01:15.808.16-Jul-2020 4229.01 4706.15 79.72 4.00 269.52 2841.98
   18:01:16.009.16-Jul-2020 4229.01 4706.02 79.72 4.00 269.72 2841.98
   18:01:16.209.16-Jul-2020 4229.01 4706.03 79.72 4.00 269.92 2841.98
   18:01:16.409.16-Jul-2020 4229.01 4706.08 79.72 4.00 270.12 2841.98
   18:01:16.609.16-Jul-2020 4229.01 4706.08 79.72 4.00 270.32 2841.98
   18:01:16.809.16-Jul-2020 4229.01 4706.03 79.72 4.00 270.52 2841.98
   18:01:17.009.16-Jul-2020 4229.01 4706.02 79.72 4.00 270.72 2841.98
   18:01:17.209.16-Jul-2020 4229.01 4706.06 79.72 4.00 270.92 2841.98
   18:01:17.409.16-Jul-2020 4229.01 4706.00 79.72 4.00 271.12 2841.98
   18:01:17.609.16-Jul-2020 4229.01 4706.00 79.72 4.00 271.32 2841.98
   18:01:17.809.16-Jul-2020 4229.01 4706.04 79.72 4.00 271.52 2841.98
   18:01:18.009.16-Jul-2020 4229.01 4706.04 79.72 4.00 271.72 2841.98
   18:01:18.210.16-Jul-2020 4229.01 4706.06 79.72 4.00 271.92 2841.98
   18:01:18.410.16-Jul-2020 4229.01 4706.03 79.72 4.00 272.12 2841.98
   18:01:18.610.16-Jul-2020 4229.01 4705.99 79.72 4.00 272.32 2841.98
   18:01:18.810.16-Jul-2020 4229.01 4706.03 79.72 4.00 272.52 2841.98
   18:01:19.010.16-Jul-2020 4229.01 4706.14 79.72 4.00 272.72 2841.98
   18:01:19.210.16-Jul-2020 4229.01 4706.04 79.72 4.00 272.92 2841.98
   18:01:19.410.16-Jul-2020 4229.01 4706.00 79.72 4.00 273.12 2841.98
   18:01:19.610.16-Jul-2020 4229.01 4706.05 79.72 4.00 273.32 2841.98
   18:01:19.810.16-Jul-2020 4229.01 4706.15 79.72 4.00 273.52 2841.98
   18:01:20.010.16-Jul-2020 4229.01 4706.07 79.72 4.00 273.72 2841.98
   18:01:20.210.16-Jul-2020 4229.01 4706.04 79.72 4.00 273.92 2841.98
   18:01:20.411.16-Jul-2020 4229.01 4706.24 79.72 4.00 274.12 2841.98
   18:01:20.611.16-Jul-2020 4229.01 4706.24 79.72 4.00 274.32 2841.98
   18:01:20.811.16-Jul-2020 4229.01 4706.18 79.72 4.00 274.52 2841.98
   18:01:21.011.16-Jul-2020 4229.01 4706.38 79.72 4.00 274.72 2841.98
   18:01:21.211.16-Jul-2020 4229.01 4705.92 79.72 4.00 274.92 2841.98
   18:01:21.411.16-Jul-2020 4229.01 4706.05 79.72 4.00 275.12 2841.98
   18:01:21.611.16-Jul-2020 4229.01 4705.99 79.72 4.00 275.32 2841.98
   18:01:21.811.16-Jul-2020 4229.01 4706.11 79.72 4.00 275.52 2841.98
   18:01:22.011.16-Jul-2020 4229.01 4706.01 79.72 4.00 275.72 2841.98
   18:01:22.211.16-Jul-2020 4229.01 4706.07 79.72 4.00 275.92 2841.98
