~Version Information
 VERS.                  2.0:   CWLS log ASCII Standard -VERSION 2.0
 WRAP.                   NO:   One line per depth step
~Well Information Block
#MNEM.UNIT     VALUE/NAME     DESCRIPTION
#---------     -----------    ---------------------------
 STRT.S             19:19:02 16-Jul-20: START TIME 19:19:02 16-Jul-20
 STOP.S             19:25:52 16-Jul-20: STOP TIME  19:25:52 16-Jul-20
 STEP.S                   0.00: STEP TIME
 NULL.                 -999.25: NULL VALUE
 MDS .        Operator Entered:  MAG DATA SOURCE
 UNIT.                     N/A:  LOGGING EQUIPMENT ID
 DCON.         Sperry Drilling:  DIRECTNL CONTR
 DOE .                     N/A:  DOE NUMBER
 RIG .               EastAzeri:  RIG NAME
 JOBN.        AZ-XX-0906363297:  JOB TICKET NUMB
 MWDS.                    Baku:  MWD SHOP
 SRVC.     Turan Drilling & Engineering:  CONTRACTOR
 PROV.                    Baku:  PROVINCE
 STAT.                    Baku:  STATE NAME
 REGN.                   EESSA:  REGION
 BASE.              Azerbaijan:  LOGGING EQUIPMENT BASE LOCATION
 WTYP.                Deviated:  WELL TYPE
 UWI .                     N/A:  UNIQUE WELL IDENTIFIER
 API .                     N/A:  API NUMBER
 COMP.     BP Exploration (Caspian Sea) ltd.:  COMPANY
 WELL.                    D07z:  WELL NAME
 CTRY.              Azerbaijan:  COUNTRY NAME
 SON .        AZ-XX-0906363297:  JOB NUMBER
 FLD .                     ACG:  FIELD NAME
 PDAT.          Mean Sea Level:  PERMANENT DATUM
 FTOP.          Formation Tops:  FORM TOPS DESC
 ILTD.               Lithology:  INTERP LTH DESC
 SVYD.                  Survey:  SURVEY DESC
 DMOD.             Drill Model:  DRILL MOD DESC
 HPTY.       Minimum Curvature:  HOLE POS TYPE
 NREF.                    Grid:  NORTH REFERENCE
 SPUD.               28-Jun-20:  SPUD DATE
 DATE.      18.27.12 28-Jun-20:  END TIME
 STIM.      18.27.12 28-Jun-20:  START TIME
 DMF .             Drill Floor:  DRILL MEAS FROM
 DFST.                        :  DIST FSL TEXT
 DFWT.                        :  DIST FWL TEXT
 CNTY.                        :  COUNTY
 LOC .                        :  LOCATION
 LMF .             Drill Floor:  LOG MEASURED FROM
 VSNS.m                  -7.75:  VERT SEC N/S
 VSEW.m                  -9.19:  VERT SEC E/W
 MMDE.m                   0.00:  MAGUTM CALC DEP
 AGAP.m                  43.60:  AIR GAP
 DEP .m                4058.99:  DEPTH
 APD .m                  43.60:  DEPTH ABOVE PD
 WDMS.m                 151.80:  WD ELEV
 EGL .m                   0.00:  GROUND ELEVATION
 EPD .m                   0.00:  ELEVATION
 AZTC.deg                 6.19:  AZM TOTAL CORR
 GRDC.deg                 0.27:  GRID CORRECTION
 MDEC.deg                 6.46:  MAGNETIC DECL
 MDIP.deg                59.47:  MAGNETIC DIP
 MFLD.nT              50279.00:  MAGNETIC FIELD
 GVFD.g                   1.00:  GRAVITY FIELD
 VSDR.deg               249.96:  VERT SEC DIRECT
 TDD .m                   0.00:  TOTAL DEPTH (DRILLER)
 SDEP.m                   0.00:  START DEPTH
 DFSL.m                   0.00:  DISTANCE FSL
 DFWL.m                   0.00:  DISTANCE FWL
 UTMY.m             4431880.20:  UTM Y
 UTMX.m              538763.98:  UTM X
 WHEW.m                  -9.19:  WELL HEAD E/W
 WHNS.m                  -7.75:  WELL HEAD N/S
 LONG.deg                51.45:  LONGITUDE
 LATI.deg                40.02:  LATITUDE
 TVDS.m                  43.60:  TVDSS CORRECTN
 EKB .m                  43.60:  KB ELEVATION
 EDF .m                  43.60:  DF ELEVATION
 TDL .m                 248.00:  TOTAL DEPTH (LOGGER)
 MAGU.                 1849075:  MAGUTM CHECKSUM
 VSC .                       0:  VS TO CLOSURE
~Parameter Information Block
#MNEM.UNIT       Value        Description
#---------     -----------    ---------------------------
 AV  .mps                 6.34:  Ann Velocity 
 AVMX.mps                 7.00:  Max Ann Veloc 
 AZIF.deg               260.29:  Azm, Final 
 BHAT.        Rotary Steerable:  BHA Type 
 BROT.°/30m               1.20:  Build Rotating 
 BS  .in                  8.50:  Bit Size 
 BSZ .in                  8.50:  Bit Size 
 BTPL.psig              620.00:  Bit Press Loss 
 CABU.                     Yes:  Customer Abuse 
 COMM.                     d)s:  Run Comments 1 
 TCS .hr                 56.22:  Time Ciculation Ended 
 CV  .mps                 3.05:  Crit Velocity 
 CVMX.mps                 3.20:  Max Crit Veloc 
 DD1 .            Musa Ahmadov:  Direct Drillr 1 
 DDSV.                 iCruise:  DD Service 
 DEFF.%                  98.00:  % Det Eff 
 DLRX.°/30m               2.78:  Dogleg Rot Max 
 DLSO.°/30m               0.00:  Dogleg Oriented 
 DLSX.°/30m               0.00:  Dogleg Str Max 
 DRET.      05.20.48 16-Jul-20:  Drill End Time 
 DRST.      10.20.48 13-Jul-20:  Drill Start Tim 
 DTIM.hr                 14.25:  Time Drilling 
 EDEP.m                4326.01:  End Depth 
 ENG1.      Artemiy Matviyanov:  Engineer 1 
 ENG2.           Amrah Tahirov:  Engineer 2 
 ETIM.      22.30.00 18-Jul-20:  End Time 
 FLOI.gpm               550.00:  Flow In 
 FLON.gpm               450.00:  Flow In Min 
 FLOS.cptm                0.00:  Fluid Loss 
 FLOX.gpm               600.00:  Flow In Max 
 HFLO.                      No:  High Flow 
 HPRE.                      No:  High Pressure 
 HTEM.                      No:  High Temp 
 HYDO.m                   1.80:  Hydro Offset 
 IFIN.deg                65.41:  Inc, Final 
 IMAX.deg                65.14:  Inc Max 
 IMIN.deg                58.89:  Inc Min 
 IMND.m                4104.92:  Inc Min Depth 
 IMXD.m                4303.89:  Inc Max Depth 
 JARR.                      No:  Jarring 
 LETM.      10.20.48 17-Jul-20:  Log End Time 
 LOST.hr                     0:  Lost Rig Time 
 LSTM.      10.20.48 13-Jul-20:  Log Start Time 
 MDCL.ppm             37000.00:  Mud Chlorides 
 MDES.     Inversion Oil/Synthetic:  Mud Desc 
 DFD .sg                  1.52:  Mud Density 
 MDMN.sg                  1.52:  Dens Mud Min 
 MDMX.sg                  1.52:  Dens Mud Max 
 MOIL.                   52.70:  Run Mud Oil % 
 MOWR.                   68:32:  Run Mud OWR 
 MSND.                     0.2:  Run Mud Sand % 
 MSOL.                    21.6:  Run Mud Solids% 
 DFV .spqt               79.00:  Mud Viscosity 
 MWOD.in                  6.75:  MWD Tool OD 
 MWSI.                      No:  Serv Intrp, MWD 
 OTIM.hr                114.04:  Time Operating 
 PCON.          Wear / Scratch:  Pad Condition 
 PMAX.psia            11782.92:  Press Op, Max 
 PV  .cP                 49.00:  Mud PV 
 RUN .                     600:  Run Number 
 ROPA.m/hr               20.00:  ROP Avg 
 ROPN.m/hr               15.00:  ROP Min 
 ROPX.m/hr               22.00:  ROP Max 
 RPMA.rpm               120.00:  RPM Surface Avg 
 RPMN.rpm                90.00:  RPM Surface Min 
 RPMX.rpm               140.00:  RPM Surface Max 
 RRUN.                     600:  Rig Run Number 
 SAZI.deg               260.29:  Azm, Start 
 SDEP.m                4078.01:  Start Depth 
 SIDD.                      No:  Serv Intrp, DD 
 SINC.deg                58.89:  Inc, Start 
 SPPA.psig             4560.00:  SPP Avg 
 SPPN.psig             3600.00:  SPP Min 
 SPPX.psig             4800.00:  SPP Max 
 STIM.      10.20.48 13-Jul-20:  Start Time 
 SVCS.                 DD, MWD:  Services 
 SVER.                    9.20:  Sperry Version 
 TDAT.m                4378.01:  Tot Depth Attmp 
 TDDF.                      No:  Trip for DD 
 TDLG.m                 248.00:  Tot Depth Loggd 
 TFF .                      No:  Trip for Fail 
 TQAA.f-kp               18.00:  Torque Abs Avg 
 TQAN.f-kp               15.00:  Torque Abs Min 
 TQAX.f-kp               20.00:  Torque Abs Max 
 TRRT.°/30m               0.70:  Turn Rotating 
 MRT .                    HCIM:  Maximum Recorded Temperature 
 TTMX.degC               86.00:  Max Tool Temp 
 WBMN.klb                 3.00:  WOB Min 
 WOBA.klb                 5.00:  WOB Avg 
 WOBX.klb                 9.00:  WOB Max 
 YP  .lhf2               32.00:  Yield Point 
~Curve Information Block
#MNEM.UNIT                 API CODE     Curve Description
#---------               -----------    ---------------------------
 TIME.HHMMSS            00 000 000 000:  GT Time & Date
 GTDEPTH.m              00 000 000 000:  GT Depth
 GTPQH.psia             00 000 000 000:  GT HR Quartz Pressure
 GTTQ.degC              00 000 000 000:  GT Quartz Temperature
 GTTN.NONE              00 000 000 000:  GT Test Number
 GTET.sec               00 000 000 000:  GT Elapsed Test Time
 GTTVD.m                00 000 000 000:  GT True Vertical Depth
#Other Information
#
#WARRANTY: Halliburton will use its best efforts to furnish customers with 
#accurate information and interpretations that are part of, and incident to, the services 
#provided.  However, Halliburton cannot and does not warrant the accuracy 
#or correctness of such information and interpretations.  Under no circumstances should any 
#such information or interpretation be relied upon as the sole basis for any drilling, 
#completion, production, or financial decision or any procedure involving any risk to the 
#safety of any drilling venture, drilling rig or its crew or any other third party.  The 
#Customer has full responsibility for all drilling, completion and production operation.  
#Halliburton makes no representations or warranties, either expressed or 
#implied, including, but not limited to, the implied warranties of merchantability or fitness 
#for a particular purpose, with respect to the services rendered.  In no event will 
#Halliburton be liable for failure to obtain any particular results or for 
#any damages, including, but not limited to, indirect, special or consequential damages, 
#resulting from the use of any information or interpretation provided by Halliburton.
#
~A           TIME           GTDEPTH  GTPQH  GTTQ  GTTN  GTET   GTTVD  
# ...
   19:25:10.466.16-Jul-2020 4190.01 6974.34 79.10 6.00 368.17 2825.02
   19:25:10.666.16-Jul-2020 4190.01 6976.68 79.10 6.00 368.37 2825.02
   19:25:10.866.16-Jul-2020 4190.01 6977.47 79.10 6.00 368.57 2825.02
   19:25:11.066.16-Jul-2020 4190.01 6974.53 79.10 6.00 368.77 2825.02
   19:25:11.266.16-Jul-2020 4190.01 6986.57 79.10 6.00 368.97 2825.02
   19:25:11.466.16-Jul-2020 4190.01 6970.54 79.10 6.00 369.17 2825.02
   19:25:11.667.16-Jul-2020 4190.01 6970.54 79.10 6.00 369.37 2825.02
   19:25:11.867.16-Jul-2020 4190.01 6974.49 79.10 6.00 369.57 2825.02
   19:25:12.067.16-Jul-2020 4190.01 6976.28 79.10 6.00 369.77 2825.02
   19:25:12.267.16-Jul-2020 4190.01 6977.15 79.10 6.00 369.97 2825.02
   19:25:12.467.16-Jul-2020 4190.01 6974.49 79.10 6.00 370.17 2825.02
   19:25:12.667.16-Jul-2020 4190.01 6974.56 79.10 6.00 370.37 2825.02
   19:25:12.867.16-Jul-2020 4190.01 6975.05 79.10 6.00 370.57 2825.02
   19:25:13.067.16-Jul-2020 4190.01 6974.68 79.10 6.00 370.77 2825.02
   19:25:13.267.16-Jul-2020 4190.01 6974.74 79.10 6.00 370.97 2825.02
   19:25:13.467.16-Jul-2020 4190.01 6973.67 79.10 6.00 371.17 2825.02
   19:25:13.667.16-Jul-2020 4190.01 6973.67 79.10 6.00 371.37 2825.02
   19:25:13.868.16-Jul-2020 4190.01 6973.17 79.10 6.00 371.57 2825.02
   19:25:14.068.16-Jul-2020 4190.01 6989.18 79.10 6.00 371.77 2825.02
   19:25:14.268.16-Jul-2020 4190.01 6962.36 79.10 6.00 371.97 2825.02
   19:25:14.468.16-Jul-2020 4190.01 6980.50 79.10 6.00 372.17 2825.02
   19:25:14.668.16-Jul-2020 4190.01 6980.50 79.10 6.00 372.37 2825.02
   19:25:14.868.16-Jul-2020 4190.01 6973.40 79.10 6.00 372.57 2825.02
   19:25:15.068.16-Jul-2020 4190.01 6973.86 79.10 6.00 372.77 2825.02
   19:25:15.268.16-Jul-2020 4190.01 6974.04 79.10 6.00 372.97 2825.02
   19:25:15.468.16-Jul-2020 4190.01 6974.45 79.10 6.00 373.17 2825.02
   19:25:15.668.16-Jul-2020 4190.01 6974.45 79.10 6.00 373.37 2825.02
   19:25:15.868.16-Jul-2020 4190.01 6973.83 79.10 6.00 373.57 2825.02
   19:25:16.069.16-Jul-2020 4190.01 6973.56 79.10 6.00 373.77 2825.02
   19:25:16.269.16-Jul-2020 4190.01 6973.75 79.10 6.00 373.97 2825.02
   19:25:16.469.16-Jul-2020 4190.01 6973.68 79.10 6.00 374.17 2825.02
   19:25:16.669.16-Jul-2020 4190.01 6973.51 79.10 6.00 374.37 2825.02
   19:25:16.869.16-Jul-2020 4190.01 6973.44 79.10 6.00 374.57 2825.02
   19:25:17.069.16-Jul-2020 4190.01 6972.49 79.10 6.00 374.77 2825.02
   19:25:17.269.16-Jul-2020 4190.01 6984.88 79.10 6.00 374.97 2825.02
   19:25:17.469.16-Jul-2020 4190.01 6968.20 79.10 6.00 375.17 2825.02
   19:25:17.669.16-Jul-2020 4190.01 6979.40 79.10 6.00 375.37 2825.02
   19:25:17.869.16-Jul-2020 4190.01 6972.85 79.10 6.00 375.57 2825.02
   19:25:18.069.16-Jul-2020 4190.01 6973.69 79.10 6.00 375.77 2825.02
   19:25:18.270.16-Jul-2020 4190.01 6990.19 79.10 6.00 375.97 2825.02
   19:25:18.470.16-Jul-2020 4190.01 6961.51 79.10 6.00 376.17 2825.02
   19:25:18.670.16-Jul-2020 4190.01 6961.51 79.10 6.00 376.37 2825.02
   19:25:18.870.16-Jul-2020 4190.01 6976.66 79.09 6.00 376.57 2825.02
   19:25:19.070.16-Jul-2020 4190.01 6975.68 79.09 6.00 376.77 2825.02
   19:25:19.270.16-Jul-2020 4190.01 6978.22 79.09 6.00 376.97 2825.02
   19:25:19.470.16-Jul-2020 4190.01 6979.95 79.09 6.00 377.17 2825.02
   19:25:19.670.16-Jul-2020 4190.01 6979.95 79.09 6.00 377.37 2825.02
   19:25:19.870.16-Jul-2020 4190.01 6975.57 79.09 6.00 377.57 2825.02
   19:25:20.070.16-Jul-2020 4190.01 6978.91 79.09 6.00 377.77 2825.02
   19:25:20.270.16-Jul-2020 4190.01 6977.95 79.09 6.00 377.97 2825.02
   19:25:20.471.16-Jul-2020 4190.01 6980.03 79.09 6.00 378.17 2825.02
   19:25:20.671.16-Jul-2020 4190.01 6971.39 79.09 6.00 378.37 2825.02
   19:25:20.871.16-Jul-2020 4190.01 6976.69 79.09 6.00 378.57 2825.02
   19:25:21.071.16-Jul-2020 4190.01 6976.78 79.09 6.00 378.77 2825.02
   19:25:21.271.16-Jul-2020 4190.01 6974.01 79.09 6.00 378.97 2825.02
   19:25:21.471.16-Jul-2020 4190.01 6975.07 79.09 6.00 379.17 2825.02
   19:25:21.671.16-Jul-2020 4190.01 6975.07 79.09 6.00 379.37 2825.02
   19:25:21.871.16-Jul-2020 4190.01 6974.35 79.09 6.00 379.57 2825.02
   19:25:22.071.16-Jul-2020 4190.01 6973.36 79.09 6.00 379.77 2825.02
   19:25:22.271.16-Jul-2020 4190.01 6973.99 79.09 6.00 379.97 2825.02
   19:25:22.471.16-Jul-2020 4190.01 6973.42 79.09 6.00 380.17 2825.02
   19:25:22.672.16-Jul-2020 4190.01 6973.42 79.09 6.00 380.37 2825.02
   19:25:22.872.16-Jul-2020 4190.01 6984.16 79.09 6.00 380.57 2825.02
   19:25:23.072.16-Jul-2020 4190.01 6967.71 79.09 6.00 380.77 2825.02
   19:25:23.272.16-Jul-2020 4190.01 6978.10 79.09 6.00 380.97 2825.02
   19:25:23.472.16-Jul-2020 4190.01 6973.87 79.09 6.00 381.17 2825.02
   19:25:23.672.16-Jul-2020 4190.01 6974.01 79.09 6.00 381.37 2825.02
   19:25:23.872.16-Jul-2020 4190.01 6973.52 79.09 6.00 381.57 2825.02
   19:25:24.072.16-Jul-2020 4190.01 6973.94 79.09 6.00 381.77 2825.02
   19:25:24.272.16-Jul-2020 4190.01 6972.93 79.09 6.00 381.97 2825.02
   19:25:24.472.16-Jul-2020 4190.01 6973.72 79.09 6.00 382.17 2825.02
   19:25:24.672.16-Jul-2020 4190.01 6973.72 79.09 6.00 382.37 2825.02
   19:25:24.873.16-Jul-2020 4190.01 6973.00 79.08 6.00 382.57 2825.02
   19:25:25.073.16-Jul-2020 4190.01 6974.94 79.08 6.00 382.77 2825.02
   19:25:25.273.16-Jul-2020 4190.01 6977.37 79.08 6.00 382.97 2825.02
   19:25:25.473.16-Jul-2020 4190.01 6978.66 79.08 6.00 383.17 2825.02
   19:25:25.673.16-Jul-2020 4190.01 6978.66 79.08 6.00 383.37 2825.02
   19:25:25.873.16-Jul-2020 4190.01 6975.02 79.08 6.00 383.57 2825.02
   19:25:26.073.16-Jul-2020 4190.01 6989.20 79.08 6.00 383.77 2825.02
   19:25:26.273.16-Jul-2020 4190.01 6961.34 79.08 6.00 383.97 2825.02
   19:25:26.473.16-Jul-2020 4190.01 6979.58 79.08 6.00 384.17 2825.02
   19:25:26.673.16-Jul-2020 4190.01 6979.58 79.08 6.00 384.37 2825.02
   19:25:26.873.16-Jul-2020 4190.01 6973.20 79.08 6.00 384.57 2825.02
   19:25:27.074.16-Jul-2020 4190.01 6982.58 79.08 6.00 384.77 2825.02
   19:25:27.274.16-Jul-2020 4190.01 6972.52 79.08 6.00 384.97 2825.02
   19:25:27.474.16-Jul-2020 4190.01 6975.87 79.08 6.00 385.17 2825.02
   19:25:27.674.16-Jul-2020 4190.01 6976.76 79.08 6.00 385.37 2825.02
   19:25:27.874.16-Jul-2020 4190.01 6973.62 79.08 6.00 385.57 2825.02
   19:25:28.074.16-Jul-2020 4190.01 6974.87 79.08 6.00 385.77 2825.02
   19:25:28.274.16-Jul-2020 4190.01 6986.76 79.08 6.00 385.97 2825.02
   19:25:28.474.16-Jul-2020 4190.01 6969.70 79.08 6.00 386.17 2825.02
   19:25:28.674.16-Jul-2020 4190.01 6969.70 79.08 6.00 386.37 2825.02
   19:25:28.874.16-Jul-2020 4190.01 6974.61 79.08 6.00 386.57 2825.02
   19:25:29.074.16-Jul-2020 4190.01 6976.32 79.08 6.00 386.77 2825.02
   19:25:29.274.16-Jul-2020 4190.01 6976.44 79.08 6.00 386.97 2825.02
   19:25:29.475.16-Jul-2020 4190.01 6974.47 79.08 6.00 387.17 2825.02
   19:25:29.675.16-Jul-2020 4190.01 6974.09 79.08 6.00 387.37 2825.02
   19:25:29.875.16-Jul-2020 4190.01 6974.79 79.08 6.00 387.57 2825.02
   19:25:30.075.16-Jul-2020 4190.01 6974.14 79.08 6.00 387.77 2825.02
   19:25:30.275.16-Jul-2020 4190.01 6974.15 79.08 6.00 387.97 2825.02
   19:25:30.475.16-Jul-2020 4190.01 6973.63 79.08 6.00 388.17 2825.02
   19:25:30.675.16-Jul-2020 4190.01 6972.74 79.08 6.00 388.37 2825.02
   19:25:30.875.16-Jul-2020 4190.01 6973.36 79.08 6.00 388.57 2825.02
   19:25:31.075.16-Jul-2020 4190.01 6988.09 79.08 6.00 388.77 2825.02
   19:25:31.275.16-Jul-2020 4190.01 6963.13 79.08 6.00 388.97 2825.02
   19:25:31.475.16-Jul-2020 4190.01 6979.82 79.08 6.00 389.17 2825.02
   19:25:31.676.16-Jul-2020 4190.01 6977.47 79.08 6.00 389.37 2825.02
   19:25:31.876.16-Jul-2020 4190.01 6973.52 79.08 6.00 389.57 2825.02
   19:25:32.076.16-Jul-2020 4190.01 6974.15 79.08 6.00 389.77 2825.02
   19:25:32.276.16-Jul-2020 4190.01 6974.48 79.08 6.00 389.98 2825.02
   19:25:32.476.16-Jul-2020 4190.01 6973.75 79.08 6.00 390.18 2825.02
   19:25:32.676.16-Jul-2020 4190.01 6973.75 79.08 6.00 390.38 2825.02
   19:25:32.876.16-Jul-2020 4190.01 6973.86 79.08 6.00 390.58 2825.02
   19:25:33.076.16-Jul-2020 4190.01 6973.21 79.08 6.00 390.78 2825.02
   19:25:33.276.16-Jul-2020 4190.01 6973.37 79.08 6.00 390.98 2825.02
