~Version Information
 VERS.                  2.0:   CWLS log ASCII Standard -VERSION 2.0
 WRAP.                   NO:   One line per depth step
~Well Information Block
#MNEM.UNIT     VALUE/NAME     DESCRIPTION
#---------     -----------    ---------------------------
 STRT.S             19:19:02 16-Jul-20: START TIME 19:19:02 16-Jul-20
 STOP.S             19:25:52 16-Jul-20: STOP TIME  19:25:52 16-Jul-20
 STEP.S                   0.00: STEP TIME
 NULL.                 -999.25: NULL VALUE
 MDS .        Operator Entered:  MAG DATA SOURCE
 UNIT.                     N/A:  LOGGING EQUIPMENT ID
 DCON.         Sperry Drilling:  DIRECTNL CONTR
 DOE .                     N/A:  DOE NUMBER
 RIG .               EastAzeri:  RIG NAME
 JOBN.        AZ-XX-0906363297:  JOB TICKET NUMB
 MWDS.                    Baku:  MWD SHOP
 SRVC.     Turan Drilling & Engineering:  CONTRACTOR
 PROV.                    Baku:  PROVINCE
 STAT.                    Baku:  STATE NAME
 REGN.                   EESSA:  REGION
 BASE.              Azerbaijan:  LOGGING EQUIPMENT BASE LOCATION
 WTYP.                Deviated:  WELL TYPE
 UWI .                     N/A:  UNIQUE WELL IDENTIFIER
 API .                     N/A:  API NUMBER
 COMP.     BP Exploration (Caspian Sea) ltd.:  COMPANY
 WELL.                    D07z:  WELL NAME
 CTRY.              Azerbaijan:  COUNTRY NAME
 SON .        AZ-XX-0906363297:  JOB NUMBER
 FLD .                     ACG:  FIELD NAME
 PDAT.          Mean Sea Level:  PERMANENT DATUM
 FTOP.          Formation Tops:  FORM TOPS DESC
 ILTD.               Lithology:  INTERP LTH DESC
 SVYD.                  Survey:  SURVEY DESC
 DMOD.             Drill Model:  DRILL MOD DESC
 HPTY.       Minimum Curvature:  HOLE POS TYPE
 NREF.                    Grid:  NORTH REFERENCE
 SPUD.               28-Jun-20:  SPUD DATE
 DATE.      18.27.12 28-Jun-20:  END TIME
 STIM.      18.27.12 28-Jun-20:  START TIME
 DMF .             Drill Floor:  DRILL MEAS FROM
 DFST.                        :  DIST FSL TEXT
 DFWT.                        :  DIST FWL TEXT
 CNTY.                        :  COUNTY
 LOC .                        :  LOCATION
 LMF .             Drill Floor:  LOG MEASURED FROM
 VSNS.m                  -7.75:  VERT SEC N/S
 VSEW.m                  -9.19:  VERT SEC E/W
 MMDE.m                   0.00:  MAGUTM CALC DEP
 AGAP.m                  43.60:  AIR GAP
 DEP .m                4058.99:  DEPTH
 APD .m                  43.60:  DEPTH ABOVE PD
 WDMS.m                 151.80:  WD ELEV
 EGL .m                   0.00:  GROUND ELEVATION
 EPD .m                   0.00:  ELEVATION
 AZTC.deg                 6.19:  AZM TOTAL CORR
 GRDC.deg                 0.27:  GRID CORRECTION
 MDEC.deg                 6.46:  MAGNETIC DECL
 MDIP.deg                59.47:  MAGNETIC DIP
 MFLD.nT              50279.00:  MAGNETIC FIELD
 GVFD.g                   1.00:  GRAVITY FIELD
 VSDR.deg               249.96:  VERT SEC DIRECT
 TDD .m                   0.00:  TOTAL DEPTH (DRILLER)
 SDEP.m                   0.00:  START DEPTH
 DFSL.m                   0.00:  DISTANCE FSL
 DFWL.m                   0.00:  DISTANCE FWL
 UTMY.m             4431880.20:  UTM Y
 UTMX.m              538763.98:  UTM X
 WHEW.m                  -9.19:  WELL HEAD E/W
 WHNS.m                  -7.75:  WELL HEAD N/S
 LONG.deg                51.45:  LONGITUDE
 LATI.deg                40.02:  LATITUDE
 TVDS.m                  43.60:  TVDSS CORRECTN
 EKB .m                  43.60:  KB ELEVATION
 EDF .m                  43.60:  DF ELEVATION
 TDL .m                 248.00:  TOTAL DEPTH (LOGGER)
 MAGU.                 1849075:  MAGUTM CHECKSUM
 VSC .                       0:  VS TO CLOSURE
~Parameter Information Block
#MNEM.UNIT       Value        Description
#---------     -----------    ---------------------------
 AV  .mps                 6.34:  Ann Velocity 
 AVMX.mps                 7.00:  Max Ann Veloc 
 AZIF.deg               260.29:  Azm, Final 
 BHAT.        Rotary Steerable:  BHA Type 
 BROT.°/30m               1.20:  Build Rotating 
 BS  .in                  8.50:  Bit Size 
 BSZ .in                  8.50:  Bit Size 
 BTPL.psig              620.00:  Bit Press Loss 
 CABU.                     Yes:  Customer Abuse 
 COMM.                     d)s:  Run Comments 1 
 TCS .hr                 56.22:  Time Ciculation Ended 
 CV  .mps                 3.05:  Crit Velocity 
 CVMX.mps                 3.20:  Max Crit Veloc 
 DD1 .            Musa Ahmadov:  Direct Drillr 1 
 DDSV.                 iCruise:  DD Service 
 DEFF.%                  98.00:  % Det Eff 
 DLRX.°/30m               2.78:  Dogleg Rot Max 
 DLSO.°/30m               0.00:  Dogleg Oriented 
 DLSX.°/30m               0.00:  Dogleg Str Max 
 DRET.      05.20.48 16-Jul-20:  Drill End Time 
 DRST.      10.20.48 13-Jul-20:  Drill Start Tim 
 DTIM.hr                 14.25:  Time Drilling 
 EDEP.m                4326.01:  End Depth 
 ENG1.      Artemiy Matviyanov:  Engineer 1 
 ENG2.           Amrah Tahirov:  Engineer 2 
 ETIM.      22.30.00 18-Jul-20:  End Time 
 FLOI.gpm               550.00:  Flow In 
 FLON.gpm               450.00:  Flow In Min 
 FLOS.cptm                0.00:  Fluid Loss 
 FLOX.gpm               600.00:  Flow In Max 
 HFLO.                      No:  High Flow 
 HPRE.                      No:  High Pressure 
 HTEM.                      No:  High Temp 
 HYDO.m                   1.80:  Hydro Offset 
 IFIN.deg                65.41:  Inc, Final 
 IMAX.deg                65.14:  Inc Max 
 IMIN.deg                58.89:  Inc Min 
 IMND.m                4104.92:  Inc Min Depth 
 IMXD.m                4303.89:  Inc Max Depth 
 JARR.                      No:  Jarring 
 LETM.      10.20.48 17-Jul-20:  Log End Time 
 LOST.hr                     0:  Lost Rig Time 
 LSTM.      10.20.48 13-Jul-20:  Log Start Time 
 MDCL.ppm             37000.00:  Mud Chlorides 
 MDES.     Inversion Oil/Synthetic:  Mud Desc 
 DFD .sg                  1.52:  Mud Density 
 MDMN.sg                  1.52:  Dens Mud Min 
 MDMX.sg                  1.52:  Dens Mud Max 
 MOIL.                   52.70:  Run Mud Oil % 
 MOWR.                   68:32:  Run Mud OWR 
 MSND.                     0.2:  Run Mud Sand % 
 MSOL.                    21.6:  Run Mud Solids% 
 DFV .spqt               79.00:  Mud Viscosity 
 MWOD.in                  6.75:  MWD Tool OD 
 MWSI.                      No:  Serv Intrp, MWD 
 OTIM.hr                114.04:  Time Operating 
 PCON.          Wear / Scratch:  Pad Condition 
 PMAX.psia            11782.92:  Press Op, Max 
 PV  .cP                 49.00:  Mud PV 
 RUN .                     600:  Run Number 
 ROPA.m/hr               20.00:  ROP Avg 
 ROPN.m/hr               15.00:  ROP Min 
 ROPX.m/hr               22.00:  ROP Max 
 RPMA.rpm               120.00:  RPM Surface Avg 
 RPMN.rpm                90.00:  RPM Surface Min 
 RPMX.rpm               140.00:  RPM Surface Max 
 RRUN.                     600:  Rig Run Number 
 SAZI.deg               260.29:  Azm, Start 
 SDEP.m                4078.01:  Start Depth 
 SIDD.                      No:  Serv Intrp, DD 
 SINC.deg                58.89:  Inc, Start 
 SPPA.psig             4560.00:  SPP Avg 
 SPPN.psig             3600.00:  SPP Min 
 SPPX.psig             4800.00:  SPP Max 
 STIM.      10.20.48 13-Jul-20:  Start Time 
 SVCS.                 DD, MWD:  Services 
 SVER.                    9.20:  Sperry Version 
 TDAT.m                4378.01:  Tot Depth Attmp 
 TDDF.                      No:  Trip for DD 
 TDLG.m                 248.00:  Tot Depth Loggd 
 TFF .                      No:  Trip for Fail 
 TQAA.f-kp               18.00:  Torque Abs Avg 
 TQAN.f-kp               15.00:  Torque Abs Min 
 TQAX.f-kp               20.00:  Torque Abs Max 
 TRRT.°/30m               0.70:  Turn Rotating 
 MRT .                    HCIM:  Maximum Recorded Temperature 
 TTMX.degC               86.00:  Max Tool Temp 
 WBMN.klb                 3.00:  WOB Min 
 WOBA.klb                 5.00:  WOB Avg 
 WOBX.klb                 9.00:  WOB Max 
 YP  .lhf2               32.00:  Yield Point 
~Curve Information Block
#MNEM.UNIT                 API CODE     Curve Description
#---------               -----------    ---------------------------
 TIME.HHMMSS            00 000 000 000:  GT Time & Date
 GTDEPTH.m              00 000 000 000:  GT Depth
 GTPQH.psia             00 000 000 000:  GT HR Quartz Pressure
 GTTQ.degC              00 000 000 000:  GT Quartz Temperature
 GTTN.NONE              00 000 000 000:  GT Test Number
 GTET.sec               00 000 000 000:  GT Elapsed Test Time
 GTTVD.m                00 000 000 000:  GT True Vertical Depth
#Other Information
#
#WARRANTY: Halliburton will use its best efforts to furnish customers with 
#accurate information and interpretations that are part of, and incident to, the services 
#provided.  However, Halliburton cannot and does not warrant the accuracy 
#or correctness of such information and interpretations.  Under no circumstances should any 
#such information or interpretation be relied upon as the sole basis for any drilling, 
#completion, production, or financial decision or any procedure involving any risk to the 
#safety of any drilling venture, drilling rig or its crew or any other third party.  The 
#Customer has full responsibility for all drilling, completion and production operation.  
#Halliburton makes no representations or warranties, either expressed or 
#implied, including, but not limited to, the implied warranties of merchantability or fitness 
#for a particular purpose, with respect to the services rendered.  In no event will 
#Halliburton be liable for failure to obtain any particular results or for 
#any damages, including, but not limited to, indirect, special or consequential damages, 
#resulting from the use of any information or interpretation provided by Halliburton.
#
~A           TIME           GTDEPTH  GTPQH  GTTQ  GTTN  GTET   GTTVD  
# ...
   19:21:20.363.16-Jul-2020 4190.01 4791.64 79.04 6.00 138.06 2825.02
   19:21:20.563.16-Jul-2020 4190.01 4791.65 79.03 6.00 138.26 2825.02
   19:21:20.763.16-Jul-2020 4190.01 4791.64 79.03 6.00 138.46 2825.02
   19:21:20.963.16-Jul-2020 4190.01 4791.65 79.03 6.00 138.66 2825.02
   19:21:21.163.16-Jul-2020 4190.01 4791.65 79.03 6.00 138.86 2825.02
   19:21:21.363.16-Jul-2020 4190.01 4791.78 79.03 6.00 139.06 2825.02
   19:21:21.563.16-Jul-2020 4190.01 4791.78 79.03 6.00 139.26 2825.02
   19:21:21.763.16-Jul-2020 4190.01 4791.72 79.03 6.00 139.46 2825.02
   19:21:21.963.16-Jul-2020 4190.01 4791.58 79.03 6.00 139.66 2825.02
   19:21:22.164.16-Jul-2020 4190.01 4791.64 79.03 6.00 139.86 2825.02
   19:21:22.364.16-Jul-2020 4190.01 4791.66 79.03 6.00 140.06 2825.02
   19:21:22.564.16-Jul-2020 4190.01 4791.66 79.03 6.00 140.26 2825.02
   19:21:22.764.16-Jul-2020 4190.01 4791.68 79.03 6.00 140.46 2825.02
   19:21:22.964.16-Jul-2020 4190.01 4791.80 79.03 6.00 140.66 2825.02
   19:21:23.164.16-Jul-2020 4190.01 4791.56 79.03 6.00 140.86 2825.02
   19:21:23.364.16-Jul-2020 4190.01 4791.60 79.03 6.00 141.06 2825.02
   19:21:23.564.16-Jul-2020 4190.01 4791.60 79.03 6.00 141.26 2825.02
   19:21:23.764.16-Jul-2020 4190.01 4791.51 79.03 6.00 141.46 2825.02
   19:21:23.964.16-Jul-2020 4190.01 4791.68 79.03 6.00 141.66 2825.02
   19:21:24.164.16-Jul-2020 4190.01 4791.61 79.03 6.00 141.86 2825.02
   19:21:24.365.16-Jul-2020 4190.01 4791.64 79.03 6.00 142.06 2825.02
   19:21:24.565.16-Jul-2020 4190.01 4791.64 79.03 6.00 142.26 2825.02
   19:21:24.765.16-Jul-2020 4190.01 4791.58 79.03 6.00 142.46 2825.02
   19:21:24.965.16-Jul-2020 4190.01 4791.73 79.03 6.00 142.66 2825.02
   19:21:25.165.16-Jul-2020 4190.01 4791.66 79.03 6.00 142.86 2825.02
   19:21:25.365.16-Jul-2020 4190.01 4791.63 79.03 6.00 143.06 2825.02
   19:21:25.565.16-Jul-2020 4190.01 4791.63 79.03 6.00 143.26 2825.02
   19:21:25.765.16-Jul-2020 4190.01 4791.59 79.03 6.00 143.46 2825.02
   19:21:25.965.16-Jul-2020 4190.01 4693.12 79.03 6.00 143.66 2825.02
   19:21:26.165.16-Jul-2020 4190.01 4628.71 79.03 6.00 143.86 2825.02
   19:21:26.365.16-Jul-2020 4190.01 4616.19 79.03 6.00 144.06 2825.02
   19:21:26.566.16-Jul-2020 4190.01 4616.19 79.03 6.00 144.26 2825.02
   19:21:26.766.16-Jul-2020 4190.01 4607.49 79.03 6.00 144.46 2825.02
   19:21:26.966.16-Jul-2020 4190.01 4607.57 79.03 6.00 144.66 2825.02
   19:21:27.166.16-Jul-2020 4190.01 4602.42 79.03 6.00 144.87 2825.02
   19:21:27.366.16-Jul-2020 4190.01 4602.91 79.03 6.00 145.07 2825.02
   19:21:27.566.16-Jul-2020 4190.01 4602.91 79.03 6.00 145.27 2825.02
   19:21:27.766.16-Jul-2020 4190.01 4607.24 79.03 6.00 145.47 2825.02
   19:21:27.966.16-Jul-2020 4190.01 4609.66 79.03 6.00 145.67 2825.02
   19:21:28.166.16-Jul-2020 4190.01 4611.75 79.03 6.00 145.87 2825.02
   19:21:28.366.16-Jul-2020 4190.01 4610.25 79.03 6.00 146.07 2825.02
   19:21:28.566.16-Jul-2020 4190.01 4610.25 79.03 6.00 146.27 2825.02
   19:21:28.767.16-Jul-2020 4190.01 4607.54 79.03 6.00 146.47 2825.02
   19:21:28.967.16-Jul-2020 4190.01 4605.07 79.03 6.00 146.67 2825.02
   19:21:29.167.16-Jul-2020 4190.01 4602.92 79.03 6.00 146.87 2825.02
   19:21:29.367.16-Jul-2020 4190.01 4593.20 79.03 6.00 147.07 2825.02
   19:21:29.567.16-Jul-2020 4190.01 4591.61 79.03 6.00 147.27 2825.02
   19:21:29.767.16-Jul-2020 4190.01 4590.61 79.03 6.00 147.47 2825.02
   19:21:29.967.16-Jul-2020 4190.01 4592.28 79.03 6.00 147.67 2825.02
   19:21:30.167.16-Jul-2020 4190.01 4588.36 79.03 6.00 147.87 2825.02
   19:21:30.367.16-Jul-2020 4190.01 4588.21 79.03 6.00 148.07 2825.02
   19:21:30.567.16-Jul-2020 4190.01 4588.21 79.03 6.00 148.27 2825.02
   19:21:30.767.16-Jul-2020 4190.01 4582.27 79.03 6.00 148.47 2825.02
   19:21:30.968.16-Jul-2020 4190.01 4595.66 79.03 6.00 148.67 2825.02
   19:21:31.168.16-Jul-2020 4190.01 4604.69 79.03 6.00 148.87 2825.02
   19:21:31.368.16-Jul-2020 4190.01 4601.86 79.03 6.00 149.07 2825.02
   19:21:31.568.16-Jul-2020 4190.01 4588.15 79.03 6.00 149.27 2825.02
   19:21:31.768.16-Jul-2020 4190.01 4583.87 79.03 6.00 149.47 2825.02
   19:21:31.968.16-Jul-2020 4190.01 4581.76 79.03 6.00 149.67 2825.02
   19:21:32.168.16-Jul-2020 4190.01 4589.29 79.03 6.00 149.87 2825.02
   19:21:32.368.16-Jul-2020 4190.01 4595.60 79.03 6.00 150.07 2825.02
   19:21:32.568.16-Jul-2020 4190.01 4595.60 79.03 6.00 150.27 2825.02
   19:21:32.768.16-Jul-2020 4190.01 4597.93 79.03 6.00 150.47 2825.02
   19:21:32.968.16-Jul-2020 4190.01 4589.38 79.03 6.00 150.67 2825.02
   19:21:33.169.16-Jul-2020 4190.01 4596.77 79.03 6.00 150.87 2825.02
   19:21:33.369.16-Jul-2020 4190.01 4595.05 79.03 6.00 151.07 2825.02
   19:21:33.569.16-Jul-2020 4190.01 4595.05 79.03 6.00 151.27 2825.02
   19:21:33.769.16-Jul-2020 4190.01 4588.98 79.03 6.00 151.47 2825.02
   19:21:33.969.16-Jul-2020 4190.01 4584.60 79.03 6.00 151.67 2825.02
   19:21:34.169.16-Jul-2020 4190.01 4593.84 79.03 6.00 151.87 2825.02
   19:21:34.369.16-Jul-2020 4190.01 4587.73 79.03 6.00 152.07 2825.02
   19:21:34.569.16-Jul-2020 4190.01 4587.73 79.03 6.00 152.27 2825.02
   19:21:34.769.16-Jul-2020 4190.01 4588.96 79.03 6.00 152.47 2825.02
   19:21:34.969.16-Jul-2020 4190.01 4586.94 79.03 6.00 152.67 2825.02
   19:21:35.169.16-Jul-2020 4190.01 4585.38 79.03 6.00 152.87 2825.02
   19:21:35.370.16-Jul-2020 4190.01 4584.50 79.02 6.00 153.07 2825.02
   19:21:35.570.16-Jul-2020 4190.01 4584.20 79.02 6.00 153.27 2825.02
   19:21:35.770.16-Jul-2020 4190.01 4628.67 79.02 6.00 153.47 2825.02
   19:21:35.970.16-Jul-2020 4190.01 4776.31 79.02 6.00 153.67 2825.02
   19:21:36.170.16-Jul-2020 4190.01 4790.29 79.02 6.00 153.87 2825.02
   19:21:36.370.16-Jul-2020 4190.01 4790.47 79.02 6.00 154.07 2825.02
   19:21:36.570.16-Jul-2020 4190.01 4790.47 79.02 6.00 154.27 2825.02
   19:21:36.770.16-Jul-2020 4190.01 4790.98 79.02 6.00 154.47 2825.02
   19:21:36.970.16-Jul-2020 4190.01 4790.78 79.02 6.00 154.67 2825.02
   19:21:37.170.16-Jul-2020 4190.01 4790.81 79.02 6.00 154.87 2825.02
   19:21:37.370.16-Jul-2020 4190.01 4790.95 79.02 6.00 155.07 2825.02
   19:21:37.570.16-Jul-2020 4190.01 4790.95 79.02 6.00 155.27 2825.02
   19:21:37.771.16-Jul-2020 4190.01 4791.02 79.02 6.00 155.47 2825.02
   19:21:37.971.16-Jul-2020 4190.01 4791.08 79.03 6.00 155.67 2825.02
   19:21:38.171.16-Jul-2020 4190.01 4791.09 79.03 6.00 155.87 2825.02
   19:21:38.371.16-Jul-2020 4190.01 4791.12 79.03 6.00 156.07 2825.02
   19:21:38.571.16-Jul-2020 4190.01 4791.12 79.03 6.00 156.27 2825.02
   19:21:38.771.16-Jul-2020 4190.01 4791.19 79.03 6.00 156.47 2825.02
   19:21:38.971.16-Jul-2020 4190.01 4791.18 79.03 6.00 156.67 2825.02
   19:21:39.171.16-Jul-2020 4190.01 4791.21 79.03 6.00 156.87 2825.02
   19:21:39.371.16-Jul-2020 4190.01 4791.23 79.03 6.00 157.07 2825.02
   19:21:39.571.16-Jul-2020 4190.01 4791.23 79.03 6.00 157.27 2825.02
   19:21:39.771.16-Jul-2020 4190.01 4791.20 79.03 6.00 157.47 2825.02
   19:21:39.972.16-Jul-2020 4190.01 4791.43 79.03 6.00 157.67 2825.02
   19:21:40.172.16-Jul-2020 4190.01 4791.35 79.03 6.00 157.87 2825.02
   19:21:40.372.16-Jul-2020 4190.01 4791.36 79.03 6.00 158.07 2825.02
   19:21:40.572.16-Jul-2020 4190.01 4791.36 79.03 6.00 158.27 2825.02
   19:21:40.772.16-Jul-2020 4190.01 4791.33 79.03 6.00 158.47 2825.02
   19:21:40.972.16-Jul-2020 4190.01 4791.30 79.03 6.00 158.67 2825.02
   19:21:41.172.16-Jul-2020 4190.01 4791.50 79.03 6.00 158.87 2825.02
   19:21:41.372.16-Jul-2020 4190.01 4791.40 79.03 6.00 159.07 2825.02
   19:21:41.572.16-Jul-2020 4190.01 4791.40 79.03 6.00 159.27 2825.02
   19:21:41.772.16-Jul-2020 4190.01 4791.42 79.03 6.00 159.47 2825.02
   19:21:41.972.16-Jul-2020 4190.01 4791.40 79.03 6.00 159.67 2825.02
   19:21:42.173.16-Jul-2020 4190.01 4791.58 79.03 6.00 159.87 2825.02
   19:21:42.373.16-Jul-2020 4190.01 4791.24 79.03 6.00 160.07 2825.02
   19:21:42.573.16-Jul-2020 4190.01 4791.42 79.03 6.00 160.27 2825.02
   19:21:42.773.16-Jul-2020 4190.01 4791.49 79.03 6.00 160.47 2825.02
   19:21:42.973.16-Jul-2020 4190.01 4791.43 79.03 6.00 160.67 2825.02
   19:21:43.173.16-Jul-2020 4190.01 4791.64 79.03 6.00 160.87 2825.02
