~Version Information
 VERS.                  2.0:   CWLS log ASCII Standard -VERSION 2.0
 WRAP.                   NO:   One line per depth step
~Well Information Block
#MNEM.UNIT     VALUE/NAME     DESCRIPTION
#---------     -----------    ---------------------------
 STRT.S             18:36:16 16-Jul-20: START TIME 18:36:16 16-Jul-20
 STOP.S             18:43:12 16-Jul-20: STOP TIME  18:43:12 16-Jul-20
 STEP.S                   0.00: STEP TIME
 NULL.                 -999.25: NULL VALUE
 MDS .        Operator Entered:  MAG DATA SOURCE
 UNIT.                     N/A:  LOGGING EQUIPMENT ID
 DCON.         Sperry Drilling:  DIRECTNL CONTR
 DOE .                     N/A:  DOE NUMBER
 RIG .               EastAzeri:  RIG NAME
 JOBN.        AZ-XX-0906363297:  JOB TICKET NUMB
 MWDS.                    Baku:  MWD SHOP
 SRVC.     Turan Drilling & Engineering:  CONTRACTOR
 PROV.                    Baku:  PROVINCE
 STAT.                    Baku:  STATE NAME
 REGN.                   EESSA:  REGION
 BASE.              Azerbaijan:  LOGGING EQUIPMENT BASE LOCATION
 WTYP.                Deviated:  WELL TYPE
 UWI .                     N/A:  UNIQUE WELL IDENTIFIER
 API .                     N/A:  API NUMBER
 COMP.     BP Exploration (Caspian Sea) ltd.:  COMPANY
 WELL.                    D07z:  WELL NAME
 CTRY.              Azerbaijan:  COUNTRY NAME
 SON .        AZ-XX-0906363297:  JOB NUMBER
 FLD .                     ACG:  FIELD NAME
 PDAT.          Mean Sea Level:  PERMANENT DATUM
 FTOP.          Formation Tops:  FORM TOPS DESC
 ILTD.               Lithology:  INTERP LTH DESC
 SVYD.                  Survey:  SURVEY DESC
 DMOD.             Drill Model:  DRILL MOD DESC
 HPTY.       Minimum Curvature:  HOLE POS TYPE
 NREF.                    Grid:  NORTH REFERENCE
 SPUD.               28-Jun-20:  SPUD DATE
 DATE.      18.27.12 28-Jun-20:  END TIME
 STIM.      18.27.12 28-Jun-20:  START TIME
 DMF .             Drill Floor:  DRILL MEAS FROM
 DFST.                        :  DIST FSL TEXT
 DFWT.                        :  DIST FWL TEXT
 CNTY.                        :  COUNTY
 LOC .                        :  LOCATION
 LMF .             Drill Floor:  LOG MEASURED FROM
 VSNS.m                  -7.75:  VERT SEC N/S
 VSEW.m                  -9.19:  VERT SEC E/W
 MMDE.m                   0.00:  MAGUTM CALC DEP
 AGAP.m                  43.60:  AIR GAP
 DEP .m                4058.99:  DEPTH
 APD .m                  43.60:  DEPTH ABOVE PD
 WDMS.m                 151.80:  WD ELEV
 EGL .m                   0.00:  GROUND ELEVATION
 EPD .m                   0.00:  ELEVATION
 AZTC.deg                 6.19:  AZM TOTAL CORR
 GRDC.deg                 0.27:  GRID CORRECTION
 MDEC.deg                 6.46:  MAGNETIC DECL
 MDIP.deg                59.47:  MAGNETIC DIP
 MFLD.nT              50279.00:  MAGNETIC FIELD
 GVFD.g                   1.00:  GRAVITY FIELD
 VSDR.deg               249.96:  VERT SEC DIRECT
 TDD .m                   0.00:  TOTAL DEPTH (DRILLER)
 SDEP.m                   0.00:  START DEPTH
 DFSL.m                   0.00:  DISTANCE FSL
 DFWL.m                   0.00:  DISTANCE FWL
 UTMY.m             4431880.20:  UTM Y
 UTMX.m              538763.98:  UTM X
 WHEW.m                  -9.19:  WELL HEAD E/W
 WHNS.m                  -7.75:  WELL HEAD N/S
 LONG.deg                51.45:  LONGITUDE
 LATI.deg                40.02:  LATITUDE
 TVDS.m                  43.60:  TVDSS CORRECTN
 EKB .m                  43.60:  KB ELEVATION
 EDF .m                  43.60:  DF ELEVATION
 TDL .m                 248.00:  TOTAL DEPTH (LOGGER)
 MAGU.                 1849075:  MAGUTM CHECKSUM
 VSC .                       0:  VS TO CLOSURE
~Parameter Information Block
#MNEM.UNIT       Value        Description
#---------     -----------    ---------------------------
 AV  .mps                 6.34:  Ann Velocity 
 AVMX.mps                 7.00:  Max Ann Veloc 
 AZIF.deg               260.29:  Azm, Final 
 BHAT.        Rotary Steerable:  BHA Type 
 BROT.°/30m               1.20:  Build Rotating 
 BS  .in                  8.50:  Bit Size 
 BSZ .in                  8.50:  Bit Size 
 BTPL.psig              620.00:  Bit Press Loss 
 CABU.                     Yes:  Customer Abuse 
 COMM.                     Ì>`:  Run Comments 1 
 TCS .hr                 56.22:  Time Ciculation Ended 
 CV  .mps                 3.05:  Crit Velocity 
 CVMX.mps                 3.20:  Max Crit Veloc 
 DD1 .            Musa Ahmadov:  Direct Drillr 1 
 DDSV.                 iCruise:  DD Service 
 DEFF.%                  98.00:  % Det Eff 
 DLRX.°/30m               2.78:  Dogleg Rot Max 
 DLSO.°/30m               0.00:  Dogleg Oriented 
 DLSX.°/30m               0.00:  Dogleg Str Max 
 DRET.      05.20.48 16-Jul-20:  Drill End Time 
 DRST.      10.20.48 13-Jul-20:  Drill Start Tim 
 DTIM.hr                 14.25:  Time Drilling 
 EDEP.m                4326.01:  End Depth 
 ENG1.      Artemiy Matviyanov:  Engineer 1 
 ENG2.           Amrah Tahirov:  Engineer 2 
 ETIM.      22.30.00 18-Jul-20:  End Time 
 FLOI.gpm               550.00:  Flow In 
 FLON.gpm               450.00:  Flow In Min 
 FLOS.cptm                0.00:  Fluid Loss 
 FLOX.gpm               600.00:  Flow In Max 
 HFLO.                      No:  High Flow 
 HPRE.                      No:  High Pressure 
 HTEM.                      No:  High Temp 
 HYDO.m                   1.80:  Hydro Offset 
 IFIN.deg                65.41:  Inc, Final 
 IMAX.deg                65.14:  Inc Max 
 IMIN.deg                58.89:  Inc Min 
 IMND.m                4104.92:  Inc Min Depth 
 IMXD.m                4303.89:  Inc Max Depth 
 JARR.                      No:  Jarring 
 LETM.      10.20.48 17-Jul-20:  Log End Time 
 LOST.hr                     0:  Lost Rig Time 
 LSTM.      10.20.48 13-Jul-20:  Log Start Time 
 MDCL.ppm             37000.00:  Mud Chlorides 
 MDES.     Inversion Oil/Synthetic:  Mud Desc 
 DFD .sg                  1.52:  Mud Density 
 MDMN.sg                  1.52:  Dens Mud Min 
 MDMX.sg                  1.52:  Dens Mud Max 
 MOIL.                   52.70:  Run Mud Oil % 
 MOWR.                   68:32:  Run Mud OWR 
 MSND.                     0.2:  Run Mud Sand % 
 MSOL.                    21.6:  Run Mud Solids% 
 DFV .spqt               79.00:  Mud Viscosity 
 MWOD.in                  6.75:  MWD Tool OD 
 MWSI.                      No:  Serv Intrp, MWD 
 OTIM.hr                114.04:  Time Operating 
 PCON.          Wear / Scratch:  Pad Condition 
 PMAX.psia            11782.92:  Press Op, Max 
 PV  .cP                 49.00:  Mud PV 
 RUN .                     600:  Run Number 
 ROPA.m/hr               20.00:  ROP Avg 
 ROPN.m/hr               15.00:  ROP Min 
 ROPX.m/hr               22.00:  ROP Max 
 RPMA.rpm               120.00:  RPM Surface Avg 
 RPMN.rpm                90.00:  RPM Surface Min 
 RPMX.rpm               140.00:  RPM Surface Max 
 RRUN.                     600:  Rig Run Number 
 SAZI.deg               260.29:  Azm, Start 
 SDEP.m                4078.01:  Start Depth 
 SIDD.                      No:  Serv Intrp, DD 
 SINC.deg                58.89:  Inc, Start 
 SPPA.psig             4560.00:  SPP Avg 
 SPPN.psig             3600.00:  SPP Min 
 SPPX.psig             4800.00:  SPP Max 
 STIM.      10.20.48 13-Jul-20:  Start Time 
 SVCS.                 DD, MWD:  Services 
 SVER.                    9.20:  Sperry Version 
 TDAT.m                4378.01:  Tot Depth Attmp 
 TDDF.                      No:  Trip for DD 
 TDLG.m                 248.00:  Tot Depth Loggd 
 TFF .                      No:  Trip for Fail 
 TQAA.f-kp               18.00:  Torque Abs Avg 
 TQAN.f-kp               15.00:  Torque Abs Min 
 TQAX.f-kp               20.00:  Torque Abs Max 
 TRRT.°/30m               0.70:  Turn Rotating 
 MRT .                    HCIM:  Maximum Recorded Temperature 
 TTMX.degC               86.00:  Max Tool Temp 
 WBMN.klb                 3.00:  WOB Min 
 WOBA.klb                 5.00:  WOB Avg 
 WOBX.klb                 9.00:  WOB Max 
 YP  .lhf2               32.00:  Yield Point 
~Curve Information Block
#MNEM.UNIT                 API CODE     Curve Description
#---------               -----------    ---------------------------
 TIME.HHMMSS            00 000 000 000:  GT Time & Date
 GTDEPTH.m              00 000 000 000:  GT Depth
 GTPQH.psia             00 000 000 000:  GT HR Quartz Pressure
 GTTQ.degC              00 000 000 000:  GT Quartz Temperature
 GTTN.NONE              00 000 000 000:  GT Test Number
 GTET.sec               00 000 000 000:  GT Elapsed Test Time
 GTTVD.m                00 000 000 000:  GT True Vertical Depth
#Other Information
#
#WARRANTY: Halliburton will use its best efforts to furnish customers with 
#accurate information and interpretations that are part of, and incident to, the services 
#provided.  However, Halliburton cannot and does not warrant the accuracy 
#or correctness of such information and interpretations.  Under no circumstances should any 
#such information or interpretation be relied upon as the sole basis for any drilling, 
#completion, production, or financial decision or any procedure involving any risk to the 
#safety of any drilling venture, drilling rig or its crew or any other third party.  The 
#Customer has full responsibility for all drilling, completion and production operation.  
#Halliburton makes no representations or warranties, either expressed or 
#implied, including, but not limited to, the implied warranties of merchantability or fitness 
#for a particular purpose, with respect to the services rendered.  In no event will 
#Halliburton be liable for failure to obtain any particular results or for 
#any damages, including, but not limited to, indirect, special or consequential damages, 
#resulting from the use of any information or interpretation provided by Halliburton.
#
~A           TIME           GTDEPTH  GTPQH  GTTQ  GTTN  GTET   GTTVD  
# ...
   18:38:11.668.16-Jul-2020 4198.01 4795.83 79.31 5.00 114.96 2828.58
   18:38:11.868.16-Jul-2020 4198.01 4795.50 79.31 5.00 115.16 2828.58
   18:38:12.068.16-Jul-2020 4198.01 4795.65 79.32 5.00 115.36 2828.58
   18:38:12.267.16-Jul-2020 4198.01 4795.81 79.31 5.00 115.56 2828.58
   18:38:12.467.16-Jul-2020 4198.01 4795.55 79.31 5.00 115.76 2828.58
   18:38:12.667.16-Jul-2020 4198.01 4795.79 79.31 5.00 115.96 2828.58
   18:38:12.867.16-Jul-2020 4198.01 4795.79 79.31 5.00 116.16 2828.58
   18:38:13.067.16-Jul-2020 4198.01 4795.78 79.31 5.00 116.36 2828.58
   18:38:13.267.16-Jul-2020 4198.01 4795.49 79.31 5.00 116.56 2828.58
   18:38:13.467.16-Jul-2020 4198.01 4795.66 79.31 5.00 116.76 2828.58
   18:38:13.667.16-Jul-2020 4198.01 4795.88 79.31 5.00 116.96 2828.58
   18:38:13.867.16-Jul-2020 4198.01 4795.45 79.31 5.00 117.16 2828.58
   18:38:14.067.16-Jul-2020 4198.01 4795.85 79.31 5.00 117.36 2828.58
   18:38:14.267.16-Jul-2020 4198.01 4795.54 79.31 5.00 117.56 2828.58
   18:38:14.467.16-Jul-2020 4198.01 4795.69 79.31 5.00 117.76 2828.58
   18:38:14.667.16-Jul-2020 4198.01 4795.70 79.31 5.00 117.96 2828.58
   18:38:14.866.16-Jul-2020 4198.01 4795.71 79.31 5.00 118.16 2828.58
   18:38:15.066.16-Jul-2020 4198.01 4795.67 79.31 5.00 118.36 2828.58
   18:38:15.266.16-Jul-2020 4198.01 4795.65 79.31 5.00 118.56 2828.58
   18:38:15.466.16-Jul-2020 4198.01 4795.77 79.31 5.00 118.76 2828.58
   18:38:15.666.16-Jul-2020 4198.01 4795.68 79.31 5.00 118.96 2828.58
   18:38:15.866.16-Jul-2020 4198.01 4795.68 79.31 5.00 119.16 2828.58
   18:38:16.066.16-Jul-2020 4198.01 4795.70 79.31 5.00 119.36 2828.58
   18:38:16.266.16-Jul-2020 4198.01 4795.66 79.31 5.00 119.56 2828.58
   18:38:16.466.16-Jul-2020 4198.01 4795.77 79.31 5.00 119.76 2828.58
   18:38:16.666.16-Jul-2020 4198.01 4795.71 79.31 5.00 119.95 2828.58
   18:38:16.866.16-Jul-2020 4198.01 4795.62 79.31 5.00 120.15 2828.58
   18:38:17.066.16-Jul-2020 4198.01 4795.86 79.31 5.00 120.35 2828.58
   18:38:17.266.16-Jul-2020 4198.01 4795.67 79.31 5.00 120.55 2828.58
   18:38:17.465.16-Jul-2020 4198.01 4795.55 79.31 5.00 120.75 2828.58
   18:38:17.665.16-Jul-2020 4198.01 4795.80 79.31 5.00 120.95 2828.58
   18:38:17.865.16-Jul-2020 4198.01 4795.80 79.31 5.00 121.15 2828.58
   18:38:18.065.16-Jul-2020 4198.01 4795.67 79.31 5.00 121.35 2828.58
   18:38:18.265.16-Jul-2020 4198.01 4795.87 79.31 5.00 121.55 2828.58
   18:38:18.465.16-Jul-2020 4198.01 4795.66 79.31 5.00 121.75 2828.58
   18:38:18.665.16-Jul-2020 4198.01 4795.67 79.31 5.00 121.95 2828.58
   18:38:18.865.16-Jul-2020 4198.01 4795.62 79.31 5.00 122.15 2828.58
   18:38:19.065.16-Jul-2020 4198.01 4795.77 79.31 5.00 122.35 2828.58
   18:38:19.265.16-Jul-2020 4198.01 4795.74 79.31 5.00 122.55 2828.58
   18:38:19.465.16-Jul-2020 4198.01 4795.28 79.31 5.00 122.75 2828.58
   18:38:19.665.16-Jul-2020 4198.01 4796.04 79.31 5.00 122.95 2828.58
   18:38:19.865.16-Jul-2020 4198.01 4795.87 79.31 5.00 123.15 2828.58
   18:38:20.065.16-Jul-2020 4198.01 4795.63 79.31 5.00 123.35 2828.58
   18:38:20.264.16-Jul-2020 4198.01 4795.64 79.31 5.00 123.55 2828.58
   18:38:20.464.16-Jul-2020 4198.01 4795.72 79.31 5.00 123.75 2828.58
   18:38:20.664.16-Jul-2020 4198.01 4795.73 79.31 5.00 123.95 2828.58
   18:38:20.864.16-Jul-2020 4198.01 4795.73 79.31 5.00 124.15 2828.58
   18:38:21.064.16-Jul-2020 4198.01 4795.76 79.31 5.00 124.35 2828.58
   18:38:21.264.16-Jul-2020 4198.01 4795.70 79.31 5.00 124.55 2828.58
   18:38:21.464.16-Jul-2020 4198.01 4795.56 79.31 5.00 124.75 2828.58
   18:38:21.664.16-Jul-2020 4198.01 4795.86 79.31 5.00 124.95 2828.58
   18:38:21.864.16-Jul-2020 4198.01 4795.74 79.31 5.00 125.15 2828.58
   18:38:22.064.16-Jul-2020 4198.01 4795.64 79.31 5.00 125.35 2828.58
   18:38:22.264.16-Jul-2020 4198.01 4795.73 79.31 5.00 125.55 2828.58
   18:38:22.464.16-Jul-2020 4198.01 4795.63 79.31 5.00 125.75 2828.58
   18:38:22.664.16-Jul-2020 4198.01 4795.94 79.31 5.00 125.95 2828.58
   18:38:22.863.16-Jul-2020 4198.01 4795.66 79.31 5.00 126.15 2828.58
   18:38:23.063.16-Jul-2020 4198.01 4795.72 79.31 5.00 126.35 2828.58
   18:38:23.263.16-Jul-2020 4198.01 4795.58 79.31 5.00 126.55 2828.58
   18:38:23.463.16-Jul-2020 4198.01 4795.79 79.31 5.00 126.75 2828.58
   18:38:23.663.16-Jul-2020 4198.01 4795.76 79.31 5.00 126.95 2828.58
   18:38:23.863.16-Jul-2020 4198.01 4795.76 79.31 5.00 127.15 2828.58
   18:38:24.063.16-Jul-2020 4198.01 4795.84 79.31 5.00 127.35 2828.58
   18:38:24.263.16-Jul-2020 4198.01 4795.59 79.31 5.00 127.55 2828.58
   18:38:24.463.16-Jul-2020 4198.01 4795.77 79.31 5.00 127.75 2828.58
   18:38:24.663.16-Jul-2020 4198.01 4795.68 79.31 5.00 127.95 2828.58
   18:38:24.863.16-Jul-2020 4198.01 4795.68 79.31 5.00 128.15 2828.58
   18:38:25.063.16-Jul-2020 4198.01 4795.75 79.31 5.00 128.35 2828.58
   18:38:25.263.16-Jul-2020 4198.01 4795.68 79.31 5.00 128.55 2828.58
   18:38:25.462.16-Jul-2020 4198.01 4795.73 79.31 5.00 128.75 2828.58
   18:38:25.662.16-Jul-2020 4198.01 4795.60 79.31 5.00 128.95 2828.58
   18:38:25.862.16-Jul-2020 4198.01 4796.02 79.31 5.00 129.15 2828.58
   18:38:26.062.16-Jul-2020 4198.01 4795.53 79.31 5.00 129.35 2828.58
   18:38:26.262.16-Jul-2020 4198.01 4795.64 79.31 5.00 129.55 2828.58
   18:38:26.462.16-Jul-2020 4198.01 4795.78 79.31 5.00 129.75 2828.58
   18:38:26.662.16-Jul-2020 4198.01 4795.29 79.31 5.00 129.95 2828.58
   18:38:26.862.16-Jul-2020 4198.01 4796.14 79.31 5.00 130.15 2828.58
   18:38:27.062.16-Jul-2020 4198.01 4795.81 79.31 5.00 130.35 2828.58
   18:38:27.262.16-Jul-2020 4198.01 4795.69 79.31 5.00 130.55 2828.58
   18:38:27.462.16-Jul-2020 4198.01 4795.67 79.31 5.00 130.75 2828.58
   18:38:27.662.16-Jul-2020 4198.01 4795.74 79.31 5.00 130.95 2828.58
   18:38:27.862.16-Jul-2020 4198.01 4795.74 79.31 5.00 131.15 2828.58
   18:38:28.062.16-Jul-2020 4198.01 4795.99 79.31 5.00 131.35 2828.58
   18:38:28.261.16-Jul-2020 4198.01 4795.66 79.31 5.00 131.55 2828.58
   18:38:28.461.16-Jul-2020 4198.01 4795.26 79.31 5.00 131.75 2828.58
   18:38:28.661.16-Jul-2020 4198.01 4796.08 79.31 5.00 131.95 2828.58
   18:38:28.861.16-Jul-2020 4198.01 4796.08 79.31 5.00 132.15 2828.58
   18:38:29.061.16-Jul-2020 4198.01 4795.70 79.31 5.00 132.35 2828.58
   18:38:29.261.16-Jul-2020 4198.01 4795.65 79.31 5.00 132.55 2828.58
   18:38:29.461.16-Jul-2020 4198.01 4795.96 79.31 5.00 132.75 2828.58
   18:38:29.661.16-Jul-2020 4198.01 4795.68 79.31 5.00 132.95 2828.58
   18:38:29.861.16-Jul-2020 4198.01 4795.62 79.31 5.00 133.15 2828.58
   18:38:30.061.16-Jul-2020 4198.01 4795.78 79.31 5.00 133.35 2828.58
   18:38:30.261.16-Jul-2020 4198.01 4795.74 79.31 5.00 133.55 2828.58
   18:38:30.461.16-Jul-2020 4198.01 4795.67 79.31 5.00 133.75 2828.58
   18:38:30.661.16-Jul-2020 4198.01 4795.75 79.31 5.00 133.95 2828.58
   18:38:30.860.16-Jul-2020 4198.01 4795.75 79.31 5.00 134.15 2828.58
   18:38:31.060.16-Jul-2020 4198.01 4795.25 79.31 5.00 134.35 2828.58
   18:38:31.260.16-Jul-2020 4198.01 4796.09 79.31 5.00 134.55 2828.58
   18:38:31.460.16-Jul-2020 4198.01 4795.80 79.31 5.00 134.75 2828.58
   18:38:31.660.16-Jul-2020 4198.01 4795.84 79.31 5.00 134.95 2828.58
   18:38:31.860.16-Jul-2020 4198.01 4795.84 79.31 5.00 135.15 2828.58
   18:38:32.060.16-Jul-2020 4198.01 4795.73 79.31 5.00 135.35 2828.58
   18:38:32.260.16-Jul-2020 4198.01 4795.84 79.31 5.00 135.55 2828.58
   18:38:32.460.16-Jul-2020 4198.01 4795.56 79.31 5.00 135.75 2828.58
   18:38:32.660.16-Jul-2020 4198.01 4795.75 79.31 5.00 135.95 2828.58
   18:38:32.860.16-Jul-2020 4198.01 4795.84 79.31 5.00 136.15 2828.58
   18:38:33.060.16-Jul-2020 4198.01 4795.84 79.31 5.00 136.35 2828.58
   18:38:33.260.16-Jul-2020 4198.01 4795.84 79.31 5.00 136.55 2828.58
   18:38:33.459.16-Jul-2020 4198.01 4795.84 79.31 5.00 136.75 2828.58
   18:38:33.659.16-Jul-2020 4198.01 4795.82 79.31 5.00 136.95 2828.58
   18:38:33.859.16-Jul-2020 4198.01 4795.67 79.31 5.00 137.15 2828.58
   18:38:34.059.16-Jul-2020 4198.01 4795.76 79.31 5.00 137.35 2828.58
   18:38:34.259.16-Jul-2020 4198.01 4795.41 79.31 5.00 137.55 2828.58
   18:38:34.459.16-Jul-2020 4198.01 4796.05 79.31 5.00 137.75 2828.58
