~Version Information
 VERS.                  2.0:   CWLS log ASCII Standard -VERSION 2.0
 WRAP.                   NO:   One line per depth step
~Well Information Block
#MNEM.UNIT     VALUE/NAME     DESCRIPTION
#---------     -----------    ---------------------------
 STRT.S             22:12:50 16-Jul-20: START TIME 22:12:50 16-Jul-20
 STOP.S             22:19:40 16-Jul-20: STOP TIME  22:19:40 16-Jul-20
 STEP.S                   0.00: STEP TIME
 NULL.                 -999.25: NULL VALUE
 MDS .        Operator Entered:  MAG DATA SOURCE
 UNIT.                     N/A:  LOGGING EQUIPMENT ID
 DCON.         Sperry Drilling:  DIRECTNL CONTR
 DOE .                     N/A:  DOE NUMBER
 RIG .               EastAzeri:  RIG NAME
 JOBN.        AZ-XX-0906363297:  JOB TICKET NUMB
 MWDS.                    Baku:  MWD SHOP
 SRVC.     Turan Drilling & Engineering:  CONTRACTOR
 PROV.                    Baku:  PROVINCE
 STAT.                    Baku:  STATE NAME
 REGN.                   EESSA:  REGION
 BASE.              Azerbaijan:  LOGGING EQUIPMENT BASE LOCATION
 WTYP.                Deviated:  WELL TYPE
 UWI .                     N/A:  UNIQUE WELL IDENTIFIER
 API .                     N/A:  API NUMBER
 COMP.     BP Exploration (Caspian Sea) ltd.:  COMPANY
 WELL.                    D07z:  WELL NAME
 CTRY.              Azerbaijan:  COUNTRY NAME
 SON .        AZ-XX-0906363297:  JOB NUMBER
 FLD .                     ACG:  FIELD NAME
 PDAT.          Mean Sea Level:  PERMANENT DATUM
 FTOP.          Formation Tops:  FORM TOPS DESC
 ILTD.               Lithology:  INTERP LTH DESC
 SVYD.                  Survey:  SURVEY DESC
 DMOD.             Drill Model:  DRILL MOD DESC
 HPTY.       Minimum Curvature:  HOLE POS TYPE
 NREF.                    Grid:  NORTH REFERENCE
 SPUD.               28-Jun-20:  SPUD DATE
 DATE.      18.27.12 28-Jun-20:  END TIME
 STIM.      18.27.12 28-Jun-20:  START TIME
 DMF .             Drill Floor:  DRILL MEAS FROM
 DFST.                        :  DIST FSL TEXT
 DFWT.                        :  DIST FWL TEXT
 CNTY.                        :  COUNTY
 LOC .                        :  LOCATION
 LMF .             Drill Floor:  LOG MEASURED FROM
 VSNS.m                  -7.75:  VERT SEC N/S
 VSEW.m                  -9.19:  VERT SEC E/W
 MMDE.m                   0.00:  MAGUTM CALC DEP
 AGAP.m                  43.60:  AIR GAP
 DEP .m                4058.99:  DEPTH
 APD .m                  43.60:  DEPTH ABOVE PD
 WDMS.m                 151.80:  WD ELEV
 EGL .m                   0.00:  GROUND ELEVATION
 EPD .m                   0.00:  ELEVATION
 AZTC.deg                 6.19:  AZM TOTAL CORR
 GRDC.deg                 0.27:  GRID CORRECTION
 MDEC.deg                 6.46:  MAGNETIC DECL
 MDIP.deg                59.47:  MAGNETIC DIP
 MFLD.nT              50279.00:  MAGNETIC FIELD
 GVFD.g                   1.00:  GRAVITY FIELD
 VSDR.deg               249.96:  VERT SEC DIRECT
 TDD .m                   0.00:  TOTAL DEPTH (DRILLER)
 SDEP.m                   0.00:  START DEPTH
 DFSL.m                   0.00:  DISTANCE FSL
 DFWL.m                   0.00:  DISTANCE FWL
 UTMY.m             4431880.20:  UTM Y
 UTMX.m              538763.98:  UTM X
 WHEW.m                  -9.19:  WELL HEAD E/W
 WHNS.m                  -7.75:  WELL HEAD N/S
 LONG.deg                51.45:  LONGITUDE
 LATI.deg                40.02:  LATITUDE
 TVDS.m                  43.60:  TVDSS CORRECTN
 EKB .m                  43.60:  KB ELEVATION
 EDF .m                  43.60:  DF ELEVATION
 TDL .m                 248.00:  TOTAL DEPTH (LOGGER)
 MAGU.                 1849075:  MAGUTM CHECKSUM
 VSC .                       0:  VS TO CLOSURE
~Parameter Information Block
#MNEM.UNIT       Value        Description
#---------     -----------    ---------------------------
 AV  .mps                 6.34:  Ann Velocity 
 AVMX.mps                 7.00:  Max Ann Veloc 
 AZIF.deg               260.29:  Azm, Final 
 BHAT.        Rotary Steerable:  BHA Type 
 BROT.°/30m               1.20:  Build Rotating 
 BS  .in                  8.50:  Bit Size 
 BSZ .in                  8.50:  Bit Size 
 BTPL.psig              620.00:  Bit Press Loss 
 CABU.                     Yes:  Customer Abuse 
 TCS .hr                 56.22:  Time Ciculation Ended 
 CV  .mps                 3.05:  Crit Velocity 
 CVMX.mps                 3.20:  Max Crit Veloc 
 DD1 .            Musa Ahmadov:  Direct Drillr 1 
 DDSV.                 iCruise:  DD Service 
 DEFF.%                  98.00:  % Det Eff 
 DLRX.°/30m               2.78:  Dogleg Rot Max 
 DLSO.°/30m               0.00:  Dogleg Oriented 
 DLSX.°/30m               0.00:  Dogleg Str Max 
 DRET.      05.20.48 16-Jul-20:  Drill End Time 
 DRST.      10.20.48 13-Jul-20:  Drill Start Tim 
 DTIM.hr                 14.25:  Time Drilling 
 EDEP.m                4326.01:  End Depth 
 ENG1.      Artemiy Matviyanov:  Engineer 1 
 ENG2.           Amrah Tahirov:  Engineer 2 
 ETIM.      22.30.00 18-Jul-20:  End Time 
 FLOI.gpm               550.00:  Flow In 
 FLON.gpm               450.00:  Flow In Min 
 FLOS.cptm                0.00:  Fluid Loss 
 FLOX.gpm               600.00:  Flow In Max 
 HFLO.                      No:  High Flow 
 HPRE.                      No:  High Pressure 
 HTEM.                      No:  High Temp 
 HYDO.m                   1.80:  Hydro Offset 
 IFIN.deg                65.41:  Inc, Final 
 IMAX.deg                65.14:  Inc Max 
 IMIN.deg                58.89:  Inc Min 
 IMND.m                4104.92:  Inc Min Depth 
 IMXD.m                4303.89:  Inc Max Depth 
 JARR.                      No:  Jarring 
 LETM.      10.20.48 17-Jul-20:  Log End Time 
 LOST.hr                     0:  Lost Rig Time 
 LSTM.      10.20.48 13-Jul-20:  Log Start Time 
 MDCL.ppm             37000.00:  Mud Chlorides 
 MDES.     Inversion Oil/Synthetic:  Mud Desc 
 DFD .sg                  1.52:  Mud Density 
 MDMN.sg                  1.52:  Dens Mud Min 
 MDMX.sg                  1.52:  Dens Mud Max 
 MOIL.                   52.70:  Run Mud Oil % 
 MOWR.                   68:32:  Run Mud OWR 
 MSND.                     0.2:  Run Mud Sand % 
 MSOL.                    21.6:  Run Mud Solids% 
 DFV .spqt               79.00:  Mud Viscosity 
 MWOD.in                  6.75:  MWD Tool OD 
 MWSI.                      No:  Serv Intrp, MWD 
 OTIM.hr                114.04:  Time Operating 
 PCON.          Wear / Scratch:  Pad Condition 
 PMAX.psia            11782.92:  Press Op, Max 
 PV  .cP                 49.00:  Mud PV 
 RUN .                     600:  Run Number 
 ROPA.m/hr               20.00:  ROP Avg 
 ROPN.m/hr               15.00:  ROP Min 
 ROPX.m/hr               22.00:  ROP Max 
 RPMA.rpm               120.00:  RPM Surface Avg 
 RPMN.rpm                90.00:  RPM Surface Min 
 RPMX.rpm               140.00:  RPM Surface Max 
 RRUN.                     600:  Rig Run Number 
 SAZI.deg               260.29:  Azm, Start 
 SDEP.m                4078.01:  Start Depth 
 SIDD.                      No:  Serv Intrp, DD 
 SINC.deg                58.89:  Inc, Start 
 SPPA.psig             4560.00:  SPP Avg 
 SPPN.psig             3600.00:  SPP Min 
 SPPX.psig             4800.00:  SPP Max 
 STIM.      10.20.48 13-Jul-20:  Start Time 
 SVCS.                 DD, MWD:  Services 
 SVER.                    9.20:  Sperry Version 
 TDAT.m                4378.01:  Tot Depth Attmp 
 TDDF.                      No:  Trip for DD 
 TDLG.m                 248.00:  Tot Depth Loggd 
 TFF .                      No:  Trip for Fail 
 TQAA.f-kp               18.00:  Torque Abs Avg 
 TQAN.f-kp               15.00:  Torque Abs Min 
 TQAX.f-kp               20.00:  Torque Abs Max 
 TRRT.°/30m               0.70:  Turn Rotating 
 MRT .                    HCIM:  Maximum Recorded Temperature 
 TTMX.degC               86.00:  Max Tool Temp 
 WBMN.klb                 3.00:  WOB Min 
 WOBA.klb                 5.00:  WOB Avg 
 WOBX.klb                 9.00:  WOB Max 
 YP  .lhf2               32.00:  Yield Point 
~Curve Information Block
#MNEM.UNIT                 API CODE     Curve Description
#---------               -----------    ---------------------------
 TIME.HHMMSS            00 000 000 000:  GT Time & Date
 GTDEPTH.m              00 000 000 000:  GT Depth
 GTPQH.psia             00 000 000 000:  GT HR Quartz Pressure
 GTTQ.degC              00 000 000 000:  GT Quartz Temperature
 GTTN.NONE              00 000 000 000:  GT Test Number
 GTET.sec               00 000 000 000:  GT Elapsed Test Time
 GTTVD.m                00 000 000 000:  GT True Vertical Depth
#Other Information
#
#WARRANTY: Halliburton will use its best efforts to furnish customers with 
#accurate information and interpretations that are part of, and incident to, the services 
#provided.  However, Halliburton cannot and does not warrant the accuracy 
#or correctness of such information and interpretations.  Under no circumstances should any 
#such information or interpretation be relied upon as the sole basis for any drilling, 
#completion, production, or financial decision or any procedure involving any risk to the 
#safety of any drilling venture, drilling rig or its crew or any other third party.  The 
#Customer has full responsibility for all drilling, completion and production operation.  
#Halliburton makes no representations or warranties, either expressed or 
#implied, including, but not limited to, the implied warranties of merchantability or fitness 
#for a particular purpose, with respect to the services rendered.  In no event will 
#Halliburton be liable for failure to obtain any particular results or for 
#any damages, including, but not limited to, indirect, special or consequential damages, 
#resulting from the use of any information or interpretation provided by Halliburton.
#
~A           TIME           GTDEPTH  GTPQH  GTTQ  GTTN  GTET   GTTVD  
# ...
   22:15:08.347.16-Jul-2020 4093.01 4653.08 76.38 8.00 138.05 2778.38
   22:15:08.547.16-Jul-2020 4093.01 4653.08 76.38 8.00 138.25 2778.38
   22:15:08.747.16-Jul-2020 4093.01 4652.98 76.38 8.00 138.45 2778.38
   22:15:08.947.16-Jul-2020 4093.01 4652.98 76.38 8.00 138.65 2778.38
   22:15:09.147.16-Jul-2020 4093.01 4652.98 76.38 8.00 138.85 2778.38
   22:15:09.347.16-Jul-2020 4093.01 4652.99 76.38 8.00 139.05 2778.38
   22:15:09.547.16-Jul-2020 4093.01 4652.99 76.38 8.00 139.25 2778.38
   22:15:09.747.16-Jul-2020 4093.01 4652.98 76.38 8.00 139.45 2778.38
   22:15:09.948.16-Jul-2020 4093.01 4652.99 76.38 8.00 139.65 2778.38
   22:15:10.148.16-Jul-2020 4093.01 4653.00 76.38 8.00 139.85 2778.38
   22:15:10.348.16-Jul-2020 4093.01 4652.99 76.38 8.00 140.05 2778.38
   22:15:10.548.16-Jul-2020 4093.01 4652.99 76.38 8.00 140.25 2778.38
   22:15:10.748.16-Jul-2020 4093.01 4652.99 76.38 8.00 140.45 2778.38
   22:15:10.948.16-Jul-2020 4093.01 4653.01 76.38 8.00 140.65 2778.38
   22:15:11.148.16-Jul-2020 4093.01 4653.02 76.38 8.00 140.85 2778.38
   22:15:11.348.16-Jul-2020 4093.01 4652.97 76.38 8.00 141.05 2778.38
   22:15:11.548.16-Jul-2020 4093.01 4652.97 76.38 8.00 141.25 2778.38
   22:15:11.748.16-Jul-2020 4093.01 4652.98 76.38 8.00 141.45 2778.38
   22:15:11.948.16-Jul-2020 4093.01 4652.99 76.38 8.00 141.65 2778.38
   22:15:12.148.16-Jul-2020 4093.01 4652.98 76.38 8.00 141.85 2778.38
   22:15:12.348.16-Jul-2020 4093.01 4640.03 76.38 8.00 142.05 2778.38
   22:15:12.549.16-Jul-2020 4093.01 4640.03 76.38 8.00 142.25 2778.38
   22:15:12.749.16-Jul-2020 4093.01 4639.55 76.38 8.00 142.45 2778.38
   22:15:12.949.16-Jul-2020 4093.01 4639.84 76.38 8.00 142.65 2778.38
   22:15:13.149.16-Jul-2020 4093.01 4639.96 76.38 8.00 142.85 2778.38
   22:15:13.349.16-Jul-2020 4093.01 4639.72 76.38 8.00 143.05 2778.38
   22:15:13.549.16-Jul-2020 4093.01 4639.71 76.38 8.00 143.25 2778.38
   22:15:13.749.16-Jul-2020 4093.01 4639.59 76.38 8.00 143.45 2778.38
   22:15:13.949.16-Jul-2020 4093.01 4638.82 76.38 8.00 143.65 2778.38
   22:15:14.149.16-Jul-2020 4093.01 4639.07 76.38 8.00 143.85 2778.38
   22:15:14.349.16-Jul-2020 4093.01 4638.70 76.38 8.00 144.05 2778.38
   22:15:14.549.16-Jul-2020 4093.01 4638.70 76.38 8.00 144.25 2778.38
   22:15:14.749.16-Jul-2020 4093.01 4638.59 76.38 8.00 144.45 2778.38
   22:15:14.949.16-Jul-2020 4093.01 4638.63 76.38 8.00 144.65 2778.38
   22:15:15.149.16-Jul-2020 4093.01 4639.24 76.38 8.00 144.85 2778.38
   22:15:15.350.16-Jul-2020 4093.01 4638.62 76.38 8.00 145.05 2778.38
   22:15:15.550.16-Jul-2020 4093.01 4638.62 76.38 8.00 145.25 2778.38
   22:15:15.750.16-Jul-2020 4093.01 4639.17 76.38 8.00 145.45 2778.38
   22:15:15.950.16-Jul-2020 4093.01 4639.10 76.38 8.00 145.65 2778.38
   22:15:16.150.16-Jul-2020 4093.01 4638.98 76.38 8.00 145.85 2778.38
   22:15:16.350.16-Jul-2020 4093.01 4638.51 76.38 8.00 146.06 2778.38
   22:15:16.550.16-Jul-2020 4093.01 4638.51 76.38 8.00 146.26 2778.38
   22:15:16.750.16-Jul-2020 4093.01 4638.61 76.38 8.00 146.46 2778.38
   22:15:16.950.16-Jul-2020 4093.01 4638.66 76.38 8.00 146.66 2778.38
   22:15:17.150.16-Jul-2020 4093.01 4638.58 76.38 8.00 146.86 2778.38
   22:15:17.350.16-Jul-2020 4093.01 4638.47 76.38 8.00 147.06 2778.38
   22:15:17.550.16-Jul-2020 4093.01 4638.47 76.38 8.00 147.26 2778.38
   22:15:17.750.16-Jul-2020 4093.01 4638.59 76.38 8.00 147.46 2778.38
   22:15:17.951.16-Jul-2020 4093.01 4638.35 76.38 8.00 147.66 2778.38
   22:15:18.151.16-Jul-2020 4093.01 4638.73 76.38 8.00 147.86 2778.38
   22:15:18.351.16-Jul-2020 4093.01 4638.27 76.38 8.00 148.06 2778.38
   22:15:18.551.16-Jul-2020 4093.01 4638.27 76.38 8.00 148.26 2778.38
   22:15:18.751.16-Jul-2020 4093.01 4638.47 76.38 8.00 148.46 2778.38
   22:15:18.951.16-Jul-2020 4093.01 4638.53 76.38 8.00 148.66 2778.38
   22:15:19.151.16-Jul-2020 4093.01 4638.58 76.38 8.00 148.86 2778.38
   22:15:19.351.16-Jul-2020 4093.01 4638.31 76.38 8.00 149.06 2778.38
   22:15:19.551.16-Jul-2020 4093.01 4638.31 76.38 8.00 149.26 2778.38
   22:15:19.751.16-Jul-2020 4093.01 4638.23 76.38 8.00 149.46 2778.38
   22:15:19.951.16-Jul-2020 4093.01 4638.30 76.38 8.00 149.66 2778.38
   22:15:20.151.16-Jul-2020 4093.01 4638.46 76.38 8.00 149.86 2778.38
   22:15:20.351.16-Jul-2020 4093.01 4638.12 76.38 8.00 150.06 2778.38
   22:15:20.552.16-Jul-2020 4093.01 4638.16 76.38 8.00 150.26 2778.38
   22:15:20.752.16-Jul-2020 4093.01 4638.33 76.38 8.00 150.46 2778.38
   22:15:20.952.16-Jul-2020 4093.01 4638.16 76.38 8.00 150.66 2778.38
   22:15:21.152.16-Jul-2020 4093.01 4637.99 76.38 8.00 150.86 2778.38
   22:15:21.352.16-Jul-2020 4093.01 4638.27 76.38 8.00 151.06 2778.38
   22:15:21.552.16-Jul-2020 4093.01 4642.89 76.38 8.00 151.26 2778.38
   22:15:21.752.16-Jul-2020 4093.01 4652.56 76.38 8.00 151.46 2778.38
   22:15:21.952.16-Jul-2020 4093.01 4652.81 76.38 8.00 151.66 2778.38
   22:15:22.152.16-Jul-2020 4093.01 4652.72 76.38 8.00 151.86 2778.38
   22:15:22.352.16-Jul-2020 4093.01 4652.74 76.38 8.00 152.06 2778.38
   22:15:22.552.16-Jul-2020 4093.01 4652.77 76.38 8.00 152.26 2778.38
   22:15:22.752.16-Jul-2020 4093.01 4652.76 76.38 8.00 152.46 2778.38
   22:15:22.952.16-Jul-2020 4093.01 4652.83 76.38 8.00 152.66 2778.38
   22:15:23.152.16-Jul-2020 4093.01 4652.78 76.38 8.00 152.86 2778.38
   22:15:23.353.16-Jul-2020 4093.01 4652.80 76.38 8.00 153.06 2778.38
   22:15:23.553.16-Jul-2020 4093.01 4652.80 76.38 8.00 153.26 2778.38
   22:15:23.753.16-Jul-2020 4093.01 4652.79 76.38 8.00 153.46 2778.38
   22:15:23.953.16-Jul-2020 4093.01 4652.81 76.38 8.00 153.66 2778.38
   22:15:24.153.16-Jul-2020 4093.01 4652.82 76.38 8.00 153.86 2778.38
   22:15:24.353.16-Jul-2020 4093.01 4652.82 76.38 8.00 154.06 2778.38
   22:15:24.553.16-Jul-2020 4093.01 4652.82 76.38 8.00 154.26 2778.38
   22:15:24.753.16-Jul-2020 4093.01 4652.82 76.38 8.00 154.46 2778.38
   22:15:24.953.16-Jul-2020 4093.01 4652.90 76.38 8.00 154.66 2778.38
   22:15:25.153.16-Jul-2020 4093.01 4652.81 76.38 8.00 154.86 2778.38
   22:15:25.353.16-Jul-2020 4093.01 4652.84 76.38 8.00 155.06 2778.38
   22:15:25.553.16-Jul-2020 4093.01 4652.84 76.38 8.00 155.26 2778.38
   22:15:25.753.16-Jul-2020 4093.01 4652.83 76.38 8.00 155.46 2778.38
   22:15:25.954.16-Jul-2020 4093.01 4652.84 76.38 8.00 155.66 2778.38
   22:15:26.154.16-Jul-2020 4093.01 4652.84 76.38 8.00 155.86 2778.38
   22:15:26.354.16-Jul-2020 4093.01 4652.84 76.38 8.00 156.06 2778.38
   22:15:26.554.16-Jul-2020 4093.01 4652.84 76.38 8.00 156.26 2778.38
   22:15:26.754.16-Jul-2020 4093.01 4652.84 76.38 8.00 156.46 2778.38
   22:15:26.954.16-Jul-2020 4093.01 4652.85 76.38 8.00 156.66 2778.38
   22:15:27.154.16-Jul-2020 4093.01 4652.84 76.38 8.00 156.86 2778.38
   22:15:27.354.16-Jul-2020 4093.01 4652.81 76.38 8.00 157.06 2778.38
   22:15:27.554.16-Jul-2020 4093.01 4652.81 76.38 8.00 157.26 2778.38
   22:15:27.754.16-Jul-2020 4093.01 4652.83 76.38 8.00 157.46 2778.38
   22:15:27.954.16-Jul-2020 4093.01 4652.85 76.38 8.00 157.66 2778.38
   22:15:28.154.16-Jul-2020 4093.01 4652.85 76.38 8.00 157.86 2778.38
   22:15:28.354.16-Jul-2020 4093.01 4652.85 76.38 8.00 158.06 2778.38
   22:15:28.555.16-Jul-2020 4093.01 4652.87 76.38 8.00 158.26 2778.38
   22:15:28.755.16-Jul-2020 4093.01 4652.84 76.38 8.00 158.46 2778.38
   22:15:28.955.16-Jul-2020 4093.01 4652.86 76.38 8.00 158.66 2778.38
   22:15:29.155.16-Jul-2020 4093.01 4652.86 76.38 8.00 158.86 2778.38
   22:15:29.355.16-Jul-2020 4093.01 4652.85 76.38 8.00 159.06 2778.38
   22:15:29.555.16-Jul-2020 4093.01 4652.86 76.38 8.00 159.26 2778.38
   22:15:29.755.16-Jul-2020 4093.01 4652.87 76.38 8.00 159.46 2778.38
   22:15:29.955.16-Jul-2020 4093.01 4652.86 76.38 8.00 159.66 2778.38
   22:15:30.155.16-Jul-2020 4093.01 4652.87 76.38 8.00 159.86 2778.38
   22:15:30.355.16-Jul-2020 4093.01 4652.85 76.38 8.00 160.06 2778.38
   22:15:30.555.16-Jul-2020 4093.01 4652.85 76.38 8.00 160.26 2778.38
   22:15:30.755.16-Jul-2020 4093.01 4652.97 76.38 8.00 160.46 2778.38
   22:15:30.955.16-Jul-2020 4093.01 4652.83 76.38 8.00 160.66 2778.38
   22:15:31.156.16-Jul-2020 4093.01 4652.85 76.38 8.00 160.86 2778.38
