~Version Information
 VERS.                  2.0:   CWLS log ASCII Standard -VERSION 2.0
 WRAP.                   NO:   One line per depth step
~Well Information Block
#MNEM.UNIT     VALUE/NAME     DESCRIPTION
#---------     -----------    ---------------------------
 STRT.S             18:36:16 16-Jul-20: START TIME 18:36:16 16-Jul-20
 STOP.S             18:43:12 16-Jul-20: STOP TIME  18:43:12 16-Jul-20
 STEP.S                   0.00: STEP TIME
 NULL.                 -999.25: NULL VALUE
 MDS .        Operator Entered:  MAG DATA SOURCE
 UNIT.                     N/A:  LOGGING EQUIPMENT ID
 DCON.         Sperry Drilling:  DIRECTNL CONTR
 DOE .                     N/A:  DOE NUMBER
 RIG .               EastAzeri:  RIG NAME
 JOBN.        AZ-XX-0906363297:  JOB TICKET NUMB
 MWDS.                    Baku:  MWD SHOP
 SRVC.     Turan Drilling & Engineering:  CONTRACTOR
 PROV.                    Baku:  PROVINCE
 STAT.                    Baku:  STATE NAME
 REGN.                   EESSA:  REGION
 BASE.              Azerbaijan:  LOGGING EQUIPMENT BASE LOCATION
 WTYP.                Deviated:  WELL TYPE
 UWI .                     N/A:  UNIQUE WELL IDENTIFIER
 API .                     N/A:  API NUMBER
 COMP.     BP Exploration (Caspian Sea) ltd.:  COMPANY
 WELL.                    D07z:  WELL NAME
 CTRY.              Azerbaijan:  COUNTRY NAME
 SON .        AZ-XX-0906363297:  JOB NUMBER
 FLD .                     ACG:  FIELD NAME
 PDAT.          Mean Sea Level:  PERMANENT DATUM
 FTOP.          Formation Tops:  FORM TOPS DESC
 ILTD.               Lithology:  INTERP LTH DESC
 SVYD.                  Survey:  SURVEY DESC
 DMOD.             Drill Model:  DRILL MOD DESC
 HPTY.       Minimum Curvature:  HOLE POS TYPE
 NREF.                    Grid:  NORTH REFERENCE
 SPUD.               28-Jun-20:  SPUD DATE
 DATE.      18.27.12 28-Jun-20:  END TIME
 STIM.      18.27.12 28-Jun-20:  START TIME
 DMF .             Drill Floor:  DRILL MEAS FROM
 DFST.                        :  DIST FSL TEXT
 DFWT.                        :  DIST FWL TEXT
 CNTY.                        :  COUNTY
 LOC .                        :  LOCATION
 LMF .             Drill Floor:  LOG MEASURED FROM
 VSNS.m                  -7.75:  VERT SEC N/S
 VSEW.m                  -9.19:  VERT SEC E/W
 MMDE.m                   0.00:  MAGUTM CALC DEP
 AGAP.m                  43.60:  AIR GAP
 DEP .m                4058.99:  DEPTH
 APD .m                  43.60:  DEPTH ABOVE PD
 WDMS.m                 151.80:  WD ELEV
 EGL .m                   0.00:  GROUND ELEVATION
 EPD .m                   0.00:  ELEVATION
 AZTC.deg                 6.19:  AZM TOTAL CORR
 GRDC.deg                 0.27:  GRID CORRECTION
 MDEC.deg                 6.46:  MAGNETIC DECL
 MDIP.deg                59.47:  MAGNETIC DIP
 MFLD.nT              50279.00:  MAGNETIC FIELD
 GVFD.g                   1.00:  GRAVITY FIELD
 VSDR.deg               249.96:  VERT SEC DIRECT
 TDD .m                   0.00:  TOTAL DEPTH (DRILLER)
 SDEP.m                   0.00:  START DEPTH
 DFSL.m                   0.00:  DISTANCE FSL
 DFWL.m                   0.00:  DISTANCE FWL
 UTMY.m             4431880.20:  UTM Y
 UTMX.m              538763.98:  UTM X
 WHEW.m                  -9.19:  WELL HEAD E/W
 WHNS.m                  -7.75:  WELL HEAD N/S
 LONG.deg                51.45:  LONGITUDE
 LATI.deg                40.02:  LATITUDE
 TVDS.m                  43.60:  TVDSS CORRECTN
 EKB .m                  43.60:  KB ELEVATION
 EDF .m                  43.60:  DF ELEVATION
 TDL .m                 248.00:  TOTAL DEPTH (LOGGER)
 MAGU.                 1849075:  MAGUTM CHECKSUM
 VSC .                       0:  VS TO CLOSURE
~Parameter Information Block
#MNEM.UNIT       Value        Description
#---------     -----------    ---------------------------
 AV  .mps                 6.34:  Ann Velocity 
 AVMX.mps                 7.00:  Max Ann Veloc 
 AZIF.deg               260.29:  Azm, Final 
 BHAT.        Rotary Steerable:  BHA Type 
 BROT.°/30m               1.20:  Build Rotating 
 BS  .in                  8.50:  Bit Size 
 BSZ .in                  8.50:  Bit Size 
 BTPL.psig              620.00:  Bit Press Loss 
 CABU.                     Yes:  Customer Abuse 
 COMM.                     Ì>`:  Run Comments 1 
 TCS .hr                 56.22:  Time Ciculation Ended 
 CV  .mps                 3.05:  Crit Velocity 
 CVMX.mps                 3.20:  Max Crit Veloc 
 DD1 .            Musa Ahmadov:  Direct Drillr 1 
 DDSV.                 iCruise:  DD Service 
 DEFF.%                  98.00:  % Det Eff 
 DLRX.°/30m               2.78:  Dogleg Rot Max 
 DLSO.°/30m               0.00:  Dogleg Oriented 
 DLSX.°/30m               0.00:  Dogleg Str Max 
 DRET.      05.20.48 16-Jul-20:  Drill End Time 
 DRST.      10.20.48 13-Jul-20:  Drill Start Tim 
 DTIM.hr                 14.25:  Time Drilling 
 EDEP.m                4326.01:  End Depth 
 ENG1.      Artemiy Matviyanov:  Engineer 1 
 ENG2.           Amrah Tahirov:  Engineer 2 
 ETIM.      22.30.00 18-Jul-20:  End Time 
 FLOI.gpm               550.00:  Flow In 
 FLON.gpm               450.00:  Flow In Min 
 FLOS.cptm                0.00:  Fluid Loss 
 FLOX.gpm               600.00:  Flow In Max 
 HFLO.                      No:  High Flow 
 HPRE.                      No:  High Pressure 
 HTEM.                      No:  High Temp 
 HYDO.m                   1.80:  Hydro Offset 
 IFIN.deg                65.41:  Inc, Final 
 IMAX.deg                65.14:  Inc Max 
 IMIN.deg                58.89:  Inc Min 
 IMND.m                4104.92:  Inc Min Depth 
 IMXD.m                4303.89:  Inc Max Depth 
 JARR.                      No:  Jarring 
 LETM.      10.20.48 17-Jul-20:  Log End Time 
 LOST.hr                     0:  Lost Rig Time 
 LSTM.      10.20.48 13-Jul-20:  Log Start Time 
 MDCL.ppm             37000.00:  Mud Chlorides 
 MDES.     Inversion Oil/Synthetic:  Mud Desc 
 DFD .sg                  1.52:  Mud Density 
 MDMN.sg                  1.52:  Dens Mud Min 
 MDMX.sg                  1.52:  Dens Mud Max 
 MOIL.                   52.70:  Run Mud Oil % 
 MOWR.                   68:32:  Run Mud OWR 
 MSND.                     0.2:  Run Mud Sand % 
 MSOL.                    21.6:  Run Mud Solids% 
 DFV .spqt               79.00:  Mud Viscosity 
 MWOD.in                  6.75:  MWD Tool OD 
 MWSI.                      No:  Serv Intrp, MWD 
 OTIM.hr                114.04:  Time Operating 
 PCON.          Wear / Scratch:  Pad Condition 
 PMAX.psia            11782.92:  Press Op, Max 
 PV  .cP                 49.00:  Mud PV 
 RUN .                     600:  Run Number 
 ROPA.m/hr               20.00:  ROP Avg 
 ROPN.m/hr               15.00:  ROP Min 
 ROPX.m/hr               22.00:  ROP Max 
 RPMA.rpm               120.00:  RPM Surface Avg 
 RPMN.rpm                90.00:  RPM Surface Min 
 RPMX.rpm               140.00:  RPM Surface Max 
 RRUN.                     600:  Rig Run Number 
 SAZI.deg               260.29:  Azm, Start 
 SDEP.m                4078.01:  Start Depth 
 SIDD.                      No:  Serv Intrp, DD 
 SINC.deg                58.89:  Inc, Start 
 SPPA.psig             4560.00:  SPP Avg 
 SPPN.psig             3600.00:  SPP Min 
 SPPX.psig             4800.00:  SPP Max 
 STIM.      10.20.48 13-Jul-20:  Start Time 
 SVCS.                 DD, MWD:  Services 
 SVER.                    9.20:  Sperry Version 
 TDAT.m                4378.01:  Tot Depth Attmp 
 TDDF.                      No:  Trip for DD 
 TDLG.m                 248.00:  Tot Depth Loggd 
 TFF .                      No:  Trip for Fail 
 TQAA.f-kp               18.00:  Torque Abs Avg 
 TQAN.f-kp               15.00:  Torque Abs Min 
 TQAX.f-kp               20.00:  Torque Abs Max 
 TRRT.°/30m               0.70:  Turn Rotating 
 MRT .                    HCIM:  Maximum Recorded Temperature 
 TTMX.degC               86.00:  Max Tool Temp 
 WBMN.klb                 3.00:  WOB Min 
 WOBA.klb                 5.00:  WOB Avg 
 WOBX.klb                 9.00:  WOB Max 
 YP  .lhf2               32.00:  Yield Point 
~Curve Information Block
#MNEM.UNIT                 API CODE     Curve Description
#---------               -----------    ---------------------------
 TIME.HHMMSS            00 000 000 000:  GT Time & Date
 GTDEPTH.m              00 000 000 000:  GT Depth
 GTPQH.psia             00 000 000 000:  GT HR Quartz Pressure
 GTTQ.degC              00 000 000 000:  GT Quartz Temperature
 GTTN.NONE              00 000 000 000:  GT Test Number
 GTET.sec               00 000 000 000:  GT Elapsed Test Time
 GTTVD.m                00 000 000 000:  GT True Vertical Depth
#Other Information
#
#WARRANTY: Halliburton will use its best efforts to furnish customers with 
#accurate information and interpretations that are part of, and incident to, the services 
#provided.  However, Halliburton cannot and does not warrant the accuracy 
#or correctness of such information and interpretations.  Under no circumstances should any 
#such information or interpretation be relied upon as the sole basis for any drilling, 
#completion, production, or financial decision or any procedure involving any risk to the 
#safety of any drilling venture, drilling rig or its crew or any other third party.  The 
#Customer has full responsibility for all drilling, completion and production operation.  
#Halliburton makes no representations or warranties, either expressed or 
#implied, including, but not limited to, the implied warranties of merchantability or fitness 
#for a particular purpose, with respect to the services rendered.  In no event will 
#Halliburton be liable for failure to obtain any particular results or for 
#any damages, including, but not limited to, indirect, special or consequential damages, 
#resulting from the use of any information or interpretation provided by Halliburton.
#
~A           TIME           GTDEPTH  GTPQH  GTTQ  GTTN  GTET   GTTVD  
   18:36:16.711.16-Jul-2020 4198.01 6927.75 79.43 5.00   0.00 2828.58
   18:36:16.911.16-Jul-2020 4198.01 6927.75 79.43 5.00   0.20 2828.58
   18:36:17.111.16-Jul-2020 4198.01 6919.96 79.43 5.00   0.40 2828.58
   18:36:17.311.16-Jul-2020 4198.01 6915.08 79.43 5.00   0.60 2828.58
   18:36:17.511.16-Jul-2020 4198.01 6923.81 79.43 5.00   0.80 2828.58
   18:36:17.710.16-Jul-2020 4198.01 6914.90 79.43 5.00   1.00 2828.58
   18:36:17.910.16-Jul-2020 4198.01 6914.90 79.43 5.00   1.20 2828.58
   18:36:18.110.16-Jul-2020 4198.01 6914.90 79.43 5.00   1.40 2828.58
   18:36:18.310.16-Jul-2020 4198.01 6917.63 79.43 5.00   1.60 2828.58
   18:36:18.510.16-Jul-2020 4198.01 6918.22 79.43 5.00   1.80 2828.58
   18:36:18.710.16-Jul-2020 4198.01 6924.03 79.43 5.00   2.00 2828.58
   18:36:18.910.16-Jul-2020 4198.01 6921.34 79.43 5.00   2.20 2828.58
   18:36:19.110.16-Jul-2020 4198.01 6921.27 79.43 5.00   2.40 2828.58
   18:36:19.310.16-Jul-2020 4198.01 6923.84 79.43 5.00   2.60 2828.58
   18:36:19.510.16-Jul-2020 4198.01 6926.25 79.43 5.00   2.80 2828.58
   18:36:19.710.16-Jul-2020 4198.01 6932.53 79.43 5.00   3.00 2828.58
   18:36:19.910.16-Jul-2020 4198.01 6932.53 79.43 5.00   3.20 2828.58
   18:36:20.110.16-Jul-2020 4198.01 6927.19 79.43 5.00   3.40 2828.58
   18:36:20.309.16-Jul-2020 4198.01 6929.29 79.43 5.00   3.60 2828.58
   18:36:20.509.16-Jul-2020 4198.01 6928.48 79.43 5.00   3.80 2828.58
   18:36:20.709.16-Jul-2020 4198.01 6926.78 79.43 5.00   4.00 2828.58
   18:36:20.909.16-Jul-2020 4198.01 6926.78 79.43 5.00   4.20 2828.58
   18:36:21.109.16-Jul-2020 4198.01 6925.38 79.43 5.00   4.40 2828.58
   18:36:21.309.16-Jul-2020 4198.01 6926.02 79.43 5.00   4.60 2828.58
   18:36:21.509.16-Jul-2020 4198.01 6924.86 79.43 5.00   4.80 2828.58
   18:36:21.709.16-Jul-2020 4198.01 6925.45 79.43 5.00   5.00 2828.58
   18:36:21.909.16-Jul-2020 4198.01 6925.45 79.43 5.00   5.20 2828.58
   18:36:22.109.16-Jul-2020 4198.01 6926.83 79.43 5.00   5.40 2828.58
   18:36:22.309.16-Jul-2020 4198.01 6926.61 79.43 5.00   5.60 2828.58
   18:36:22.509.16-Jul-2020 4198.01 6927.92 79.43 5.00   5.80 2828.58
   18:36:22.709.16-Jul-2020 4198.01 6929.23 79.43 5.00   6.00 2828.58
   18:36:22.909.16-Jul-2020 4198.01 6928.49 79.43 5.00   6.20 2828.58
   18:36:23.108.16-Jul-2020 4198.01 6938.19 79.43 5.00   6.40 2828.58
   18:36:23.308.16-Jul-2020 4198.01 6932.60 79.43 5.00   6.60 2828.58
   18:36:23.508.16-Jul-2020 4198.01 6931.06 79.43 5.00   6.80 2828.58
   18:36:23.708.16-Jul-2020 4198.01 6932.35 79.43 5.00   7.00 2828.58
   18:36:23.908.16-Jul-2020 4198.01 6932.35 79.43 5.00   7.20 2828.58
   18:36:24.108.16-Jul-2020 4198.01 6932.65 79.43 5.00   7.40 2828.58
   18:36:24.308.16-Jul-2020 4198.01 6932.47 79.43 5.00   7.60 2828.58
   18:36:24.508.16-Jul-2020 4198.01 6933.56 79.43 5.00   7.80 2828.58
   18:36:24.708.16-Jul-2020 4198.01 6932.37 79.43 5.00   8.00 2828.58
   18:36:24.908.16-Jul-2020 4198.01 6934.44 79.43 5.00   8.20 2828.58
   18:36:25.108.16-Jul-2020 4198.01 6934.07 79.42 5.00   8.40 2828.58
   18:36:25.308.16-Jul-2020 4198.01 6935.04 79.42 5.00   8.60 2828.58
   18:36:25.508.16-Jul-2020 4198.01 6933.78 79.42 5.00   8.80 2828.58
   18:36:25.707.16-Jul-2020 4198.01 6934.17 79.42 5.00   9.00 2828.58
   18:36:25.907.16-Jul-2020 4198.01 6934.17 79.42 5.00   9.20 2828.58
   18:36:26.107.16-Jul-2020 4198.01 6934.82 79.42 5.00   9.40 2828.58
   18:36:26.307.16-Jul-2020 4198.01 6951.70 79.42 5.00   9.60 2828.58
   18:36:26.507.16-Jul-2020 4198.01 6925.18 79.42 5.00   9.80 2828.58
   18:36:26.707.16-Jul-2020 4198.01 6942.09 79.42 5.00  10.00 2828.58
   18:36:26.907.16-Jul-2020 4198.01 6937.09 79.42 5.00  10.20 2828.58
   18:36:27.107.16-Jul-2020 4198.01 6939.12 79.42 5.00  10.40 2828.58
   18:36:27.307.16-Jul-2020 4198.01 6953.55 79.42 5.00  10.60 2828.58
   18:36:27.507.16-Jul-2020 4198.01 6928.04 79.42 5.00  10.80 2828.58
   18:36:27.707.16-Jul-2020 4198.01 6944.22 79.42 5.00  11.00 2828.58
   18:36:27.907.16-Jul-2020 4198.01 6939.52 79.42 5.00  11.20 2828.58
   18:36:28.107.16-Jul-2020 4198.01 6941.27 79.42 5.00  11.40 2828.58
   18:36:28.306.16-Jul-2020 4198.01 6947.04 79.42 5.00  11.60 2828.58
   18:36:28.506.16-Jul-2020 4198.01 6939.87 79.42 5.00  11.80 2828.58
   18:36:28.706.16-Jul-2020 4198.01 6943.49 79.42 5.00  12.00 2828.58
   18:36:28.906.16-Jul-2020 4198.01 6939.33 79.42 5.00  12.20 2828.58
   18:36:29.106.16-Jul-2020 4198.01 6943.49 79.42 5.00  12.40 2828.58
   18:36:29.306.16-Jul-2020 4198.01 6950.85 79.42 5.00  12.60 2828.58
   18:36:29.506.16-Jul-2020 4198.01 6942.29 79.42 5.00  12.80 2828.58
   18:36:29.706.16-Jul-2020 4198.01 6946.11 79.42 5.00  13.00 2828.58
   18:36:29.906.16-Jul-2020 4198.01 6942.94 79.42 5.00  13.20 2828.58
   18:36:30.106.16-Jul-2020 4198.01 6953.31 79.42 5.00  13.39 2828.58
   18:36:30.306.16-Jul-2020 4198.01 6948.89 79.42 5.00  13.59 2828.58
   18:36:30.506.16-Jul-2020 4198.01 6944.95 79.42 5.00  13.79 2828.58
   18:36:30.706.16-Jul-2020 4198.01 6947.41 79.42 5.00  13.99 2828.58
   18:36:30.906.16-Jul-2020 4198.01 6947.87 79.42 5.00  14.19 2828.58
   18:36:31.105.16-Jul-2020 4198.01 6945.72 79.42 5.00  14.39 2828.58
   18:36:31.305.16-Jul-2020 4198.01 6955.17 79.42 5.00  14.59 2828.58
   18:36:31.505.16-Jul-2020 4198.01 6949.20 79.42 5.00  14.79 2828.58
   18:36:31.705.16-Jul-2020 4198.01 6947.77 79.42 5.00  14.99 2828.58
   18:36:31.905.16-Jul-2020 4198.01 6947.77 79.42 5.00  15.19 2828.58
   18:36:32.105.16-Jul-2020 4198.01 6949.03 79.42 5.00  15.39 2828.58
   18:36:32.305.16-Jul-2020 4198.01 6948.41 79.42 5.00  15.59 2828.58
   18:36:32.505.16-Jul-2020 4198.01 6948.73 79.42 5.00  15.79 2828.58
   18:36:32.705.16-Jul-2020 4198.01 6949.75 79.42 5.00  15.99 2828.58
   18:36:32.905.16-Jul-2020 4198.01 6949.75 79.42 5.00  16.19 2828.58
   18:36:33.105.16-Jul-2020 4198.01 6950.31 79.42 5.00  16.39 2828.58
   18:36:33.305.16-Jul-2020 4198.01 6949.37 79.42 5.00  16.59 2828.58
   18:36:33.505.16-Jul-2020 4198.01 6950.61 79.42 5.00  16.79 2828.58
   18:36:33.704.16-Jul-2020 4198.01 6950.34 79.42 5.00  16.99 2828.58
   18:36:33.904.16-Jul-2020 4198.01 6950.34 79.42 5.00  17.19 2828.58
   18:36:34.104.16-Jul-2020 4198.01 6951.38 79.42 5.00  17.39 2828.58
   18:36:34.304.16-Jul-2020 4198.01 6954.08 79.42 5.00  17.59 2828.58
   18:36:34.504.16-Jul-2020 4198.01 6950.19 79.42 5.00  17.79 2828.58
   18:36:34.704.16-Jul-2020 4198.01 6953.87 79.42 5.00  17.99 2828.58
   18:36:34.904.16-Jul-2020 4198.01 6953.70 79.42 5.00  18.19 2828.58
   18:36:35.104.16-Jul-2020 4198.01 6950.90 79.42 5.00  18.39 2828.58
   18:36:35.304.16-Jul-2020 4198.01 6951.69 79.42 5.00  18.59 2828.58
   18:36:35.504.16-Jul-2020 4198.01 6952.48 79.42 5.00  18.79 2828.58
   18:36:35.704.16-Jul-2020 4198.01 6952.88 79.42 5.00  18.99 2828.58
   18:36:35.904.16-Jul-2020 4198.01 6952.88 79.42 5.00  19.19 2828.58
   18:36:36.104.16-Jul-2020 4198.01 6952.74 79.42 5.00  19.39 2828.58
   18:36:36.303.16-Jul-2020 4198.01 6953.56 79.42 5.00  19.59 2828.58
   18:36:36.503.16-Jul-2020 4198.01 6952.59 79.42 5.00  19.79 2828.58
   18:36:36.703.16-Jul-2020 4198.01 6954.69 79.42 5.00  19.99 2828.58
   18:36:36.903.16-Jul-2020 4198.01 6954.03 79.42 5.00  20.19 2828.58
   18:36:37.103.16-Jul-2020 4198.01 6954.37 79.42 5.00  20.39 2828.58
   18:36:37.303.16-Jul-2020 4198.01 6961.66 79.42 5.00  20.59 2828.58
   18:36:37.503.16-Jul-2020 4198.01 6957.39 79.42 5.00  20.79 2828.58
   18:36:37.703.16-Jul-2020 4198.01 6955.58 79.41 5.00  20.99 2828.58
   18:36:37.903.16-Jul-2020 4198.01 6955.58 79.41 5.00  21.19 2828.58
   18:36:38.103.16-Jul-2020 4198.01 6957.35 79.41 5.00  21.39 2828.58
   18:36:38.303.16-Jul-2020 4198.01 6958.86 79.41 5.00  21.59 2828.58
   18:36:38.503.16-Jul-2020 4198.01 6955.52 79.41 5.00  21.79 2828.58
   18:36:38.703.16-Jul-2020 4198.01 6958.80 79.41 5.00  21.99 2828.58
   18:36:38.903.16-Jul-2020 4198.01 6969.56 79.41 5.00  22.19 2828.58
   18:36:39.102.16-Jul-2020 4198.01 6952.20 79.41 5.00  22.39 2828.58
   18:36:39.302.16-Jul-2020 4198.01 6961.73 79.41 5.00  22.59 2828.58
   18:36:39.502.16-Jul-2020 4198.01 6961.33 79.41 5.00  22.79 2828.58
