~Version Information
 VERS.                  2.0:   CWLS log ASCII Standard -VERSION 2.0
 WRAP.                   NO:   One line per depth step
~Well Information Block
#MNEM.UNIT     VALUE/NAME     DESCRIPTION
#---------     -----------    ---------------------------
 STRT.S             22:12:50 16-Jul-20: START TIME 22:12:50 16-Jul-20
 STOP.S             22:19:40 16-Jul-20: STOP TIME  22:19:40 16-Jul-20
 STEP.S                   0.00: STEP TIME
 NULL.                 -999.25: NULL VALUE
 MDS .        Operator Entered:  MAG DATA SOURCE
 UNIT.                     N/A:  LOGGING EQUIPMENT ID
 DCON.         Sperry Drilling:  DIRECTNL CONTR
 DOE .                     N/A:  DOE NUMBER
 RIG .               EastAzeri:  RIG NAME
 JOBN.        AZ-XX-0906363297:  JOB TICKET NUMB
 MWDS.                    Baku:  MWD SHOP
 SRVC.     Turan Drilling & Engineering:  CONTRACTOR
 PROV.                    Baku:  PROVINCE
 STAT.                    Baku:  STATE NAME
 REGN.                   EESSA:  REGION
 BASE.              Azerbaijan:  LOGGING EQUIPMENT BASE LOCATION
 WTYP.                Deviated:  WELL TYPE
 UWI .                     N/A:  UNIQUE WELL IDENTIFIER
 API .                     N/A:  API NUMBER
 COMP.     BP Exploration (Caspian Sea) ltd.:  COMPANY
 WELL.                    D07z:  WELL NAME
 CTRY.              Azerbaijan:  COUNTRY NAME
 SON .        AZ-XX-0906363297:  JOB NUMBER
 FLD .                     ACG:  FIELD NAME
 PDAT.          Mean Sea Level:  PERMANENT DATUM
 FTOP.          Formation Tops:  FORM TOPS DESC
 ILTD.               Lithology:  INTERP LTH DESC
 SVYD.                  Survey:  SURVEY DESC
 DMOD.             Drill Model:  DRILL MOD DESC
 HPTY.       Minimum Curvature:  HOLE POS TYPE
 NREF.                    Grid:  NORTH REFERENCE
 SPUD.               28-Jun-20:  SPUD DATE
 DATE.      18.27.12 28-Jun-20:  END TIME
 STIM.      18.27.12 28-Jun-20:  START TIME
 DMF .             Drill Floor:  DRILL MEAS FROM
 DFST.                        :  DIST FSL TEXT
 DFWT.                        :  DIST FWL TEXT
 CNTY.                        :  COUNTY
 LOC .                        :  LOCATION
 LMF .             Drill Floor:  LOG MEASURED FROM
 VSNS.m                  -7.75:  VERT SEC N/S
 VSEW.m                  -9.19:  VERT SEC E/W
 MMDE.m                   0.00:  MAGUTM CALC DEP
 AGAP.m                  43.60:  AIR GAP
 DEP .m                4058.99:  DEPTH
 APD .m                  43.60:  DEPTH ABOVE PD
 WDMS.m                 151.80:  WD ELEV
 EGL .m                   0.00:  GROUND ELEVATION
 EPD .m                   0.00:  ELEVATION
 AZTC.deg                 6.19:  AZM TOTAL CORR
 GRDC.deg                 0.27:  GRID CORRECTION
 MDEC.deg                 6.46:  MAGNETIC DECL
 MDIP.deg                59.47:  MAGNETIC DIP
 MFLD.nT              50279.00:  MAGNETIC FIELD
 GVFD.g                   1.00:  GRAVITY FIELD
 VSDR.deg               249.96:  VERT SEC DIRECT
 TDD .m                   0.00:  TOTAL DEPTH (DRILLER)
 SDEP.m                   0.00:  START DEPTH
 DFSL.m                   0.00:  DISTANCE FSL
 DFWL.m                   0.00:  DISTANCE FWL
 UTMY.m             4431880.20:  UTM Y
 UTMX.m              538763.98:  UTM X
 WHEW.m                  -9.19:  WELL HEAD E/W
 WHNS.m                  -7.75:  WELL HEAD N/S
 LONG.deg                51.45:  LONGITUDE
 LATI.deg                40.02:  LATITUDE
 TVDS.m                  43.60:  TVDSS CORRECTN
 EKB .m                  43.60:  KB ELEVATION
 EDF .m                  43.60:  DF ELEVATION
 TDL .m                 248.00:  TOTAL DEPTH (LOGGER)
 MAGU.                 1849075:  MAGUTM CHECKSUM
 VSC .                       0:  VS TO CLOSURE
~Parameter Information Block
#MNEM.UNIT       Value        Description
#---------     -----------    ---------------------------
 AV  .mps                 6.34:  Ann Velocity 
 AVMX.mps                 7.00:  Max Ann Veloc 
 AZIF.deg               260.29:  Azm, Final 
 BHAT.        Rotary Steerable:  BHA Type 
 BROT.°/30m               1.20:  Build Rotating 
 BS  .in                  8.50:  Bit Size 
 BSZ .in                  8.50:  Bit Size 
 BTPL.psig              620.00:  Bit Press Loss 
 CABU.                     Yes:  Customer Abuse 
 TCS .hr                 56.22:  Time Ciculation Ended 
 CV  .mps                 3.05:  Crit Velocity 
 CVMX.mps                 3.20:  Max Crit Veloc 
 DD1 .            Musa Ahmadov:  Direct Drillr 1 
 DDSV.                 iCruise:  DD Service 
 DEFF.%                  98.00:  % Det Eff 
 DLRX.°/30m               2.78:  Dogleg Rot Max 
 DLSO.°/30m               0.00:  Dogleg Oriented 
 DLSX.°/30m               0.00:  Dogleg Str Max 
 DRET.      05.20.48 16-Jul-20:  Drill End Time 
 DRST.      10.20.48 13-Jul-20:  Drill Start Tim 
 DTIM.hr                 14.25:  Time Drilling 
 EDEP.m                4326.01:  End Depth 
 ENG1.      Artemiy Matviyanov:  Engineer 1 
 ENG2.           Amrah Tahirov:  Engineer 2 
 ETIM.      22.30.00 18-Jul-20:  End Time 
 FLOI.gpm               550.00:  Flow In 
 FLON.gpm               450.00:  Flow In Min 
 FLOS.cptm                0.00:  Fluid Loss 
 FLOX.gpm               600.00:  Flow In Max 
 HFLO.                      No:  High Flow 
 HPRE.                      No:  High Pressure 
 HTEM.                      No:  High Temp 
 HYDO.m                   1.80:  Hydro Offset 
 IFIN.deg                65.41:  Inc, Final 
 IMAX.deg                65.14:  Inc Max 
 IMIN.deg                58.89:  Inc Min 
 IMND.m                4104.92:  Inc Min Depth 
 IMXD.m                4303.89:  Inc Max Depth 
 JARR.                      No:  Jarring 
 LETM.      10.20.48 17-Jul-20:  Log End Time 
 LOST.hr                     0:  Lost Rig Time 
 LSTM.      10.20.48 13-Jul-20:  Log Start Time 
 MDCL.ppm             37000.00:  Mud Chlorides 
 MDES.     Inversion Oil/Synthetic:  Mud Desc 
 DFD .sg                  1.52:  Mud Density 
 MDMN.sg                  1.52:  Dens Mud Min 
 MDMX.sg                  1.52:  Dens Mud Max 
 MOIL.                   52.70:  Run Mud Oil % 
 MOWR.                   68:32:  Run Mud OWR 
 MSND.                     0.2:  Run Mud Sand % 
 MSOL.                    21.6:  Run Mud Solids% 
 DFV .spqt               79.00:  Mud Viscosity 
 MWOD.in                  6.75:  MWD Tool OD 
 MWSI.                      No:  Serv Intrp, MWD 
 OTIM.hr                114.04:  Time Operating 
 PCON.          Wear / Scratch:  Pad Condition 
 PMAX.psia            11782.92:  Press Op, Max 
 PV  .cP                 49.00:  Mud PV 
 RUN .                     600:  Run Number 
 ROPA.m/hr               20.00:  ROP Avg 
 ROPN.m/hr               15.00:  ROP Min 
 ROPX.m/hr               22.00:  ROP Max 
 RPMA.rpm               120.00:  RPM Surface Avg 
 RPMN.rpm                90.00:  RPM Surface Min 
 RPMX.rpm               140.00:  RPM Surface Max 
 RRUN.                     600:  Rig Run Number 
 SAZI.deg               260.29:  Azm, Start 
 SDEP.m                4078.01:  Start Depth 
 SIDD.                      No:  Serv Intrp, DD 
 SINC.deg                58.89:  Inc, Start 
 SPPA.psig             4560.00:  SPP Avg 
 SPPN.psig             3600.00:  SPP Min 
 SPPX.psig             4800.00:  SPP Max 
 STIM.      10.20.48 13-Jul-20:  Start Time 
 SVCS.                 DD, MWD:  Services 
 SVER.                    9.20:  Sperry Version 
 TDAT.m                4378.01:  Tot Depth Attmp 
 TDDF.                      No:  Trip for DD 
 TDLG.m                 248.00:  Tot Depth Loggd 
 TFF .                      No:  Trip for Fail 
 TQAA.f-kp               18.00:  Torque Abs Avg 
 TQAN.f-kp               15.00:  Torque Abs Min 
 TQAX.f-kp               20.00:  Torque Abs Max 
 TRRT.°/30m               0.70:  Turn Rotating 
 MRT .                    HCIM:  Maximum Recorded Temperature 
 TTMX.degC               86.00:  Max Tool Temp 
 WBMN.klb                 3.00:  WOB Min 
 WOBA.klb                 5.00:  WOB Avg 
 WOBX.klb                 9.00:  WOB Max 
 YP  .lhf2               32.00:  Yield Point 
~Curve Information Block
#MNEM.UNIT                 API CODE     Curve Description
#---------               -----------    ---------------------------
 TIME.HHMMSS            00 000 000 000:  GT Time & Date
 GTDEPTH.m              00 000 000 000:  GT Depth
 GTPQH.psia             00 000 000 000:  GT HR Quartz Pressure
 GTTQ.degC              00 000 000 000:  GT Quartz Temperature
 GTTN.NONE              00 000 000 000:  GT Test Number
 GTET.sec               00 000 000 000:  GT Elapsed Test Time
 GTTVD.m                00 000 000 000:  GT True Vertical Depth
#Other Information
#
#WARRANTY: Halliburton will use its best efforts to furnish customers with 
#accurate information and interpretations that are part of, and incident to, the services 
#provided.  However, Halliburton cannot and does not warrant the accuracy 
#or correctness of such information and interpretations.  Under no circumstances should any 
#such information or interpretation be relied upon as the sole basis for any drilling, 
#completion, production, or financial decision or any procedure involving any risk to the 
#safety of any drilling venture, drilling rig or its crew or any other third party.  The 
#Customer has full responsibility for all drilling, completion and production operation.  
#Halliburton makes no representations or warranties, either expressed or 
#implied, including, but not limited to, the implied warranties of merchantability or fitness 
#for a particular purpose, with respect to the services rendered.  In no event will 
#Halliburton be liable for failure to obtain any particular results or for 
#any damages, including, but not limited to, indirect, special or consequential damages, 
#resulting from the use of any information or interpretation provided by Halliburton.
#
~A           TIME           GTDEPTH  GTPQH  GTTQ  GTTN  GTET   GTTVD  
# ...
   22:18:58.434.16-Jul-2020 4093.01 6822.31 76.49 8.00 368.14 2778.38
   22:18:58.634.16-Jul-2020 4093.01 6822.31 76.49 8.00 368.34 2778.38
   22:18:58.834.16-Jul-2020 4093.01 6833.51 76.49 8.00 368.54 2778.38
   22:18:59.034.16-Jul-2020 4093.01 6820.39 76.49 8.00 368.74 2778.38
   22:18:59.234.16-Jul-2020 4093.01 6822.76 76.48 8.00 368.94 2778.38
   22:18:59.434.16-Jul-2020 4093.01 6824.35 76.48 8.00 369.14 2778.38
   22:18:59.634.16-Jul-2020 4093.01 6822.25 76.48 8.00 369.34 2778.38
   22:18:59.834.16-Jul-2020 4093.01 6822.52 76.48 8.00 369.54 2778.38
   22:19:00.034.16-Jul-2020 4093.01 6833.00 76.48 8.00 369.74 2778.38
   22:19:00.234.16-Jul-2020 4093.01 6821.02 76.48 8.00 369.94 2778.38
   22:19:00.434.16-Jul-2020 4093.01 6822.13 76.48 8.00 370.14 2778.38
   22:19:00.635.16-Jul-2020 4093.01 6822.13 76.48 8.00 370.34 2778.38
   22:19:00.835.16-Jul-2020 4093.01 6821.29 76.48 8.00 370.54 2778.38
   22:19:01.035.16-Jul-2020 4093.01 6822.24 76.48 8.00 370.74 2778.38
   22:19:01.235.16-Jul-2020 4093.01 6825.01 76.48 8.00 370.94 2778.38
   22:19:01.435.16-Jul-2020 4093.01 6822.77 76.48 8.00 371.14 2778.38
   22:19:01.635.16-Jul-2020 4093.01 6822.77 76.48 8.00 371.34 2778.38
   22:19:01.835.16-Jul-2020 4093.01 6821.10 76.48 8.00 371.54 2778.38
   22:19:02.035.16-Jul-2020 4093.01 6823.57 76.48 8.00 371.74 2778.38
   22:19:02.235.16-Jul-2020 4093.01 6824.02 76.48 8.00 371.94 2778.38
   22:19:02.435.16-Jul-2020 4093.01 6823.00 76.48 8.00 372.14 2778.38
   22:19:02.635.16-Jul-2020 4093.01 6823.00 76.48 8.00 372.34 2778.38
   22:19:02.835.16-Jul-2020 4093.01 6823.25 76.48 8.00 372.54 2778.38
   22:19:03.035.16-Jul-2020 4093.01 6823.14 76.48 8.00 372.74 2778.38
   22:19:03.235.16-Jul-2020 4093.01 6822.48 76.48 8.00 372.94 2778.38
   22:19:03.436.16-Jul-2020 4093.01 6823.18 76.48 8.00 373.14 2778.38
   22:19:03.636.16-Jul-2020 4093.01 6822.60 76.48 8.00 373.34 2778.38
   22:19:03.836.16-Jul-2020 4093.01 6822.04 76.48 8.00 373.54 2778.38
   22:19:04.036.16-Jul-2020 4093.01 6821.73 76.48 8.00 373.74 2778.38
   22:19:04.236.16-Jul-2020 4093.01 6827.62 76.48 8.00 373.94 2778.38
   22:19:04.436.16-Jul-2020 4093.01 6826.85 76.48 8.00 374.14 2778.38
   22:19:04.636.16-Jul-2020 4093.01 6821.04 76.48 8.00 374.34 2778.38
   22:19:04.836.16-Jul-2020 4093.01 6823.92 76.48 8.00 374.54 2778.38
   22:19:05.036.16-Jul-2020 4093.01 6823.32 76.48 8.00 374.74 2778.38
   22:19:05.236.16-Jul-2020 4093.01 6822.88 76.48 8.00 374.94 2778.38
   22:19:05.436.16-Jul-2020 4093.01 6822.93 76.48 8.00 375.14 2778.38
   22:19:05.636.16-Jul-2020 4093.01 6822.93 76.48 8.00 375.34 2778.38
   22:19:05.836.16-Jul-2020 4093.01 6822.55 76.48 8.00 375.54 2778.38
   22:19:06.037.16-Jul-2020 4093.01 6822.94 76.48 8.00 375.74 2778.38
   22:19:06.237.16-Jul-2020 4093.01 6822.53 76.48 8.00 375.94 2778.38
   22:19:06.437.16-Jul-2020 4093.01 6822.04 76.48 8.00 376.14 2778.38
   22:19:06.637.16-Jul-2020 4093.01 6822.04 76.48 8.00 376.34 2778.38
   22:19:06.837.16-Jul-2020 4093.01 6822.13 76.48 8.00 376.54 2778.38
   22:19:07.037.16-Jul-2020 4093.01 6821.68 76.48 8.00 376.74 2778.38
   22:19:07.237.16-Jul-2020 4093.01 6821.55 76.47 8.00 376.94 2778.38
   22:19:07.437.16-Jul-2020 4093.01 6827.34 76.47 8.00 377.14 2778.38
   22:19:07.637.16-Jul-2020 4093.01 6827.34 76.47 8.00 377.34 2778.38
   22:19:07.837.16-Jul-2020 4093.01 6821.12 76.47 8.00 377.54 2778.38
   22:19:08.037.16-Jul-2020 4093.01 6823.04 76.47 8.00 377.74 2778.38
   22:19:08.237.16-Jul-2020 4093.01 6821.80 76.47 8.00 377.94 2778.38
   22:19:08.437.16-Jul-2020 4093.01 6822.16 76.47 8.00 378.14 2778.38
   22:19:08.638.16-Jul-2020 4093.01 6822.80 76.47 8.00 378.34 2778.38
   22:19:08.838.16-Jul-2020 4093.01 6832.56 76.47 8.00 378.54 2778.38
   22:19:09.038.16-Jul-2020 4093.01 6819.60 76.47 8.00 378.74 2778.38
   22:19:09.238.16-Jul-2020 4093.01 6822.20 76.47 8.00 378.94 2778.38
   22:19:09.438.16-Jul-2020 4093.01 6829.21 76.47 8.00 379.14 2778.38
   22:19:09.638.16-Jul-2020 4093.01 6829.21 76.47 8.00 379.34 2778.38
   22:19:09.838.16-Jul-2020 4093.01 6821.33 76.47 8.00 379.54 2778.38
   22:19:10.038.16-Jul-2020 4093.01 6828.45 76.47 8.00 379.74 2778.38
   22:19:10.238.16-Jul-2020 4093.01 6828.45 76.47 8.00 379.94 2778.38
   22:19:10.438.16-Jul-2020 4093.01 6821.40 76.47 8.00 380.14 2778.38
   22:19:10.638.16-Jul-2020 4093.01 6821.40 76.47 8.00 380.34 2778.38
   22:19:10.838.16-Jul-2020 4093.01 6823.30 76.47 8.00 380.54 2778.38
   22:19:11.038.16-Jul-2020 4093.01 6823.70 76.47 8.00 380.74 2778.38
   22:19:11.239.16-Jul-2020 4093.01 6823.37 76.47 8.00 380.94 2778.38
   22:19:11.439.16-Jul-2020 4093.01 6823.08 76.47 8.00 381.14 2778.38
   22:19:11.639.16-Jul-2020 4093.01 6823.08 76.47 8.00 381.34 2778.38
   22:19:11.839.16-Jul-2020 4093.01 6822.90 76.47 8.00 381.54 2778.38
   22:19:12.039.16-Jul-2020 4093.01 6822.79 76.47 8.00 381.74 2778.38
   22:19:12.239.16-Jul-2020 4093.01 6823.05 76.47 8.00 381.94 2778.38
   22:19:12.439.16-Jul-2020 4093.01 6822.60 76.47 8.00 382.14 2778.38
   22:19:12.639.16-Jul-2020 4093.01 6822.60 76.47 8.00 382.34 2778.38
   22:19:12.839.16-Jul-2020 4093.01 6833.78 76.47 8.00 382.54 2778.38
   22:19:13.039.16-Jul-2020 4093.01 6820.53 76.47 8.00 382.74 2778.38
   22:19:13.239.16-Jul-2020 4093.01 6820.74 76.47 8.00 382.94 2778.38
   22:19:13.439.16-Jul-2020 4093.01 6825.46 76.47 8.00 383.14 2778.38
   22:19:13.639.16-Jul-2020 4093.01 6825.46 76.47 8.00 383.34 2778.38
   22:19:13.839.16-Jul-2020 4093.01 6823.63 76.47 8.00 383.54 2778.38
   22:19:14.040.16-Jul-2020 4093.01 6822.37 76.47 8.00 383.74 2778.38
   22:19:14.240.16-Jul-2020 4093.01 6822.77 76.47 8.00 383.94 2778.38
   22:19:14.440.16-Jul-2020 4093.01 6822.14 76.47 8.00 384.14 2778.38
   22:19:14.640.16-Jul-2020 4093.01 6822.14 76.47 8.00 384.34 2778.38
   22:19:14.840.16-Jul-2020 4093.01 6822.63 76.47 8.00 384.55 2778.38
   22:19:15.040.16-Jul-2020 4093.01 6822.35 76.47 8.00 384.75 2778.38
   22:19:15.240.16-Jul-2020 4093.01 6822.20 76.47 8.00 384.95 2778.38
   22:19:15.440.16-Jul-2020 4093.01 6825.46 76.47 8.00 385.15 2778.38
   22:19:15.640.16-Jul-2020 4093.01 6822.21 76.47 8.00 385.35 2778.38
   22:19:15.840.16-Jul-2020 4093.01 6822.21 76.47 8.00 385.55 2778.38
   22:19:16.040.16-Jul-2020 4093.01 6822.14 76.47 8.00 385.75 2778.38
   22:19:16.240.16-Jul-2020 4093.01 6819.42 76.46 8.00 385.95 2778.38
   22:19:16.440.16-Jul-2020 4093.01 6820.34 76.46 8.00 386.15 2778.38
   22:19:16.641.16-Jul-2020 4093.01 6820.34 76.46 8.00 386.35 2778.38
   22:19:16.841.16-Jul-2020 4093.01 6821.23 76.46 8.00 386.55 2778.38
   22:19:17.041.16-Jul-2020 4093.01 6822.62 76.46 8.00 386.75 2778.38
   22:19:17.241.16-Jul-2020 4093.01 6827.23 76.46 8.00 386.95 2778.38
   22:19:17.441.16-Jul-2020 4093.01 6827.67 76.46 8.00 387.15 2778.38
   22:19:17.641.16-Jul-2020 4093.01 6827.67 76.46 8.00 387.35 2778.38
   22:19:17.841.16-Jul-2020 4093.01 6823.02 76.46 8.00 387.55 2778.38
   22:19:18.041.16-Jul-2020 4093.01 6834.02 76.46 8.00 387.75 2778.38
   22:19:18.241.16-Jul-2020 4093.01 6820.14 76.46 8.00 387.95 2778.38
   22:19:18.441.16-Jul-2020 4093.01 6821.04 76.46 8.00 388.15 2778.38
   22:19:18.641.16-Jul-2020 4093.01 6821.04 76.46 8.00 388.35 2778.38
   22:19:18.841.16-Jul-2020 4093.01 6827.32 76.46 8.00 388.55 2778.38
   22:19:19.041.16-Jul-2020 4093.01 6821.82 76.46 8.00 388.75 2778.38
   22:19:19.242.16-Jul-2020 4093.01 6823.87 76.46 8.00 388.95 2778.38
   22:19:19.442.16-Jul-2020 4093.01 6823.30 76.46 8.00 389.15 2778.38
   22:19:19.642.16-Jul-2020 4093.01 6823.30 76.46 8.00 389.35 2778.38
   22:19:19.842.16-Jul-2020 4093.01 6823.42 76.46 8.00 389.55 2778.38
   22:19:20.042.16-Jul-2020 4093.01 6822.98 76.46 8.00 389.75 2778.38
   22:19:20.242.16-Jul-2020 4093.01 6822.84 76.46 8.00 389.95 2778.38
   22:19:20.442.16-Jul-2020 4093.01 6822.38 76.46 8.00 390.15 2778.38
   22:19:20.642.16-Jul-2020 4093.01 6822.38 76.46 8.00 390.35 2778.38
   22:19:20.842.16-Jul-2020 4093.01 6822.41 76.46 8.00 390.55 2778.38
   22:19:21.042.16-Jul-2020 4093.01 6821.82 76.46 8.00 390.75 2778.38
   22:19:21.242.16-Jul-2020 4093.01 6821.18 76.46 8.00 390.95 2778.38
