~Version Information
 VERS.                  2.0:   CWLS log ASCII Standard -VERSION 2.0
 WRAP.                   NO:   One line per depth step
~Well Information Block
#MNEM.UNIT     VALUE/NAME     DESCRIPTION
#---------     -----------    ---------------------------
 STRT.S             18:36:16 16-Jul-20: START TIME 18:36:16 16-Jul-20
 STOP.S             18:43:12 16-Jul-20: STOP TIME  18:43:12 16-Jul-20
 STEP.S                   0.00: STEP TIME
 NULL.                 -999.25: NULL VALUE
 MDS .        Operator Entered:  MAG DATA SOURCE
 UNIT.                     N/A:  LOGGING EQUIPMENT ID
 DCON.         Sperry Drilling:  DIRECTNL CONTR
 DOE .                     N/A:  DOE NUMBER
 RIG .               EastAzeri:  RIG NAME
 JOBN.        AZ-XX-0906363297:  JOB TICKET NUMB
 MWDS.                    Baku:  MWD SHOP
 SRVC.     Turan Drilling & Engineering:  CONTRACTOR
 PROV.                    Baku:  PROVINCE
 STAT.                    Baku:  STATE NAME
 REGN.                   EESSA:  REGION
 BASE.              Azerbaijan:  LOGGING EQUIPMENT BASE LOCATION
 WTYP.                Deviated:  WELL TYPE
 UWI .                     N/A:  UNIQUE WELL IDENTIFIER
 API .                     N/A:  API NUMBER
 COMP.     BP Exploration (Caspian Sea) ltd.:  COMPANY
 WELL.                    D07z:  WELL NAME
 CTRY.              Azerbaijan:  COUNTRY NAME
 SON .        AZ-XX-0906363297:  JOB NUMBER
 FLD .                     ACG:  FIELD NAME
 PDAT.          Mean Sea Level:  PERMANENT DATUM
 FTOP.          Formation Tops:  FORM TOPS DESC
 ILTD.               Lithology:  INTERP LTH DESC
 SVYD.                  Survey:  SURVEY DESC
 DMOD.             Drill Model:  DRILL MOD DESC
 HPTY.       Minimum Curvature:  HOLE POS TYPE
 NREF.                    Grid:  NORTH REFERENCE
 SPUD.               28-Jun-20:  SPUD DATE
 DATE.      18.27.12 28-Jun-20:  END TIME
 STIM.      18.27.12 28-Jun-20:  START TIME
 DMF .             Drill Floor:  DRILL MEAS FROM
 DFST.                        :  DIST FSL TEXT
 DFWT.                        :  DIST FWL TEXT
 CNTY.                        :  COUNTY
 LOC .                        :  LOCATION
 LMF .             Drill Floor:  LOG MEASURED FROM
 VSNS.m                  -7.75:  VERT SEC N/S
 VSEW.m                  -9.19:  VERT SEC E/W
 MMDE.m                   0.00:  MAGUTM CALC DEP
 AGAP.m                  43.60:  AIR GAP
 DEP .m                4058.99:  DEPTH
 APD .m                  43.60:  DEPTH ABOVE PD
 WDMS.m                 151.80:  WD ELEV
 EGL .m                   0.00:  GROUND ELEVATION
 EPD .m                   0.00:  ELEVATION
 AZTC.deg                 6.19:  AZM TOTAL CORR
 GRDC.deg                 0.27:  GRID CORRECTION
 MDEC.deg                 6.46:  MAGNETIC DECL
 MDIP.deg                59.47:  MAGNETIC DIP
 MFLD.nT              50279.00:  MAGNETIC FIELD
 GVFD.g                   1.00:  GRAVITY FIELD
 VSDR.deg               249.96:  VERT SEC DIRECT
 TDD .m                   0.00:  TOTAL DEPTH (DRILLER)
 SDEP.m                   0.00:  START DEPTH
 DFSL.m                   0.00:  DISTANCE FSL
 DFWL.m                   0.00:  DISTANCE FWL
 UTMY.m             4431880.20:  UTM Y
 UTMX.m              538763.98:  UTM X
 WHEW.m                  -9.19:  WELL HEAD E/W
 WHNS.m                  -7.75:  WELL HEAD N/S
 LONG.deg                51.45:  LONGITUDE
 LATI.deg                40.02:  LATITUDE
 TVDS.m                  43.60:  TVDSS CORRECTN
 EKB .m                  43.60:  KB ELEVATION
 EDF .m                  43.60:  DF ELEVATION
 TDL .m                 248.00:  TOTAL DEPTH (LOGGER)
 MAGU.                 1849075:  MAGUTM CHECKSUM
 VSC .                       0:  VS TO CLOSURE
~Parameter Information Block
#MNEM.UNIT       Value        Description
#---------     -----------    ---------------------------
 AV  .mps                 6.34:  Ann Velocity 
 AVMX.mps                 7.00:  Max Ann Veloc 
 AZIF.deg               260.29:  Azm, Final 
 BHAT.        Rotary Steerable:  BHA Type 
 BROT.°/30m               1.20:  Build Rotating 
 BS  .in                  8.50:  Bit Size 
 BSZ .in                  8.50:  Bit Size 
 BTPL.psig              620.00:  Bit Press Loss 
 CABU.                     Yes:  Customer Abuse 
 COMM.                     Ì>`:  Run Comments 1 
 TCS .hr                 56.22:  Time Ciculation Ended 
 CV  .mps                 3.05:  Crit Velocity 
 CVMX.mps                 3.20:  Max Crit Veloc 
 DD1 .            Musa Ahmadov:  Direct Drillr 1 
 DDSV.                 iCruise:  DD Service 
 DEFF.%                  98.00:  % Det Eff 
 DLRX.°/30m               2.78:  Dogleg Rot Max 
 DLSO.°/30m               0.00:  Dogleg Oriented 
 DLSX.°/30m               0.00:  Dogleg Str Max 
 DRET.      05.20.48 16-Jul-20:  Drill End Time 
 DRST.      10.20.48 13-Jul-20:  Drill Start Tim 
 DTIM.hr                 14.25:  Time Drilling 
 EDEP.m                4326.01:  End Depth 
 ENG1.      Artemiy Matviyanov:  Engineer 1 
 ENG2.           Amrah Tahirov:  Engineer 2 
 ETIM.      22.30.00 18-Jul-20:  End Time 
 FLOI.gpm               550.00:  Flow In 
 FLON.gpm               450.00:  Flow In Min 
 FLOS.cptm                0.00:  Fluid Loss 
 FLOX.gpm               600.00:  Flow In Max 
 HFLO.                      No:  High Flow 
 HPRE.                      No:  High Pressure 
 HTEM.                      No:  High Temp 
 HYDO.m                   1.80:  Hydro Offset 
 IFIN.deg                65.41:  Inc, Final 
 IMAX.deg                65.14:  Inc Max 
 IMIN.deg                58.89:  Inc Min 
 IMND.m                4104.92:  Inc Min Depth 
 IMXD.m                4303.89:  Inc Max Depth 
 JARR.                      No:  Jarring 
 LETM.      10.20.48 17-Jul-20:  Log End Time 
 LOST.hr                     0:  Lost Rig Time 
 LSTM.      10.20.48 13-Jul-20:  Log Start Time 
 MDCL.ppm             37000.00:  Mud Chlorides 
 MDES.     Inversion Oil/Synthetic:  Mud Desc 
 DFD .sg                  1.52:  Mud Density 
 MDMN.sg                  1.52:  Dens Mud Min 
 MDMX.sg                  1.52:  Dens Mud Max 
 MOIL.                   52.70:  Run Mud Oil % 
 MOWR.                   68:32:  Run Mud OWR 
 MSND.                     0.2:  Run Mud Sand % 
 MSOL.                    21.6:  Run Mud Solids% 
 DFV .spqt               79.00:  Mud Viscosity 
 MWOD.in                  6.75:  MWD Tool OD 
 MWSI.                      No:  Serv Intrp, MWD 
 OTIM.hr                114.04:  Time Operating 
 PCON.          Wear / Scratch:  Pad Condition 
 PMAX.psia            11782.92:  Press Op, Max 
 PV  .cP                 49.00:  Mud PV 
 RUN .                     600:  Run Number 
 ROPA.m/hr               20.00:  ROP Avg 
 ROPN.m/hr               15.00:  ROP Min 
 ROPX.m/hr               22.00:  ROP Max 
 RPMA.rpm               120.00:  RPM Surface Avg 
 RPMN.rpm                90.00:  RPM Surface Min 
 RPMX.rpm               140.00:  RPM Surface Max 
 RRUN.                     600:  Rig Run Number 
 SAZI.deg               260.29:  Azm, Start 
 SDEP.m                4078.01:  Start Depth 
 SIDD.                      No:  Serv Intrp, DD 
 SINC.deg                58.89:  Inc, Start 
 SPPA.psig             4560.00:  SPP Avg 
 SPPN.psig             3600.00:  SPP Min 
 SPPX.psig             4800.00:  SPP Max 
 STIM.      10.20.48 13-Jul-20:  Start Time 
 SVCS.                 DD, MWD:  Services 
 SVER.                    9.20:  Sperry Version 
 TDAT.m                4378.01:  Tot Depth Attmp 
 TDDF.                      No:  Trip for DD 
 TDLG.m                 248.00:  Tot Depth Loggd 
 TFF .                      No:  Trip for Fail 
 TQAA.f-kp               18.00:  Torque Abs Avg 
 TQAN.f-kp               15.00:  Torque Abs Min 
 TQAX.f-kp               20.00:  Torque Abs Max 
 TRRT.°/30m               0.70:  Turn Rotating 
 MRT .                    HCIM:  Maximum Recorded Temperature 
 TTMX.degC               86.00:  Max Tool Temp 
 WBMN.klb                 3.00:  WOB Min 
 WOBA.klb                 5.00:  WOB Avg 
 WOBX.klb                 9.00:  WOB Max 
 YP  .lhf2               32.00:  Yield Point 
~Curve Information Block
#MNEM.UNIT                 API CODE     Curve Description
#---------               -----------    ---------------------------
 TIME.HHMMSS            00 000 000 000:  GT Time & Date
 GTDEPTH.m              00 000 000 000:  GT Depth
 GTPQH.psia             00 000 000 000:  GT HR Quartz Pressure
 GTTQ.degC              00 000 000 000:  GT Quartz Temperature
 GTTN.NONE              00 000 000 000:  GT Test Number
 GTET.sec               00 000 000 000:  GT Elapsed Test Time
 GTTVD.m                00 000 000 000:  GT True Vertical Depth
#Other Information
#
#WARRANTY: Halliburton will use its best efforts to furnish customers with 
#accurate information and interpretations that are part of, and incident to, the services 
#provided.  However, Halliburton cannot and does not warrant the accuracy 
#or correctness of such information and interpretations.  Under no circumstances should any 
#such information or interpretation be relied upon as the sole basis for any drilling, 
#completion, production, or financial decision or any procedure involving any risk to the 
#safety of any drilling venture, drilling rig or its crew or any other third party.  The 
#Customer has full responsibility for all drilling, completion and production operation.  
#Halliburton makes no representations or warranties, either expressed or 
#implied, including, but not limited to, the implied warranties of merchantability or fitness 
#for a particular purpose, with respect to the services rendered.  In no event will 
#Halliburton be liable for failure to obtain any particular results or for 
#any damages, including, but not limited to, indirect, special or consequential damages, 
#resulting from the use of any information or interpretation provided by Halliburton.
#
~A           TIME           GTDEPTH  GTPQH  GTTQ  GTTN  GTET   GTTVD  
# ...
   18:37:25.685.16-Jul-2020 4198.01 4795.47 79.32 5.00  68.97 2828.58
   18:37:25.885.16-Jul-2020 4198.01 4795.47 79.32 5.00  69.17 2828.58
   18:37:26.085.16-Jul-2020 4198.01 4795.15 79.32 5.00  69.37 2828.58
   18:37:26.285.16-Jul-2020 4198.01 4795.45 79.32 5.00  69.57 2828.58
   18:37:26.485.16-Jul-2020 4198.01 4795.29 79.32 5.00  69.77 2828.58
   18:37:26.685.16-Jul-2020 4198.01 4795.33 79.32 5.00  69.97 2828.58
   18:37:26.884.16-Jul-2020 4198.01 4795.33 79.32 5.00  70.17 2828.58
   18:37:27.084.16-Jul-2020 4198.01 4795.33 79.32 5.00  70.37 2828.58
   18:37:27.284.16-Jul-2020 4198.01 4795.37 79.32 5.00  70.57 2828.58
   18:37:27.484.16-Jul-2020 4198.01 4795.39 79.32 5.00  70.77 2828.58
   18:37:27.684.16-Jul-2020 4198.01 4795.28 79.32 5.00  70.97 2828.58
   18:37:27.884.16-Jul-2020 4198.01 4795.36 79.32 5.00  71.17 2828.58
   18:37:28.084.16-Jul-2020 4198.01 4795.50 79.32 5.00  71.37 2828.58
   18:37:28.284.16-Jul-2020 4198.01 4795.31 79.32 5.00  71.57 2828.58
   18:37:28.484.16-Jul-2020 4198.01 4794.95 79.32 5.00  71.77 2828.58
   18:37:28.684.16-Jul-2020 4198.01 4795.88 79.32 5.00  71.97 2828.58
   18:37:28.884.16-Jul-2020 4198.01 4795.31 79.32 5.00  72.17 2828.58
   18:37:29.084.16-Jul-2020 4198.01 4795.31 79.32 5.00  72.37 2828.58
   18:37:29.284.16-Jul-2020 4198.01 4795.36 79.32 5.00  72.57 2828.58
   18:37:29.484.16-Jul-2020 4198.01 4795.38 79.32 5.00  72.77 2828.58
   18:37:29.683.16-Jul-2020 4198.01 4795.39 79.32 5.00  72.97 2828.58
   18:37:29.883.16-Jul-2020 4198.01 4795.37 79.32 5.00  73.17 2828.58
   18:37:30.083.16-Jul-2020 4198.01 4795.45 79.32 5.00  73.37 2828.58
   18:37:30.283.16-Jul-2020 4198.01 4795.44 79.32 5.00  73.57 2828.58
   18:37:30.483.16-Jul-2020 4198.01 4795.36 79.32 5.00  73.77 2828.58
   18:37:30.683.16-Jul-2020 4198.01 4795.45 79.32 5.00  73.97 2828.58
   18:37:30.883.16-Jul-2020 4198.01 4795.40 79.32 5.00  74.17 2828.58
   18:37:31.083.16-Jul-2020 4198.01 4795.36 79.32 5.00  74.37 2828.58
   18:37:31.283.16-Jul-2020 4198.01 4795.53 79.32 5.00  74.57 2828.58
   18:37:31.483.16-Jul-2020 4198.01 4795.42 79.32 5.00  74.77 2828.58
   18:37:31.683.16-Jul-2020 4198.01 4795.19 79.32 5.00  74.97 2828.58
   18:37:31.883.16-Jul-2020 4198.01 4795.81 79.32 5.00  75.17 2828.58
   18:37:32.083.16-Jul-2020 4198.01 4795.38 79.32 5.00  75.37 2828.58
   18:37:32.282.16-Jul-2020 4198.01 4795.46 79.32 5.00  75.57 2828.58
   18:37:32.482.16-Jul-2020 4198.01 4795.34 79.32 5.00  75.77 2828.58
   18:37:32.682.16-Jul-2020 4198.01 4795.55 79.32 5.00  75.97 2828.58
   18:37:32.882.16-Jul-2020 4198.01 4795.32 79.32 5.00  76.17 2828.58
   18:37:33.082.16-Jul-2020 4198.01 4795.54 79.32 5.00  76.37 2828.58
   18:37:33.282.16-Jul-2020 4198.01 4795.35 79.32 5.00  76.57 2828.58
   18:37:33.482.16-Jul-2020 4198.01 4795.43 79.32 5.00  76.77 2828.58
   18:37:33.682.16-Jul-2020 4198.01 4795.48 79.32 5.00  76.97 2828.58
   18:37:33.882.16-Jul-2020 4198.01 4795.07 79.32 5.00  77.17 2828.58
   18:37:34.082.16-Jul-2020 4198.01 4795.79 79.32 5.00  77.37 2828.58
   18:37:34.282.16-Jul-2020 4198.01 4795.38 79.32 5.00  77.57 2828.58
   18:37:34.482.16-Jul-2020 4198.01 4795.39 79.32 5.00  77.77 2828.58
   18:37:34.682.16-Jul-2020 4198.01 4795.52 79.32 5.00  77.97 2828.58
   18:37:34.881.16-Jul-2020 4198.01 4795.31 79.32 5.00  78.17 2828.58
   18:37:35.081.16-Jul-2020 4198.01 4795.42 79.32 5.00  78.37 2828.58
   18:37:35.281.16-Jul-2020 4198.01 4795.79 79.32 5.00  78.57 2828.58
   18:37:35.481.16-Jul-2020 4198.01 4795.33 79.32 5.00  78.77 2828.58
   18:37:35.681.16-Jul-2020 4198.01 4795.35 79.32 5.00  78.97 2828.58
   18:37:35.881.16-Jul-2020 4198.01 4795.35 79.32 5.00  79.17 2828.58
   18:37:36.081.16-Jul-2020 4198.01 4795.41 79.32 5.00  79.37 2828.58
   18:37:36.281.16-Jul-2020 4198.01 4795.47 79.32 5.00  79.57 2828.58
   18:37:36.481.16-Jul-2020 4198.01 4795.47 79.32 5.00  79.77 2828.58
   18:37:36.681.16-Jul-2020 4198.01 4795.57 79.32 5.00  79.97 2828.58
   18:37:36.881.16-Jul-2020 4198.01 4795.57 79.32 5.00  80.17 2828.58
   18:37:37.081.16-Jul-2020 4198.01 4795.53 79.32 5.00  80.37 2828.58
   18:37:37.281.16-Jul-2020 4198.01 4795.50 79.32 5.00  80.57 2828.58
   18:37:37.481.16-Jul-2020 4198.01 4795.32 79.32 5.00  80.77 2828.58
   18:37:37.680.16-Jul-2020 4198.01 4795.60 79.32 5.00  80.97 2828.58
   18:37:37.880.16-Jul-2020 4198.01 4795.60 79.32 5.00  81.17 2828.58
   18:37:38.080.16-Jul-2020 4198.01 4795.62 79.32 5.00  81.37 2828.58
   18:37:38.280.16-Jul-2020 4198.01 4795.43 79.32 5.00  81.57 2828.58
   18:37:38.480.16-Jul-2020 4198.01 4795.39 79.32 5.00  81.77 2828.58
   18:37:38.680.16-Jul-2020 4198.01 4795.55 79.32 5.00  81.97 2828.58
   18:37:38.880.16-Jul-2020 4198.01 4795.50 79.32 5.00  82.17 2828.58
   18:37:39.080.16-Jul-2020 4198.01 4795.46 79.32 5.00  82.37 2828.58
   18:37:39.280.16-Jul-2020 4198.01 4795.50 79.32 5.00  82.57 2828.58
   18:37:39.480.16-Jul-2020 4198.01 4795.64 79.32 5.00  82.77 2828.58
   18:37:39.680.16-Jul-2020 4198.01 4795.40 79.32 5.00  82.97 2828.58
   18:37:39.880.16-Jul-2020 4198.01 4795.40 79.32 5.00  83.17 2828.58
   18:37:40.080.16-Jul-2020 4198.01 4795.71 79.32 5.00  83.37 2828.58
   18:37:40.279.16-Jul-2020 4198.01 4795.44 79.32 5.00  83.57 2828.58
   18:37:40.479.16-Jul-2020 4198.01 4795.60 79.32 5.00  83.77 2828.58
   18:37:40.679.16-Jul-2020 4198.01 4795.60 79.32 5.00  83.97 2828.58
   18:37:40.879.16-Jul-2020 4198.01 4795.60 79.32 5.00  84.17 2828.58
   18:37:41.079.16-Jul-2020 4198.01 4795.59 79.32 5.00  84.37 2828.58
   18:37:41.279.16-Jul-2020 4198.01 4795.55 79.32 5.00  84.57 2828.58
   18:37:41.479.16-Jul-2020 4198.01 4795.47 79.32 5.00  84.77 2828.58
   18:37:41.679.16-Jul-2020 4198.01 4795.46 79.32 5.00  84.97 2828.58
   18:37:41.879.16-Jul-2020 4198.01 4795.50 79.32 5.00  85.17 2828.58
   18:37:42.079.16-Jul-2020 4198.01 4795.41 79.32 5.00  85.37 2828.58
   18:37:42.279.16-Jul-2020 4198.01 4795.51 79.32 5.00  85.57 2828.58
   18:37:42.479.16-Jul-2020 4198.01 4795.69 79.32 5.00  85.77 2828.58
   18:37:42.679.16-Jul-2020 4198.01 4795.44 79.32 5.00  85.97 2828.58
   18:37:42.878.16-Jul-2020 4198.01 4795.60 79.32 5.00  86.17 2828.58
   18:37:43.078.16-Jul-2020 4198.01 4795.54 79.32 5.00  86.37 2828.58
   18:37:43.278.16-Jul-2020 4198.01 4795.51 79.32 5.00  86.57 2828.58
   18:37:43.478.16-Jul-2020 4198.01 4795.60 79.32 5.00  86.77 2828.58
   18:37:43.678.16-Jul-2020 4198.01 4795.20 79.32 5.00  86.97 2828.58
   18:37:43.878.16-Jul-2020 4198.01 4795.71 79.32 5.00  87.17 2828.58
   18:37:44.078.16-Jul-2020 4198.01 4795.63 79.32 5.00  87.37 2828.58
   18:37:44.278.16-Jul-2020 4198.01 4795.68 79.32 5.00  87.57 2828.58
   18:37:44.478.16-Jul-2020 4198.01 4795.42 79.32 5.00  87.77 2828.58
   18:37:44.678.16-Jul-2020 4198.01 4795.53 79.32 5.00  87.97 2828.58
   18:37:44.878.16-Jul-2020 4198.01 4795.53 79.32 5.00  88.17 2828.58
   18:37:45.078.16-Jul-2020 4198.01 4795.41 79.32 5.00  88.37 2828.58
   18:37:45.278.16-Jul-2020 4198.01 4795.57 79.32 5.00  88.57 2828.58
   18:37:45.478.16-Jul-2020 4198.01 4795.57 79.32 5.00  88.77 2828.58
   18:37:45.677.16-Jul-2020 4198.01 4795.53 79.32 5.00  88.97 2828.58
   18:37:45.877.16-Jul-2020 4198.01 4795.53 79.32 5.00  89.17 2828.58
   18:37:46.077.16-Jul-2020 4198.01 4795.65 79.32 5.00  89.37 2828.58
   18:37:46.277.16-Jul-2020 4198.01 4795.54 79.32 5.00  89.57 2828.58
   18:37:46.477.16-Jul-2020 4198.01 4795.37 79.32 5.00  89.77 2828.58
   18:37:46.677.16-Jul-2020 4198.01 4795.66 79.32 5.00  89.97 2828.58
   18:37:46.877.16-Jul-2020 4198.01 4795.62 79.32 5.00  90.17 2828.58
   18:37:47.077.16-Jul-2020 4198.01 4795.63 79.32 5.00  90.37 2828.58
   18:37:47.277.16-Jul-2020 4198.01 4795.48 79.32 5.00  90.57 2828.58
   18:37:47.477.16-Jul-2020 4198.01 4795.45 79.32 5.00  90.77 2828.58
   18:37:47.677.16-Jul-2020 4198.01 4795.65 79.32 5.00  90.97 2828.58
   18:37:47.877.16-Jul-2020 4198.01 4795.65 79.32 5.00  91.17 2828.58
   18:37:48.077.16-Jul-2020 4198.01 4795.61 79.32 5.00  91.37 2828.58
   18:37:48.276.16-Jul-2020 4198.01 4795.53 79.32 5.00  91.57 2828.58
   18:37:48.476.16-Jul-2020 4198.01 4795.59 79.32 5.00  91.77 2828.58
