~Version Information
 VERS.                  2.0:   CWLS log ASCII Standard -VERSION 2.0
 WRAP.                   NO:   One line per depth step
~Well Information Block
#MNEM.UNIT     VALUE/NAME     DESCRIPTION
#---------     -----------    ---------------------------
 STRT.S             16:55:55 16-Jul-20: START TIME 16:55:55 16-Jul-20
 STOP.S             17:02:47 16-Jul-20: STOP TIME  17:02:47 16-Jul-20
 STEP.S                   0.00: STEP TIME
 NULL.                 -999.25: NULL VALUE
 MDS .        Operator Entered:  MAG DATA SOURCE
 UNIT.                     N/A:  LOGGING EQUIPMENT ID
 DCON.         Sperry Drilling:  DIRECTNL CONTR
 DOE .                     N/A:  DOE NUMBER
 RIG .               EastAzeri:  RIG NAME
 JOBN.        AZ-XX-0906363297:  JOB TICKET NUMB
 MWDS.                    Baku:  MWD SHOP
 SRVC.     Turan Drilling & Engineering:  CONTRACTOR
 PROV.                    Baku:  PROVINCE
 STAT.                    Baku:  STATE NAME
 REGN.                   EESSA:  REGION
 BASE.              Azerbaijan:  LOGGING EQUIPMENT BASE LOCATION
 WTYP.                Deviated:  WELL TYPE
 UWI .                     N/A:  UNIQUE WELL IDENTIFIER
 API .                     N/A:  API NUMBER
 COMP.     BP Exploration (Caspian Sea) ltd.:  COMPANY
 WELL.                    D07z:  WELL NAME
 CTRY.              Azerbaijan:  COUNTRY NAME
 SON .        AZ-XX-0906363297:  JOB NUMBER
 FLD .                     ACG:  FIELD NAME
 PDAT.          Mean Sea Level:  PERMANENT DATUM
 FTOP.          Formation Tops:  FORM TOPS DESC
 ILTD.               Lithology:  INTERP LTH DESC
 SVYD.                  Survey:  SURVEY DESC
 DMOD.             Drill Model:  DRILL MOD DESC
 HPTY.       Minimum Curvature:  HOLE POS TYPE
 NREF.                    Grid:  NORTH REFERENCE
 SPUD.               28-Jun-20:  SPUD DATE
 DATE.      18.27.12 28-Jun-20:  END TIME
 STIM.      18.27.12 28-Jun-20:  START TIME
 DMF .             Drill Floor:  DRILL MEAS FROM
 DFST.                        :  DIST FSL TEXT
 DFWT.                        :  DIST FWL TEXT
 CNTY.                        :  COUNTY
 LOC .                        :  LOCATION
 LMF .             Drill Floor:  LOG MEASURED FROM
 VSNS.m                  -7.75:  VERT SEC N/S
 VSEW.m                  -9.19:  VERT SEC E/W
 MMDE.m                   0.00:  MAGUTM CALC DEP
 AGAP.m                  43.60:  AIR GAP
 DEP .m                4058.99:  DEPTH
 APD .m                  43.60:  DEPTH ABOVE PD
 WDMS.m                 151.80:  WD ELEV
 EGL .m                   0.00:  GROUND ELEVATION
 EPD .m                   0.00:  ELEVATION
 AZTC.deg                 6.19:  AZM TOTAL CORR
 GRDC.deg                 0.27:  GRID CORRECTION
 MDEC.deg                 6.46:  MAGNETIC DECL
 MDIP.deg                59.47:  MAGNETIC DIP
 MFLD.nT              50279.00:  MAGNETIC FIELD
 GVFD.g                   1.00:  GRAVITY FIELD
 VSDR.deg               249.96:  VERT SEC DIRECT
 TDD .m                   0.00:  TOTAL DEPTH (DRILLER)
 SDEP.m                   0.00:  START DEPTH
 DFSL.m                   0.00:  DISTANCE FSL
 DFWL.m                   0.00:  DISTANCE FWL
 UTMY.m             4431880.20:  UTM Y
 UTMX.m              538763.98:  UTM X
 WHEW.m                  -9.19:  WELL HEAD E/W
 WHNS.m                  -7.75:  WELL HEAD N/S
 LONG.deg                51.45:  LONGITUDE
 LATI.deg                40.02:  LATITUDE
 TVDS.m                  43.60:  TVDSS CORRECTN
 EKB .m                  43.60:  KB ELEVATION
 EDF .m                  43.60:  DF ELEVATION
 TDL .m                 248.00:  TOTAL DEPTH (LOGGER)
 MAGU.                 1849075:  MAGUTM CHECKSUM
 VSC .                       0:  VS TO CLOSURE
~Parameter Information Block
#MNEM.UNIT       Value        Description
#---------     -----------    ---------------------------
 AV  .mps                 6.34:  Ann Velocity 
 AVMX.mps                 7.00:  Max Ann Veloc 
 AZIF.deg               260.29:  Azm, Final 
 BHAT.        Rotary Steerable:  BHA Type 
 BROT.°/30m               1.20:  Build Rotating 
 BS  .in                  8.50:  Bit Size 
 BSZ .in                  8.50:  Bit Size 
 BTPL.psig              620.00:  Bit Press Loss 
 CABU.                     Yes:  Customer Abuse 
 COMM.                     3z:  Run Comments 1 
 TCS .hr                 56.22:  Time Ciculation Ended 
 CV  .mps                 3.05:  Crit Velocity 
 CVMX.mps                 3.20:  Max Crit Veloc 
 DD1 .            Musa Ahmadov:  Direct Drillr 1 
 DDSV.                 iCruise:  DD Service 
 DEFF.%                  98.00:  % Det Eff 
 DLRX.°/30m               2.78:  Dogleg Rot Max 
 DLSO.°/30m               0.00:  Dogleg Oriented 
 DLSX.°/30m               0.00:  Dogleg Str Max 
 DRET.      05.20.48 16-Jul-20:  Drill End Time 
 DRST.      10.20.48 13-Jul-20:  Drill Start Tim 
 DTIM.hr                 14.25:  Time Drilling 
 EDEP.m                4326.01:  End Depth 
 ENG1.      Artemiy Matviyanov:  Engineer 1 
 ENG2.           Amrah Tahirov:  Engineer 2 
 ETIM.      22.30.00 18-Jul-20:  End Time 
 FLOI.gpm               550.00:  Flow In 
 FLON.gpm               450.00:  Flow In Min 
 FLOS.cptm                0.00:  Fluid Loss 
 FLOX.gpm               600.00:  Flow In Max 
 HFLO.                      No:  High Flow 
 HPRE.                      No:  High Pressure 
 HTEM.                      No:  High Temp 
 HYDO.m                   1.80:  Hydro Offset 
 IFIN.deg                65.41:  Inc, Final 
 IMAX.deg                65.14:  Inc Max 
 IMIN.deg                58.89:  Inc Min 
 IMND.m                4104.92:  Inc Min Depth 
 IMXD.m                4303.89:  Inc Max Depth 
 JARR.                      No:  Jarring 
 LETM.      10.20.48 17-Jul-20:  Log End Time 
 LOST.hr                     0:  Lost Rig Time 
 LSTM.      10.20.48 13-Jul-20:  Log Start Time 
 MDCL.ppm             37000.00:  Mud Chlorides 
 MDES.     Inversion Oil/Synthetic:  Mud Desc 
 DFD .sg                  1.52:  Mud Density 
 MDMN.sg                  1.52:  Dens Mud Min 
 MDMX.sg                  1.52:  Dens Mud Max 
 MOIL.                   52.70:  Run Mud Oil % 
 MOWR.                   68:32:  Run Mud OWR 
 MSND.                     0.2:  Run Mud Sand % 
 MSOL.                    21.6:  Run Mud Solids% 
 DFV .spqt               79.00:  Mud Viscosity 
 MWOD.in                  6.75:  MWD Tool OD 
 MWSI.                      No:  Serv Intrp, MWD 
 OTIM.hr                114.04:  Time Operating 
 PCON.          Wear / Scratch:  Pad Condition 
 PMAX.psia            11782.92:  Press Op, Max 
 PV  .cP                 49.00:  Mud PV 
 RUN .                     600:  Run Number 
 ROPA.m/hr               20.00:  ROP Avg 
 ROPN.m/hr               15.00:  ROP Min 
 ROPX.m/hr               22.00:  ROP Max 
 RPMA.rpm               120.00:  RPM Surface Avg 
 RPMN.rpm                90.00:  RPM Surface Min 
 RPMX.rpm               140.00:  RPM Surface Max 
 RRUN.                     600:  Rig Run Number 
 SAZI.deg               260.29:  Azm, Start 
 SDEP.m                4078.01:  Start Depth 
 SIDD.                      No:  Serv Intrp, DD 
 SINC.deg                58.89:  Inc, Start 
 SPPA.psig             4560.00:  SPP Avg 
 SPPN.psig             3600.00:  SPP Min 
 SPPX.psig             4800.00:  SPP Max 
 STIM.      10.20.48 13-Jul-20:  Start Time 
 SVCS.                 DD, MWD:  Services 
 SVER.                    9.20:  Sperry Version 
 TDAT.m                4378.01:  Tot Depth Attmp 
 TDDF.                      No:  Trip for DD 
 TDLG.m                 248.00:  Tot Depth Loggd 
 TFF .                      No:  Trip for Fail 
 TQAA.f-kp               18.00:  Torque Abs Avg 
 TQAN.f-kp               15.00:  Torque Abs Min 
 TQAX.f-kp               20.00:  Torque Abs Max 
 TRRT.°/30m               0.70:  Turn Rotating 
 MRT .                    HCIM:  Maximum Recorded Temperature 
 TTMX.degC               86.00:  Max Tool Temp 
 WBMN.klb                 3.00:  WOB Min 
 WOBA.klb                 5.00:  WOB Avg 
 WOBX.klb                 9.00:  WOB Max 
 YP  .lhf2               32.00:  Yield Point 
~Curve Information Block
#MNEM.UNIT                 API CODE     Curve Description
#---------               -----------    ---------------------------
 TIME.HHMMSS            00 000 000 000:  GT Time & Date
 GTDEPTH.m              00 000 000 000:  GT Depth
 GTPQH.psia             00 000 000 000:  GT HR Quartz Pressure
 GTTQ.degC              00 000 000 000:  GT Quartz Temperature
 GTTN.NONE              00 000 000 000:  GT Test Number
 GTET.sec               00 000 000 000:  GT Elapsed Test Time
 GTTVD.m                00 000 000 000:  GT True Vertical Depth
#Other Information
#
#WARRANTY: Halliburton will use its best efforts to furnish customers with 
#accurate information and interpretations that are part of, and incident to, the services 
#provided.  However, Halliburton cannot and does not warrant the accuracy 
#or correctness of such information and interpretations.  Under no circumstances should any 
#such information or interpretation be relied upon as the sole basis for any drilling, 
#completion, production, or financial decision or any procedure involving any risk to the 
#safety of any drilling venture, drilling rig or its crew or any other third party.  The 
#Customer has full responsibility for all drilling, completion and production operation.  
#Halliburton makes no representations or warranties, either expressed or 
#implied, including, but not limited to, the implied warranties of merchantability or fitness 
#for a particular purpose, with respect to the services rendered.  In no event will 
#Halliburton be liable for failure to obtain any particular results or for 
#any damages, including, but not limited to, indirect, special or consequential damages, 
#resulting from the use of any information or interpretation provided by Halliburton.
#
~A           TIME           GTDEPTH  GTPQH  GTTQ  GTTN  GTET   GTTVD  
# ...
   16:57:04.396.16-Jul-2020 4261.01 4635.59 80.08 2.00  69.01 2855.56
   16:57:04.596.16-Jul-2020 4261.01 4635.59 80.08 2.00  69.21 2855.56
   16:57:04.796.16-Jul-2020 4261.01 4635.44 80.08 2.00  69.41 2855.56
   16:57:04.997.16-Jul-2020 4261.01 4635.35 80.08 2.00  69.61 2855.56
   16:57:05.197.16-Jul-2020 4261.01 4635.55 80.08 2.00  69.81 2855.56
   16:57:05.397.16-Jul-2020 4261.01 4635.27 80.08 2.00  70.01 2855.56
   16:57:05.597.16-Jul-2020 4261.01 4635.27 80.08 2.00  70.21 2855.56
   16:57:05.797.16-Jul-2020 4261.01 4635.38 80.08 2.00  70.41 2855.56
   16:57:05.997.16-Jul-2020 4261.01 4635.60 80.08 2.00  70.61 2855.56
   16:57:06.197.16-Jul-2020 4261.01 4635.23 80.08 2.00  70.81 2855.56
   16:57:06.397.16-Jul-2020 4261.01 4635.31 80.08 2.00  71.01 2855.56
   16:57:06.597.16-Jul-2020 4261.01 4635.31 80.08 2.00  71.21 2855.56
   16:57:06.797.16-Jul-2020 4261.01 4635.40 80.08 2.00  71.41 2855.56
   16:57:06.997.16-Jul-2020 4261.01 4635.41 80.08 2.00  71.61 2855.56
   16:57:07.197.16-Jul-2020 4261.01 4635.41 80.08 2.00  71.81 2855.56
   16:57:07.397.16-Jul-2020 4261.01 4635.45 80.08 2.00  72.01 2855.56
   16:57:07.597.16-Jul-2020 4261.01 4635.46 80.08 2.00  72.21 2855.56
   16:57:07.797.16-Jul-2020 4261.01 4635.45 80.08 2.00  72.41 2855.56
   16:57:07.997.16-Jul-2020 4261.01 4635.46 80.08 2.00  72.61 2855.56
   16:57:08.197.16-Jul-2020 4261.01 4635.46 80.08 2.00  72.81 2855.56
   16:57:08.397.16-Jul-2020 4261.01 4635.47 80.08 2.00  73.02 2855.56
   16:57:08.597.16-Jul-2020 4261.01 4635.47 80.08 2.00  73.22 2855.56
   16:57:08.797.16-Jul-2020 4261.01 4635.58 80.08 2.00  73.42 2855.56
   16:57:08.997.16-Jul-2020 4261.01 4635.35 80.08 2.00  73.62 2855.56
   16:57:09.197.16-Jul-2020 4261.01 4635.42 80.08 2.00  73.82 2855.56
   16:57:09.397.16-Jul-2020 4261.01 4635.49 80.08 2.00  74.02 2855.56
   16:57:09.597.16-Jul-2020 4261.01 4635.43 80.08 2.00  74.22 2855.56
   16:57:09.798.16-Jul-2020 4261.01 4635.46 80.08 2.00  74.42 2855.56
   16:57:09.998.16-Jul-2020 4261.01 4635.48 80.08 2.00  74.62 2855.56
   16:57:10.198.16-Jul-2020 4261.01 4635.49 80.08 2.00  74.82 2855.56
   16:57:10.398.16-Jul-2020 4261.01 4635.53 80.08 2.00  75.02 2855.56
   16:57:10.598.16-Jul-2020 4261.01 4635.53 80.08 2.00  75.22 2855.56
   16:57:10.798.16-Jul-2020 4261.01 4635.49 80.08 2.00  75.42 2855.56
   16:57:10.998.16-Jul-2020 4261.01 4635.53 80.08 2.00  75.62 2855.56
   16:57:11.198.16-Jul-2020 4261.01 4635.52 80.08 2.00  75.82 2855.56
   16:57:11.398.16-Jul-2020 4261.01 4635.50 80.08 2.00  76.02 2855.56
   16:57:11.598.16-Jul-2020 4261.01 4635.55 80.08 2.00  76.22 2855.56
   16:57:11.798.16-Jul-2020 4261.01 4635.47 80.08 2.00  76.42 2855.56
   16:57:11.998.16-Jul-2020 4261.01 4635.59 80.08 2.00  76.62 2855.56
   16:57:12.198.16-Jul-2020 4261.01 4635.39 80.08 2.00  76.82 2855.56
   16:57:12.398.16-Jul-2020 4261.01 4635.47 80.08 2.00  77.02 2855.56
   16:57:12.598.16-Jul-2020 4261.01 4635.86 80.08 2.00  77.22 2855.56
   16:57:12.798.16-Jul-2020 4261.01 4635.30 80.08 2.00  77.42 2855.56
   16:57:12.998.16-Jul-2020 4261.01 4635.35 80.08 2.00  77.62 2855.56
   16:57:13.198.16-Jul-2020 4261.01 4635.53 80.08 2.00  77.82 2855.56
   16:57:13.398.16-Jul-2020 4261.01 4635.48 80.08 2.00  78.02 2855.56
   16:57:13.598.16-Jul-2020 4261.01 4635.57 80.08 2.00  78.22 2855.56
   16:57:13.798.16-Jul-2020 4261.01 4635.41 80.08 2.00  78.42 2855.56
   16:57:13.998.16-Jul-2020 4261.01 4635.46 80.08 2.00  78.62 2855.56
   16:57:14.198.16-Jul-2020 4261.01 4635.38 80.08 2.00  78.82 2855.56
   16:57:14.398.16-Jul-2020 4261.01 4635.72 80.08 2.00  79.02 2855.56
   16:57:14.599.16-Jul-2020 4261.01 4635.72 80.08 2.00  79.22 2855.56
   16:57:14.799.16-Jul-2020 4261.01 4635.57 80.08 2.00  79.42 2855.56
   16:57:14.999.16-Jul-2020 4261.01 4635.42 80.08 2.00  79.62 2855.56
   16:57:15.199.16-Jul-2020 4261.01 4635.45 80.08 2.00  79.82 2855.56
   16:57:15.399.16-Jul-2020 4261.01 4635.52 80.08 2.00  80.02 2855.56
   16:57:15.599.16-Jul-2020 4261.01 4635.52 80.08 2.00  80.22 2855.56
   16:57:15.799.16-Jul-2020 4261.01 4635.50 80.08 2.00  80.42 2855.56
   16:57:15.999.16-Jul-2020 4261.01 4635.55 80.08 2.00  80.62 2855.56
   16:57:16.199.16-Jul-2020 4261.01 4635.53 80.08 2.00  80.82 2855.56
   16:57:16.399.16-Jul-2020 4261.01 4635.56 80.08 2.00  81.02 2855.56
   16:57:16.599.16-Jul-2020 4261.01 4635.55 80.08 2.00  81.22 2855.56
   16:57:16.799.16-Jul-2020 4261.01 4635.56 80.08 2.00  81.42 2855.56
   16:57:16.999.16-Jul-2020 4261.01 4635.67 80.08 2.00  81.62 2855.56
   16:57:17.199.16-Jul-2020 4261.01 4635.43 80.08 2.00  81.82 2855.56
   16:57:17.399.16-Jul-2020 4261.01 4635.50 80.08 2.00  82.02 2855.56
   16:57:17.599.16-Jul-2020 4261.01 4635.50 80.08 2.00  82.22 2855.56
   16:57:17.799.16-Jul-2020 4261.01 4635.50 80.08 2.00  82.42 2855.56
   16:57:17.999.16-Jul-2020 4261.01 4635.52 80.08 2.00  82.62 2855.56
   16:57:18.199.16-Jul-2020 4261.01 4635.54 80.08 2.00  82.82 2855.56
   16:57:18.399.16-Jul-2020 4261.01 4635.57 80.08 2.00  83.02 2855.56
   16:57:18.599.16-Jul-2020 4261.01 4635.57 80.08 2.00  83.22 2855.56
   16:57:18.799.16-Jul-2020 4261.01 4635.56 80.08 2.00  83.42 2855.56
   16:57:18.999.16-Jul-2020 4261.01 4635.57 80.08 2.00  83.62 2855.56
   16:57:19.199.16-Jul-2020 4261.01 4635.58 80.08 2.00  83.82 2855.56
   16:57:19.399.16-Jul-2020 4261.01 4635.58 80.08 2.00  84.02 2855.56
   16:57:19.600.16-Jul-2020 4261.01 4635.58 80.08 2.00  84.22 2855.56
   16:57:19.800.16-Jul-2020 4261.01 4635.58 80.08 2.00  84.42 2855.56
   16:57:20.000.16-Jul-2020 4261.01 4635.61 80.08 2.00  84.62 2855.56
   16:57:20.200.16-Jul-2020 4261.01 4635.70 80.08 2.00  84.82 2855.56
   16:57:20.400.16-Jul-2020 4261.01 4635.44 80.08 2.00  85.02 2855.56
   16:57:20.600.16-Jul-2020 4261.01 4635.54 80.08 2.00  85.22 2855.56
   16:57:20.800.16-Jul-2020 4261.01 4635.39 80.08 2.00  85.42 2855.56
   16:57:21.000.16-Jul-2020 4261.01 4635.74 80.08 2.00  85.62 2855.56
   16:57:21.200.16-Jul-2020 4261.01 4635.52 80.08 2.00  85.82 2855.56
   16:57:21.400.16-Jul-2020 4261.01 4635.58 80.08 2.00  86.02 2855.56
   16:57:21.600.16-Jul-2020 4261.01 4635.62 80.08 2.00  86.22 2855.56
   16:57:21.800.16-Jul-2020 4261.01 4635.62 80.08 2.00  86.42 2855.56
   16:57:22.000.16-Jul-2020 4261.01 4635.52 80.08 2.00  86.62 2855.56
   16:57:22.200.16-Jul-2020 4261.01 4635.52 80.08 2.00  86.82 2855.56
   16:57:22.400.16-Jul-2020 4261.01 4635.52 80.08 2.00  87.02 2855.56
   16:57:22.600.16-Jul-2020 4261.01 4635.52 80.08 2.00  87.22 2855.56
   16:57:22.800.16-Jul-2020 4261.01 4635.37 80.08 2.00  87.42 2855.56
   16:57:23.000.16-Jul-2020 4261.01 4635.44 80.08 2.00  87.62 2855.56
   16:57:23.200.16-Jul-2020 4261.01 4635.59 80.08 2.00  87.82 2855.56
   16:57:23.400.16-Jul-2020 4261.01 4635.56 80.08 2.00  88.02 2855.56
   16:57:23.600.16-Jul-2020 4261.01 4635.56 80.08 2.00  88.22 2855.56
   16:57:23.800.16-Jul-2020 4261.01 4635.58 80.08 2.00  88.42 2855.56
   16:57:24.000.16-Jul-2020 4261.01 4635.57 80.08 2.00  88.62 2855.56
   16:57:24.200.16-Jul-2020 4261.01 4635.57 80.08 2.00  88.82 2855.56
   16:57:24.401.16-Jul-2020 4261.01 4635.60 80.08 2.00  89.02 2855.56
   16:57:24.601.16-Jul-2020 4261.01 4635.60 80.08 2.00  89.22 2855.56
   16:57:24.801.16-Jul-2020 4261.01 4635.56 80.08 2.00  89.42 2855.56
   16:57:25.001.16-Jul-2020 4261.01 4635.61 80.08 2.00  89.62 2855.56
   16:57:25.201.16-Jul-2020 4261.01 4635.67 80.08 2.00  89.82 2855.56
   16:57:25.401.16-Jul-2020 4261.01 4635.72 80.08 2.00  90.02 2855.56
   16:57:25.601.16-Jul-2020 4261.01 4635.72 80.08 2.00  90.22 2855.56
   16:57:25.801.16-Jul-2020 4261.01 4635.54 80.08 2.00  90.42 2855.56
   16:57:26.001.16-Jul-2020 4261.01 4635.61 80.08 2.00  90.62 2855.56
   16:57:26.201.16-Jul-2020 4261.01 4635.58 80.08 2.00  90.82 2855.56
   16:57:26.401.16-Jul-2020 4261.01 4635.57 80.08 2.00  91.02 2855.56
   16:57:26.601.16-Jul-2020 4261.01 4635.57 80.08 2.00  91.22 2855.56
   16:57:26.801.16-Jul-2020 4261.01 4635.60 80.08 2.00  91.42 2855.56
   16:57:27.001.16-Jul-2020 4261.01 4635.60 80.08 2.00  91.62 2855.56
   16:57:27.201.16-Jul-2020 4261.01 4635.60 80.08 2.00  91.82 2855.56
