~Version Information
 VERS.                  2.0:   CWLS log ASCII Standard -VERSION 2.0
 WRAP.                   NO:   One line per depth step
~Well Information Block
#MNEM.UNIT     VALUE/NAME     DESCRIPTION
#---------     -----------    ---------------------------
 STRT.S             16:06:05 16-Jul-20: START TIME 16:06:05 16-Jul-20
 STOP.S             16:12:59 16-Jul-20: STOP TIME  16:12:59 16-Jul-20
 STEP.S                   0.00: STEP TIME
 NULL.                 -999.25: NULL VALUE
 MDS .        Operator Entered:  MAG DATA SOURCE
 UNIT.                     N/A:  LOGGING EQUIPMENT ID
 DCON.         Sperry Drilling:  DIRECTNL CONTR
 DOE .                     N/A:  DOE NUMBER
 RIG .               EastAzeri:  RIG NAME
 JOBN.        AZ-XX-0906363297:  JOB TICKET NUMB
 MWDS.                    Baku:  MWD SHOP
 SRVC.     Turan Drilling & Engineering:  CONTRACTOR
 PROV.                    Baku:  PROVINCE
 STAT.                    Baku:  STATE NAME
 REGN.                   EESSA:  REGION
 BASE.              Azerbaijan:  LOGGING EQUIPMENT BASE LOCATION
 WTYP.                Deviated:  WELL TYPE
 UWI .                     N/A:  UNIQUE WELL IDENTIFIER
 API .                     N/A:  API NUMBER
 COMP.     BP Exploration (Caspian Sea) ltd.:  COMPANY
 WELL.                    D07z:  WELL NAME
 CTRY.              Azerbaijan:  COUNTRY NAME
 SON .        AZ-XX-0906363297:  JOB NUMBER
 FLD .                     ACG:  FIELD NAME
 PDAT.          Mean Sea Level:  PERMANENT DATUM
 FTOP.          Formation Tops:  FORM TOPS DESC
 ILTD.               Lithology:  INTERP LTH DESC
 SVYD.                  Survey:  SURVEY DESC
 DMOD.             Drill Model:  DRILL MOD DESC
 HPTY.       Minimum Curvature:  HOLE POS TYPE
 NREF.                    Grid:  NORTH REFERENCE
 SPUD.               28-Jun-20:  SPUD DATE
 DATE.      18.27.12 28-Jun-20:  END TIME
 STIM.      18.27.12 28-Jun-20:  START TIME
 DMF .             Drill Floor:  DRILL MEAS FROM
 DFST.                        :  DIST FSL TEXT
 DFWT.                        :  DIST FWL TEXT
 CNTY.                        :  COUNTY
 LOC .                        :  LOCATION
 LMF .             Drill Floor:  LOG MEASURED FROM
 VSNS.m                  -7.75:  VERT SEC N/S
 VSEW.m                  -9.19:  VERT SEC E/W
 MMDE.m                   0.00:  MAGUTM CALC DEP
 AGAP.m                  43.60:  AIR GAP
 DEP .m                4058.99:  DEPTH
 APD .m                  43.60:  DEPTH ABOVE PD
 WDMS.m                 151.80:  WD ELEV
 EGL .m                   0.00:  GROUND ELEVATION
 EPD .m                   0.00:  ELEVATION
 AZTC.deg                 6.19:  AZM TOTAL CORR
 GRDC.deg                 0.27:  GRID CORRECTION
 MDEC.deg                 6.46:  MAGNETIC DECL
 MDIP.deg                59.47:  MAGNETIC DIP
 MFLD.nT              50279.00:  MAGNETIC FIELD
 GVFD.g                   1.00:  GRAVITY FIELD
 VSDR.deg               249.96:  VERT SEC DIRECT
 TDD .m                   0.00:  TOTAL DEPTH (DRILLER)
 SDEP.m                   0.00:  START DEPTH
 DFSL.m                   0.00:  DISTANCE FSL
 DFWL.m                   0.00:  DISTANCE FWL
 UTMY.m             4431880.20:  UTM Y
 UTMX.m              538763.98:  UTM X
 WHEW.m                  -9.19:  WELL HEAD E/W
 WHNS.m                  -7.75:  WELL HEAD N/S
 LONG.deg                51.45:  LONGITUDE
 LATI.deg                40.02:  LATITUDE
 TVDS.m                  43.60:  TVDSS CORRECTN
 EKB .m                  43.60:  KB ELEVATION
 EDF .m                  43.60:  DF ELEVATION
 TDL .m                 248.00:  TOTAL DEPTH (LOGGER)
 MAGU.                 1849075:  MAGUTM CHECKSUM
 VSC .                       0:  VS TO CLOSURE
~Parameter Information Block
#MNEM.UNIT       Value        Description
#---------     -----------    ---------------------------
 AV  .mps                 6.34:  Ann Velocity 
 AVMX.mps                 7.00:  Max Ann Veloc 
 AZIF.deg               260.29:  Azm, Final 
 BHAT.        Rotary Steerable:  BHA Type 
 BROT.°/30m               1.20:  Build Rotating 
 BS  .in                  8.50:  Bit Size 
 BSZ .in                  8.50:  Bit Size 
 BTPL.psig              620.00:  Bit Press Loss 
 CABU.                     Yes:  Customer Abuse 
 COMM.                     l&q:  Run Comments 1 
 TCS .hr                 56.22:  Time Ciculation Ended 
 CV  .mps                 3.05:  Crit Velocity 
 CVMX.mps                 3.20:  Max Crit Veloc 
 DD1 .            Musa Ahmadov:  Direct Drillr 1 
 DDSV.                 iCruise:  DD Service 
 DEFF.%                  98.00:  % Det Eff 
 DLRX.°/30m               2.78:  Dogleg Rot Max 
 DLSO.°/30m               0.00:  Dogleg Oriented 
 DLSX.°/30m               0.00:  Dogleg Str Max 
 DRET.      05.20.48 16-Jul-20:  Drill End Time 
 DRST.      10.20.48 13-Jul-20:  Drill Start Tim 
 DTIM.hr                 14.25:  Time Drilling 
 EDEP.m                4326.01:  End Depth 
 ENG1.      Artemiy Matviyanov:  Engineer 1 
 ENG2.           Amrah Tahirov:  Engineer 2 
 ETIM.      22.30.00 18-Jul-20:  End Time 
 FLOI.gpm               550.00:  Flow In 
 FLON.gpm               450.00:  Flow In Min 
 FLOS.cptm                0.00:  Fluid Loss 
 FLOX.gpm               600.00:  Flow In Max 
 HFLO.                      No:  High Flow 
 HPRE.                      No:  High Pressure 
 HTEM.                      No:  High Temp 
 HYDO.m                   1.80:  Hydro Offset 
 IFIN.deg                65.41:  Inc, Final 
 IMAX.deg                65.14:  Inc Max 
 IMIN.deg                58.89:  Inc Min 
 IMND.m                4104.92:  Inc Min Depth 
 IMXD.m                4303.89:  Inc Max Depth 
 JARR.                      No:  Jarring 
 LETM.      10.20.48 17-Jul-20:  Log End Time 
 LOST.hr                     0:  Lost Rig Time 
 LSTM.      10.20.48 13-Jul-20:  Log Start Time 
 MDCL.ppm             37000.00:  Mud Chlorides 
 MDES.     Inversion Oil/Synthetic:  Mud Desc 
 DFD .sg                  1.52:  Mud Density 
 MDMN.sg                  1.52:  Dens Mud Min 
 MDMX.sg                  1.52:  Dens Mud Max 
 MOIL.                   52.70:  Run Mud Oil % 
 MOWR.                   68:32:  Run Mud OWR 
 MSND.                     0.2:  Run Mud Sand % 
 MSOL.                    21.6:  Run Mud Solids% 
 DFV .spqt               79.00:  Mud Viscosity 
 MWOD.in                  6.75:  MWD Tool OD 
 MWSI.                      No:  Serv Intrp, MWD 
 OTIM.hr                114.04:  Time Operating 
 PCON.          Wear / Scratch:  Pad Condition 
 PMAX.psia            11782.92:  Press Op, Max 
 PV  .cP                 49.00:  Mud PV 
 RUN .                     600:  Run Number 
 ROPA.m/hr               20.00:  ROP Avg 
 ROPN.m/hr               15.00:  ROP Min 
 ROPX.m/hr               22.00:  ROP Max 
 RPMA.rpm               120.00:  RPM Surface Avg 
 RPMN.rpm                90.00:  RPM Surface Min 
 RPMX.rpm               140.00:  RPM Surface Max 
 RRUN.                     600:  Rig Run Number 
 SAZI.deg               260.29:  Azm, Start 
 SDEP.m                4078.01:  Start Depth 
 SIDD.                      No:  Serv Intrp, DD 
 SINC.deg                58.89:  Inc, Start 
 SPPA.psig             4560.00:  SPP Avg 
 SPPN.psig             3600.00:  SPP Min 
 SPPX.psig             4800.00:  SPP Max 
 STIM.      10.20.48 13-Jul-20:  Start Time 
 SVCS.                 DD, MWD:  Services 
 SVER.                    9.20:  Sperry Version 
 TDAT.m                4378.01:  Tot Depth Attmp 
 TDDF.                      No:  Trip for DD 
 TDLG.m                 248.00:  Tot Depth Loggd 
 TFF .                      No:  Trip for Fail 
 TQAA.f-kp               18.00:  Torque Abs Avg 
 TQAN.f-kp               15.00:  Torque Abs Min 
 TQAX.f-kp               20.00:  Torque Abs Max 
 TRRT.°/30m               0.70:  Turn Rotating 
 MRT .                    HCIM:  Maximum Recorded Temperature 
 TTMX.degC               86.00:  Max Tool Temp 
 WBMN.klb                 3.00:  WOB Min 
 WOBA.klb                 5.00:  WOB Avg 
 WOBX.klb                 9.00:  WOB Max 
 YP  .lhf2               32.00:  Yield Point 
~Curve Information Block
#MNEM.UNIT                 API CODE     Curve Description
#---------               -----------    ---------------------------
 TIME.HHMMSS            00 000 000 000:  GT Time & Date
 GTDEPTH.m              00 000 000 000:  GT Depth
 GTPQH.psia             00 000 000 000:  GT HR Quartz Pressure
 GTTQ.degC              00 000 000 000:  GT Quartz Temperature
 GTTN.NONE              00 000 000 000:  GT Test Number
 GTET.sec               00 000 000 000:  GT Elapsed Test Time
 GTTVD.m                00 000 000 000:  GT True Vertical Depth
#Other Information
#
#WARRANTY: Halliburton will use its best efforts to furnish customers with 
#accurate information and interpretations that are part of, and incident to, the services 
#provided.  However, Halliburton cannot and does not warrant the accuracy 
#or correctness of such information and interpretations.  Under no circumstances should any 
#such information or interpretation be relied upon as the sole basis for any drilling, 
#completion, production, or financial decision or any procedure involving any risk to the 
#safety of any drilling venture, drilling rig or its crew or any other third party.  The 
#Customer has full responsibility for all drilling, completion and production operation.  
#Halliburton makes no representations or warranties, either expressed or 
#implied, including, but not limited to, the implied warranties of merchantability or fitness 
#for a particular purpose, with respect to the services rendered.  In no event will 
#Halliburton be liable for failure to obtain any particular results or for 
#any damages, including, but not limited to, indirect, special or consequential damages, 
#resulting from the use of any information or interpretation provided by Halliburton.
#
~A           TIME           GTDEPTH  GTPQH  GTTQ  GTTN  GTET   GTTVD  
# ...
   16:12:36.847.16-Jul-2020 4280.51 7009.75 80.13 1.00 391.08 2863.78
   16:12:37.047.16-Jul-2020 4280.51 7009.75 80.13 1.00 391.28 2863.78
   16:12:37.247.16-Jul-2020 4280.51 6989.30 80.13 1.00 391.48 2863.78
   16:12:37.447.16-Jul-2020 4280.51 6995.23 80.13 1.00 391.68 2863.78
   16:12:37.647.16-Jul-2020 4280.51 7002.90 80.13 1.00 391.88 2863.78
   16:12:37.847.16-Jul-2020 4280.51 6994.93 80.13 1.00 392.08 2863.78
   16:12:38.048.16-Jul-2020 4280.51 6988.44 80.13 1.00 392.28 2863.78
   16:12:38.248.16-Jul-2020 4280.51 6997.72 80.13 1.00 392.48 2863.78
   16:12:38.448.16-Jul-2020 4280.51 6991.12 80.13 1.00 392.68 2863.78
   16:12:38.648.16-Jul-2020 4280.51 6992.72 80.13 1.00 392.88 2863.78
   16:12:38.848.16-Jul-2020 4280.51 7005.00 80.13 1.00 393.08 2863.78
   16:12:39.048.16-Jul-2020 4280.51 6991.44 80.13 1.00 393.28 2863.78
   16:12:39.248.16-Jul-2020 4280.51 6993.54 80.13 1.00 393.48 2863.78
   16:12:39.448.16-Jul-2020 4280.51 6996.32 80.13 1.00 393.68 2863.78
   16:12:39.648.16-Jul-2020 4280.51 6991.00 80.13 1.00 393.88 2863.78
   16:12:39.848.16-Jul-2020 4280.51 7002.92 80.13 1.00 394.08 2863.78
   16:12:40.048.16-Jul-2020 4280.51 7002.92 80.13 1.00 394.28 2863.78
   16:12:40.248.16-Jul-2020 4280.51 6994.13 80.13 1.00 394.48 2863.78
   16:12:40.448.16-Jul-2020 4280.51 6997.03 80.13 1.00 394.68 2863.78
   16:12:40.648.16-Jul-2020 4280.51 6992.21 80.13 1.00 394.88 2863.78
   16:12:40.848.16-Jul-2020 4280.51 6995.63 80.13 1.00 395.08 2863.78
   16:12:41.048.16-Jul-2020 4280.51 6995.63 80.13 1.00 395.28 2863.78
   16:12:41.248.16-Jul-2020 4280.51 6996.59 80.12 1.00 395.48 2863.78
   16:12:41.448.16-Jul-2020 4280.51 6993.44 80.12 1.00 395.68 2863.78
   16:12:41.648.16-Jul-2020 4280.51 6992.56 80.12 1.00 395.88 2863.78
   16:12:41.848.16-Jul-2020 4280.51 6994.89 80.12 1.00 396.08 2863.78
   16:12:42.048.16-Jul-2020 4280.51 6992.66 80.12 1.00 396.28 2863.78
   16:12:42.248.16-Jul-2020 4280.51 6994.94 80.12 1.00 396.48 2863.78
   16:12:42.448.16-Jul-2020 4280.51 6999.56 80.12 1.00 396.68 2863.78
   16:12:42.648.16-Jul-2020 4280.51 6996.66 80.12 1.00 396.88 2863.78
   16:12:42.848.16-Jul-2020 4280.51 6990.98 80.12 1.00 397.08 2863.78
   16:12:43.049.16-Jul-2020 4280.51 6990.95 80.12 1.00 397.28 2863.78
   16:12:43.249.16-Jul-2020 4280.51 6997.48 80.12 1.00 397.48 2863.78
   16:12:43.449.16-Jul-2020 4280.51 6991.75 80.12 1.00 397.68 2863.78
   16:12:43.649.16-Jul-2020 4280.51 6991.45 80.12 1.00 397.88 2863.78
   16:12:43.849.16-Jul-2020 4280.51 6995.20 80.12 1.00 398.08 2863.78
   16:12:44.049.16-Jul-2020 4280.51 6990.43 80.12 1.00 398.28 2863.78
   16:12:44.249.16-Jul-2020 4280.51 6994.01 80.12 1.00 398.48 2863.78
   16:12:44.449.16-Jul-2020 4280.51 6992.61 80.12 1.00 398.68 2863.78
   16:12:44.649.16-Jul-2020 4280.51 6992.62 80.12 1.00 398.88 2863.78
   16:12:44.849.16-Jul-2020 4280.51 6993.92 80.12 1.00 399.08 2863.78
   16:12:45.049.16-Jul-2020 4280.51 6993.92 80.12 1.00 399.28 2863.78
   16:12:45.249.16-Jul-2020 4280.51 6995.82 80.12 1.00 399.48 2863.78
   16:12:45.449.16-Jul-2020 4280.51 6992.85 80.12 1.00 399.68 2863.78
   16:12:45.649.16-Jul-2020 4280.51 6989.87 80.12 1.00 399.88 2863.78
   16:12:45.849.16-Jul-2020 4280.51 7002.13 80.12 1.00 400.08 2863.78
   16:12:46.049.16-Jul-2020 4280.51 7002.13 80.12 1.00 400.28 2863.78
   16:12:46.249.16-Jul-2020 4280.51 6992.46 80.12 1.00 400.48 2863.78
   16:12:46.449.16-Jul-2020 4280.51 7002.47 80.12 1.00 400.68 2863.78
   16:12:46.649.16-Jul-2020 4280.51 6995.05 80.12 1.00 400.88 2863.78
   16:12:46.849.16-Jul-2020 4280.51 6989.50 80.12 1.00 401.08 2863.78
   16:12:47.049.16-Jul-2020 4280.51 6991.15 80.12 1.00 401.28 2863.78
   16:12:47.249.16-Jul-2020 4280.51 6998.54 80.12 1.00 401.48 2863.78
   16:12:47.449.16-Jul-2020 4280.51 6992.29 80.12 1.00 401.68 2863.78
   16:12:47.649.16-Jul-2020 4280.51 7005.41 80.12 1.00 401.88 2863.78
   16:12:47.850.16-Jul-2020 4280.51 6989.84 80.12 1.00 402.08 2863.78
   16:12:48.050.16-Jul-2020 4280.51 6987.82 80.12 1.00 402.28 2863.78
   16:12:48.250.16-Jul-2020 4280.51 6999.02 80.12 1.00 402.48 2863.78
   16:12:48.450.16-Jul-2020 4280.51 7003.40 80.12 1.00 402.68 2863.78
   16:12:48.650.16-Jul-2020 4280.51 6993.44 80.12 1.00 402.88 2863.78
   16:12:48.850.16-Jul-2020 4280.51 6993.30 80.12 1.00 403.08 2863.78
   16:12:49.050.16-Jul-2020 4280.51 6993.30 80.12 1.00 403.28 2863.78
   16:12:49.250.16-Jul-2020 4280.51 6994.51 80.12 1.00 403.48 2863.78
   16:12:49.450.16-Jul-2020 4280.51 6992.58 80.12 1.00 403.68 2863.78
   16:12:49.650.16-Jul-2020 4280.51 6994.94 80.12 1.00 403.88 2863.78
   16:12:49.850.16-Jul-2020 4280.51 6996.55 80.12 1.00 404.08 2863.78
   16:12:50.050.16-Jul-2020 4280.51 6996.55 80.12 1.00 404.28 2863.78
   16:12:50.250.16-Jul-2020 4280.51 6997.00 80.12 1.00 404.48 2863.78
   16:12:50.450.16-Jul-2020 4280.51 6993.91 80.12 1.00 404.68 2863.78
   16:12:50.650.16-Jul-2020 4280.51 6992.58 80.12 1.00 404.88 2863.78
   16:12:50.850.16-Jul-2020 4280.51 6996.21 80.12 1.00 405.08 2863.78
   16:12:51.050.16-Jul-2020 4280.51 7000.44 80.11 1.00 405.28 2863.78
   16:12:51.250.16-Jul-2020 4280.51 6999.61 80.11 1.00 405.48 2863.78
   16:12:51.450.16-Jul-2020 4280.51 6988.65 80.11 1.00 405.68 2863.78
   16:12:51.650.16-Jul-2020 4280.51 6992.10 80.11 1.00 405.88 2863.78
   16:12:51.850.16-Jul-2020 4280.51 6997.73 80.11 1.00 406.08 2863.78
   16:12:52.050.16-Jul-2020 4280.51 6990.77 80.11 1.00 406.28 2863.78
   16:12:52.250.16-Jul-2020 4280.51 6993.56 80.11 1.00 406.48 2863.78
   16:12:52.450.16-Jul-2020 4280.51 6992.73 80.11 1.00 406.68 2863.78
   16:12:52.651.16-Jul-2020 4280.51 6992.33 80.11 1.00 406.88 2863.78
   16:12:52.851.16-Jul-2020 4280.51 6994.25 80.11 1.00 407.08 2863.78
   16:12:53.051.16-Jul-2020 4280.51 6990.74 80.11 1.00 407.28 2863.78
   16:12:53.251.16-Jul-2020 4280.51 6995.03 80.11 1.00 407.48 2863.78
   16:12:53.451.16-Jul-2020 4280.51 6993.17 80.11 1.00 407.68 2863.78
   16:12:53.651.16-Jul-2020 4280.51 6992.30 80.11 1.00 407.88 2863.78
   16:12:53.851.16-Jul-2020 4280.51 6993.36 80.11 1.00 408.08 2863.78
   16:12:54.051.16-Jul-2020 4280.51 6991.67 80.11 1.00 408.28 2863.78
   16:12:54.251.16-Jul-2020 4280.51 6995.71 80.11 1.00 408.48 2863.78
   16:12:54.451.16-Jul-2020 4280.51 7001.05 80.11 1.00 408.68 2863.78
   16:12:54.651.16-Jul-2020 4280.51 6992.29 80.11 1.00 408.88 2863.78
   16:12:54.851.16-Jul-2020 4280.51 6992.74 80.11 1.00 409.08 2863.78
   16:12:55.051.16-Jul-2020 4280.51 6992.74 80.11 1.00 409.28 2863.78
   16:12:55.251.16-Jul-2020 4280.51 6998.86 80.11 1.00 409.48 2863.78
   16:12:55.451.16-Jul-2020 4280.51 6988.40 80.11 1.00 409.68 2863.78
   16:12:55.651.16-Jul-2020 4280.51 6992.89 80.11 1.00 409.88 2863.78
   16:12:55.851.16-Jul-2020 4280.51 6997.46 80.11 1.00 410.08 2863.78
   16:12:56.051.16-Jul-2020 4280.51 6992.66 80.11 1.00 410.28 2863.78
   16:12:56.251.16-Jul-2020 4280.51 7004.58 80.11 1.00 410.48 2863.78
   16:12:56.451.16-Jul-2020 4280.51 6993.23 80.11 1.00 410.68 2863.78
   16:12:56.651.16-Jul-2020 4280.51 6990.19 80.11 1.00 410.88 2863.78
   16:12:56.851.16-Jul-2020 4280.51 7011.91 80.11 1.00 411.08 2863.78
   16:12:57.051.16-Jul-2020 4280.51 6991.39 80.11 1.00 411.28 2863.78
   16:12:57.251.16-Jul-2020 4280.51 6991.67 80.11 1.00 411.48 2863.78
   16:12:57.451.16-Jul-2020 4280.51 6998.78 80.11 1.00 411.68 2863.78
   16:12:57.652.16-Jul-2020 4280.51 6992.55 80.11 1.00 411.88 2863.78
   16:12:57.852.16-Jul-2020 4280.51 6994.77 80.11 1.00 412.08 2863.78
   16:12:58.052.16-Jul-2020 4280.51 6994.77 80.11 1.00 412.28 2863.78
   16:12:58.252.16-Jul-2020 4280.51 6996.80 80.11 1.00 412.48 2863.78
   16:12:58.452.16-Jul-2020 4280.51 6993.66 80.11 1.00 412.68 2863.78
   16:12:58.652.16-Jul-2020 4280.51 6994.39 80.11 1.00 412.88 2863.78
   16:12:58.852.16-Jul-2020 4280.51 6996.27 80.11 1.00 413.09 2863.78
   16:12:59.052.16-Jul-2020 4280.51 6996.27 80.11 1.00 413.29 2863.78
   16:12:59.252.16-Jul-2020 4280.51 6994.04 80.11 1.00 413.49 2863.78
   16:12:59.452.16-Jul-2020 4280.51 6992.89 80.11 1.00 413.69 2863.78
   16:12:59.652.16-Jul-2020 4280.51 7002.99 80.11 1.00 413.89 2863.78
