~Version Information
 VERS.                  2.0:   CWLS log ASCII Standard -VERSION 2.0
 WRAP.                   NO:   One line per depth step
~Well Information Block
#MNEM.UNIT     VALUE/NAME     DESCRIPTION
#---------     -----------    ---------------------------
 STRT.S             17:56:46 16-Jul-20: START TIME 17:56:46 16-Jul-20
 STOP.S             18:03:39 16-Jul-20: STOP TIME  18:03:39 16-Jul-20
 STEP.S                   0.00: STEP TIME
 NULL.                 -999.25: NULL VALUE
 MDS .        Operator Entered:  MAG DATA SOURCE
 UNIT.                     N/A:  LOGGING EQUIPMENT ID
 DCON.         Sperry Drilling:  DIRECTNL CONTR
 DOE .                     N/A:  DOE NUMBER
 RIG .               EastAzeri:  RIG NAME
 JOBN.        AZ-XX-0906363297:  JOB TICKET NUMB
 MWDS.                    Baku:  MWD SHOP
 SRVC.     Turan Drilling & Engineering:  CONTRACTOR
 PROV.                    Baku:  PROVINCE
 STAT.                    Baku:  STATE NAME
 REGN.                   EESSA:  REGION
 BASE.              Azerbaijan:  LOGGING EQUIPMENT BASE LOCATION
 WTYP.                Deviated:  WELL TYPE
 UWI .                     N/A:  UNIQUE WELL IDENTIFIER
 API .                     N/A:  API NUMBER
 COMP.     BP Exploration (Caspian Sea) ltd.:  COMPANY
 WELL.                    D07z:  WELL NAME
 CTRY.              Azerbaijan:  COUNTRY NAME
 SON .        AZ-XX-0906363297:  JOB NUMBER
 FLD .                     ACG:  FIELD NAME
 PDAT.          Mean Sea Level:  PERMANENT DATUM
 FTOP.          Formation Tops:  FORM TOPS DESC
 ILTD.               Lithology:  INTERP LTH DESC
 SVYD.                  Survey:  SURVEY DESC
 DMOD.             Drill Model:  DRILL MOD DESC
 HPTY.       Minimum Curvature:  HOLE POS TYPE
 NREF.                    Grid:  NORTH REFERENCE
 SPUD.               28-Jun-20:  SPUD DATE
 DATE.      18.27.12 28-Jun-20:  END TIME
 STIM.      18.27.12 28-Jun-20:  START TIME
 DMF .             Drill Floor:  DRILL MEAS FROM
 DFST.                        :  DIST FSL TEXT
 DFWT.                        :  DIST FWL TEXT
 CNTY.                        :  COUNTY
 LOC .                        :  LOCATION
 LMF .             Drill Floor:  LOG MEASURED FROM
 VSNS.m                  -7.75:  VERT SEC N/S
 VSEW.m                  -9.19:  VERT SEC E/W
 MMDE.m                   0.00:  MAGUTM CALC DEP
 AGAP.m                  43.60:  AIR GAP
 DEP .m                4058.99:  DEPTH
 APD .m                  43.60:  DEPTH ABOVE PD
 WDMS.m                 151.80:  WD ELEV
 EGL .m                   0.00:  GROUND ELEVATION
 EPD .m                   0.00:  ELEVATION
 AZTC.deg                 6.19:  AZM TOTAL CORR
 GRDC.deg                 0.27:  GRID CORRECTION
 MDEC.deg                 6.46:  MAGNETIC DECL
 MDIP.deg                59.47:  MAGNETIC DIP
 MFLD.nT              50279.00:  MAGNETIC FIELD
 GVFD.g                   1.00:  GRAVITY FIELD
 VSDR.deg               249.96:  VERT SEC DIRECT
 TDD .m                   0.00:  TOTAL DEPTH (DRILLER)
 SDEP.m                   0.00:  START DEPTH
 DFSL.m                   0.00:  DISTANCE FSL
 DFWL.m                   0.00:  DISTANCE FWL
 UTMY.m             4431880.20:  UTM Y
 UTMX.m              538763.98:  UTM X
 WHEW.m                  -9.19:  WELL HEAD E/W
 WHNS.m                  -7.75:  WELL HEAD N/S
 LONG.deg                51.45:  LONGITUDE
 LATI.deg                40.02:  LATITUDE
 TVDS.m                  43.60:  TVDSS CORRECTN
 EKB .m                  43.60:  KB ELEVATION
 EDF .m                  43.60:  DF ELEVATION
 TDL .m                 248.00:  TOTAL DEPTH (LOGGER)
 MAGU.                 1849075:  MAGUTM CHECKSUM
 VSC .                       0:  VS TO CLOSURE
~Parameter Information Block
#MNEM.UNIT       Value        Description
#---------     -----------    ---------------------------
 AV  .mps                 6.34:  Ann Velocity 
 AVMX.mps                 7.00:  Max Ann Veloc 
 AZIF.deg               260.29:  Azm, Final 
 BHAT.        Rotary Steerable:  BHA Type 
 BROT.°/30m               1.20:  Build Rotating 
 BS  .in                  8.50:  Bit Size 
 BSZ .in                  8.50:  Bit Size 
 BTPL.psig              620.00:  Bit Press Loss 
 CABU.                     Yes:  Customer Abuse 
 COMM.                     LqT:  Run Comments 1 
 TCS .hr                 56.22:  Time Ciculation Ended 
 CV  .mps                 3.05:  Crit Velocity 
 CVMX.mps                 3.20:  Max Crit Veloc 
 DD1 .            Musa Ahmadov:  Direct Drillr 1 
 DDSV.                 iCruise:  DD Service 
 DEFF.%                  98.00:  % Det Eff 
 DLRX.°/30m               2.78:  Dogleg Rot Max 
 DLSO.°/30m               0.00:  Dogleg Oriented 
 DLSX.°/30m               0.00:  Dogleg Str Max 
 DRET.      05.20.48 16-Jul-20:  Drill End Time 
 DRST.      10.20.48 13-Jul-20:  Drill Start Tim 
 DTIM.hr                 14.25:  Time Drilling 
 EDEP.m                4326.01:  End Depth 
 ENG1.      Artemiy Matviyanov:  Engineer 1 
 ENG2.           Amrah Tahirov:  Engineer 2 
 ETIM.      22.30.00 18-Jul-20:  End Time 
 FLOI.gpm               550.00:  Flow In 
 FLON.gpm               450.00:  Flow In Min 
 FLOS.cptm                0.00:  Fluid Loss 
 FLOX.gpm               600.00:  Flow In Max 
 HFLO.                      No:  High Flow 
 HPRE.                      No:  High Pressure 
 HTEM.                      No:  High Temp 
 HYDO.m                   1.80:  Hydro Offset 
 IFIN.deg                65.41:  Inc, Final 
 IMAX.deg                65.14:  Inc Max 
 IMIN.deg                58.89:  Inc Min 
 IMND.m                4104.92:  Inc Min Depth 
 IMXD.m                4303.89:  Inc Max Depth 
 JARR.                      No:  Jarring 
 LETM.      10.20.48 17-Jul-20:  Log End Time 
 LOST.hr                     0:  Lost Rig Time 
 LSTM.      10.20.48 13-Jul-20:  Log Start Time 
 MDCL.ppm             37000.00:  Mud Chlorides 
 MDES.     Inversion Oil/Synthetic:  Mud Desc 
 DFD .sg                  1.52:  Mud Density 
 MDMN.sg                  1.52:  Dens Mud Min 
 MDMX.sg                  1.52:  Dens Mud Max 
 MOIL.                   52.70:  Run Mud Oil % 
 MOWR.                   68:32:  Run Mud OWR 
 MSND.                     0.2:  Run Mud Sand % 
 MSOL.                    21.6:  Run Mud Solids% 
 DFV .spqt               79.00:  Mud Viscosity 
 MWOD.in                  6.75:  MWD Tool OD 
 MWSI.                      No:  Serv Intrp, MWD 
 OTIM.hr                114.04:  Time Operating 
 PCON.          Wear / Scratch:  Pad Condition 
 PMAX.psia            11782.92:  Press Op, Max 
 PV  .cP                 49.00:  Mud PV 
 RUN .                     600:  Run Number 
 ROPA.m/hr               20.00:  ROP Avg 
 ROPN.m/hr               15.00:  ROP Min 
 ROPX.m/hr               22.00:  ROP Max 
 RPMA.rpm               120.00:  RPM Surface Avg 
 RPMN.rpm                90.00:  RPM Surface Min 
 RPMX.rpm               140.00:  RPM Surface Max 
 RRUN.                     600:  Rig Run Number 
 SAZI.deg               260.29:  Azm, Start 
 SDEP.m                4078.01:  Start Depth 
 SIDD.                      No:  Serv Intrp, DD 
 SINC.deg                58.89:  Inc, Start 
 SPPA.psig             4560.00:  SPP Avg 
 SPPN.psig             3600.00:  SPP Min 
 SPPX.psig             4800.00:  SPP Max 
 STIM.      10.20.48 13-Jul-20:  Start Time 
 SVCS.                 DD, MWD:  Services 
 SVER.                    9.20:  Sperry Version 
 TDAT.m                4378.01:  Tot Depth Attmp 
 TDDF.                      No:  Trip for DD 
 TDLG.m                 248.00:  Tot Depth Loggd 
 TFF .                      No:  Trip for Fail 
 TQAA.f-kp               18.00:  Torque Abs Avg 
 TQAN.f-kp               15.00:  Torque Abs Min 
 TQAX.f-kp               20.00:  Torque Abs Max 
 TRRT.°/30m               0.70:  Turn Rotating 
 MRT .                    HCIM:  Maximum Recorded Temperature 
 TTMX.degC               86.00:  Max Tool Temp 
 WBMN.klb                 3.00:  WOB Min 
 WOBA.klb                 5.00:  WOB Avg 
 WOBX.klb                 9.00:  WOB Max 
 YP  .lhf2               32.00:  Yield Point 
~Curve Information Block
#MNEM.UNIT                 API CODE     Curve Description
#---------               -----------    ---------------------------
 TIME.HHMMSS            00 000 000 000:  GT Time & Date
 GTDEPTH.m              00 000 000 000:  GT Depth
 GTPQH.psia             00 000 000 000:  GT HR Quartz Pressure
 GTTQ.degC              00 000 000 000:  GT Quartz Temperature
 GTTN.NONE              00 000 000 000:  GT Test Number
 GTET.sec               00 000 000 000:  GT Elapsed Test Time
 GTTVD.m                00 000 000 000:  GT True Vertical Depth
#Other Information
#
#WARRANTY: Halliburton will use its best efforts to furnish customers with 
#accurate information and interpretations that are part of, and incident to, the services 
#provided.  However, Halliburton cannot and does not warrant the accuracy 
#or correctness of such information and interpretations.  Under no circumstances should any 
#such information or interpretation be relied upon as the sole basis for any drilling, 
#completion, production, or financial decision or any procedure involving any risk to the 
#safety of any drilling venture, drilling rig or its crew or any other third party.  The 
#Customer has full responsibility for all drilling, completion and production operation.  
#Halliburton makes no representations or warranties, either expressed or 
#implied, including, but not limited to, the implied warranties of merchantability or fitness 
#for a particular purpose, with respect to the services rendered.  In no event will 
#Halliburton be liable for failure to obtain any particular results or for 
#any damages, including, but not limited to, indirect, special or consequential damages, 
#resulting from the use of any information or interpretation provided by Halliburton.
#
~A           TIME           GTDEPTH  GTPQH  GTTQ  GTTN  GTET   GTTVD  
# ...
   17:58:41.340.16-Jul-2020 4229.01 4706.21 79.74 4.00 115.05 2841.98
   17:58:41.540.16-Jul-2020 4229.01 4706.23 79.74 4.00 115.25 2841.98
   17:58:41.740.16-Jul-2020 4229.01 4706.19 79.74 4.00 115.45 2841.98
   17:58:41.940.16-Jul-2020 4229.01 4706.24 79.74 4.00 115.65 2841.98
   17:58:42.140.16-Jul-2020 4229.01 4706.20 79.74 4.00 115.85 2841.98
   17:58:42.340.16-Jul-2020 4229.01 4706.23 79.74 4.00 116.05 2841.98
   17:58:42.540.16-Jul-2020 4229.01 4706.18 79.74 4.00 116.25 2841.98
   17:58:42.741.16-Jul-2020 4229.01 4706.24 79.74 4.00 116.45 2841.98
   17:58:42.941.16-Jul-2020 4229.01 4706.22 79.74 4.00 116.65 2841.98
   17:58:43.141.16-Jul-2020 4229.01 4706.23 79.74 4.00 116.85 2841.98
   17:58:43.341.16-Jul-2020 4229.01 4706.23 79.74 4.00 117.05 2841.98
   17:58:43.541.16-Jul-2020 4229.01 4706.23 79.74 4.00 117.25 2841.98
   17:58:43.741.16-Jul-2020 4229.01 4706.16 79.74 4.00 117.45 2841.98
   17:58:43.941.16-Jul-2020 4229.01 4706.22 79.74 4.00 117.65 2841.98
   17:58:44.141.16-Jul-2020 4229.01 4706.28 79.74 4.00 117.85 2841.98
   17:58:44.341.16-Jul-2020 4229.01 4706.20 79.74 4.00 118.05 2841.98
   17:58:44.541.16-Jul-2020 4229.01 4706.20 79.74 4.00 118.25 2841.98
   17:58:44.741.16-Jul-2020 4229.01 4706.01 79.74 4.00 118.45 2841.98
   17:58:44.942.16-Jul-2020 4229.01 4706.27 79.74 4.00 118.65 2841.98
   17:58:45.142.16-Jul-2020 4229.01 4706.20 79.74 4.00 118.85 2841.98
   17:58:45.342.16-Jul-2020 4229.01 4706.20 79.74 4.00 119.05 2841.98
   17:58:45.542.16-Jul-2020 4229.01 4706.20 79.74 4.00 119.25 2841.98
   17:58:45.742.16-Jul-2020 4229.01 4706.03 79.74 4.00 119.45 2841.98
   17:58:45.942.16-Jul-2020 4229.01 4706.29 79.74 4.00 119.65 2841.98
   17:58:46.142.16-Jul-2020 4229.01 4706.15 79.74 4.00 119.85 2841.98
   17:58:46.342.16-Jul-2020 4229.01 4706.17 79.74 4.00 120.05 2841.98
   17:58:46.542.16-Jul-2020 4229.01 4706.14 79.74 4.00 120.25 2841.98
   17:58:46.742.16-Jul-2020 4229.01 4706.20 79.74 4.00 120.45 2841.98
   17:58:46.942.16-Jul-2020 4229.01 4706.30 79.74 4.00 120.65 2841.98
   17:58:47.143.16-Jul-2020 4229.01 4706.15 79.74 4.00 120.85 2841.98
   17:58:47.343.16-Jul-2020 4229.01 4706.22 79.74 4.00 121.05 2841.98
   17:58:47.543.16-Jul-2020 4229.01 4706.22 79.74 4.00 121.25 2841.98
   17:58:47.743.16-Jul-2020 4229.01 4706.21 79.74 4.00 121.45 2841.98
   17:58:47.943.16-Jul-2020 4229.01 4706.21 79.74 4.00 121.65 2841.98
   17:58:48.143.16-Jul-2020 4229.01 4706.22 79.74 4.00 121.85 2841.98
   17:58:48.343.16-Jul-2020 4229.01 4706.21 79.74 4.00 122.05 2841.98
   17:58:48.543.16-Jul-2020 4229.01 4706.21 79.74 4.00 122.25 2841.98
   17:58:48.743.16-Jul-2020 4229.01 4706.23 79.74 4.00 122.45 2841.98
   17:58:48.943.16-Jul-2020 4229.01 4706.22 79.74 4.00 122.65 2841.98
   17:58:49.143.16-Jul-2020 4229.01 4706.41 79.74 4.00 122.85 2841.98
   17:58:49.343.16-Jul-2020 4229.01 4706.03 79.74 4.00 123.05 2841.98
   17:58:49.544.16-Jul-2020 4229.01 4706.03 79.74 4.00 123.25 2841.98
   17:58:49.744.16-Jul-2020 4229.01 4706.20 79.74 4.00 123.45 2841.98
   17:58:49.944.16-Jul-2020 4229.01 4706.16 79.74 4.00 123.65 2841.98
   17:58:50.144.16-Jul-2020 4229.01 4706.19 79.74 4.00 123.85 2841.98
   17:58:50.344.16-Jul-2020 4229.01 4706.18 79.74 4.00 124.06 2841.98
   17:58:50.544.16-Jul-2020 4229.01 4706.22 79.74 4.00 124.26 2841.98
   17:58:50.744.16-Jul-2020 4229.01 4706.21 79.74 4.00 124.46 2841.98
   17:58:50.944.16-Jul-2020 4229.01 4706.23 79.74 4.00 124.66 2841.98
   17:58:51.144.16-Jul-2020 4229.01 4706.21 79.74 4.00 124.86 2841.98
   17:58:51.344.16-Jul-2020 4229.01 4706.20 79.74 4.00 125.06 2841.98
   17:58:51.544.16-Jul-2020 4229.01 4706.20 79.74 4.00 125.26 2841.98
   17:58:51.745.16-Jul-2020 4229.01 4706.22 79.74 4.00 125.46 2841.98
   17:58:51.945.16-Jul-2020 4229.01 4706.24 79.74 4.00 125.66 2841.98
   17:58:52.145.16-Jul-2020 4229.01 4706.20 79.74 4.00 125.86 2841.98
   17:58:52.345.16-Jul-2020 4229.01 4706.49 79.74 4.00 126.06 2841.98
   17:58:52.545.16-Jul-2020 4229.01 4706.49 79.74 4.00 126.26 2841.98
   17:58:52.745.16-Jul-2020 4229.01 4706.26 79.74 4.00 126.46 2841.98
   17:58:52.945.16-Jul-2020 4229.01 4706.19 79.74 4.00 126.66 2841.98
   17:58:53.145.16-Jul-2020 4229.01 4706.38 79.74 4.00 126.86 2841.98
   17:58:53.345.16-Jul-2020 4229.01 4706.04 79.74 4.00 127.06 2841.98
   17:58:53.545.16-Jul-2020 4229.01 4706.04 79.74 4.00 127.26 2841.98
   17:58:53.745.16-Jul-2020 4229.01 4706.16 79.74 4.00 127.46 2841.98
   17:58:53.946.16-Jul-2020 4229.01 4706.23 79.74 4.00 127.66 2841.98
   17:58:54.146.16-Jul-2020 4229.01 4706.33 79.74 4.00 127.86 2841.98
   17:58:54.346.16-Jul-2020 4229.01 4706.08 79.74 4.00 128.06 2841.98
   17:58:54.546.16-Jul-2020 4229.01 4706.25 79.74 4.00 128.26 2841.98
   17:58:54.746.16-Jul-2020 4229.01 4706.15 79.74 4.00 128.46 2841.98
   17:58:54.946.16-Jul-2020 4229.01 4706.21 79.74 4.00 128.66 2841.98
   17:58:55.146.16-Jul-2020 4229.01 4706.38 79.74 4.00 128.86 2841.98
   17:58:55.346.16-Jul-2020 4229.01 4706.03 79.74 4.00 129.06 2841.98
   17:58:55.546.16-Jul-2020 4229.01 4706.03 79.74 4.00 129.26 2841.98
   17:58:55.746.16-Jul-2020 4229.01 4706.14 79.74 4.00 129.46 2841.98
   17:58:55.946.16-Jul-2020 4229.01 4706.19 79.74 4.00 129.66 2841.98
   17:58:56.147.16-Jul-2020 4229.01 4706.16 79.74 4.00 129.86 2841.98
   17:58:56.347.16-Jul-2020 4229.01 4706.23 79.74 4.00 130.06 2841.98
   17:58:56.547.16-Jul-2020 4229.01 4706.23 79.74 4.00 130.26 2841.98
   17:58:56.747.16-Jul-2020 4229.01 4706.17 79.74 4.00 130.46 2841.98
   17:58:56.947.16-Jul-2020 4229.01 4706.21 79.74 4.00 130.66 2841.98
   17:58:57.147.16-Jul-2020 4229.01 4706.22 79.74 4.00 130.86 2841.98
   17:58:57.347.16-Jul-2020 4229.01 4706.21 79.74 4.00 131.06 2841.98
   17:58:57.547.16-Jul-2020 4229.01 4706.21 79.74 4.00 131.26 2841.98
   17:58:57.747.16-Jul-2020 4229.01 4706.38 79.74 4.00 131.46 2841.98
   17:58:57.947.16-Jul-2020 4229.01 4706.10 79.74 4.00 131.66 2841.98
   17:58:58.147.16-Jul-2020 4229.01 4706.22 79.74 4.00 131.86 2841.98
   17:58:58.347.16-Jul-2020 4229.01 4706.13 79.74 4.00 132.06 2841.98
   17:58:58.548.16-Jul-2020 4229.01 4706.23 79.74 4.00 132.26 2841.98
   17:58:58.748.16-Jul-2020 4229.01 4706.20 79.74 4.00 132.46 2841.98
   17:58:58.948.16-Jul-2020 4229.01 4706.19 79.74 4.00 132.66 2841.98
   17:58:59.148.16-Jul-2020 4229.01 4706.21 79.74 4.00 132.86 2841.98
   17:58:59.348.16-Jul-2020 4229.01 4706.21 79.74 4.00 133.06 2841.98
   17:58:59.548.16-Jul-2020 4229.01 4706.21 79.74 4.00 133.26 2841.98
   17:58:59.748.16-Jul-2020 4229.01 4706.22 79.74 4.00 133.46 2841.98
   17:58:59.948.16-Jul-2020 4229.01 4706.21 79.74 4.00 133.66 2841.98
   17:59:00.148.16-Jul-2020 4229.01 4706.22 79.74 4.00 133.86 2841.98
   17:59:00.348.16-Jul-2020 4229.01 4706.19 79.74 4.00 134.06 2841.98
   17:59:00.548.16-Jul-2020 4229.01 4706.19 79.74 4.00 134.26 2841.98
   17:59:00.749.16-Jul-2020 4229.01 4706.21 79.74 4.00 134.46 2841.98
   17:59:00.949.16-Jul-2020 4229.01 4706.41 79.74 4.00 134.66 2841.98
   17:59:01.149.16-Jul-2020 4229.01 4706.10 79.74 4.00 134.86 2841.98
   17:59:01.349.16-Jul-2020 4229.01 4706.21 79.74 4.00 135.06 2841.98
   17:59:01.549.16-Jul-2020 4229.01 4706.21 79.74 4.00 135.26 2841.98
   17:59:01.749.16-Jul-2020 4229.01 4706.17 79.74 4.00 135.46 2841.98
   17:59:01.949.16-Jul-2020 4229.01 4706.15 79.74 4.00 135.66 2841.98
   17:59:02.149.16-Jul-2020 4229.01 4706.24 79.74 4.00 135.86 2841.98
   17:59:02.349.16-Jul-2020 4229.01 4706.22 79.74 4.00 136.06 2841.98
   17:59:02.549.16-Jul-2020 4229.01 4706.24 79.74 4.00 136.26 2841.98
   17:59:02.749.16-Jul-2020 4229.01 4706.12 79.74 4.00 136.46 2841.98
   17:59:02.950.16-Jul-2020 4229.01 4706.24 79.74 4.00 136.66 2841.98
   17:59:03.150.16-Jul-2020 4229.01 4706.23 79.74 4.00 136.86 2841.98
   17:59:03.350.16-Jul-2020 4229.01 4706.22 79.74 4.00 137.06 2841.98
   17:59:03.550.16-Jul-2020 4229.01 4706.23 79.74 4.00 137.26 2841.98
   17:59:03.750.16-Jul-2020 4229.01 4706.34 79.74 4.00 137.46 2841.98
   17:59:03.950.16-Jul-2020 4229.01 4706.12 79.74 4.00 137.66 2841.98
   17:59:04.150.16-Jul-2020 4229.01 4706.25 79.74 4.00 137.86 2841.98
