~Version Information
 VERS.                  2.0:   CWLS log ASCII Standard -VERSION 2.0
 WRAP.                   NO:   One line per depth step
~Well Information Block
#MNEM.UNIT     VALUE/NAME     DESCRIPTION
#---------     -----------    ---------------------------
 STRT.S             22:12:50 16-Jul-20: START TIME 22:12:50 16-Jul-20
 STOP.S             22:19:40 16-Jul-20: STOP TIME  22:19:40 16-Jul-20
 STEP.S                   0.00: STEP TIME
 NULL.                 -999.25: NULL VALUE
 MDS .        Operator Entered:  MAG DATA SOURCE
 UNIT.                     N/A:  LOGGING EQUIPMENT ID
 DCON.         Sperry Drilling:  DIRECTNL CONTR
 DOE .                     N/A:  DOE NUMBER
 RIG .               EastAzeri:  RIG NAME
 JOBN.        AZ-XX-0906363297:  JOB TICKET NUMB
 MWDS.                    Baku:  MWD SHOP
 SRVC.     Turan Drilling & Engineering:  CONTRACTOR
 PROV.                    Baku:  PROVINCE
 STAT.                    Baku:  STATE NAME
 REGN.                   EESSA:  REGION
 BASE.              Azerbaijan:  LOGGING EQUIPMENT BASE LOCATION
 WTYP.                Deviated:  WELL TYPE
 UWI .                     N/A:  UNIQUE WELL IDENTIFIER
 API .                     N/A:  API NUMBER
 COMP.     BP Exploration (Caspian Sea) ltd.:  COMPANY
 WELL.                    D07z:  WELL NAME
 CTRY.              Azerbaijan:  COUNTRY NAME
 SON .        AZ-XX-0906363297:  JOB NUMBER
 FLD .                     ACG:  FIELD NAME
 PDAT.          Mean Sea Level:  PERMANENT DATUM
 FTOP.          Formation Tops:  FORM TOPS DESC
 ILTD.               Lithology:  INTERP LTH DESC
 SVYD.                  Survey:  SURVEY DESC
 DMOD.             Drill Model:  DRILL MOD DESC
 HPTY.       Minimum Curvature:  HOLE POS TYPE
 NREF.                    Grid:  NORTH REFERENCE
 SPUD.               28-Jun-20:  SPUD DATE
 DATE.      18.27.12 28-Jun-20:  END TIME
 STIM.      18.27.12 28-Jun-20:  START TIME
 DMF .             Drill Floor:  DRILL MEAS FROM
 DFST.                        :  DIST FSL TEXT
 DFWT.                        :  DIST FWL TEXT
 CNTY.                        :  COUNTY
 LOC .                        :  LOCATION
 LMF .             Drill Floor:  LOG MEASURED FROM
 VSNS.m                  -7.75:  VERT SEC N/S
 VSEW.m                  -9.19:  VERT SEC E/W
 MMDE.m                   0.00:  MAGUTM CALC DEP
 AGAP.m                  43.60:  AIR GAP
 DEP .m                4058.99:  DEPTH
 APD .m                  43.60:  DEPTH ABOVE PD
 WDMS.m                 151.80:  WD ELEV
 EGL .m                   0.00:  GROUND ELEVATION
 EPD .m                   0.00:  ELEVATION
 AZTC.deg                 6.19:  AZM TOTAL CORR
 GRDC.deg                 0.27:  GRID CORRECTION
 MDEC.deg                 6.46:  MAGNETIC DECL
 MDIP.deg                59.47:  MAGNETIC DIP
 MFLD.nT              50279.00:  MAGNETIC FIELD
 GVFD.g                   1.00:  GRAVITY FIELD
 VSDR.deg               249.96:  VERT SEC DIRECT
 TDD .m                   0.00:  TOTAL DEPTH (DRILLER)
 SDEP.m                   0.00:  START DEPTH
 DFSL.m                   0.00:  DISTANCE FSL
 DFWL.m                   0.00:  DISTANCE FWL
 UTMY.m             4431880.20:  UTM Y
 UTMX.m              538763.98:  UTM X
 WHEW.m                  -9.19:  WELL HEAD E/W
 WHNS.m                  -7.75:  WELL HEAD N/S
 LONG.deg                51.45:  LONGITUDE
 LATI.deg                40.02:  LATITUDE
 TVDS.m                  43.60:  TVDSS CORRECTN
 EKB .m                  43.60:  KB ELEVATION
 EDF .m                  43.60:  DF ELEVATION
 TDL .m                 248.00:  TOTAL DEPTH (LOGGER)
 MAGU.                 1849075:  MAGUTM CHECKSUM
 VSC .                       0:  VS TO CLOSURE
~Parameter Information Block
#MNEM.UNIT       Value        Description
#---------     -----------    ---------------------------
 AV  .mps                 6.34:  Ann Velocity 
 AVMX.mps                 7.00:  Max Ann Veloc 
 AZIF.deg               260.29:  Azm, Final 
 BHAT.        Rotary Steerable:  BHA Type 
 BROT.°/30m               1.20:  Build Rotating 
 BS  .in                  8.50:  Bit Size 
 BSZ .in                  8.50:  Bit Size 
 BTPL.psig              620.00:  Bit Press Loss 
 CABU.                     Yes:  Customer Abuse 
 TCS .hr                 56.22:  Time Ciculation Ended 
 CV  .mps                 3.05:  Crit Velocity 
 CVMX.mps                 3.20:  Max Crit Veloc 
 DD1 .            Musa Ahmadov:  Direct Drillr 1 
 DDSV.                 iCruise:  DD Service 
 DEFF.%                  98.00:  % Det Eff 
 DLRX.°/30m               2.78:  Dogleg Rot Max 
 DLSO.°/30m               0.00:  Dogleg Oriented 
 DLSX.°/30m               0.00:  Dogleg Str Max 
 DRET.      05.20.48 16-Jul-20:  Drill End Time 
 DRST.      10.20.48 13-Jul-20:  Drill Start Tim 
 DTIM.hr                 14.25:  Time Drilling 
 EDEP.m                4326.01:  End Depth 
 ENG1.      Artemiy Matviyanov:  Engineer 1 
 ENG2.           Amrah Tahirov:  Engineer 2 
 ETIM.      22.30.00 18-Jul-20:  End Time 
 FLOI.gpm               550.00:  Flow In 
 FLON.gpm               450.00:  Flow In Min 
 FLOS.cptm                0.00:  Fluid Loss 
 FLOX.gpm               600.00:  Flow In Max 
 HFLO.                      No:  High Flow 
 HPRE.                      No:  High Pressure 
 HTEM.                      No:  High Temp 
 HYDO.m                   1.80:  Hydro Offset 
 IFIN.deg                65.41:  Inc, Final 
 IMAX.deg                65.14:  Inc Max 
 IMIN.deg                58.89:  Inc Min 
 IMND.m                4104.92:  Inc Min Depth 
 IMXD.m                4303.89:  Inc Max Depth 
 JARR.                      No:  Jarring 
 LETM.      10.20.48 17-Jul-20:  Log End Time 
 LOST.hr                     0:  Lost Rig Time 
 LSTM.      10.20.48 13-Jul-20:  Log Start Time 
 MDCL.ppm             37000.00:  Mud Chlorides 
 MDES.     Inversion Oil/Synthetic:  Mud Desc 
 DFD .sg                  1.52:  Mud Density 
 MDMN.sg                  1.52:  Dens Mud Min 
 MDMX.sg                  1.52:  Dens Mud Max 
 MOIL.                   52.70:  Run Mud Oil % 
 MOWR.                   68:32:  Run Mud OWR 
 MSND.                     0.2:  Run Mud Sand % 
 MSOL.                    21.6:  Run Mud Solids% 
 DFV .spqt               79.00:  Mud Viscosity 
 MWOD.in                  6.75:  MWD Tool OD 
 MWSI.                      No:  Serv Intrp, MWD 
 OTIM.hr                114.04:  Time Operating 
 PCON.          Wear / Scratch:  Pad Condition 
 PMAX.psia            11782.92:  Press Op, Max 
 PV  .cP                 49.00:  Mud PV 
 RUN .                     600:  Run Number 
 ROPA.m/hr               20.00:  ROP Avg 
 ROPN.m/hr               15.00:  ROP Min 
 ROPX.m/hr               22.00:  ROP Max 
 RPMA.rpm               120.00:  RPM Surface Avg 
 RPMN.rpm                90.00:  RPM Surface Min 
 RPMX.rpm               140.00:  RPM Surface Max 
 RRUN.                     600:  Rig Run Number 
 SAZI.deg               260.29:  Azm, Start 
 SDEP.m                4078.01:  Start Depth 
 SIDD.                      No:  Serv Intrp, DD 
 SINC.deg                58.89:  Inc, Start 
 SPPA.psig             4560.00:  SPP Avg 
 SPPN.psig             3600.00:  SPP Min 
 SPPX.psig             4800.00:  SPP Max 
 STIM.      10.20.48 13-Jul-20:  Start Time 
 SVCS.                 DD, MWD:  Services 
 SVER.                    9.20:  Sperry Version 
 TDAT.m                4378.01:  Tot Depth Attmp 
 TDDF.                      No:  Trip for DD 
 TDLG.m                 248.00:  Tot Depth Loggd 
 TFF .                      No:  Trip for Fail 
 TQAA.f-kp               18.00:  Torque Abs Avg 
 TQAN.f-kp               15.00:  Torque Abs Min 
 TQAX.f-kp               20.00:  Torque Abs Max 
 TRRT.°/30m               0.70:  Turn Rotating 
 MRT .                    HCIM:  Maximum Recorded Temperature 
 TTMX.degC               86.00:  Max Tool Temp 
 WBMN.klb                 3.00:  WOB Min 
 WOBA.klb                 5.00:  WOB Avg 
 WOBX.klb                 9.00:  WOB Max 
 YP  .lhf2               32.00:  Yield Point 
~Curve Information Block
#MNEM.UNIT                 API CODE     Curve Description
#---------               -----------    ---------------------------
 TIME.HHMMSS            00 000 000 000:  GT Time & Date
 GTDEPTH.m              00 000 000 000:  GT Depth
 GTPQH.psia             00 000 000 000:  GT HR Quartz Pressure
 GTTQ.degC              00 000 000 000:  GT Quartz Temperature
 GTTN.NONE              00 000 000 000:  GT Test Number
 GTET.sec               00 000 000 000:  GT Elapsed Test Time
 GTTVD.m                00 000 000 000:  GT True Vertical Depth
#Other Information
#
#WARRANTY: Halliburton will use its best efforts to furnish customers with 
#accurate information and interpretations that are part of, and incident to, the services 
#provided.  However, Halliburton cannot and does not warrant the accuracy 
#or correctness of such information and interpretations.  Under no circumstances should any 
#such information or interpretation be relied upon as the sole basis for any drilling, 
#completion, production, or financial decision or any procedure involving any risk to the 
#safety of any drilling venture, drilling rig or its crew or any other third party.  The 
#Customer has full responsibility for all drilling, completion and production operation.  
#Halliburton makes no representations or warranties, either expressed or 
#implied, including, but not limited to, the implied warranties of merchantability or fitness 
#for a particular purpose, with respect to the services rendered.  In no event will 
#Halliburton be liable for failure to obtain any particular results or for 
#any damages, including, but not limited to, indirect, special or consequential damages, 
#resulting from the use of any information or interpretation provided by Halliburton.
#
~A           TIME           GTDEPTH  GTPQH  GTTQ  GTTN  GTET   GTTVD  
# ...
   22:13:13.304.16-Jul-2020 4093.01 6800.76 76.44 8.00  23.01 2778.38
   22:13:13.504.16-Jul-2020 4093.01 6800.76 76.44 8.00  23.21 2778.38
   22:13:13.704.16-Jul-2020 4093.01 6801.02 76.44 8.00  23.41 2778.38
   22:13:13.904.16-Jul-2020 4093.01 6802.28 76.44 8.00  23.61 2778.38
   22:13:14.104.16-Jul-2020 4093.01 6802.50 76.44 8.00  23.81 2778.38
   22:13:14.304.16-Jul-2020 4093.01 6802.28 76.44 8.00  24.01 2778.38
   22:13:14.504.16-Jul-2020 4093.01 6813.28 76.44 8.00  24.21 2778.38
   22:13:14.704.16-Jul-2020 4093.01 6800.99 76.44 8.00  24.41 2778.38
   22:13:14.904.16-Jul-2020 4093.01 6802.39 76.44 8.00  24.61 2778.38
   22:13:15.104.16-Jul-2020 4093.01 6804.43 76.44 8.00  24.81 2778.38
   22:13:15.304.16-Jul-2020 4093.01 6802.66 76.44 8.00  25.01 2778.38
   22:13:15.504.16-Jul-2020 4093.01 6802.66 76.44 8.00  25.21 2778.38
   22:13:15.704.16-Jul-2020 4093.01 6803.20 76.44 8.00  25.41 2778.38
   22:13:15.905.16-Jul-2020 4093.01 6803.69 76.44 8.00  25.61 2778.38
   22:13:16.105.16-Jul-2020 4093.01 6802.82 76.44 8.00  25.81 2778.38
   22:13:16.305.16-Jul-2020 4093.01 6803.59 76.44 8.00  26.01 2778.38
   22:13:16.505.16-Jul-2020 4093.01 6803.59 76.44 8.00  26.21 2778.38
   22:13:16.705.16-Jul-2020 4093.01 6804.01 76.44 8.00  26.41 2778.38
   22:13:16.905.16-Jul-2020 4093.01 6803.94 76.44 8.00  26.61 2778.38
   22:13:17.105.16-Jul-2020 4093.01 6804.64 76.44 8.00  26.81 2778.38
   22:13:17.305.16-Jul-2020 4093.01 6803.77 76.44 8.00  27.01 2778.38
   22:13:17.505.16-Jul-2020 4093.01 6804.43 76.44 8.00  27.21 2778.38
   22:13:17.705.16-Jul-2020 4093.01 6815.05 76.44 8.00  27.41 2778.38
   22:13:17.905.16-Jul-2020 4093.01 6803.52 76.44 8.00  27.61 2778.38
   22:13:18.105.16-Jul-2020 4093.01 6803.89 76.44 8.00  27.81 2778.38
   22:13:18.305.16-Jul-2020 4093.01 6805.91 76.44 8.00  28.01 2778.38
   22:13:18.505.16-Jul-2020 4093.01 6805.91 76.44 8.00  28.21 2778.38
   22:13:18.706.16-Jul-2020 4093.01 6815.35 76.44 8.00  28.41 2778.38
   22:13:18.906.16-Jul-2020 4093.01 6804.00 76.44 8.00  28.61 2778.38
   22:13:19.106.16-Jul-2020 4093.01 6804.16 76.44 8.00  28.81 2778.38
   22:13:19.306.16-Jul-2020 4093.01 6807.54 76.44 8.00  29.01 2778.38
   22:13:19.506.16-Jul-2020 4093.01 6807.54 76.44 8.00  29.21 2778.38
   22:13:19.706.16-Jul-2020 4093.01 6804.66 76.44 8.00  29.41 2778.38
   22:13:19.906.16-Jul-2020 4093.01 6806.47 76.44 8.00  29.61 2778.38
   22:13:20.106.16-Jul-2020 4093.01 6811.12 76.44 8.00  29.81 2778.38
   22:13:20.306.16-Jul-2020 4093.01 7096.71 76.44 8.00  30.01 2778.38
   22:13:20.506.16-Jul-2020 4093.01 7096.71 76.44 8.00  30.21 2778.38
   22:13:20.706.16-Jul-2020 4093.01 7074.55 76.44 8.00  30.41 2778.38
   22:13:20.906.16-Jul-2020 4093.01 7042.97 76.44 8.00  30.61 2778.38
   22:13:21.106.16-Jul-2020 4093.01 7034.70 76.44 8.00  30.81 2778.38
   22:13:21.307.16-Jul-2020 4093.01 7029.67 76.44 8.00  31.01 2778.38
   22:13:21.507.16-Jul-2020 4093.01 7029.67 76.44 8.00  31.21 2778.38
   22:13:21.707.16-Jul-2020 4093.01 6987.70 76.44 8.00  31.41 2778.38
   22:13:21.907.16-Jul-2020 4093.01 6966.27 76.44 8.00  31.61 2778.38
   22:13:22.107.16-Jul-2020 4093.01 6935.65 76.44 8.00  31.81 2778.38
   22:13:22.307.16-Jul-2020 4093.01 6899.18 76.44 8.00  32.01 2778.38
   22:13:22.507.16-Jul-2020 4093.01 6899.18 76.44 8.00  32.21 2778.38
   22:13:22.707.16-Jul-2020 4093.01 6822.39 76.44 8.00  32.41 2778.38
   22:13:22.907.16-Jul-2020 4093.01 6790.56 76.44 8.00  32.61 2778.38
   22:13:23.107.16-Jul-2020 4093.01 6785.28 76.44 8.00  32.81 2778.38
   22:13:23.307.16-Jul-2020 4093.01 6789.47 76.44 8.00  33.01 2778.38
   22:13:23.507.16-Jul-2020 4093.01 6789.47 76.44 8.00  33.21 2778.38
   22:13:23.707.16-Jul-2020 4093.01 6783.41 76.44 8.00  33.41 2778.38
   22:13:23.908.16-Jul-2020 4093.01 6778.24 76.44 8.00  33.61 2778.38
   22:13:24.108.16-Jul-2020 4093.01 6774.31 76.44 8.00  33.81 2778.38
   22:13:24.308.16-Jul-2020 4093.01 6770.86 76.44 8.00  34.01 2778.38
   22:13:24.508.16-Jul-2020 4093.01 6770.86 76.44 8.00  34.21 2778.38
   22:13:24.708.16-Jul-2020 4093.01 6768.74 76.44 8.00  34.41 2778.38
   22:13:24.908.16-Jul-2020 4093.01 6768.49 76.44 8.00  34.61 2778.38
   22:13:25.108.16-Jul-2020 4093.01 6767.10 76.44 8.00  34.81 2778.38
   22:13:25.308.16-Jul-2020 4093.01 6766.49 76.44 8.00  35.01 2778.38
   22:13:25.508.16-Jul-2020 4093.01 6765.56 76.44 8.00  35.21 2778.38
   22:13:25.708.16-Jul-2020 4093.01 6768.24 76.44 8.00  35.41 2778.38
   22:13:25.908.16-Jul-2020 4093.01 6580.46 76.44 8.00  35.61 2778.38
   22:13:26.108.16-Jul-2020 4093.01 5780.32 76.44 8.00  35.81 2778.38
   22:13:26.308.16-Jul-2020 4093.01 4935.53 76.44 8.00  36.01 2778.38
   22:13:26.509.16-Jul-2020 4093.01 4662.78 76.44 8.00  36.21 2778.38
   22:13:26.709.16-Jul-2020 4093.01 4640.89 76.44 8.00  36.41 2778.38
   22:13:26.909.16-Jul-2020 4093.01 4636.86 76.44 8.00  36.61 2778.38
   22:13:27.109.16-Jul-2020 4093.01 4636.42 76.43 8.00  36.81 2778.38
   22:13:27.309.16-Jul-2020 4093.01 6766.49 76.44 8.00  37.01 2778.38
   22:13:27.509.16-Jul-2020 4093.01 4635.04 76.43 8.00  37.21 2778.38
   22:13:27.709.16-Jul-2020 4093.01 4635.04 76.43 8.00  37.41 2778.38
   22:13:27.909.16-Jul-2020 4093.01 4635.04 76.43 8.00  37.61 2778.38
   22:13:28.109.16-Jul-2020 4093.01 4629.18 76.43 8.00  37.81 2778.38
   22:13:28.309.16-Jul-2020 4093.01 4628.83 76.42 8.00  38.01 2778.38
   22:13:28.509.16-Jul-2020 4093.01 4626.41 76.42 8.00  38.21 2778.38
   22:13:28.709.16-Jul-2020 4093.01 4625.27 76.42 8.00  38.41 2778.38
   22:13:28.909.16-Jul-2020 4093.01 4626.02 76.42 8.00  38.61 2778.38
   22:13:29.109.16-Jul-2020 4093.01 4620.65 76.41 8.00  38.81 2778.38
   22:13:29.310.16-Jul-2020 4093.01 4619.09 76.41 8.00  39.01 2778.38
   22:13:29.510.16-Jul-2020 4093.01 4620.78 76.41 8.00  39.21 2778.38
   22:13:29.710.16-Jul-2020 4093.01 4620.36 76.41 8.00  39.41 2778.38
   22:13:29.910.16-Jul-2020 4093.01 4614.54 76.40 8.00  39.61 2778.38
   22:13:30.110.16-Jul-2020 4093.01 4613.77 76.40 8.00  39.82 2778.38
   22:13:30.310.16-Jul-2020 4093.01 4612.02 76.40 8.00  40.02 2778.38
   22:13:30.510.16-Jul-2020 4093.01 4611.54 76.40 8.00  40.22 2778.38
   22:13:30.710.16-Jul-2020 4093.01 4613.82 76.39 8.00  40.42 2778.38
   22:13:30.910.16-Jul-2020 4093.01 4615.50 76.39 8.00  40.62 2778.38
   22:13:31.110.16-Jul-2020 4093.01 4614.95 76.39 8.00  40.82 2778.38
   22:13:31.310.16-Jul-2020 4093.01 4608.76 76.39 8.00  41.02 2778.38
   22:13:31.510.16-Jul-2020 4093.01 4608.76 76.39 8.00  41.22 2778.38
   22:13:31.710.16-Jul-2020 4093.01 4606.87 76.38 8.00  41.42 2778.38
   22:13:31.911.16-Jul-2020 4093.01 4606.63 76.38 8.00  41.62 2778.38
   22:13:32.111.16-Jul-2020 4093.01 4609.78 76.38 8.00  41.82 2778.38
   22:13:32.311.16-Jul-2020 4093.01 4609.46 76.38 8.00  42.02 2778.38
   22:13:32.511.16-Jul-2020 4093.01 4609.46 76.38 8.00  42.22 2778.38
   22:13:32.711.16-Jul-2020 4093.01 4607.21 76.37 8.00  42.42 2778.38
   22:13:32.911.16-Jul-2020 4093.01 4611.26 76.37 8.00  42.62 2778.38
   22:13:33.111.16-Jul-2020 4093.01 4613.15 76.37 8.00  42.82 2778.38
   22:13:33.311.16-Jul-2020 4093.01 4607.93 76.37 8.00  43.02 2778.38
   22:13:33.511.16-Jul-2020 4093.01 4607.93 76.37 8.00  43.22 2778.38
   22:13:33.711.16-Jul-2020 4093.01 4608.45 76.37 8.00  43.42 2778.38
   22:13:33.911.16-Jul-2020 4093.01 4605.40 76.37 8.00  43.62 2778.38
   22:13:34.111.16-Jul-2020 4093.01 4602.71 76.36 8.00  43.82 2778.38
   22:13:34.311.16-Jul-2020 4093.01 4605.94 76.36 8.00  44.02 2778.38
   22:13:34.512.16-Jul-2020 4093.01 4605.58 76.36 8.00  44.22 2778.38
   22:13:34.712.16-Jul-2020 4093.01 4603.62 76.36 8.00  44.42 2778.38
   22:13:34.912.16-Jul-2020 4093.01 4606.73 76.36 8.00  44.62 2778.38
   22:13:35.112.16-Jul-2020 4093.01 4606.13 76.36 8.00  44.82 2778.38
   22:13:35.312.16-Jul-2020 4093.01 4605.84 76.36 8.00  45.02 2778.38
   22:13:35.512.16-Jul-2020 4093.01 4605.84 76.36 8.00  45.22 2778.38
   22:13:35.712.16-Jul-2020 4093.01 4633.83 76.36 8.00  45.42 2778.38
   22:13:35.912.16-Jul-2020 4093.01 4652.37 76.36 8.00  45.62 2778.38
   22:13:36.112.16-Jul-2020 4093.01 4652.43 76.36 8.00  45.82 2778.38
