~Version Information
 VERS.                  2.0:   CWLS log ASCII Standard -VERSION 2.0
 WRAP.                   NO:   One line per depth step
~Well Information Block
#MNEM.UNIT     VALUE/NAME     DESCRIPTION
#---------     -----------    ---------------------------
 STRT.S             22:12:50 16-Jul-20: START TIME 22:12:50 16-Jul-20
 STOP.S             22:19:40 16-Jul-20: STOP TIME  22:19:40 16-Jul-20
 STEP.S                   0.00: STEP TIME
 NULL.                 -999.25: NULL VALUE
 MDS .        Operator Entered:  MAG DATA SOURCE
 UNIT.                     N/A:  LOGGING EQUIPMENT ID
 DCON.         Sperry Drilling:  DIRECTNL CONTR
 DOE .                     N/A:  DOE NUMBER
 RIG .               EastAzeri:  RIG NAME
 JOBN.        AZ-XX-0906363297:  JOB TICKET NUMB
 MWDS.                    Baku:  MWD SHOP
 SRVC.     Turan Drilling & Engineering:  CONTRACTOR
 PROV.                    Baku:  PROVINCE
 STAT.                    Baku:  STATE NAME
 REGN.                   EESSA:  REGION
 BASE.              Azerbaijan:  LOGGING EQUIPMENT BASE LOCATION
 WTYP.                Deviated:  WELL TYPE
 UWI .                     N/A:  UNIQUE WELL IDENTIFIER
 API .                     N/A:  API NUMBER
 COMP.     BP Exploration (Caspian Sea) ltd.:  COMPANY
 WELL.                    D07z:  WELL NAME
 CTRY.              Azerbaijan:  COUNTRY NAME
 SON .        AZ-XX-0906363297:  JOB NUMBER
 FLD .                     ACG:  FIELD NAME
 PDAT.          Mean Sea Level:  PERMANENT DATUM
 FTOP.          Formation Tops:  FORM TOPS DESC
 ILTD.               Lithology:  INTERP LTH DESC
 SVYD.                  Survey:  SURVEY DESC
 DMOD.             Drill Model:  DRILL MOD DESC
 HPTY.       Minimum Curvature:  HOLE POS TYPE
 NREF.                    Grid:  NORTH REFERENCE
 SPUD.               28-Jun-20:  SPUD DATE
 DATE.      18.27.12 28-Jun-20:  END TIME
 STIM.      18.27.12 28-Jun-20:  START TIME
 DMF .             Drill Floor:  DRILL MEAS FROM
 DFST.                        :  DIST FSL TEXT
 DFWT.                        :  DIST FWL TEXT
 CNTY.                        :  COUNTY
 LOC .                        :  LOCATION
 LMF .             Drill Floor:  LOG MEASURED FROM
 VSNS.m                  -7.75:  VERT SEC N/S
 VSEW.m                  -9.19:  VERT SEC E/W
 MMDE.m                   0.00:  MAGUTM CALC DEP
 AGAP.m                  43.60:  AIR GAP
 DEP .m                4058.99:  DEPTH
 APD .m                  43.60:  DEPTH ABOVE PD
 WDMS.m                 151.80:  WD ELEV
 EGL .m                   0.00:  GROUND ELEVATION
 EPD .m                   0.00:  ELEVATION
 AZTC.deg                 6.19:  AZM TOTAL CORR
 GRDC.deg                 0.27:  GRID CORRECTION
 MDEC.deg                 6.46:  MAGNETIC DECL
 MDIP.deg                59.47:  MAGNETIC DIP
 MFLD.nT              50279.00:  MAGNETIC FIELD
 GVFD.g                   1.00:  GRAVITY FIELD
 VSDR.deg               249.96:  VERT SEC DIRECT
 TDD .m                   0.00:  TOTAL DEPTH (DRILLER)
 SDEP.m                   0.00:  START DEPTH
 DFSL.m                   0.00:  DISTANCE FSL
 DFWL.m                   0.00:  DISTANCE FWL
 UTMY.m             4431880.20:  UTM Y
 UTMX.m              538763.98:  UTM X
 WHEW.m                  -9.19:  WELL HEAD E/W
 WHNS.m                  -7.75:  WELL HEAD N/S
 LONG.deg                51.45:  LONGITUDE
 LATI.deg                40.02:  LATITUDE
 TVDS.m                  43.60:  TVDSS CORRECTN
 EKB .m                  43.60:  KB ELEVATION
 EDF .m                  43.60:  DF ELEVATION
 TDL .m                 248.00:  TOTAL DEPTH (LOGGER)
 MAGU.                 1849075:  MAGUTM CHECKSUM
 VSC .                       0:  VS TO CLOSURE
~Parameter Information Block
#MNEM.UNIT       Value        Description
#---------     -----------    ---------------------------
 AV  .mps                 6.34:  Ann Velocity 
 AVMX.mps                 7.00:  Max Ann Veloc 
 AZIF.deg               260.29:  Azm, Final 
 BHAT.        Rotary Steerable:  BHA Type 
 BROT.°/30m               1.20:  Build Rotating 
 BS  .in                  8.50:  Bit Size 
 BSZ .in                  8.50:  Bit Size 
 BTPL.psig              620.00:  Bit Press Loss 
 CABU.                     Yes:  Customer Abuse 
 TCS .hr                 56.22:  Time Ciculation Ended 
 CV  .mps                 3.05:  Crit Velocity 
 CVMX.mps                 3.20:  Max Crit Veloc 
 DD1 .            Musa Ahmadov:  Direct Drillr 1 
 DDSV.                 iCruise:  DD Service 
 DEFF.%                  98.00:  % Det Eff 
 DLRX.°/30m               2.78:  Dogleg Rot Max 
 DLSO.°/30m               0.00:  Dogleg Oriented 
 DLSX.°/30m               0.00:  Dogleg Str Max 
 DRET.      05.20.48 16-Jul-20:  Drill End Time 
 DRST.      10.20.48 13-Jul-20:  Drill Start Tim 
 DTIM.hr                 14.25:  Time Drilling 
 EDEP.m                4326.01:  End Depth 
 ENG1.      Artemiy Matviyanov:  Engineer 1 
 ENG2.           Amrah Tahirov:  Engineer 2 
 ETIM.      22.30.00 18-Jul-20:  End Time 
 FLOI.gpm               550.00:  Flow In 
 FLON.gpm               450.00:  Flow In Min 
 FLOS.cptm                0.00:  Fluid Loss 
 FLOX.gpm               600.00:  Flow In Max 
 HFLO.                      No:  High Flow 
 HPRE.                      No:  High Pressure 
 HTEM.                      No:  High Temp 
 HYDO.m                   1.80:  Hydro Offset 
 IFIN.deg                65.41:  Inc, Final 
 IMAX.deg                65.14:  Inc Max 
 IMIN.deg                58.89:  Inc Min 
 IMND.m                4104.92:  Inc Min Depth 
 IMXD.m                4303.89:  Inc Max Depth 
 JARR.                      No:  Jarring 
 LETM.      10.20.48 17-Jul-20:  Log End Time 
 LOST.hr                     0:  Lost Rig Time 
 LSTM.      10.20.48 13-Jul-20:  Log Start Time 
 MDCL.ppm             37000.00:  Mud Chlorides 
 MDES.     Inversion Oil/Synthetic:  Mud Desc 
 DFD .sg                  1.52:  Mud Density 
 MDMN.sg                  1.52:  Dens Mud Min 
 MDMX.sg                  1.52:  Dens Mud Max 
 MOIL.                   52.70:  Run Mud Oil % 
 MOWR.                   68:32:  Run Mud OWR 
 MSND.                     0.2:  Run Mud Sand % 
 MSOL.                    21.6:  Run Mud Solids% 
 DFV .spqt               79.00:  Mud Viscosity 
 MWOD.in                  6.75:  MWD Tool OD 
 MWSI.                      No:  Serv Intrp, MWD 
 OTIM.hr                114.04:  Time Operating 
 PCON.          Wear / Scratch:  Pad Condition 
 PMAX.psia            11782.92:  Press Op, Max 
 PV  .cP                 49.00:  Mud PV 
 RUN .                     600:  Run Number 
 ROPA.m/hr               20.00:  ROP Avg 
 ROPN.m/hr               15.00:  ROP Min 
 ROPX.m/hr               22.00:  ROP Max 
 RPMA.rpm               120.00:  RPM Surface Avg 
 RPMN.rpm                90.00:  RPM Surface Min 
 RPMX.rpm               140.00:  RPM Surface Max 
 RRUN.                     600:  Rig Run Number 
 SAZI.deg               260.29:  Azm, Start 
 SDEP.m                4078.01:  Start Depth 
 SIDD.                      No:  Serv Intrp, DD 
 SINC.deg                58.89:  Inc, Start 
 SPPA.psig             4560.00:  SPP Avg 
 SPPN.psig             3600.00:  SPP Min 
 SPPX.psig             4800.00:  SPP Max 
 STIM.      10.20.48 13-Jul-20:  Start Time 
 SVCS.                 DD, MWD:  Services 
 SVER.                    9.20:  Sperry Version 
 TDAT.m                4378.01:  Tot Depth Attmp 
 TDDF.                      No:  Trip for DD 
 TDLG.m                 248.00:  Tot Depth Loggd 
 TFF .                      No:  Trip for Fail 
 TQAA.f-kp               18.00:  Torque Abs Avg 
 TQAN.f-kp               15.00:  Torque Abs Min 
 TQAX.f-kp               20.00:  Torque Abs Max 
 TRRT.°/30m               0.70:  Turn Rotating 
 MRT .                    HCIM:  Maximum Recorded Temperature 
 TTMX.degC               86.00:  Max Tool Temp 
 WBMN.klb                 3.00:  WOB Min 
 WOBA.klb                 5.00:  WOB Avg 
 WOBX.klb                 9.00:  WOB Max 
 YP  .lhf2               32.00:  Yield Point 
~Curve Information Block
#MNEM.UNIT                 API CODE     Curve Description
#---------               -----------    ---------------------------
 TIME.HHMMSS            00 000 000 000:  GT Time & Date
 GTDEPTH.m              00 000 000 000:  GT Depth
 GTPQH.psia             00 000 000 000:  GT HR Quartz Pressure
 GTTQ.degC              00 000 000 000:  GT Quartz Temperature
 GTTN.NONE              00 000 000 000:  GT Test Number
 GTET.sec               00 000 000 000:  GT Elapsed Test Time
 GTTVD.m                00 000 000 000:  GT True Vertical Depth
#Other Information
#
#WARRANTY: Halliburton will use its best efforts to furnish customers with 
#accurate information and interpretations that are part of, and incident to, the services 
#provided.  However, Halliburton cannot and does not warrant the accuracy 
#or correctness of such information and interpretations.  Under no circumstances should any 
#such information or interpretation be relied upon as the sole basis for any drilling, 
#completion, production, or financial decision or any procedure involving any risk to the 
#safety of any drilling venture, drilling rig or its crew or any other third party.  The 
#Customer has full responsibility for all drilling, completion and production operation.  
#Halliburton makes no representations or warranties, either expressed or 
#implied, including, but not limited to, the implied warranties of merchantability or fitness 
#for a particular purpose, with respect to the services rendered.  In no event will 
#Halliburton be liable for failure to obtain any particular results or for 
#any damages, including, but not limited to, indirect, special or consequential damages, 
#resulting from the use of any information or interpretation provided by Halliburton.
#
~A           TIME           GTDEPTH  GTPQH  GTTQ  GTTN  GTET   GTTVD  
# ...
   22:17:26.399.16-Jul-2020 4093.01 4652.81 76.39 8.00 276.10 2778.38
   22:17:26.599.16-Jul-2020 4093.01 4652.81 76.39 8.00 276.30 2778.38
   22:17:26.799.16-Jul-2020 4093.01 4652.81 76.39 8.00 276.50 2778.38
   22:17:26.999.16-Jul-2020 4093.01 4652.80 76.39 8.00 276.70 2778.38
   22:17:27.199.16-Jul-2020 4093.01 4652.80 76.39 8.00 276.90 2778.38
   22:17:27.399.16-Jul-2020 4093.01 4652.80 76.39 8.00 277.10 2778.38
   22:17:27.599.16-Jul-2020 4093.01 4652.80 76.39 8.00 277.30 2778.38
   22:17:27.800.16-Jul-2020 4093.01 4652.81 76.39 8.00 277.50 2778.38
   22:17:28.000.16-Jul-2020 4093.01 4652.89 76.39 8.00 277.70 2778.38
   22:17:28.200.16-Jul-2020 4093.01 4652.76 76.39 8.00 277.90 2778.38
   22:17:28.400.16-Jul-2020 4093.01 4652.80 76.39 8.00 278.10 2778.38
   22:17:28.600.16-Jul-2020 4093.01 4652.82 76.39 8.00 278.30 2778.38
   22:17:28.800.16-Jul-2020 4093.01 4652.79 76.39 8.00 278.51 2778.38
   22:17:29.000.16-Jul-2020 4093.01 4652.81 76.39 8.00 278.71 2778.38
   22:17:29.200.16-Jul-2020 4093.01 4652.80 76.39 8.00 278.91 2778.38
   22:17:29.400.16-Jul-2020 4093.01 4652.81 76.39 8.00 279.11 2778.38
   22:17:29.600.16-Jul-2020 4093.01 4652.81 76.39 8.00 279.31 2778.38
   22:17:29.800.16-Jul-2020 4093.01 4652.80 76.39 8.00 279.51 2778.38
   22:17:30.000.16-Jul-2020 4093.01 4652.81 76.39 8.00 279.71 2778.38
   22:17:30.200.16-Jul-2020 4093.01 4652.81 76.39 8.00 279.91 2778.38
   22:17:30.400.16-Jul-2020 4093.01 4652.80 76.39 8.00 280.11 2778.38
   22:17:30.601.16-Jul-2020 4093.01 4652.80 76.39 8.00 280.31 2778.38
   22:17:30.801.16-Jul-2020 4093.01 4652.80 76.39 8.00 280.51 2778.38
   22:17:31.001.16-Jul-2020 4093.01 4652.81 76.39 8.00 280.71 2778.38
   22:17:31.201.16-Jul-2020 4093.01 4652.90 76.39 8.00 280.91 2778.38
   22:17:31.401.16-Jul-2020 4093.01 4652.75 76.39 8.00 281.11 2778.38
   22:17:31.601.16-Jul-2020 4093.01 4652.75 76.39 8.00 281.31 2778.38
   22:17:31.801.16-Jul-2020 4093.01 4652.81 76.39 8.00 281.51 2778.38
   22:17:32.001.16-Jul-2020 4093.01 4652.80 76.39 8.00 281.71 2778.38
   22:17:32.201.16-Jul-2020 4093.01 4652.87 76.39 8.00 281.91 2778.38
   22:17:32.401.16-Jul-2020 4093.01 4652.78 76.39 8.00 282.11 2778.38
   22:17:32.601.16-Jul-2020 4093.01 4652.82 76.39 8.00 282.31 2778.38
   22:17:32.801.16-Jul-2020 4093.01 4652.89 76.39 8.00 282.51 2778.38
   22:17:33.001.16-Jul-2020 4093.01 4652.76 76.39 8.00 282.71 2778.38
   22:17:33.202.16-Jul-2020 4093.01 4652.81 76.39 8.00 282.91 2778.38
   22:17:33.402.16-Jul-2020 4093.01 4652.81 76.39 8.00 283.11 2778.38
   22:17:33.602.16-Jul-2020 4093.01 4652.79 76.39 8.00 283.31 2778.38
   22:17:33.802.16-Jul-2020 4093.01 4652.81 76.39 8.00 283.51 2778.38
   22:17:34.002.16-Jul-2020 4093.01 4652.81 76.39 8.00 283.71 2778.38
   22:17:34.202.16-Jul-2020 4093.01 4652.87 76.39 8.00 283.91 2778.38
   22:17:34.402.16-Jul-2020 4093.01 4652.79 76.39 8.00 284.11 2778.38
   22:17:34.602.16-Jul-2020 4093.01 4652.79 76.39 8.00 284.31 2778.38
   22:17:34.802.16-Jul-2020 4093.01 4652.81 76.39 8.00 284.51 2778.38
   22:17:35.002.16-Jul-2020 4093.01 4652.80 76.39 8.00 284.71 2778.38
   22:17:35.202.16-Jul-2020 4093.01 4652.81 76.39 8.00 284.91 2778.38
   22:17:35.402.16-Jul-2020 4093.01 4652.80 76.39 8.00 285.11 2778.38
   22:17:35.602.16-Jul-2020 4093.01 4652.80 76.39 8.00 285.31 2778.38
   22:17:35.803.16-Jul-2020 4093.01 4652.80 76.39 8.00 285.51 2778.38
   22:17:36.003.16-Jul-2020 4093.01 4652.81 76.39 8.00 285.71 2778.38
   22:17:36.203.16-Jul-2020 4093.01 4652.79 76.39 8.00 285.91 2778.38
   22:17:36.403.16-Jul-2020 4093.01 4652.81 76.39 8.00 286.11 2778.38
   22:17:36.603.16-Jul-2020 4093.01 4652.81 76.39 8.00 286.31 2778.38
   22:17:36.803.16-Jul-2020 4093.01 4652.91 76.39 8.00 286.51 2778.38
   22:17:37.003.16-Jul-2020 4093.01 4652.78 76.39 8.00 286.71 2778.38
   22:17:37.203.16-Jul-2020 4093.01 4652.81 76.39 8.00 286.91 2778.38
   22:17:37.403.16-Jul-2020 4093.01 4652.81 76.39 8.00 287.11 2778.38
   22:17:37.603.16-Jul-2020 4093.01 4652.81 76.39 8.00 287.31 2778.38
   22:17:37.803.16-Jul-2020 4093.01 4652.81 76.39 8.00 287.51 2778.38
   22:17:38.003.16-Jul-2020 4093.01 4652.80 76.39 8.00 287.71 2778.38
   22:17:38.203.16-Jul-2020 4093.01 4652.81 76.39 8.00 287.91 2778.38
   22:17:38.403.16-Jul-2020 4093.01 4652.81 76.39 8.00 288.11 2778.38
   22:17:38.604.16-Jul-2020 4093.01 4652.81 76.39 8.00 288.31 2778.38
   22:17:38.804.16-Jul-2020 4093.01 4652.81 76.39 8.00 288.51 2778.38
   22:17:39.004.16-Jul-2020 4093.01 4652.81 76.39 8.00 288.71 2778.38
   22:17:39.204.16-Jul-2020 4093.01 4652.81 76.39 8.00 288.91 2778.38
   22:17:39.404.16-Jul-2020 4093.01 4652.80 76.39 8.00 289.11 2778.38
   22:17:39.604.16-Jul-2020 4093.01 4652.81 76.39 8.00 289.31 2778.38
   22:17:39.804.16-Jul-2020 4093.01 4652.77 76.39 8.00 289.51 2778.38
   22:17:40.004.16-Jul-2020 4093.01 4652.91 76.39 8.00 289.71 2778.38
   22:17:40.204.16-Jul-2020 4093.01 4652.79 76.39 8.00 289.91 2778.38
   22:17:40.404.16-Jul-2020 4093.01 4652.79 76.39 8.00 290.11 2778.38
   22:17:40.604.16-Jul-2020 4093.01 4652.82 76.39 8.00 290.31 2778.38
   22:17:40.804.16-Jul-2020 4093.01 4652.90 76.39 8.00 290.51 2778.38
   22:17:41.004.16-Jul-2020 4093.01 4652.75 76.39 8.00 290.71 2778.38
   22:17:41.205.16-Jul-2020 4093.01 4652.80 76.39 8.00 290.91 2778.38
   22:17:41.405.16-Jul-2020 4093.01 4652.78 76.39 8.00 291.11 2778.38
   22:17:41.605.16-Jul-2020 4093.01 4652.78 76.39 8.00 291.31 2778.38
   22:17:41.805.16-Jul-2020 4093.01 4652.79 76.39 8.00 291.51 2778.38
   22:17:42.005.16-Jul-2020 4093.01 4652.80 76.39 8.00 291.71 2778.38
   22:17:42.205.16-Jul-2020 4093.01 4652.82 76.39 8.00 291.91 2778.38
   22:17:42.405.16-Jul-2020 4093.01 4652.79 76.39 8.00 292.11 2778.38
   22:17:42.605.16-Jul-2020 4093.01 4652.79 76.39 8.00 292.31 2778.38
   22:17:42.805.16-Jul-2020 4093.01 4652.91 76.39 8.00 292.51 2778.38
   22:17:43.005.16-Jul-2020 4093.01 4652.75 76.39 8.00 292.71 2778.38
   22:17:43.205.16-Jul-2020 4093.01 4652.80 76.39 8.00 292.91 2778.38
   22:17:43.405.16-Jul-2020 4093.01 4652.82 76.39 8.00 293.11 2778.38
   22:17:43.605.16-Jul-2020 4093.01 4652.82 76.39 8.00 293.31 2778.38
   22:17:43.806.16-Jul-2020 4093.01 4652.82 76.39 8.00 293.51 2778.38
   22:17:44.006.16-Jul-2020 4093.01 4652.80 76.40 8.00 293.71 2778.38
   22:17:44.206.16-Jul-2020 4093.01 4652.81 76.39 8.00 293.91 2778.38
   22:17:44.406.16-Jul-2020 4093.01 4652.80 76.40 8.00 294.11 2778.38
   22:17:44.606.16-Jul-2020 4093.01 4652.81 76.40 8.00 294.31 2778.38
   22:17:44.806.16-Jul-2020 4093.01 4652.80 76.40 8.00 294.51 2778.38
   22:17:45.006.16-Jul-2020 4093.01 4652.80 76.40 8.00 294.71 2778.38
   22:17:45.206.16-Jul-2020 4093.01 4652.81 76.40 8.00 294.91 2778.38
   22:17:45.406.16-Jul-2020 4093.01 4652.82 76.40 8.00 295.11 2778.38
   22:17:45.606.16-Jul-2020 4093.01 4652.86 76.40 8.00 295.31 2778.38
   22:17:45.806.16-Jul-2020 4093.01 4652.78 76.40 8.00 295.51 2778.38
   22:17:46.006.16-Jul-2020 4093.01 4652.82 76.40 8.00 295.71 2778.38
   22:17:46.206.16-Jul-2020 4093.01 4652.80 76.40 8.00 295.91 2778.38
   22:17:46.407.16-Jul-2020 4093.01 4652.81 76.40 8.00 296.11 2778.38
   22:17:46.607.16-Jul-2020 4093.01 4652.81 76.40 8.00 296.31 2778.38
   22:17:46.807.16-Jul-2020 4093.01 4652.81 76.40 8.00 296.51 2778.38
   22:17:47.007.16-Jul-2020 4093.01 4652.80 76.40 8.00 296.71 2778.38
   22:17:47.207.16-Jul-2020 4093.01 4652.81 76.40 8.00 296.91 2778.38
   22:17:47.407.16-Jul-2020 4093.01 4652.81 76.40 8.00 297.11 2778.38
   22:17:47.607.16-Jul-2020 4093.01 4652.81 76.40 8.00 297.31 2778.38
   22:17:47.807.16-Jul-2020 4093.01 4652.81 76.40 8.00 297.51 2778.38
   22:17:48.007.16-Jul-2020 4093.01 4652.81 76.40 8.00 297.71 2778.38
   22:17:48.207.16-Jul-2020 4093.01 4652.80 76.40 8.00 297.91 2778.38
   22:17:48.407.16-Jul-2020 4093.01 4652.81 76.40 8.00 298.11 2778.38
   22:17:48.607.16-Jul-2020 4093.01 4652.82 76.40 8.00 298.31 2778.38
   22:17:48.807.16-Jul-2020 4093.01 4652.87 76.40 8.00 298.51 2778.38
   22:17:49.007.16-Jul-2020 4093.01 4652.78 76.40 8.00 298.71 2778.38
   22:17:49.208.16-Jul-2020 4093.01 4652.81 76.40 8.00 298.91 2778.38
