~Version Information
 VERS.                  2.0:   CWLS log ASCII Standard -VERSION 2.0
 WRAP.                   NO:   One line per depth step
~Well Information Block
#MNEM.UNIT     VALUE/NAME     DESCRIPTION
#---------     -----------    ---------------------------
 STRT.S             21:08:23 16-Jul-20: START TIME 21:08:23 16-Jul-20
 STOP.S             21:15:15 16-Jul-20: STOP TIME  21:15:15 16-Jul-20
 STEP.S                   0.00: STEP TIME
 NULL.                 -999.25: NULL VALUE
 MDS .        Operator Entered:  MAG DATA SOURCE
 UNIT.                     N/A:  LOGGING EQUIPMENT ID
 DCON.         Sperry Drilling:  DIRECTNL CONTR
 DOE .                     N/A:  DOE NUMBER
 RIG .               EastAzeri:  RIG NAME
 JOBN.        AZ-XX-0906363297:  JOB TICKET NUMB
 MWDS.                    Baku:  MWD SHOP
 SRVC.     Turan Drilling & Engineering:  CONTRACTOR
 PROV.                    Baku:  PROVINCE
 STAT.                    Baku:  STATE NAME
 REGN.                   EESSA:  REGION
 BASE.              Azerbaijan:  LOGGING EQUIPMENT BASE LOCATION
 WTYP.                Deviated:  WELL TYPE
 UWI .                     N/A:  UNIQUE WELL IDENTIFIER
 API .                     N/A:  API NUMBER
 COMP.     BP Exploration (Caspian Sea) ltd.:  COMPANY
 WELL.                    D07z:  WELL NAME
 CTRY.              Azerbaijan:  COUNTRY NAME
 SON .        AZ-XX-0906363297:  JOB NUMBER
 FLD .                     ACG:  FIELD NAME
 PDAT.          Mean Sea Level:  PERMANENT DATUM
 FTOP.          Formation Tops:  FORM TOPS DESC
 ILTD.               Lithology:  INTERP LTH DESC
 SVYD.                  Survey:  SURVEY DESC
 DMOD.             Drill Model:  DRILL MOD DESC
 HPTY.       Minimum Curvature:  HOLE POS TYPE
 NREF.                    Grid:  NORTH REFERENCE
 SPUD.               28-Jun-20:  SPUD DATE
 DATE.      18.27.12 28-Jun-20:  END TIME
 STIM.      18.27.12 28-Jun-20:  START TIME
 DMF .             Drill Floor:  DRILL MEAS FROM
 DFST.                        :  DIST FSL TEXT
 DFWT.                        :  DIST FWL TEXT
 CNTY.                        :  COUNTY
 LOC .                        :  LOCATION
 LMF .             Drill Floor:  LOG MEASURED FROM
 VSNS.m                  -7.75:  VERT SEC N/S
 VSEW.m                  -9.19:  VERT SEC E/W
 MMDE.m                   0.00:  MAGUTM CALC DEP
 AGAP.m                  43.60:  AIR GAP
 DEP .m                4058.99:  DEPTH
 APD .m                  43.60:  DEPTH ABOVE PD
 WDMS.m                 151.80:  WD ELEV
 EGL .m                   0.00:  GROUND ELEVATION
 EPD .m                   0.00:  ELEVATION
 AZTC.deg                 6.19:  AZM TOTAL CORR
 GRDC.deg                 0.27:  GRID CORRECTION
 MDEC.deg                 6.46:  MAGNETIC DECL
 MDIP.deg                59.47:  MAGNETIC DIP
 MFLD.nT              50279.00:  MAGNETIC FIELD
 GVFD.g                   1.00:  GRAVITY FIELD
 VSDR.deg               249.96:  VERT SEC DIRECT
 TDD .m                   0.00:  TOTAL DEPTH (DRILLER)
 SDEP.m                   0.00:  START DEPTH
 DFSL.m                   0.00:  DISTANCE FSL
 DFWL.m                   0.00:  DISTANCE FWL
 UTMY.m             4431880.20:  UTM Y
 UTMX.m              538763.98:  UTM X
 WHEW.m                  -9.19:  WELL HEAD E/W
 WHNS.m                  -7.75:  WELL HEAD N/S
 LONG.deg                51.45:  LONGITUDE
 LATI.deg                40.02:  LATITUDE
 TVDS.m                  43.60:  TVDSS CORRECTN
 EKB .m                  43.60:  KB ELEVATION
 EDF .m                  43.60:  DF ELEVATION
 TDL .m                 248.00:  TOTAL DEPTH (LOGGER)
 MAGU.                 1849075:  MAGUTM CHECKSUM
 VSC .                       0:  VS TO CLOSURE
~Parameter Information Block
#MNEM.UNIT       Value        Description
#---------     -----------    ---------------------------
 AV  .mps                 6.34:  Ann Velocity 
 AVMX.mps                 7.00:  Max Ann Veloc 
 AZIF.deg               260.29:  Azm, Final 
 BHAT.        Rotary Steerable:  BHA Type 
 BROT.°/30m               1.20:  Build Rotating 
 BS  .in                  8.50:  Bit Size 
 BSZ .in                  8.50:  Bit Size 
 BTPL.psig              620.00:  Bit Press Loss 
 CABU.                     Yes:  Customer Abuse 
 COMM.                     Äá„:  Run Comments 1 
 TCS .hr                 56.22:  Time Ciculation Ended 
 CV  .mps                 3.05:  Crit Velocity 
 CVMX.mps                 3.20:  Max Crit Veloc 
 DD1 .            Musa Ahmadov:  Direct Drillr 1 
 DDSV.                 iCruise:  DD Service 
 DEFF.%                  98.00:  % Det Eff 
 DLRX.°/30m               2.78:  Dogleg Rot Max 
 DLSO.°/30m               0.00:  Dogleg Oriented 
 DLSX.°/30m               0.00:  Dogleg Str Max 
 DRET.      05.20.48 16-Jul-20:  Drill End Time 
 DRST.      10.20.48 13-Jul-20:  Drill Start Tim 
 DTIM.hr                 14.25:  Time Drilling 
 EDEP.m                4326.01:  End Depth 
 ENG1.      Artemiy Matviyanov:  Engineer 1 
 ENG2.           Amrah Tahirov:  Engineer 2 
 ETIM.      22.30.00 18-Jul-20:  End Time 
 FLOI.gpm               550.00:  Flow In 
 FLON.gpm               450.00:  Flow In Min 
 FLOS.cptm                0.00:  Fluid Loss 
 FLOX.gpm               600.00:  Flow In Max 
 HFLO.                      No:  High Flow 
 HPRE.                      No:  High Pressure 
 HTEM.                      No:  High Temp 
 HYDO.m                   1.80:  Hydro Offset 
 IFIN.deg                65.41:  Inc, Final 
 IMAX.deg                65.14:  Inc Max 
 IMIN.deg                58.89:  Inc Min 
 IMND.m                4104.92:  Inc Min Depth 
 IMXD.m                4303.89:  Inc Max Depth 
 JARR.                      No:  Jarring 
 LETM.      10.20.48 17-Jul-20:  Log End Time 
 LOST.hr                     0:  Lost Rig Time 
 LSTM.      10.20.48 13-Jul-20:  Log Start Time 
 MDCL.ppm             37000.00:  Mud Chlorides 
 MDES.     Inversion Oil/Synthetic:  Mud Desc 
 DFD .sg                  1.52:  Mud Density 
 MDMN.sg                  1.52:  Dens Mud Min 
 MDMX.sg                  1.52:  Dens Mud Max 
 MOIL.                   52.70:  Run Mud Oil % 
 MOWR.                   68:32:  Run Mud OWR 
 MSND.                     0.2:  Run Mud Sand % 
 MSOL.                    21.6:  Run Mud Solids% 
 DFV .spqt               79.00:  Mud Viscosity 
 MWOD.in                  6.75:  MWD Tool OD 
 MWSI.                      No:  Serv Intrp, MWD 
 OTIM.hr                114.04:  Time Operating 
 PCON.          Wear / Scratch:  Pad Condition 
 PMAX.psia            11782.92:  Press Op, Max 
 PV  .cP                 49.00:  Mud PV 
 RUN .                     600:  Run Number 
 ROPA.m/hr               20.00:  ROP Avg 
 ROPN.m/hr               15.00:  ROP Min 
 ROPX.m/hr               22.00:  ROP Max 
 RPMA.rpm               120.00:  RPM Surface Avg 
 RPMN.rpm                90.00:  RPM Surface Min 
 RPMX.rpm               140.00:  RPM Surface Max 
 RRUN.                     600:  Rig Run Number 
 SAZI.deg               260.29:  Azm, Start 
 SDEP.m                4078.01:  Start Depth 
 SIDD.                      No:  Serv Intrp, DD 
 SINC.deg                58.89:  Inc, Start 
 SPPA.psig             4560.00:  SPP Avg 
 SPPN.psig             3600.00:  SPP Min 
 SPPX.psig             4800.00:  SPP Max 
 STIM.      10.20.48 13-Jul-20:  Start Time 
 SVCS.                 DD, MWD:  Services 
 SVER.                    9.20:  Sperry Version 
 TDAT.m                4378.01:  Tot Depth Attmp 
 TDDF.                      No:  Trip for DD 
 TDLG.m                 248.00:  Tot Depth Loggd 
 TFF .                      No:  Trip for Fail 
 TQAA.f-kp               18.00:  Torque Abs Avg 
 TQAN.f-kp               15.00:  Torque Abs Min 
 TQAX.f-kp               20.00:  Torque Abs Max 
 TRRT.°/30m               0.70:  Turn Rotating 
 MRT .                    HCIM:  Maximum Recorded Temperature 
 TTMX.degC               86.00:  Max Tool Temp 
 WBMN.klb                 3.00:  WOB Min 
 WOBA.klb                 5.00:  WOB Avg 
 WOBX.klb                 9.00:  WOB Max 
 YP  .lhf2               32.00:  Yield Point 
~Curve Information Block
#MNEM.UNIT                 API CODE     Curve Description
#---------               -----------    ---------------------------
 TIME.HHMMSS            00 000 000 000:  GT Time & Date
 GTDEPTH.m              00 000 000 000:  GT Depth
 GTPQH.psia             00 000 000 000:  GT HR Quartz Pressure
 GTTQ.degC              00 000 000 000:  GT Quartz Temperature
 GTTN.NONE              00 000 000 000:  GT Test Number
 GTET.sec               00 000 000 000:  GT Elapsed Test Time
 GTTVD.m                00 000 000 000:  GT True Vertical Depth
#Other Information
#
#WARRANTY: Halliburton will use its best efforts to furnish customers with 
#accurate information and interpretations that are part of, and incident to, the services 
#provided.  However, Halliburton cannot and does not warrant the accuracy 
#or correctness of such information and interpretations.  Under no circumstances should any 
#such information or interpretation be relied upon as the sole basis for any drilling, 
#completion, production, or financial decision or any procedure involving any risk to the 
#safety of any drilling venture, drilling rig or its crew or any other third party.  The 
#Customer has full responsibility for all drilling, completion and production operation.  
#Halliburton makes no representations or warranties, either expressed or 
#implied, including, but not limited to, the implied warranties of merchantability or fitness 
#for a particular purpose, with respect to the services rendered.  In no event will 
#Halliburton be liable for failure to obtain any particular results or for 
#any damages, including, but not limited to, indirect, special or consequential damages, 
#resulting from the use of any information or interpretation provided by Halliburton.
#
~A           TIME           GTDEPTH  GTPQH  GTTQ  GTTN  GTET   GTTVD  
# ...
   21:12:13.148.16-Jul-2020 4135.51 4700.09 77.11 7.00 230.13 2799.87
   21:12:13.348.16-Jul-2020 4135.51 4700.13 77.11 7.00 230.33 2799.87
   21:12:13.548.16-Jul-2020 4135.51 4700.08 77.11 7.00 230.53 2799.87
   21:12:13.748.16-Jul-2020 4135.51 4700.13 77.11 7.00 230.73 2799.87
   21:12:13.948.16-Jul-2020 4135.51 4700.10 77.11 7.00 230.93 2799.87
   21:12:14.148.16-Jul-2020 4135.51 4700.12 77.11 7.00 231.13 2799.87
   21:12:14.348.16-Jul-2020 4135.51 4700.12 77.11 7.00 231.33 2799.87
   21:12:14.548.16-Jul-2020 4135.51 4700.11 77.11 7.00 231.53 2799.87
   21:12:14.748.16-Jul-2020 4135.51 4700.11 77.11 7.00 231.73 2799.87
   21:12:14.949.16-Jul-2020 4135.51 4700.10 77.11 7.00 231.93 2799.87
   21:12:15.149.16-Jul-2020 4135.51 4700.13 77.11 7.00 232.13 2799.87
   21:12:15.349.16-Jul-2020 4135.51 4700.13 77.11 7.00 232.33 2799.87
   21:12:15.549.16-Jul-2020 4135.51 4700.11 77.11 7.00 232.53 2799.87
   21:12:15.749.16-Jul-2020 4135.51 4700.12 77.12 7.00 232.73 2799.87
   21:12:15.949.16-Jul-2020 4135.51 4700.10 77.11 7.00 232.93 2799.87
   21:12:16.149.16-Jul-2020 4135.51 4700.12 77.12 7.00 233.13 2799.87
   21:12:16.349.16-Jul-2020 4135.51 4700.12 77.11 7.00 233.33 2799.87
   21:12:16.549.16-Jul-2020 4135.51 4700.13 77.12 7.00 233.53 2799.87
   21:12:16.750.16-Jul-2020 4135.51 4700.10 77.12 7.00 233.73 2799.87
   21:12:16.950.16-Jul-2020 4135.51 4700.11 77.12 7.00 233.93 2799.87
   21:12:17.150.16-Jul-2020 4135.51 4700.13 77.12 7.00 234.13 2799.87
   21:12:17.350.16-Jul-2020 4135.51 4700.10 77.12 7.00 234.33 2799.87
   21:12:17.550.16-Jul-2020 4135.51 4700.13 77.12 7.00 234.53 2799.87
   21:12:17.750.16-Jul-2020 4135.51 4700.13 77.12 7.00 234.73 2799.87
   21:12:17.950.16-Jul-2020 4135.51 4700.10 77.12 7.00 234.93 2799.87
   21:12:18.150.16-Jul-2020 4135.51 4700.14 77.12 7.00 235.13 2799.87
   21:12:18.350.16-Jul-2020 4135.51 4700.11 77.12 7.00 235.33 2799.87
   21:12:18.551.16-Jul-2020 4135.51 4700.08 77.12 7.00 235.53 2799.87
   21:12:18.751.16-Jul-2020 4135.51 4700.14 77.12 7.00 235.73 2799.87
   21:12:18.951.16-Jul-2020 4135.51 4700.08 77.12 7.00 235.93 2799.87
   21:12:19.151.16-Jul-2020 4135.51 4700.12 77.12 7.00 236.13 2799.87
   21:12:19.351.16-Jul-2020 4135.51 4700.12 77.12 7.00 236.33 2799.87
   21:12:19.551.16-Jul-2020 4135.51 4700.09 77.12 7.00 236.53 2799.87
   21:12:19.751.16-Jul-2020 4135.51 4700.14 77.12 7.00 236.73 2799.87
   21:12:19.951.16-Jul-2020 4135.51 4700.07 77.12 7.00 236.93 2799.87
   21:12:20.152.16-Jul-2020 4135.51 4700.15 77.12 7.00 237.13 2799.87
   21:12:20.352.16-Jul-2020 4135.51 4700.15 77.12 7.00 237.33 2799.87
   21:12:20.552.16-Jul-2020 4135.51 4700.11 77.12 7.00 237.53 2799.87
   21:12:20.752.16-Jul-2020 4135.51 4700.12 77.12 7.00 237.73 2799.87
   21:12:20.952.16-Jul-2020 4135.51 4700.08 77.12 7.00 237.93 2799.87
   21:12:21.152.16-Jul-2020 4135.51 4700.13 77.12 7.00 238.13 2799.87
   21:12:21.352.16-Jul-2020 4135.51 4700.10 77.12 7.00 238.34 2799.87
   21:12:21.552.16-Jul-2020 4135.51 4700.10 77.12 7.00 238.54 2799.87
   21:12:21.752.16-Jul-2020 4135.51 4700.10 77.12 7.00 238.74 2799.87
   21:12:21.953.16-Jul-2020 4135.51 4700.12 77.12 7.00 238.94 2799.87
   21:12:22.153.16-Jul-2020 4135.51 4700.08 77.12 7.00 239.14 2799.87
   21:12:22.353.16-Jul-2020 4135.51 4700.08 77.12 7.00 239.34 2799.87
   21:12:22.553.16-Jul-2020 4135.51 4700.11 77.12 7.00 239.54 2799.87
   21:12:22.753.16-Jul-2020 4135.51 4700.02 77.12 7.00 239.74 2799.87
   21:12:22.953.16-Jul-2020 4135.51 4700.17 77.12 7.00 239.94 2799.87
   21:12:23.153.16-Jul-2020 4135.51 4700.10 77.12 7.00 240.14 2799.87
   21:12:23.353.16-Jul-2020 4135.51 4700.10 77.12 7.00 240.34 2799.87
   21:12:23.553.16-Jul-2020 4135.51 4700.07 77.12 7.00 240.54 2799.87
   21:12:23.754.16-Jul-2020 4135.51 4700.13 77.12 7.00 240.74 2799.87
   21:12:23.954.16-Jul-2020 4135.51 4700.09 77.12 7.00 240.94 2799.87
   21:12:24.154.16-Jul-2020 4135.51 4700.11 77.12 7.00 241.14 2799.87
   21:12:24.354.16-Jul-2020 4135.51 4700.11 77.12 7.00 241.34 2799.87
   21:12:24.554.16-Jul-2020 4135.51 4700.08 77.12 7.00 241.54 2799.87
   21:12:24.754.16-Jul-2020 4135.51 4700.14 77.12 7.00 241.74 2799.87
   21:12:24.954.16-Jul-2020 4135.51 4700.09 77.12 7.00 241.94 2799.87
   21:12:25.154.16-Jul-2020 4135.51 4700.12 77.12 7.00 242.14 2799.87
   21:12:25.354.16-Jul-2020 4135.51 4700.10 77.12 7.00 242.34 2799.87
   21:12:25.555.16-Jul-2020 4135.51 4700.10 77.12 7.00 242.54 2799.87
   21:12:25.755.16-Jul-2020 4135.51 4700.13 77.12 7.00 242.74 2799.87
   21:12:25.955.16-Jul-2020 4135.51 4700.02 77.12 7.00 242.94 2799.87
   21:12:26.155.16-Jul-2020 4135.51 4700.16 77.12 7.00 243.14 2799.87
   21:12:26.355.16-Jul-2020 4135.51 4700.16 77.12 7.00 243.34 2799.87
   21:12:26.555.16-Jul-2020 4135.51 4700.13 77.12 7.00 243.54 2799.87
   21:12:26.755.16-Jul-2020 4135.51 4700.18 77.12 7.00 243.74 2799.87
   21:12:26.955.16-Jul-2020 4135.51 4700.05 77.12 7.00 243.94 2799.87
   21:12:27.155.16-Jul-2020 4135.51 4700.10 77.12 7.00 244.14 2799.87
   21:12:27.356.16-Jul-2020 4135.51 4700.10 77.12 7.00 244.34 2799.87
   21:12:27.556.16-Jul-2020 4135.51 4700.08 77.12 7.00 244.54 2799.87
   21:12:27.756.16-Jul-2020 4135.51 4700.10 77.12 7.00 244.74 2799.87
   21:12:27.956.16-Jul-2020 4135.51 4700.03 77.12 7.00 244.94 2799.87
   21:12:28.156.16-Jul-2020 4135.51 4700.16 77.12 7.00 245.14 2799.87
   21:12:28.356.16-Jul-2020 4135.51 4700.15 77.12 7.00 245.34 2799.87
   21:12:28.556.16-Jul-2020 4135.51 4700.15 77.12 7.00 245.54 2799.87
   21:12:28.756.16-Jul-2020 4135.51 4700.09 77.12 7.00 245.74 2799.87
   21:12:28.957.16-Jul-2020 4135.51 4700.23 77.12 7.00 245.94 2799.87
   21:12:29.157.16-Jul-2020 4135.51 4700.02 77.12 7.00 246.14 2799.87
   21:12:29.357.16-Jul-2020 4135.51 4700.02 77.12 7.00 246.34 2799.87
   21:12:29.557.16-Jul-2020 4135.51 4700.10 77.12 7.00 246.54 2799.87
   21:12:29.757.16-Jul-2020 4135.51 4700.10 77.12 7.00 246.74 2799.87
   21:12:29.957.16-Jul-2020 4135.51 4700.10 77.12 7.00 246.94 2799.87
   21:12:30.157.16-Jul-2020 4135.51 4700.10 77.12 7.00 247.14 2799.87
   21:12:30.357.16-Jul-2020 4135.51 4700.10 77.12 7.00 247.34 2799.87
   21:12:30.557.16-Jul-2020 4135.51 4700.10 77.12 7.00 247.54 2799.87
   21:12:30.758.16-Jul-2020 4135.51 4700.09 77.12 7.00 247.74 2799.87
   21:12:30.958.16-Jul-2020 4135.51 4700.12 77.12 7.00 247.94 2799.87
   21:12:31.158.16-Jul-2020 4135.51 4700.09 77.12 7.00 248.14 2799.87
   21:12:31.358.16-Jul-2020 4135.51 4700.09 77.12 7.00 248.34 2799.87
   21:12:31.558.16-Jul-2020 4135.51 4700.13 77.12 7.00 248.54 2799.87
   21:12:31.758.16-Jul-2020 4135.51 4700.11 77.12 7.00 248.74 2799.87
   21:12:31.958.16-Jul-2020 4135.51 4700.11 77.12 7.00 248.94 2799.87
   21:12:32.158.16-Jul-2020 4135.51 4700.09 77.12 7.00 249.14 2799.87
   21:12:32.358.16-Jul-2020 4135.51 4700.09 77.12 7.00 249.34 2799.87
   21:12:32.559.16-Jul-2020 4135.51 4700.09 77.12 7.00 249.54 2799.87
   21:12:32.759.16-Jul-2020 4135.51 4700.12 77.12 7.00 249.74 2799.87
   21:12:32.959.16-Jul-2020 4135.51 4700.09 77.12 7.00 249.94 2799.87
   21:12:33.159.16-Jul-2020 4135.51 4700.11 77.12 7.00 250.14 2799.87
   21:12:33.359.16-Jul-2020 4135.51 4700.11 77.12 7.00 250.34 2799.87
   21:12:33.559.16-Jul-2020 4135.51 4700.08 77.12 7.00 250.54 2799.87
   21:12:33.759.16-Jul-2020 4135.51 4700.12 77.12 7.00 250.74 2799.87
   21:12:33.959.16-Jul-2020 4135.51 4700.10 77.12 7.00 250.94 2799.87
   21:12:34.159.16-Jul-2020 4135.51 4690.22 77.12 7.00 251.14 2799.87
   21:12:34.360.16-Jul-2020 4135.51 4690.22 77.12 7.00 251.34 2799.87
   21:12:34.560.16-Jul-2020 4135.51 4666.86 77.12 7.00 251.54 2799.87
   21:12:34.760.16-Jul-2020 4135.51 4668.35 77.12 7.00 251.74 2799.87
   21:12:34.960.16-Jul-2020 4135.51 4668.07 77.12 7.00 251.94 2799.87
   21:12:35.160.16-Jul-2020 4135.51 4667.73 77.12 7.00 252.14 2799.87
   21:12:35.360.16-Jul-2020 4135.51 4667.73 77.12 7.00 252.34 2799.87
   21:12:35.560.16-Jul-2020 4135.51 4662.80 77.12 7.00 252.54 2799.87
   21:12:35.760.16-Jul-2020 4135.51 4663.07 77.12 7.00 252.74 2799.87
   21:12:35.960.16-Jul-2020 4135.51 4662.52 77.12 7.00 252.94 2799.87
