~Version Information
 VERS.                  2.0:   CWLS log ASCII Standard -VERSION 2.0
 WRAP.                   NO:   One line per depth step
~Well Information Block
#MNEM.UNIT     VALUE/NAME     DESCRIPTION
#---------     -----------    ---------------------------
 STRT.S             22:12:50 16-Jul-20: START TIME 22:12:50 16-Jul-20
 STOP.S             22:19:40 16-Jul-20: STOP TIME  22:19:40 16-Jul-20
 STEP.S                   0.00: STEP TIME
 NULL.                 -999.25: NULL VALUE
 MDS .        Operator Entered:  MAG DATA SOURCE
 UNIT.                     N/A:  LOGGING EQUIPMENT ID
 DCON.         Sperry Drilling:  DIRECTNL CONTR
 DOE .                     N/A:  DOE NUMBER
 RIG .               EastAzeri:  RIG NAME
 JOBN.        AZ-XX-0906363297:  JOB TICKET NUMB
 MWDS.                    Baku:  MWD SHOP
 SRVC.     Turan Drilling & Engineering:  CONTRACTOR
 PROV.                    Baku:  PROVINCE
 STAT.                    Baku:  STATE NAME
 REGN.                   EESSA:  REGION
 BASE.              Azerbaijan:  LOGGING EQUIPMENT BASE LOCATION
 WTYP.                Deviated:  WELL TYPE
 UWI .                     N/A:  UNIQUE WELL IDENTIFIER
 API .                     N/A:  API NUMBER
 COMP.     BP Exploration (Caspian Sea) ltd.:  COMPANY
 WELL.                    D07z:  WELL NAME
 CTRY.              Azerbaijan:  COUNTRY NAME
 SON .        AZ-XX-0906363297:  JOB NUMBER
 FLD .                     ACG:  FIELD NAME
 PDAT.          Mean Sea Level:  PERMANENT DATUM
 FTOP.          Formation Tops:  FORM TOPS DESC
 ILTD.               Lithology:  INTERP LTH DESC
 SVYD.                  Survey:  SURVEY DESC
 DMOD.             Drill Model:  DRILL MOD DESC
 HPTY.       Minimum Curvature:  HOLE POS TYPE
 NREF.                    Grid:  NORTH REFERENCE
 SPUD.               28-Jun-20:  SPUD DATE
 DATE.      18.27.12 28-Jun-20:  END TIME
 STIM.      18.27.12 28-Jun-20:  START TIME
 DMF .             Drill Floor:  DRILL MEAS FROM
 DFST.                        :  DIST FSL TEXT
 DFWT.                        :  DIST FWL TEXT
 CNTY.                        :  COUNTY
 LOC .                        :  LOCATION
 LMF .             Drill Floor:  LOG MEASURED FROM
 VSNS.m                  -7.75:  VERT SEC N/S
 VSEW.m                  -9.19:  VERT SEC E/W
 MMDE.m                   0.00:  MAGUTM CALC DEP
 AGAP.m                  43.60:  AIR GAP
 DEP .m                4058.99:  DEPTH
 APD .m                  43.60:  DEPTH ABOVE PD
 WDMS.m                 151.80:  WD ELEV
 EGL .m                   0.00:  GROUND ELEVATION
 EPD .m                   0.00:  ELEVATION
 AZTC.deg                 6.19:  AZM TOTAL CORR
 GRDC.deg                 0.27:  GRID CORRECTION
 MDEC.deg                 6.46:  MAGNETIC DECL
 MDIP.deg                59.47:  MAGNETIC DIP
 MFLD.nT              50279.00:  MAGNETIC FIELD
 GVFD.g                   1.00:  GRAVITY FIELD
 VSDR.deg               249.96:  VERT SEC DIRECT
 TDD .m                   0.00:  TOTAL DEPTH (DRILLER)
 SDEP.m                   0.00:  START DEPTH
 DFSL.m                   0.00:  DISTANCE FSL
 DFWL.m                   0.00:  DISTANCE FWL
 UTMY.m             4431880.20:  UTM Y
 UTMX.m              538763.98:  UTM X
 WHEW.m                  -9.19:  WELL HEAD E/W
 WHNS.m                  -7.75:  WELL HEAD N/S
 LONG.deg                51.45:  LONGITUDE
 LATI.deg                40.02:  LATITUDE
 TVDS.m                  43.60:  TVDSS CORRECTN
 EKB .m                  43.60:  KB ELEVATION
 EDF .m                  43.60:  DF ELEVATION
 TDL .m                 248.00:  TOTAL DEPTH (LOGGER)
 MAGU.                 1849075:  MAGUTM CHECKSUM
 VSC .                       0:  VS TO CLOSURE
~Parameter Information Block
#MNEM.UNIT       Value        Description
#---------     -----------    ---------------------------
 AV  .mps                 6.34:  Ann Velocity 
 AVMX.mps                 7.00:  Max Ann Veloc 
 AZIF.deg               260.29:  Azm, Final 
 BHAT.        Rotary Steerable:  BHA Type 
 BROT.°/30m               1.20:  Build Rotating 
 BS  .in                  8.50:  Bit Size 
 BSZ .in                  8.50:  Bit Size 
 BTPL.psig              620.00:  Bit Press Loss 
 CABU.                     Yes:  Customer Abuse 
 TCS .hr                 56.22:  Time Ciculation Ended 
 CV  .mps                 3.05:  Crit Velocity 
 CVMX.mps                 3.20:  Max Crit Veloc 
 DD1 .            Musa Ahmadov:  Direct Drillr 1 
 DDSV.                 iCruise:  DD Service 
 DEFF.%                  98.00:  % Det Eff 
 DLRX.°/30m               2.78:  Dogleg Rot Max 
 DLSO.°/30m               0.00:  Dogleg Oriented 
 DLSX.°/30m               0.00:  Dogleg Str Max 
 DRET.      05.20.48 16-Jul-20:  Drill End Time 
 DRST.      10.20.48 13-Jul-20:  Drill Start Tim 
 DTIM.hr                 14.25:  Time Drilling 
 EDEP.m                4326.01:  End Depth 
 ENG1.      Artemiy Matviyanov:  Engineer 1 
 ENG2.           Amrah Tahirov:  Engineer 2 
 ETIM.      22.30.00 18-Jul-20:  End Time 
 FLOI.gpm               550.00:  Flow In 
 FLON.gpm               450.00:  Flow In Min 
 FLOS.cptm                0.00:  Fluid Loss 
 FLOX.gpm               600.00:  Flow In Max 
 HFLO.                      No:  High Flow 
 HPRE.                      No:  High Pressure 
 HTEM.                      No:  High Temp 
 HYDO.m                   1.80:  Hydro Offset 
 IFIN.deg                65.41:  Inc, Final 
 IMAX.deg                65.14:  Inc Max 
 IMIN.deg                58.89:  Inc Min 
 IMND.m                4104.92:  Inc Min Depth 
 IMXD.m                4303.89:  Inc Max Depth 
 JARR.                      No:  Jarring 
 LETM.      10.20.48 17-Jul-20:  Log End Time 
 LOST.hr                     0:  Lost Rig Time 
 LSTM.      10.20.48 13-Jul-20:  Log Start Time 
 MDCL.ppm             37000.00:  Mud Chlorides 
 MDES.     Inversion Oil/Synthetic:  Mud Desc 
 DFD .sg                  1.52:  Mud Density 
 MDMN.sg                  1.52:  Dens Mud Min 
 MDMX.sg                  1.52:  Dens Mud Max 
 MOIL.                   52.70:  Run Mud Oil % 
 MOWR.                   68:32:  Run Mud OWR 
 MSND.                     0.2:  Run Mud Sand % 
 MSOL.                    21.6:  Run Mud Solids% 
 DFV .spqt               79.00:  Mud Viscosity 
 MWOD.in                  6.75:  MWD Tool OD 
 MWSI.                      No:  Serv Intrp, MWD 
 OTIM.hr                114.04:  Time Operating 
 PCON.          Wear / Scratch:  Pad Condition 
 PMAX.psia            11782.92:  Press Op, Max 
 PV  .cP                 49.00:  Mud PV 
 RUN .                     600:  Run Number 
 ROPA.m/hr               20.00:  ROP Avg 
 ROPN.m/hr               15.00:  ROP Min 
 ROPX.m/hr               22.00:  ROP Max 
 RPMA.rpm               120.00:  RPM Surface Avg 
 RPMN.rpm                90.00:  RPM Surface Min 
 RPMX.rpm               140.00:  RPM Surface Max 
 RRUN.                     600:  Rig Run Number 
 SAZI.deg               260.29:  Azm, Start 
 SDEP.m                4078.01:  Start Depth 
 SIDD.                      No:  Serv Intrp, DD 
 SINC.deg                58.89:  Inc, Start 
 SPPA.psig             4560.00:  SPP Avg 
 SPPN.psig             3600.00:  SPP Min 
 SPPX.psig             4800.00:  SPP Max 
 STIM.      10.20.48 13-Jul-20:  Start Time 
 SVCS.                 DD, MWD:  Services 
 SVER.                    9.20:  Sperry Version 
 TDAT.m                4378.01:  Tot Depth Attmp 
 TDDF.                      No:  Trip for DD 
 TDLG.m                 248.00:  Tot Depth Loggd 
 TFF .                      No:  Trip for Fail 
 TQAA.f-kp               18.00:  Torque Abs Avg 
 TQAN.f-kp               15.00:  Torque Abs Min 
 TQAX.f-kp               20.00:  Torque Abs Max 
 TRRT.°/30m               0.70:  Turn Rotating 
 MRT .                    HCIM:  Maximum Recorded Temperature 
 TTMX.degC               86.00:  Max Tool Temp 
 WBMN.klb                 3.00:  WOB Min 
 WOBA.klb                 5.00:  WOB Avg 
 WOBX.klb                 9.00:  WOB Max 
 YP  .lhf2               32.00:  Yield Point 
~Curve Information Block
#MNEM.UNIT                 API CODE     Curve Description
#---------               -----------    ---------------------------
 TIME.HHMMSS            00 000 000 000:  GT Time & Date
 GTDEPTH.m              00 000 000 000:  GT Depth
 GTPQH.psia             00 000 000 000:  GT HR Quartz Pressure
 GTTQ.degC              00 000 000 000:  GT Quartz Temperature
 GTTN.NONE              00 000 000 000:  GT Test Number
 GTET.sec               00 000 000 000:  GT Elapsed Test Time
 GTTVD.m                00 000 000 000:  GT True Vertical Depth
#Other Information
#
#WARRANTY: Halliburton will use its best efforts to furnish customers with 
#accurate information and interpretations that are part of, and incident to, the services 
#provided.  However, Halliburton cannot and does not warrant the accuracy 
#or correctness of such information and interpretations.  Under no circumstances should any 
#such information or interpretation be relied upon as the sole basis for any drilling, 
#completion, production, or financial decision or any procedure involving any risk to the 
#safety of any drilling venture, drilling rig or its crew or any other third party.  The 
#Customer has full responsibility for all drilling, completion and production operation.  
#Halliburton makes no representations or warranties, either expressed or 
#implied, including, but not limited to, the implied warranties of merchantability or fitness 
#for a particular purpose, with respect to the services rendered.  In no event will 
#Halliburton be liable for failure to obtain any particular results or for 
#any damages, including, but not limited to, indirect, special or consequential damages, 
#resulting from the use of any information or interpretation provided by Halliburton.
#
~A           TIME           GTDEPTH  GTPQH  GTTQ  GTTN  GTET   GTTVD  
# ...
   22:15:54.364.16-Jul-2020 4093.01 4652.88 76.38 8.00 184.07 2778.38
   22:15:54.564.16-Jul-2020 4093.01 4652.88 76.38 8.00 184.27 2778.38
   22:15:54.764.16-Jul-2020 4093.01 4652.87 76.38 8.00 184.47 2778.38
   22:15:54.964.16-Jul-2020 4093.01 4652.88 76.38 8.00 184.67 2778.38
   22:15:55.165.16-Jul-2020 4093.01 4652.88 76.38 8.00 184.87 2778.38
   22:15:55.365.16-Jul-2020 4093.01 4652.89 76.38 8.00 185.07 2778.38
   22:15:55.565.16-Jul-2020 4093.01 4652.93 76.38 8.00 185.27 2778.38
   22:15:55.765.16-Jul-2020 4093.01 4652.83 76.38 8.00 185.47 2778.38
   22:15:55.965.16-Jul-2020 4093.01 4652.88 76.38 8.00 185.67 2778.38
   22:15:56.165.16-Jul-2020 4093.01 4652.86 76.38 8.00 185.87 2778.38
   22:15:56.365.16-Jul-2020 4093.01 4652.94 76.38 8.00 186.07 2778.38
   22:15:56.565.16-Jul-2020 4093.01 4652.94 76.38 8.00 186.27 2778.38
   22:15:56.765.16-Jul-2020 4093.01 4652.87 76.38 8.00 186.47 2778.38
   22:15:56.965.16-Jul-2020 4093.01 4652.88 76.38 8.00 186.67 2778.38
   22:15:57.165.16-Jul-2020 4093.01 4652.92 76.38 8.00 186.87 2778.38
   22:15:57.365.16-Jul-2020 4093.01 4652.85 76.38 8.00 187.07 2778.38
   22:15:57.565.16-Jul-2020 4093.01 4652.85 76.38 8.00 187.27 2778.38
   22:15:57.766.16-Jul-2020 4093.01 4652.86 76.38 8.00 187.47 2778.38
   22:15:57.966.16-Jul-2020 4093.01 4652.85 76.38 8.00 187.67 2778.38
   22:15:58.166.16-Jul-2020 4093.01 4652.88 76.38 8.00 187.87 2778.38
   22:15:58.366.16-Jul-2020 4093.01 4652.94 76.38 8.00 188.07 2778.38
   22:15:58.566.16-Jul-2020 4093.01 4652.94 76.38 8.00 188.27 2778.38
   22:15:58.766.16-Jul-2020 4093.01 4652.85 76.38 8.00 188.47 2778.38
   22:15:58.966.16-Jul-2020 4093.01 4652.88 76.38 8.00 188.67 2778.38
   22:15:59.166.16-Jul-2020 4093.01 4652.87 76.38 8.00 188.87 2778.38
   22:15:59.366.16-Jul-2020 4093.01 4652.86 76.38 8.00 189.07 2778.38
   22:15:59.566.16-Jul-2020 4093.01 4652.87 76.38 8.00 189.27 2778.38
   22:15:59.766.16-Jul-2020 4093.01 4652.87 76.38 8.00 189.47 2778.38
   22:15:59.966.16-Jul-2020 4093.01 4652.87 76.38 8.00 189.67 2778.38
   22:16:00.166.16-Jul-2020 4093.01 4652.87 76.38 8.00 189.87 2778.38
   22:16:00.367.16-Jul-2020 4093.01 4652.87 76.38 8.00 190.07 2778.38
   22:16:00.567.16-Jul-2020 4093.01 4652.87 76.38 8.00 190.27 2778.38
   22:16:00.767.16-Jul-2020 4093.01 4652.87 76.38 8.00 190.47 2778.38
   22:16:00.967.16-Jul-2020 4093.01 4652.97 76.38 8.00 190.67 2778.38
   22:16:01.167.16-Jul-2020 4093.01 4652.82 76.38 8.00 190.87 2778.38
   22:16:01.367.16-Jul-2020 4093.01 4652.87 76.38 8.00 191.07 2778.38
   22:16:01.567.16-Jul-2020 4093.01 4652.87 76.38 8.00 191.27 2778.38
   22:16:01.767.16-Jul-2020 4093.01 4652.86 76.38 8.00 191.47 2778.38
   22:16:01.967.16-Jul-2020 4093.01 4652.87 76.38 8.00 191.67 2778.38
   22:16:02.167.16-Jul-2020 4093.01 4652.86 76.38 8.00 191.87 2778.38
   22:16:02.367.16-Jul-2020 4093.01 4652.88 76.38 8.00 192.07 2778.38
   22:16:02.567.16-Jul-2020 4093.01 4652.88 76.38 8.00 192.27 2778.38
   22:16:02.767.16-Jul-2020 4093.01 4652.88 76.38 8.00 192.47 2778.38
   22:16:02.968.16-Jul-2020 4093.01 4652.87 76.38 8.00 192.67 2778.38
   22:16:03.168.16-Jul-2020 4093.01 4652.87 76.38 8.00 192.87 2778.38
   22:16:03.368.16-Jul-2020 4093.01 4652.88 76.38 8.00 193.07 2778.38
   22:16:03.568.16-Jul-2020 4093.01 4652.88 76.38 8.00 193.27 2778.38
   22:16:03.768.16-Jul-2020 4093.01 4652.88 76.38 8.00 193.47 2778.38
   22:16:03.968.16-Jul-2020 4093.01 4652.86 76.38 8.00 193.67 2778.38
   22:16:04.168.16-Jul-2020 4093.01 4652.98 76.38 8.00 193.87 2778.38
   22:16:04.368.16-Jul-2020 4093.01 4652.81 76.38 8.00 194.07 2778.38
   22:16:04.568.16-Jul-2020 4093.01 4652.81 76.38 8.00 194.27 2778.38
   22:16:04.768.16-Jul-2020 4093.01 4652.88 76.38 8.00 194.47 2778.38
   22:16:04.968.16-Jul-2020 4093.01 4652.83 76.38 8.00 194.67 2778.38
   22:16:05.168.16-Jul-2020 4093.01 4652.96 76.38 8.00 194.87 2778.38
   22:16:05.368.16-Jul-2020 4093.01 4652.84 76.38 8.00 195.07 2778.38
   22:16:05.568.16-Jul-2020 4093.01 4652.84 76.38 8.00 195.27 2778.38
   22:16:05.769.16-Jul-2020 4093.01 4652.96 76.38 8.00 195.47 2778.38
   22:16:05.969.16-Jul-2020 4093.01 4652.83 76.38 8.00 195.67 2778.38
   22:16:06.169.16-Jul-2020 4093.01 4652.85 76.38 8.00 195.87 2778.38
   22:16:06.369.16-Jul-2020 4093.01 4652.87 76.38 8.00 196.07 2778.38
   22:16:06.569.16-Jul-2020 4093.01 4652.87 76.38 8.00 196.27 2778.38
   22:16:06.769.16-Jul-2020 4093.01 4652.85 76.38 8.00 196.47 2778.38
   22:16:06.969.16-Jul-2020 4093.01 4652.83 76.38 8.00 196.67 2778.38
   22:16:07.169.16-Jul-2020 4093.01 4652.97 76.38 8.00 196.87 2778.38
   22:16:07.369.16-Jul-2020 4093.01 4652.83 76.38 8.00 197.07 2778.38
   22:16:07.569.16-Jul-2020 4093.01 4652.85 76.38 8.00 197.27 2778.38
   22:16:07.769.16-Jul-2020 4093.01 4652.88 76.38 8.00 197.47 2778.38
   22:16:07.969.16-Jul-2020 4093.01 4652.85 76.38 8.00 197.67 2778.38
   22:16:08.169.16-Jul-2020 4093.01 4652.88 76.38 8.00 197.87 2778.38
   22:16:08.370.16-Jul-2020 4093.01 4652.85 76.38 8.00 198.07 2778.38
   22:16:08.570.16-Jul-2020 4093.01 4652.87 76.38 8.00 198.27 2778.38
   22:16:08.770.16-Jul-2020 4093.01 4652.87 76.38 8.00 198.47 2778.38
   22:16:08.970.16-Jul-2020 4093.01 4652.87 76.38 8.00 198.67 2778.38
   22:16:09.170.16-Jul-2020 4093.01 4652.87 76.38 8.00 198.87 2778.38
   22:16:09.370.16-Jul-2020 4093.01 4652.87 76.38 8.00 199.08 2778.38
   22:16:09.570.16-Jul-2020 4093.01 4652.87 76.38 8.00 199.28 2778.38
   22:16:09.770.16-Jul-2020 4093.01 4652.94 76.38 8.00 199.48 2778.38
   22:16:09.970.16-Jul-2020 4093.01 4652.85 76.38 8.00 199.68 2778.38
   22:16:10.170.16-Jul-2020 4093.01 4652.85 76.38 8.00 199.88 2778.38
   22:16:10.370.16-Jul-2020 4093.01 4652.87 76.38 8.00 200.08 2778.38
   22:16:10.570.16-Jul-2020 4093.01 4652.87 76.38 8.00 200.28 2778.38
   22:16:10.770.16-Jul-2020 4093.01 4652.88 76.38 8.00 200.48 2778.38
   22:16:10.971.16-Jul-2020 4093.01 4652.85 76.38 8.00 200.68 2778.38
   22:16:11.171.16-Jul-2020 4093.01 4652.88 76.38 8.00 200.88 2778.38
   22:16:11.371.16-Jul-2020 4093.01 4652.86 76.38 8.00 201.08 2778.38
   22:16:11.571.16-Jul-2020 4093.01 4652.86 76.38 8.00 201.28 2778.38
   22:16:11.771.16-Jul-2020 4093.01 4652.88 76.38 8.00 201.48 2778.38
   22:16:11.971.16-Jul-2020 4093.01 4652.87 76.38 8.00 201.68 2778.38
   22:16:12.171.16-Jul-2020 4093.01 4652.87 76.38 8.00 201.88 2778.38
   22:16:12.371.16-Jul-2020 4093.01 4652.88 76.38 8.00 202.08 2778.38
   22:16:12.571.16-Jul-2020 4093.01 4652.86 76.38 8.00 202.28 2778.38
   22:16:12.771.16-Jul-2020 4093.01 4652.87 76.38 8.00 202.48 2778.38
   22:16:12.971.16-Jul-2020 4093.01 4652.95 76.38 8.00 202.68 2778.38
   22:16:13.171.16-Jul-2020 4093.01 4652.83 76.38 8.00 202.88 2778.38
   22:16:13.371.16-Jul-2020 4093.01 4652.85 76.38 8.00 203.08 2778.38
   22:16:13.572.16-Jul-2020 4093.01 4652.85 76.38 8.00 203.28 2778.38
   22:16:13.772.16-Jul-2020 4093.01 4652.87 76.38 8.00 203.48 2778.38
   22:16:13.972.16-Jul-2020 4093.01 4652.92 76.38 8.00 203.68 2778.38
   22:16:14.172.16-Jul-2020 4093.01 4652.85 76.38 8.00 203.88 2778.38
   22:16:14.372.16-Jul-2020 4093.01 4652.86 76.38 8.00 204.08 2778.38
   22:16:14.572.16-Jul-2020 4093.01 4652.86 76.38 8.00 204.28 2778.38
   22:16:14.772.16-Jul-2020 4093.01 4652.83 76.38 8.00 204.48 2778.38
   22:16:14.972.16-Jul-2020 4093.01 4652.85 76.38 8.00 204.68 2778.38
   22:16:15.172.16-Jul-2020 4093.01 4652.87 76.38 8.00 204.88 2778.38
   22:16:15.372.16-Jul-2020 4093.01 4652.85 76.38 8.00 205.08 2778.38
   22:16:15.572.16-Jul-2020 4093.01 4652.85 76.38 8.00 205.28 2778.38
   22:16:15.772.16-Jul-2020 4093.01 4652.87 76.38 8.00 205.48 2778.38
   22:16:15.972.16-Jul-2020 4093.01 4652.92 76.38 8.00 205.68 2778.38
   22:16:16.172.16-Jul-2020 4093.01 4652.83 76.38 8.00 205.88 2778.38
   22:16:16.373.16-Jul-2020 4093.01 4652.87 76.38 8.00 206.08 2778.38
   22:16:16.573.16-Jul-2020 4093.01 4652.87 76.38 8.00 206.28 2778.38
   22:16:16.773.16-Jul-2020 4093.01 4652.87 76.38 8.00 206.48 2778.38
   22:16:16.973.16-Jul-2020 4093.01 4652.87 76.38 8.00 206.68 2778.38
   22:16:17.173.16-Jul-2020 4093.01 4652.86 76.38 8.00 206.88 2778.38
