~Version Information
 VERS.                  2.0:   CWLS log ASCII Standard -VERSION 2.0
 WRAP.                   NO:   One line per depth step
~Well Information Block
#MNEM.UNIT     VALUE/NAME     DESCRIPTION
#---------     -----------    ---------------------------
 STRT.S             16:06:05 16-Jul-20: START TIME 16:06:05 16-Jul-20
 STOP.S             16:12:59 16-Jul-20: STOP TIME  16:12:59 16-Jul-20
 STEP.S                   0.00: STEP TIME
 NULL.                 -999.25: NULL VALUE
 MDS .        Operator Entered:  MAG DATA SOURCE
 UNIT.                     N/A:  LOGGING EQUIPMENT ID
 DCON.         Sperry Drilling:  DIRECTNL CONTR
 DOE .                     N/A:  DOE NUMBER
 RIG .               EastAzeri:  RIG NAME
 JOBN.        AZ-XX-0906363297:  JOB TICKET NUMB
 MWDS.                    Baku:  MWD SHOP
 SRVC.     Turan Drilling & Engineering:  CONTRACTOR
 PROV.                    Baku:  PROVINCE
 STAT.                    Baku:  STATE NAME
 REGN.                   EESSA:  REGION
 BASE.              Azerbaijan:  LOGGING EQUIPMENT BASE LOCATION
 WTYP.                Deviated:  WELL TYPE
 UWI .                     N/A:  UNIQUE WELL IDENTIFIER
 API .                     N/A:  API NUMBER
 COMP.     BP Exploration (Caspian Sea) ltd.:  COMPANY
 WELL.                    D07z:  WELL NAME
 CTRY.              Azerbaijan:  COUNTRY NAME
 SON .        AZ-XX-0906363297:  JOB NUMBER
 FLD .                     ACG:  FIELD NAME
 PDAT.          Mean Sea Level:  PERMANENT DATUM
 FTOP.          Formation Tops:  FORM TOPS DESC
 ILTD.               Lithology:  INTERP LTH DESC
 SVYD.                  Survey:  SURVEY DESC
 DMOD.             Drill Model:  DRILL MOD DESC
 HPTY.       Minimum Curvature:  HOLE POS TYPE
 NREF.                    Grid:  NORTH REFERENCE
 SPUD.               28-Jun-20:  SPUD DATE
 DATE.      18.27.12 28-Jun-20:  END TIME
 STIM.      18.27.12 28-Jun-20:  START TIME
 DMF .             Drill Floor:  DRILL MEAS FROM
 DFST.                        :  DIST FSL TEXT
 DFWT.                        :  DIST FWL TEXT
 CNTY.                        :  COUNTY
 LOC .                        :  LOCATION
 LMF .             Drill Floor:  LOG MEASURED FROM
 VSNS.m                  -7.75:  VERT SEC N/S
 VSEW.m                  -9.19:  VERT SEC E/W
 MMDE.m                   0.00:  MAGUTM CALC DEP
 AGAP.m                  43.60:  AIR GAP
 DEP .m                4058.99:  DEPTH
 APD .m                  43.60:  DEPTH ABOVE PD
 WDMS.m                 151.80:  WD ELEV
 EGL .m                   0.00:  GROUND ELEVATION
 EPD .m                   0.00:  ELEVATION
 AZTC.deg                 6.19:  AZM TOTAL CORR
 GRDC.deg                 0.27:  GRID CORRECTION
 MDEC.deg                 6.46:  MAGNETIC DECL
 MDIP.deg                59.47:  MAGNETIC DIP
 MFLD.nT              50279.00:  MAGNETIC FIELD
 GVFD.g                   1.00:  GRAVITY FIELD
 VSDR.deg               249.96:  VERT SEC DIRECT
 TDD .m                   0.00:  TOTAL DEPTH (DRILLER)
 SDEP.m                   0.00:  START DEPTH
 DFSL.m                   0.00:  DISTANCE FSL
 DFWL.m                   0.00:  DISTANCE FWL
 UTMY.m             4431880.20:  UTM Y
 UTMX.m              538763.98:  UTM X
 WHEW.m                  -9.19:  WELL HEAD E/W
 WHNS.m                  -7.75:  WELL HEAD N/S
 LONG.deg                51.45:  LONGITUDE
 LATI.deg                40.02:  LATITUDE
 TVDS.m                  43.60:  TVDSS CORRECTN
 EKB .m                  43.60:  KB ELEVATION
 EDF .m                  43.60:  DF ELEVATION
 TDL .m                 248.00:  TOTAL DEPTH (LOGGER)
 MAGU.                 1849075:  MAGUTM CHECKSUM
 VSC .                       0:  VS TO CLOSURE
~Parameter Information Block
#MNEM.UNIT       Value        Description
#---------     -----------    ---------------------------
 AV  .mps                 6.34:  Ann Velocity 
 AVMX.mps                 7.00:  Max Ann Veloc 
 AZIF.deg               260.29:  Azm, Final 
 BHAT.        Rotary Steerable:  BHA Type 
 BROT.°/30m               1.20:  Build Rotating 
 BS  .in                  8.50:  Bit Size 
 BSZ .in                  8.50:  Bit Size 
 BTPL.psig              620.00:  Bit Press Loss 
 CABU.                     Yes:  Customer Abuse 
 COMM.                     l&q:  Run Comments 1 
 TCS .hr                 56.22:  Time Ciculation Ended 
 CV  .mps                 3.05:  Crit Velocity 
 CVMX.mps                 3.20:  Max Crit Veloc 
 DD1 .            Musa Ahmadov:  Direct Drillr 1 
 DDSV.                 iCruise:  DD Service 
 DEFF.%                  98.00:  % Det Eff 
 DLRX.°/30m               2.78:  Dogleg Rot Max 
 DLSO.°/30m               0.00:  Dogleg Oriented 
 DLSX.°/30m               0.00:  Dogleg Str Max 
 DRET.      05.20.48 16-Jul-20:  Drill End Time 
 DRST.      10.20.48 13-Jul-20:  Drill Start Tim 
 DTIM.hr                 14.25:  Time Drilling 
 EDEP.m                4326.01:  End Depth 
 ENG1.      Artemiy Matviyanov:  Engineer 1 
 ENG2.           Amrah Tahirov:  Engineer 2 
 ETIM.      22.30.00 18-Jul-20:  End Time 
 FLOI.gpm               550.00:  Flow In 
 FLON.gpm               450.00:  Flow In Min 
 FLOS.cptm                0.00:  Fluid Loss 
 FLOX.gpm               600.00:  Flow In Max 
 HFLO.                      No:  High Flow 
 HPRE.                      No:  High Pressure 
 HTEM.                      No:  High Temp 
 HYDO.m                   1.80:  Hydro Offset 
 IFIN.deg                65.41:  Inc, Final 
 IMAX.deg                65.14:  Inc Max 
 IMIN.deg                58.89:  Inc Min 
 IMND.m                4104.92:  Inc Min Depth 
 IMXD.m                4303.89:  Inc Max Depth 
 JARR.                      No:  Jarring 
 LETM.      10.20.48 17-Jul-20:  Log End Time 
 LOST.hr                     0:  Lost Rig Time 
 LSTM.      10.20.48 13-Jul-20:  Log Start Time 
 MDCL.ppm             37000.00:  Mud Chlorides 
 MDES.     Inversion Oil/Synthetic:  Mud Desc 
 DFD .sg                  1.52:  Mud Density 
 MDMN.sg                  1.52:  Dens Mud Min 
 MDMX.sg                  1.52:  Dens Mud Max 
 MOIL.                   52.70:  Run Mud Oil % 
 MOWR.                   68:32:  Run Mud OWR 
 MSND.                     0.2:  Run Mud Sand % 
 MSOL.                    21.6:  Run Mud Solids% 
 DFV .spqt               79.00:  Mud Viscosity 
 MWOD.in                  6.75:  MWD Tool OD 
 MWSI.                      No:  Serv Intrp, MWD 
 OTIM.hr                114.04:  Time Operating 
 PCON.          Wear / Scratch:  Pad Condition 
 PMAX.psia            11782.92:  Press Op, Max 
 PV  .cP                 49.00:  Mud PV 
 RUN .                     600:  Run Number 
 ROPA.m/hr               20.00:  ROP Avg 
 ROPN.m/hr               15.00:  ROP Min 
 ROPX.m/hr               22.00:  ROP Max 
 RPMA.rpm               120.00:  RPM Surface Avg 
 RPMN.rpm                90.00:  RPM Surface Min 
 RPMX.rpm               140.00:  RPM Surface Max 
 RRUN.                     600:  Rig Run Number 
 SAZI.deg               260.29:  Azm, Start 
 SDEP.m                4078.01:  Start Depth 
 SIDD.                      No:  Serv Intrp, DD 
 SINC.deg                58.89:  Inc, Start 
 SPPA.psig             4560.00:  SPP Avg 
 SPPN.psig             3600.00:  SPP Min 
 SPPX.psig             4800.00:  SPP Max 
 STIM.      10.20.48 13-Jul-20:  Start Time 
 SVCS.                 DD, MWD:  Services 
 SVER.                    9.20:  Sperry Version 
 TDAT.m                4378.01:  Tot Depth Attmp 
 TDDF.                      No:  Trip for DD 
 TDLG.m                 248.00:  Tot Depth Loggd 
 TFF .                      No:  Trip for Fail 
 TQAA.f-kp               18.00:  Torque Abs Avg 
 TQAN.f-kp               15.00:  Torque Abs Min 
 TQAX.f-kp               20.00:  Torque Abs Max 
 TRRT.°/30m               0.70:  Turn Rotating 
 MRT .                    HCIM:  Maximum Recorded Temperature 
 TTMX.degC               86.00:  Max Tool Temp 
 WBMN.klb                 3.00:  WOB Min 
 WOBA.klb                 5.00:  WOB Avg 
 WOBX.klb                 9.00:  WOB Max 
 YP  .lhf2               32.00:  Yield Point 
~Curve Information Block
#MNEM.UNIT                 API CODE     Curve Description
#---------               -----------    ---------------------------
 TIME.HHMMSS            00 000 000 000:  GT Time & Date
 GTDEPTH.m              00 000 000 000:  GT Depth
 GTPQH.psia             00 000 000 000:  GT HR Quartz Pressure
 GTTQ.degC              00 000 000 000:  GT Quartz Temperature
 GTTN.NONE              00 000 000 000:  GT Test Number
 GTET.sec               00 000 000 000:  GT Elapsed Test Time
 GTTVD.m                00 000 000 000:  GT True Vertical Depth
#Other Information
#
#WARRANTY: Halliburton will use its best efforts to furnish customers with 
#accurate information and interpretations that are part of, and incident to, the services 
#provided.  However, Halliburton cannot and does not warrant the accuracy 
#or correctness of such information and interpretations.  Under no circumstances should any 
#such information or interpretation be relied upon as the sole basis for any drilling, 
#completion, production, or financial decision or any procedure involving any risk to the 
#safety of any drilling venture, drilling rig or its crew or any other third party.  The 
#Customer has full responsibility for all drilling, completion and production operation.  
#Halliburton makes no representations or warranties, either expressed or 
#implied, including, but not limited to, the implied warranties of merchantability or fitness 
#for a particular purpose, with respect to the services rendered.  In no event will 
#Halliburton be liable for failure to obtain any particular results or for 
#any damages, including, but not limited to, indirect, special or consequential damages, 
#resulting from the use of any information or interpretation provided by Halliburton.
#
~A           TIME           GTDEPTH  GTPQH  GTTQ  GTTN  GTET   GTTVD  
# ...
   16:08:46.800.16-Jul-2020 4280.51 4340.72 80.11 1.00 161.03 2863.78
   16:08:47.000.16-Jul-2020 4280.51 4341.25 80.11 1.00 161.23 2863.78
   16:08:47.200.16-Jul-2020 4280.51 4340.88 80.11 1.00 161.43 2863.78
   16:08:47.400.16-Jul-2020 4280.51 4341.03 80.12 1.00 161.63 2863.78
   16:08:47.600.16-Jul-2020 4280.51 4341.04 80.12 1.00 161.83 2863.78
   16:08:47.800.16-Jul-2020 4280.51 4340.92 80.12 1.00 162.03 2863.78
   16:08:48.000.16-Jul-2020 4280.51 4341.29 80.12 1.00 162.23 2863.78
   16:08:48.200.16-Jul-2020 4280.51 4341.06 80.12 1.00 162.43 2863.78
   16:08:48.400.16-Jul-2020 4280.51 4341.26 80.12 1.00 162.63 2863.78
   16:08:48.600.16-Jul-2020 4280.51 4341.17 80.12 1.00 162.83 2863.78
   16:08:48.800.16-Jul-2020 4280.51 4341.31 80.12 1.00 163.03 2863.78
   16:08:49.000.16-Jul-2020 4280.51 4341.31 80.12 1.00 163.23 2863.78
   16:08:49.200.16-Jul-2020 4280.51 4341.31 80.12 1.00 163.43 2863.78
   16:08:49.400.16-Jul-2020 4280.51 4341.47 80.12 1.00 163.63 2863.78
   16:08:49.600.16-Jul-2020 4280.51 4341.31 80.12 1.00 163.83 2863.78
   16:08:49.801.16-Jul-2020 4280.51 4341.19 80.12 1.00 164.03 2863.78
   16:08:50.001.16-Jul-2020 4280.51 4341.19 80.12 1.00 164.23 2863.78
   16:08:50.201.16-Jul-2020 4280.51 4341.35 80.12 1.00 164.43 2863.78
   16:08:50.401.16-Jul-2020 4280.51 4341.35 80.12 1.00 164.63 2863.78
   16:08:50.601.16-Jul-2020 4280.51 4341.36 80.12 1.00 164.83 2863.78
   16:08:50.801.16-Jul-2020 4280.51 4341.47 80.12 1.00 165.03 2863.78
   16:08:51.001.16-Jul-2020 4280.51 4341.39 80.12 1.00 165.23 2863.78
   16:08:51.201.16-Jul-2020 4280.51 4341.46 80.12 1.00 165.43 2863.78
   16:08:51.401.16-Jul-2020 4280.51 4341.46 80.12 1.00 165.63 2863.78
   16:08:51.601.16-Jul-2020 4280.51 4341.42 80.12 1.00 165.83 2863.78
   16:08:51.801.16-Jul-2020 4280.51 4341.50 80.12 1.00 166.03 2863.78
   16:08:52.001.16-Jul-2020 4280.51 4341.52 80.12 1.00 166.23 2863.78
   16:08:52.201.16-Jul-2020 4280.51 4341.64 80.12 1.00 166.43 2863.78
   16:08:52.401.16-Jul-2020 4280.51 4341.44 80.12 1.00 166.63 2863.78
   16:08:52.601.16-Jul-2020 4280.51 4341.56 80.12 1.00 166.83 2863.78
   16:08:52.801.16-Jul-2020 4280.51 4341.56 80.12 1.00 167.03 2863.78
   16:08:53.001.16-Jul-2020 4280.51 4341.56 80.12 1.00 167.23 2863.78
   16:08:53.201.16-Jul-2020 4280.51 4341.56 80.12 1.00 167.43 2863.78
   16:08:53.401.16-Jul-2020 4280.51 4341.61 80.12 1.00 167.63 2863.78
   16:08:53.601.16-Jul-2020 4280.51 4341.57 80.12 1.00 167.83 2863.78
   16:08:53.801.16-Jul-2020 4280.51 4341.62 80.12 1.00 168.03 2863.78
   16:08:54.001.16-Jul-2020 4280.51 4341.62 80.12 1.00 168.23 2863.78
   16:08:54.201.16-Jul-2020 4280.51 4341.61 80.12 1.00 168.43 2863.78
   16:08:54.401.16-Jul-2020 4280.51 4341.66 80.12 1.00 168.63 2863.78
   16:08:54.602.16-Jul-2020 4280.51 4341.61 80.12 1.00 168.83 2863.78
   16:08:54.802.16-Jul-2020 4280.51 4341.65 80.12 1.00 169.03 2863.78
   16:08:55.002.16-Jul-2020 4280.51 4341.65 80.12 1.00 169.23 2863.78
   16:08:55.202.16-Jul-2020 4280.51 4341.66 80.12 1.00 169.43 2863.78
   16:08:55.402.16-Jul-2020 4280.51 4341.90 80.12 1.00 169.63 2863.78
   16:08:55.602.16-Jul-2020 4280.51 4341.58 80.12 1.00 169.83 2863.78
   16:08:55.802.16-Jul-2020 4280.51 4341.79 80.12 1.00 170.04 2863.78
   16:08:56.002.16-Jul-2020 4280.51 4341.71 80.12 1.00 170.24 2863.78
   16:08:56.202.16-Jul-2020 4280.51 4341.71 80.12 1.00 170.44 2863.78
   16:08:56.402.16-Jul-2020 4280.51 4341.80 80.12 1.00 170.64 2863.78
   16:08:56.602.16-Jul-2020 4280.51 4341.88 80.12 1.00 170.84 2863.78
   16:08:56.802.16-Jul-2020 4280.51 4341.68 80.12 1.00 171.04 2863.78
   16:08:57.002.16-Jul-2020 4280.51 4341.68 80.12 1.00 171.24 2863.78
   16:08:57.202.16-Jul-2020 4280.51 4341.80 80.12 1.00 171.44 2863.78
   16:08:57.402.16-Jul-2020 4280.51 4341.74 80.12 1.00 171.64 2863.78
   16:08:57.602.16-Jul-2020 4280.51 4341.75 80.12 1.00 171.84 2863.78
   16:08:57.802.16-Jul-2020 4280.51 4342.05 80.12 1.00 172.04 2863.78
   16:08:58.002.16-Jul-2020 4280.51 4342.05 80.12 1.00 172.24 2863.78
   16:08:58.202.16-Jul-2020 4280.51 4341.81 80.12 1.00 172.44 2863.78
   16:08:58.402.16-Jul-2020 4280.51 4341.88 80.12 1.00 172.64 2863.78
   16:08:58.602.16-Jul-2020 4280.51 4341.78 80.12 1.00 172.84 2863.78
   16:08:58.802.16-Jul-2020 4280.51 4341.68 80.12 1.00 173.04 2863.78
   16:08:59.002.16-Jul-2020 4280.51 4341.87 80.12 1.00 173.24 2863.78
   16:08:59.202.16-Jul-2020 4280.51 4341.87 80.12 1.00 173.44 2863.78
   16:08:59.402.16-Jul-2020 4280.51 4341.87 80.12 1.00 173.64 2863.78
   16:08:59.603.16-Jul-2020 4280.51 4341.92 80.12 1.00 173.84 2863.78
   16:08:59.803.16-Jul-2020 4280.51 4341.86 80.12 1.00 174.04 2863.78
   16:09:00.003.16-Jul-2020 4280.51 4341.81 80.12 1.00 174.24 2863.78
   16:09:00.203.16-Jul-2020 4280.51 4341.88 80.12 1.00 174.44 2863.78
   16:09:00.403.16-Jul-2020 4280.51 4341.98 80.12 1.00 174.64 2863.78
   16:09:00.603.16-Jul-2020 4280.51 4341.86 80.12 1.00 174.84 2863.78
   16:09:00.803.16-Jul-2020 4280.51 4341.86 80.12 1.00 175.04 2863.78
   16:09:01.003.16-Jul-2020 4280.51 4341.86 80.12 1.00 175.24 2863.78
   16:09:01.203.16-Jul-2020 4280.51 4341.90 80.12 1.00 175.44 2863.78
   16:09:01.403.16-Jul-2020 4280.51 4341.95 80.12 1.00 175.64 2863.78
   16:09:01.603.16-Jul-2020 4280.51 4342.06 80.12 1.00 175.84 2863.78
   16:09:01.803.16-Jul-2020 4280.51 4341.89 80.12 1.00 176.04 2863.78
   16:09:02.003.16-Jul-2020 4280.51 4341.89 80.12 1.00 176.24 2863.78
   16:09:02.203.16-Jul-2020 4280.51 4342.01 80.11 1.00 176.44 2863.78
   16:09:02.403.16-Jul-2020 4280.51 4341.93 80.11 1.00 176.64 2863.78
   16:09:02.603.16-Jul-2020 4280.51 4341.88 80.11 1.00 176.84 2863.78
   16:09:02.803.16-Jul-2020 4280.51 4342.00 80.11 1.00 177.04 2863.78
   16:09:03.003.16-Jul-2020 4280.51 4341.95 80.11 1.00 177.24 2863.78
   16:09:03.203.16-Jul-2020 4280.51 4341.95 80.11 1.00 177.44 2863.78
   16:09:03.403.16-Jul-2020 4280.51 4341.98 80.11 1.00 177.64 2863.78
   16:09:03.603.16-Jul-2020 4280.51 4341.95 80.11 1.00 177.84 2863.78
   16:09:03.803.16-Jul-2020 4280.51 4342.01 80.11 1.00 178.04 2863.78
   16:09:04.003.16-Jul-2020 4280.51 4341.96 80.11 1.00 178.24 2863.78
   16:09:04.203.16-Jul-2020 4280.51 4341.98 80.11 1.00 178.44 2863.78
   16:09:04.404.16-Jul-2020 4280.51 4341.98 80.11 1.00 178.64 2863.78
   16:09:04.604.16-Jul-2020 4280.51 4341.95 80.11 1.00 178.84 2863.78
   16:09:04.804.16-Jul-2020 4280.51 4342.22 80.11 1.00 179.04 2863.78
   16:09:05.004.16-Jul-2020 4280.51 4342.22 80.11 1.00 179.24 2863.78
   16:09:05.204.16-Jul-2020 4280.51 4342.01 80.11 1.00 179.44 2863.78
   16:09:05.404.16-Jul-2020 4280.51 4342.08 80.11 1.00 179.64 2863.78
   16:09:05.604.16-Jul-2020 4280.51 4341.88 80.11 1.00 179.84 2863.78
   16:09:05.804.16-Jul-2020 4280.51 4342.02 80.11 1.00 180.04 2863.78
   16:09:06.004.16-Jul-2020 4280.51 4342.02 80.11 1.00 180.24 2863.78
   16:09:06.204.16-Jul-2020 4280.51 4341.98 80.11 1.00 180.44 2863.78
   16:09:06.404.16-Jul-2020 4280.51 4342.10 80.11 1.00 180.64 2863.78
   16:09:06.604.16-Jul-2020 4280.51 4342.03 80.11 1.00 180.84 2863.78
   16:09:06.804.16-Jul-2020 4280.51 4341.96 80.11 1.00 181.04 2863.78
   16:09:07.004.16-Jul-2020 4280.51 4342.02 80.11 1.00 181.24 2863.78
   16:09:07.204.16-Jul-2020 4280.51 4341.96 80.11 1.00 181.44 2863.78
   16:09:07.404.16-Jul-2020 4280.51 4342.40 80.11 1.00 181.64 2863.78
   16:09:07.604.16-Jul-2020 4280.51 4341.92 80.11 1.00 181.84 2863.78
   16:09:07.804.16-Jul-2020 4280.51 4342.15 80.11 1.00 182.04 2863.78
   16:09:08.004.16-Jul-2020 4280.51 4342.07 80.11 1.00 182.24 2863.78
   16:09:08.204.16-Jul-2020 4280.51 4342.00 80.11 1.00 182.44 2863.78
   16:09:08.404.16-Jul-2020 4280.51 4342.06 80.11 1.00 182.64 2863.78
   16:09:08.604.16-Jul-2020 4280.51 4342.30 80.11 1.00 182.84 2863.78
   16:09:08.804.16-Jul-2020 4280.51 4342.05 80.11 1.00 183.04 2863.78
   16:09:09.004.16-Jul-2020 4280.51 4342.01 80.11 1.00 183.24 2863.78
   16:09:09.205.16-Jul-2020 4280.51 4342.19 80.11 1.00 183.44 2863.78
   16:09:09.405.16-Jul-2020 4280.51 4342.07 80.11 1.00 183.64 2863.78
   16:09:09.605.16-Jul-2020 4280.51 4342.03 80.11 1.00 183.84 2863.78
