~Version Information
 VERS.                  2.0:   CWLS log ASCII Standard -VERSION 2.0
 WRAP.                   NO:   One line per depth step
~Well Information Block
#MNEM.UNIT     VALUE/NAME     DESCRIPTION
#---------     -----------    ---------------------------
 STRT.S             16:55:55 16-Jul-20: START TIME 16:55:55 16-Jul-20
 STOP.S             17:02:47 16-Jul-20: STOP TIME  17:02:47 16-Jul-20
 STEP.S                   0.00: STEP TIME
 NULL.                 -999.25: NULL VALUE
 MDS .        Operator Entered:  MAG DATA SOURCE
 UNIT.                     N/A:  LOGGING EQUIPMENT ID
 DCON.         Sperry Drilling:  DIRECTNL CONTR
 DOE .                     N/A:  DOE NUMBER
 RIG .               EastAzeri:  RIG NAME
 JOBN.        AZ-XX-0906363297:  JOB TICKET NUMB
 MWDS.                    Baku:  MWD SHOP
 SRVC.     Turan Drilling & Engineering:  CONTRACTOR
 PROV.                    Baku:  PROVINCE
 STAT.                    Baku:  STATE NAME
 REGN.                   EESSA:  REGION
 BASE.              Azerbaijan:  LOGGING EQUIPMENT BASE LOCATION
 WTYP.                Deviated:  WELL TYPE
 UWI .                     N/A:  UNIQUE WELL IDENTIFIER
 API .                     N/A:  API NUMBER
 COMP.     BP Exploration (Caspian Sea) ltd.:  COMPANY
 WELL.                    D07z:  WELL NAME
 CTRY.              Azerbaijan:  COUNTRY NAME
 SON .        AZ-XX-0906363297:  JOB NUMBER
 FLD .                     ACG:  FIELD NAME
 PDAT.          Mean Sea Level:  PERMANENT DATUM
 FTOP.          Formation Tops:  FORM TOPS DESC
 ILTD.               Lithology:  INTERP LTH DESC
 SVYD.                  Survey:  SURVEY DESC
 DMOD.             Drill Model:  DRILL MOD DESC
 HPTY.       Minimum Curvature:  HOLE POS TYPE
 NREF.                    Grid:  NORTH REFERENCE
 SPUD.               28-Jun-20:  SPUD DATE
 DATE.      18.27.12 28-Jun-20:  END TIME
 STIM.      18.27.12 28-Jun-20:  START TIME
 DMF .             Drill Floor:  DRILL MEAS FROM
 DFST.                        :  DIST FSL TEXT
 DFWT.                        :  DIST FWL TEXT
 CNTY.                        :  COUNTY
 LOC .                        :  LOCATION
 LMF .             Drill Floor:  LOG MEASURED FROM
 VSNS.m                  -7.75:  VERT SEC N/S
 VSEW.m                  -9.19:  VERT SEC E/W
 MMDE.m                   0.00:  MAGUTM CALC DEP
 AGAP.m                  43.60:  AIR GAP
 DEP .m                4058.99:  DEPTH
 APD .m                  43.60:  DEPTH ABOVE PD
 WDMS.m                 151.80:  WD ELEV
 EGL .m                   0.00:  GROUND ELEVATION
 EPD .m                   0.00:  ELEVATION
 AZTC.deg                 6.19:  AZM TOTAL CORR
 GRDC.deg                 0.27:  GRID CORRECTION
 MDEC.deg                 6.46:  MAGNETIC DECL
 MDIP.deg                59.47:  MAGNETIC DIP
 MFLD.nT              50279.00:  MAGNETIC FIELD
 GVFD.g                   1.00:  GRAVITY FIELD
 VSDR.deg               249.96:  VERT SEC DIRECT
 TDD .m                   0.00:  TOTAL DEPTH (DRILLER)
 SDEP.m                   0.00:  START DEPTH
 DFSL.m                   0.00:  DISTANCE FSL
 DFWL.m                   0.00:  DISTANCE FWL
 UTMY.m             4431880.20:  UTM Y
 UTMX.m              538763.98:  UTM X
 WHEW.m                  -9.19:  WELL HEAD E/W
 WHNS.m                  -7.75:  WELL HEAD N/S
 LONG.deg                51.45:  LONGITUDE
 LATI.deg                40.02:  LATITUDE
 TVDS.m                  43.60:  TVDSS CORRECTN
 EKB .m                  43.60:  KB ELEVATION
 EDF .m                  43.60:  DF ELEVATION
 TDL .m                 248.00:  TOTAL DEPTH (LOGGER)
 MAGU.                 1849075:  MAGUTM CHECKSUM
 VSC .                       0:  VS TO CLOSURE
~Parameter Information Block
#MNEM.UNIT       Value        Description
#---------     -----------    ---------------------------
 AV  .mps                 6.34:  Ann Velocity 
 AVMX.mps                 7.00:  Max Ann Veloc 
 AZIF.deg               260.29:  Azm, Final 
 BHAT.        Rotary Steerable:  BHA Type 
 BROT.°/30m               1.20:  Build Rotating 
 BS  .in                  8.50:  Bit Size 
 BSZ .in                  8.50:  Bit Size 
 BTPL.psig              620.00:  Bit Press Loss 
 CABU.                     Yes:  Customer Abuse 
 COMM.                     3z:  Run Comments 1 
 TCS .hr                 56.22:  Time Ciculation Ended 
 CV  .mps                 3.05:  Crit Velocity 
 CVMX.mps                 3.20:  Max Crit Veloc 
 DD1 .            Musa Ahmadov:  Direct Drillr 1 
 DDSV.                 iCruise:  DD Service 
 DEFF.%                  98.00:  % Det Eff 
 DLRX.°/30m               2.78:  Dogleg Rot Max 
 DLSO.°/30m               0.00:  Dogleg Oriented 
 DLSX.°/30m               0.00:  Dogleg Str Max 
 DRET.      05.20.48 16-Jul-20:  Drill End Time 
 DRST.      10.20.48 13-Jul-20:  Drill Start Tim 
 DTIM.hr                 14.25:  Time Drilling 
 EDEP.m                4326.01:  End Depth 
 ENG1.      Artemiy Matviyanov:  Engineer 1 
 ENG2.           Amrah Tahirov:  Engineer 2 
 ETIM.      22.30.00 18-Jul-20:  End Time 
 FLOI.gpm               550.00:  Flow In 
 FLON.gpm               450.00:  Flow In Min 
 FLOS.cptm                0.00:  Fluid Loss 
 FLOX.gpm               600.00:  Flow In Max 
 HFLO.                      No:  High Flow 
 HPRE.                      No:  High Pressure 
 HTEM.                      No:  High Temp 
 HYDO.m                   1.80:  Hydro Offset 
 IFIN.deg                65.41:  Inc, Final 
 IMAX.deg                65.14:  Inc Max 
 IMIN.deg                58.89:  Inc Min 
 IMND.m                4104.92:  Inc Min Depth 
 IMXD.m                4303.89:  Inc Max Depth 
 JARR.                      No:  Jarring 
 LETM.      10.20.48 17-Jul-20:  Log End Time 
 LOST.hr                     0:  Lost Rig Time 
 LSTM.      10.20.48 13-Jul-20:  Log Start Time 
 MDCL.ppm             37000.00:  Mud Chlorides 
 MDES.     Inversion Oil/Synthetic:  Mud Desc 
 DFD .sg                  1.52:  Mud Density 
 MDMN.sg                  1.52:  Dens Mud Min 
 MDMX.sg                  1.52:  Dens Mud Max 
 MOIL.                   52.70:  Run Mud Oil % 
 MOWR.                   68:32:  Run Mud OWR 
 MSND.                     0.2:  Run Mud Sand % 
 MSOL.                    21.6:  Run Mud Solids% 
 DFV .spqt               79.00:  Mud Viscosity 
 MWOD.in                  6.75:  MWD Tool OD 
 MWSI.                      No:  Serv Intrp, MWD 
 OTIM.hr                114.04:  Time Operating 
 PCON.          Wear / Scratch:  Pad Condition 
 PMAX.psia            11782.92:  Press Op, Max 
 PV  .cP                 49.00:  Mud PV 
 RUN .                     600:  Run Number 
 ROPA.m/hr               20.00:  ROP Avg 
 ROPN.m/hr               15.00:  ROP Min 
 ROPX.m/hr               22.00:  ROP Max 
 RPMA.rpm               120.00:  RPM Surface Avg 
 RPMN.rpm                90.00:  RPM Surface Min 
 RPMX.rpm               140.00:  RPM Surface Max 
 RRUN.                     600:  Rig Run Number 
 SAZI.deg               260.29:  Azm, Start 
 SDEP.m                4078.01:  Start Depth 
 SIDD.                      No:  Serv Intrp, DD 
 SINC.deg                58.89:  Inc, Start 
 SPPA.psig             4560.00:  SPP Avg 
 SPPN.psig             3600.00:  SPP Min 
 SPPX.psig             4800.00:  SPP Max 
 STIM.      10.20.48 13-Jul-20:  Start Time 
 SVCS.                 DD, MWD:  Services 
 SVER.                    9.20:  Sperry Version 
 TDAT.m                4378.01:  Tot Depth Attmp 
 TDDF.                      No:  Trip for DD 
 TDLG.m                 248.00:  Tot Depth Loggd 
 TFF .                      No:  Trip for Fail 
 TQAA.f-kp               18.00:  Torque Abs Avg 
 TQAN.f-kp               15.00:  Torque Abs Min 
 TQAX.f-kp               20.00:  Torque Abs Max 
 TRRT.°/30m               0.70:  Turn Rotating 
 MRT .                    HCIM:  Maximum Recorded Temperature 
 TTMX.degC               86.00:  Max Tool Temp 
 WBMN.klb                 3.00:  WOB Min 
 WOBA.klb                 5.00:  WOB Avg 
 WOBX.klb                 9.00:  WOB Max 
 YP  .lhf2               32.00:  Yield Point 
~Curve Information Block
#MNEM.UNIT                 API CODE     Curve Description
#---------               -----------    ---------------------------
 TIME.HHMMSS            00 000 000 000:  GT Time & Date
 GTDEPTH.m              00 000 000 000:  GT Depth
 GTPQH.psia             00 000 000 000:  GT HR Quartz Pressure
 GTTQ.degC              00 000 000 000:  GT Quartz Temperature
 GTTN.NONE              00 000 000 000:  GT Test Number
 GTET.sec               00 000 000 000:  GT Elapsed Test Time
 GTTVD.m                00 000 000 000:  GT True Vertical Depth
#Other Information
#
#WARRANTY: Halliburton will use its best efforts to furnish customers with 
#accurate information and interpretations that are part of, and incident to, the services 
#provided.  However, Halliburton cannot and does not warrant the accuracy 
#or correctness of such information and interpretations.  Under no circumstances should any 
#such information or interpretation be relied upon as the sole basis for any drilling, 
#completion, production, or financial decision or any procedure involving any risk to the 
#safety of any drilling venture, drilling rig or its crew or any other third party.  The 
#Customer has full responsibility for all drilling, completion and production operation.  
#Halliburton makes no representations or warranties, either expressed or 
#implied, including, but not limited to, the implied warranties of merchantability or fitness 
#for a particular purpose, with respect to the services rendered.  In no event will 
#Halliburton be liable for failure to obtain any particular results or for 
#any damages, including, but not limited to, indirect, special or consequential damages, 
#resulting from the use of any information or interpretation provided by Halliburton.
#
~A           TIME           GTDEPTH  GTPQH  GTTQ  GTTN  GTET   GTTVD  
# ...
   17:00:31.439.16-Jul-2020 4261.01 4635.52 80.07 2.00 276.06 2855.56
   17:00:31.639.16-Jul-2020 4261.01 4635.52 80.07 2.00 276.26 2855.56
   17:00:31.839.16-Jul-2020 4261.01 4635.68 80.07 2.00 276.46 2855.56
   17:00:32.039.16-Jul-2020 4261.01 4635.55 80.07 2.00 276.66 2855.56
   17:00:32.239.16-Jul-2020 4261.01 4635.61 80.07 2.00 276.86 2855.56
   17:00:32.439.16-Jul-2020 4261.01 4635.55 80.07 2.00 277.06 2855.56
   17:00:32.639.16-Jul-2020 4261.01 4635.55 80.07 2.00 277.26 2855.56
   17:00:32.839.16-Jul-2020 4261.01 4635.44 80.07 2.00 277.46 2855.56
   17:00:33.039.16-Jul-2020 4261.01 4635.57 80.07 2.00 277.66 2855.56
   17:00:33.239.16-Jul-2020 4261.01 4635.63 80.07 2.00 277.86 2855.56
   17:00:33.439.16-Jul-2020 4261.01 4635.67 80.07 2.00 278.06 2855.56
   17:00:33.639.16-Jul-2020 4261.01 4635.42 80.07 2.00 278.26 2855.56
   17:00:33.840.16-Jul-2020 4261.01 4635.56 80.07 2.00 278.46 2855.56
   17:00:34.040.16-Jul-2020 4261.01 4635.60 80.07 2.00 278.66 2855.56
   17:00:34.240.16-Jul-2020 4261.01 4635.83 80.07 2.00 278.86 2855.56
   17:00:34.440.16-Jul-2020 4261.01 4635.41 80.07 2.00 279.06 2855.56
   17:00:34.640.16-Jul-2020 4261.01 4635.48 80.07 2.00 279.26 2855.56
   17:00:34.840.16-Jul-2020 4261.01 4635.61 80.07 2.00 279.46 2855.56
   17:00:35.040.16-Jul-2020 4261.01 4635.57 80.07 2.00 279.66 2855.56
   17:00:35.240.16-Jul-2020 4261.01 4635.55 80.07 2.00 279.86 2855.56
   17:00:35.440.16-Jul-2020 4261.01 4635.57 80.07 2.00 280.06 2855.56
   17:00:35.640.16-Jul-2020 4261.01 4635.57 80.07 2.00 280.26 2855.56
   17:00:35.840.16-Jul-2020 4261.01 4635.56 80.07 2.00 280.46 2855.56
   17:00:36.040.16-Jul-2020 4261.01 4635.57 80.07 2.00 280.66 2855.56
   17:00:36.240.16-Jul-2020 4261.01 4635.58 80.07 2.00 280.86 2855.56
   17:00:36.440.16-Jul-2020 4261.01 4635.55 80.07 2.00 281.06 2855.56
   17:00:36.640.16-Jul-2020 4261.01 4635.55 80.07 2.00 281.26 2855.56
   17:00:36.840.16-Jul-2020 4261.01 4635.57 80.07 2.00 281.46 2855.56
   17:00:37.040.16-Jul-2020 4261.01 4635.66 80.07 2.00 281.66 2855.56
   17:00:37.240.16-Jul-2020 4261.01 4635.49 80.07 2.00 281.86 2855.56
   17:00:37.440.16-Jul-2020 4261.01 4635.57 80.07 2.00 282.06 2855.56
   17:00:37.640.16-Jul-2020 4261.01 4635.57 80.07 2.00 282.26 2855.56
   17:00:37.840.16-Jul-2020 4261.01 4635.58 80.07 2.00 282.46 2855.56
   17:00:38.040.16-Jul-2020 4261.01 4635.56 80.07 2.00 282.66 2855.56
   17:00:38.240.16-Jul-2020 4261.01 4635.58 80.07 2.00 282.86 2855.56
   17:00:38.440.16-Jul-2020 4261.01 4635.58 80.07 2.00 283.06 2855.56
   17:00:38.641.16-Jul-2020 4261.01 4635.58 80.07 2.00 283.26 2855.56
   17:00:38.841.16-Jul-2020 4261.01 4635.57 80.07 2.00 283.46 2855.56
   17:00:39.041.16-Jul-2020 4261.01 4635.58 80.07 2.00 283.66 2855.56
   17:00:39.241.16-Jul-2020 4261.01 4635.56 80.07 2.00 283.86 2855.56
   17:00:39.441.16-Jul-2020 4261.01 4635.58 80.07 2.00 284.06 2855.56
   17:00:39.641.16-Jul-2020 4261.01 4635.57 80.07 2.00 284.26 2855.56
   17:00:39.841.16-Jul-2020 4261.01 4635.58 80.07 2.00 284.46 2855.56
   17:00:40.041.16-Jul-2020 4261.01 4635.58 80.07 2.00 284.66 2855.56
   17:00:40.241.16-Jul-2020 4261.01 4635.66 80.07 2.00 284.86 2855.56
   17:00:40.441.16-Jul-2020 4261.01 4635.48 80.07 2.00 285.06 2855.56
   17:00:40.641.16-Jul-2020 4261.01 4635.60 80.07 2.00 285.26 2855.56
   17:00:40.841.16-Jul-2020 4261.01 4635.93 80.07 2.00 285.46 2855.56
   17:00:41.041.16-Jul-2020 4261.01 4635.43 80.07 2.00 285.66 2855.56
   17:00:41.241.16-Jul-2020 4261.01 4635.47 80.07 2.00 285.86 2855.56
   17:00:41.441.16-Jul-2020 4261.01 4635.65 80.07 2.00 286.06 2855.56
   17:00:41.641.16-Jul-2020 4261.01 4635.64 80.07 2.00 286.26 2855.56
   17:00:41.841.16-Jul-2020 4261.01 4635.64 80.07 2.00 286.46 2855.56
   17:00:42.041.16-Jul-2020 4261.01 4635.47 80.07 2.00 286.66 2855.56
   17:00:42.241.16-Jul-2020 4261.01 4635.62 80.07 2.00 286.86 2855.56
   17:00:42.441.16-Jul-2020 4261.01 4635.57 80.07 2.00 287.06 2855.56
   17:00:42.641.16-Jul-2020 4261.01 4635.76 80.07 2.00 287.26 2855.56
   17:00:42.841.16-Jul-2020 4261.01 4635.57 80.07 2.00 287.46 2855.56
   17:00:43.041.16-Jul-2020 4261.01 4635.67 80.07 2.00 287.66 2855.56
   17:00:43.241.16-Jul-2020 4261.01 4635.54 80.07 2.00 287.86 2855.56
   17:00:43.441.16-Jul-2020 4261.01 4635.57 80.07 2.00 288.06 2855.56
   17:00:43.642.16-Jul-2020 4261.01 4635.57 80.07 2.00 288.26 2855.56
   17:00:43.842.16-Jul-2020 4261.01 4635.59 80.07 2.00 288.46 2855.56
   17:00:44.042.16-Jul-2020 4261.01 4635.60 80.07 2.00 288.66 2855.56
   17:00:44.242.16-Jul-2020 4261.01 4635.58 80.07 2.00 288.86 2855.56
   17:00:44.442.16-Jul-2020 4261.01 4635.59 80.07 2.00 289.06 2855.56
   17:00:44.642.16-Jul-2020 4261.01 4635.60 80.07 2.00 289.26 2855.56
   17:00:44.842.16-Jul-2020 4261.01 4635.57 80.07 2.00 289.46 2855.56
   17:00:45.042.16-Jul-2020 4261.01 4635.61 80.07 2.00 289.66 2855.56
   17:00:45.242.16-Jul-2020 4261.01 4635.76 80.07 2.00 289.86 2855.56
   17:00:45.442.16-Jul-2020 4261.01 4635.54 80.07 2.00 290.06 2855.56
   17:00:45.642.16-Jul-2020 4261.01 4635.60 80.07 2.00 290.26 2855.56
   17:00:45.842.16-Jul-2020 4261.01 4635.59 80.07 2.00 290.46 2855.56
   17:00:46.042.16-Jul-2020 4261.01 4635.56 80.07 2.00 290.66 2855.56
   17:00:46.242.16-Jul-2020 4261.01 4635.56 80.07 2.00 290.86 2855.56
   17:00:46.442.16-Jul-2020 4261.01 4635.60 80.07 2.00 291.06 2855.56
   17:00:46.642.16-Jul-2020 4261.01 4635.60 80.07 2.00 291.26 2855.56
   17:00:46.842.16-Jul-2020 4261.01 4635.61 80.07 2.00 291.46 2855.56
   17:00:47.042.16-Jul-2020 4261.01 4635.60 80.07 2.00 291.66 2855.56
   17:00:47.242.16-Jul-2020 4261.01 4635.61 80.07 2.00 291.86 2855.56
   17:00:47.442.16-Jul-2020 4261.01 4635.58 80.07 2.00 292.06 2855.56
   17:00:47.642.16-Jul-2020 4261.01 4635.60 80.07 2.00 292.26 2855.56
   17:00:47.842.16-Jul-2020 4261.01 4635.60 80.07 2.00 292.46 2855.56
   17:00:48.042.16-Jul-2020 4261.01 4635.59 80.07 2.00 292.66 2855.56
   17:00:48.242.16-Jul-2020 4261.01 4635.60 80.07 2.00 292.86 2855.56
   17:00:48.443.16-Jul-2020 4261.01 4635.75 80.07 2.00 293.06 2855.56
   17:00:48.643.16-Jul-2020 4261.01 4635.75 80.07 2.00 293.26 2855.56
   17:00:48.843.16-Jul-2020 4261.01 4635.63 80.07 2.00 293.46 2855.56
   17:00:49.043.16-Jul-2020 4261.01 4635.48 80.07 2.00 293.66 2855.56
   17:00:49.243.16-Jul-2020 4261.01 4635.77 80.07 2.00 293.86 2855.56
   17:00:49.443.16-Jul-2020 4261.01 4635.56 80.07 2.00 294.06 2855.56
   17:00:49.643.16-Jul-2020 4261.01 4635.65 80.07 2.00 294.26 2855.56
   17:00:49.843.16-Jul-2020 4261.01 4635.59 80.07 2.00 294.46 2855.56
   17:00:50.043.16-Jul-2020 4261.01 4635.73 80.07 2.00 294.66 2855.56
   17:00:50.243.16-Jul-2020 4261.01 4635.56 80.07 2.00 294.86 2855.56
   17:00:50.443.16-Jul-2020 4261.01 4635.62 80.07 2.00 295.06 2855.56
   17:00:50.643.16-Jul-2020 4261.01 4635.62 80.07 2.00 295.26 2855.56
   17:00:50.843.16-Jul-2020 4261.01 4635.83 80.07 2.00 295.46 2855.56
   17:00:51.043.16-Jul-2020 4261.01 4635.44 80.07 2.00 295.66 2855.56
   17:00:51.243.16-Jul-2020 4261.01 4635.53 80.07 2.00 295.86 2855.56
   17:00:51.443.16-Jul-2020 4261.01 4635.66 80.07 2.00 296.06 2855.56
   17:00:51.643.16-Jul-2020 4261.01 4635.66 80.07 2.00 296.26 2855.56
   17:00:51.843.16-Jul-2020 4261.01 4635.59 80.07 2.00 296.46 2855.56
   17:00:52.043.16-Jul-2020 4261.01 4635.59 80.07 2.00 296.66 2855.56
   17:00:52.243.16-Jul-2020 4261.01 4635.62 80.07 2.00 296.86 2855.56
   17:00:52.443.16-Jul-2020 4261.01 4635.63 80.07 2.00 297.06 2855.56
   17:00:52.643.16-Jul-2020 4261.01 4635.71 80.07 2.00 297.26 2855.56
   17:00:52.843.16-Jul-2020 4261.01 4635.52 80.07 2.00 297.46 2855.56
   17:00:53.043.16-Jul-2020 4261.01 4635.60 80.07 2.00 297.66 2855.56
   17:00:53.244.16-Jul-2020 4261.01 4635.63 80.07 2.00 297.86 2855.56
   17:00:53.444.16-Jul-2020 4261.01 4635.60 80.07 2.00 298.06 2855.56
   17:00:53.644.16-Jul-2020 4261.01 4635.59 80.07 2.00 298.26 2855.56
   17:00:53.844.16-Jul-2020 4261.01 4635.60 80.07 2.00 298.46 2855.56
   17:00:54.044.16-Jul-2020 4261.01 4635.63 80.07 2.00 298.66 2855.56
   17:00:54.244.16-Jul-2020 4261.01 4635.60 80.07 2.00 298.86 2855.56
