~Version Information
 VERS.                  2.0:   CWLS log ASCII Standard -VERSION 2.0
 WRAP.                   NO:   One line per depth step
~Well Information Block
#MNEM.UNIT     VALUE/NAME     DESCRIPTION
#---------     -----------    ---------------------------
 STRT.S             21:08:23 16-Jul-20: START TIME 21:08:23 16-Jul-20
 STOP.S             21:15:15 16-Jul-20: STOP TIME  21:15:15 16-Jul-20
 STEP.S                   0.00: STEP TIME
 NULL.                 -999.25: NULL VALUE
 MDS .        Operator Entered:  MAG DATA SOURCE
 UNIT.                     N/A:  LOGGING EQUIPMENT ID
 DCON.         Sperry Drilling:  DIRECTNL CONTR
 DOE .                     N/A:  DOE NUMBER
 RIG .               EastAzeri:  RIG NAME
 JOBN.        AZ-XX-0906363297:  JOB TICKET NUMB
 MWDS.                    Baku:  MWD SHOP
 SRVC.     Turan Drilling & Engineering:  CONTRACTOR
 PROV.                    Baku:  PROVINCE
 STAT.                    Baku:  STATE NAME
 REGN.                   EESSA:  REGION
 BASE.              Azerbaijan:  LOGGING EQUIPMENT BASE LOCATION
 WTYP.                Deviated:  WELL TYPE
 UWI .                     N/A:  UNIQUE WELL IDENTIFIER
 API .                     N/A:  API NUMBER
 COMP.     BP Exploration (Caspian Sea) ltd.:  COMPANY
 WELL.                    D07z:  WELL NAME
 CTRY.              Azerbaijan:  COUNTRY NAME
 SON .        AZ-XX-0906363297:  JOB NUMBER
 FLD .                     ACG:  FIELD NAME
 PDAT.          Mean Sea Level:  PERMANENT DATUM
 FTOP.          Formation Tops:  FORM TOPS DESC
 ILTD.               Lithology:  INTERP LTH DESC
 SVYD.                  Survey:  SURVEY DESC
 DMOD.             Drill Model:  DRILL MOD DESC
 HPTY.       Minimum Curvature:  HOLE POS TYPE
 NREF.                    Grid:  NORTH REFERENCE
 SPUD.               28-Jun-20:  SPUD DATE
 DATE.      18.27.12 28-Jun-20:  END TIME
 STIM.      18.27.12 28-Jun-20:  START TIME
 DMF .             Drill Floor:  DRILL MEAS FROM
 DFST.                        :  DIST FSL TEXT
 DFWT.                        :  DIST FWL TEXT
 CNTY.                        :  COUNTY
 LOC .                        :  LOCATION
 LMF .             Drill Floor:  LOG MEASURED FROM
 VSNS.m                  -7.75:  VERT SEC N/S
 VSEW.m                  -9.19:  VERT SEC E/W
 MMDE.m                   0.00:  MAGUTM CALC DEP
 AGAP.m                  43.60:  AIR GAP
 DEP .m                4058.99:  DEPTH
 APD .m                  43.60:  DEPTH ABOVE PD
 WDMS.m                 151.80:  WD ELEV
 EGL .m                   0.00:  GROUND ELEVATION
 EPD .m                   0.00:  ELEVATION
 AZTC.deg                 6.19:  AZM TOTAL CORR
 GRDC.deg                 0.27:  GRID CORRECTION
 MDEC.deg                 6.46:  MAGNETIC DECL
 MDIP.deg                59.47:  MAGNETIC DIP
 MFLD.nT              50279.00:  MAGNETIC FIELD
 GVFD.g                   1.00:  GRAVITY FIELD
 VSDR.deg               249.96:  VERT SEC DIRECT
 TDD .m                   0.00:  TOTAL DEPTH (DRILLER)
 SDEP.m                   0.00:  START DEPTH
 DFSL.m                   0.00:  DISTANCE FSL
 DFWL.m                   0.00:  DISTANCE FWL
 UTMY.m             4431880.20:  UTM Y
 UTMX.m              538763.98:  UTM X
 WHEW.m                  -9.19:  WELL HEAD E/W
 WHNS.m                  -7.75:  WELL HEAD N/S
 LONG.deg                51.45:  LONGITUDE
 LATI.deg                40.02:  LATITUDE
 TVDS.m                  43.60:  TVDSS CORRECTN
 EKB .m                  43.60:  KB ELEVATION
 EDF .m                  43.60:  DF ELEVATION
 TDL .m                 248.00:  TOTAL DEPTH (LOGGER)
 MAGU.                 1849075:  MAGUTM CHECKSUM
 VSC .                       0:  VS TO CLOSURE
~Parameter Information Block
#MNEM.UNIT       Value        Description
#---------     -----------    ---------------------------
 AV  .mps                 6.34:  Ann Velocity 
 AVMX.mps                 7.00:  Max Ann Veloc 
 AZIF.deg               260.29:  Azm, Final 
 BHAT.        Rotary Steerable:  BHA Type 
 BROT.°/30m               1.20:  Build Rotating 
 BS  .in                  8.50:  Bit Size 
 BSZ .in                  8.50:  Bit Size 
 BTPL.psig              620.00:  Bit Press Loss 
 CABU.                     Yes:  Customer Abuse 
 COMM.                     Äá„:  Run Comments 1 
 TCS .hr                 56.22:  Time Ciculation Ended 
 CV  .mps                 3.05:  Crit Velocity 
 CVMX.mps                 3.20:  Max Crit Veloc 
 DD1 .            Musa Ahmadov:  Direct Drillr 1 
 DDSV.                 iCruise:  DD Service 
 DEFF.%                  98.00:  % Det Eff 
 DLRX.°/30m               2.78:  Dogleg Rot Max 
 DLSO.°/30m               0.00:  Dogleg Oriented 
 DLSX.°/30m               0.00:  Dogleg Str Max 
 DRET.      05.20.48 16-Jul-20:  Drill End Time 
 DRST.      10.20.48 13-Jul-20:  Drill Start Tim 
 DTIM.hr                 14.25:  Time Drilling 
 EDEP.m                4326.01:  End Depth 
 ENG1.      Artemiy Matviyanov:  Engineer 1 
 ENG2.           Amrah Tahirov:  Engineer 2 
 ETIM.      22.30.00 18-Jul-20:  End Time 
 FLOI.gpm               550.00:  Flow In 
 FLON.gpm               450.00:  Flow In Min 
 FLOS.cptm                0.00:  Fluid Loss 
 FLOX.gpm               600.00:  Flow In Max 
 HFLO.                      No:  High Flow 
 HPRE.                      No:  High Pressure 
 HTEM.                      No:  High Temp 
 HYDO.m                   1.80:  Hydro Offset 
 IFIN.deg                65.41:  Inc, Final 
 IMAX.deg                65.14:  Inc Max 
 IMIN.deg                58.89:  Inc Min 
 IMND.m                4104.92:  Inc Min Depth 
 IMXD.m                4303.89:  Inc Max Depth 
 JARR.                      No:  Jarring 
 LETM.      10.20.48 17-Jul-20:  Log End Time 
 LOST.hr                     0:  Lost Rig Time 
 LSTM.      10.20.48 13-Jul-20:  Log Start Time 
 MDCL.ppm             37000.00:  Mud Chlorides 
 MDES.     Inversion Oil/Synthetic:  Mud Desc 
 DFD .sg                  1.52:  Mud Density 
 MDMN.sg                  1.52:  Dens Mud Min 
 MDMX.sg                  1.52:  Dens Mud Max 
 MOIL.                   52.70:  Run Mud Oil % 
 MOWR.                   68:32:  Run Mud OWR 
 MSND.                     0.2:  Run Mud Sand % 
 MSOL.                    21.6:  Run Mud Solids% 
 DFV .spqt               79.00:  Mud Viscosity 
 MWOD.in                  6.75:  MWD Tool OD 
 MWSI.                      No:  Serv Intrp, MWD 
 OTIM.hr                114.04:  Time Operating 
 PCON.          Wear / Scratch:  Pad Condition 
 PMAX.psia            11782.92:  Press Op, Max 
 PV  .cP                 49.00:  Mud PV 
 RUN .                     600:  Run Number 
 ROPA.m/hr               20.00:  ROP Avg 
 ROPN.m/hr               15.00:  ROP Min 
 ROPX.m/hr               22.00:  ROP Max 
 RPMA.rpm               120.00:  RPM Surface Avg 
 RPMN.rpm                90.00:  RPM Surface Min 
 RPMX.rpm               140.00:  RPM Surface Max 
 RRUN.                     600:  Rig Run Number 
 SAZI.deg               260.29:  Azm, Start 
 SDEP.m                4078.01:  Start Depth 
 SIDD.                      No:  Serv Intrp, DD 
 SINC.deg                58.89:  Inc, Start 
 SPPA.psig             4560.00:  SPP Avg 
 SPPN.psig             3600.00:  SPP Min 
 SPPX.psig             4800.00:  SPP Max 
 STIM.      10.20.48 13-Jul-20:  Start Time 
 SVCS.                 DD, MWD:  Services 
 SVER.                    9.20:  Sperry Version 
 TDAT.m                4378.01:  Tot Depth Attmp 
 TDDF.                      No:  Trip for DD 
 TDLG.m                 248.00:  Tot Depth Loggd 
 TFF .                      No:  Trip for Fail 
 TQAA.f-kp               18.00:  Torque Abs Avg 
 TQAN.f-kp               15.00:  Torque Abs Min 
 TQAX.f-kp               20.00:  Torque Abs Max 
 TRRT.°/30m               0.70:  Turn Rotating 
 MRT .                    HCIM:  Maximum Recorded Temperature 
 TTMX.degC               86.00:  Max Tool Temp 
 WBMN.klb                 3.00:  WOB Min 
 WOBA.klb                 5.00:  WOB Avg 
 WOBX.klb                 9.00:  WOB Max 
 YP  .lhf2               32.00:  Yield Point 
~Curve Information Block
#MNEM.UNIT                 API CODE     Curve Description
#---------               -----------    ---------------------------
 TIME.HHMMSS            00 000 000 000:  GT Time & Date
 GTDEPTH.m              00 000 000 000:  GT Depth
 GTPQH.psia             00 000 000 000:  GT HR Quartz Pressure
 GTTQ.degC              00 000 000 000:  GT Quartz Temperature
 GTTN.NONE              00 000 000 000:  GT Test Number
 GTET.sec               00 000 000 000:  GT Elapsed Test Time
 GTTVD.m                00 000 000 000:  GT True Vertical Depth
#Other Information
#
#WARRANTY: Halliburton will use its best efforts to furnish customers with 
#accurate information and interpretations that are part of, and incident to, the services 
#provided.  However, Halliburton cannot and does not warrant the accuracy 
#or correctness of such information and interpretations.  Under no circumstances should any 
#such information or interpretation be relied upon as the sole basis for any drilling, 
#completion, production, or financial decision or any procedure involving any risk to the 
#safety of any drilling venture, drilling rig or its crew or any other third party.  The 
#Customer has full responsibility for all drilling, completion and production operation.  
#Halliburton makes no representations or warranties, either expressed or 
#implied, including, but not limited to, the implied warranties of merchantability or fitness 
#for a particular purpose, with respect to the services rendered.  In no event will 
#Halliburton be liable for failure to obtain any particular results or for 
#any damages, including, but not limited to, indirect, special or consequential damages, 
#resulting from the use of any information or interpretation provided by Halliburton.
#
~A           TIME           GTDEPTH  GTPQH  GTTQ  GTTN  GTET   GTTVD  
# ...
   21:12:36.161.16-Jul-2020 4135.51 4662.02 77.12 7.00 253.14 2799.87
   21:12:36.361.16-Jul-2020 4135.51 4662.02 77.12 7.00 253.34 2799.87
   21:12:36.561.16-Jul-2020 4135.51 4662.42 77.12 7.00 253.54 2799.87
   21:12:36.761.16-Jul-2020 4135.51 4662.52 77.12 7.00 253.74 2799.87
   21:12:36.961.16-Jul-2020 4135.51 4663.11 77.12 7.00 253.94 2799.87
   21:12:37.161.16-Jul-2020 4135.51 4666.02 77.12 7.00 254.14 2799.87
   21:12:37.361.16-Jul-2020 4135.51 4664.87 77.12 7.00 254.34 2799.87
   21:12:37.561.16-Jul-2020 4135.51 4663.99 77.12 7.00 254.54 2799.87
   21:12:37.761.16-Jul-2020 4135.51 4662.94 77.12 7.00 254.74 2799.87
   21:12:37.962.16-Jul-2020 4135.51 4663.23 77.12 7.00 254.94 2799.87
   21:12:38.162.16-Jul-2020 4135.51 4662.16 77.12 7.00 255.14 2799.87
   21:12:38.362.16-Jul-2020 4135.51 4662.16 77.12 7.00 255.34 2799.87
   21:12:38.562.16-Jul-2020 4135.51 4661.74 77.12 7.00 255.54 2799.87
   21:12:38.762.16-Jul-2020 4135.51 4662.04 77.12 7.00 255.74 2799.87
   21:12:38.962.16-Jul-2020 4135.51 4661.84 77.12 7.00 255.95 2799.87
   21:12:39.162.16-Jul-2020 4135.51 4661.32 77.12 7.00 256.15 2799.87
   21:12:39.362.16-Jul-2020 4135.51 4661.32 77.12 7.00 256.35 2799.87
   21:12:39.563.16-Jul-2020 4135.51 4660.84 77.12 7.00 256.55 2799.87
   21:12:39.763.16-Jul-2020 4135.51 4660.86 77.12 7.00 256.75 2799.87
   21:12:39.963.16-Jul-2020 4135.51 4660.57 77.12 7.00 256.95 2799.87
   21:12:40.163.16-Jul-2020 4135.51 4660.09 77.12 7.00 257.15 2799.87
   21:12:40.363.16-Jul-2020 4135.51 4660.09 77.12 7.00 257.35 2799.87
   21:12:40.563.16-Jul-2020 4135.51 4659.37 77.12 7.00 257.55 2799.87
   21:12:40.763.16-Jul-2020 4135.51 4659.81 77.12 7.00 257.75 2799.87
   21:12:40.963.16-Jul-2020 4135.51 4660.86 77.12 7.00 257.95 2799.87
   21:12:41.163.16-Jul-2020 4135.51 4659.63 77.12 7.00 258.15 2799.87
   21:12:41.364.16-Jul-2020 4135.51 4660.21 77.12 7.00 258.35 2799.87
   21:12:41.564.16-Jul-2020 4135.51 4659.48 77.12 7.00 258.55 2799.87
   21:12:41.764.16-Jul-2020 4135.51 4659.50 77.12 7.00 258.75 2799.87
   21:12:41.964.16-Jul-2020 4135.51 4660.16 77.12 7.00 258.95 2799.87
   21:12:42.164.16-Jul-2020 4135.51 4659.31 77.12 7.00 259.15 2799.87
   21:12:42.364.16-Jul-2020 4135.51 4659.31 77.12 7.00 259.35 2799.87
   21:12:42.564.16-Jul-2020 4135.51 4661.37 77.12 7.00 259.55 2799.87
   21:12:42.764.16-Jul-2020 4135.51 4661.70 77.12 7.00 259.75 2799.87
   21:12:42.964.16-Jul-2020 4135.51 4661.51 77.12 7.00 259.95 2799.87
   21:12:43.165.16-Jul-2020 4135.51 4659.52 77.12 7.00 260.15 2799.87
   21:12:43.365.16-Jul-2020 4135.51 4659.52 77.12 7.00 260.35 2799.87
   21:12:43.565.16-Jul-2020 4135.51 4660.12 77.12 7.00 260.55 2799.87
   21:12:43.765.16-Jul-2020 4135.51 4658.08 77.12 7.00 260.75 2799.87
   21:12:43.965.16-Jul-2020 4135.51 4659.43 77.12 7.00 260.95 2799.87
   21:12:44.165.16-Jul-2020 4135.51 4661.91 77.12 7.00 261.15 2799.87
   21:12:44.365.16-Jul-2020 4135.51 4661.91 77.12 7.00 261.35 2799.87
   21:12:44.565.16-Jul-2020 4135.51 4699.84 77.12 7.00 261.55 2799.87
   21:12:44.765.16-Jul-2020 4135.51 4699.81 77.12 7.00 261.75 2799.87
   21:12:44.966.16-Jul-2020 4135.51 4699.76 77.12 7.00 261.95 2799.87
   21:12:45.166.16-Jul-2020 4135.51 4699.80 77.12 7.00 262.15 2799.87
   21:12:45.366.16-Jul-2020 4135.51 4699.80 77.12 7.00 262.35 2799.87
   21:12:45.566.16-Jul-2020 4135.51 4700.01 77.12 7.00 262.55 2799.87
   21:12:45.766.16-Jul-2020 4135.51 4699.85 77.12 7.00 262.75 2799.87
   21:12:45.966.16-Jul-2020 4135.51 4699.86 77.12 7.00 262.95 2799.87
   21:12:46.166.16-Jul-2020 4135.51 4699.93 77.12 7.00 263.15 2799.87
   21:12:46.366.16-Jul-2020 4135.51 4699.93 77.12 7.00 263.35 2799.87
   21:12:46.566.16-Jul-2020 4135.51 4699.97 77.12 7.00 263.55 2799.87
   21:12:46.767.16-Jul-2020 4135.51 4699.97 77.12 7.00 263.75 2799.87
   21:12:46.967.16-Jul-2020 4135.51 4699.97 77.12 7.00 263.95 2799.87
   21:12:47.167.16-Jul-2020 4135.51 4699.94 77.12 7.00 264.15 2799.87
   21:12:47.367.16-Jul-2020 4135.51 4699.94 77.12 7.00 264.35 2799.87
   21:12:47.567.16-Jul-2020 4135.51 4699.96 77.12 7.00 264.55 2799.87
   21:12:47.767.16-Jul-2020 4135.51 4699.96 77.12 7.00 264.75 2799.87
   21:12:47.967.16-Jul-2020 4135.51 4699.97 77.12 7.00 264.95 2799.87
   21:12:48.167.16-Jul-2020 4135.51 4699.98 77.12 7.00 265.15 2799.87
   21:12:48.368.16-Jul-2020 4135.51 4699.98 77.12 7.00 265.35 2799.87
   21:12:48.568.16-Jul-2020 4135.51 4699.96 77.12 7.00 265.55 2799.87
   21:12:48.768.16-Jul-2020 4135.51 4699.99 77.12 7.00 265.75 2799.87
   21:12:48.968.16-Jul-2020 4135.51 4699.97 77.12 7.00 265.95 2799.87
   21:12:49.168.16-Jul-2020 4135.51 4700.00 77.12 7.00 266.15 2799.87
   21:12:49.368.16-Jul-2020 4135.51 4700.00 77.12 7.00 266.35 2799.87
   21:12:49.568.16-Jul-2020 4135.51 4700.01 77.12 7.00 266.55 2799.87
   21:12:49.768.16-Jul-2020 4135.51 4699.99 77.12 7.00 266.75 2799.87
   21:12:49.968.16-Jul-2020 4135.51 4699.99 77.12 7.00 266.95 2799.87
   21:12:50.169.16-Jul-2020 4135.51 4700.02 77.12 7.00 267.15 2799.87
   21:12:50.369.16-Jul-2020 4135.51 4700.02 77.12 7.00 267.35 2799.87
   21:12:50.569.16-Jul-2020 4135.51 4700.00 77.12 7.00 267.55 2799.87
   21:12:50.769.16-Jul-2020 4135.51 4700.00 77.12 7.00 267.75 2799.87
   21:12:50.969.16-Jul-2020 4135.51 4700.02 77.12 7.00 267.95 2799.87
   21:12:51.169.16-Jul-2020 4135.51 4700.00 77.12 7.00 268.15 2799.87
   21:12:51.369.16-Jul-2020 4135.51 4700.00 77.12 7.00 268.35 2799.87
   21:12:51.569.16-Jul-2020 4135.51 4700.00 77.12 7.00 268.55 2799.87
   21:12:51.769.16-Jul-2020 4135.51 4699.99 77.12 7.00 268.75 2799.87
   21:12:51.970.16-Jul-2020 4135.51 4700.05 77.12 7.00 268.95 2799.87
   21:12:52.170.16-Jul-2020 4135.51 4700.00 77.12 7.00 269.15 2799.87
   21:12:52.370.16-Jul-2020 4135.51 4700.00 77.12 7.00 269.35 2799.87
   21:12:52.570.16-Jul-2020 4135.51 4700.04 77.12 7.00 269.55 2799.87
   21:12:52.770.16-Jul-2020 4135.51 4700.02 77.12 7.00 269.75 2799.87
   21:12:52.970.16-Jul-2020 4135.51 4700.04 77.12 7.00 269.95 2799.87
   21:12:53.170.16-Jul-2020 4135.51 4700.13 77.12 7.00 270.15 2799.87
   21:12:53.370.16-Jul-2020 4135.51 4699.97 77.12 7.00 270.35 2799.87
   21:12:53.570.16-Jul-2020 4135.51 4700.01 77.12 7.00 270.55 2799.87
   21:12:53.771.16-Jul-2020 4135.51 4700.04 77.12 7.00 270.75 2799.87
   21:12:53.971.16-Jul-2020 4135.51 4700.07 77.12 7.00 270.95 2799.87
   21:12:54.171.16-Jul-2020 4135.51 4700.03 77.12 7.00 271.15 2799.87
   21:12:54.371.16-Jul-2020 4135.51 4700.03 77.12 7.00 271.35 2799.87
   21:12:54.571.16-Jul-2020 4135.51 4700.02 77.12 7.00 271.55 2799.87
   21:12:54.771.16-Jul-2020 4135.51 4700.04 77.12 7.00 271.75 2799.87
   21:12:54.971.16-Jul-2020 4135.51 4700.02 77.12 7.00 271.95 2799.87
   21:12:55.171.16-Jul-2020 4135.51 4700.08 77.12 7.00 272.15 2799.87
   21:12:55.371.16-Jul-2020 4135.51 4700.08 77.12 7.00 272.35 2799.87
   21:12:55.572.16-Jul-2020 4135.51 4700.05 77.12 7.00 272.55 2799.87
   21:12:55.772.16-Jul-2020 4135.51 4700.05 77.12 7.00 272.75 2799.87
   21:12:55.972.16-Jul-2020 4135.51 4700.03 77.12 7.00 272.95 2799.87
   21:12:56.172.16-Jul-2020 4135.51 4700.05 77.12 7.00 273.15 2799.87
   21:12:56.372.16-Jul-2020 4135.51 4700.05 77.12 7.00 273.35 2799.87
   21:12:56.572.16-Jul-2020 4135.51 4700.05 77.12 7.00 273.56 2799.87
   21:12:56.772.16-Jul-2020 4135.51 4700.04 77.12 7.00 273.76 2799.87
   21:12:56.972.16-Jul-2020 4135.51 4700.05 77.12 7.00 273.96 2799.87
   21:12:57.173.16-Jul-2020 4135.51 4700.03 77.12 7.00 274.16 2799.87
   21:12:57.373.16-Jul-2020 4135.51 4700.03 77.12 7.00 274.36 2799.87
   21:12:57.573.16-Jul-2020 4135.51 4700.04 77.12 7.00 274.56 2799.87
   21:12:57.773.16-Jul-2020 4135.51 4699.97 77.12 7.00 274.76 2799.87
   21:12:57.973.16-Jul-2020 4135.51 4700.09 77.12 7.00 274.96 2799.87
   21:12:58.173.16-Jul-2020 4135.51 4700.07 77.12 7.00 275.16 2799.87
   21:12:58.373.16-Jul-2020 4135.51 4700.07 77.12 7.00 275.36 2799.87
   21:12:58.573.16-Jul-2020 4135.51 4700.00 77.12 7.00 275.56 2799.87
   21:12:58.773.16-Jul-2020 4135.51 4700.07 77.12 7.00 275.76 2799.87
   21:12:58.974.16-Jul-2020 4135.51 4700.03 77.12 7.00 275.96 2799.87
