~Version Information
 VERS.                  2.0:   CWLS log ASCII Standard -VERSION 2.0
 WRAP.                   NO:   One line per depth step
~Well Information Block
#MNEM.UNIT     VALUE/NAME     DESCRIPTION
#---------     -----------    ---------------------------
 STRT.S             17:17:21 16-Jul-20: START TIME 17:17:21 16-Jul-20
 STOP.S             17:24:07 16-Jul-20: STOP TIME  17:24:07 16-Jul-20
 STEP.S                   0.00: STEP TIME
 NULL.                 -999.25: NULL VALUE
 MDS .        Operator Entered:  MAG DATA SOURCE
 UNIT.                     N/A:  LOGGING EQUIPMENT ID
 DCON.         Sperry Drilling:  DIRECTNL CONTR
 DOE .                     N/A:  DOE NUMBER
 RIG .               EastAzeri:  RIG NAME
 JOBN.        AZ-XX-0906363297:  JOB TICKET NUMB
 MWDS.                    Baku:  MWD SHOP
 SRVC.     Turan Drilling & Engineering:  CONTRACTOR
 PROV.                    Baku:  PROVINCE
 STAT.                    Baku:  STATE NAME
 REGN.                   EESSA:  REGION
 BASE.              Azerbaijan:  LOGGING EQUIPMENT BASE LOCATION
 WTYP.                Deviated:  WELL TYPE
 UWI .                     N/A:  UNIQUE WELL IDENTIFIER
 API .                     N/A:  API NUMBER
 COMP.     BP Exploration (Caspian Sea) ltd.:  COMPANY
 WELL.                    D07z:  WELL NAME
 CTRY.              Azerbaijan:  COUNTRY NAME
 SON .        AZ-XX-0906363297:  JOB NUMBER
 FLD .                     ACG:  FIELD NAME
 PDAT.          Mean Sea Level:  PERMANENT DATUM
 FTOP.          Formation Tops:  FORM TOPS DESC
 ILTD.               Lithology:  INTERP LTH DESC
 SVYD.                  Survey:  SURVEY DESC
 DMOD.             Drill Model:  DRILL MOD DESC
 HPTY.       Minimum Curvature:  HOLE POS TYPE
 NREF.                    Grid:  NORTH REFERENCE
 SPUD.               28-Jun-20:  SPUD DATE
 DATE.      18.27.12 28-Jun-20:  END TIME
 STIM.      18.27.12 28-Jun-20:  START TIME
 DMF .             Drill Floor:  DRILL MEAS FROM
 DFST.                        :  DIST FSL TEXT
 DFWT.                        :  DIST FWL TEXT
 CNTY.                        :  COUNTY
 LOC .                        :  LOCATION
 LMF .             Drill Floor:  LOG MEASURED FROM
 VSNS.m                  -7.75:  VERT SEC N/S
 VSEW.m                  -9.19:  VERT SEC E/W
 MMDE.m                   0.00:  MAGUTM CALC DEP
 AGAP.m                  43.60:  AIR GAP
 DEP .m                4058.99:  DEPTH
 APD .m                  43.60:  DEPTH ABOVE PD
 WDMS.m                 151.80:  WD ELEV
 EGL .m                   0.00:  GROUND ELEVATION
 EPD .m                   0.00:  ELEVATION
 AZTC.deg                 6.19:  AZM TOTAL CORR
 GRDC.deg                 0.27:  GRID CORRECTION
 MDEC.deg                 6.46:  MAGNETIC DECL
 MDIP.deg                59.47:  MAGNETIC DIP
 MFLD.nT              50279.00:  MAGNETIC FIELD
 GVFD.g                   1.00:  GRAVITY FIELD
 VSDR.deg               249.96:  VERT SEC DIRECT
 TDD .m                   0.00:  TOTAL DEPTH (DRILLER)
 SDEP.m                   0.00:  START DEPTH
 DFSL.m                   0.00:  DISTANCE FSL
 DFWL.m                   0.00:  DISTANCE FWL
 UTMY.m             4431880.20:  UTM Y
 UTMX.m              538763.98:  UTM X
 WHEW.m                  -9.19:  WELL HEAD E/W
 WHNS.m                  -7.75:  WELL HEAD N/S
 LONG.deg                51.45:  LONGITUDE
 LATI.deg                40.02:  LATITUDE
 TVDS.m                  43.60:  TVDSS CORRECTN
 EKB .m                  43.60:  KB ELEVATION
 EDF .m                  43.60:  DF ELEVATION
 TDL .m                 248.00:  TOTAL DEPTH (LOGGER)
 MAGU.                 1849075:  MAGUTM CHECKSUM
 VSC .                       0:  VS TO CLOSURE
~Parameter Information Block
#MNEM.UNIT       Value        Description
#---------     -----------    ---------------------------
 AV  .mps                 6.34:  Ann Velocity 
 AVMX.mps                 7.00:  Max Ann Veloc 
 AZIF.deg               260.29:  Azm, Final 
 BHAT.        Rotary Steerable:  BHA Type 
 BROT.°/30m               1.20:  Build Rotating 
 BS  .in                  8.50:  Bit Size 
 BSZ .in                  8.50:  Bit Size 
 BTPL.psig              620.00:  Bit Press Loss 
 CABU.                     Yes:  Customer Abuse 
 COMM.                     fb:  Run Comments 1 
 TCS .hr                 56.22:  Time Ciculation Ended 
 CV  .mps                 3.05:  Crit Velocity 
 CVMX.mps                 3.20:  Max Crit Veloc 
 DD1 .            Musa Ahmadov:  Direct Drillr 1 
 DDSV.                 iCruise:  DD Service 
 DEFF.%                  98.00:  % Det Eff 
 DLRX.°/30m               2.78:  Dogleg Rot Max 
 DLSO.°/30m               0.00:  Dogleg Oriented 
 DLSX.°/30m               0.00:  Dogleg Str Max 
 DRET.      05.20.48 16-Jul-20:  Drill End Time 
 DRST.      10.20.48 13-Jul-20:  Drill Start Tim 
 DTIM.hr                 14.25:  Time Drilling 
 EDEP.m                4326.01:  End Depth 
 ENG1.      Artemiy Matviyanov:  Engineer 1 
 ENG2.           Amrah Tahirov:  Engineer 2 
 ETIM.      22.30.00 18-Jul-20:  End Time 
 FLOI.gpm               550.00:  Flow In 
 FLON.gpm               450.00:  Flow In Min 
 FLOS.cptm                0.00:  Fluid Loss 
 FLOX.gpm               600.00:  Flow In Max 
 HFLO.                      No:  High Flow 
 HPRE.                      No:  High Pressure 
 HTEM.                      No:  High Temp 
 HYDO.m                   1.80:  Hydro Offset 
 IFIN.deg                65.41:  Inc, Final 
 IMAX.deg                65.14:  Inc Max 
 IMIN.deg                58.89:  Inc Min 
 IMND.m                4104.92:  Inc Min Depth 
 IMXD.m                4303.89:  Inc Max Depth 
 JARR.                      No:  Jarring 
 LETM.      10.20.48 17-Jul-20:  Log End Time 
 LOST.hr                     0:  Lost Rig Time 
 LSTM.      10.20.48 13-Jul-20:  Log Start Time 
 MDCL.ppm             37000.00:  Mud Chlorides 
 MDES.     Inversion Oil/Synthetic:  Mud Desc 
 DFD .sg                  1.52:  Mud Density 
 MDMN.sg                  1.52:  Dens Mud Min 
 MDMX.sg                  1.52:  Dens Mud Max 
 MOIL.                   52.70:  Run Mud Oil % 
 MOWR.                   68:32:  Run Mud OWR 
 MSND.                     0.2:  Run Mud Sand % 
 MSOL.                    21.6:  Run Mud Solids% 
 DFV .spqt               79.00:  Mud Viscosity 
 MWOD.in                  6.75:  MWD Tool OD 
 MWSI.                      No:  Serv Intrp, MWD 
 OTIM.hr                114.04:  Time Operating 
 PCON.          Wear / Scratch:  Pad Condition 
 PMAX.psia            11782.92:  Press Op, Max 
 PV  .cP                 49.00:  Mud PV 
 RUN .                     600:  Run Number 
 ROPA.m/hr               20.00:  ROP Avg 
 ROPN.m/hr               15.00:  ROP Min 
 ROPX.m/hr               22.00:  ROP Max 
 RPMA.rpm               120.00:  RPM Surface Avg 
 RPMN.rpm                90.00:  RPM Surface Min 
 RPMX.rpm               140.00:  RPM Surface Max 
 RRUN.                     600:  Rig Run Number 
 SAZI.deg               260.29:  Azm, Start 
 SDEP.m                4078.01:  Start Depth 
 SIDD.                      No:  Serv Intrp, DD 
 SINC.deg                58.89:  Inc, Start 
 SPPA.psig             4560.00:  SPP Avg 
 SPPN.psig             3600.00:  SPP Min 
 SPPX.psig             4800.00:  SPP Max 
 STIM.      10.20.48 13-Jul-20:  Start Time 
 SVCS.                 DD, MWD:  Services 
 SVER.                    9.20:  Sperry Version 
 TDAT.m                4378.01:  Tot Depth Attmp 
 TDDF.                      No:  Trip for DD 
 TDLG.m                 248.00:  Tot Depth Loggd 
 TFF .                      No:  Trip for Fail 
 TQAA.f-kp               18.00:  Torque Abs Avg 
 TQAN.f-kp               15.00:  Torque Abs Min 
 TQAX.f-kp               20.00:  Torque Abs Max 
 TRRT.°/30m               0.70:  Turn Rotating 
 MRT .                    HCIM:  Maximum Recorded Temperature 
 TTMX.degC               86.00:  Max Tool Temp 
 WBMN.klb                 3.00:  WOB Min 
 WOBA.klb                 5.00:  WOB Avg 
 WOBX.klb                 9.00:  WOB Max 
 YP  .lhf2               32.00:  Yield Point 
~Curve Information Block
#MNEM.UNIT                 API CODE     Curve Description
#---------               -----------    ---------------------------
 TIME.HHMMSS            00 000 000 000:  GT Time & Date
 GTDEPTH.m              00 000 000 000:  GT Depth
 GTPQH.psia             00 000 000 000:  GT HR Quartz Pressure
 GTTQ.degC              00 000 000 000:  GT Quartz Temperature
 GTTN.NONE              00 000 000 000:  GT Test Number
 GTET.sec               00 000 000 000:  GT Elapsed Test Time
 GTTVD.m                00 000 000 000:  GT True Vertical Depth
#Other Information
#
#WARRANTY: Halliburton will use its best efforts to furnish customers with 
#accurate information and interpretations that are part of, and incident to, the services 
#provided.  However, Halliburton cannot and does not warrant the accuracy 
#or correctness of such information and interpretations.  Under no circumstances should any 
#such information or interpretation be relied upon as the sole basis for any drilling, 
#completion, production, or financial decision or any procedure involving any risk to the 
#safety of any drilling venture, drilling rig or its crew or any other third party.  The 
#Customer has full responsibility for all drilling, completion and production operation.  
#Halliburton makes no representations or warranties, either expressed or 
#implied, including, but not limited to, the implied warranties of merchantability or fitness 
#for a particular purpose, with respect to the services rendered.  In no event will 
#Halliburton be liable for failure to obtain any particular results or for 
#any damages, including, but not limited to, indirect, special or consequential damages, 
#resulting from the use of any information or interpretation provided by Halliburton.
#
~A           TIME           GTDEPTH  GTPQH  GTTQ  GTTN  GTET   GTTVD  
# ...
   17:20:48.690.16-Jul-2020 4251.01 4628.44 79.84 3.00 207.04 2851.33
   17:20:48.890.16-Jul-2020 4251.01 4628.50 79.84 3.00 207.24 2851.33
   17:20:49.090.16-Jul-2020 4251.01 4628.49 79.84 3.00 207.44 2851.33
   17:20:49.290.16-Jul-2020 4251.01 4628.44 79.84 3.00 207.64 2851.33
   17:20:49.490.16-Jul-2020 4251.01 4628.53 79.84 3.00 207.84 2851.33
   17:20:49.690.16-Jul-2020 4251.01 4628.52 79.84 3.00 208.04 2851.33
   17:20:49.890.16-Jul-2020 4251.01 4628.52 79.84 3.00 208.24 2851.33
   17:20:50.090.16-Jul-2020 4251.01 4628.49 79.84 3.00 208.44 2851.33
   17:20:50.290.16-Jul-2020 4251.01 4628.49 79.84 3.00 208.64 2851.33
   17:20:50.490.16-Jul-2020 4251.01 4628.49 79.84 3.00 208.84 2851.33
   17:20:50.690.16-Jul-2020 4251.01 4628.49 79.84 3.00 209.04 2851.33
   17:20:50.890.16-Jul-2020 4251.01 4628.49 79.84 3.00 209.24 2851.33
   17:20:51.090.16-Jul-2020 4251.01 4628.48 79.84 3.00 209.44 2851.33
   17:20:51.290.16-Jul-2020 4251.01 4628.51 79.84 3.00 209.64 2851.33
   17:20:51.490.16-Jul-2020 4251.01 4628.48 79.84 3.00 209.84 2851.33
   17:20:51.690.16-Jul-2020 4251.01 4628.49 79.84 3.00 210.04 2851.33
   17:20:51.890.16-Jul-2020 4251.01 4628.48 79.84 3.00 210.24 2851.33
   17:20:52.090.16-Jul-2020 4251.01 4628.48 79.84 3.00 210.44 2851.33
   17:20:52.290.16-Jul-2020 4251.01 4628.47 79.84 3.00 210.64 2851.33
   17:20:52.490.16-Jul-2020 4251.01 4628.47 79.84 3.00 210.84 2851.33
   17:20:52.690.16-Jul-2020 4251.01 4628.46 79.84 3.00 211.04 2851.33
   17:20:52.890.16-Jul-2020 4251.01 4628.47 79.84 3.00 211.24 2851.33
   17:20:53.091.16-Jul-2020 4251.01 4628.46 79.84 3.00 211.44 2851.33
   17:20:53.291.16-Jul-2020 4251.01 4628.44 79.84 3.00 211.64 2851.33
   17:20:53.491.16-Jul-2020 4251.01 4628.51 79.84 3.00 211.84 2851.33
   17:20:53.691.16-Jul-2020 4251.01 4628.52 79.84 3.00 212.04 2851.33
   17:20:53.891.16-Jul-2020 4251.01 4628.52 79.84 3.00 212.24 2851.33
   17:20:54.091.16-Jul-2020 4251.01 4628.47 79.84 3.00 212.44 2851.33
   17:20:54.291.16-Jul-2020 4251.01 4628.48 79.84 3.00 212.64 2851.33
   17:20:54.491.16-Jul-2020 4251.01 4628.48 79.84 3.00 212.84 2851.33
   17:20:54.691.16-Jul-2020 4251.01 4628.47 79.84 3.00 213.04 2851.33
   17:20:54.891.16-Jul-2020 4251.01 4628.47 79.84 3.00 213.24 2851.33
   17:20:55.091.16-Jul-2020 4251.01 4628.47 79.84 3.00 213.44 2851.33
   17:20:55.291.16-Jul-2020 4251.01 4628.47 79.84 3.00 213.64 2851.33
   17:20:55.491.16-Jul-2020 4251.01 4628.46 79.84 3.00 213.84 2851.33
   17:20:55.691.16-Jul-2020 4251.01 4628.47 79.84 3.00 214.04 2851.33
   17:20:55.891.16-Jul-2020 4251.01 4628.47 79.84 3.00 214.24 2851.33
   17:20:56.091.16-Jul-2020 4251.01 4628.45 79.84 3.00 214.44 2851.33
   17:20:56.291.16-Jul-2020 4251.01 4628.46 79.84 3.00 214.64 2851.33
   17:20:56.491.16-Jul-2020 4251.01 4628.43 79.84 3.00 214.84 2851.33
   17:20:56.691.16-Jul-2020 4251.01 4628.52 79.84 3.00 215.04 2851.33
   17:20:56.891.16-Jul-2020 4251.01 4628.50 79.84 3.00 215.24 2851.33
   17:20:57.091.16-Jul-2020 4251.01 4628.42 79.84 3.00 215.44 2851.33
   17:20:57.291.16-Jul-2020 4251.01 4628.50 79.84 3.00 215.64 2851.33
   17:20:57.491.16-Jul-2020 4251.01 4628.53 79.84 3.00 215.84 2851.33
   17:20:57.691.16-Jul-2020 4251.01 4628.46 79.84 3.00 216.04 2851.33
   17:20:57.892.16-Jul-2020 4251.01 4628.46 79.84 3.00 216.24 2851.33
   17:20:58.092.16-Jul-2020 4251.01 4628.44 79.84 3.00 216.44 2851.33
   17:20:58.292.16-Jul-2020 4251.01 4628.45 79.84 3.00 216.64 2851.33
   17:20:58.492.16-Jul-2020 4251.01 4628.48 79.84 3.00 216.84 2851.33
   17:20:58.692.16-Jul-2020 4251.01 4628.48 79.84 3.00 217.04 2851.33
   17:20:58.892.16-Jul-2020 4251.01 4628.48 79.84 3.00 217.24 2851.33
   17:20:59.092.16-Jul-2020 4251.01 4628.47 79.84 3.00 217.44 2851.33
   17:20:59.292.16-Jul-2020 4251.01 4628.52 79.84 3.00 217.64 2851.33
   17:20:59.492.16-Jul-2020 4251.01 4628.44 79.84 3.00 217.84 2851.33
   17:20:59.692.16-Jul-2020 4251.01 4628.52 79.84 3.00 218.04 2851.33
   17:20:59.892.16-Jul-2020 4251.01 4628.52 79.84 3.00 218.24 2851.33
   17:21:00.092.16-Jul-2020 4251.01 4628.46 79.84 3.00 218.44 2851.33
   17:21:00.292.16-Jul-2020 4251.01 4628.46 79.84 3.00 218.65 2851.33
   17:21:00.492.16-Jul-2020 4251.01 4628.48 79.84 3.00 218.85 2851.33
   17:21:00.692.16-Jul-2020 4251.01 4628.47 79.84 3.00 219.05 2851.33
   17:21:00.892.16-Jul-2020 4251.01 4628.45 79.84 3.00 219.25 2851.33
   17:21:01.092.16-Jul-2020 4251.01 4628.47 79.84 3.00 219.45 2851.33
   17:21:01.292.16-Jul-2020 4251.01 4628.47 79.84 3.00 219.65 2851.33
   17:21:01.492.16-Jul-2020 4251.01 4628.46 79.84 3.00 219.85 2851.33
   17:21:01.692.16-Jul-2020 4251.01 4628.45 79.84 3.00 220.05 2851.33
   17:21:01.892.16-Jul-2020 4251.01 4628.45 79.84 3.00 220.25 2851.33
   17:21:02.092.16-Jul-2020 4251.01 4628.44 79.84 3.00 220.45 2851.33
   17:21:02.292.16-Jul-2020 4251.01 4628.45 79.84 3.00 220.65 2851.33
   17:21:02.492.16-Jul-2020 4251.01 4628.46 79.84 3.00 220.85 2851.33
   17:21:02.692.16-Jul-2020 4251.01 4628.48 79.84 3.00 221.05 2851.33
   17:21:02.893.16-Jul-2020 4251.01 4628.48 79.84 3.00 221.25 2851.33
   17:21:03.093.16-Jul-2020 4251.01 4628.47 79.84 3.00 221.45 2851.33
   17:21:03.293.16-Jul-2020 4251.01 4628.47 79.84 3.00 221.65 2851.33
   17:21:03.493.16-Jul-2020 4251.01 4628.47 79.84 3.00 221.85 2851.33
   17:21:03.693.16-Jul-2020 4251.01 4628.45 79.84 3.00 222.05 2851.33
   17:21:03.893.16-Jul-2020 4251.01 4628.47 79.84 3.00 222.25 2851.33
   17:21:04.093.16-Jul-2020 4251.01 4628.47 79.84 3.00 222.45 2851.33
   17:21:04.293.16-Jul-2020 4251.01 4628.45 79.84 3.00 222.65 2851.33
   17:21:04.493.16-Jul-2020 4251.01 4628.45 79.84 3.00 222.85 2851.33
   17:21:04.693.16-Jul-2020 4251.01 4628.47 79.84 3.00 223.05 2851.33
   17:21:04.893.16-Jul-2020 4251.01 4628.45 79.84 3.00 223.25 2851.33
   17:21:05.093.16-Jul-2020 4251.01 4628.54 79.84 3.00 223.45 2851.33
   17:21:05.293.16-Jul-2020 4251.01 4628.44 79.84 3.00 223.65 2851.33
   17:21:05.493.16-Jul-2020 4251.01 4628.44 79.84 3.00 223.85 2851.33
   17:21:05.693.16-Jul-2020 4251.01 4628.54 79.84 3.00 224.05 2851.33
   17:21:05.893.16-Jul-2020 4251.01 4628.54 79.84 3.00 224.25 2851.33
   17:21:06.093.16-Jul-2020 4251.01 4628.43 79.84 3.00 224.45 2851.33
   17:21:06.293.16-Jul-2020 4251.01 4628.47 79.84 3.00 224.65 2851.33
   17:21:06.493.16-Jul-2020 4251.01 4628.48 79.84 3.00 224.85 2851.33
   17:21:06.693.16-Jul-2020 4251.01 4628.41 79.84 3.00 225.05 2851.33
   17:21:06.893.16-Jul-2020 4251.01 4628.41 79.84 3.00 225.25 2851.33
   17:21:07.093.16-Jul-2020 4251.01 4628.50 79.84 3.00 225.45 2851.33
   17:21:07.293.16-Jul-2020 4251.01 4628.47 79.84 3.00 225.65 2851.33
   17:21:07.493.16-Jul-2020 4251.01 4628.47 79.84 3.00 225.85 2851.33
   17:21:07.694.16-Jul-2020 4251.01 4628.46 79.84 3.00 226.05 2851.33
   17:21:07.894.16-Jul-2020 4251.01 4628.46 79.84 3.00 226.25 2851.33
   17:21:08.094.16-Jul-2020 4251.01 4628.48 79.84 3.00 226.45 2851.33
   17:21:08.294.16-Jul-2020 4251.01 4628.44 79.84 3.00 226.65 2851.33
   17:21:08.494.16-Jul-2020 4251.01 4628.47 79.84 3.00 226.85 2851.33
   17:21:08.694.16-Jul-2020 4251.01 4628.48 79.84 3.00 227.05 2851.33
   17:21:08.894.16-Jul-2020 4251.01 4628.48 79.84 3.00 227.25 2851.33
   17:21:09.094.16-Jul-2020 4251.01 4628.47 79.84 3.00 227.45 2851.33
   17:21:09.294.16-Jul-2020 4251.01 4628.47 79.84 3.00 227.65 2851.33
   17:21:09.494.16-Jul-2020 4251.01 4628.47 79.84 3.00 227.85 2851.33
   17:21:09.694.16-Jul-2020 4251.01 4628.45 79.84 3.00 228.05 2851.33
   17:21:09.894.16-Jul-2020 4251.01 4628.45 79.84 3.00 228.25 2851.33
   17:21:10.094.16-Jul-2020 4251.01 4628.47 79.84 3.00 228.45 2851.33
   17:21:10.294.16-Jul-2020 4251.01 4628.45 79.84 3.00 228.65 2851.33
   17:21:10.494.16-Jul-2020 4251.01 4628.45 79.84 3.00 228.85 2851.33
   17:21:10.694.16-Jul-2020 4251.01 4628.43 79.84 3.00 229.05 2851.33
   17:21:10.894.16-Jul-2020 4251.01 4628.43 79.84 3.00 229.25 2851.33
   17:21:11.094.16-Jul-2020 4251.01 4628.50 79.84 3.00 229.45 2851.33
   17:21:11.294.16-Jul-2020 4251.01 4628.46 79.84 3.00 229.65 2851.33
   17:21:11.494.16-Jul-2020 4251.01 4628.46 79.84 3.00 229.85 2851.33
