~Version Information
 VERS.                  2.0:   CWLS log ASCII Standard -VERSION 2.0
 WRAP.                   NO:   One line per depth step
~Well Information Block
#MNEM.UNIT     VALUE/NAME     DESCRIPTION
#---------     -----------    ---------------------------
 STRT.S             16:06:05 16-Jul-20: START TIME 16:06:05 16-Jul-20
 STOP.S             16:12:59 16-Jul-20: STOP TIME  16:12:59 16-Jul-20
 STEP.S                   0.00: STEP TIME
 NULL.                 -999.25: NULL VALUE
 MDS .        Operator Entered:  MAG DATA SOURCE
 UNIT.                     N/A:  LOGGING EQUIPMENT ID
 DCON.         Sperry Drilling:  DIRECTNL CONTR
 DOE .                     N/A:  DOE NUMBER
 RIG .               EastAzeri:  RIG NAME
 JOBN.        AZ-XX-0906363297:  JOB TICKET NUMB
 MWDS.                    Baku:  MWD SHOP
 SRVC.     Turan Drilling & Engineering:  CONTRACTOR
 PROV.                    Baku:  PROVINCE
 STAT.                    Baku:  STATE NAME
 REGN.                   EESSA:  REGION
 BASE.              Azerbaijan:  LOGGING EQUIPMENT BASE LOCATION
 WTYP.                Deviated:  WELL TYPE
 UWI .                     N/A:  UNIQUE WELL IDENTIFIER
 API .                     N/A:  API NUMBER
 COMP.     BP Exploration (Caspian Sea) ltd.:  COMPANY
 WELL.                    D07z:  WELL NAME
 CTRY.              Azerbaijan:  COUNTRY NAME
 SON .        AZ-XX-0906363297:  JOB NUMBER
 FLD .                     ACG:  FIELD NAME
 PDAT.          Mean Sea Level:  PERMANENT DATUM
 FTOP.          Formation Tops:  FORM TOPS DESC
 ILTD.               Lithology:  INTERP LTH DESC
 SVYD.                  Survey:  SURVEY DESC
 DMOD.             Drill Model:  DRILL MOD DESC
 HPTY.       Minimum Curvature:  HOLE POS TYPE
 NREF.                    Grid:  NORTH REFERENCE
 SPUD.               28-Jun-20:  SPUD DATE
 DATE.      18.27.12 28-Jun-20:  END TIME
 STIM.      18.27.12 28-Jun-20:  START TIME
 DMF .             Drill Floor:  DRILL MEAS FROM
 DFST.                        :  DIST FSL TEXT
 DFWT.                        :  DIST FWL TEXT
 CNTY.                        :  COUNTY
 LOC .                        :  LOCATION
 LMF .             Drill Floor:  LOG MEASURED FROM
 VSNS.m                  -7.75:  VERT SEC N/S
 VSEW.m                  -9.19:  VERT SEC E/W
 MMDE.m                   0.00:  MAGUTM CALC DEP
 AGAP.m                  43.60:  AIR GAP
 DEP .m                4058.99:  DEPTH
 APD .m                  43.60:  DEPTH ABOVE PD
 WDMS.m                 151.80:  WD ELEV
 EGL .m                   0.00:  GROUND ELEVATION
 EPD .m                   0.00:  ELEVATION
 AZTC.deg                 6.19:  AZM TOTAL CORR
 GRDC.deg                 0.27:  GRID CORRECTION
 MDEC.deg                 6.46:  MAGNETIC DECL
 MDIP.deg                59.47:  MAGNETIC DIP
 MFLD.nT              50279.00:  MAGNETIC FIELD
 GVFD.g                   1.00:  GRAVITY FIELD
 VSDR.deg               249.96:  VERT SEC DIRECT
 TDD .m                   0.00:  TOTAL DEPTH (DRILLER)
 SDEP.m                   0.00:  START DEPTH
 DFSL.m                   0.00:  DISTANCE FSL
 DFWL.m                   0.00:  DISTANCE FWL
 UTMY.m             4431880.20:  UTM Y
 UTMX.m              538763.98:  UTM X
 WHEW.m                  -9.19:  WELL HEAD E/W
 WHNS.m                  -7.75:  WELL HEAD N/S
 LONG.deg                51.45:  LONGITUDE
 LATI.deg                40.02:  LATITUDE
 TVDS.m                  43.60:  TVDSS CORRECTN
 EKB .m                  43.60:  KB ELEVATION
 EDF .m                  43.60:  DF ELEVATION
 TDL .m                 248.00:  TOTAL DEPTH (LOGGER)
 MAGU.                 1849075:  MAGUTM CHECKSUM
 VSC .                       0:  VS TO CLOSURE
~Parameter Information Block
#MNEM.UNIT       Value        Description
#---------     -----------    ---------------------------
 AV  .mps                 6.34:  Ann Velocity 
 AVMX.mps                 7.00:  Max Ann Veloc 
 AZIF.deg               260.29:  Azm, Final 
 BHAT.        Rotary Steerable:  BHA Type 
 BROT.°/30m               1.20:  Build Rotating 
 BS  .in                  8.50:  Bit Size 
 BSZ .in                  8.50:  Bit Size 
 BTPL.psig              620.00:  Bit Press Loss 
 CABU.                     Yes:  Customer Abuse 
 COMM.                     l&q:  Run Comments 1 
 TCS .hr                 56.22:  Time Ciculation Ended 
 CV  .mps                 3.05:  Crit Velocity 
 CVMX.mps                 3.20:  Max Crit Veloc 
 DD1 .            Musa Ahmadov:  Direct Drillr 1 
 DDSV.                 iCruise:  DD Service 
 DEFF.%                  98.00:  % Det Eff 
 DLRX.°/30m               2.78:  Dogleg Rot Max 
 DLSO.°/30m               0.00:  Dogleg Oriented 
 DLSX.°/30m               0.00:  Dogleg Str Max 
 DRET.      05.20.48 16-Jul-20:  Drill End Time 
 DRST.      10.20.48 13-Jul-20:  Drill Start Tim 
 DTIM.hr                 14.25:  Time Drilling 
 EDEP.m                4326.01:  End Depth 
 ENG1.      Artemiy Matviyanov:  Engineer 1 
 ENG2.           Amrah Tahirov:  Engineer 2 
 ETIM.      22.30.00 18-Jul-20:  End Time 
 FLOI.gpm               550.00:  Flow In 
 FLON.gpm               450.00:  Flow In Min 
 FLOS.cptm                0.00:  Fluid Loss 
 FLOX.gpm               600.00:  Flow In Max 
 HFLO.                      No:  High Flow 
 HPRE.                      No:  High Pressure 
 HTEM.                      No:  High Temp 
 HYDO.m                   1.80:  Hydro Offset 
 IFIN.deg                65.41:  Inc, Final 
 IMAX.deg                65.14:  Inc Max 
 IMIN.deg                58.89:  Inc Min 
 IMND.m                4104.92:  Inc Min Depth 
 IMXD.m                4303.89:  Inc Max Depth 
 JARR.                      No:  Jarring 
 LETM.      10.20.48 17-Jul-20:  Log End Time 
 LOST.hr                     0:  Lost Rig Time 
 LSTM.      10.20.48 13-Jul-20:  Log Start Time 
 MDCL.ppm             37000.00:  Mud Chlorides 
 MDES.     Inversion Oil/Synthetic:  Mud Desc 
 DFD .sg                  1.52:  Mud Density 
 MDMN.sg                  1.52:  Dens Mud Min 
 MDMX.sg                  1.52:  Dens Mud Max 
 MOIL.                   52.70:  Run Mud Oil % 
 MOWR.                   68:32:  Run Mud OWR 
 MSND.                     0.2:  Run Mud Sand % 
 MSOL.                    21.6:  Run Mud Solids% 
 DFV .spqt               79.00:  Mud Viscosity 
 MWOD.in                  6.75:  MWD Tool OD 
 MWSI.                      No:  Serv Intrp, MWD 
 OTIM.hr                114.04:  Time Operating 
 PCON.          Wear / Scratch:  Pad Condition 
 PMAX.psia            11782.92:  Press Op, Max 
 PV  .cP                 49.00:  Mud PV 
 RUN .                     600:  Run Number 
 ROPA.m/hr               20.00:  ROP Avg 
 ROPN.m/hr               15.00:  ROP Min 
 ROPX.m/hr               22.00:  ROP Max 
 RPMA.rpm               120.00:  RPM Surface Avg 
 RPMN.rpm                90.00:  RPM Surface Min 
 RPMX.rpm               140.00:  RPM Surface Max 
 RRUN.                     600:  Rig Run Number 
 SAZI.deg               260.29:  Azm, Start 
 SDEP.m                4078.01:  Start Depth 
 SIDD.                      No:  Serv Intrp, DD 
 SINC.deg                58.89:  Inc, Start 
 SPPA.psig             4560.00:  SPP Avg 
 SPPN.psig             3600.00:  SPP Min 
 SPPX.psig             4800.00:  SPP Max 
 STIM.      10.20.48 13-Jul-20:  Start Time 
 SVCS.                 DD, MWD:  Services 
 SVER.                    9.20:  Sperry Version 
 TDAT.m                4378.01:  Tot Depth Attmp 
 TDDF.                      No:  Trip for DD 
 TDLG.m                 248.00:  Tot Depth Loggd 
 TFF .                      No:  Trip for Fail 
 TQAA.f-kp               18.00:  Torque Abs Avg 
 TQAN.f-kp               15.00:  Torque Abs Min 
 TQAX.f-kp               20.00:  Torque Abs Max 
 TRRT.°/30m               0.70:  Turn Rotating 
 MRT .                    HCIM:  Maximum Recorded Temperature 
 TTMX.degC               86.00:  Max Tool Temp 
 WBMN.klb                 3.00:  WOB Min 
 WOBA.klb                 5.00:  WOB Avg 
 WOBX.klb                 9.00:  WOB Max 
 YP  .lhf2               32.00:  Yield Point 
~Curve Information Block
#MNEM.UNIT                 API CODE     Curve Description
#---------               -----------    ---------------------------
 TIME.HHMMSS            00 000 000 000:  GT Time & Date
 GTDEPTH.m              00 000 000 000:  GT Depth
 GTPQH.psia             00 000 000 000:  GT HR Quartz Pressure
 GTTQ.degC              00 000 000 000:  GT Quartz Temperature
 GTTN.NONE              00 000 000 000:  GT Test Number
 GTET.sec               00 000 000 000:  GT Elapsed Test Time
 GTTVD.m                00 000 000 000:  GT True Vertical Depth
#Other Information
#
#WARRANTY: Halliburton will use its best efforts to furnish customers with 
#accurate information and interpretations that are part of, and incident to, the services 
#provided.  However, Halliburton cannot and does not warrant the accuracy 
#or correctness of such information and interpretations.  Under no circumstances should any 
#such information or interpretation be relied upon as the sole basis for any drilling, 
#completion, production, or financial decision or any procedure involving any risk to the 
#safety of any drilling venture, drilling rig or its crew or any other third party.  The 
#Customer has full responsibility for all drilling, completion and production operation.  
#Halliburton makes no representations or warranties, either expressed or 
#implied, including, but not limited to, the implied warranties of merchantability or fitness 
#for a particular purpose, with respect to the services rendered.  In no event will 
#Halliburton be liable for failure to obtain any particular results or for 
#any damages, including, but not limited to, indirect, special or consequential damages, 
#resulting from the use of any information or interpretation provided by Halliburton.
#
~A           TIME           GTDEPTH  GTPQH  GTTQ  GTTN  GTET   GTTVD  
# ...
   16:10:41.824.16-Jul-2020 4280.51 4341.76 80.09 1.00 276.06 2863.78
   16:10:42.024.16-Jul-2020 4280.51 4341.71 80.09 1.00 276.26 2863.78
   16:10:42.224.16-Jul-2020 4280.51 4341.71 80.09 1.00 276.46 2863.78
   16:10:42.424.16-Jul-2020 4280.51 4341.68 80.09 1.00 276.66 2863.78
   16:10:42.624.16-Jul-2020 4280.51 4342.01 80.09 1.00 276.86 2863.78
   16:10:42.824.16-Jul-2020 4280.51 4341.68 80.09 1.00 277.06 2863.78
   16:10:43.024.16-Jul-2020 4280.51 4341.78 80.09 1.00 277.26 2863.78
   16:10:43.224.16-Jul-2020 4280.51 4341.83 80.09 1.00 277.46 2863.78
   16:10:43.424.16-Jul-2020 4280.51 4341.74 80.09 1.00 277.66 2863.78
   16:10:43.624.16-Jul-2020 4280.51 4341.75 80.09 1.00 277.86 2863.78
   16:10:43.824.16-Jul-2020 4280.51 4341.76 80.09 1.00 278.06 2863.78
   16:10:44.024.16-Jul-2020 4280.51 4341.87 80.09 1.00 278.26 2863.78
   16:10:44.224.16-Jul-2020 4280.51 4341.87 80.09 1.00 278.46 2863.78
   16:10:44.424.16-Jul-2020 4280.51 4341.87 80.09 1.00 278.66 2863.78
   16:10:44.624.16-Jul-2020 4280.51 4341.80 80.09 1.00 278.86 2863.78
   16:10:44.824.16-Jul-2020 4280.51 4341.89 80.09 1.00 279.06 2863.78
   16:10:45.024.16-Jul-2020 4280.51 4341.89 80.09 1.00 279.26 2863.78
   16:10:45.224.16-Jul-2020 4280.51 4341.85 80.09 1.00 279.46 2863.78
   16:10:45.424.16-Jul-2020 4280.51 4341.85 80.09 1.00 279.66 2863.78
   16:10:45.624.16-Jul-2020 4280.51 4341.77 80.09 1.00 279.86 2863.78
   16:10:45.824.16-Jul-2020 4280.51 4342.20 80.09 1.00 280.06 2863.78
   16:10:46.024.16-Jul-2020 4280.51 4342.20 80.09 1.00 280.26 2863.78
   16:10:46.224.16-Jul-2020 4280.51 4341.96 80.09 1.00 280.46 2863.78
   16:10:46.425.16-Jul-2020 4280.51 4341.89 80.09 1.00 280.66 2863.78
   16:10:46.625.16-Jul-2020 4280.51 4341.87 80.09 1.00 280.86 2863.78
   16:10:46.825.16-Jul-2020 4280.51 4341.90 80.09 1.00 281.06 2863.78
   16:10:47.025.16-Jul-2020 4280.51 4342.20 80.09 1.00 281.26 2863.78
   16:10:47.225.16-Jul-2020 4280.51 4341.79 80.09 1.00 281.46 2863.78
   16:10:47.425.16-Jul-2020 4280.51 4341.99 80.09 1.00 281.66 2863.78
   16:10:47.625.16-Jul-2020 4280.51 4341.96 80.09 1.00 281.86 2863.78
   16:10:47.825.16-Jul-2020 4280.51 4341.94 80.09 1.00 282.06 2863.78
   16:10:48.025.16-Jul-2020 4280.51 4341.89 80.09 1.00 282.26 2863.78
   16:10:48.225.16-Jul-2020 4280.51 4342.10 80.09 1.00 282.46 2863.78
   16:10:48.425.16-Jul-2020 4280.51 4342.06 80.09 1.00 282.66 2863.78
   16:10:48.625.16-Jul-2020 4280.51 4341.82 80.09 1.00 282.86 2863.78
   16:10:48.825.16-Jul-2020 4280.51 4342.09 80.09 1.00 283.06 2863.78
   16:10:49.025.16-Jul-2020 4280.51 4341.95 80.09 1.00 283.26 2863.78
   16:10:49.225.16-Jul-2020 4280.51 4341.97 80.09 1.00 283.46 2863.78
   16:10:49.425.16-Jul-2020 4280.51 4341.99 80.09 1.00 283.66 2863.78
   16:10:49.625.16-Jul-2020 4280.51 4342.16 80.09 1.00 283.86 2863.78
   16:10:49.825.16-Jul-2020 4280.51 4341.99 80.09 1.00 284.06 2863.78
   16:10:50.025.16-Jul-2020 4280.51 4341.99 80.09 1.00 284.26 2863.78
   16:10:50.225.16-Jul-2020 4280.51 4342.08 80.09 1.00 284.46 2863.78
   16:10:50.425.16-Jul-2020 4280.51 4341.93 80.09 1.00 284.66 2863.78
   16:10:50.625.16-Jul-2020 4280.51 4341.98 80.09 1.00 284.86 2863.78
   16:10:50.825.16-Jul-2020 4280.51 4342.08 80.09 1.00 285.06 2863.78
   16:10:51.025.16-Jul-2020 4280.51 4342.00 80.09 1.00 285.26 2863.78
   16:10:51.226.16-Jul-2020 4280.51 4342.05 80.09 1.00 285.46 2863.78
   16:10:51.426.16-Jul-2020 4280.51 4342.02 80.09 1.00 285.66 2863.78
   16:10:51.626.16-Jul-2020 4280.51 4342.01 80.09 1.00 285.86 2863.78
   16:10:51.826.16-Jul-2020 4280.51 4342.05 80.09 1.00 286.06 2863.78
   16:10:52.026.16-Jul-2020 4280.51 4342.02 80.09 1.00 286.26 2863.78
   16:10:52.226.16-Jul-2020 4280.51 4342.22 80.09 1.00 286.46 2863.78
   16:10:52.426.16-Jul-2020 4280.51 4342.04 80.09 1.00 286.66 2863.78
   16:10:52.626.16-Jul-2020 4280.51 4342.09 80.09 1.00 286.86 2863.78
   16:10:52.826.16-Jul-2020 4280.51 4342.12 80.09 1.00 287.06 2863.78
   16:10:53.026.16-Jul-2020 4280.51 4341.95 80.09 1.00 287.26 2863.78
   16:10:53.226.16-Jul-2020 4280.51 4342.12 80.08 1.00 287.46 2863.78
   16:10:53.426.16-Jul-2020 4280.51 4342.11 80.09 1.00 287.66 2863.78
   16:10:53.626.16-Jul-2020 4280.51 4342.01 80.08 1.00 287.86 2863.78
   16:10:53.826.16-Jul-2020 4280.51 4342.08 80.08 1.00 288.06 2863.78
   16:10:54.026.16-Jul-2020 4280.51 4342.10 80.08 1.00 288.26 2863.78
   16:10:54.226.16-Jul-2020 4280.51 4342.11 80.08 1.00 288.46 2863.78
   16:10:54.426.16-Jul-2020 4280.51 4342.07 80.08 1.00 288.66 2863.78
   16:10:54.626.16-Jul-2020 4280.51 4342.07 80.08 1.00 288.86 2863.78
   16:10:54.826.16-Jul-2020 4280.51 4342.11 80.08 1.00 289.06 2863.78
   16:10:55.026.16-Jul-2020 4280.51 4342.05 80.08 1.00 289.26 2863.78
   16:10:55.226.16-Jul-2020 4280.51 4342.13 80.08 1.00 289.46 2863.78
   16:10:55.426.16-Jul-2020 4280.51 4342.31 80.08 1.00 289.66 2863.78
   16:10:55.626.16-Jul-2020 4280.51 4342.02 80.08 1.00 289.86 2863.78
   16:10:55.826.16-Jul-2020 4280.51 4342.13 80.08 1.00 290.06 2863.78
   16:10:56.026.16-Jul-2020 4280.51 4342.11 80.08 1.00 290.26 2863.78
   16:10:56.227.16-Jul-2020 4280.51 4342.06 80.08 1.00 290.46 2863.78
   16:10:56.427.16-Jul-2020 4280.51 4342.11 80.08 1.00 290.66 2863.78
   16:10:56.627.16-Jul-2020 4280.51 4342.33 80.08 1.00 290.86 2863.78
   16:10:56.827.16-Jul-2020 4280.51 4342.17 80.08 1.00 291.06 2863.78
   16:10:57.027.16-Jul-2020 4280.51 4342.17 80.08 1.00 291.26 2863.78
   16:10:57.227.16-Jul-2020 4280.51 4342.18 80.08 1.00 291.46 2863.78
   16:10:57.427.16-Jul-2020 4280.51 4342.06 80.08 1.00 291.66 2863.78
   16:10:57.627.16-Jul-2020 4280.51 4342.12 80.08 1.00 291.86 2863.78
   16:10:57.827.16-Jul-2020 4280.51 4342.15 80.08 1.00 292.06 2863.78
   16:10:58.027.16-Jul-2020 4280.51 4342.15 80.08 1.00 292.26 2863.78
   16:10:58.227.16-Jul-2020 4280.51 4342.05 80.08 1.00 292.46 2863.78
   16:10:58.427.16-Jul-2020 4280.51 4342.17 80.08 1.00 292.66 2863.78
   16:10:58.627.16-Jul-2020 4280.51 4342.16 80.08 1.00 292.86 2863.78
   16:10:58.827.16-Jul-2020 4280.51 4342.17 80.08 1.00 293.06 2863.78
   16:10:59.027.16-Jul-2020 4280.51 4342.11 80.08 1.00 293.26 2863.78
   16:10:59.227.16-Jul-2020 4280.51 4342.45 80.08 1.00 293.46 2863.78
   16:10:59.427.16-Jul-2020 4280.51 4342.10 80.08 1.00 293.66 2863.78
   16:10:59.627.16-Jul-2020 4280.51 4342.12 80.08 1.00 293.86 2863.78
   16:10:59.827.16-Jul-2020 4280.51 4342.34 80.08 1.00 294.06 2863.78
   16:11:00.027.16-Jul-2020 4280.51 4342.34 80.08 1.00 294.26 2863.78
   16:11:00.227.16-Jul-2020 4280.51 4342.16 80.08 1.00 294.46 2863.78
   16:11:00.427.16-Jul-2020 4280.51 4342.21 80.08 1.00 294.66 2863.78
   16:11:00.627.16-Jul-2020 4280.51 4342.23 80.08 1.00 294.86 2863.78
   16:11:00.827.16-Jul-2020 4280.51 4342.19 80.08 1.00 295.06 2863.78
   16:11:01.028.16-Jul-2020 4280.51 4342.19 80.08 1.00 295.26 2863.78
   16:11:01.228.16-Jul-2020 4280.51 4342.23 80.08 1.00 295.46 2863.78
   16:11:01.428.16-Jul-2020 4280.51 4342.17 80.08 1.00 295.66 2863.78
   16:11:01.628.16-Jul-2020 4280.51 4342.18 80.08 1.00 295.86 2863.78
   16:11:01.828.16-Jul-2020 4280.51 4342.45 80.08 1.00 296.06 2863.78
   16:11:02.028.16-Jul-2020 4280.51 4342.45 80.08 1.00 296.26 2863.78
   16:11:02.228.16-Jul-2020 4280.51 4342.17 80.08 1.00 296.46 2863.78
   16:11:02.428.16-Jul-2020 4280.51 4342.31 80.08 1.00 296.66 2863.78
   16:11:02.628.16-Jul-2020 4280.51 4342.14 80.08 1.00 296.86 2863.78
   16:11:02.828.16-Jul-2020 4280.51 4342.22 80.08 1.00 297.06 2863.78
   16:11:03.028.16-Jul-2020 4280.51 4342.19 80.08 1.00 297.26 2863.78
   16:11:03.228.16-Jul-2020 4280.51 4342.25 80.08 1.00 297.46 2863.78
   16:11:03.428.16-Jul-2020 4280.51 4342.20 80.08 1.00 297.66 2863.78
   16:11:03.628.16-Jul-2020 4280.51 4342.19 80.08 1.00 297.86 2863.78
   16:11:03.828.16-Jul-2020 4280.51 4342.24 80.08 1.00 298.06 2863.78
   16:11:04.028.16-Jul-2020 4280.51 4342.21 80.08 1.00 298.26 2863.78
   16:11:04.228.16-Jul-2020 4280.51 4342.25 80.08 1.00 298.46 2863.78
   16:11:04.428.16-Jul-2020 4280.51 4342.22 80.08 1.00 298.66 2863.78
   16:11:04.628.16-Jul-2020 4280.51 4342.19 80.08 1.00 298.86 2863.78
