~Version Information
 VERS.                  2.0:   CWLS log ASCII Standard -VERSION 2.0
 WRAP.                   NO:   One line per depth step
~Well Information Block
#MNEM.UNIT     VALUE/NAME     DESCRIPTION
#---------     -----------    ---------------------------
 STRT.S             17:56:46 16-Jul-20: START TIME 17:56:46 16-Jul-20
 STOP.S             18:03:39 16-Jul-20: STOP TIME  18:03:39 16-Jul-20
 STEP.S                   0.00: STEP TIME
 NULL.                 -999.25: NULL VALUE
 MDS .        Operator Entered:  MAG DATA SOURCE
 UNIT.                     N/A:  LOGGING EQUIPMENT ID
 DCON.         Sperry Drilling:  DIRECTNL CONTR
 DOE .                     N/A:  DOE NUMBER
 RIG .               EastAzeri:  RIG NAME
 JOBN.        AZ-XX-0906363297:  JOB TICKET NUMB
 MWDS.                    Baku:  MWD SHOP
 SRVC.     Turan Drilling & Engineering:  CONTRACTOR
 PROV.                    Baku:  PROVINCE
 STAT.                    Baku:  STATE NAME
 REGN.                   EESSA:  REGION
 BASE.              Azerbaijan:  LOGGING EQUIPMENT BASE LOCATION
 WTYP.                Deviated:  WELL TYPE
 UWI .                     N/A:  UNIQUE WELL IDENTIFIER
 API .                     N/A:  API NUMBER
 COMP.     BP Exploration (Caspian Sea) ltd.:  COMPANY
 WELL.                    D07z:  WELL NAME
 CTRY.              Azerbaijan:  COUNTRY NAME
 SON .        AZ-XX-0906363297:  JOB NUMBER
 FLD .                     ACG:  FIELD NAME
 PDAT.          Mean Sea Level:  PERMANENT DATUM
 FTOP.          Formation Tops:  FORM TOPS DESC
 ILTD.               Lithology:  INTERP LTH DESC
 SVYD.                  Survey:  SURVEY DESC
 DMOD.             Drill Model:  DRILL MOD DESC
 HPTY.       Minimum Curvature:  HOLE POS TYPE
 NREF.                    Grid:  NORTH REFERENCE
 SPUD.               28-Jun-20:  SPUD DATE
 DATE.      18.27.12 28-Jun-20:  END TIME
 STIM.      18.27.12 28-Jun-20:  START TIME
 DMF .             Drill Floor:  DRILL MEAS FROM
 DFST.                        :  DIST FSL TEXT
 DFWT.                        :  DIST FWL TEXT
 CNTY.                        :  COUNTY
 LOC .                        :  LOCATION
 LMF .             Drill Floor:  LOG MEASURED FROM
 VSNS.m                  -7.75:  VERT SEC N/S
 VSEW.m                  -9.19:  VERT SEC E/W
 MMDE.m                   0.00:  MAGUTM CALC DEP
 AGAP.m                  43.60:  AIR GAP
 DEP .m                4058.99:  DEPTH
 APD .m                  43.60:  DEPTH ABOVE PD
 WDMS.m                 151.80:  WD ELEV
 EGL .m                   0.00:  GROUND ELEVATION
 EPD .m                   0.00:  ELEVATION
 AZTC.deg                 6.19:  AZM TOTAL CORR
 GRDC.deg                 0.27:  GRID CORRECTION
 MDEC.deg                 6.46:  MAGNETIC DECL
 MDIP.deg                59.47:  MAGNETIC DIP
 MFLD.nT              50279.00:  MAGNETIC FIELD
 GVFD.g                   1.00:  GRAVITY FIELD
 VSDR.deg               249.96:  VERT SEC DIRECT
 TDD .m                   0.00:  TOTAL DEPTH (DRILLER)
 SDEP.m                   0.00:  START DEPTH
 DFSL.m                   0.00:  DISTANCE FSL
 DFWL.m                   0.00:  DISTANCE FWL
 UTMY.m             4431880.20:  UTM Y
 UTMX.m              538763.98:  UTM X
 WHEW.m                  -9.19:  WELL HEAD E/W
 WHNS.m                  -7.75:  WELL HEAD N/S
 LONG.deg                51.45:  LONGITUDE
 LATI.deg                40.02:  LATITUDE
 TVDS.m                  43.60:  TVDSS CORRECTN
 EKB .m                  43.60:  KB ELEVATION
 EDF .m                  43.60:  DF ELEVATION
 TDL .m                 248.00:  TOTAL DEPTH (LOGGER)
 MAGU.                 1849075:  MAGUTM CHECKSUM
 VSC .                       0:  VS TO CLOSURE
~Parameter Information Block
#MNEM.UNIT       Value        Description
#---------     -----------    ---------------------------
 AV  .mps                 6.34:  Ann Velocity 
 AVMX.mps                 7.00:  Max Ann Veloc 
 AZIF.deg               260.29:  Azm, Final 
 BHAT.        Rotary Steerable:  BHA Type 
 BROT.°/30m               1.20:  Build Rotating 
 BS  .in                  8.50:  Bit Size 
 BSZ .in                  8.50:  Bit Size 
 BTPL.psig              620.00:  Bit Press Loss 
 CABU.                     Yes:  Customer Abuse 
 COMM.                     LqT:  Run Comments 1 
 TCS .hr                 56.22:  Time Ciculation Ended 
 CV  .mps                 3.05:  Crit Velocity 
 CVMX.mps                 3.20:  Max Crit Veloc 
 DD1 .            Musa Ahmadov:  Direct Drillr 1 
 DDSV.                 iCruise:  DD Service 
 DEFF.%                  98.00:  % Det Eff 
 DLRX.°/30m               2.78:  Dogleg Rot Max 
 DLSO.°/30m               0.00:  Dogleg Oriented 
 DLSX.°/30m               0.00:  Dogleg Str Max 
 DRET.      05.20.48 16-Jul-20:  Drill End Time 
 DRST.      10.20.48 13-Jul-20:  Drill Start Tim 
 DTIM.hr                 14.25:  Time Drilling 
 EDEP.m                4326.01:  End Depth 
 ENG1.      Artemiy Matviyanov:  Engineer 1 
 ENG2.           Amrah Tahirov:  Engineer 2 
 ETIM.      22.30.00 18-Jul-20:  End Time 
 FLOI.gpm               550.00:  Flow In 
 FLON.gpm               450.00:  Flow In Min 
 FLOS.cptm                0.00:  Fluid Loss 
 FLOX.gpm               600.00:  Flow In Max 
 HFLO.                      No:  High Flow 
 HPRE.                      No:  High Pressure 
 HTEM.                      No:  High Temp 
 HYDO.m                   1.80:  Hydro Offset 
 IFIN.deg                65.41:  Inc, Final 
 IMAX.deg                65.14:  Inc Max 
 IMIN.deg                58.89:  Inc Min 
 IMND.m                4104.92:  Inc Min Depth 
 IMXD.m                4303.89:  Inc Max Depth 
 JARR.                      No:  Jarring 
 LETM.      10.20.48 17-Jul-20:  Log End Time 
 LOST.hr                     0:  Lost Rig Time 
 LSTM.      10.20.48 13-Jul-20:  Log Start Time 
 MDCL.ppm             37000.00:  Mud Chlorides 
 MDES.     Inversion Oil/Synthetic:  Mud Desc 
 DFD .sg                  1.52:  Mud Density 
 MDMN.sg                  1.52:  Dens Mud Min 
 MDMX.sg                  1.52:  Dens Mud Max 
 MOIL.                   52.70:  Run Mud Oil % 
 MOWR.                   68:32:  Run Mud OWR 
 MSND.                     0.2:  Run Mud Sand % 
 MSOL.                    21.6:  Run Mud Solids% 
 DFV .spqt               79.00:  Mud Viscosity 
 MWOD.in                  6.75:  MWD Tool OD 
 MWSI.                      No:  Serv Intrp, MWD 
 OTIM.hr                114.04:  Time Operating 
 PCON.          Wear / Scratch:  Pad Condition 
 PMAX.psia            11782.92:  Press Op, Max 
 PV  .cP                 49.00:  Mud PV 
 RUN .                     600:  Run Number 
 ROPA.m/hr               20.00:  ROP Avg 
 ROPN.m/hr               15.00:  ROP Min 
 ROPX.m/hr               22.00:  ROP Max 
 RPMA.rpm               120.00:  RPM Surface Avg 
 RPMN.rpm                90.00:  RPM Surface Min 
 RPMX.rpm               140.00:  RPM Surface Max 
 RRUN.                     600:  Rig Run Number 
 SAZI.deg               260.29:  Azm, Start 
 SDEP.m                4078.01:  Start Depth 
 SIDD.                      No:  Serv Intrp, DD 
 SINC.deg                58.89:  Inc, Start 
 SPPA.psig             4560.00:  SPP Avg 
 SPPN.psig             3600.00:  SPP Min 
 SPPX.psig             4800.00:  SPP Max 
 STIM.      10.20.48 13-Jul-20:  Start Time 
 SVCS.                 DD, MWD:  Services 
 SVER.                    9.20:  Sperry Version 
 TDAT.m                4378.01:  Tot Depth Attmp 
 TDDF.                      No:  Trip for DD 
 TDLG.m                 248.00:  Tot Depth Loggd 
 TFF .                      No:  Trip for Fail 
 TQAA.f-kp               18.00:  Torque Abs Avg 
 TQAN.f-kp               15.00:  Torque Abs Min 
 TQAX.f-kp               20.00:  Torque Abs Max 
 TRRT.°/30m               0.70:  Turn Rotating 
 MRT .                    HCIM:  Maximum Recorded Temperature 
 TTMX.degC               86.00:  Max Tool Temp 
 WBMN.klb                 3.00:  WOB Min 
 WOBA.klb                 5.00:  WOB Avg 
 WOBX.klb                 9.00:  WOB Max 
 YP  .lhf2               32.00:  Yield Point 
~Curve Information Block
#MNEM.UNIT                 API CODE     Curve Description
#---------               -----------    ---------------------------
 TIME.HHMMSS            00 000 000 000:  GT Time & Date
 GTDEPTH.m              00 000 000 000:  GT Depth
 GTPQH.psia             00 000 000 000:  GT HR Quartz Pressure
 GTTQ.degC              00 000 000 000:  GT Quartz Temperature
 GTTN.NONE              00 000 000 000:  GT Test Number
 GTET.sec               00 000 000 000:  GT Elapsed Test Time
 GTTVD.m                00 000 000 000:  GT True Vertical Depth
#Other Information
#
#WARRANTY: Halliburton will use its best efforts to furnish customers with 
#accurate information and interpretations that are part of, and incident to, the services 
#provided.  However, Halliburton cannot and does not warrant the accuracy 
#or correctness of such information and interpretations.  Under no circumstances should any 
#such information or interpretation be relied upon as the sole basis for any drilling, 
#completion, production, or financial decision or any procedure involving any risk to the 
#safety of any drilling venture, drilling rig or its crew or any other third party.  The 
#Customer has full responsibility for all drilling, completion and production operation.  
#Halliburton makes no representations or warranties, either expressed or 
#implied, including, but not limited to, the implied warranties of merchantability or fitness 
#for a particular purpose, with respect to the services rendered.  In no event will 
#Halliburton be liable for failure to obtain any particular results or for 
#any damages, including, but not limited to, indirect, special or consequential damages, 
#resulting from the use of any information or interpretation provided by Halliburton.
#
~A           TIME           GTDEPTH  GTPQH  GTTQ  GTTN  GTET   GTTVD  
# ...
   18:02:08.432.16-Jul-2020 4229.01 4706.05 79.71 4.00 322.14 2841.98
   18:02:08.632.16-Jul-2020 4229.01 4706.05 79.71 4.00 322.34 2841.98
   18:02:08.832.16-Jul-2020 4229.01 4706.07 79.71 4.00 322.54 2841.98
   18:02:09.032.16-Jul-2020 4229.01 4706.05 79.71 4.00 322.74 2841.98
   18:02:09.232.16-Jul-2020 4229.01 4706.00 79.71 4.00 322.94 2841.98
   18:02:09.432.16-Jul-2020 4229.01 4706.11 79.71 4.00 323.14 2841.98
   18:02:09.632.16-Jul-2020 4229.01 4706.19 79.71 4.00 323.34 2841.98
   18:02:09.832.16-Jul-2020 4229.01 4706.06 79.71 4.00 323.54 2841.98
   18:02:10.033.16-Jul-2020 4229.01 4706.28 79.71 4.00 323.74 2841.98
   18:02:10.233.16-Jul-2020 4229.01 4705.91 79.71 4.00 323.94 2841.98
   18:02:10.433.16-Jul-2020 4229.01 4706.17 79.71 4.00 324.14 2841.98
   18:02:10.633.16-Jul-2020 4229.01 4706.17 79.71 4.00 324.34 2841.98
   18:02:10.833.16-Jul-2020 4229.01 4706.07 79.71 4.00 324.54 2841.98
   18:02:11.033.16-Jul-2020 4229.01 4706.24 79.71 4.00 324.74 2841.98
   18:02:11.233.16-Jul-2020 4229.01 4705.93 79.71 4.00 324.94 2841.98
   18:02:11.433.16-Jul-2020 4229.01 4706.18 79.71 4.00 325.14 2841.98
   18:02:11.633.16-Jul-2020 4229.01 4706.18 79.71 4.00 325.34 2841.98
   18:02:11.833.16-Jul-2020 4229.01 4706.12 79.71 4.00 325.54 2841.98
   18:02:12.033.16-Jul-2020 4229.01 4705.95 79.71 4.00 325.74 2841.98
   18:02:12.233.16-Jul-2020 4229.01 4706.12 79.71 4.00 325.94 2841.98
   18:02:12.434.16-Jul-2020 4229.01 4706.16 79.71 4.00 326.14 2841.98
   18:02:12.634.16-Jul-2020 4229.01 4706.16 79.71 4.00 326.34 2841.98
   18:02:12.834.16-Jul-2020 4229.01 4706.08 79.71 4.00 326.54 2841.98
   18:02:13.034.16-Jul-2020 4229.01 4706.08 79.71 4.00 326.74 2841.98
   18:02:13.234.16-Jul-2020 4229.01 4706.10 79.71 4.00 326.95 2841.98
   18:02:13.434.16-Jul-2020 4229.01 4706.07 79.71 4.00 327.15 2841.98
   18:02:13.634.16-Jul-2020 4229.01 4706.07 79.71 4.00 327.35 2841.98
   18:02:13.834.16-Jul-2020 4229.01 4706.05 79.71 4.00 327.55 2841.98
   18:02:14.034.16-Jul-2020 4229.01 4706.11 79.71 4.00 327.75 2841.98
   18:02:14.234.16-Jul-2020 4229.01 4706.07 79.71 4.00 327.95 2841.98
   18:02:14.434.16-Jul-2020 4229.01 4706.07 79.71 4.00 328.15 2841.98
   18:02:14.635.16-Jul-2020 4229.01 4706.07 79.71 4.00 328.35 2841.98
   18:02:14.835.16-Jul-2020 4229.01 4705.93 79.71 4.00 328.55 2841.98
   18:02:15.035.16-Jul-2020 4229.01 4706.16 79.71 4.00 328.75 2841.98
   18:02:15.235.16-Jul-2020 4229.01 4706.01 79.71 4.00 328.95 2841.98
   18:02:15.435.16-Jul-2020 4229.01 4706.10 79.71 4.00 329.15 2841.98
   18:02:15.635.16-Jul-2020 4229.01 4706.10 79.71 4.00 329.35 2841.98
   18:02:15.835.16-Jul-2020 4229.01 4706.12 79.71 4.00 329.55 2841.98
   18:02:16.035.16-Jul-2020 4229.01 4706.06 79.71 4.00 329.75 2841.98
   18:02:16.235.16-Jul-2020 4229.01 4706.06 79.71 4.00 329.95 2841.98
   18:02:16.435.16-Jul-2020 4229.01 4706.10 79.71 4.00 330.15 2841.98
   18:02:16.635.16-Jul-2020 4229.01 4706.08 79.71 4.00 330.35 2841.98
   18:02:16.836.16-Jul-2020 4229.01 4706.07 79.71 4.00 330.55 2841.98
   18:02:17.036.16-Jul-2020 4229.01 4706.05 79.71 4.00 330.75 2841.98
   18:02:17.236.16-Jul-2020 4229.01 4706.12 79.71 4.00 330.95 2841.98
   18:02:17.436.16-Jul-2020 4229.01 4706.05 79.71 4.00 331.15 2841.98
   18:02:17.636.16-Jul-2020 4229.01 4706.09 79.71 4.00 331.35 2841.98
   18:02:17.836.16-Jul-2020 4229.01 4706.23 79.71 4.00 331.55 2841.98
   18:02:18.036.16-Jul-2020 4229.01 4705.93 79.71 4.00 331.75 2841.98
   18:02:18.236.16-Jul-2020 4229.01 4706.20 79.71 4.00 331.95 2841.98
   18:02:18.436.16-Jul-2020 4229.01 4706.05 79.71 4.00 332.15 2841.98
   18:02:18.636.16-Jul-2020 4229.01 4706.05 79.71 4.00 332.35 2841.98
   18:02:18.836.16-Jul-2020 4229.01 4705.87 79.71 4.00 332.55 2841.98
   18:02:19.037.16-Jul-2020 4229.01 4706.15 79.71 4.00 332.75 2841.98
   18:02:19.237.16-Jul-2020 4229.01 4705.98 79.71 4.00 332.95 2841.98
   18:02:19.437.16-Jul-2020 4229.01 4706.11 79.71 4.00 333.15 2841.98
   18:02:19.637.16-Jul-2020 4229.01 4706.11 79.71 4.00 333.35 2841.98
   18:02:19.837.16-Jul-2020 4229.01 4705.94 79.71 4.00 333.55 2841.98
   18:02:20.037.16-Jul-2020 4229.01 4706.13 79.71 4.00 333.75 2841.98
   18:02:20.237.16-Jul-2020 4229.01 4705.98 79.71 4.00 333.95 2841.98
   18:02:20.437.16-Jul-2020 4229.01 4706.12 79.71 4.00 334.15 2841.98
   18:02:20.637.16-Jul-2020 4229.01 4706.12 79.71 4.00 334.35 2841.98
   18:02:20.837.16-Jul-2020 4229.01 4705.94 79.71 4.00 334.55 2841.98
   18:02:21.037.16-Jul-2020 4229.01 4706.15 79.71 4.00 334.75 2841.98
   18:02:21.237.16-Jul-2020 4229.01 4706.03 79.71 4.00 334.95 2841.98
   18:02:21.438.16-Jul-2020 4229.01 4706.10 79.71 4.00 335.15 2841.98
   18:02:21.638.16-Jul-2020 4229.01 4706.05 79.71 4.00 335.35 2841.98
   18:02:21.838.16-Jul-2020 4229.01 4706.07 79.71 4.00 335.55 2841.98
   18:02:22.038.16-Jul-2020 4229.01 4706.08 79.71 4.00 335.75 2841.98
   18:02:22.238.16-Jul-2020 4229.01 4706.08 79.71 4.00 335.95 2841.98
   18:02:22.438.16-Jul-2020 4229.01 4706.09 79.71 4.00 336.15 2841.98
   18:02:22.638.16-Jul-2020 4229.01 4706.08 79.71 4.00 336.35 2841.98
   18:02:22.838.16-Jul-2020 4229.01 4706.07 79.71 4.00 336.55 2841.98
   18:02:23.038.16-Jul-2020 4229.01 4706.09 79.71 4.00 336.75 2841.98
   18:02:23.238.16-Jul-2020 4229.01 4706.28 79.71 4.00 336.95 2841.98
   18:02:23.438.16-Jul-2020 4229.01 4705.94 79.71 4.00 337.15 2841.98
   18:02:23.639.16-Jul-2020 4229.01 4705.94 79.71 4.00 337.35 2841.98
   18:02:23.839.16-Jul-2020 4229.01 4706.01 79.71 4.00 337.55 2841.98
   18:02:24.039.16-Jul-2020 4229.01 4706.09 79.71 4.00 337.75 2841.98
   18:02:24.239.16-Jul-2020 4229.01 4706.03 79.71 4.00 337.95 2841.98
   18:02:24.439.16-Jul-2020 4229.01 4706.09 79.71 4.00 338.15 2841.98
   18:02:24.639.16-Jul-2020 4229.01 4706.09 79.71 4.00 338.35 2841.98
   18:02:24.839.16-Jul-2020 4229.01 4706.10 79.71 4.00 338.55 2841.98
   18:02:25.039.16-Jul-2020 4229.01 4706.09 79.71 4.00 338.75 2841.98
   18:02:25.239.16-Jul-2020 4229.01 4706.06 79.71 4.00 338.95 2841.98
   18:02:25.439.16-Jul-2020 4229.01 4706.11 79.71 4.00 339.15 2841.98
   18:02:25.639.16-Jul-2020 4229.01 4706.06 79.71 4.00 339.35 2841.98
   18:02:25.840.16-Jul-2020 4229.01 4706.09 79.71 4.00 339.55 2841.98
   18:02:26.040.16-Jul-2020 4229.01 4706.09 79.71 4.00 339.75 2841.98
   18:02:26.240.16-Jul-2020 4229.01 4706.06 79.71 4.00 339.95 2841.98
   18:02:26.440.16-Jul-2020 4229.01 4706.33 79.71 4.00 340.15 2841.98
   18:02:26.640.16-Jul-2020 4229.01 4705.90 79.71 4.00 340.35 2841.98
   18:02:26.840.16-Jul-2020 4229.01 4706.14 79.71 4.00 340.55 2841.98
   18:02:27.040.16-Jul-2020 4229.01 4706.02 79.71 4.00 340.75 2841.98
   18:02:27.240.16-Jul-2020 4229.01 4706.11 79.71 4.00 340.95 2841.98
   18:02:27.440.16-Jul-2020 4229.01 4705.99 79.71 4.00 341.15 2841.98
   18:02:27.640.16-Jul-2020 4229.01 4705.99 79.71 4.00 341.35 2841.98
   18:02:27.840.16-Jul-2020 4229.01 4706.06 79.71 4.00 341.55 2841.98
   18:02:28.041.16-Jul-2020 4229.01 4706.11 79.71 4.00 341.75 2841.98
   18:02:28.241.16-Jul-2020 4229.01 4706.09 79.71 4.00 341.95 2841.98
   18:02:28.441.16-Jul-2020 4229.01 4706.01 79.71 4.00 342.15 2841.98
   18:02:28.641.16-Jul-2020 4229.01 4706.01 79.71 4.00 342.35 2841.98
   18:02:28.841.16-Jul-2020 4229.01 4706.08 79.71 4.00 342.55 2841.98
   18:02:29.041.16-Jul-2020 4229.01 4706.11 79.71 4.00 342.75 2841.98
   18:02:29.241.16-Jul-2020 4229.01 4706.25 79.71 4.00 342.95 2841.98
   18:02:29.441.16-Jul-2020 4229.01 4705.94 79.71 4.00 343.15 2841.98
   18:02:29.641.16-Jul-2020 4229.01 4706.16 79.71 4.00 343.35 2841.98
   18:02:29.841.16-Jul-2020 4229.01 4706.02 79.71 4.00 343.55 2841.98
   18:02:30.041.16-Jul-2020 4229.01 4706.12 79.71 4.00 343.75 2841.98
   18:02:30.241.16-Jul-2020 4229.01 4706.03 79.71 4.00 343.95 2841.98
   18:02:30.442.16-Jul-2020 4229.01 4706.10 79.71 4.00 344.15 2841.98
   18:02:30.642.16-Jul-2020 4229.01 4706.10 79.71 4.00 344.35 2841.98
   18:02:30.842.16-Jul-2020 4229.01 4706.05 79.71 4.00 344.55 2841.98
   18:02:31.042.16-Jul-2020 4229.01 4706.11 79.71 4.00 344.75 2841.98
   18:02:31.242.16-Jul-2020 4229.01 4706.06 79.71 4.00 344.95 2841.98
