~Version Information
 VERS.                  2.0:   CWLS log ASCII Standard -VERSION 2.0
 WRAP.                   NO:   One line per depth step
~Well Information Block
#MNEM.UNIT     VALUE/NAME     DESCRIPTION
#---------     -----------    ---------------------------
 STRT.S             21:08:23 16-Jul-20: START TIME 21:08:23 16-Jul-20
 STOP.S             21:15:15 16-Jul-20: STOP TIME  21:15:15 16-Jul-20
 STEP.S                   0.00: STEP TIME
 NULL.                 -999.25: NULL VALUE
 MDS .        Operator Entered:  MAG DATA SOURCE
 UNIT.                     N/A:  LOGGING EQUIPMENT ID
 DCON.         Sperry Drilling:  DIRECTNL CONTR
 DOE .                     N/A:  DOE NUMBER
 RIG .               EastAzeri:  RIG NAME
 JOBN.        AZ-XX-0906363297:  JOB TICKET NUMB
 MWDS.                    Baku:  MWD SHOP
 SRVC.     Turan Drilling & Engineering:  CONTRACTOR
 PROV.                    Baku:  PROVINCE
 STAT.                    Baku:  STATE NAME
 REGN.                   EESSA:  REGION
 BASE.              Azerbaijan:  LOGGING EQUIPMENT BASE LOCATION
 WTYP.                Deviated:  WELL TYPE
 UWI .                     N/A:  UNIQUE WELL IDENTIFIER
 API .                     N/A:  API NUMBER
 COMP.     BP Exploration (Caspian Sea) ltd.:  COMPANY
 WELL.                    D07z:  WELL NAME
 CTRY.              Azerbaijan:  COUNTRY NAME
 SON .        AZ-XX-0906363297:  JOB NUMBER
 FLD .                     ACG:  FIELD NAME
 PDAT.          Mean Sea Level:  PERMANENT DATUM
 FTOP.          Formation Tops:  FORM TOPS DESC
 ILTD.               Lithology:  INTERP LTH DESC
 SVYD.                  Survey:  SURVEY DESC
 DMOD.             Drill Model:  DRILL MOD DESC
 HPTY.       Minimum Curvature:  HOLE POS TYPE
 NREF.                    Grid:  NORTH REFERENCE
 SPUD.               28-Jun-20:  SPUD DATE
 DATE.      18.27.12 28-Jun-20:  END TIME
 STIM.      18.27.12 28-Jun-20:  START TIME
 DMF .             Drill Floor:  DRILL MEAS FROM
 DFST.                        :  DIST FSL TEXT
 DFWT.                        :  DIST FWL TEXT
 CNTY.                        :  COUNTY
 LOC .                        :  LOCATION
 LMF .             Drill Floor:  LOG MEASURED FROM
 VSNS.m                  -7.75:  VERT SEC N/S
 VSEW.m                  -9.19:  VERT SEC E/W
 MMDE.m                   0.00:  MAGUTM CALC DEP
 AGAP.m                  43.60:  AIR GAP
 DEP .m                4058.99:  DEPTH
 APD .m                  43.60:  DEPTH ABOVE PD
 WDMS.m                 151.80:  WD ELEV
 EGL .m                   0.00:  GROUND ELEVATION
 EPD .m                   0.00:  ELEVATION
 AZTC.deg                 6.19:  AZM TOTAL CORR
 GRDC.deg                 0.27:  GRID CORRECTION
 MDEC.deg                 6.46:  MAGNETIC DECL
 MDIP.deg                59.47:  MAGNETIC DIP
 MFLD.nT              50279.00:  MAGNETIC FIELD
 GVFD.g                   1.00:  GRAVITY FIELD
 VSDR.deg               249.96:  VERT SEC DIRECT
 TDD .m                   0.00:  TOTAL DEPTH (DRILLER)
 SDEP.m                   0.00:  START DEPTH
 DFSL.m                   0.00:  DISTANCE FSL
 DFWL.m                   0.00:  DISTANCE FWL
 UTMY.m             4431880.20:  UTM Y
 UTMX.m              538763.98:  UTM X
 WHEW.m                  -9.19:  WELL HEAD E/W
 WHNS.m                  -7.75:  WELL HEAD N/S
 LONG.deg                51.45:  LONGITUDE
 LATI.deg                40.02:  LATITUDE
 TVDS.m                  43.60:  TVDSS CORRECTN
 EKB .m                  43.60:  KB ELEVATION
 EDF .m                  43.60:  DF ELEVATION
 TDL .m                 248.00:  TOTAL DEPTH (LOGGER)
 MAGU.                 1849075:  MAGUTM CHECKSUM
 VSC .                       0:  VS TO CLOSURE
~Parameter Information Block
#MNEM.UNIT       Value        Description
#---------     -----------    ---------------------------
 AV  .mps                 6.34:  Ann Velocity 
 AVMX.mps                 7.00:  Max Ann Veloc 
 AZIF.deg               260.29:  Azm, Final 
 BHAT.        Rotary Steerable:  BHA Type 
 BROT.°/30m               1.20:  Build Rotating 
 BS  .in                  8.50:  Bit Size 
 BSZ .in                  8.50:  Bit Size 
 BTPL.psig              620.00:  Bit Press Loss 
 CABU.                     Yes:  Customer Abuse 
 COMM.                     Äá„:  Run Comments 1 
 TCS .hr                 56.22:  Time Ciculation Ended 
 CV  .mps                 3.05:  Crit Velocity 
 CVMX.mps                 3.20:  Max Crit Veloc 
 DD1 .            Musa Ahmadov:  Direct Drillr 1 
 DDSV.                 iCruise:  DD Service 
 DEFF.%                  98.00:  % Det Eff 
 DLRX.°/30m               2.78:  Dogleg Rot Max 
 DLSO.°/30m               0.00:  Dogleg Oriented 
 DLSX.°/30m               0.00:  Dogleg Str Max 
 DRET.      05.20.48 16-Jul-20:  Drill End Time 
 DRST.      10.20.48 13-Jul-20:  Drill Start Tim 
 DTIM.hr                 14.25:  Time Drilling 
 EDEP.m                4326.01:  End Depth 
 ENG1.      Artemiy Matviyanov:  Engineer 1 
 ENG2.           Amrah Tahirov:  Engineer 2 
 ETIM.      22.30.00 18-Jul-20:  End Time 
 FLOI.gpm               550.00:  Flow In 
 FLON.gpm               450.00:  Flow In Min 
 FLOS.cptm                0.00:  Fluid Loss 
 FLOX.gpm               600.00:  Flow In Max 
 HFLO.                      No:  High Flow 
 HPRE.                      No:  High Pressure 
 HTEM.                      No:  High Temp 
 HYDO.m                   1.80:  Hydro Offset 
 IFIN.deg                65.41:  Inc, Final 
 IMAX.deg                65.14:  Inc Max 
 IMIN.deg                58.89:  Inc Min 
 IMND.m                4104.92:  Inc Min Depth 
 IMXD.m                4303.89:  Inc Max Depth 
 JARR.                      No:  Jarring 
 LETM.      10.20.48 17-Jul-20:  Log End Time 
 LOST.hr                     0:  Lost Rig Time 
 LSTM.      10.20.48 13-Jul-20:  Log Start Time 
 MDCL.ppm             37000.00:  Mud Chlorides 
 MDES.     Inversion Oil/Synthetic:  Mud Desc 
 DFD .sg                  1.52:  Mud Density 
 MDMN.sg                  1.52:  Dens Mud Min 
 MDMX.sg                  1.52:  Dens Mud Max 
 MOIL.                   52.70:  Run Mud Oil % 
 MOWR.                   68:32:  Run Mud OWR 
 MSND.                     0.2:  Run Mud Sand % 
 MSOL.                    21.6:  Run Mud Solids% 
 DFV .spqt               79.00:  Mud Viscosity 
 MWOD.in                  6.75:  MWD Tool OD 
 MWSI.                      No:  Serv Intrp, MWD 
 OTIM.hr                114.04:  Time Operating 
 PCON.          Wear / Scratch:  Pad Condition 
 PMAX.psia            11782.92:  Press Op, Max 
 PV  .cP                 49.00:  Mud PV 
 RUN .                     600:  Run Number 
 ROPA.m/hr               20.00:  ROP Avg 
 ROPN.m/hr               15.00:  ROP Min 
 ROPX.m/hr               22.00:  ROP Max 
 RPMA.rpm               120.00:  RPM Surface Avg 
 RPMN.rpm                90.00:  RPM Surface Min 
 RPMX.rpm               140.00:  RPM Surface Max 
 RRUN.                     600:  Rig Run Number 
 SAZI.deg               260.29:  Azm, Start 
 SDEP.m                4078.01:  Start Depth 
 SIDD.                      No:  Serv Intrp, DD 
 SINC.deg                58.89:  Inc, Start 
 SPPA.psig             4560.00:  SPP Avg 
 SPPN.psig             3600.00:  SPP Min 
 SPPX.psig             4800.00:  SPP Max 
 STIM.      10.20.48 13-Jul-20:  Start Time 
 SVCS.                 DD, MWD:  Services 
 SVER.                    9.20:  Sperry Version 
 TDAT.m                4378.01:  Tot Depth Attmp 
 TDDF.                      No:  Trip for DD 
 TDLG.m                 248.00:  Tot Depth Loggd 
 TFF .                      No:  Trip for Fail 
 TQAA.f-kp               18.00:  Torque Abs Avg 
 TQAN.f-kp               15.00:  Torque Abs Min 
 TQAX.f-kp               20.00:  Torque Abs Max 
 TRRT.°/30m               0.70:  Turn Rotating 
 MRT .                    HCIM:  Maximum Recorded Temperature 
 TTMX.degC               86.00:  Max Tool Temp 
 WBMN.klb                 3.00:  WOB Min 
 WOBA.klb                 5.00:  WOB Avg 
 WOBX.klb                 9.00:  WOB Max 
 YP  .lhf2               32.00:  Yield Point 
~Curve Information Block
#MNEM.UNIT                 API CODE     Curve Description
#---------               -----------    ---------------------------
 TIME.HHMMSS            00 000 000 000:  GT Time & Date
 GTDEPTH.m              00 000 000 000:  GT Depth
 GTPQH.psia             00 000 000 000:  GT HR Quartz Pressure
 GTTQ.degC              00 000 000 000:  GT Quartz Temperature
 GTTN.NONE              00 000 000 000:  GT Test Number
 GTET.sec               00 000 000 000:  GT Elapsed Test Time
 GTTVD.m                00 000 000 000:  GT True Vertical Depth
#Other Information
#
#WARRANTY: Halliburton will use its best efforts to furnish customers with 
#accurate information and interpretations that are part of, and incident to, the services 
#provided.  However, Halliburton cannot and does not warrant the accuracy 
#or correctness of such information and interpretations.  Under no circumstances should any 
#such information or interpretation be relied upon as the sole basis for any drilling, 
#completion, production, or financial decision or any procedure involving any risk to the 
#safety of any drilling venture, drilling rig or its crew or any other third party.  The 
#Customer has full responsibility for all drilling, completion and production operation.  
#Halliburton makes no representations or warranties, either expressed or 
#implied, including, but not limited to, the implied warranties of merchantability or fitness 
#for a particular purpose, with respect to the services rendered.  In no event will 
#Halliburton be liable for failure to obtain any particular results or for 
#any damages, including, but not limited to, indirect, special or consequential damages, 
#resulting from the use of any information or interpretation provided by Halliburton.
#
~A           TIME           GTDEPTH  GTPQH  GTTQ  GTTN  GTET   GTTVD  
# ...
   21:10:18.082.16-Jul-2020 4135.51 4700.27 77.12 7.00 115.07 2799.87
   21:10:18.282.16-Jul-2020 4135.51 4700.24 77.12 7.00 115.27 2799.87
   21:10:18.483.16-Jul-2020 4135.51 4700.25 77.12 7.00 115.47 2799.87
   21:10:18.683.16-Jul-2020 4135.51 4700.20 77.12 7.00 115.67 2799.87
   21:10:18.883.16-Jul-2020 4135.51 4700.25 77.12 7.00 115.87 2799.87
   21:10:19.083.16-Jul-2020 4135.51 4700.23 77.12 7.00 116.07 2799.87
   21:10:19.283.16-Jul-2020 4135.51 4700.23 77.12 7.00 116.27 2799.87
   21:10:19.483.16-Jul-2020 4135.51 4700.25 77.12 7.00 116.47 2799.87
   21:10:19.683.16-Jul-2020 4135.51 4700.23 77.12 7.00 116.67 2799.87
   21:10:19.883.16-Jul-2020 4135.51 4700.26 77.12 7.00 116.87 2799.87
   21:10:20.083.16-Jul-2020 4135.51 4700.24 77.12 7.00 117.07 2799.87
   21:10:20.284.16-Jul-2020 4135.51 4700.24 77.12 7.00 117.27 2799.87
   21:10:20.484.16-Jul-2020 4135.51 4700.27 77.12 7.00 117.47 2799.87
   21:10:20.684.16-Jul-2020 4135.51 4700.25 77.12 7.00 117.67 2799.87
   21:10:20.884.16-Jul-2020 4135.51 4700.24 77.12 7.00 117.87 2799.87
   21:10:21.084.16-Jul-2020 4135.51 4700.24 77.12 7.00 118.07 2799.87
   21:10:21.284.16-Jul-2020 4135.51 4700.23 77.12 7.00 118.27 2799.87
   21:10:21.484.16-Jul-2020 4135.51 4700.24 77.12 7.00 118.47 2799.87
   21:10:21.684.16-Jul-2020 4135.51 4700.24 77.12 7.00 118.67 2799.87
   21:10:21.884.16-Jul-2020 4135.51 4700.25 77.12 7.00 118.87 2799.87
   21:10:22.085.16-Jul-2020 4135.51 4700.24 77.12 7.00 119.07 2799.87
   21:10:22.285.16-Jul-2020 4135.51 4700.24 77.12 7.00 119.27 2799.87
   21:10:22.485.16-Jul-2020 4135.51 4700.26 77.12 7.00 119.47 2799.87
   21:10:22.685.16-Jul-2020 4135.51 4700.24 77.12 7.00 119.67 2799.87
   21:10:22.885.16-Jul-2020 4135.51 4700.27 77.12 7.00 119.87 2799.87
   21:10:23.085.16-Jul-2020 4135.51 4700.26 77.12 7.00 120.07 2799.87
   21:10:23.285.16-Jul-2020 4135.51 4700.25 77.12 7.00 120.27 2799.87
   21:10:23.485.16-Jul-2020 4135.51 4700.28 77.12 7.00 120.47 2799.87
   21:10:23.685.16-Jul-2020 4135.51 4700.26 77.12 7.00 120.67 2799.87
   21:10:23.886.16-Jul-2020 4135.51 4700.26 77.12 7.00 120.87 2799.87
   21:10:24.086.16-Jul-2020 4135.51 4700.25 77.12 7.00 121.07 2799.87
   21:10:24.286.16-Jul-2020 4135.51 4700.25 77.12 7.00 121.27 2799.87
   21:10:24.486.16-Jul-2020 4135.51 4700.26 77.12 7.00 121.47 2799.87
   21:10:24.686.16-Jul-2020 4135.51 4700.25 77.12 7.00 121.67 2799.87
   21:10:24.886.16-Jul-2020 4135.51 4700.24 77.12 7.00 121.87 2799.87
   21:10:25.086.16-Jul-2020 4135.51 4700.22 77.12 7.00 122.07 2799.87
   21:10:25.286.16-Jul-2020 4135.51 4700.21 77.12 7.00 122.27 2799.87
   21:10:25.487.16-Jul-2020 4135.51 4700.25 77.12 7.00 122.47 2799.87
   21:10:25.687.16-Jul-2020 4135.51 4700.20 77.12 7.00 122.67 2799.87
   21:10:25.887.16-Jul-2020 4135.51 4700.27 77.12 7.00 122.87 2799.87
   21:10:26.087.16-Jul-2020 4135.51 4700.22 77.12 7.00 123.07 2799.87
   21:10:26.287.16-Jul-2020 4135.51 4700.22 77.12 7.00 123.27 2799.87
   21:10:26.487.16-Jul-2020 4135.51 4700.23 77.12 7.00 123.47 2799.87
   21:10:26.687.16-Jul-2020 4135.51 4700.24 77.12 7.00 123.67 2799.87
   21:10:26.887.16-Jul-2020 4135.51 4700.23 77.12 7.00 123.87 2799.87
   21:10:27.087.16-Jul-2020 4135.51 4700.23 77.12 7.00 124.07 2799.87
   21:10:27.288.16-Jul-2020 4135.51 4700.23 77.12 7.00 124.27 2799.87
   21:10:27.488.16-Jul-2020 4135.51 4700.22 77.12 7.00 124.47 2799.87
   21:10:27.688.16-Jul-2020 4135.51 4700.24 77.12 7.00 124.67 2799.87
   21:10:27.888.16-Jul-2020 4135.51 4700.23 77.12 7.00 124.87 2799.87
   21:10:28.088.16-Jul-2020 4135.51 4700.24 77.12 7.00 125.07 2799.87
   21:10:28.288.16-Jul-2020 4135.51 4700.24 77.12 7.00 125.27 2799.87
   21:10:28.488.16-Jul-2020 4135.51 4700.25 77.12 7.00 125.47 2799.87
   21:10:28.688.16-Jul-2020 4135.51 4700.21 77.12 7.00 125.67 2799.87
   21:10:28.888.16-Jul-2020 4135.51 4700.25 77.12 7.00 125.87 2799.87
   21:10:29.089.16-Jul-2020 4135.51 4700.24 77.12 7.00 126.07 2799.87
   21:10:29.289.16-Jul-2020 4135.51 4700.24 77.12 7.00 126.27 2799.87
   21:10:29.489.16-Jul-2020 4135.51 4700.28 77.12 7.00 126.47 2799.87
   21:10:29.689.16-Jul-2020 4135.51 4700.24 77.12 7.00 126.67 2799.87
   21:10:29.889.16-Jul-2020 4135.51 4700.26 77.12 7.00 126.87 2799.87
   21:10:30.089.16-Jul-2020 4135.51 4700.22 77.12 7.00 127.07 2799.87
   21:10:30.289.16-Jul-2020 4135.51 4700.24 77.12 7.00 127.27 2799.87
   21:10:30.489.16-Jul-2020 4135.51 4700.24 77.12 7.00 127.47 2799.87
   21:10:30.689.16-Jul-2020 4135.51 4700.23 77.12 7.00 127.67 2799.87
   21:10:30.890.16-Jul-2020 4135.51 4700.25 77.12 7.00 127.87 2799.87
   21:10:31.090.16-Jul-2020 4135.51 4700.23 77.12 7.00 128.07 2799.87
   21:10:31.290.16-Jul-2020 4135.51 4700.23 77.12 7.00 128.27 2799.87
   21:10:31.490.16-Jul-2020 4135.51 4700.25 77.12 7.00 128.47 2799.87
   21:10:31.690.16-Jul-2020 4135.51 4700.25 77.12 7.00 128.67 2799.87
   21:10:31.890.16-Jul-2020 4135.51 4700.25 77.12 7.00 128.87 2799.87
   21:10:32.090.16-Jul-2020 4135.51 4700.24 77.12 7.00 129.07 2799.87
   21:10:32.290.16-Jul-2020 4135.51 4700.24 77.12 7.00 129.27 2799.87
   21:10:32.490.16-Jul-2020 4135.51 4700.21 77.12 7.00 129.47 2799.87
   21:10:32.691.16-Jul-2020 4135.51 4700.27 77.12 7.00 129.67 2799.87
   21:10:32.891.16-Jul-2020 4135.51 4700.25 77.12 7.00 129.87 2799.87
   21:10:33.091.16-Jul-2020 4135.51 4700.26 77.12 7.00 130.07 2799.87
   21:10:33.291.16-Jul-2020 4135.51 4700.28 77.12 7.00 130.27 2799.87
   21:10:33.491.16-Jul-2020 4135.51 4700.20 77.12 7.00 130.47 2799.87
   21:10:33.691.16-Jul-2020 4135.51 4700.18 77.12 7.00 130.67 2799.87
   21:10:33.891.16-Jul-2020 4135.51 4700.25 77.12 7.00 130.87 2799.87
   21:10:34.091.16-Jul-2020 4135.51 4700.22 77.12 7.00 131.07 2799.87
   21:10:34.292.16-Jul-2020 4135.51 4700.22 77.12 7.00 131.27 2799.87
   21:10:34.492.16-Jul-2020 4135.51 4700.18 77.12 7.00 131.47 2799.87
   21:10:34.692.16-Jul-2020 4135.51 4700.25 77.12 7.00 131.67 2799.87
   21:10:34.892.16-Jul-2020 4135.51 4700.26 77.12 7.00 131.87 2799.87
   21:10:35.092.16-Jul-2020 4135.51 4700.22 77.12 7.00 132.07 2799.87
   21:10:35.292.16-Jul-2020 4135.51 4700.22 77.12 7.00 132.27 2799.87
   21:10:35.492.16-Jul-2020 4135.51 4700.35 77.12 7.00 132.48 2799.87
   21:10:35.692.16-Jul-2020 4135.51 4700.14 77.12 7.00 132.68 2799.87
   21:10:35.892.16-Jul-2020 4135.51 4700.21 77.12 7.00 132.88 2799.87
   21:10:36.093.16-Jul-2020 4135.51 4700.23 77.12 7.00 133.08 2799.87
   21:10:36.293.16-Jul-2020 4135.51 4700.23 77.12 7.00 133.28 2799.87
   21:10:36.493.16-Jul-2020 4135.51 4700.24 77.12 7.00 133.48 2799.87
   21:10:36.693.16-Jul-2020 4135.51 4700.21 77.12 7.00 133.68 2799.87
   21:10:36.893.16-Jul-2020 4135.51 4700.24 77.12 7.00 133.88 2799.87
   21:10:37.093.16-Jul-2020 4135.51 4700.23 77.12 7.00 134.08 2799.87
   21:10:37.293.16-Jul-2020 4135.51 4700.21 77.12 7.00 134.28 2799.87
   21:10:37.493.16-Jul-2020 4135.51 4700.24 77.12 7.00 134.48 2799.87
   21:10:37.693.16-Jul-2020 4135.51 4700.23 77.12 7.00 134.68 2799.87
   21:10:37.894.16-Jul-2020 4135.51 4700.24 77.12 7.00 134.88 2799.87
   21:10:38.094.16-Jul-2020 4135.51 4700.26 77.12 7.00 135.08 2799.87
   21:10:38.294.16-Jul-2020 4135.51 4700.26 77.12 7.00 135.28 2799.87
   21:10:38.494.16-Jul-2020 4135.51 4700.23 77.12 7.00 135.48 2799.87
   21:10:38.694.16-Jul-2020 4135.51 4700.21 77.12 7.00 135.68 2799.87
   21:10:38.894.16-Jul-2020 4135.51 4700.21 77.12 7.00 135.88 2799.87
   21:10:39.094.16-Jul-2020 4135.51 4700.24 77.12 7.00 136.08 2799.87
   21:10:39.294.16-Jul-2020 4135.51 4700.24 77.12 7.00 136.28 2799.87
   21:10:39.494.16-Jul-2020 4135.51 4700.23 77.12 7.00 136.48 2799.87
   21:10:39.695.16-Jul-2020 4135.51 4700.22 77.12 7.00 136.68 2799.87
   21:10:39.895.16-Jul-2020 4135.51 4700.25 77.12 7.00 136.88 2799.87
   21:10:40.095.16-Jul-2020 4135.51 4700.23 77.12 7.00 137.08 2799.87
   21:10:40.295.16-Jul-2020 4135.51 4700.23 77.12 7.00 137.28 2799.87
   21:10:40.495.16-Jul-2020 4135.51 4700.27 77.12 7.00 137.48 2799.87
   21:10:40.695.16-Jul-2020 4135.51 4700.23 77.12 7.00 137.68 2799.87
   21:10:40.895.16-Jul-2020 4135.51 4700.23 77.12 7.00 137.88 2799.87
