~Version Information
 VERS.                  2.0:   CWLS log ASCII Standard -VERSION 2.0
 WRAP.                   NO:   One line per depth step
~Well Information Block
#MNEM.UNIT     VALUE/NAME     DESCRIPTION
#---------     -----------    ---------------------------
 STRT.S             21:08:23 16-Jul-20: START TIME 21:08:23 16-Jul-20
 STOP.S             21:15:15 16-Jul-20: STOP TIME  21:15:15 16-Jul-20
 STEP.S                   0.00: STEP TIME
 NULL.                 -999.25: NULL VALUE
 MDS .        Operator Entered:  MAG DATA SOURCE
 UNIT.                     N/A:  LOGGING EQUIPMENT ID
 DCON.         Sperry Drilling:  DIRECTNL CONTR
 DOE .                     N/A:  DOE NUMBER
 RIG .               EastAzeri:  RIG NAME
 JOBN.        AZ-XX-0906363297:  JOB TICKET NUMB
 MWDS.                    Baku:  MWD SHOP
 SRVC.     Turan Drilling & Engineering:  CONTRACTOR
 PROV.                    Baku:  PROVINCE
 STAT.                    Baku:  STATE NAME
 REGN.                   EESSA:  REGION
 BASE.              Azerbaijan:  LOGGING EQUIPMENT BASE LOCATION
 WTYP.                Deviated:  WELL TYPE
 UWI .                     N/A:  UNIQUE WELL IDENTIFIER
 API .                     N/A:  API NUMBER
 COMP.     BP Exploration (Caspian Sea) ltd.:  COMPANY
 WELL.                    D07z:  WELL NAME
 CTRY.              Azerbaijan:  COUNTRY NAME
 SON .        AZ-XX-0906363297:  JOB NUMBER
 FLD .                     ACG:  FIELD NAME
 PDAT.          Mean Sea Level:  PERMANENT DATUM
 FTOP.          Formation Tops:  FORM TOPS DESC
 ILTD.               Lithology:  INTERP LTH DESC
 SVYD.                  Survey:  SURVEY DESC
 DMOD.             Drill Model:  DRILL MOD DESC
 HPTY.       Minimum Curvature:  HOLE POS TYPE
 NREF.                    Grid:  NORTH REFERENCE
 SPUD.               28-Jun-20:  SPUD DATE
 DATE.      18.27.12 28-Jun-20:  END TIME
 STIM.      18.27.12 28-Jun-20:  START TIME
 DMF .             Drill Floor:  DRILL MEAS FROM
 DFST.                        :  DIST FSL TEXT
 DFWT.                        :  DIST FWL TEXT
 CNTY.                        :  COUNTY
 LOC .                        :  LOCATION
 LMF .             Drill Floor:  LOG MEASURED FROM
 VSNS.m                  -7.75:  VERT SEC N/S
 VSEW.m                  -9.19:  VERT SEC E/W
 MMDE.m                   0.00:  MAGUTM CALC DEP
 AGAP.m                  43.60:  AIR GAP
 DEP .m                4058.99:  DEPTH
 APD .m                  43.60:  DEPTH ABOVE PD
 WDMS.m                 151.80:  WD ELEV
 EGL .m                   0.00:  GROUND ELEVATION
 EPD .m                   0.00:  ELEVATION
 AZTC.deg                 6.19:  AZM TOTAL CORR
 GRDC.deg                 0.27:  GRID CORRECTION
 MDEC.deg                 6.46:  MAGNETIC DECL
 MDIP.deg                59.47:  MAGNETIC DIP
 MFLD.nT              50279.00:  MAGNETIC FIELD
 GVFD.g                   1.00:  GRAVITY FIELD
 VSDR.deg               249.96:  VERT SEC DIRECT
 TDD .m                   0.00:  TOTAL DEPTH (DRILLER)
 SDEP.m                   0.00:  START DEPTH
 DFSL.m                   0.00:  DISTANCE FSL
 DFWL.m                   0.00:  DISTANCE FWL
 UTMY.m             4431880.20:  UTM Y
 UTMX.m              538763.98:  UTM X
 WHEW.m                  -9.19:  WELL HEAD E/W
 WHNS.m                  -7.75:  WELL HEAD N/S
 LONG.deg                51.45:  LONGITUDE
 LATI.deg                40.02:  LATITUDE
 TVDS.m                  43.60:  TVDSS CORRECTN
 EKB .m                  43.60:  KB ELEVATION
 EDF .m                  43.60:  DF ELEVATION
 TDL .m                 248.00:  TOTAL DEPTH (LOGGER)
 MAGU.                 1849075:  MAGUTM CHECKSUM
 VSC .                       0:  VS TO CLOSURE
~Parameter Information Block
#MNEM.UNIT       Value        Description
#---------     -----------    ---------------------------
 AV  .mps                 6.34:  Ann Velocity 
 AVMX.mps                 7.00:  Max Ann Veloc 
 AZIF.deg               260.29:  Azm, Final 
 BHAT.        Rotary Steerable:  BHA Type 
 BROT.°/30m               1.20:  Build Rotating 
 BS  .in                  8.50:  Bit Size 
 BSZ .in                  8.50:  Bit Size 
 BTPL.psig              620.00:  Bit Press Loss 
 CABU.                     Yes:  Customer Abuse 
 COMM.                     Äá„:  Run Comments 1 
 TCS .hr                 56.22:  Time Ciculation Ended 
 CV  .mps                 3.05:  Crit Velocity 
 CVMX.mps                 3.20:  Max Crit Veloc 
 DD1 .            Musa Ahmadov:  Direct Drillr 1 
 DDSV.                 iCruise:  DD Service 
 DEFF.%                  98.00:  % Det Eff 
 DLRX.°/30m               2.78:  Dogleg Rot Max 
 DLSO.°/30m               0.00:  Dogleg Oriented 
 DLSX.°/30m               0.00:  Dogleg Str Max 
 DRET.      05.20.48 16-Jul-20:  Drill End Time 
 DRST.      10.20.48 13-Jul-20:  Drill Start Tim 
 DTIM.hr                 14.25:  Time Drilling 
 EDEP.m                4326.01:  End Depth 
 ENG1.      Artemiy Matviyanov:  Engineer 1 
 ENG2.           Amrah Tahirov:  Engineer 2 
 ETIM.      22.30.00 18-Jul-20:  End Time 
 FLOI.gpm               550.00:  Flow In 
 FLON.gpm               450.00:  Flow In Min 
 FLOS.cptm                0.00:  Fluid Loss 
 FLOX.gpm               600.00:  Flow In Max 
 HFLO.                      No:  High Flow 
 HPRE.                      No:  High Pressure 
 HTEM.                      No:  High Temp 
 HYDO.m                   1.80:  Hydro Offset 
 IFIN.deg                65.41:  Inc, Final 
 IMAX.deg                65.14:  Inc Max 
 IMIN.deg                58.89:  Inc Min 
 IMND.m                4104.92:  Inc Min Depth 
 IMXD.m                4303.89:  Inc Max Depth 
 JARR.                      No:  Jarring 
 LETM.      10.20.48 17-Jul-20:  Log End Time 
 LOST.hr                     0:  Lost Rig Time 
 LSTM.      10.20.48 13-Jul-20:  Log Start Time 
 MDCL.ppm             37000.00:  Mud Chlorides 
 MDES.     Inversion Oil/Synthetic:  Mud Desc 
 DFD .sg                  1.52:  Mud Density 
 MDMN.sg                  1.52:  Dens Mud Min 
 MDMX.sg                  1.52:  Dens Mud Max 
 MOIL.                   52.70:  Run Mud Oil % 
 MOWR.                   68:32:  Run Mud OWR 
 MSND.                     0.2:  Run Mud Sand % 
 MSOL.                    21.6:  Run Mud Solids% 
 DFV .spqt               79.00:  Mud Viscosity 
 MWOD.in                  6.75:  MWD Tool OD 
 MWSI.                      No:  Serv Intrp, MWD 
 OTIM.hr                114.04:  Time Operating 
 PCON.          Wear / Scratch:  Pad Condition 
 PMAX.psia            11782.92:  Press Op, Max 
 PV  .cP                 49.00:  Mud PV 
 RUN .                     600:  Run Number 
 ROPA.m/hr               20.00:  ROP Avg 
 ROPN.m/hr               15.00:  ROP Min 
 ROPX.m/hr               22.00:  ROP Max 
 RPMA.rpm               120.00:  RPM Surface Avg 
 RPMN.rpm                90.00:  RPM Surface Min 
 RPMX.rpm               140.00:  RPM Surface Max 
 RRUN.                     600:  Rig Run Number 
 SAZI.deg               260.29:  Azm, Start 
 SDEP.m                4078.01:  Start Depth 
 SIDD.                      No:  Serv Intrp, DD 
 SINC.deg                58.89:  Inc, Start 
 SPPA.psig             4560.00:  SPP Avg 
 SPPN.psig             3600.00:  SPP Min 
 SPPX.psig             4800.00:  SPP Max 
 STIM.      10.20.48 13-Jul-20:  Start Time 
 SVCS.                 DD, MWD:  Services 
 SVER.                    9.20:  Sperry Version 
 TDAT.m                4378.01:  Tot Depth Attmp 
 TDDF.                      No:  Trip for DD 
 TDLG.m                 248.00:  Tot Depth Loggd 
 TFF .                      No:  Trip for Fail 
 TQAA.f-kp               18.00:  Torque Abs Avg 
 TQAN.f-kp               15.00:  Torque Abs Min 
 TQAX.f-kp               20.00:  Torque Abs Max 
 TRRT.°/30m               0.70:  Turn Rotating 
 MRT .                    HCIM:  Maximum Recorded Temperature 
 TTMX.degC               86.00:  Max Tool Temp 
 WBMN.klb                 3.00:  WOB Min 
 WOBA.klb                 5.00:  WOB Avg 
 WOBX.klb                 9.00:  WOB Max 
 YP  .lhf2               32.00:  Yield Point 
~Curve Information Block
#MNEM.UNIT                 API CODE     Curve Description
#---------               -----------    ---------------------------
 TIME.HHMMSS            00 000 000 000:  GT Time & Date
 GTDEPTH.m              00 000 000 000:  GT Depth
 GTPQH.psia             00 000 000 000:  GT HR Quartz Pressure
 GTTQ.degC              00 000 000 000:  GT Quartz Temperature
 GTTN.NONE              00 000 000 000:  GT Test Number
 GTET.sec               00 000 000 000:  GT Elapsed Test Time
 GTTVD.m                00 000 000 000:  GT True Vertical Depth
#Other Information
#
#WARRANTY: Halliburton will use its best efforts to furnish customers with 
#accurate information and interpretations that are part of, and incident to, the services 
#provided.  However, Halliburton cannot and does not warrant the accuracy 
#or correctness of such information and interpretations.  Under no circumstances should any 
#such information or interpretation be relied upon as the sole basis for any drilling, 
#completion, production, or financial decision or any procedure involving any risk to the 
#safety of any drilling venture, drilling rig or its crew or any other third party.  The 
#Customer has full responsibility for all drilling, completion and production operation.  
#Halliburton makes no representations or warranties, either expressed or 
#implied, including, but not limited to, the implied warranties of merchantability or fitness 
#for a particular purpose, with respect to the services rendered.  In no event will 
#Halliburton be liable for failure to obtain any particular results or for 
#any damages, including, but not limited to, indirect, special or consequential damages, 
#resulting from the use of any information or interpretation provided by Halliburton.
#
~A           TIME           GTDEPTH  GTPQH  GTTQ  GTTN  GTET   GTTVD  
# ...
   21:11:27.121.16-Jul-2020 4135.51 4700.12 77.11 7.00 184.10 2799.87
   21:11:27.322.16-Jul-2020 4135.51 4700.12 77.11 7.00 184.30 2799.87
   21:11:27.522.16-Jul-2020 4135.51 4700.13 77.11 7.00 184.50 2799.87
   21:11:27.722.16-Jul-2020 4135.51 4700.13 77.11 7.00 184.70 2799.87
   21:11:27.922.16-Jul-2020 4135.51 4700.13 77.11 7.00 184.90 2799.87
   21:11:28.122.16-Jul-2020 4135.51 4700.13 77.11 7.00 185.10 2799.87
   21:11:28.322.16-Jul-2020 4135.51 4700.13 77.11 7.00 185.31 2799.87
   21:11:28.522.16-Jul-2020 4135.51 4700.13 77.11 7.00 185.51 2799.87
   21:11:28.722.16-Jul-2020 4135.51 4700.12 77.11 7.00 185.71 2799.87
   21:11:28.922.16-Jul-2020 4135.51 4700.12 77.11 7.00 185.91 2799.87
   21:11:29.123.16-Jul-2020 4135.51 4700.13 77.11 7.00 186.11 2799.87
   21:11:29.323.16-Jul-2020 4135.51 4700.13 77.11 7.00 186.31 2799.87
   21:11:29.523.16-Jul-2020 4135.51 4700.14 77.11 7.00 186.51 2799.87
   21:11:29.723.16-Jul-2020 4135.51 4700.11 77.11 7.00 186.71 2799.87
   21:11:29.923.16-Jul-2020 4135.51 4700.12 77.11 7.00 186.91 2799.87
   21:11:30.123.16-Jul-2020 4135.51 4700.14 77.11 7.00 187.11 2799.87
   21:11:30.323.16-Jul-2020 4135.51 4700.14 77.11 7.00 187.31 2799.87
   21:11:30.523.16-Jul-2020 4135.51 4700.09 77.11 7.00 187.51 2799.87
   21:11:30.723.16-Jul-2020 4135.51 4700.11 77.11 7.00 187.71 2799.87
   21:11:30.924.16-Jul-2020 4135.51 4700.13 77.11 7.00 187.91 2799.87
   21:11:31.124.16-Jul-2020 4135.51 4700.10 77.11 7.00 188.11 2799.87
   21:11:31.324.16-Jul-2020 4135.51 4700.10 77.11 7.00 188.31 2799.87
   21:11:31.524.16-Jul-2020 4135.51 4700.14 77.11 7.00 188.51 2799.87
   21:11:31.724.16-Jul-2020 4135.51 4700.11 77.11 7.00 188.71 2799.87
   21:11:31.924.16-Jul-2020 4135.51 4700.14 77.11 7.00 188.91 2799.87
   21:11:32.124.16-Jul-2020 4135.51 4700.12 77.11 7.00 189.11 2799.87
   21:11:32.324.16-Jul-2020 4135.51 4700.12 77.11 7.00 189.31 2799.87
   21:11:32.525.16-Jul-2020 4135.51 4700.13 77.11 7.00 189.51 2799.87
   21:11:32.725.16-Jul-2020 4135.51 4700.12 77.11 7.00 189.71 2799.87
   21:11:32.925.16-Jul-2020 4135.51 4700.13 77.11 7.00 189.91 2799.87
   21:11:33.125.16-Jul-2020 4135.51 4700.13 77.11 7.00 190.11 2799.87
   21:11:33.325.16-Jul-2020 4135.51 4700.11 77.11 7.00 190.31 2799.87
   21:11:33.525.16-Jul-2020 4135.51 4700.21 77.11 7.00 190.51 2799.87
   21:11:33.725.16-Jul-2020 4135.51 4700.08 77.11 7.00 190.71 2799.87
   21:11:33.925.16-Jul-2020 4135.51 4700.11 77.11 7.00 190.91 2799.87
   21:11:34.125.16-Jul-2020 4135.51 4700.07 77.11 7.00 191.11 2799.87
   21:11:34.326.16-Jul-2020 4135.51 4700.07 77.11 7.00 191.31 2799.87
   21:11:34.526.16-Jul-2020 4135.51 4700.15 77.11 7.00 191.51 2799.87
   21:11:34.726.16-Jul-2020 4135.51 4700.15 77.11 7.00 191.71 2799.87
   21:11:34.926.16-Jul-2020 4135.51 4700.09 77.11 7.00 191.91 2799.87
   21:11:35.126.16-Jul-2020 4135.51 4700.14 77.11 7.00 192.11 2799.87
   21:11:35.326.16-Jul-2020 4135.51 4700.14 77.11 7.00 192.31 2799.87
   21:11:35.526.16-Jul-2020 4135.51 4700.25 77.11 7.00 192.51 2799.87
   21:11:35.726.16-Jul-2020 4135.51 4700.06 77.11 7.00 192.71 2799.87
   21:11:35.926.16-Jul-2020 4135.51 4700.10 77.11 7.00 192.91 2799.87
   21:11:36.127.16-Jul-2020 4135.51 4700.14 77.11 7.00 193.11 2799.87
   21:11:36.327.16-Jul-2020 4135.51 4700.14 77.11 7.00 193.31 2799.87
   21:11:36.527.16-Jul-2020 4135.51 4700.16 77.11 7.00 193.51 2799.87
   21:11:36.727.16-Jul-2020 4135.51 4700.15 77.11 7.00 193.71 2799.87
   21:11:36.927.16-Jul-2020 4135.51 4700.13 77.11 7.00 193.91 2799.87
   21:11:37.127.16-Jul-2020 4135.51 4700.10 77.11 7.00 194.11 2799.87
   21:11:37.327.16-Jul-2020 4135.51 4700.14 77.11 7.00 194.31 2799.87
   21:11:37.527.16-Jul-2020 4135.51 4700.10 77.11 7.00 194.51 2799.87
   21:11:37.727.16-Jul-2020 4135.51 4700.14 77.11 7.00 194.71 2799.87
   21:11:37.928.16-Jul-2020 4135.51 4700.11 77.11 7.00 194.91 2799.87
   21:11:38.128.16-Jul-2020 4135.51 4700.12 77.11 7.00 195.11 2799.87
   21:11:38.328.16-Jul-2020 4135.51 4700.12 77.11 7.00 195.31 2799.87
   21:11:38.528.16-Jul-2020 4135.51 4700.13 77.11 7.00 195.51 2799.87
   21:11:38.728.16-Jul-2020 4135.51 4700.12 77.11 7.00 195.71 2799.87
   21:11:38.928.16-Jul-2020 4135.51 4700.11 77.11 7.00 195.91 2799.87
   21:11:39.128.16-Jul-2020 4135.51 4700.15 77.11 7.00 196.11 2799.87
   21:11:39.328.16-Jul-2020 4135.51 4700.15 77.11 7.00 196.31 2799.87
   21:11:39.528.16-Jul-2020 4135.51 4700.13 77.11 7.00 196.51 2799.87
   21:11:39.729.16-Jul-2020 4135.51 4700.12 77.11 7.00 196.71 2799.87
   21:11:39.929.16-Jul-2020 4135.51 4700.11 77.11 7.00 196.91 2799.87
   21:11:40.129.16-Jul-2020 4135.51 4700.13 77.11 7.00 197.11 2799.87
   21:11:40.329.16-Jul-2020 4135.51 4700.13 77.11 7.00 197.31 2799.87
   21:11:40.529.16-Jul-2020 4135.51 4700.13 77.11 7.00 197.51 2799.87
   21:11:40.729.16-Jul-2020 4135.51 4700.12 77.11 7.00 197.71 2799.87
   21:11:40.929.16-Jul-2020 4135.51 4700.13 77.11 7.00 197.91 2799.87
   21:11:41.129.16-Jul-2020 4135.51 4700.12 77.11 7.00 198.11 2799.87
   21:11:41.330.16-Jul-2020 4135.51 4700.11 77.11 7.00 198.31 2799.87
   21:11:41.530.16-Jul-2020 4135.51 4700.14 77.11 7.00 198.51 2799.87
   21:11:41.730.16-Jul-2020 4135.51 4700.12 77.11 7.00 198.71 2799.87
   21:11:41.930.16-Jul-2020 4135.51 4700.13 77.11 7.00 198.91 2799.87
   21:11:42.130.16-Jul-2020 4135.51 4700.11 77.11 7.00 199.11 2799.87
   21:11:42.330.16-Jul-2020 4135.51 4700.11 77.11 7.00 199.31 2799.87
   21:11:42.530.16-Jul-2020 4135.51 4700.13 77.11 7.00 199.51 2799.87
   21:11:42.730.16-Jul-2020 4135.51 4700.13 77.11 7.00 199.71 2799.87
   21:11:42.930.16-Jul-2020 4135.51 4700.14 77.11 7.00 199.91 2799.87
   21:11:43.131.16-Jul-2020 4135.51 4700.13 77.11 7.00 200.11 2799.87
   21:11:43.331.16-Jul-2020 4135.51 4700.13 77.11 7.00 200.31 2799.87
   21:11:43.531.16-Jul-2020 4135.51 4700.12 77.11 7.00 200.51 2799.87
   21:11:43.731.16-Jul-2020 4135.51 4700.12 77.11 7.00 200.71 2799.87
   21:11:43.931.16-Jul-2020 4135.51 4700.11 77.11 7.00 200.91 2799.87
   21:11:44.131.16-Jul-2020 4135.51 4700.13 77.11 7.00 201.11 2799.87
   21:11:44.331.16-Jul-2020 4135.51 4700.13 77.11 7.00 201.31 2799.87
   21:11:44.531.16-Jul-2020 4135.51 4700.14 77.11 7.00 201.51 2799.87
   21:11:44.731.16-Jul-2020 4135.51 4700.12 77.11 7.00 201.71 2799.87
   21:11:44.932.16-Jul-2020 4135.51 4700.11 77.11 7.00 201.91 2799.87
   21:11:45.132.16-Jul-2020 4135.51 4700.15 77.11 7.00 202.11 2799.87
   21:11:45.332.16-Jul-2020 4135.51 4700.11 77.11 7.00 202.31 2799.87
   21:11:45.532.16-Jul-2020 4135.51 4700.15 77.11 7.00 202.51 2799.87
   21:11:45.732.16-Jul-2020 4135.51 4700.09 77.11 7.00 202.71 2799.87
   21:11:45.932.16-Jul-2020 4135.51 4700.12 77.11 7.00 202.92 2799.87
   21:11:46.132.16-Jul-2020 4135.51 4700.12 77.11 7.00 203.12 2799.87
   21:11:46.332.16-Jul-2020 4135.51 4700.12 77.11 7.00 203.32 2799.87
   21:11:46.532.16-Jul-2020 4135.51 4700.12 77.11 7.00 203.52 2799.87
   21:11:46.733.16-Jul-2020 4135.51 4700.11 77.11 7.00 203.72 2799.87
   21:11:46.933.16-Jul-2020 4135.51 4700.14 77.11 7.00 203.92 2799.87
   21:11:47.133.16-Jul-2020 4135.51 4700.11 77.11 7.00 204.12 2799.87
   21:11:47.333.16-Jul-2020 4135.51 4700.12 77.11 7.00 204.32 2799.87
   21:11:47.533.16-Jul-2020 4135.51 4700.11 77.11 7.00 204.52 2799.87
   21:11:47.733.16-Jul-2020 4135.51 4700.05 77.11 7.00 204.72 2799.87
   21:11:47.933.16-Jul-2020 4135.51 4700.16 77.11 7.00 204.92 2799.87
   21:11:48.133.16-Jul-2020 4135.51 4700.15 77.11 7.00 205.12 2799.87
   21:11:48.333.16-Jul-2020 4135.51 4700.15 77.11 7.00 205.32 2799.87
   21:11:48.534.16-Jul-2020 4135.51 4700.11 77.11 7.00 205.52 2799.87
   21:11:48.734.16-Jul-2020 4135.51 4700.13 77.11 7.00 205.72 2799.87
   21:11:48.934.16-Jul-2020 4135.51 4700.11 77.11 7.00 205.92 2799.87
   21:11:49.134.16-Jul-2020 4135.51 4700.13 77.11 7.00 206.12 2799.87
   21:11:49.334.16-Jul-2020 4135.51 4700.13 77.11 7.00 206.32 2799.87
   21:11:49.534.16-Jul-2020 4135.51 4700.13 77.11 7.00 206.52 2799.87
   21:11:49.734.16-Jul-2020 4135.51 4700.11 77.11 7.00 206.72 2799.87
   21:11:49.934.16-Jul-2020 4135.51 4700.12 77.11 7.00 206.92 2799.87
