~Version Information
 VERS.                  2.0:   CWLS log ASCII Standard -VERSION 2.0
 WRAP.                   NO:   One line per depth step
~Well Information Block
#MNEM.UNIT     VALUE/NAME     DESCRIPTION
#---------     -----------    ---------------------------
 STRT.S             17:17:21 16-Jul-20: START TIME 17:17:21 16-Jul-20
 STOP.S             17:24:07 16-Jul-20: STOP TIME  17:24:07 16-Jul-20
 STEP.S                   0.00: STEP TIME
 NULL.                 -999.25: NULL VALUE
 MDS .        Operator Entered:  MAG DATA SOURCE
 UNIT.                     N/A:  LOGGING EQUIPMENT ID
 DCON.         Sperry Drilling:  DIRECTNL CONTR
 DOE .                     N/A:  DOE NUMBER
 RIG .               EastAzeri:  RIG NAME
 JOBN.        AZ-XX-0906363297:  JOB TICKET NUMB
 MWDS.                    Baku:  MWD SHOP
 SRVC.     Turan Drilling & Engineering:  CONTRACTOR
 PROV.                    Baku:  PROVINCE
 STAT.                    Baku:  STATE NAME
 REGN.                   EESSA:  REGION
 BASE.              Azerbaijan:  LOGGING EQUIPMENT BASE LOCATION
 WTYP.                Deviated:  WELL TYPE
 UWI .                     N/A:  UNIQUE WELL IDENTIFIER
 API .                     N/A:  API NUMBER
 COMP.     BP Exploration (Caspian Sea) ltd.:  COMPANY
 WELL.                    D07z:  WELL NAME
 CTRY.              Azerbaijan:  COUNTRY NAME
 SON .        AZ-XX-0906363297:  JOB NUMBER
 FLD .                     ACG:  FIELD NAME
 PDAT.          Mean Sea Level:  PERMANENT DATUM
 FTOP.          Formation Tops:  FORM TOPS DESC
 ILTD.               Lithology:  INTERP LTH DESC
 SVYD.                  Survey:  SURVEY DESC
 DMOD.             Drill Model:  DRILL MOD DESC
 HPTY.       Minimum Curvature:  HOLE POS TYPE
 NREF.                    Grid:  NORTH REFERENCE
 SPUD.               28-Jun-20:  SPUD DATE
 DATE.      18.27.12 28-Jun-20:  END TIME
 STIM.      18.27.12 28-Jun-20:  START TIME
 DMF .             Drill Floor:  DRILL MEAS FROM
 DFST.                        :  DIST FSL TEXT
 DFWT.                        :  DIST FWL TEXT
 CNTY.                        :  COUNTY
 LOC .                        :  LOCATION
 LMF .             Drill Floor:  LOG MEASURED FROM
 VSNS.m                  -7.75:  VERT SEC N/S
 VSEW.m                  -9.19:  VERT SEC E/W
 MMDE.m                   0.00:  MAGUTM CALC DEP
 AGAP.m                  43.60:  AIR GAP
 DEP .m                4058.99:  DEPTH
 APD .m                  43.60:  DEPTH ABOVE PD
 WDMS.m                 151.80:  WD ELEV
 EGL .m                   0.00:  GROUND ELEVATION
 EPD .m                   0.00:  ELEVATION
 AZTC.deg                 6.19:  AZM TOTAL CORR
 GRDC.deg                 0.27:  GRID CORRECTION
 MDEC.deg                 6.46:  MAGNETIC DECL
 MDIP.deg                59.47:  MAGNETIC DIP
 MFLD.nT              50279.00:  MAGNETIC FIELD
 GVFD.g                   1.00:  GRAVITY FIELD
 VSDR.deg               249.96:  VERT SEC DIRECT
 TDD .m                   0.00:  TOTAL DEPTH (DRILLER)
 SDEP.m                   0.00:  START DEPTH
 DFSL.m                   0.00:  DISTANCE FSL
 DFWL.m                   0.00:  DISTANCE FWL
 UTMY.m             4431880.20:  UTM Y
 UTMX.m              538763.98:  UTM X
 WHEW.m                  -9.19:  WELL HEAD E/W
 WHNS.m                  -7.75:  WELL HEAD N/S
 LONG.deg                51.45:  LONGITUDE
 LATI.deg                40.02:  LATITUDE
 TVDS.m                  43.60:  TVDSS CORRECTN
 EKB .m                  43.60:  KB ELEVATION
 EDF .m                  43.60:  DF ELEVATION
 TDL .m                 248.00:  TOTAL DEPTH (LOGGER)
 MAGU.                 1849075:  MAGUTM CHECKSUM
 VSC .                       0:  VS TO CLOSURE
~Parameter Information Block
#MNEM.UNIT       Value        Description
#---------     -----------    ---------------------------
 AV  .mps                 6.34:  Ann Velocity 
 AVMX.mps                 7.00:  Max Ann Veloc 
 AZIF.deg               260.29:  Azm, Final 
 BHAT.        Rotary Steerable:  BHA Type 
 BROT.°/30m               1.20:  Build Rotating 
 BS  .in                  8.50:  Bit Size 
 BSZ .in                  8.50:  Bit Size 
 BTPL.psig              620.00:  Bit Press Loss 
 CABU.                     Yes:  Customer Abuse 
 COMM.                     fb:  Run Comments 1 
 TCS .hr                 56.22:  Time Ciculation Ended 
 CV  .mps                 3.05:  Crit Velocity 
 CVMX.mps                 3.20:  Max Crit Veloc 
 DD1 .            Musa Ahmadov:  Direct Drillr 1 
 DDSV.                 iCruise:  DD Service 
 DEFF.%                  98.00:  % Det Eff 
 DLRX.°/30m               2.78:  Dogleg Rot Max 
 DLSO.°/30m               0.00:  Dogleg Oriented 
 DLSX.°/30m               0.00:  Dogleg Str Max 
 DRET.      05.20.48 16-Jul-20:  Drill End Time 
 DRST.      10.20.48 13-Jul-20:  Drill Start Tim 
 DTIM.hr                 14.25:  Time Drilling 
 EDEP.m                4326.01:  End Depth 
 ENG1.      Artemiy Matviyanov:  Engineer 1 
 ENG2.           Amrah Tahirov:  Engineer 2 
 ETIM.      22.30.00 18-Jul-20:  End Time 
 FLOI.gpm               550.00:  Flow In 
 FLON.gpm               450.00:  Flow In Min 
 FLOS.cptm                0.00:  Fluid Loss 
 FLOX.gpm               600.00:  Flow In Max 
 HFLO.                      No:  High Flow 
 HPRE.                      No:  High Pressure 
 HTEM.                      No:  High Temp 
 HYDO.m                   1.80:  Hydro Offset 
 IFIN.deg                65.41:  Inc, Final 
 IMAX.deg                65.14:  Inc Max 
 IMIN.deg                58.89:  Inc Min 
 IMND.m                4104.92:  Inc Min Depth 
 IMXD.m                4303.89:  Inc Max Depth 
 JARR.                      No:  Jarring 
 LETM.      10.20.48 17-Jul-20:  Log End Time 
 LOST.hr                     0:  Lost Rig Time 
 LSTM.      10.20.48 13-Jul-20:  Log Start Time 
 MDCL.ppm             37000.00:  Mud Chlorides 
 MDES.     Inversion Oil/Synthetic:  Mud Desc 
 DFD .sg                  1.52:  Mud Density 
 MDMN.sg                  1.52:  Dens Mud Min 
 MDMX.sg                  1.52:  Dens Mud Max 
 MOIL.                   52.70:  Run Mud Oil % 
 MOWR.                   68:32:  Run Mud OWR 
 MSND.                     0.2:  Run Mud Sand % 
 MSOL.                    21.6:  Run Mud Solids% 
 DFV .spqt               79.00:  Mud Viscosity 
 MWOD.in                  6.75:  MWD Tool OD 
 MWSI.                      No:  Serv Intrp, MWD 
 OTIM.hr                114.04:  Time Operating 
 PCON.          Wear / Scratch:  Pad Condition 
 PMAX.psia            11782.92:  Press Op, Max 
 PV  .cP                 49.00:  Mud PV 
 RUN .                     600:  Run Number 
 ROPA.m/hr               20.00:  ROP Avg 
 ROPN.m/hr               15.00:  ROP Min 
 ROPX.m/hr               22.00:  ROP Max 
 RPMA.rpm               120.00:  RPM Surface Avg 
 RPMN.rpm                90.00:  RPM Surface Min 
 RPMX.rpm               140.00:  RPM Surface Max 
 RRUN.                     600:  Rig Run Number 
 SAZI.deg               260.29:  Azm, Start 
 SDEP.m                4078.01:  Start Depth 
 SIDD.                      No:  Serv Intrp, DD 
 SINC.deg                58.89:  Inc, Start 
 SPPA.psig             4560.00:  SPP Avg 
 SPPN.psig             3600.00:  SPP Min 
 SPPX.psig             4800.00:  SPP Max 
 STIM.      10.20.48 13-Jul-20:  Start Time 
 SVCS.                 DD, MWD:  Services 
 SVER.                    9.20:  Sperry Version 
 TDAT.m                4378.01:  Tot Depth Attmp 
 TDDF.                      No:  Trip for DD 
 TDLG.m                 248.00:  Tot Depth Loggd 
 TFF .                      No:  Trip for Fail 
 TQAA.f-kp               18.00:  Torque Abs Avg 
 TQAN.f-kp               15.00:  Torque Abs Min 
 TQAX.f-kp               20.00:  Torque Abs Max 
 TRRT.°/30m               0.70:  Turn Rotating 
 MRT .                    HCIM:  Maximum Recorded Temperature 
 TTMX.degC               86.00:  Max Tool Temp 
 WBMN.klb                 3.00:  WOB Min 
 WOBA.klb                 5.00:  WOB Avg 
 WOBX.klb                 9.00:  WOB Max 
 YP  .lhf2               32.00:  Yield Point 
~Curve Information Block
#MNEM.UNIT                 API CODE     Curve Description
#---------               -----------    ---------------------------
 TIME.HHMMSS            00 000 000 000:  GT Time & Date
 GTDEPTH.m              00 000 000 000:  GT Depth
 GTPQH.psia             00 000 000 000:  GT HR Quartz Pressure
 GTTQ.degC              00 000 000 000:  GT Quartz Temperature
 GTTN.NONE              00 000 000 000:  GT Test Number
 GTET.sec               00 000 000 000:  GT Elapsed Test Time
 GTTVD.m                00 000 000 000:  GT True Vertical Depth
#Other Information
#
#WARRANTY: Halliburton will use its best efforts to furnish customers with 
#accurate information and interpretations that are part of, and incident to, the services 
#provided.  However, Halliburton cannot and does not warrant the accuracy 
#or correctness of such information and interpretations.  Under no circumstances should any 
#such information or interpretation be relied upon as the sole basis for any drilling, 
#completion, production, or financial decision or any procedure involving any risk to the 
#safety of any drilling venture, drilling rig or its crew or any other third party.  The 
#Customer has full responsibility for all drilling, completion and production operation.  
#Halliburton makes no representations or warranties, either expressed or 
#implied, including, but not limited to, the implied warranties of merchantability or fitness 
#for a particular purpose, with respect to the services rendered.  In no event will 
#Halliburton be liable for failure to obtain any particular results or for 
#any damages, including, but not limited to, indirect, special or consequential damages, 
#resulting from the use of any information or interpretation provided by Halliburton.
#
~A           TIME           GTDEPTH  GTPQH  GTTQ  GTTN  GTET   GTTVD  
# ...
   17:17:44.652.16-Jul-2020 4251.01 7013.46 79.92 3.00  23.00 2851.33
   17:17:44.852.16-Jul-2020 4251.01 7013.46 79.92 3.00  23.20 2851.33
   17:17:45.052.16-Jul-2020 4251.01 7012.98 79.92 3.00  23.40 2851.33
   17:17:45.252.16-Jul-2020 4251.01 7018.89 79.92 3.00  23.60 2851.33
   17:17:45.452.16-Jul-2020 4251.01 7015.45 79.92 3.00  23.80 2851.33
   17:17:45.652.16-Jul-2020 4251.01 7013.74 79.92 3.00  24.00 2851.33
   17:17:45.852.16-Jul-2020 4251.01 7014.04 79.92 3.00  24.20 2851.33
   17:17:46.052.16-Jul-2020 4251.01 7015.66 79.92 3.00  24.41 2851.33
   17:17:46.252.16-Jul-2020 4251.01 7014.78 79.92 3.00  24.61 2851.33
   17:17:46.452.16-Jul-2020 4251.01 7013.81 79.92 3.00  24.81 2851.33
   17:17:46.652.16-Jul-2020 4251.01 7014.94 79.92 3.00  25.01 2851.33
   17:17:46.852.16-Jul-2020 4251.01 7014.85 79.92 3.00  25.21 2851.33
   17:17:47.052.16-Jul-2020 4251.01 7015.34 79.92 3.00  25.41 2851.33
   17:17:47.252.16-Jul-2020 4251.01 7015.74 79.92 3.00  25.61 2851.33
   17:17:47.452.16-Jul-2020 4251.01 7016.00 79.92 3.00  25.81 2851.33
   17:17:47.652.16-Jul-2020 4251.01 7015.62 79.92 3.00  26.01 2851.33
   17:17:47.852.16-Jul-2020 4251.01 7015.87 79.92 3.00  26.21 2851.33
   17:17:48.052.16-Jul-2020 4251.01 7031.59 79.92 3.00  26.41 2851.33
   17:17:48.252.16-Jul-2020 4251.01 7013.20 79.92 3.00  26.61 2851.33
   17:17:48.453.16-Jul-2020 4251.01 7013.45 79.92 3.00  26.81 2851.33
   17:17:48.653.16-Jul-2020 4251.01 7017.14 79.92 3.00  27.01 2851.33
   17:17:48.853.16-Jul-2020 4251.01 7017.14 79.92 3.00  27.21 2851.33
   17:17:49.053.16-Jul-2020 4251.01 7016.76 79.92 3.00  27.41 2851.33
   17:17:49.253.16-Jul-2020 4251.01 7016.11 79.92 3.00  27.61 2851.33
   17:17:49.453.16-Jul-2020 4251.01 7015.97 79.92 3.00  27.81 2851.33
   17:17:49.653.16-Jul-2020 4251.01 7016.80 79.92 3.00  28.01 2851.33
   17:17:49.853.16-Jul-2020 4251.01 7016.80 79.92 3.00  28.21 2851.33
   17:17:50.053.16-Jul-2020 4251.01 7017.78 79.92 3.00  28.41 2851.33
   17:17:50.253.16-Jul-2020 4251.01 7017.50 79.92 3.00  28.61 2851.33
   17:17:50.453.16-Jul-2020 4251.01 7016.10 79.92 3.00  28.81 2851.33
   17:17:50.653.16-Jul-2020 4251.01 7016.97 79.92 3.00  29.01 2851.33
   17:17:50.853.16-Jul-2020 4251.01 7018.74 79.92 3.00  29.21 2851.33
   17:17:51.053.16-Jul-2020 4251.01 7018.60 79.92 3.00  29.41 2851.33
   17:17:51.253.16-Jul-2020 4251.01 7024.64 79.92 3.00  29.61 2851.33
   17:17:51.453.16-Jul-2020 4251.01 7018.77 79.92 3.00  29.81 2851.33
   17:17:51.653.16-Jul-2020 4251.01 7017.99 79.92 3.00  30.01 2851.33
   17:17:51.853.16-Jul-2020 4251.01 7017.99 79.92 3.00  30.21 2851.33
   17:17:52.053.16-Jul-2020 4251.01 7036.50 79.91 3.00  30.41 2851.33
   17:17:52.253.16-Jul-2020 4251.01 7015.38 79.91 3.00  30.61 2851.33
   17:17:52.453.16-Jul-2020 4251.01 7016.36 79.91 3.00  30.81 2851.33
   17:17:52.653.16-Jul-2020 4251.01 7020.76 79.91 3.00  31.01 2851.33
   17:17:52.853.16-Jul-2020 4251.01 7020.76 79.91 3.00  31.21 2851.33
   17:17:53.053.16-Jul-2020 4251.01 7247.50 79.91 3.00  31.41 2851.33
   17:17:53.253.16-Jul-2020 4251.01 7353.97 79.91 3.00  31.61 2851.33
   17:17:53.454.16-Jul-2020 4251.01 7326.23 79.91 3.00  31.81 2851.33
   17:17:53.654.16-Jul-2020 4251.01 7306.55 79.91 3.00  32.01 2851.33
   17:17:53.854.16-Jul-2020 4251.01 7300.18 79.91 3.00  32.21 2851.33
   17:17:54.054.16-Jul-2020 4251.01 7302.12 79.91 3.00  32.41 2851.33
   17:17:54.254.16-Jul-2020 4251.01 7296.80 79.91 3.00  32.61 2851.33
   17:17:54.454.16-Jul-2020 4251.01 7277.35 79.91 3.00  32.81 2851.33
   17:17:54.654.16-Jul-2020 4251.01 7247.13 79.91 3.00  33.01 2851.33
   17:17:54.854.16-Jul-2020 4251.01 7214.88 79.91 3.00  33.21 2851.33
   17:17:55.054.16-Jul-2020 4251.01 7165.14 79.91 3.00  33.41 2851.33
   17:17:55.254.16-Jul-2020 4251.01 7117.00 79.91 3.00  33.61 2851.33
   17:17:55.454.16-Jul-2020 4251.01 7083.36 79.91 3.00  33.81 2851.33
   17:17:55.654.16-Jul-2020 4251.01 7065.15 79.91 3.00  34.01 2851.33
   17:17:55.854.16-Jul-2020 4251.01 7050.83 79.91 3.00  34.21 2851.33
   17:17:56.054.16-Jul-2020 4251.01 7038.34 79.91 3.00  34.41 2851.33
   17:17:56.254.16-Jul-2020 4251.01 7028.61 79.91 3.00  34.61 2851.33
   17:17:56.454.16-Jul-2020 4251.01 7021.43 79.91 3.00  34.81 2851.33
   17:17:56.654.16-Jul-2020 4251.01 7016.05 79.91 3.00  35.01 2851.33
   17:17:56.854.16-Jul-2020 4251.01 7016.05 79.91 3.00  35.21 2851.33
   17:17:57.054.16-Jul-2020 4251.01 7008.97 79.91 3.00  35.41 2851.33
   17:17:57.254.16-Jul-2020 4251.01 7007.14 79.91 3.00  35.61 2851.33
   17:17:57.454.16-Jul-2020 4251.01 7004.94 79.91 3.00  35.81 2851.33
   17:17:57.654.16-Jul-2020 4251.01 7001.58 79.91 3.00  36.01 2851.33
   17:17:57.854.16-Jul-2020 4251.01 6998.87 79.91 3.00  36.21 2851.33
   17:17:58.054.16-Jul-2020 4251.01 7008.53 79.91 3.00  36.41 2851.33
   17:17:58.255.16-Jul-2020 4251.01 7013.10 79.91 3.00  36.61 2851.33
   17:17:58.455.16-Jul-2020 4251.01 7012.62 79.91 3.00  36.81 2851.33
   17:17:58.655.16-Jul-2020 4251.01 6930.02 79.91 3.00  37.01 2851.33
   17:17:58.855.16-Jul-2020 4251.01 6353.14 79.91 3.00  37.21 2851.33
   17:17:59.055.16-Jul-2020 4251.01 5315.81 79.91 3.00  37.41 2851.33
   17:17:59.255.16-Jul-2020 4251.01 4724.24 79.91 3.00  37.61 2851.33
   17:17:59.455.16-Jul-2020 4251.01 4579.41 79.91 3.00  37.81 2851.33
   17:17:59.655.16-Jul-2020 4251.01 4552.11 79.91 3.00  38.01 2851.33
   17:17:59.855.16-Jul-2020 4251.01 4518.12 79.91 3.00  38.21 2851.33
   17:18:00.055.16-Jul-2020 4251.01 4509.69 79.91 3.00  38.41 2851.33
   17:18:00.255.16-Jul-2020 4251.01 4479.89 79.91 3.00  38.61 2851.33
   17:18:00.455.16-Jul-2020 4251.01 4435.05 79.90 3.00  38.81 2851.33
   17:18:00.655.16-Jul-2020 4251.01 4427.82 79.90 3.00  39.01 2851.33
   17:18:00.855.16-Jul-2020 4251.01 4414.77 79.90 3.00  39.21 2851.33
   17:18:01.055.16-Jul-2020 4251.01 4414.66 79.90 3.00  39.41 2851.33
   17:18:01.255.16-Jul-2020 4251.01 4414.31 79.89 3.00  39.61 2851.33
   17:18:01.455.16-Jul-2020 4251.01 4405.53 79.89 3.00  39.81 2851.33
   17:18:01.655.16-Jul-2020 4251.01 4418.52 79.89 3.00  40.01 2851.33
   17:18:01.855.16-Jul-2020 4251.01 4383.32 79.89 3.00  40.21 2851.33
   17:18:02.055.16-Jul-2020 4251.01 4304.30 79.88 3.00  40.41 2851.33
   17:18:02.255.16-Jul-2020 4251.01 4225.69 79.88 3.00  40.61 2851.33
   17:18:02.455.16-Jul-2020 4251.01 4191.34 79.88 3.00  40.81 2851.33
   17:18:02.655.16-Jul-2020 4251.01 4133.13 79.87 3.00  41.01 2851.33
   17:18:02.855.16-Jul-2020 4251.01 4090.33 79.87 3.00  41.21 2851.33
   17:18:03.056.16-Jul-2020 4251.01 4078.44 79.87 3.00  41.41 2851.33
   17:18:03.256.16-Jul-2020 4251.01 4019.41 79.86 3.00  41.61 2851.33
   17:18:03.456.16-Jul-2020 4251.01 3974.25 79.86 3.00  41.81 2851.33
   17:18:03.656.16-Jul-2020 4251.01 3943.51 79.86 3.00  42.01 2851.33
   17:18:03.856.16-Jul-2020 4251.01 3943.51 79.86 3.00  42.21 2851.33
   17:18:04.056.16-Jul-2020 4251.01 3874.33 79.85 3.00  42.41 2851.33
   17:18:04.256.16-Jul-2020 4251.01 3844.82 79.85 3.00  42.61 2851.33
   17:18:04.456.16-Jul-2020 4251.01 3856.64 79.85 3.00  42.81 2851.33
   17:18:04.656.16-Jul-2020 4251.01 3715.56 79.84 3.00  43.01 2851.33
   17:18:04.856.16-Jul-2020 4251.01 3715.56 79.84 3.00  43.21 2851.33
   17:18:05.056.16-Jul-2020 4251.01 3462.67 79.84 3.00  43.41 2851.33
   17:18:05.256.16-Jul-2020 4251.01 3326.19 79.83 3.00  43.61 2851.33
   17:18:05.456.16-Jul-2020 4251.01 3006.19 79.83 3.00  43.81 2851.33
   17:18:05.656.16-Jul-2020 4251.01 2710.85 79.83 3.00  44.01 2851.33
   17:18:05.856.16-Jul-2020 4251.01 2710.85 79.83 3.00  44.21 2851.33
   17:18:06.056.16-Jul-2020 4251.01 2214.95 79.82 3.00  44.41 2851.33
   17:18:06.256.16-Jul-2020 4251.01 2054.98 79.82 3.00  44.61 2851.33
   17:18:06.456.16-Jul-2020 4251.01 1947.00 79.82 3.00  44.81 2851.33
   17:18:06.656.16-Jul-2020 4251.01 1786.62 79.81 3.00  45.01 2851.33
   17:18:06.856.16-Jul-2020 4251.01 1503.31 79.81 3.00  45.21 2851.33
   17:18:07.056.16-Jul-2020 4251.01 1249.44 79.81 3.00  45.41 2851.33
   17:18:07.256.16-Jul-2020 4251.01 1152.57 79.80 3.00  45.61 2851.33
   17:18:07.456.16-Jul-2020 4251.01 1042.33 79.80 3.00  45.81 2851.33
