~Version Information
 VERS.                  2.0:   CWLS log ASCII Standard -VERSION 2.0
 WRAP.                   NO:   One line per depth step
~Well Information Block
#MNEM.UNIT     VALUE/NAME     DESCRIPTION
#---------     -----------    ---------------------------
 STRT.S             22:12:50 16-Jul-20: START TIME 22:12:50 16-Jul-20
 STOP.S             22:19:40 16-Jul-20: STOP TIME  22:19:40 16-Jul-20
 STEP.S                   0.00: STEP TIME
 NULL.                 -999.25: NULL VALUE
 MDS .        Operator Entered:  MAG DATA SOURCE
 UNIT.                     N/A:  LOGGING EQUIPMENT ID
 DCON.         Sperry Drilling:  DIRECTNL CONTR
 DOE .                     N/A:  DOE NUMBER
 RIG .               EastAzeri:  RIG NAME
 JOBN.        AZ-XX-0906363297:  JOB TICKET NUMB
 MWDS.                    Baku:  MWD SHOP
 SRVC.     Turan Drilling & Engineering:  CONTRACTOR
 PROV.                    Baku:  PROVINCE
 STAT.                    Baku:  STATE NAME
 REGN.                   EESSA:  REGION
 BASE.              Azerbaijan:  LOGGING EQUIPMENT BASE LOCATION
 WTYP.                Deviated:  WELL TYPE
 UWI .                     N/A:  UNIQUE WELL IDENTIFIER
 API .                     N/A:  API NUMBER
 COMP.     BP Exploration (Caspian Sea) ltd.:  COMPANY
 WELL.                    D07z:  WELL NAME
 CTRY.              Azerbaijan:  COUNTRY NAME
 SON .        AZ-XX-0906363297:  JOB NUMBER
 FLD .                     ACG:  FIELD NAME
 PDAT.          Mean Sea Level:  PERMANENT DATUM
 FTOP.          Formation Tops:  FORM TOPS DESC
 ILTD.               Lithology:  INTERP LTH DESC
 SVYD.                  Survey:  SURVEY DESC
 DMOD.             Drill Model:  DRILL MOD DESC
 HPTY.       Minimum Curvature:  HOLE POS TYPE
 NREF.                    Grid:  NORTH REFERENCE
 SPUD.               28-Jun-20:  SPUD DATE
 DATE.      18.27.12 28-Jun-20:  END TIME
 STIM.      18.27.12 28-Jun-20:  START TIME
 DMF .             Drill Floor:  DRILL MEAS FROM
 DFST.                        :  DIST FSL TEXT
 DFWT.                        :  DIST FWL TEXT
 CNTY.                        :  COUNTY
 LOC .                        :  LOCATION
 LMF .             Drill Floor:  LOG MEASURED FROM
 VSNS.m                  -7.75:  VERT SEC N/S
 VSEW.m                  -9.19:  VERT SEC E/W
 MMDE.m                   0.00:  MAGUTM CALC DEP
 AGAP.m                  43.60:  AIR GAP
 DEP .m                4058.99:  DEPTH
 APD .m                  43.60:  DEPTH ABOVE PD
 WDMS.m                 151.80:  WD ELEV
 EGL .m                   0.00:  GROUND ELEVATION
 EPD .m                   0.00:  ELEVATION
 AZTC.deg                 6.19:  AZM TOTAL CORR
 GRDC.deg                 0.27:  GRID CORRECTION
 MDEC.deg                 6.46:  MAGNETIC DECL
 MDIP.deg                59.47:  MAGNETIC DIP
 MFLD.nT              50279.00:  MAGNETIC FIELD
 GVFD.g                   1.00:  GRAVITY FIELD
 VSDR.deg               249.96:  VERT SEC DIRECT
 TDD .m                   0.00:  TOTAL DEPTH (DRILLER)
 SDEP.m                   0.00:  START DEPTH
 DFSL.m                   0.00:  DISTANCE FSL
 DFWL.m                   0.00:  DISTANCE FWL
 UTMY.m             4431880.20:  UTM Y
 UTMX.m              538763.98:  UTM X
 WHEW.m                  -9.19:  WELL HEAD E/W
 WHNS.m                  -7.75:  WELL HEAD N/S
 LONG.deg                51.45:  LONGITUDE
 LATI.deg                40.02:  LATITUDE
 TVDS.m                  43.60:  TVDSS CORRECTN
 EKB .m                  43.60:  KB ELEVATION
 EDF .m                  43.60:  DF ELEVATION
 TDL .m                 248.00:  TOTAL DEPTH (LOGGER)
 MAGU.                 1849075:  MAGUTM CHECKSUM
 VSC .                       0:  VS TO CLOSURE
~Parameter Information Block
#MNEM.UNIT       Value        Description
#---------     -----------    ---------------------------
 AV  .mps                 6.34:  Ann Velocity 
 AVMX.mps                 7.00:  Max Ann Veloc 
 AZIF.deg               260.29:  Azm, Final 
 BHAT.        Rotary Steerable:  BHA Type 
 BROT.°/30m               1.20:  Build Rotating 
 BS  .in                  8.50:  Bit Size 
 BSZ .in                  8.50:  Bit Size 
 BTPL.psig              620.00:  Bit Press Loss 
 CABU.                     Yes:  Customer Abuse 
 TCS .hr                 56.22:  Time Ciculation Ended 
 CV  .mps                 3.05:  Crit Velocity 
 CVMX.mps                 3.20:  Max Crit Veloc 
 DD1 .            Musa Ahmadov:  Direct Drillr 1 
 DDSV.                 iCruise:  DD Service 
 DEFF.%                  98.00:  % Det Eff 
 DLRX.°/30m               2.78:  Dogleg Rot Max 
 DLSO.°/30m               0.00:  Dogleg Oriented 
 DLSX.°/30m               0.00:  Dogleg Str Max 
 DRET.      05.20.48 16-Jul-20:  Drill End Time 
 DRST.      10.20.48 13-Jul-20:  Drill Start Tim 
 DTIM.hr                 14.25:  Time Drilling 
 EDEP.m                4326.01:  End Depth 
 ENG1.      Artemiy Matviyanov:  Engineer 1 
 ENG2.           Amrah Tahirov:  Engineer 2 
 ETIM.      22.30.00 18-Jul-20:  End Time 
 FLOI.gpm               550.00:  Flow In 
 FLON.gpm               450.00:  Flow In Min 
 FLOS.cptm                0.00:  Fluid Loss 
 FLOX.gpm               600.00:  Flow In Max 
 HFLO.                      No:  High Flow 
 HPRE.                      No:  High Pressure 
 HTEM.                      No:  High Temp 
 HYDO.m                   1.80:  Hydro Offset 
 IFIN.deg                65.41:  Inc, Final 
 IMAX.deg                65.14:  Inc Max 
 IMIN.deg                58.89:  Inc Min 
 IMND.m                4104.92:  Inc Min Depth 
 IMXD.m                4303.89:  Inc Max Depth 
 JARR.                      No:  Jarring 
 LETM.      10.20.48 17-Jul-20:  Log End Time 
 LOST.hr                     0:  Lost Rig Time 
 LSTM.      10.20.48 13-Jul-20:  Log Start Time 
 MDCL.ppm             37000.00:  Mud Chlorides 
 MDES.     Inversion Oil/Synthetic:  Mud Desc 
 DFD .sg                  1.52:  Mud Density 
 MDMN.sg                  1.52:  Dens Mud Min 
 MDMX.sg                  1.52:  Dens Mud Max 
 MOIL.                   52.70:  Run Mud Oil % 
 MOWR.                   68:32:  Run Mud OWR 
 MSND.                     0.2:  Run Mud Sand % 
 MSOL.                    21.6:  Run Mud Solids% 
 DFV .spqt               79.00:  Mud Viscosity 
 MWOD.in                  6.75:  MWD Tool OD 
 MWSI.                      No:  Serv Intrp, MWD 
 OTIM.hr                114.04:  Time Operating 
 PCON.          Wear / Scratch:  Pad Condition 
 PMAX.psia            11782.92:  Press Op, Max 
 PV  .cP                 49.00:  Mud PV 
 RUN .                     600:  Run Number 
 ROPA.m/hr               20.00:  ROP Avg 
 ROPN.m/hr               15.00:  ROP Min 
 ROPX.m/hr               22.00:  ROP Max 
 RPMA.rpm               120.00:  RPM Surface Avg 
 RPMN.rpm                90.00:  RPM Surface Min 
 RPMX.rpm               140.00:  RPM Surface Max 
 RRUN.                     600:  Rig Run Number 
 SAZI.deg               260.29:  Azm, Start 
 SDEP.m                4078.01:  Start Depth 
 SIDD.                      No:  Serv Intrp, DD 
 SINC.deg                58.89:  Inc, Start 
 SPPA.psig             4560.00:  SPP Avg 
 SPPN.psig             3600.00:  SPP Min 
 SPPX.psig             4800.00:  SPP Max 
 STIM.      10.20.48 13-Jul-20:  Start Time 
 SVCS.                 DD, MWD:  Services 
 SVER.                    9.20:  Sperry Version 
 TDAT.m                4378.01:  Tot Depth Attmp 
 TDDF.                      No:  Trip for DD 
 TDLG.m                 248.00:  Tot Depth Loggd 
 TFF .                      No:  Trip for Fail 
 TQAA.f-kp               18.00:  Torque Abs Avg 
 TQAN.f-kp               15.00:  Torque Abs Min 
 TQAX.f-kp               20.00:  Torque Abs Max 
 TRRT.°/30m               0.70:  Turn Rotating 
 MRT .                    HCIM:  Maximum Recorded Temperature 
 TTMX.degC               86.00:  Max Tool Temp 
 WBMN.klb                 3.00:  WOB Min 
 WOBA.klb                 5.00:  WOB Avg 
 WOBX.klb                 9.00:  WOB Max 
 YP  .lhf2               32.00:  Yield Point 
~Curve Information Block
#MNEM.UNIT                 API CODE     Curve Description
#---------               -----------    ---------------------------
 TIME.HHMMSS            00 000 000 000:  GT Time & Date
 GTDEPTH.m              00 000 000 000:  GT Depth
 GTPQH.psia             00 000 000 000:  GT HR Quartz Pressure
 GTTQ.degC              00 000 000 000:  GT Quartz Temperature
 GTTN.NONE              00 000 000 000:  GT Test Number
 GTET.sec               00 000 000 000:  GT Elapsed Test Time
 GTTVD.m                00 000 000 000:  GT True Vertical Depth
#Other Information
#
#WARRANTY: Halliburton will use its best efforts to furnish customers with 
#accurate information and interpretations that are part of, and incident to, the services 
#provided.  However, Halliburton cannot and does not warrant the accuracy 
#or correctness of such information and interpretations.  Under no circumstances should any 
#such information or interpretation be relied upon as the sole basis for any drilling, 
#completion, production, or financial decision or any procedure involving any risk to the 
#safety of any drilling venture, drilling rig or its crew or any other third party.  The 
#Customer has full responsibility for all drilling, completion and production operation.  
#Halliburton makes no representations or warranties, either expressed or 
#implied, including, but not limited to, the implied warranties of merchantability or fitness 
#for a particular purpose, with respect to the services rendered.  In no event will 
#Halliburton be liable for failure to obtain any particular results or for 
#any damages, including, but not limited to, indirect, special or consequential damages, 
#resulting from the use of any information or interpretation provided by Halliburton.
#
~A           TIME           GTDEPTH  GTPQH  GTTQ  GTTN  GTET   GTTVD  
# ...
   22:13:59.321.16-Jul-2020 4093.01 4652.93 76.37 8.00  69.03 2778.38
   22:13:59.521.16-Jul-2020 4093.01 4652.93 76.37 8.00  69.23 2778.38
   22:13:59.721.16-Jul-2020 4093.01 4652.97 76.37 8.00  69.43 2778.38
   22:13:59.921.16-Jul-2020 4093.01 4652.96 76.37 8.00  69.63 2778.38
   22:14:00.121.16-Jul-2020 4093.01 4652.98 76.37 8.00  69.83 2778.38
   22:14:00.321.16-Jul-2020 4093.01 4652.98 76.37 8.00  70.03 2778.38
   22:14:00.521.16-Jul-2020 4093.01 4652.98 76.37 8.00  70.23 2778.38
   22:14:00.721.16-Jul-2020 4093.01 4652.98 76.37 8.00  70.43 2778.38
   22:14:00.921.16-Jul-2020 4093.01 4653.00 76.37 8.00  70.63 2778.38
   22:14:01.122.16-Jul-2020 4093.01 4653.00 76.37 8.00  70.83 2778.38
   22:14:01.322.16-Jul-2020 4093.01 4653.00 76.37 8.00  71.03 2778.38
   22:14:01.522.16-Jul-2020 4093.01 4652.90 76.37 8.00  71.23 2778.38
   22:14:01.722.16-Jul-2020 4093.01 4652.93 76.37 8.00  71.43 2778.38
   22:14:01.922.16-Jul-2020 4093.01 4652.96 76.37 8.00  71.63 2778.38
   22:14:02.122.16-Jul-2020 4093.01 4652.96 76.37 8.00  71.83 2778.38
   22:14:02.322.16-Jul-2020 4093.01 4652.96 76.37 8.00  72.03 2778.38
   22:14:02.522.16-Jul-2020 4093.01 4653.00 76.37 8.00  72.23 2778.38
   22:14:02.722.16-Jul-2020 4093.01 4653.00 76.37 8.00  72.43 2778.38
   22:14:02.922.16-Jul-2020 4093.01 4653.01 76.37 8.00  72.63 2778.38
   22:14:03.122.16-Jul-2020 4093.01 4653.00 76.37 8.00  72.83 2778.38
   22:14:03.322.16-Jul-2020 4093.01 4653.01 76.37 8.00  73.03 2778.38
   22:14:03.522.16-Jul-2020 4093.01 4653.01 76.37 8.00  73.23 2778.38
   22:14:03.723.16-Jul-2020 4093.01 4653.01 76.37 8.00  73.43 2778.38
   22:14:03.923.16-Jul-2020 4093.01 4653.02 76.37 8.00  73.63 2778.38
   22:14:04.123.16-Jul-2020 4093.01 4653.03 76.37 8.00  73.83 2778.38
   22:14:04.323.16-Jul-2020 4093.01 4653.01 76.37 8.00  74.03 2778.38
   22:14:04.523.16-Jul-2020 4093.01 4653.01 76.37 8.00  74.23 2778.38
   22:14:04.723.16-Jul-2020 4093.01 4652.91 76.37 8.00  74.43 2778.38
   22:14:04.923.16-Jul-2020 4093.01 4652.96 76.37 8.00  74.63 2778.38
   22:14:05.123.16-Jul-2020 4093.01 4652.98 76.37 8.00  74.83 2778.38
   22:14:05.323.16-Jul-2020 4093.01 4652.98 76.37 8.00  75.03 2778.38
   22:14:05.523.16-Jul-2020 4093.01 4652.98 76.37 8.00  75.23 2778.38
   22:14:05.723.16-Jul-2020 4093.01 4652.92 76.37 8.00  75.43 2778.38
   22:14:05.923.16-Jul-2020 4093.01 4652.98 76.37 8.00  75.63 2778.38
   22:14:06.123.16-Jul-2020 4093.01 4653.00 76.37 8.00  75.83 2778.38
   22:14:06.324.16-Jul-2020 4093.01 4652.91 76.37 8.00  76.03 2778.38
   22:14:06.524.16-Jul-2020 4093.01 4652.95 76.37 8.00  76.23 2778.38
   22:14:06.724.16-Jul-2020 4093.01 4652.96 76.37 8.00  76.43 2778.38
   22:14:06.924.16-Jul-2020 4093.01 4652.97 76.37 8.00  76.63 2778.38
   22:14:07.124.16-Jul-2020 4093.01 4653.00 76.37 8.00  76.83 2778.38
   22:14:07.324.16-Jul-2020 4093.01 4652.98 76.37 8.00  77.03 2778.38
   22:14:07.524.16-Jul-2020 4093.01 4652.98 76.37 8.00  77.23 2778.38
   22:14:07.724.16-Jul-2020 4093.01 4652.94 76.37 8.00  77.43 2778.38
   22:14:07.924.16-Jul-2020 4093.01 4652.97 76.37 8.00  77.63 2778.38
   22:14:08.124.16-Jul-2020 4093.01 4652.98 76.37 8.00  77.83 2778.38
   22:14:08.324.16-Jul-2020 4093.01 4652.99 76.37 8.00  78.03 2778.38
   22:14:08.524.16-Jul-2020 4093.01 4652.99 76.37 8.00  78.23 2778.38
   22:14:08.724.16-Jul-2020 4093.01 4653.00 76.37 8.00  78.43 2778.38
   22:14:08.925.16-Jul-2020 4093.01 4653.01 76.37 8.00  78.63 2778.38
   22:14:09.125.16-Jul-2020 4093.01 4653.03 76.37 8.00  78.83 2778.38
   22:14:09.325.16-Jul-2020 4093.01 4653.03 76.37 8.00  79.03 2778.38
   22:14:09.525.16-Jul-2020 4093.01 4653.03 76.37 8.00  79.23 2778.38
   22:14:09.725.16-Jul-2020 4093.01 4653.03 76.37 8.00  79.43 2778.38
   22:14:09.925.16-Jul-2020 4093.01 4653.00 76.37 8.00  79.63 2778.38
   22:14:10.125.16-Jul-2020 4093.01 4653.07 76.37 8.00  79.83 2778.38
   22:14:10.325.16-Jul-2020 4093.01 4652.95 76.37 8.00  80.03 2778.38
   22:14:10.525.16-Jul-2020 4093.01 4652.99 76.37 8.00  80.23 2778.38
   22:14:10.725.16-Jul-2020 4093.01 4652.99 76.37 8.00  80.43 2778.38
   22:14:10.925.16-Jul-2020 4093.01 4653.01 76.37 8.00  80.63 2778.38
   22:14:11.125.16-Jul-2020 4093.01 4653.02 76.37 8.00  80.83 2778.38
   22:14:11.325.16-Jul-2020 4093.01 4653.02 76.37 8.00  81.03 2778.38
   22:14:11.525.16-Jul-2020 4093.01 4653.04 76.37 8.00  81.23 2778.38
   22:14:11.726.16-Jul-2020 4093.01 4653.03 76.37 8.00  81.43 2778.38
   22:14:11.926.16-Jul-2020 4093.01 4653.04 76.37 8.00  81.63 2778.38
   22:14:12.126.16-Jul-2020 4093.01 4653.05 76.37 8.00  81.83 2778.38
   22:14:12.326.16-Jul-2020 4093.01 4653.05 76.37 8.00  82.03 2778.38
   22:14:12.526.16-Jul-2020 4093.01 4653.05 76.37 8.00  82.23 2778.38
   22:14:12.726.16-Jul-2020 4093.01 4653.06 76.37 8.00  82.43 2778.38
   22:14:12.926.16-Jul-2020 4093.01 4653.05 76.37 8.00  82.63 2778.38
   22:14:13.126.16-Jul-2020 4093.01 4653.02 76.37 8.00  82.83 2778.38
   22:14:13.326.16-Jul-2020 4093.01 4653.09 76.37 8.00  83.03 2778.38
   22:14:13.526.16-Jul-2020 4093.01 4652.95 76.37 8.00  83.23 2778.38
   22:14:13.726.16-Jul-2020 4093.01 4653.00 76.37 8.00  83.43 2778.38
   22:14:13.926.16-Jul-2020 4093.01 4653.01 76.37 8.00  83.63 2778.38
   22:14:14.126.16-Jul-2020 4093.01 4653.07 76.37 8.00  83.83 2778.38
   22:14:14.327.16-Jul-2020 4093.01 4652.94 76.37 8.00  84.03 2778.38
   22:14:14.527.16-Jul-2020 4093.01 4652.98 76.37 8.00  84.23 2778.38
   22:14:14.727.16-Jul-2020 4093.01 4652.97 76.37 8.00  84.43 2778.38
   22:14:14.927.16-Jul-2020 4093.01 4653.06 76.37 8.00  84.63 2778.38
   22:14:15.127.16-Jul-2020 4093.01 4652.96 76.37 8.00  84.83 2778.38
   22:14:15.327.16-Jul-2020 4093.01 4652.98 76.37 8.00  85.03 2778.38
   22:14:15.527.16-Jul-2020 4093.01 4653.01 76.37 8.00  85.23 2778.38
   22:14:15.727.16-Jul-2020 4093.01 4652.99 76.37 8.00  85.43 2778.38
   22:14:15.927.16-Jul-2020 4093.01 4653.02 76.37 8.00  85.63 2778.38
   22:14:16.127.16-Jul-2020 4093.01 4653.08 76.37 8.00  85.83 2778.38
   22:14:16.327.16-Jul-2020 4093.01 4652.94 76.37 8.00  86.03 2778.38
   22:14:16.527.16-Jul-2020 4093.01 4652.94 76.37 8.00  86.23 2778.38
   22:14:16.727.16-Jul-2020 4093.01 4653.01 76.37 8.00  86.43 2778.38
   22:14:16.928.16-Jul-2020 4093.01 4653.00 76.37 8.00  86.63 2778.38
   22:14:17.128.16-Jul-2020 4093.01 4653.01 76.37 8.00  86.83 2778.38
   22:14:17.328.16-Jul-2020 4093.01 4653.02 76.37 8.00  87.03 2778.38
   22:14:17.528.16-Jul-2020 4093.01 4653.03 76.37 8.00  87.23 2778.38
   22:14:17.728.16-Jul-2020 4093.01 4653.03 76.37 8.00  87.43 2778.38
   22:14:17.928.16-Jul-2020 4093.01 4653.04 76.37 8.00  87.63 2778.38
   22:14:18.128.16-Jul-2020 4093.01 4653.04 76.37 8.00  87.83 2778.38
   22:14:18.328.16-Jul-2020 4093.01 4653.05 76.37 8.00  88.03 2778.38
   22:14:18.528.16-Jul-2020 4093.01 4653.05 76.37 8.00  88.23 2778.38
   22:14:18.728.16-Jul-2020 4093.01 4653.04 76.38 8.00  88.43 2778.38
   22:14:18.928.16-Jul-2020 4093.01 4653.05 76.37 8.00  88.63 2778.38
   22:14:19.128.16-Jul-2020 4093.01 4652.99 76.38 8.00  88.83 2778.38
   22:14:19.328.16-Jul-2020 4093.01 4653.01 76.38 8.00  89.03 2778.38
   22:14:19.529.16-Jul-2020 4093.01 4653.01 76.38 8.00  89.23 2778.38
   22:14:19.729.16-Jul-2020 4093.01 4653.03 76.38 8.00  89.43 2778.38
   22:14:19.929.16-Jul-2020 4093.01 4653.03 76.38 8.00  89.63 2778.38
   22:14:20.129.16-Jul-2020 4093.01 4653.03 76.38 8.00  89.83 2778.38
   22:14:20.329.16-Jul-2020 4093.01 4653.05 76.38 8.00  90.03 2778.38
   22:14:20.529.16-Jul-2020 4093.01 4653.05 76.38 8.00  90.23 2778.38
   22:14:20.729.16-Jul-2020 4093.01 4653.05 76.38 8.00  90.43 2778.38
   22:14:20.929.16-Jul-2020 4093.01 4653.06 76.38 8.00  90.63 2778.38
   22:14:21.129.16-Jul-2020 4093.01 4653.06 76.38 8.00  90.83 2778.38
   22:14:21.329.16-Jul-2020 4093.01 4653.06 76.38 8.00  91.03 2778.38
   22:14:21.529.16-Jul-2020 4093.01 4653.06 76.38 8.00  91.23 2778.38
   22:14:21.729.16-Jul-2020 4093.01 4653.07 76.38 8.00  91.43 2778.38
   22:14:21.929.16-Jul-2020 4093.01 4653.06 76.38 8.00  91.63 2778.38
   22:14:22.129.16-Jul-2020 4093.01 4653.06 76.38 8.00  91.83 2778.38
