~Version Information
 VERS.                  2.0:   CWLS log ASCII Standard -VERSION 2.0
 WRAP.                   NO:   One line per depth step
~Well Information Block
#MNEM.UNIT     VALUE/NAME     DESCRIPTION
#---------     -----------    ---------------------------
 STRT.S             18:36:16 16-Jul-20: START TIME 18:36:16 16-Jul-20
 STOP.S             18:43:12 16-Jul-20: STOP TIME  18:43:12 16-Jul-20
 STEP.S                   0.00: STEP TIME
 NULL.                 -999.25: NULL VALUE
 MDS .        Operator Entered:  MAG DATA SOURCE
 UNIT.                     N/A:  LOGGING EQUIPMENT ID
 DCON.         Sperry Drilling:  DIRECTNL CONTR
 DOE .                     N/A:  DOE NUMBER
 RIG .               EastAzeri:  RIG NAME
 JOBN.        AZ-XX-0906363297:  JOB TICKET NUMB
 MWDS.                    Baku:  MWD SHOP
 SRVC.     Turan Drilling & Engineering:  CONTRACTOR
 PROV.                    Baku:  PROVINCE
 STAT.                    Baku:  STATE NAME
 REGN.                   EESSA:  REGION
 BASE.              Azerbaijan:  LOGGING EQUIPMENT BASE LOCATION
 WTYP.                Deviated:  WELL TYPE
 UWI .                     N/A:  UNIQUE WELL IDENTIFIER
 API .                     N/A:  API NUMBER
 COMP.     BP Exploration (Caspian Sea) ltd.:  COMPANY
 WELL.                    D07z:  WELL NAME
 CTRY.              Azerbaijan:  COUNTRY NAME
 SON .        AZ-XX-0906363297:  JOB NUMBER
 FLD .                     ACG:  FIELD NAME
 PDAT.          Mean Sea Level:  PERMANENT DATUM
 FTOP.          Formation Tops:  FORM TOPS DESC
 ILTD.               Lithology:  INTERP LTH DESC
 SVYD.                  Survey:  SURVEY DESC
 DMOD.             Drill Model:  DRILL MOD DESC
 HPTY.       Minimum Curvature:  HOLE POS TYPE
 NREF.                    Grid:  NORTH REFERENCE
 SPUD.               28-Jun-20:  SPUD DATE
 DATE.      18.27.12 28-Jun-20:  END TIME
 STIM.      18.27.12 28-Jun-20:  START TIME
 DMF .             Drill Floor:  DRILL MEAS FROM
 DFST.                        :  DIST FSL TEXT
 DFWT.                        :  DIST FWL TEXT
 CNTY.                        :  COUNTY
 LOC .                        :  LOCATION
 LMF .             Drill Floor:  LOG MEASURED FROM
 VSNS.m                  -7.75:  VERT SEC N/S
 VSEW.m                  -9.19:  VERT SEC E/W
 MMDE.m                   0.00:  MAGUTM CALC DEP
 AGAP.m                  43.60:  AIR GAP
 DEP .m                4058.99:  DEPTH
 APD .m                  43.60:  DEPTH ABOVE PD
 WDMS.m                 151.80:  WD ELEV
 EGL .m                   0.00:  GROUND ELEVATION
 EPD .m                   0.00:  ELEVATION
 AZTC.deg                 6.19:  AZM TOTAL CORR
 GRDC.deg                 0.27:  GRID CORRECTION
 MDEC.deg                 6.46:  MAGNETIC DECL
 MDIP.deg                59.47:  MAGNETIC DIP
 MFLD.nT              50279.00:  MAGNETIC FIELD
 GVFD.g                   1.00:  GRAVITY FIELD
 VSDR.deg               249.96:  VERT SEC DIRECT
 TDD .m                   0.00:  TOTAL DEPTH (DRILLER)
 SDEP.m                   0.00:  START DEPTH
 DFSL.m                   0.00:  DISTANCE FSL
 DFWL.m                   0.00:  DISTANCE FWL
 UTMY.m             4431880.20:  UTM Y
 UTMX.m              538763.98:  UTM X
 WHEW.m                  -9.19:  WELL HEAD E/W
 WHNS.m                  -7.75:  WELL HEAD N/S
 LONG.deg                51.45:  LONGITUDE
 LATI.deg                40.02:  LATITUDE
 TVDS.m                  43.60:  TVDSS CORRECTN
 EKB .m                  43.60:  KB ELEVATION
 EDF .m                  43.60:  DF ELEVATION
 TDL .m                 248.00:  TOTAL DEPTH (LOGGER)
 MAGU.                 1849075:  MAGUTM CHECKSUM
 VSC .                       0:  VS TO CLOSURE
~Parameter Information Block
#MNEM.UNIT       Value        Description
#---------     -----------    ---------------------------
 AV  .mps                 6.34:  Ann Velocity 
 AVMX.mps                 7.00:  Max Ann Veloc 
 AZIF.deg               260.29:  Azm, Final 
 BHAT.        Rotary Steerable:  BHA Type 
 BROT.°/30m               1.20:  Build Rotating 
 BS  .in                  8.50:  Bit Size 
 BSZ .in                  8.50:  Bit Size 
 BTPL.psig              620.00:  Bit Press Loss 
 CABU.                     Yes:  Customer Abuse 
 COMM.                     Ì>`:  Run Comments 1 
 TCS .hr                 56.22:  Time Ciculation Ended 
 CV  .mps                 3.05:  Crit Velocity 
 CVMX.mps                 3.20:  Max Crit Veloc 
 DD1 .            Musa Ahmadov:  Direct Drillr 1 
 DDSV.                 iCruise:  DD Service 
 DEFF.%                  98.00:  % Det Eff 
 DLRX.°/30m               2.78:  Dogleg Rot Max 
 DLSO.°/30m               0.00:  Dogleg Oriented 
 DLSX.°/30m               0.00:  Dogleg Str Max 
 DRET.      05.20.48 16-Jul-20:  Drill End Time 
 DRST.      10.20.48 13-Jul-20:  Drill Start Tim 
 DTIM.hr                 14.25:  Time Drilling 
 EDEP.m                4326.01:  End Depth 
 ENG1.      Artemiy Matviyanov:  Engineer 1 
 ENG2.           Amrah Tahirov:  Engineer 2 
 ETIM.      22.30.00 18-Jul-20:  End Time 
 FLOI.gpm               550.00:  Flow In 
 FLON.gpm               450.00:  Flow In Min 
 FLOS.cptm                0.00:  Fluid Loss 
 FLOX.gpm               600.00:  Flow In Max 
 HFLO.                      No:  High Flow 
 HPRE.                      No:  High Pressure 
 HTEM.                      No:  High Temp 
 HYDO.m                   1.80:  Hydro Offset 
 IFIN.deg                65.41:  Inc, Final 
 IMAX.deg                65.14:  Inc Max 
 IMIN.deg                58.89:  Inc Min 
 IMND.m                4104.92:  Inc Min Depth 
 IMXD.m                4303.89:  Inc Max Depth 
 JARR.                      No:  Jarring 
 LETM.      10.20.48 17-Jul-20:  Log End Time 
 LOST.hr                     0:  Lost Rig Time 
 LSTM.      10.20.48 13-Jul-20:  Log Start Time 
 MDCL.ppm             37000.00:  Mud Chlorides 
 MDES.     Inversion Oil/Synthetic:  Mud Desc 
 DFD .sg                  1.52:  Mud Density 
 MDMN.sg                  1.52:  Dens Mud Min 
 MDMX.sg                  1.52:  Dens Mud Max 
 MOIL.                   52.70:  Run Mud Oil % 
 MOWR.                   68:32:  Run Mud OWR 
 MSND.                     0.2:  Run Mud Sand % 
 MSOL.                    21.6:  Run Mud Solids% 
 DFV .spqt               79.00:  Mud Viscosity 
 MWOD.in                  6.75:  MWD Tool OD 
 MWSI.                      No:  Serv Intrp, MWD 
 OTIM.hr                114.04:  Time Operating 
 PCON.          Wear / Scratch:  Pad Condition 
 PMAX.psia            11782.92:  Press Op, Max 
 PV  .cP                 49.00:  Mud PV 
 RUN .                     600:  Run Number 
 ROPA.m/hr               20.00:  ROP Avg 
 ROPN.m/hr               15.00:  ROP Min 
 ROPX.m/hr               22.00:  ROP Max 
 RPMA.rpm               120.00:  RPM Surface Avg 
 RPMN.rpm                90.00:  RPM Surface Min 
 RPMX.rpm               140.00:  RPM Surface Max 
 RRUN.                     600:  Rig Run Number 
 SAZI.deg               260.29:  Azm, Start 
 SDEP.m                4078.01:  Start Depth 
 SIDD.                      No:  Serv Intrp, DD 
 SINC.deg                58.89:  Inc, Start 
 SPPA.psig             4560.00:  SPP Avg 
 SPPN.psig             3600.00:  SPP Min 
 SPPX.psig             4800.00:  SPP Max 
 STIM.      10.20.48 13-Jul-20:  Start Time 
 SVCS.                 DD, MWD:  Services 
 SVER.                    9.20:  Sperry Version 
 TDAT.m                4378.01:  Tot Depth Attmp 
 TDDF.                      No:  Trip for DD 
 TDLG.m                 248.00:  Tot Depth Loggd 
 TFF .                      No:  Trip for Fail 
 TQAA.f-kp               18.00:  Torque Abs Avg 
 TQAN.f-kp               15.00:  Torque Abs Min 
 TQAX.f-kp               20.00:  Torque Abs Max 
 TRRT.°/30m               0.70:  Turn Rotating 
 MRT .                    HCIM:  Maximum Recorded Temperature 
 TTMX.degC               86.00:  Max Tool Temp 
 WBMN.klb                 3.00:  WOB Min 
 WOBA.klb                 5.00:  WOB Avg 
 WOBX.klb                 9.00:  WOB Max 
 YP  .lhf2               32.00:  Yield Point 
~Curve Information Block
#MNEM.UNIT                 API CODE     Curve Description
#---------               -----------    ---------------------------
 TIME.HHMMSS            00 000 000 000:  GT Time & Date
 GTDEPTH.m              00 000 000 000:  GT Depth
 GTPQH.psia             00 000 000 000:  GT HR Quartz Pressure
 GTTQ.degC              00 000 000 000:  GT Quartz Temperature
 GTTN.NONE              00 000 000 000:  GT Test Number
 GTET.sec               00 000 000 000:  GT Elapsed Test Time
 GTTVD.m                00 000 000 000:  GT True Vertical Depth
#Other Information
#
#WARRANTY: Halliburton will use its best efforts to furnish customers with 
#accurate information and interpretations that are part of, and incident to, the services 
#provided.  However, Halliburton cannot and does not warrant the accuracy 
#or correctness of such information and interpretations.  Under no circumstances should any 
#such information or interpretation be relied upon as the sole basis for any drilling, 
#completion, production, or financial decision or any procedure involving any risk to the 
#safety of any drilling venture, drilling rig or its crew or any other third party.  The 
#Customer has full responsibility for all drilling, completion and production operation.  
#Halliburton makes no representations or warranties, either expressed or 
#implied, including, but not limited to, the implied warranties of merchantability or fitness 
#for a particular purpose, with respect to the services rendered.  In no event will 
#Halliburton be liable for failure to obtain any particular results or for 
#any damages, including, but not limited to, indirect, special or consequential damages, 
#resulting from the use of any information or interpretation provided by Halliburton.
#
~A           TIME           GTDEPTH  GTPQH  GTTQ  GTTN  GTET   GTTVD  
# ...
   18:41:38.590.16-Jul-2020 4198.01 4795.96 79.29 5.00 321.88 2828.58
   18:41:38.790.16-Jul-2020 4198.01 4795.96 79.29 5.00 322.08 2828.58
   18:41:38.990.16-Jul-2020 4198.01 4795.74 79.29 5.00 322.28 2828.58
   18:41:39.190.16-Jul-2020 4198.01 4795.73 79.29 5.00 322.48 2828.58
   18:41:39.390.16-Jul-2020 4198.01 4795.87 79.29 5.00 322.68 2828.58
   18:41:39.590.16-Jul-2020 4198.01 4795.82 79.29 5.00 322.88 2828.58
   18:41:39.790.16-Jul-2020 4198.01 4795.75 79.29 5.00 323.08 2828.58
   18:41:39.989.16-Jul-2020 4198.01 4795.95 79.29 5.00 323.28 2828.58
   18:41:40.189.16-Jul-2020 4198.01 4795.79 79.29 5.00 323.48 2828.58
   18:41:40.389.16-Jul-2020 4198.01 4795.81 79.29 5.00 323.68 2828.58
   18:41:40.589.16-Jul-2020 4198.01 4795.90 79.29 5.00 323.88 2828.58
   18:41:40.789.16-Jul-2020 4198.01 4795.90 79.29 5.00 324.08 2828.58
   18:41:40.989.16-Jul-2020 4198.01 4795.93 79.29 5.00 324.28 2828.58
   18:41:41.189.16-Jul-2020 4198.01 4795.83 79.29 5.00 324.48 2828.58
   18:41:41.389.16-Jul-2020 4198.01 4795.79 79.29 5.00 324.68 2828.58
   18:41:41.589.16-Jul-2020 4198.01 4795.72 79.29 5.00 324.88 2828.58
   18:41:41.789.16-Jul-2020 4198.01 4795.96 79.29 5.00 325.08 2828.58
   18:41:41.989.16-Jul-2020 4198.01 4796.10 79.29 5.00 325.28 2828.58
   18:41:42.189.16-Jul-2020 4198.01 4795.72 79.29 5.00 325.48 2828.58
   18:41:42.389.16-Jul-2020 4198.01 4795.81 79.29 5.00 325.68 2828.58
   18:41:42.588.16-Jul-2020 4198.01 4795.81 79.29 5.00 325.88 2828.58
   18:41:42.788.16-Jul-2020 4198.01 4795.58 79.29 5.00 326.08 2828.58
   18:41:42.988.16-Jul-2020 4198.01 4795.88 79.29 5.00 326.28 2828.58
   18:41:43.188.16-Jul-2020 4198.01 4796.07 79.29 5.00 326.48 2828.58
   18:41:43.388.16-Jul-2020 4198.01 4795.82 79.29 5.00 326.68 2828.58
   18:41:43.588.16-Jul-2020 4198.01 4795.75 79.29 5.00 326.88 2828.58
   18:41:43.788.16-Jul-2020 4198.01 4795.92 79.29 5.00 327.08 2828.58
   18:41:43.988.16-Jul-2020 4198.01 4795.84 79.29 5.00 327.28 2828.58
   18:41:44.188.16-Jul-2020 4198.01 4796.11 79.29 5.00 327.48 2828.58
   18:41:44.388.16-Jul-2020 4198.01 4795.74 79.29 5.00 327.68 2828.58
   18:41:44.588.16-Jul-2020 4198.01 4795.60 79.29 5.00 327.88 2828.58
   18:41:44.788.16-Jul-2020 4198.01 4795.60 79.29 5.00 328.08 2828.58
   18:41:44.988.16-Jul-2020 4198.01 4795.83 79.29 5.00 328.28 2828.58
   18:41:45.187.16-Jul-2020 4198.01 4795.89 79.29 5.00 328.48 2828.58
   18:41:45.387.16-Jul-2020 4198.01 4795.79 79.29 5.00 328.68 2828.58
   18:41:45.587.16-Jul-2020 4198.01 4795.85 79.29 5.00 328.88 2828.58
   18:41:45.787.16-Jul-2020 4198.01 4795.85 79.29 5.00 329.08 2828.58
   18:41:45.987.16-Jul-2020 4198.01 4795.77 79.29 5.00 329.28 2828.58
   18:41:46.187.16-Jul-2020 4198.01 4795.95 79.29 5.00 329.48 2828.58
   18:41:46.387.16-Jul-2020 4198.01 4795.78 79.29 5.00 329.68 2828.58
   18:41:46.587.16-Jul-2020 4198.01 4795.83 79.29 5.00 329.88 2828.58
   18:41:46.787.16-Jul-2020 4198.01 4795.73 79.29 5.00 330.08 2828.58
   18:41:46.987.16-Jul-2020 4198.01 4795.98 79.29 5.00 330.28 2828.58
   18:41:47.187.16-Jul-2020 4198.01 4795.58 79.29 5.00 330.48 2828.58
   18:41:47.387.16-Jul-2020 4198.01 4795.97 79.29 5.00 330.68 2828.58
   18:41:47.587.16-Jul-2020 4198.01 4796.07 79.29 5.00 330.88 2828.58
   18:41:47.787.16-Jul-2020 4198.01 4796.07 79.29 5.00 331.08 2828.58
   18:41:47.986.16-Jul-2020 4198.01 4795.76 79.29 5.00 331.28 2828.58
   18:41:48.186.16-Jul-2020 4198.01 4795.81 79.29 5.00 331.48 2828.58
   18:41:48.386.16-Jul-2020 4198.01 4795.97 79.29 5.00 331.68 2828.58
   18:41:48.586.16-Jul-2020 4198.01 4795.79 79.29 5.00 331.88 2828.58
   18:41:48.786.16-Jul-2020 4198.01 4795.79 79.29 5.00 332.08 2828.58
   18:41:48.986.16-Jul-2020 4198.01 4795.84 79.29 5.00 332.28 2828.58
   18:41:49.186.16-Jul-2020 4198.01 4795.89 79.29 5.00 332.48 2828.58
   18:41:49.386.16-Jul-2020 4198.01 4795.89 79.29 5.00 332.68 2828.58
   18:41:49.586.16-Jul-2020 4198.01 4795.84 79.29 5.00 332.88 2828.58
   18:41:49.786.16-Jul-2020 4198.01 4795.88 79.29 5.00 333.07 2828.58
   18:41:49.986.16-Jul-2020 4198.01 4795.80 79.29 5.00 333.27 2828.58
   18:41:50.186.16-Jul-2020 4198.01 4795.85 79.29 5.00 333.47 2828.58
   18:41:50.386.16-Jul-2020 4198.01 4795.59 79.29 5.00 333.67 2828.58
   18:41:50.585.16-Jul-2020 4198.01 4795.95 79.29 5.00 333.87 2828.58
   18:41:50.785.16-Jul-2020 4198.01 4796.14 79.29 5.00 334.07 2828.58
   18:41:50.985.16-Jul-2020 4198.01 4795.85 79.29 5.00 334.27 2828.58
   18:41:51.185.16-Jul-2020 4198.01 4795.67 79.29 5.00 334.47 2828.58
   18:41:51.385.16-Jul-2020 4198.01 4795.86 79.29 5.00 334.67 2828.58
   18:41:51.585.16-Jul-2020 4198.01 4795.99 79.29 5.00 334.87 2828.58
   18:41:51.785.16-Jul-2020 4198.01 4795.99 79.29 5.00 335.07 2828.58
   18:41:51.985.16-Jul-2020 4198.01 4795.94 79.29 5.00 335.27 2828.58
   18:41:52.185.16-Jul-2020 4198.01 4796.01 79.29 5.00 335.47 2828.58
   18:41:52.385.16-Jul-2020 4198.01 4795.79 79.29 5.00 335.67 2828.58
   18:41:52.585.16-Jul-2020 4198.01 4795.59 79.29 5.00 335.87 2828.58
   18:41:52.785.16-Jul-2020 4198.01 4795.59 79.29 5.00 336.07 2828.58
   18:41:52.985.16-Jul-2020 4198.01 4795.96 79.29 5.00 336.27 2828.58
   18:41:53.184.16-Jul-2020 4198.01 4795.70 79.29 5.00 336.47 2828.58
   18:41:53.384.16-Jul-2020 4198.01 4795.90 79.29 5.00 336.67 2828.58
   18:41:53.584.16-Jul-2020 4198.01 4795.98 79.29 5.00 336.87 2828.58
   18:41:53.784.16-Jul-2020 4198.01 4795.73 79.29 5.00 337.07 2828.58
   18:41:53.984.16-Jul-2020 4198.01 4795.85 79.29 5.00 337.27 2828.58
   18:41:54.184.16-Jul-2020 4198.01 4796.10 79.29 5.00 337.47 2828.58
   18:41:54.384.16-Jul-2020 4198.01 4795.75 79.29 5.00 337.67 2828.58
   18:41:54.584.16-Jul-2020 4198.01 4795.85 79.29 5.00 337.87 2828.58
   18:41:54.784.16-Jul-2020 4198.01 4795.91 79.29 5.00 338.07 2828.58
   18:41:54.984.16-Jul-2020 4198.01 4795.78 79.29 5.00 338.27 2828.58
   18:41:55.184.16-Jul-2020 4198.01 4795.93 79.29 5.00 338.47 2828.58
   18:41:55.384.16-Jul-2020 4198.01 4795.80 79.29 5.00 338.67 2828.58
   18:41:55.584.16-Jul-2020 4198.01 4795.89 79.29 5.00 338.87 2828.58
   18:41:55.784.16-Jul-2020 4198.01 4795.89 79.29 5.00 339.07 2828.58
   18:41:55.983.16-Jul-2020 4198.01 4796.01 79.29 5.00 339.27 2828.58
   18:41:56.183.16-Jul-2020 4198.01 4795.60 79.29 5.00 339.47 2828.58
   18:41:56.383.16-Jul-2020 4198.01 4795.96 79.29 5.00 339.67 2828.58
   18:41:56.583.16-Jul-2020 4198.01 4795.99 79.29 5.00 339.87 2828.58
   18:41:56.783.16-Jul-2020 4198.01 4795.99 79.29 5.00 340.07 2828.58
   18:41:56.983.16-Jul-2020 4198.01 4796.02 79.29 5.00 340.27 2828.58
   18:41:57.183.16-Jul-2020 4198.01 4795.85 79.29 5.00 340.47 2828.58
   18:41:57.383.16-Jul-2020 4198.01 4795.84 79.29 5.00 340.67 2828.58
   18:41:57.583.16-Jul-2020 4198.01 4795.85 79.29 5.00 340.87 2828.58
   18:41:57.783.16-Jul-2020 4198.01 4795.85 79.29 5.00 341.07 2828.58
   18:41:57.983.16-Jul-2020 4198.01 4795.89 79.29 5.00 341.27 2828.58
   18:41:58.183.16-Jul-2020 4198.01 4795.72 79.29 5.00 341.47 2828.58
   18:41:58.383.16-Jul-2020 4198.01 4796.04 79.29 5.00 341.67 2828.58
   18:41:58.582.16-Jul-2020 4198.01 4795.82 79.29 5.00 341.87 2828.58
   18:41:58.782.16-Jul-2020 4198.01 4795.81 79.29 5.00 342.07 2828.58
   18:41:58.982.16-Jul-2020 4198.01 4795.94 79.29 5.00 342.27 2828.58
   18:41:59.182.16-Jul-2020 4198.01 4795.73 79.29 5.00 342.47 2828.58
   18:41:59.382.16-Jul-2020 4198.01 4795.68 79.29 5.00 342.67 2828.58
   18:41:59.582.16-Jul-2020 4198.01 4796.05 79.29 5.00 342.87 2828.58
   18:41:59.782.16-Jul-2020 4198.01 4796.05 79.29 5.00 343.07 2828.58
   18:41:59.982.16-Jul-2020 4198.01 4795.83 79.29 5.00 343.27 2828.58
   18:42:00.182.16-Jul-2020 4198.01 4795.86 79.29 5.00 343.47 2828.58
   18:42:00.382.16-Jul-2020 4198.01 4795.90 79.29 5.00 343.67 2828.58
   18:42:00.582.16-Jul-2020 4198.01 4795.70 79.29 5.00 343.87 2828.58
   18:42:00.782.16-Jul-2020 4198.01 4795.70 79.29 5.00 344.07 2828.58
   18:42:00.982.16-Jul-2020 4198.01 4795.90 79.29 5.00 344.27 2828.58
   18:42:01.181.16-Jul-2020 4198.01 4795.86 79.29 5.00 344.47 2828.58
   18:42:01.381.16-Jul-2020 4198.01 4795.96 79.29 5.00 344.67 2828.58
