~Version Information
 VERS.                  2.0:   CWLS log ASCII Standard -VERSION 2.0
 WRAP.                   NO:   One line per depth step
~Well Information Block
#MNEM.UNIT     VALUE/NAME     DESCRIPTION
#---------     -----------    ---------------------------
 STRT.S             17:17:21 16-Jul-20: START TIME 17:17:21 16-Jul-20
 STOP.S             17:24:07 16-Jul-20: STOP TIME  17:24:07 16-Jul-20
 STEP.S                   0.00: STEP TIME
 NULL.                 -999.25: NULL VALUE
 MDS .        Operator Entered:  MAG DATA SOURCE
 UNIT.                     N/A:  LOGGING EQUIPMENT ID
 DCON.         Sperry Drilling:  DIRECTNL CONTR
 DOE .                     N/A:  DOE NUMBER
 RIG .               EastAzeri:  RIG NAME
 JOBN.        AZ-XX-0906363297:  JOB TICKET NUMB
 MWDS.                    Baku:  MWD SHOP
 SRVC.     Turan Drilling & Engineering:  CONTRACTOR
 PROV.                    Baku:  PROVINCE
 STAT.                    Baku:  STATE NAME
 REGN.                   EESSA:  REGION
 BASE.              Azerbaijan:  LOGGING EQUIPMENT BASE LOCATION
 WTYP.                Deviated:  WELL TYPE
 UWI .                     N/A:  UNIQUE WELL IDENTIFIER
 API .                     N/A:  API NUMBER
 COMP.     BP Exploration (Caspian Sea) ltd.:  COMPANY
 WELL.                    D07z:  WELL NAME
 CTRY.              Azerbaijan:  COUNTRY NAME
 SON .        AZ-XX-0906363297:  JOB NUMBER
 FLD .                     ACG:  FIELD NAME
 PDAT.          Mean Sea Level:  PERMANENT DATUM
 FTOP.          Formation Tops:  FORM TOPS DESC
 ILTD.               Lithology:  INTERP LTH DESC
 SVYD.                  Survey:  SURVEY DESC
 DMOD.             Drill Model:  DRILL MOD DESC
 HPTY.       Minimum Curvature:  HOLE POS TYPE
 NREF.                    Grid:  NORTH REFERENCE
 SPUD.               28-Jun-20:  SPUD DATE
 DATE.      18.27.12 28-Jun-20:  END TIME
 STIM.      18.27.12 28-Jun-20:  START TIME
 DMF .             Drill Floor:  DRILL MEAS FROM
 DFST.                        :  DIST FSL TEXT
 DFWT.                        :  DIST FWL TEXT
 CNTY.                        :  COUNTY
 LOC .                        :  LOCATION
 LMF .             Drill Floor:  LOG MEASURED FROM
 VSNS.m                  -7.75:  VERT SEC N/S
 VSEW.m                  -9.19:  VERT SEC E/W
 MMDE.m                   0.00:  MAGUTM CALC DEP
 AGAP.m                  43.60:  AIR GAP
 DEP .m                4058.99:  DEPTH
 APD .m                  43.60:  DEPTH ABOVE PD
 WDMS.m                 151.80:  WD ELEV
 EGL .m                   0.00:  GROUND ELEVATION
 EPD .m                   0.00:  ELEVATION
 AZTC.deg                 6.19:  AZM TOTAL CORR
 GRDC.deg                 0.27:  GRID CORRECTION
 MDEC.deg                 6.46:  MAGNETIC DECL
 MDIP.deg                59.47:  MAGNETIC DIP
 MFLD.nT              50279.00:  MAGNETIC FIELD
 GVFD.g                   1.00:  GRAVITY FIELD
 VSDR.deg               249.96:  VERT SEC DIRECT
 TDD .m                   0.00:  TOTAL DEPTH (DRILLER)
 SDEP.m                   0.00:  START DEPTH
 DFSL.m                   0.00:  DISTANCE FSL
 DFWL.m                   0.00:  DISTANCE FWL
 UTMY.m             4431880.20:  UTM Y
 UTMX.m              538763.98:  UTM X
 WHEW.m                  -9.19:  WELL HEAD E/W
 WHNS.m                  -7.75:  WELL HEAD N/S
 LONG.deg                51.45:  LONGITUDE
 LATI.deg                40.02:  LATITUDE
 TVDS.m                  43.60:  TVDSS CORRECTN
 EKB .m                  43.60:  KB ELEVATION
 EDF .m                  43.60:  DF ELEVATION
 TDL .m                 248.00:  TOTAL DEPTH (LOGGER)
 MAGU.                 1849075:  MAGUTM CHECKSUM
 VSC .                       0:  VS TO CLOSURE
~Parameter Information Block
#MNEM.UNIT       Value        Description
#---------     -----------    ---------------------------
 AV  .mps                 6.34:  Ann Velocity 
 AVMX.mps                 7.00:  Max Ann Veloc 
 AZIF.deg               260.29:  Azm, Final 
 BHAT.        Rotary Steerable:  BHA Type 
 BROT.°/30m               1.20:  Build Rotating 
 BS  .in                  8.50:  Bit Size 
 BSZ .in                  8.50:  Bit Size 
 BTPL.psig              620.00:  Bit Press Loss 
 CABU.                     Yes:  Customer Abuse 
 COMM.                     fb:  Run Comments 1 
 TCS .hr                 56.22:  Time Ciculation Ended 
 CV  .mps                 3.05:  Crit Velocity 
 CVMX.mps                 3.20:  Max Crit Veloc 
 DD1 .            Musa Ahmadov:  Direct Drillr 1 
 DDSV.                 iCruise:  DD Service 
 DEFF.%                  98.00:  % Det Eff 
 DLRX.°/30m               2.78:  Dogleg Rot Max 
 DLSO.°/30m               0.00:  Dogleg Oriented 
 DLSX.°/30m               0.00:  Dogleg Str Max 
 DRET.      05.20.48 16-Jul-20:  Drill End Time 
 DRST.      10.20.48 13-Jul-20:  Drill Start Tim 
 DTIM.hr                 14.25:  Time Drilling 
 EDEP.m                4326.01:  End Depth 
 ENG1.      Artemiy Matviyanov:  Engineer 1 
 ENG2.           Amrah Tahirov:  Engineer 2 
 ETIM.      22.30.00 18-Jul-20:  End Time 
 FLOI.gpm               550.00:  Flow In 
 FLON.gpm               450.00:  Flow In Min 
 FLOS.cptm                0.00:  Fluid Loss 
 FLOX.gpm               600.00:  Flow In Max 
 HFLO.                      No:  High Flow 
 HPRE.                      No:  High Pressure 
 HTEM.                      No:  High Temp 
 HYDO.m                   1.80:  Hydro Offset 
 IFIN.deg                65.41:  Inc, Final 
 IMAX.deg                65.14:  Inc Max 
 IMIN.deg                58.89:  Inc Min 
 IMND.m                4104.92:  Inc Min Depth 
 IMXD.m                4303.89:  Inc Max Depth 
 JARR.                      No:  Jarring 
 LETM.      10.20.48 17-Jul-20:  Log End Time 
 LOST.hr                     0:  Lost Rig Time 
 LSTM.      10.20.48 13-Jul-20:  Log Start Time 
 MDCL.ppm             37000.00:  Mud Chlorides 
 MDES.     Inversion Oil/Synthetic:  Mud Desc 
 DFD .sg                  1.52:  Mud Density 
 MDMN.sg                  1.52:  Dens Mud Min 
 MDMX.sg                  1.52:  Dens Mud Max 
 MOIL.                   52.70:  Run Mud Oil % 
 MOWR.                   68:32:  Run Mud OWR 
 MSND.                     0.2:  Run Mud Sand % 
 MSOL.                    21.6:  Run Mud Solids% 
 DFV .spqt               79.00:  Mud Viscosity 
 MWOD.in                  6.75:  MWD Tool OD 
 MWSI.                      No:  Serv Intrp, MWD 
 OTIM.hr                114.04:  Time Operating 
 PCON.          Wear / Scratch:  Pad Condition 
 PMAX.psia            11782.92:  Press Op, Max 
 PV  .cP                 49.00:  Mud PV 
 RUN .                     600:  Run Number 
 ROPA.m/hr               20.00:  ROP Avg 
 ROPN.m/hr               15.00:  ROP Min 
 ROPX.m/hr               22.00:  ROP Max 
 RPMA.rpm               120.00:  RPM Surface Avg 
 RPMN.rpm                90.00:  RPM Surface Min 
 RPMX.rpm               140.00:  RPM Surface Max 
 RRUN.                     600:  Rig Run Number 
 SAZI.deg               260.29:  Azm, Start 
 SDEP.m                4078.01:  Start Depth 
 SIDD.                      No:  Serv Intrp, DD 
 SINC.deg                58.89:  Inc, Start 
 SPPA.psig             4560.00:  SPP Avg 
 SPPN.psig             3600.00:  SPP Min 
 SPPX.psig             4800.00:  SPP Max 
 STIM.      10.20.48 13-Jul-20:  Start Time 
 SVCS.                 DD, MWD:  Services 
 SVER.                    9.20:  Sperry Version 
 TDAT.m                4378.01:  Tot Depth Attmp 
 TDDF.                      No:  Trip for DD 
 TDLG.m                 248.00:  Tot Depth Loggd 
 TFF .                      No:  Trip for Fail 
 TQAA.f-kp               18.00:  Torque Abs Avg 
 TQAN.f-kp               15.00:  Torque Abs Min 
 TQAX.f-kp               20.00:  Torque Abs Max 
 TRRT.°/30m               0.70:  Turn Rotating 
 MRT .                    HCIM:  Maximum Recorded Temperature 
 TTMX.degC               86.00:  Max Tool Temp 
 WBMN.klb                 3.00:  WOB Min 
 WOBA.klb                 5.00:  WOB Avg 
 WOBX.klb                 9.00:  WOB Max 
 YP  .lhf2               32.00:  Yield Point 
~Curve Information Block
#MNEM.UNIT                 API CODE     Curve Description
#---------               -----------    ---------------------------
 TIME.HHMMSS            00 000 000 000:  GT Time & Date
 GTDEPTH.m              00 000 000 000:  GT Depth
 GTPQH.psia             00 000 000 000:  GT HR Quartz Pressure
 GTTQ.degC              00 000 000 000:  GT Quartz Temperature
 GTTN.NONE              00 000 000 000:  GT Test Number
 GTET.sec               00 000 000 000:  GT Elapsed Test Time
 GTTVD.m                00 000 000 000:  GT True Vertical Depth
#Other Information
#
#WARRANTY: Halliburton will use its best efforts to furnish customers with 
#accurate information and interpretations that are part of, and incident to, the services 
#provided.  However, Halliburton cannot and does not warrant the accuracy 
#or correctness of such information and interpretations.  Under no circumstances should any 
#such information or interpretation be relied upon as the sole basis for any drilling, 
#completion, production, or financial decision or any procedure involving any risk to the 
#safety of any drilling venture, drilling rig or its crew or any other third party.  The 
#Customer has full responsibility for all drilling, completion and production operation.  
#Halliburton makes no representations or warranties, either expressed or 
#implied, including, but not limited to, the implied warranties of merchantability or fitness 
#for a particular purpose, with respect to the services rendered.  In no event will 
#Halliburton be liable for failure to obtain any particular results or for 
#any damages, including, but not limited to, indirect, special or consequential damages, 
#resulting from the use of any information or interpretation provided by Halliburton.
#
~A           TIME           GTDEPTH  GTPQH  GTTQ  GTTN  GTET   GTTVD  
   17:17:21.647.16-Jul-2020 4251.01 6967.66 79.94 3.00   0.00 2851.33
   17:17:21.847.16-Jul-2020 4251.01 6967.66 79.94 3.00   0.20 2851.33
   17:17:22.047.16-Jul-2020 4251.01 6968.97 79.93 3.00   0.40 2851.33
   17:17:22.247.16-Jul-2020 4251.01 6968.38 79.93 3.00   0.60 2851.33
   17:17:22.447.16-Jul-2020 4251.01 6967.56 79.93 3.00   0.80 2851.33
   17:17:22.647.16-Jul-2020 4251.01 6968.29 79.93 3.00   1.00 2851.33
   17:17:22.847.16-Jul-2020 4251.01 6968.87 79.93 3.00   1.20 2851.33
   17:17:23.047.16-Jul-2020 4251.01 6969.13 79.93 3.00   1.40 2851.33
   17:17:23.247.16-Jul-2020 4251.01 6983.08 79.93 3.00   1.60 2851.33
   17:17:23.447.16-Jul-2020 4251.01 6967.86 79.93 3.00   1.80 2851.33
   17:17:23.647.16-Jul-2020 4251.01 6969.10 79.93 3.00   2.00 2851.33
   17:17:23.847.16-Jul-2020 4251.01 6969.10 79.93 3.00   2.20 2851.33
   17:17:24.047.16-Jul-2020 4251.01 6969.10 79.93 3.00   2.40 2851.33
   17:17:24.248.16-Jul-2020 4251.01 6976.15 79.93 3.00   2.60 2851.33
   17:17:24.448.16-Jul-2020 4251.01 6977.18 79.93 3.00   2.80 2851.33
   17:17:24.648.16-Jul-2020 4251.01 6979.45 79.93 3.00   3.00 2851.33
   17:17:24.848.16-Jul-2020 4251.01 6979.45 79.93 3.00   3.20 2851.33
   17:17:25.048.16-Jul-2020 4251.01 6979.81 79.93 3.00   3.40 2851.33
   17:17:25.248.16-Jul-2020 4251.01 6977.39 79.93 3.00   3.60 2851.33
   17:17:25.448.16-Jul-2020 4251.01 6978.88 79.93 3.00   3.80 2851.33
   17:17:25.648.16-Jul-2020 4251.01 6987.82 79.93 3.00   4.00 2851.33
   17:17:25.848.16-Jul-2020 4251.01 6987.82 79.93 3.00   4.20 2851.33
   17:17:26.048.16-Jul-2020 4251.01 6976.55 79.93 3.00   4.40 2851.33
   17:17:26.248.16-Jul-2020 4251.01 6978.91 79.93 3.00   4.60 2851.33
   17:17:26.448.16-Jul-2020 4251.01 6982.68 79.93 3.00   4.80 2851.33
   17:17:26.648.16-Jul-2020 4251.01 6993.04 79.93 3.00   5.00 2851.33
   17:17:26.848.16-Jul-2020 4251.01 6977.44 79.93 3.00   5.20 2851.33
   17:17:27.048.16-Jul-2020 4251.01 6982.13 79.93 3.00   5.40 2851.33
   17:17:27.248.16-Jul-2020 4251.01 6990.85 79.93 3.00   5.60 2851.33
   17:17:27.448.16-Jul-2020 4251.01 6986.47 79.93 3.00   5.80 2851.33
   17:17:27.648.16-Jul-2020 4251.01 6983.30 79.93 3.00   6.00 2851.33
   17:17:27.848.16-Jul-2020 4251.01 6983.30 79.93 3.00   6.20 2851.33
   17:17:28.048.16-Jul-2020 4251.01 6990.84 79.93 3.00   6.40 2851.33
   17:17:28.248.16-Jul-2020 4251.01 6987.00 79.93 3.00   6.60 2851.33
   17:17:28.448.16-Jul-2020 4251.01 6988.85 79.93 3.00   6.80 2851.33
   17:17:28.648.16-Jul-2020 4251.01 7004.02 79.93 3.00   7.00 2851.33
   17:17:28.848.16-Jul-2020 4251.01 7004.02 79.93 3.00   7.20 2851.33
   17:17:29.049.16-Jul-2020 4251.01 6989.22 79.93 3.00   7.40 2851.33
   17:17:29.249.16-Jul-2020 4251.01 6996.66 79.93 3.00   7.60 2851.33
   17:17:29.449.16-Jul-2020 4251.01 6992.81 79.93 3.00   7.80 2851.33
   17:17:29.649.16-Jul-2020 4251.01 6989.24 79.93 3.00   8.00 2851.33
   17:17:29.849.16-Jul-2020 4251.01 6989.24 79.93 3.00   8.20 2851.33
   17:17:30.049.16-Jul-2020 4251.01 6994.07 79.93 3.00   8.40 2851.33
   17:17:30.249.16-Jul-2020 4251.01 6999.40 79.93 3.00   8.60 2851.33
   17:17:30.449.16-Jul-2020 4251.01 6993.48 79.93 3.00   8.80 2851.33
   17:17:30.649.16-Jul-2020 4251.01 6992.56 79.93 3.00   9.00 2851.33
   17:17:30.849.16-Jul-2020 4251.01 6994.39 79.93 3.00   9.20 2851.33
   17:17:31.049.16-Jul-2020 4251.01 7010.28 79.93 3.00   9.40 2851.33
   17:17:31.249.16-Jul-2020 4251.01 6991.33 79.93 3.00   9.60 2851.33
   17:17:31.449.16-Jul-2020 4251.01 6990.88 79.93 3.00   9.80 2851.33
   17:17:31.649.16-Jul-2020 4251.01 6995.85 79.93 3.00  10.00 2851.33
   17:17:31.849.16-Jul-2020 4251.01 6995.85 79.93 3.00  10.20 2851.33
   17:17:32.049.16-Jul-2020 4251.01 6993.83 79.93 3.00  10.40 2851.33
   17:17:32.249.16-Jul-2020 4251.01 6993.91 79.93 3.00  10.60 2851.33
   17:17:32.449.16-Jul-2020 4251.01 7008.44 79.93 3.00  10.80 2851.33
   17:17:32.649.16-Jul-2020 4251.01 6993.97 79.93 3.00  11.00 2851.33
   17:17:32.849.16-Jul-2020 4251.01 6993.97 79.93 3.00  11.20 2851.33
   17:17:33.049.16-Jul-2020 4251.01 6997.08 79.93 3.00  11.40 2851.33
   17:17:33.249.16-Jul-2020 4251.01 6998.06 79.93 3.00  11.60 2851.33
   17:17:33.449.16-Jul-2020 4251.01 6996.70 79.93 3.00  11.80 2851.33
   17:17:33.649.16-Jul-2020 4251.01 7003.21 79.93 3.00  12.00 2851.33
   17:17:33.850.16-Jul-2020 4251.01 7003.21 79.93 3.00  12.20 2851.33
   17:17:34.050.16-Jul-2020 4251.01 6997.90 79.93 3.00  12.40 2851.33
   17:17:34.250.16-Jul-2020 4251.01 7000.97 79.93 3.00  12.60 2851.33
   17:17:34.450.16-Jul-2020 4251.01 7001.40 79.93 3.00  12.80 2851.33
   17:17:34.650.16-Jul-2020 4251.01 6998.59 79.93 3.00  13.00 2851.33
   17:17:34.850.16-Jul-2020 4251.01 6999.33 79.93 3.00  13.20 2851.33
   17:17:35.050.16-Jul-2020 4251.01 7000.99 79.93 3.00  13.40 2851.33
   17:17:35.250.16-Jul-2020 4251.01 7000.22 79.93 3.00  13.60 2851.33
   17:17:35.450.16-Jul-2020 4251.01 6999.12 79.93 3.00  13.80 2851.33
   17:17:35.650.16-Jul-2020 4251.01 7000.57 79.93 3.00  14.00 2851.33
   17:17:35.850.16-Jul-2020 4251.01 7000.57 79.93 3.00  14.20 2851.33
   17:17:36.050.16-Jul-2020 4251.01 6999.22 79.93 3.00  14.40 2851.33
   17:17:36.250.16-Jul-2020 4251.01 7000.80 79.93 3.00  14.60 2851.33
   17:17:36.450.16-Jul-2020 4251.01 7000.71 79.93 3.00  14.80 2851.33
   17:17:36.650.16-Jul-2020 4251.01 7000.01 79.93 3.00  15.00 2851.33
   17:17:36.850.16-Jul-2020 4251.01 6999.90 79.93 3.00  15.20 2851.33
   17:17:37.050.16-Jul-2020 4251.01 7008.40 79.93 3.00  15.40 2851.33
   17:17:37.250.16-Jul-2020 4251.01 7002.69 79.93 3.00  15.60 2851.33
   17:17:37.450.16-Jul-2020 4251.01 7000.20 79.93 3.00  15.80 2851.33
   17:17:37.650.16-Jul-2020 4251.01 7002.80 79.93 3.00  16.00 2851.33
   17:17:37.850.16-Jul-2020 4251.01 7005.23 79.92 3.00  16.20 2851.33
   17:17:38.050.16-Jul-2020 4251.01 7002.98 79.92 3.00  16.40 2851.33
   17:17:38.250.16-Jul-2020 4251.01 7000.69 79.92 3.00  16.60 2851.33
   17:17:38.450.16-Jul-2020 4251.01 7001.72 79.92 3.00  16.80 2851.33
   17:17:38.650.16-Jul-2020 4251.01 7003.75 79.92 3.00  17.00 2851.33
   17:17:38.851.16-Jul-2020 4251.01 7004.02 79.92 3.00  17.20 2851.33
   17:17:39.051.16-Jul-2020 4251.01 7002.51 79.92 3.00  17.40 2851.33
   17:17:39.251.16-Jul-2020 4251.01 7002.67 79.92 3.00  17.60 2851.33
   17:17:39.451.16-Jul-2020 4251.01 7004.28 79.92 3.00  17.80 2851.33
   17:17:39.651.16-Jul-2020 4251.01 7003.94 79.92 3.00  18.00 2851.33
   17:17:39.851.16-Jul-2020 4251.01 7003.94 79.92 3.00  18.20 2851.33
   17:17:40.051.16-Jul-2020 4251.01 7004.11 79.92 3.00  18.40 2851.33
   17:17:40.251.16-Jul-2020 4251.01 7004.55 79.92 3.00  18.60 2851.33
   17:17:40.451.16-Jul-2020 4251.01 7016.96 79.92 3.00  18.80 2851.33
   17:17:40.651.16-Jul-2020 4251.01 7003.21 79.92 3.00  19.00 2851.33
   17:17:40.851.16-Jul-2020 4251.01 7006.99 79.92 3.00  19.20 2851.33
   17:17:41.051.16-Jul-2020 4251.01 7006.87 79.92 3.00  19.40 2851.33
   17:17:41.251.16-Jul-2020 4251.01 7006.70 79.92 3.00  19.60 2851.33
   17:17:41.451.16-Jul-2020 4251.01 7017.16 79.92 3.00  19.80 2851.33
   17:17:41.651.16-Jul-2020 4251.01 7004.00 79.92 3.00  20.00 2851.33
   17:17:41.851.16-Jul-2020 4251.01 7006.81 79.92 3.00  20.20 2851.33
   17:17:42.051.16-Jul-2020 4251.01 7008.74 79.92 3.00  20.40 2851.33
   17:17:42.251.16-Jul-2020 4251.01 7008.35 79.92 3.00  20.60 2851.33
   17:17:42.451.16-Jul-2020 4251.01 7020.66 79.92 3.00  20.80 2851.33
   17:17:42.651.16-Jul-2020 4251.01 7004.79 79.92 3.00  21.00 2851.33
   17:17:42.851.16-Jul-2020 4251.01 7005.80 79.92 3.00  21.20 2851.33
   17:17:43.051.16-Jul-2020 4251.01 7009.87 79.92 3.00  21.40 2851.33
   17:17:43.251.16-Jul-2020 4251.01 7009.87 79.92 3.00  21.60 2851.33
   17:17:43.451.16-Jul-2020 4251.01 7025.08 79.92 3.00  21.80 2851.33
   17:17:43.652.16-Jul-2020 4251.01 7004.78 79.92 3.00  22.00 2851.33
   17:17:43.852.16-Jul-2020 4251.01 7004.78 79.92 3.00  22.20 2851.33
   17:17:44.052.16-Jul-2020 4251.01 7018.44 79.92 3.00  22.40 2851.33
   17:17:44.252.16-Jul-2020 4251.01 7015.52 79.92 3.00  22.60 2851.33
   17:17:44.452.16-Jul-2020 4251.01 7011.24 79.92 3.00  22.80 2851.33
