~Version Information
 VERS.                  2.0:   CWLS log ASCII Standard -VERSION 2.0
 WRAP.                   NO:   One line per depth step
~Well Information Block
#MNEM.UNIT     VALUE/NAME     DESCRIPTION
#---------     -----------    ---------------------------
 STRT.S             18:36:16 16-Jul-20: START TIME 18:36:16 16-Jul-20
 STOP.S             18:43:12 16-Jul-20: STOP TIME  18:43:12 16-Jul-20
 STEP.S                   0.00: STEP TIME
 NULL.                 -999.25: NULL VALUE
 MDS .        Operator Entered:  MAG DATA SOURCE
 UNIT.                     N/A:  LOGGING EQUIPMENT ID
 DCON.         Sperry Drilling:  DIRECTNL CONTR
 DOE .                     N/A:  DOE NUMBER
 RIG .               EastAzeri:  RIG NAME
 JOBN.        AZ-XX-0906363297:  JOB TICKET NUMB
 MWDS.                    Baku:  MWD SHOP
 SRVC.     Turan Drilling & Engineering:  CONTRACTOR
 PROV.                    Baku:  PROVINCE
 STAT.                    Baku:  STATE NAME
 REGN.                   EESSA:  REGION
 BASE.              Azerbaijan:  LOGGING EQUIPMENT BASE LOCATION
 WTYP.                Deviated:  WELL TYPE
 UWI .                     N/A:  UNIQUE WELL IDENTIFIER
 API .                     N/A:  API NUMBER
 COMP.     BP Exploration (Caspian Sea) ltd.:  COMPANY
 WELL.                    D07z:  WELL NAME
 CTRY.              Azerbaijan:  COUNTRY NAME
 SON .        AZ-XX-0906363297:  JOB NUMBER
 FLD .                     ACG:  FIELD NAME
 PDAT.          Mean Sea Level:  PERMANENT DATUM
 FTOP.          Formation Tops:  FORM TOPS DESC
 ILTD.               Lithology:  INTERP LTH DESC
 SVYD.                  Survey:  SURVEY DESC
 DMOD.             Drill Model:  DRILL MOD DESC
 HPTY.       Minimum Curvature:  HOLE POS TYPE
 NREF.                    Grid:  NORTH REFERENCE
 SPUD.               28-Jun-20:  SPUD DATE
 DATE.      18.27.12 28-Jun-20:  END TIME
 STIM.      18.27.12 28-Jun-20:  START TIME
 DMF .             Drill Floor:  DRILL MEAS FROM
 DFST.                        :  DIST FSL TEXT
 DFWT.                        :  DIST FWL TEXT
 CNTY.                        :  COUNTY
 LOC .                        :  LOCATION
 LMF .             Drill Floor:  LOG MEASURED FROM
 VSNS.m                  -7.75:  VERT SEC N/S
 VSEW.m                  -9.19:  VERT SEC E/W
 MMDE.m                   0.00:  MAGUTM CALC DEP
 AGAP.m                  43.60:  AIR GAP
 DEP .m                4058.99:  DEPTH
 APD .m                  43.60:  DEPTH ABOVE PD
 WDMS.m                 151.80:  WD ELEV
 EGL .m                   0.00:  GROUND ELEVATION
 EPD .m                   0.00:  ELEVATION
 AZTC.deg                 6.19:  AZM TOTAL CORR
 GRDC.deg                 0.27:  GRID CORRECTION
 MDEC.deg                 6.46:  MAGNETIC DECL
 MDIP.deg                59.47:  MAGNETIC DIP
 MFLD.nT              50279.00:  MAGNETIC FIELD
 GVFD.g                   1.00:  GRAVITY FIELD
 VSDR.deg               249.96:  VERT SEC DIRECT
 TDD .m                   0.00:  TOTAL DEPTH (DRILLER)
 SDEP.m                   0.00:  START DEPTH
 DFSL.m                   0.00:  DISTANCE FSL
 DFWL.m                   0.00:  DISTANCE FWL
 UTMY.m             4431880.20:  UTM Y
 UTMX.m              538763.98:  UTM X
 WHEW.m                  -9.19:  WELL HEAD E/W
 WHNS.m                  -7.75:  WELL HEAD N/S
 LONG.deg                51.45:  LONGITUDE
 LATI.deg                40.02:  LATITUDE
 TVDS.m                  43.60:  TVDSS CORRECTN
 EKB .m                  43.60:  KB ELEVATION
 EDF .m                  43.60:  DF ELEVATION
 TDL .m                 248.00:  TOTAL DEPTH (LOGGER)
 MAGU.                 1849075:  MAGUTM CHECKSUM
 VSC .                       0:  VS TO CLOSURE
~Parameter Information Block
#MNEM.UNIT       Value        Description
#---------     -----------    ---------------------------
 AV  .mps                 6.34:  Ann Velocity 
 AVMX.mps                 7.00:  Max Ann Veloc 
 AZIF.deg               260.29:  Azm, Final 
 BHAT.        Rotary Steerable:  BHA Type 
 BROT.°/30m               1.20:  Build Rotating 
 BS  .in                  8.50:  Bit Size 
 BSZ .in                  8.50:  Bit Size 
 BTPL.psig              620.00:  Bit Press Loss 
 CABU.                     Yes:  Customer Abuse 
 COMM.                     Ì>`:  Run Comments 1 
 TCS .hr                 56.22:  Time Ciculation Ended 
 CV  .mps                 3.05:  Crit Velocity 
 CVMX.mps                 3.20:  Max Crit Veloc 
 DD1 .            Musa Ahmadov:  Direct Drillr 1 
 DDSV.                 iCruise:  DD Service 
 DEFF.%                  98.00:  % Det Eff 
 DLRX.°/30m               2.78:  Dogleg Rot Max 
 DLSO.°/30m               0.00:  Dogleg Oriented 
 DLSX.°/30m               0.00:  Dogleg Str Max 
 DRET.      05.20.48 16-Jul-20:  Drill End Time 
 DRST.      10.20.48 13-Jul-20:  Drill Start Tim 
 DTIM.hr                 14.25:  Time Drilling 
 EDEP.m                4326.01:  End Depth 
 ENG1.      Artemiy Matviyanov:  Engineer 1 
 ENG2.           Amrah Tahirov:  Engineer 2 
 ETIM.      22.30.00 18-Jul-20:  End Time 
 FLOI.gpm               550.00:  Flow In 
 FLON.gpm               450.00:  Flow In Min 
 FLOS.cptm                0.00:  Fluid Loss 
 FLOX.gpm               600.00:  Flow In Max 
 HFLO.                      No:  High Flow 
 HPRE.                      No:  High Pressure 
 HTEM.                      No:  High Temp 
 HYDO.m                   1.80:  Hydro Offset 
 IFIN.deg                65.41:  Inc, Final 
 IMAX.deg                65.14:  Inc Max 
 IMIN.deg                58.89:  Inc Min 
 IMND.m                4104.92:  Inc Min Depth 
 IMXD.m                4303.89:  Inc Max Depth 
 JARR.                      No:  Jarring 
 LETM.      10.20.48 17-Jul-20:  Log End Time 
 LOST.hr                     0:  Lost Rig Time 
 LSTM.      10.20.48 13-Jul-20:  Log Start Time 
 MDCL.ppm             37000.00:  Mud Chlorides 
 MDES.     Inversion Oil/Synthetic:  Mud Desc 
 DFD .sg                  1.52:  Mud Density 
 MDMN.sg                  1.52:  Dens Mud Min 
 MDMX.sg                  1.52:  Dens Mud Max 
 MOIL.                   52.70:  Run Mud Oil % 
 MOWR.                   68:32:  Run Mud OWR 
 MSND.                     0.2:  Run Mud Sand % 
 MSOL.                    21.6:  Run Mud Solids% 
 DFV .spqt               79.00:  Mud Viscosity 
 MWOD.in                  6.75:  MWD Tool OD 
 MWSI.                      No:  Serv Intrp, MWD 
 OTIM.hr                114.04:  Time Operating 
 PCON.          Wear / Scratch:  Pad Condition 
 PMAX.psia            11782.92:  Press Op, Max 
 PV  .cP                 49.00:  Mud PV 
 RUN .                     600:  Run Number 
 ROPA.m/hr               20.00:  ROP Avg 
 ROPN.m/hr               15.00:  ROP Min 
 ROPX.m/hr               22.00:  ROP Max 
 RPMA.rpm               120.00:  RPM Surface Avg 
 RPMN.rpm                90.00:  RPM Surface Min 
 RPMX.rpm               140.00:  RPM Surface Max 
 RRUN.                     600:  Rig Run Number 
 SAZI.deg               260.29:  Azm, Start 
 SDEP.m                4078.01:  Start Depth 
 SIDD.                      No:  Serv Intrp, DD 
 SINC.deg                58.89:  Inc, Start 
 SPPA.psig             4560.00:  SPP Avg 
 SPPN.psig             3600.00:  SPP Min 
 SPPX.psig             4800.00:  SPP Max 
 STIM.      10.20.48 13-Jul-20:  Start Time 
 SVCS.                 DD, MWD:  Services 
 SVER.                    9.20:  Sperry Version 
 TDAT.m                4378.01:  Tot Depth Attmp 
 TDDF.                      No:  Trip for DD 
 TDLG.m                 248.00:  Tot Depth Loggd 
 TFF .                      No:  Trip for Fail 
 TQAA.f-kp               18.00:  Torque Abs Avg 
 TQAN.f-kp               15.00:  Torque Abs Min 
 TQAX.f-kp               20.00:  Torque Abs Max 
 TRRT.°/30m               0.70:  Turn Rotating 
 MRT .                    HCIM:  Maximum Recorded Temperature 
 TTMX.degC               86.00:  Max Tool Temp 
 WBMN.klb                 3.00:  WOB Min 
 WOBA.klb                 5.00:  WOB Avg 
 WOBX.klb                 9.00:  WOB Max 
 YP  .lhf2               32.00:  Yield Point 
~Curve Information Block
#MNEM.UNIT                 API CODE     Curve Description
#---------               -----------    ---------------------------
 TIME.HHMMSS            00 000 000 000:  GT Time & Date
 GTDEPTH.m              00 000 000 000:  GT Depth
 GTPQH.psia             00 000 000 000:  GT HR Quartz Pressure
 GTTQ.degC              00 000 000 000:  GT Quartz Temperature
 GTTN.NONE              00 000 000 000:  GT Test Number
 GTET.sec               00 000 000 000:  GT Elapsed Test Time
 GTTVD.m                00 000 000 000:  GT True Vertical Depth
#Other Information
#
#WARRANTY: Halliburton will use its best efforts to furnish customers with 
#accurate information and interpretations that are part of, and incident to, the services 
#provided.  However, Halliburton cannot and does not warrant the accuracy 
#or correctness of such information and interpretations.  Under no circumstances should any 
#such information or interpretation be relied upon as the sole basis for any drilling, 
#completion, production, or financial decision or any procedure involving any risk to the 
#safety of any drilling venture, drilling rig or its crew or any other third party.  The 
#Customer has full responsibility for all drilling, completion and production operation.  
#Halliburton makes no representations or warranties, either expressed or 
#implied, including, but not limited to, the implied warranties of merchantability or fitness 
#for a particular purpose, with respect to the services rendered.  In no event will 
#Halliburton be liable for failure to obtain any particular results or for 
#any damages, including, but not limited to, indirect, special or consequential damages, 
#resulting from the use of any information or interpretation provided by Halliburton.
#
~A           TIME           GTDEPTH  GTPQH  GTTQ  GTTN  GTET   GTTVD  
# ...
   18:40:52.607.16-Jul-2020 4198.01 4795.50 79.29 5.00 275.90 2828.58
   18:40:52.807.16-Jul-2020 4198.01 4795.50 79.29 5.00 276.10 2828.58
   18:40:53.007.16-Jul-2020 4198.01 4795.58 79.29 5.00 276.30 2828.58
   18:40:53.207.16-Jul-2020 4198.01 4795.71 79.29 5.00 276.50 2828.58
   18:40:53.407.16-Jul-2020 4198.01 4795.56 79.29 5.00 276.70 2828.58
   18:40:53.607.16-Jul-2020 4198.01 4795.44 79.29 5.00 276.90 2828.58
   18:40:53.807.16-Jul-2020 4198.01 4795.74 79.29 5.00 277.10 2828.58
   18:40:54.007.16-Jul-2020 4198.01 4795.74 79.29 5.00 277.30 2828.58
   18:40:54.207.16-Jul-2020 4198.01 4795.74 79.29 5.00 277.50 2828.58
   18:40:54.407.16-Jul-2020 4198.01 4795.55 79.29 5.00 277.70 2828.58
   18:40:54.606.16-Jul-2020 4198.01 4795.68 79.29 5.00 277.90 2828.58
   18:40:54.806.16-Jul-2020 4198.01 4795.62 79.29 5.00 278.10 2828.58
   18:40:55.006.16-Jul-2020 4198.01 4795.66 79.29 5.00 278.30 2828.58
   18:40:55.206.16-Jul-2020 4198.01 4795.60 79.29 5.00 278.50 2828.58
   18:40:55.406.16-Jul-2020 4198.01 4795.61 79.29 5.00 278.70 2828.58
   18:40:55.606.16-Jul-2020 4198.01 4795.71 79.29 5.00 278.90 2828.58
   18:40:55.806.16-Jul-2020 4198.01 4795.71 79.29 5.00 279.10 2828.58
   18:40:56.006.16-Jul-2020 4198.01 4795.65 79.29 5.00 279.30 2828.58
   18:40:56.206.16-Jul-2020 4198.01 4795.70 79.29 5.00 279.50 2828.58
   18:40:56.406.16-Jul-2020 4198.01 4795.71 79.29 5.00 279.69 2828.58
   18:40:56.606.16-Jul-2020 4198.01 4795.58 79.29 5.00 279.89 2828.58
   18:40:56.806.16-Jul-2020 4198.01 4795.58 79.29 5.00 280.09 2828.58
   18:40:57.006.16-Jul-2020 4198.01 4795.67 79.29 5.00 280.29 2828.58
   18:40:57.206.16-Jul-2020 4198.01 4795.69 79.29 5.00 280.49 2828.58
   18:40:57.405.16-Jul-2020 4198.01 4795.90 79.29 5.00 280.69 2828.58
   18:40:57.605.16-Jul-2020 4198.01 4795.49 79.29 5.00 280.89 2828.58
   18:40:57.805.16-Jul-2020 4198.01 4795.49 79.29 5.00 281.09 2828.58
   18:40:58.005.16-Jul-2020 4198.01 4795.61 79.29 5.00 281.29 2828.58
   18:40:58.205.16-Jul-2020 4198.01 4795.54 79.29 5.00 281.49 2828.58
   18:40:58.405.16-Jul-2020 4198.01 4795.95 79.29 5.00 281.69 2828.58
   18:40:58.605.16-Jul-2020 4198.01 4795.74 79.29 5.00 281.89 2828.58
   18:40:58.805.16-Jul-2020 4198.01 4795.56 79.29 5.00 282.09 2828.58
   18:40:59.005.16-Jul-2020 4198.01 4795.70 79.29 5.00 282.29 2828.58
   18:40:59.205.16-Jul-2020 4198.01 4795.79 79.29 5.00 282.49 2828.58
   18:40:59.405.16-Jul-2020 4198.01 4795.71 79.29 5.00 282.69 2828.58
   18:40:59.605.16-Jul-2020 4198.01 4795.84 79.29 5.00 282.89 2828.58
   18:40:59.805.16-Jul-2020 4198.01 4795.84 79.29 5.00 283.09 2828.58
   18:41:00.004.16-Jul-2020 4198.01 4795.76 79.29 5.00 283.29 2828.58
   18:41:00.204.16-Jul-2020 4198.01 4795.91 79.29 5.00 283.49 2828.58
   18:41:00.404.16-Jul-2020 4198.01 4795.74 79.29 5.00 283.69 2828.58
   18:41:00.604.16-Jul-2020 4198.01 4795.62 79.29 5.00 283.89 2828.58
   18:41:00.804.16-Jul-2020 4198.01 4795.62 79.29 5.00 284.09 2828.58
   18:41:01.004.16-Jul-2020 4198.01 4795.82 79.29 5.00 284.29 2828.58
   18:41:01.204.16-Jul-2020 4198.01 4795.60 79.29 5.00 284.49 2828.58
   18:41:01.404.16-Jul-2020 4198.01 4795.76 79.29 5.00 284.69 2828.58
   18:41:01.604.16-Jul-2020 4198.01 4795.70 79.29 5.00 284.89 2828.58
   18:41:01.804.16-Jul-2020 4198.01 4795.67 79.29 5.00 285.09 2828.58
   18:41:02.004.16-Jul-2020 4198.01 4795.71 79.29 5.00 285.29 2828.58
   18:41:02.204.16-Jul-2020 4198.01 4795.67 79.29 5.00 285.49 2828.58
   18:41:02.404.16-Jul-2020 4198.01 4795.76 79.29 5.00 285.69 2828.58
   18:41:02.603.16-Jul-2020 4198.01 4795.50 79.29 5.00 285.89 2828.58
   18:41:02.803.16-Jul-2020 4198.01 4795.94 79.29 5.00 286.09 2828.58
   18:41:03.003.16-Jul-2020 4198.01 4795.86 79.29 5.00 286.29 2828.58
   18:41:03.203.16-Jul-2020 4198.01 4795.55 79.29 5.00 286.49 2828.58
   18:41:03.403.16-Jul-2020 4198.01 4795.83 79.29 5.00 286.69 2828.58
   18:41:03.603.16-Jul-2020 4198.01 4795.64 79.29 5.00 286.89 2828.58
   18:41:03.803.16-Jul-2020 4198.01 4795.64 79.29 5.00 287.09 2828.58
   18:41:04.003.16-Jul-2020 4198.01 4795.64 79.29 5.00 287.29 2828.58
   18:41:04.203.16-Jul-2020 4198.01 4795.69 79.29 5.00 287.49 2828.58
   18:41:04.403.16-Jul-2020 4198.01 4795.72 79.29 5.00 287.69 2828.58
   18:41:04.603.16-Jul-2020 4198.01 4795.79 79.29 5.00 287.89 2828.58
   18:41:04.803.16-Jul-2020 4198.01 4795.79 79.29 5.00 288.09 2828.58
   18:41:05.003.16-Jul-2020 4198.01 4795.67 79.29 5.00 288.29 2828.58
   18:41:05.203.16-Jul-2020 4198.01 4795.80 79.29 5.00 288.49 2828.58
   18:41:05.402.16-Jul-2020 4198.01 4795.73 79.29 5.00 288.69 2828.58
   18:41:05.602.16-Jul-2020 4198.01 4795.61 79.29 5.00 288.89 2828.58
   18:41:05.802.16-Jul-2020 4198.01 4795.72 79.29 5.00 289.09 2828.58
   18:41:06.002.16-Jul-2020 4198.01 4795.97 79.29 5.00 289.29 2828.58
   18:41:06.202.16-Jul-2020 4198.01 4795.80 79.29 5.00 289.49 2828.58
   18:41:06.402.16-Jul-2020 4198.01 4795.76 79.29 5.00 289.69 2828.58
   18:41:06.602.16-Jul-2020 4198.01 4795.69 79.29 5.00 289.89 2828.58
   18:41:06.802.16-Jul-2020 4198.01 4795.57 79.29 5.00 290.09 2828.58
   18:41:07.002.16-Jul-2020 4198.01 4795.61 79.29 5.00 290.29 2828.58
   18:41:07.202.16-Jul-2020 4198.01 4795.90 79.29 5.00 290.49 2828.58
   18:41:07.402.16-Jul-2020 4198.01 4795.86 79.29 5.00 290.69 2828.58
   18:41:07.602.16-Jul-2020 4198.01 4795.73 79.29 5.00 290.89 2828.58
   18:41:07.802.16-Jul-2020 4198.01 4795.73 79.29 5.00 291.09 2828.58
   18:41:08.001.16-Jul-2020 4198.01 4795.64 79.29 5.00 291.29 2828.58
   18:41:08.201.16-Jul-2020 4198.01 4795.91 79.29 5.00 291.49 2828.58
   18:41:08.401.16-Jul-2020 4198.01 4795.94 79.29 5.00 291.69 2828.58
   18:41:08.601.16-Jul-2020 4198.01 4795.56 79.29 5.00 291.89 2828.58
   18:41:08.801.16-Jul-2020 4198.01 4795.56 79.29 5.00 292.09 2828.58
   18:41:09.001.16-Jul-2020 4198.01 4795.87 79.29 5.00 292.29 2828.58
   18:41:09.201.16-Jul-2020 4198.01 4795.93 79.29 5.00 292.49 2828.58
   18:41:09.401.16-Jul-2020 4198.01 4795.62 79.29 5.00 292.69 2828.58
   18:41:09.601.16-Jul-2020 4198.01 4795.94 79.29 5.00 292.89 2828.58
   18:41:09.801.16-Jul-2020 4198.01 4795.57 79.29 5.00 293.09 2828.58
   18:41:10.001.16-Jul-2020 4198.01 4795.72 79.29 5.00 293.29 2828.58
   18:41:10.201.16-Jul-2020 4198.01 4795.81 79.29 5.00 293.49 2828.58
   18:41:10.401.16-Jul-2020 4198.01 4795.60 79.29 5.00 293.69 2828.58
   18:41:10.600.16-Jul-2020 4198.01 4795.86 79.29 5.00 293.89 2828.58
   18:41:10.800.16-Jul-2020 4198.01 4795.86 79.29 5.00 294.09 2828.58
   18:41:11.000.16-Jul-2020 4198.01 4795.80 79.29 5.00 294.29 2828.58
   18:41:11.200.16-Jul-2020 4198.01 4795.71 79.29 5.00 294.49 2828.58
   18:41:11.400.16-Jul-2020 4198.01 4795.55 79.29 5.00 294.69 2828.58
   18:41:11.600.16-Jul-2020 4198.01 4795.99 79.29 5.00 294.89 2828.58
   18:41:11.800.16-Jul-2020 4198.01 4795.82 79.29 5.00 295.09 2828.58
   18:41:12.000.16-Jul-2020 4198.01 4795.85 79.29 5.00 295.29 2828.58
   18:41:12.200.16-Jul-2020 4198.01 4795.70 79.29 5.00 295.49 2828.58
   18:41:12.400.16-Jul-2020 4198.01 4795.71 79.29 5.00 295.69 2828.58
   18:41:12.600.16-Jul-2020 4198.01 4795.82 79.29 5.00 295.89 2828.58
   18:41:12.800.16-Jul-2020 4198.01 4795.82 79.29 5.00 296.09 2828.58
   18:41:13.000.16-Jul-2020 4198.01 4795.61 79.29 5.00 296.29 2828.58
   18:41:13.200.16-Jul-2020 4198.01 4795.85 79.29 5.00 296.49 2828.58
   18:41:13.399.16-Jul-2020 4198.01 4795.77 79.29 5.00 296.69 2828.58
   18:41:13.599.16-Jul-2020 4198.01 4795.66 79.29 5.00 296.89 2828.58
   18:41:13.799.16-Jul-2020 4198.01 4795.97 79.29 5.00 297.09 2828.58
   18:41:13.999.16-Jul-2020 4198.01 4795.69 79.29 5.00 297.29 2828.58
   18:41:14.199.16-Jul-2020 4198.01 4795.75 79.29 5.00 297.49 2828.58
   18:41:14.399.16-Jul-2020 4198.01 4795.76 79.29 5.00 297.69 2828.58
   18:41:14.599.16-Jul-2020 4198.01 4795.53 79.29 5.00 297.89 2828.58
   18:41:14.799.16-Jul-2020 4198.01 4795.86 79.29 5.00 298.09 2828.58
   18:41:14.999.16-Jul-2020 4198.01 4795.89 79.29 5.00 298.29 2828.58
   18:41:15.199.16-Jul-2020 4198.01 4795.95 79.29 5.00 298.49 2828.58
   18:41:15.399.16-Jul-2020 4198.01 4795.60 79.29 5.00 298.69 2828.58
