~Version Information
 VERS.                  2.0:   CWLS log ASCII Standard -VERSION 2.0
 WRAP.                   NO:   One line per depth step
~Well Information Block
#MNEM.UNIT     VALUE/NAME     DESCRIPTION
#---------     -----------    ---------------------------
 STRT.S             18:36:16 16-Jul-20: START TIME 18:36:16 16-Jul-20
 STOP.S             18:43:12 16-Jul-20: STOP TIME  18:43:12 16-Jul-20
 STEP.S                   0.00: STEP TIME
 NULL.                 -999.25: NULL VALUE
 MDS .        Operator Entered:  MAG DATA SOURCE
 UNIT.                     N/A:  LOGGING EQUIPMENT ID
 DCON.         Sperry Drilling:  DIRECTNL CONTR
 DOE .                     N/A:  DOE NUMBER
 RIG .               EastAzeri:  RIG NAME
 JOBN.        AZ-XX-0906363297:  JOB TICKET NUMB
 MWDS.                    Baku:  MWD SHOP
 SRVC.     Turan Drilling & Engineering:  CONTRACTOR
 PROV.                    Baku:  PROVINCE
 STAT.                    Baku:  STATE NAME
 REGN.                   EESSA:  REGION
 BASE.              Azerbaijan:  LOGGING EQUIPMENT BASE LOCATION
 WTYP.                Deviated:  WELL TYPE
 UWI .                     N/A:  UNIQUE WELL IDENTIFIER
 API .                     N/A:  API NUMBER
 COMP.     BP Exploration (Caspian Sea) ltd.:  COMPANY
 WELL.                    D07z:  WELL NAME
 CTRY.              Azerbaijan:  COUNTRY NAME
 SON .        AZ-XX-0906363297:  JOB NUMBER
 FLD .                     ACG:  FIELD NAME
 PDAT.          Mean Sea Level:  PERMANENT DATUM
 FTOP.          Formation Tops:  FORM TOPS DESC
 ILTD.               Lithology:  INTERP LTH DESC
 SVYD.                  Survey:  SURVEY DESC
 DMOD.             Drill Model:  DRILL MOD DESC
 HPTY.       Minimum Curvature:  HOLE POS TYPE
 NREF.                    Grid:  NORTH REFERENCE
 SPUD.               28-Jun-20:  SPUD DATE
 DATE.      18.27.12 28-Jun-20:  END TIME
 STIM.      18.27.12 28-Jun-20:  START TIME
 DMF .             Drill Floor:  DRILL MEAS FROM
 DFST.                        :  DIST FSL TEXT
 DFWT.                        :  DIST FWL TEXT
 CNTY.                        :  COUNTY
 LOC .                        :  LOCATION
 LMF .             Drill Floor:  LOG MEASURED FROM
 VSNS.m                  -7.75:  VERT SEC N/S
 VSEW.m                  -9.19:  VERT SEC E/W
 MMDE.m                   0.00:  MAGUTM CALC DEP
 AGAP.m                  43.60:  AIR GAP
 DEP .m                4058.99:  DEPTH
 APD .m                  43.60:  DEPTH ABOVE PD
 WDMS.m                 151.80:  WD ELEV
 EGL .m                   0.00:  GROUND ELEVATION
 EPD .m                   0.00:  ELEVATION
 AZTC.deg                 6.19:  AZM TOTAL CORR
 GRDC.deg                 0.27:  GRID CORRECTION
 MDEC.deg                 6.46:  MAGNETIC DECL
 MDIP.deg                59.47:  MAGNETIC DIP
 MFLD.nT              50279.00:  MAGNETIC FIELD
 GVFD.g                   1.00:  GRAVITY FIELD
 VSDR.deg               249.96:  VERT SEC DIRECT
 TDD .m                   0.00:  TOTAL DEPTH (DRILLER)
 SDEP.m                   0.00:  START DEPTH
 DFSL.m                   0.00:  DISTANCE FSL
 DFWL.m                   0.00:  DISTANCE FWL
 UTMY.m             4431880.20:  UTM Y
 UTMX.m              538763.98:  UTM X
 WHEW.m                  -9.19:  WELL HEAD E/W
 WHNS.m                  -7.75:  WELL HEAD N/S
 LONG.deg                51.45:  LONGITUDE
 LATI.deg                40.02:  LATITUDE
 TVDS.m                  43.60:  TVDSS CORRECTN
 EKB .m                  43.60:  KB ELEVATION
 EDF .m                  43.60:  DF ELEVATION
 TDL .m                 248.00:  TOTAL DEPTH (LOGGER)
 MAGU.                 1849075:  MAGUTM CHECKSUM
 VSC .                       0:  VS TO CLOSURE
~Parameter Information Block
#MNEM.UNIT       Value        Description
#---------     -----------    ---------------------------
 AV  .mps                 6.34:  Ann Velocity 
 AVMX.mps                 7.00:  Max Ann Veloc 
 AZIF.deg               260.29:  Azm, Final 
 BHAT.        Rotary Steerable:  BHA Type 
 BROT.°/30m               1.20:  Build Rotating 
 BS  .in                  8.50:  Bit Size 
 BSZ .in                  8.50:  Bit Size 
 BTPL.psig              620.00:  Bit Press Loss 
 CABU.                     Yes:  Customer Abuse 
 COMM.                     Ì>`:  Run Comments 1 
 TCS .hr                 56.22:  Time Ciculation Ended 
 CV  .mps                 3.05:  Crit Velocity 
 CVMX.mps                 3.20:  Max Crit Veloc 
 DD1 .            Musa Ahmadov:  Direct Drillr 1 
 DDSV.                 iCruise:  DD Service 
 DEFF.%                  98.00:  % Det Eff 
 DLRX.°/30m               2.78:  Dogleg Rot Max 
 DLSO.°/30m               0.00:  Dogleg Oriented 
 DLSX.°/30m               0.00:  Dogleg Str Max 
 DRET.      05.20.48 16-Jul-20:  Drill End Time 
 DRST.      10.20.48 13-Jul-20:  Drill Start Tim 
 DTIM.hr                 14.25:  Time Drilling 
 EDEP.m                4326.01:  End Depth 
 ENG1.      Artemiy Matviyanov:  Engineer 1 
 ENG2.           Amrah Tahirov:  Engineer 2 
 ETIM.      22.30.00 18-Jul-20:  End Time 
 FLOI.gpm               550.00:  Flow In 
 FLON.gpm               450.00:  Flow In Min 
 FLOS.cptm                0.00:  Fluid Loss 
 FLOX.gpm               600.00:  Flow In Max 
 HFLO.                      No:  High Flow 
 HPRE.                      No:  High Pressure 
 HTEM.                      No:  High Temp 
 HYDO.m                   1.80:  Hydro Offset 
 IFIN.deg                65.41:  Inc, Final 
 IMAX.deg                65.14:  Inc Max 
 IMIN.deg                58.89:  Inc Min 
 IMND.m                4104.92:  Inc Min Depth 
 IMXD.m                4303.89:  Inc Max Depth 
 JARR.                      No:  Jarring 
 LETM.      10.20.48 17-Jul-20:  Log End Time 
 LOST.hr                     0:  Lost Rig Time 
 LSTM.      10.20.48 13-Jul-20:  Log Start Time 
 MDCL.ppm             37000.00:  Mud Chlorides 
 MDES.     Inversion Oil/Synthetic:  Mud Desc 
 DFD .sg                  1.52:  Mud Density 
 MDMN.sg                  1.52:  Dens Mud Min 
 MDMX.sg                  1.52:  Dens Mud Max 
 MOIL.                   52.70:  Run Mud Oil % 
 MOWR.                   68:32:  Run Mud OWR 
 MSND.                     0.2:  Run Mud Sand % 
 MSOL.                    21.6:  Run Mud Solids% 
 DFV .spqt               79.00:  Mud Viscosity 
 MWOD.in                  6.75:  MWD Tool OD 
 MWSI.                      No:  Serv Intrp, MWD 
 OTIM.hr                114.04:  Time Operating 
 PCON.          Wear / Scratch:  Pad Condition 
 PMAX.psia            11782.92:  Press Op, Max 
 PV  .cP                 49.00:  Mud PV 
 RUN .                     600:  Run Number 
 ROPA.m/hr               20.00:  ROP Avg 
 ROPN.m/hr               15.00:  ROP Min 
 ROPX.m/hr               22.00:  ROP Max 
 RPMA.rpm               120.00:  RPM Surface Avg 
 RPMN.rpm                90.00:  RPM Surface Min 
 RPMX.rpm               140.00:  RPM Surface Max 
 RRUN.                     600:  Rig Run Number 
 SAZI.deg               260.29:  Azm, Start 
 SDEP.m                4078.01:  Start Depth 
 SIDD.                      No:  Serv Intrp, DD 
 SINC.deg                58.89:  Inc, Start 
 SPPA.psig             4560.00:  SPP Avg 
 SPPN.psig             3600.00:  SPP Min 
 SPPX.psig             4800.00:  SPP Max 
 STIM.      10.20.48 13-Jul-20:  Start Time 
 SVCS.                 DD, MWD:  Services 
 SVER.                    9.20:  Sperry Version 
 TDAT.m                4378.01:  Tot Depth Attmp 
 TDDF.                      No:  Trip for DD 
 TDLG.m                 248.00:  Tot Depth Loggd 
 TFF .                      No:  Trip for Fail 
 TQAA.f-kp               18.00:  Torque Abs Avg 
 TQAN.f-kp               15.00:  Torque Abs Min 
 TQAX.f-kp               20.00:  Torque Abs Max 
 TRRT.°/30m               0.70:  Turn Rotating 
 MRT .                    HCIM:  Maximum Recorded Temperature 
 TTMX.degC               86.00:  Max Tool Temp 
 WBMN.klb                 3.00:  WOB Min 
 WOBA.klb                 5.00:  WOB Avg 
 WOBX.klb                 9.00:  WOB Max 
 YP  .lhf2               32.00:  Yield Point 
~Curve Information Block
#MNEM.UNIT                 API CODE     Curve Description
#---------               -----------    ---------------------------
 TIME.HHMMSS            00 000 000 000:  GT Time & Date
 GTDEPTH.m              00 000 000 000:  GT Depth
 GTPQH.psia             00 000 000 000:  GT HR Quartz Pressure
 GTTQ.degC              00 000 000 000:  GT Quartz Temperature
 GTTN.NONE              00 000 000 000:  GT Test Number
 GTET.sec               00 000 000 000:  GT Elapsed Test Time
 GTTVD.m                00 000 000 000:  GT True Vertical Depth
#Other Information
#
#WARRANTY: Halliburton will use its best efforts to furnish customers with 
#accurate information and interpretations that are part of, and incident to, the services 
#provided.  However, Halliburton cannot and does not warrant the accuracy 
#or correctness of such information and interpretations.  Under no circumstances should any 
#such information or interpretation be relied upon as the sole basis for any drilling, 
#completion, production, or financial decision or any procedure involving any risk to the 
#safety of any drilling venture, drilling rig or its crew or any other third party.  The 
#Customer has full responsibility for all drilling, completion and production operation.  
#Halliburton makes no representations or warranties, either expressed or 
#implied, including, but not limited to, the implied warranties of merchantability or fitness 
#for a particular purpose, with respect to the services rendered.  In no event will 
#Halliburton be liable for failure to obtain any particular results or for 
#any damages, including, but not limited to, indirect, special or consequential damages, 
#resulting from the use of any information or interpretation provided by Halliburton.
#
~A           TIME           GTDEPTH  GTPQH  GTTQ  GTTN  GTET   GTTVD  
# ...
   18:42:47.564.16-Jul-2020 4198.01 6993.13 79.34 5.00 390.85 2828.58
   18:42:47.764.16-Jul-2020 4198.01 6993.13 79.34 5.00 391.05 2828.58
   18:42:47.964.16-Jul-2020 4198.01 6989.84 79.34 5.00 391.25 2828.58
   18:42:48.164.16-Jul-2020 4198.01 6989.47 79.34 5.00 391.45 2828.58
   18:42:48.364.16-Jul-2020 4198.01 6990.03 79.34 5.00 391.65 2828.58
   18:42:48.564.16-Jul-2020 4198.01 6989.75 79.34 5.00 391.85 2828.58
   18:42:48.764.16-Jul-2020 4198.01 6989.75 79.34 5.00 392.05 2828.58
   18:42:48.964.16-Jul-2020 4198.01 6990.25 79.34 5.00 392.25 2828.58
   18:42:49.163.16-Jul-2020 4198.01 6988.17 79.34 5.00 392.45 2828.58
   18:42:49.363.16-Jul-2020 4198.01 6989.21 79.34 5.00 392.65 2828.58
   18:42:49.563.16-Jul-2020 4198.01 7004.87 79.34 5.00 392.85 2828.58
   18:42:49.763.16-Jul-2020 4198.01 7004.87 79.34 5.00 393.05 2828.58
   18:42:49.963.16-Jul-2020 4198.01 6994.14 79.34 5.00 393.25 2828.58
   18:42:50.163.16-Jul-2020 4198.01 6989.62 79.34 5.00 393.45 2828.58
   18:42:50.363.16-Jul-2020 4198.01 6989.59 79.34 5.00 393.65 2828.58
   18:42:50.563.16-Jul-2020 4198.01 6988.06 79.34 5.00 393.85 2828.58
   18:42:50.763.16-Jul-2020 4198.01 6988.06 79.34 5.00 394.05 2828.58
   18:42:50.963.16-Jul-2020 4198.01 6987.95 79.34 5.00 394.25 2828.58
   18:42:51.163.16-Jul-2020 4198.01 6989.54 79.34 5.00 394.45 2828.58
   18:42:51.363.16-Jul-2020 4198.01 6988.56 79.34 5.00 394.65 2828.58
   18:42:51.563.16-Jul-2020 4198.01 6989.53 79.34 5.00 394.85 2828.58
   18:42:51.762.16-Jul-2020 4198.01 6989.53 79.34 5.00 395.05 2828.58
   18:42:51.962.16-Jul-2020 4198.01 6988.09 79.34 5.00 395.25 2828.58
   18:42:52.162.16-Jul-2020 4198.01 6990.13 79.34 5.00 395.45 2828.58
   18:42:52.362.16-Jul-2020 4198.01 6988.42 79.34 5.00 395.65 2828.58
   18:42:52.562.16-Jul-2020 4198.01 6989.55 79.34 5.00 395.85 2828.58
   18:42:52.762.16-Jul-2020 4198.01 6989.55 79.34 5.00 396.05 2828.58
   18:42:52.962.16-Jul-2020 4198.01 6987.47 79.34 5.00 396.25 2828.58
   18:42:53.162.16-Jul-2020 4198.01 6991.91 79.34 5.00 396.45 2828.58
   18:42:53.362.16-Jul-2020 4198.01 6986.91 79.34 5.00 396.65 2828.58
   18:42:53.562.16-Jul-2020 4198.01 7001.78 79.34 5.00 396.85 2828.58
   18:42:53.762.16-Jul-2020 4198.01 6984.57 79.34 5.00 397.05 2828.58
   18:42:53.962.16-Jul-2020 4198.01 6992.78 79.34 5.00 397.25 2828.58
   18:42:54.162.16-Jul-2020 4198.01 6989.92 79.34 5.00 397.45 2828.58
   18:42:54.362.16-Jul-2020 4198.01 6990.21 79.34 5.00 397.65 2828.58
   18:42:54.561.16-Jul-2020 4198.01 6998.26 79.34 5.00 397.85 2828.58
   18:42:54.761.16-Jul-2020 4198.01 6987.50 79.34 5.00 398.05 2828.58
   18:42:54.961.16-Jul-2020 4198.01 6992.56 79.34 5.00 398.25 2828.58
   18:42:55.161.16-Jul-2020 4198.01 6987.49 79.34 5.00 398.45 2828.58
   18:42:55.361.16-Jul-2020 4198.01 7001.19 79.34 5.00 398.65 2828.58
   18:42:55.561.16-Jul-2020 4198.01 6988.36 79.34 5.00 398.85 2828.58
   18:42:55.761.16-Jul-2020 4198.01 6988.36 79.34 5.00 399.05 2828.58
   18:42:55.961.16-Jul-2020 4198.01 6986.73 79.34 5.00 399.25 2828.58
   18:42:56.161.16-Jul-2020 4198.01 6992.45 79.34 5.00 399.45 2828.58
   18:42:56.361.16-Jul-2020 4198.01 6990.04 79.34 5.00 399.65 2828.58
   18:42:56.561.16-Jul-2020 4198.01 6989.18 79.34 5.00 399.85 2828.58
   18:42:56.761.16-Jul-2020 4198.01 6989.18 79.34 5.00 400.05 2828.58
   18:42:56.961.16-Jul-2020 4198.01 6989.60 79.34 5.00 400.25 2828.58
   18:42:57.160.16-Jul-2020 4198.01 6990.34 79.34 5.00 400.45 2828.58
   18:42:57.360.16-Jul-2020 4198.01 6988.65 79.34 5.00 400.65 2828.58
   18:42:57.560.16-Jul-2020 4198.01 6989.31 79.34 5.00 400.85 2828.58
   18:42:57.760.16-Jul-2020 4198.01 6989.31 79.34 5.00 401.05 2828.58
   18:42:57.960.16-Jul-2020 4198.01 6988.97 79.34 5.00 401.25 2828.58
   18:42:58.160.16-Jul-2020 4198.01 7004.93 79.34 5.00 401.45 2828.58
   18:42:58.360.16-Jul-2020 4198.01 6976.60 79.34 5.00 401.65 2828.58
   18:42:58.560.16-Jul-2020 4198.01 6994.01 79.34 5.00 401.85 2828.58
   18:42:58.760.16-Jul-2020 4198.01 6988.65 79.34 5.00 402.05 2828.58
   18:42:58.960.16-Jul-2020 4198.01 6989.64 79.34 5.00 402.25 2828.58
   18:42:59.160.16-Jul-2020 4198.01 6987.91 79.34 5.00 402.45 2828.58
   18:42:59.360.16-Jul-2020 4198.01 6989.42 79.34 5.00 402.65 2828.58
   18:42:59.560.16-Jul-2020 4198.01 6988.44 79.34 5.00 402.85 2828.58
   18:42:59.759.16-Jul-2020 4198.01 6988.61 79.34 5.00 403.05 2828.58
   18:42:59.959.16-Jul-2020 4198.01 6988.61 79.33 5.00 403.25 2828.58
   18:43:00.159.16-Jul-2020 4198.01 6988.84 79.33 5.00 403.45 2828.58
   18:43:00.359.16-Jul-2020 4198.01 6989.46 79.33 5.00 403.65 2828.58
   18:43:00.559.16-Jul-2020 4198.01 6988.10 79.33 5.00 403.85 2828.58
   18:43:00.759.16-Jul-2020 4198.01 6988.10 79.33 5.00 404.05 2828.58
   18:43:00.959.16-Jul-2020 4198.01 6988.25 79.33 5.00 404.25 2828.58
   18:43:01.159.16-Jul-2020 4198.01 6989.31 79.33 5.00 404.45 2828.58
   18:43:01.359.16-Jul-2020 4198.01 6997.02 79.33 5.00 404.65 2828.58
   18:43:01.559.16-Jul-2020 4198.01 6986.49 79.33 5.00 404.85 2828.58
   18:43:01.759.16-Jul-2020 4198.01 6991.58 79.33 5.00 405.05 2828.58
   18:43:01.959.16-Jul-2020 4198.01 6986.09 79.33 5.00 405.25 2828.58
   18:43:02.159.16-Jul-2020 4198.01 7002.27 79.33 5.00 405.45 2828.58
   18:43:02.359.16-Jul-2020 4198.01 6984.21 79.33 5.00 405.65 2828.58
   18:43:02.558.16-Jul-2020 4198.01 6992.09 79.33 5.00 405.85 2828.58
   18:43:02.758.16-Jul-2020 4198.01 6990.03 79.33 5.00 406.05 2828.58
   18:43:02.958.16-Jul-2020 4198.01 6989.72 79.33 5.00 406.25 2828.58
   18:43:03.158.16-Jul-2020 4198.01 6988.87 79.33 5.00 406.45 2828.58
   18:43:03.358.16-Jul-2020 4198.01 6996.32 79.33 5.00 406.65 2828.58
   18:43:03.558.16-Jul-2020 4198.01 6991.92 79.33 5.00 406.85 2828.58
   18:43:03.758.16-Jul-2020 4198.01 6987.33 79.33 5.00 407.05 2828.58
   18:43:03.958.16-Jul-2020 4198.01 6991.09 79.33 5.00 407.25 2828.58
   18:43:04.158.16-Jul-2020 4198.01 7006.52 79.33 5.00 407.45 2828.58
   18:43:04.358.16-Jul-2020 4198.01 6977.85 79.33 5.00 407.65 2828.58
   18:43:04.558.16-Jul-2020 4198.01 6994.28 79.33 5.00 407.85 2828.58
   18:43:04.758.16-Jul-2020 4198.01 6990.23 79.33 5.00 408.05 2828.58
   18:43:04.958.16-Jul-2020 4198.01 6990.10 79.33 5.00 408.25 2828.58
   18:43:05.157.16-Jul-2020 4198.01 6988.96 79.33 5.00 408.45 2828.58
   18:43:05.357.16-Jul-2020 4198.01 6990.03 79.33 5.00 408.65 2828.58
   18:43:05.557.16-Jul-2020 4198.01 6988.83 79.33 5.00 408.85 2828.58
   18:43:05.757.16-Jul-2020 4198.01 6988.83 79.33 5.00 409.05 2828.58
   18:43:05.957.16-Jul-2020 4198.01 6988.60 79.33 5.00 409.25 2828.58
   18:43:06.157.16-Jul-2020 4198.01 6989.01 79.33 5.00 409.45 2828.58
   18:43:06.357.16-Jul-2020 4198.01 6988.72 79.33 5.00 409.65 2828.58
   18:43:06.557.16-Jul-2020 4198.01 6988.59 79.33 5.00 409.85 2828.58
   18:43:06.757.16-Jul-2020 4198.01 6988.21 79.33 5.00 410.05 2828.58
   18:43:06.957.16-Jul-2020 4198.01 6998.83 79.33 5.00 410.25 2828.58
   18:43:07.157.16-Jul-2020 4198.01 6984.57 79.33 5.00 410.45 2828.58
   18:43:07.357.16-Jul-2020 4198.01 6991.80 79.33 5.00 410.65 2828.58
   18:43:07.557.16-Jul-2020 4198.01 6990.86 79.33 5.00 410.85 2828.58
   18:43:07.756.16-Jul-2020 4198.01 6990.86 79.33 5.00 411.05 2828.58
   18:43:07.956.16-Jul-2020 4198.01 6989.50 79.33 5.00 411.25 2828.58
   18:43:08.156.16-Jul-2020 4198.01 6988.50 79.33 5.00 411.45 2828.58
   18:43:08.356.16-Jul-2020 4198.01 6988.37 79.33 5.00 411.65 2828.58
   18:43:08.556.16-Jul-2020 4198.01 6989.32 79.33 5.00 411.85 2828.58
   18:43:08.756.16-Jul-2020 4198.01 6989.32 79.33 5.00 412.05 2828.58
   18:43:08.956.16-Jul-2020 4198.01 6989.59 79.33 5.00 412.25 2828.58
   18:43:09.156.16-Jul-2020 4198.01 6988.20 79.33 5.00 412.45 2828.58
   18:43:09.356.16-Jul-2020 4198.01 6988.46 79.33 5.00 412.65 2828.58
   18:43:09.556.16-Jul-2020 4198.01 6988.15 79.33 5.00 412.84 2828.58
   18:43:09.756.16-Jul-2020 4198.01 6988.31 79.33 5.00 413.04 2828.58
   18:43:09.956.16-Jul-2020 4198.01 6987.25 79.33 5.00 413.24 2828.58
   18:43:10.156.16-Jul-2020 4198.01 7004.31 79.33 5.00 413.44 2828.58
   18:43:10.356.16-Jul-2020 4198.01 6976.39 79.33 5.00 413.64 2828.58
