~Version Information
 VERS.                  2.0:   CWLS log ASCII Standard -VERSION 2.0
 WRAP.                   NO:   One line per depth step
~Well Information Block
#MNEM.UNIT     VALUE/NAME     DESCRIPTION
#---------     -----------    ---------------------------
 STRT.S             18:36:16 16-Jul-20: START TIME 18:36:16 16-Jul-20
 STOP.S             18:43:12 16-Jul-20: STOP TIME  18:43:12 16-Jul-20
 STEP.S                   0.00: STEP TIME
 NULL.                 -999.25: NULL VALUE
 MDS .        Operator Entered:  MAG DATA SOURCE
 UNIT.                     N/A:  LOGGING EQUIPMENT ID
 DCON.         Sperry Drilling:  DIRECTNL CONTR
 DOE .                     N/A:  DOE NUMBER
 RIG .               EastAzeri:  RIG NAME
 JOBN.        AZ-XX-0906363297:  JOB TICKET NUMB
 MWDS.                    Baku:  MWD SHOP
 SRVC.     Turan Drilling & Engineering:  CONTRACTOR
 PROV.                    Baku:  PROVINCE
 STAT.                    Baku:  STATE NAME
 REGN.                   EESSA:  REGION
 BASE.              Azerbaijan:  LOGGING EQUIPMENT BASE LOCATION
 WTYP.                Deviated:  WELL TYPE
 UWI .                     N/A:  UNIQUE WELL IDENTIFIER
 API .                     N/A:  API NUMBER
 COMP.     BP Exploration (Caspian Sea) ltd.:  COMPANY
 WELL.                    D07z:  WELL NAME
 CTRY.              Azerbaijan:  COUNTRY NAME
 SON .        AZ-XX-0906363297:  JOB NUMBER
 FLD .                     ACG:  FIELD NAME
 PDAT.          Mean Sea Level:  PERMANENT DATUM
 FTOP.          Formation Tops:  FORM TOPS DESC
 ILTD.               Lithology:  INTERP LTH DESC
 SVYD.                  Survey:  SURVEY DESC
 DMOD.             Drill Model:  DRILL MOD DESC
 HPTY.       Minimum Curvature:  HOLE POS TYPE
 NREF.                    Grid:  NORTH REFERENCE
 SPUD.               28-Jun-20:  SPUD DATE
 DATE.      18.27.12 28-Jun-20:  END TIME
 STIM.      18.27.12 28-Jun-20:  START TIME
 DMF .             Drill Floor:  DRILL MEAS FROM
 DFST.                        :  DIST FSL TEXT
 DFWT.                        :  DIST FWL TEXT
 CNTY.                        :  COUNTY
 LOC .                        :  LOCATION
 LMF .             Drill Floor:  LOG MEASURED FROM
 VSNS.m                  -7.75:  VERT SEC N/S
 VSEW.m                  -9.19:  VERT SEC E/W
 MMDE.m                   0.00:  MAGUTM CALC DEP
 AGAP.m                  43.60:  AIR GAP
 DEP .m                4058.99:  DEPTH
 APD .m                  43.60:  DEPTH ABOVE PD
 WDMS.m                 151.80:  WD ELEV
 EGL .m                   0.00:  GROUND ELEVATION
 EPD .m                   0.00:  ELEVATION
 AZTC.deg                 6.19:  AZM TOTAL CORR
 GRDC.deg                 0.27:  GRID CORRECTION
 MDEC.deg                 6.46:  MAGNETIC DECL
 MDIP.deg                59.47:  MAGNETIC DIP
 MFLD.nT              50279.00:  MAGNETIC FIELD
 GVFD.g                   1.00:  GRAVITY FIELD
 VSDR.deg               249.96:  VERT SEC DIRECT
 TDD .m                   0.00:  TOTAL DEPTH (DRILLER)
 SDEP.m                   0.00:  START DEPTH
 DFSL.m                   0.00:  DISTANCE FSL
 DFWL.m                   0.00:  DISTANCE FWL
 UTMY.m             4431880.20:  UTM Y
 UTMX.m              538763.98:  UTM X
 WHEW.m                  -9.19:  WELL HEAD E/W
 WHNS.m                  -7.75:  WELL HEAD N/S
 LONG.deg                51.45:  LONGITUDE
 LATI.deg                40.02:  LATITUDE
 TVDS.m                  43.60:  TVDSS CORRECTN
 EKB .m                  43.60:  KB ELEVATION
 EDF .m                  43.60:  DF ELEVATION
 TDL .m                 248.00:  TOTAL DEPTH (LOGGER)
 MAGU.                 1849075:  MAGUTM CHECKSUM
 VSC .                       0:  VS TO CLOSURE
~Parameter Information Block
#MNEM.UNIT       Value        Description
#---------     -----------    ---------------------------
 AV  .mps                 6.34:  Ann Velocity 
 AVMX.mps                 7.00:  Max Ann Veloc 
 AZIF.deg               260.29:  Azm, Final 
 BHAT.        Rotary Steerable:  BHA Type 
 BROT.°/30m               1.20:  Build Rotating 
 BS  .in                  8.50:  Bit Size 
 BSZ .in                  8.50:  Bit Size 
 BTPL.psig              620.00:  Bit Press Loss 
 CABU.                     Yes:  Customer Abuse 
 COMM.                     Ì>`:  Run Comments 1 
 TCS .hr                 56.22:  Time Ciculation Ended 
 CV  .mps                 3.05:  Crit Velocity 
 CVMX.mps                 3.20:  Max Crit Veloc 
 DD1 .            Musa Ahmadov:  Direct Drillr 1 
 DDSV.                 iCruise:  DD Service 
 DEFF.%                  98.00:  % Det Eff 
 DLRX.°/30m               2.78:  Dogleg Rot Max 
 DLSO.°/30m               0.00:  Dogleg Oriented 
 DLSX.°/30m               0.00:  Dogleg Str Max 
 DRET.      05.20.48 16-Jul-20:  Drill End Time 
 DRST.      10.20.48 13-Jul-20:  Drill Start Tim 
 DTIM.hr                 14.25:  Time Drilling 
 EDEP.m                4326.01:  End Depth 
 ENG1.      Artemiy Matviyanov:  Engineer 1 
 ENG2.           Amrah Tahirov:  Engineer 2 
 ETIM.      22.30.00 18-Jul-20:  End Time 
 FLOI.gpm               550.00:  Flow In 
 FLON.gpm               450.00:  Flow In Min 
 FLOS.cptm                0.00:  Fluid Loss 
 FLOX.gpm               600.00:  Flow In Max 
 HFLO.                      No:  High Flow 
 HPRE.                      No:  High Pressure 
 HTEM.                      No:  High Temp 
 HYDO.m                   1.80:  Hydro Offset 
 IFIN.deg                65.41:  Inc, Final 
 IMAX.deg                65.14:  Inc Max 
 IMIN.deg                58.89:  Inc Min 
 IMND.m                4104.92:  Inc Min Depth 
 IMXD.m                4303.89:  Inc Max Depth 
 JARR.                      No:  Jarring 
 LETM.      10.20.48 17-Jul-20:  Log End Time 
 LOST.hr                     0:  Lost Rig Time 
 LSTM.      10.20.48 13-Jul-20:  Log Start Time 
 MDCL.ppm             37000.00:  Mud Chlorides 
 MDES.     Inversion Oil/Synthetic:  Mud Desc 
 DFD .sg                  1.52:  Mud Density 
 MDMN.sg                  1.52:  Dens Mud Min 
 MDMX.sg                  1.52:  Dens Mud Max 
 MOIL.                   52.70:  Run Mud Oil % 
 MOWR.                   68:32:  Run Mud OWR 
 MSND.                     0.2:  Run Mud Sand % 
 MSOL.                    21.6:  Run Mud Solids% 
 DFV .spqt               79.00:  Mud Viscosity 
 MWOD.in                  6.75:  MWD Tool OD 
 MWSI.                      No:  Serv Intrp, MWD 
 OTIM.hr                114.04:  Time Operating 
 PCON.          Wear / Scratch:  Pad Condition 
 PMAX.psia            11782.92:  Press Op, Max 
 PV  .cP                 49.00:  Mud PV 
 RUN .                     600:  Run Number 
 ROPA.m/hr               20.00:  ROP Avg 
 ROPN.m/hr               15.00:  ROP Min 
 ROPX.m/hr               22.00:  ROP Max 
 RPMA.rpm               120.00:  RPM Surface Avg 
 RPMN.rpm                90.00:  RPM Surface Min 
 RPMX.rpm               140.00:  RPM Surface Max 
 RRUN.                     600:  Rig Run Number 
 SAZI.deg               260.29:  Azm, Start 
 SDEP.m                4078.01:  Start Depth 
 SIDD.                      No:  Serv Intrp, DD 
 SINC.deg                58.89:  Inc, Start 
 SPPA.psig             4560.00:  SPP Avg 
 SPPN.psig             3600.00:  SPP Min 
 SPPX.psig             4800.00:  SPP Max 
 STIM.      10.20.48 13-Jul-20:  Start Time 
 SVCS.                 DD, MWD:  Services 
 SVER.                    9.20:  Sperry Version 
 TDAT.m                4378.01:  Tot Depth Attmp 
 TDDF.                      No:  Trip for DD 
 TDLG.m                 248.00:  Tot Depth Loggd 
 TFF .                      No:  Trip for Fail 
 TQAA.f-kp               18.00:  Torque Abs Avg 
 TQAN.f-kp               15.00:  Torque Abs Min 
 TQAX.f-kp               20.00:  Torque Abs Max 
 TRRT.°/30m               0.70:  Turn Rotating 
 MRT .                    HCIM:  Maximum Recorded Temperature 
 TTMX.degC               86.00:  Max Tool Temp 
 WBMN.klb                 3.00:  WOB Min 
 WOBA.klb                 5.00:  WOB Avg 
 WOBX.klb                 9.00:  WOB Max 
 YP  .lhf2               32.00:  Yield Point 
~Curve Information Block
#MNEM.UNIT                 API CODE     Curve Description
#---------               -----------    ---------------------------
 TIME.HHMMSS            00 000 000 000:  GT Time & Date
 GTDEPTH.m              00 000 000 000:  GT Depth
 GTPQH.psia             00 000 000 000:  GT HR Quartz Pressure
 GTTQ.degC              00 000 000 000:  GT Quartz Temperature
 GTTN.NONE              00 000 000 000:  GT Test Number
 GTET.sec               00 000 000 000:  GT Elapsed Test Time
 GTTVD.m                00 000 000 000:  GT True Vertical Depth
#Other Information
#
#WARRANTY: Halliburton will use its best efforts to furnish customers with 
#accurate information and interpretations that are part of, and incident to, the services 
#provided.  However, Halliburton cannot and does not warrant the accuracy 
#or correctness of such information and interpretations.  Under no circumstances should any 
#such information or interpretation be relied upon as the sole basis for any drilling, 
#completion, production, or financial decision or any procedure involving any risk to the 
#safety of any drilling venture, drilling rig or its crew or any other third party.  The 
#Customer has full responsibility for all drilling, completion and production operation.  
#Halliburton makes no representations or warranties, either expressed or 
#implied, including, but not limited to, the implied warranties of merchantability or fitness 
#for a particular purpose, with respect to the services rendered.  In no event will 
#Halliburton be liable for failure to obtain any particular results or for 
#any damages, including, but not limited to, indirect, special or consequential damages, 
#resulting from the use of any information or interpretation provided by Halliburton.
#
~A           TIME           GTDEPTH  GTPQH  GTTQ  GTTN  GTET   GTTVD  
# ...
   18:39:20.642.16-Jul-2020 4198.01 4795.74 79.30 5.00 183.93 2828.58
   18:39:20.842.16-Jul-2020 4198.01 4795.74 79.30 5.00 184.13 2828.58
   18:39:21.042.16-Jul-2020 4198.01 4795.52 79.30 5.00 184.33 2828.58
   18:39:21.242.16-Jul-2020 4198.01 4795.55 79.30 5.00 184.53 2828.58
   18:39:21.441.16-Jul-2020 4198.01 4795.86 79.30 5.00 184.73 2828.58
   18:39:21.641.16-Jul-2020 4198.01 4795.63 79.30 5.00 184.93 2828.58
   18:39:21.841.16-Jul-2020 4198.01 4795.27 79.30 5.00 185.13 2828.58
   18:39:22.041.16-Jul-2020 4198.01 4795.97 79.30 5.00 185.33 2828.58
   18:39:22.241.16-Jul-2020 4198.01 4795.79 79.30 5.00 185.53 2828.58
   18:39:22.441.16-Jul-2020 4198.01 4795.62 79.30 5.00 185.73 2828.58
   18:39:22.641.16-Jul-2020 4198.01 4795.71 79.30 5.00 185.93 2828.58
   18:39:22.841.16-Jul-2020 4198.01 4795.67 79.30 5.00 186.13 2828.58
   18:39:23.041.16-Jul-2020 4198.01 4795.62 79.30 5.00 186.33 2828.58
   18:39:23.241.16-Jul-2020 4198.01 4795.67 79.30 5.00 186.53 2828.58
   18:39:23.441.16-Jul-2020 4198.01 4795.71 79.30 5.00 186.73 2828.58
   18:39:23.641.16-Jul-2020 4198.01 4795.58 79.30 5.00 186.93 2828.58
   18:39:23.841.16-Jul-2020 4198.01 4795.58 79.30 5.00 187.13 2828.58
   18:39:24.040.16-Jul-2020 4198.01 4795.77 79.30 5.00 187.33 2828.58
   18:39:24.240.16-Jul-2020 4198.01 4795.58 79.30 5.00 187.53 2828.58
   18:39:24.440.16-Jul-2020 4198.01 4795.71 79.30 5.00 187.73 2828.58
   18:39:24.640.16-Jul-2020 4198.01 4795.63 79.30 5.00 187.93 2828.58
   18:39:24.840.16-Jul-2020 4198.01 4795.63 79.30 5.00 188.13 2828.58
   18:39:25.040.16-Jul-2020 4198.01 4795.79 79.30 5.00 188.33 2828.58
   18:39:25.240.16-Jul-2020 4198.01 4795.70 79.30 5.00 188.53 2828.58
   18:39:25.440.16-Jul-2020 4198.01 4795.53 79.30 5.00 188.73 2828.58
   18:39:25.640.16-Jul-2020 4198.01 4795.69 79.30 5.00 188.93 2828.58
   18:39:25.840.16-Jul-2020 4198.01 4795.69 79.30 5.00 189.13 2828.58
   18:39:26.040.16-Jul-2020 4198.01 4795.56 79.30 5.00 189.33 2828.58
   18:39:26.240.16-Jul-2020 4198.01 4795.75 79.30 5.00 189.53 2828.58
   18:39:26.440.16-Jul-2020 4198.01 4795.70 79.30 5.00 189.73 2828.58
   18:39:26.640.16-Jul-2020 4198.01 4795.53 79.30 5.00 189.93 2828.58
   18:39:26.839.16-Jul-2020 4198.01 4795.81 79.30 5.00 190.13 2828.58
   18:39:27.039.16-Jul-2020 4198.01 4795.62 79.30 5.00 190.33 2828.58
   18:39:27.239.16-Jul-2020 4198.01 4795.67 79.30 5.00 190.53 2828.58
   18:39:27.439.16-Jul-2020 4198.01 4795.70 79.30 5.00 190.73 2828.58
   18:39:27.639.16-Jul-2020 4198.01 4795.56 79.30 5.00 190.93 2828.58
   18:39:27.839.16-Jul-2020 4198.01 4795.71 79.30 5.00 191.13 2828.58
   18:39:28.039.16-Jul-2020 4198.01 4795.69 79.30 5.00 191.33 2828.58
   18:39:28.239.16-Jul-2020 4198.01 4795.91 79.30 5.00 191.53 2828.58
   18:39:28.439.16-Jul-2020 4198.01 4795.66 79.30 5.00 191.73 2828.58
   18:39:28.639.16-Jul-2020 4198.01 4795.59 79.30 5.00 191.93 2828.58
   18:39:28.839.16-Jul-2020 4198.01 4795.59 79.30 5.00 192.13 2828.58
   18:39:29.039.16-Jul-2020 4198.01 4795.42 79.30 5.00 192.33 2828.58
   18:39:29.239.16-Jul-2020 4198.01 4796.04 79.30 5.00 192.53 2828.58
   18:39:29.438.16-Jul-2020 4198.01 4795.74 79.30 5.00 192.73 2828.58
   18:39:29.638.16-Jul-2020 4198.01 4795.69 79.30 5.00 192.93 2828.58
   18:39:29.838.16-Jul-2020 4198.01 4795.65 79.30 5.00 193.13 2828.58
   18:39:30.038.16-Jul-2020 4198.01 4795.57 79.30 5.00 193.33 2828.58
   18:39:30.238.16-Jul-2020 4198.01 4795.67 79.30 5.00 193.53 2828.58
   18:39:30.438.16-Jul-2020 4198.01 4796.07 79.30 5.00 193.73 2828.58
   18:39:30.638.16-Jul-2020 4198.01 4795.55 79.30 5.00 193.93 2828.58
   18:39:30.838.16-Jul-2020 4198.01 4795.55 79.30 5.00 194.13 2828.58
   18:39:31.038.16-Jul-2020 4198.01 4796.08 79.30 5.00 194.33 2828.58
   18:39:31.238.16-Jul-2020 4198.01 4795.66 79.30 5.00 194.53 2828.58
   18:39:31.438.16-Jul-2020 4198.01 4795.70 79.30 5.00 194.73 2828.58
   18:39:31.638.16-Jul-2020 4198.01 4795.70 79.30 5.00 194.93 2828.58
   18:39:31.838.16-Jul-2020 4198.01 4795.70 79.30 5.00 195.13 2828.58
   18:39:32.037.16-Jul-2020 4198.01 4795.59 79.30 5.00 195.33 2828.58
   18:39:32.237.16-Jul-2020 4198.01 4795.58 79.30 5.00 195.53 2828.58
   18:39:32.437.16-Jul-2020 4198.01 4795.79 79.30 5.00 195.73 2828.58
   18:39:32.637.16-Jul-2020 4198.01 4795.71 79.30 5.00 195.93 2828.58
   18:39:32.837.16-Jul-2020 4198.01 4795.61 79.30 5.00 196.13 2828.58
   18:39:33.037.16-Jul-2020 4198.01 4795.75 79.30 5.00 196.33 2828.58
   18:39:33.237.16-Jul-2020 4198.01 4795.68 79.30 5.00 196.53 2828.58
   18:39:33.437.16-Jul-2020 4198.01 4795.26 79.30 5.00 196.73 2828.58
   18:39:33.637.16-Jul-2020 4198.01 4796.08 79.30 5.00 196.93 2828.58
   18:39:33.837.16-Jul-2020 4198.01 4795.88 79.30 5.00 197.13 2828.58
   18:39:34.037.16-Jul-2020 4198.01 4795.64 79.30 5.00 197.33 2828.58
   18:39:34.237.16-Jul-2020 4198.01 4795.76 79.30 5.00 197.53 2828.58
   18:39:34.437.16-Jul-2020 4198.01 4795.62 79.30 5.00 197.73 2828.58
   18:39:34.637.16-Jul-2020 4198.01 4795.79 79.30 5.00 197.93 2828.58
   18:39:34.836.16-Jul-2020 4198.01 4795.66 79.30 5.00 198.13 2828.58
   18:39:35.036.16-Jul-2020 4198.01 4795.67 79.30 5.00 198.33 2828.58
   18:39:35.236.16-Jul-2020 4198.01 4795.62 79.30 5.00 198.53 2828.58
   18:39:35.436.16-Jul-2020 4198.01 4795.86 79.30 5.00 198.73 2828.58
   18:39:35.636.16-Jul-2020 4198.01 4795.63 79.30 5.00 198.93 2828.58
   18:39:35.836.16-Jul-2020 4198.01 4795.63 79.30 5.00 199.13 2828.58
   18:39:36.036.16-Jul-2020 4198.01 4795.86 79.30 5.00 199.33 2828.58
   18:39:36.236.16-Jul-2020 4198.01 4795.63 79.30 5.00 199.53 2828.58
   18:39:36.436.16-Jul-2020 4198.01 4795.68 79.30 5.00 199.73 2828.58
   18:39:36.636.16-Jul-2020 4198.01 4795.40 79.30 5.00 199.92 2828.58
   18:39:36.836.16-Jul-2020 4198.01 4795.40 79.30 5.00 200.12 2828.58
   18:39:37.036.16-Jul-2020 4198.01 4795.74 79.30 5.00 200.32 2828.58
   18:39:37.236.16-Jul-2020 4198.01 4795.79 79.30 5.00 200.52 2828.58
   18:39:37.435.16-Jul-2020 4198.01 4795.77 79.30 5.00 200.72 2828.58
   18:39:37.635.16-Jul-2020 4198.01 4795.55 79.30 5.00 200.92 2828.58
   18:39:37.835.16-Jul-2020 4198.01 4795.55 79.30 5.00 201.12 2828.58
   18:39:38.035.16-Jul-2020 4198.01 4795.57 79.30 5.00 201.32 2828.58
   18:39:38.235.16-Jul-2020 4198.01 4795.88 79.30 5.00 201.52 2828.58
   18:39:38.435.16-Jul-2020 4198.01 4795.61 79.30 5.00 201.72 2828.58
   18:39:38.635.16-Jul-2020 4198.01 4795.81 79.30 5.00 201.92 2828.58
   18:39:38.835.16-Jul-2020 4198.01 4795.43 79.30 5.00 202.12 2828.58
   18:39:39.035.16-Jul-2020 4198.01 4795.89 79.30 5.00 202.32 2828.58
   18:39:39.235.16-Jul-2020 4198.01 4795.84 79.30 5.00 202.52 2828.58
   18:39:39.435.16-Jul-2020 4198.01 4795.85 79.30 5.00 202.72 2828.58
   18:39:39.635.16-Jul-2020 4198.01 4795.54 79.30 5.00 202.92 2828.58
   18:39:39.835.16-Jul-2020 4198.01 4795.54 79.30 5.00 203.12 2828.58
   18:39:40.034.16-Jul-2020 4198.01 4795.83 79.30 5.00 203.32 2828.58
   18:39:40.234.16-Jul-2020 4198.01 4795.71 79.30 5.00 203.52 2828.58
   18:39:40.434.16-Jul-2020 4198.01 4795.79 79.30 5.00 203.72 2828.58
   18:39:40.634.16-Jul-2020 4198.01 4795.75 79.30 5.00 203.92 2828.58
   18:39:40.834.16-Jul-2020 4198.01 4795.75 79.30 5.00 204.12 2828.58
   18:39:41.034.16-Jul-2020 4198.01 4795.65 79.30 5.00 204.32 2828.58
   18:39:41.234.16-Jul-2020 4198.01 4795.80 79.30 5.00 204.52 2828.58
   18:39:41.434.16-Jul-2020 4198.01 4795.64 79.30 5.00 204.72 2828.58
   18:39:41.634.16-Jul-2020 4198.01 4795.65 79.30 5.00 204.92 2828.58
   18:39:41.834.16-Jul-2020 4198.01 4795.87 79.30 5.00 205.12 2828.58
   18:39:42.034.16-Jul-2020 4198.01 4795.63 79.30 5.00 205.32 2828.58
   18:39:42.234.16-Jul-2020 4198.01 4795.79 79.30 5.00 205.52 2828.58
   18:39:42.434.16-Jul-2020 4198.01 4795.50 79.30 5.00 205.72 2828.58
   18:39:42.634.16-Jul-2020 4198.01 4796.02 79.30 5.00 205.92 2828.58
   18:39:42.833.16-Jul-2020 4198.01 4795.66 79.30 5.00 206.12 2828.58
   18:39:43.033.16-Jul-2020 4198.01 4795.68 79.30 5.00 206.32 2828.58
   18:39:43.233.16-Jul-2020 4198.01 4795.86 79.30 5.00 206.52 2828.58
   18:39:43.433.16-Jul-2020 4198.01 4795.56 79.30 5.00 206.72 2828.58
