~Version Information
 VERS.                  2.0:   CWLS log ASCII Standard -VERSION 2.0
 WRAP.                   NO:   One line per depth step
~Well Information Block
#MNEM.UNIT     VALUE/NAME     DESCRIPTION
#---------     -----------    ---------------------------
 STRT.S             21:08:23 16-Jul-20: START TIME 21:08:23 16-Jul-20
 STOP.S             21:15:15 16-Jul-20: STOP TIME  21:15:15 16-Jul-20
 STEP.S                   0.00: STEP TIME
 NULL.                 -999.25: NULL VALUE
 MDS .        Operator Entered:  MAG DATA SOURCE
 UNIT.                     N/A:  LOGGING EQUIPMENT ID
 DCON.         Sperry Drilling:  DIRECTNL CONTR
 DOE .                     N/A:  DOE NUMBER
 RIG .               EastAzeri:  RIG NAME
 JOBN.        AZ-XX-0906363297:  JOB TICKET NUMB
 MWDS.                    Baku:  MWD SHOP
 SRVC.     Turan Drilling & Engineering:  CONTRACTOR
 PROV.                    Baku:  PROVINCE
 STAT.                    Baku:  STATE NAME
 REGN.                   EESSA:  REGION
 BASE.              Azerbaijan:  LOGGING EQUIPMENT BASE LOCATION
 WTYP.                Deviated:  WELL TYPE
 UWI .                     N/A:  UNIQUE WELL IDENTIFIER
 API .                     N/A:  API NUMBER
 COMP.     BP Exploration (Caspian Sea) ltd.:  COMPANY
 WELL.                    D07z:  WELL NAME
 CTRY.              Azerbaijan:  COUNTRY NAME
 SON .        AZ-XX-0906363297:  JOB NUMBER
 FLD .                     ACG:  FIELD NAME
 PDAT.          Mean Sea Level:  PERMANENT DATUM
 FTOP.          Formation Tops:  FORM TOPS DESC
 ILTD.               Lithology:  INTERP LTH DESC
 SVYD.                  Survey:  SURVEY DESC
 DMOD.             Drill Model:  DRILL MOD DESC
 HPTY.       Minimum Curvature:  HOLE POS TYPE
 NREF.                    Grid:  NORTH REFERENCE
 SPUD.               28-Jun-20:  SPUD DATE
 DATE.      18.27.12 28-Jun-20:  END TIME
 STIM.      18.27.12 28-Jun-20:  START TIME
 DMF .             Drill Floor:  DRILL MEAS FROM
 DFST.                        :  DIST FSL TEXT
 DFWT.                        :  DIST FWL TEXT
 CNTY.                        :  COUNTY
 LOC .                        :  LOCATION
 LMF .             Drill Floor:  LOG MEASURED FROM
 VSNS.m                  -7.75:  VERT SEC N/S
 VSEW.m                  -9.19:  VERT SEC E/W
 MMDE.m                   0.00:  MAGUTM CALC DEP
 AGAP.m                  43.60:  AIR GAP
 DEP .m                4058.99:  DEPTH
 APD .m                  43.60:  DEPTH ABOVE PD
 WDMS.m                 151.80:  WD ELEV
 EGL .m                   0.00:  GROUND ELEVATION
 EPD .m                   0.00:  ELEVATION
 AZTC.deg                 6.19:  AZM TOTAL CORR
 GRDC.deg                 0.27:  GRID CORRECTION
 MDEC.deg                 6.46:  MAGNETIC DECL
 MDIP.deg                59.47:  MAGNETIC DIP
 MFLD.nT              50279.00:  MAGNETIC FIELD
 GVFD.g                   1.00:  GRAVITY FIELD
 VSDR.deg               249.96:  VERT SEC DIRECT
 TDD .m                   0.00:  TOTAL DEPTH (DRILLER)
 SDEP.m                   0.00:  START DEPTH
 DFSL.m                   0.00:  DISTANCE FSL
 DFWL.m                   0.00:  DISTANCE FWL
 UTMY.m             4431880.20:  UTM Y
 UTMX.m              538763.98:  UTM X
 WHEW.m                  -9.19:  WELL HEAD E/W
 WHNS.m                  -7.75:  WELL HEAD N/S
 LONG.deg                51.45:  LONGITUDE
 LATI.deg                40.02:  LATITUDE
 TVDS.m                  43.60:  TVDSS CORRECTN
 EKB .m                  43.60:  KB ELEVATION
 EDF .m                  43.60:  DF ELEVATION
 TDL .m                 248.00:  TOTAL DEPTH (LOGGER)
 MAGU.                 1849075:  MAGUTM CHECKSUM
 VSC .                       0:  VS TO CLOSURE
~Parameter Information Block
#MNEM.UNIT       Value        Description
#---------     -----------    ---------------------------
 AV  .mps                 6.34:  Ann Velocity 
 AVMX.mps                 7.00:  Max Ann Veloc 
 AZIF.deg               260.29:  Azm, Final 
 BHAT.        Rotary Steerable:  BHA Type 
 BROT.°/30m               1.20:  Build Rotating 
 BS  .in                  8.50:  Bit Size 
 BSZ .in                  8.50:  Bit Size 
 BTPL.psig              620.00:  Bit Press Loss 
 CABU.                     Yes:  Customer Abuse 
 COMM.                     Äá„:  Run Comments 1 
 TCS .hr                 56.22:  Time Ciculation Ended 
 CV  .mps                 3.05:  Crit Velocity 
 CVMX.mps                 3.20:  Max Crit Veloc 
 DD1 .            Musa Ahmadov:  Direct Drillr 1 
 DDSV.                 iCruise:  DD Service 
 DEFF.%                  98.00:  % Det Eff 
 DLRX.°/30m               2.78:  Dogleg Rot Max 
 DLSO.°/30m               0.00:  Dogleg Oriented 
 DLSX.°/30m               0.00:  Dogleg Str Max 
 DRET.      05.20.48 16-Jul-20:  Drill End Time 
 DRST.      10.20.48 13-Jul-20:  Drill Start Tim 
 DTIM.hr                 14.25:  Time Drilling 
 EDEP.m                4326.01:  End Depth 
 ENG1.      Artemiy Matviyanov:  Engineer 1 
 ENG2.           Amrah Tahirov:  Engineer 2 
 ETIM.      22.30.00 18-Jul-20:  End Time 
 FLOI.gpm               550.00:  Flow In 
 FLON.gpm               450.00:  Flow In Min 
 FLOS.cptm                0.00:  Fluid Loss 
 FLOX.gpm               600.00:  Flow In Max 
 HFLO.                      No:  High Flow 
 HPRE.                      No:  High Pressure 
 HTEM.                      No:  High Temp 
 HYDO.m                   1.80:  Hydro Offset 
 IFIN.deg                65.41:  Inc, Final 
 IMAX.deg                65.14:  Inc Max 
 IMIN.deg                58.89:  Inc Min 
 IMND.m                4104.92:  Inc Min Depth 
 IMXD.m                4303.89:  Inc Max Depth 
 JARR.                      No:  Jarring 
 LETM.      10.20.48 17-Jul-20:  Log End Time 
 LOST.hr                     0:  Lost Rig Time 
 LSTM.      10.20.48 13-Jul-20:  Log Start Time 
 MDCL.ppm             37000.00:  Mud Chlorides 
 MDES.     Inversion Oil/Synthetic:  Mud Desc 
 DFD .sg                  1.52:  Mud Density 
 MDMN.sg                  1.52:  Dens Mud Min 
 MDMX.sg                  1.52:  Dens Mud Max 
 MOIL.                   52.70:  Run Mud Oil % 
 MOWR.                   68:32:  Run Mud OWR 
 MSND.                     0.2:  Run Mud Sand % 
 MSOL.                    21.6:  Run Mud Solids% 
 DFV .spqt               79.00:  Mud Viscosity 
 MWOD.in                  6.75:  MWD Tool OD 
 MWSI.                      No:  Serv Intrp, MWD 
 OTIM.hr                114.04:  Time Operating 
 PCON.          Wear / Scratch:  Pad Condition 
 PMAX.psia            11782.92:  Press Op, Max 
 PV  .cP                 49.00:  Mud PV 
 RUN .                     600:  Run Number 
 ROPA.m/hr               20.00:  ROP Avg 
 ROPN.m/hr               15.00:  ROP Min 
 ROPX.m/hr               22.00:  ROP Max 
 RPMA.rpm               120.00:  RPM Surface Avg 
 RPMN.rpm                90.00:  RPM Surface Min 
 RPMX.rpm               140.00:  RPM Surface Max 
 RRUN.                     600:  Rig Run Number 
 SAZI.deg               260.29:  Azm, Start 
 SDEP.m                4078.01:  Start Depth 
 SIDD.                      No:  Serv Intrp, DD 
 SINC.deg                58.89:  Inc, Start 
 SPPA.psig             4560.00:  SPP Avg 
 SPPN.psig             3600.00:  SPP Min 
 SPPX.psig             4800.00:  SPP Max 
 STIM.      10.20.48 13-Jul-20:  Start Time 
 SVCS.                 DD, MWD:  Services 
 SVER.                    9.20:  Sperry Version 
 TDAT.m                4378.01:  Tot Depth Attmp 
 TDDF.                      No:  Trip for DD 
 TDLG.m                 248.00:  Tot Depth Loggd 
 TFF .                      No:  Trip for Fail 
 TQAA.f-kp               18.00:  Torque Abs Avg 
 TQAN.f-kp               15.00:  Torque Abs Min 
 TQAX.f-kp               20.00:  Torque Abs Max 
 TRRT.°/30m               0.70:  Turn Rotating 
 MRT .                    HCIM:  Maximum Recorded Temperature 
 TTMX.degC               86.00:  Max Tool Temp 
 WBMN.klb                 3.00:  WOB Min 
 WOBA.klb                 5.00:  WOB Avg 
 WOBX.klb                 9.00:  WOB Max 
 YP  .lhf2               32.00:  Yield Point 
~Curve Information Block
#MNEM.UNIT                 API CODE     Curve Description
#---------               -----------    ---------------------------
 TIME.HHMMSS            00 000 000 000:  GT Time & Date
 GTDEPTH.m              00 000 000 000:  GT Depth
 GTPQH.psia             00 000 000 000:  GT HR Quartz Pressure
 GTTQ.degC              00 000 000 000:  GT Quartz Temperature
 GTTN.NONE              00 000 000 000:  GT Test Number
 GTET.sec               00 000 000 000:  GT Elapsed Test Time
 GTTVD.m                00 000 000 000:  GT True Vertical Depth
#Other Information
#
#WARRANTY: Halliburton will use its best efforts to furnish customers with 
#accurate information and interpretations that are part of, and incident to, the services 
#provided.  However, Halliburton cannot and does not warrant the accuracy 
#or correctness of such information and interpretations.  Under no circumstances should any 
#such information or interpretation be relied upon as the sole basis for any drilling, 
#completion, production, or financial decision or any procedure involving any risk to the 
#safety of any drilling venture, drilling rig or its crew or any other third party.  The 
#Customer has full responsibility for all drilling, completion and production operation.  
#Halliburton makes no representations or warranties, either expressed or 
#implied, including, but not limited to, the implied warranties of merchantability or fitness 
#for a particular purpose, with respect to the services rendered.  In no event will 
#Halliburton be liable for failure to obtain any particular results or for 
#any damages, including, but not limited to, indirect, special or consequential damages, 
#resulting from the use of any information or interpretation provided by Halliburton.
#
~A           TIME           GTDEPTH  GTPQH  GTTQ  GTTN  GTET   GTTVD  
# ...
   21:11:50.134.16-Jul-2020 4135.51 4700.13 77.11 7.00 207.12 2799.87
   21:11:50.335.16-Jul-2020 4135.51 4700.13 77.11 7.00 207.32 2799.87
   21:11:50.535.16-Jul-2020 4135.51 4700.14 77.11 7.00 207.52 2799.87
   21:11:50.735.16-Jul-2020 4135.51 4700.11 77.11 7.00 207.72 2799.87
   21:11:50.935.16-Jul-2020 4135.51 4700.05 77.11 7.00 207.92 2799.87
   21:11:51.135.16-Jul-2020 4135.51 4700.18 77.11 7.00 208.12 2799.87
   21:11:51.335.16-Jul-2020 4135.51 4700.18 77.11 7.00 208.32 2799.87
   21:11:51.535.16-Jul-2020 4135.51 4700.14 77.11 7.00 208.52 2799.87
   21:11:51.735.16-Jul-2020 4135.51 4700.21 77.11 7.00 208.72 2799.87
   21:11:51.936.16-Jul-2020 4135.51 4700.08 77.11 7.00 208.92 2799.87
   21:11:52.136.16-Jul-2020 4135.51 4700.09 77.11 7.00 209.12 2799.87
   21:11:52.336.16-Jul-2020 4135.51 4700.09 77.11 7.00 209.32 2799.87
   21:11:52.536.16-Jul-2020 4135.51 4700.11 77.11 7.00 209.52 2799.87
   21:11:52.736.16-Jul-2020 4135.51 4700.11 77.11 7.00 209.72 2799.87
   21:11:52.936.16-Jul-2020 4135.51 4700.06 77.11 7.00 209.92 2799.87
   21:11:53.136.16-Jul-2020 4135.51 4700.06 77.11 7.00 210.12 2799.87
   21:11:53.336.16-Jul-2020 4135.51 4700.17 77.11 7.00 210.32 2799.87
   21:11:53.536.16-Jul-2020 4135.51 4700.17 77.11 7.00 210.52 2799.87
   21:11:53.737.16-Jul-2020 4135.51 4700.10 77.11 7.00 210.72 2799.87
   21:11:53.937.16-Jul-2020 4135.51 4700.21 77.11 7.00 210.92 2799.87
   21:11:54.137.16-Jul-2020 4135.51 4700.06 77.11 7.00 211.12 2799.87
   21:11:54.337.16-Jul-2020 4135.51 4700.06 77.11 7.00 211.32 2799.87
   21:11:54.537.16-Jul-2020 4135.51 4700.14 77.11 7.00 211.52 2799.87
   21:11:54.737.16-Jul-2020 4135.51 4700.09 77.11 7.00 211.72 2799.87
   21:11:54.937.16-Jul-2020 4135.51 4700.11 77.11 7.00 211.92 2799.87
   21:11:55.137.16-Jul-2020 4135.51 4700.13 77.11 7.00 212.12 2799.87
   21:11:55.337.16-Jul-2020 4135.51 4700.13 77.11 7.00 212.32 2799.87
   21:11:55.538.16-Jul-2020 4135.51 4700.14 77.11 7.00 212.52 2799.87
   21:11:55.738.16-Jul-2020 4135.51 4700.11 77.11 7.00 212.72 2799.87
   21:11:55.938.16-Jul-2020 4135.51 4700.10 77.11 7.00 212.92 2799.87
   21:11:56.138.16-Jul-2020 4135.51 4700.13 77.11 7.00 213.12 2799.87
   21:11:56.338.16-Jul-2020 4135.51 4700.13 77.11 7.00 213.32 2799.87
   21:11:56.538.16-Jul-2020 4135.51 4700.16 77.11 7.00 213.52 2799.87
   21:11:56.738.16-Jul-2020 4135.51 4700.10 77.11 7.00 213.72 2799.87
   21:11:56.938.16-Jul-2020 4135.51 4700.11 77.11 7.00 213.92 2799.87
   21:11:57.138.16-Jul-2020 4135.51 4700.11 77.11 7.00 214.12 2799.87
   21:11:57.339.16-Jul-2020 4135.51 4700.12 77.11 7.00 214.32 2799.87
   21:11:57.539.16-Jul-2020 4135.51 4700.12 77.11 7.00 214.52 2799.87
   21:11:57.739.16-Jul-2020 4135.51 4700.10 77.11 7.00 214.72 2799.87
   21:11:57.939.16-Jul-2020 4135.51 4700.12 77.11 7.00 214.92 2799.87
   21:11:58.139.16-Jul-2020 4135.51 4700.11 77.11 7.00 215.12 2799.87
   21:11:58.339.16-Jul-2020 4135.51 4700.11 77.11 7.00 215.32 2799.87
   21:11:58.539.16-Jul-2020 4135.51 4700.10 77.11 7.00 215.52 2799.87
   21:11:58.739.16-Jul-2020 4135.51 4700.14 77.11 7.00 215.72 2799.87
   21:11:58.939.16-Jul-2020 4135.51 4700.11 77.11 7.00 215.92 2799.87
   21:11:59.140.16-Jul-2020 4135.51 4700.11 77.11 7.00 216.12 2799.87
   21:11:59.340.16-Jul-2020 4135.51 4700.11 77.11 7.00 216.32 2799.87
   21:11:59.540.16-Jul-2020 4135.51 4700.11 77.11 7.00 216.52 2799.87
   21:11:59.740.16-Jul-2020 4135.51 4700.13 77.11 7.00 216.72 2799.87
   21:11:59.940.16-Jul-2020 4135.51 4700.12 77.11 7.00 216.92 2799.87
   21:12:00.140.16-Jul-2020 4135.51 4700.13 77.11 7.00 217.12 2799.87
   21:12:00.340.16-Jul-2020 4135.51 4700.13 77.11 7.00 217.32 2799.87
   21:12:00.540.16-Jul-2020 4135.51 4700.13 77.11 7.00 217.52 2799.87
   21:12:00.741.16-Jul-2020 4135.51 4700.13 77.11 7.00 217.72 2799.87
   21:12:00.941.16-Jul-2020 4135.51 4700.12 77.11 7.00 217.92 2799.87
   21:12:01.141.16-Jul-2020 4135.51 4700.11 77.11 7.00 218.12 2799.87
   21:12:01.341.16-Jul-2020 4135.51 4700.10 77.11 7.00 218.32 2799.87
   21:12:01.541.16-Jul-2020 4135.51 4700.11 77.11 7.00 218.52 2799.87
   21:12:01.741.16-Jul-2020 4135.51 4700.14 77.11 7.00 218.72 2799.87
   21:12:01.941.16-Jul-2020 4135.51 4700.11 77.11 7.00 218.92 2799.87
   21:12:02.141.16-Jul-2020 4135.51 4700.11 77.11 7.00 219.12 2799.87
   21:12:02.341.16-Jul-2020 4135.51 4700.11 77.11 7.00 219.32 2799.87
   21:12:02.542.16-Jul-2020 4135.51 4700.10 77.11 7.00 219.52 2799.87
   21:12:02.742.16-Jul-2020 4135.51 4700.13 77.11 7.00 219.72 2799.87
   21:12:02.942.16-Jul-2020 4135.51 4700.11 77.11 7.00 219.92 2799.87
   21:12:03.142.16-Jul-2020 4135.51 4700.13 77.11 7.00 220.12 2799.87
   21:12:03.342.16-Jul-2020 4135.51 4700.10 77.11 7.00 220.32 2799.87
   21:12:03.542.16-Jul-2020 4135.51 4700.11 77.11 7.00 220.53 2799.87
   21:12:03.742.16-Jul-2020 4135.51 4700.12 77.11 7.00 220.73 2799.87
   21:12:03.942.16-Jul-2020 4135.51 4700.11 77.11 7.00 220.93 2799.87
   21:12:04.142.16-Jul-2020 4135.51 4700.11 77.11 7.00 221.13 2799.87
   21:12:04.343.16-Jul-2020 4135.51 4700.12 77.11 7.00 221.33 2799.87
   21:12:04.543.16-Jul-2020 4135.51 4700.10 77.11 7.00 221.53 2799.87
   21:12:04.743.16-Jul-2020 4135.51 4700.12 77.11 7.00 221.73 2799.87
   21:12:04.943.16-Jul-2020 4135.51 4700.12 77.11 7.00 221.93 2799.87
   21:12:05.143.16-Jul-2020 4135.51 4700.11 77.11 7.00 222.13 2799.87
   21:12:05.343.16-Jul-2020 4135.51 4700.20 77.11 7.00 222.33 2799.87
   21:12:05.543.16-Jul-2020 4135.51 4700.08 77.11 7.00 222.53 2799.87
   21:12:05.743.16-Jul-2020 4135.51 4700.08 77.11 7.00 222.73 2799.87
   21:12:05.943.16-Jul-2020 4135.51 4700.13 77.11 7.00 222.93 2799.87
   21:12:06.144.16-Jul-2020 4135.51 4700.09 77.11 7.00 223.13 2799.87
   21:12:06.344.16-Jul-2020 4135.51 4700.12 77.11 7.00 223.33 2799.87
   21:12:06.544.16-Jul-2020 4135.51 4700.11 77.11 7.00 223.53 2799.87
   21:12:06.744.16-Jul-2020 4135.51 4700.10 77.11 7.00 223.73 2799.87
   21:12:06.944.16-Jul-2020 4135.51 4700.14 77.11 7.00 223.93 2799.87
   21:12:07.144.16-Jul-2020 4135.51 4700.09 77.11 7.00 224.13 2799.87
   21:12:07.344.16-Jul-2020 4135.51 4700.09 77.11 7.00 224.33 2799.87
   21:12:07.544.16-Jul-2020 4135.51 4700.11 77.11 7.00 224.53 2799.87
   21:12:07.744.16-Jul-2020 4135.51 4700.12 77.11 7.00 224.73 2799.87
   21:12:07.945.16-Jul-2020 4135.51 4700.11 77.11 7.00 224.93 2799.87
   21:12:08.145.16-Jul-2020 4135.51 4700.11 77.11 7.00 225.13 2799.87
   21:12:08.345.16-Jul-2020 4135.51 4700.13 77.11 7.00 225.33 2799.87
   21:12:08.545.16-Jul-2020 4135.51 4700.19 77.11 7.00 225.53 2799.87
   21:12:08.745.16-Jul-2020 4135.51 4700.06 77.11 7.00 225.73 2799.87
   21:12:08.945.16-Jul-2020 4135.51 4700.11 77.11 7.00 225.93 2799.87
   21:12:09.145.16-Jul-2020 4135.51 4700.06 77.11 7.00 226.13 2799.87
   21:12:09.345.16-Jul-2020 4135.51 4700.06 77.11 7.00 226.33 2799.87
   21:12:09.546.16-Jul-2020 4135.51 4700.13 77.11 7.00 226.53 2799.87
   21:12:09.746.16-Jul-2020 4135.51 4700.13 77.11 7.00 226.73 2799.87
   21:12:09.946.16-Jul-2020 4135.51 4700.10 77.11 7.00 226.93 2799.87
   21:12:10.146.16-Jul-2020 4135.51 4700.13 77.11 7.00 227.13 2799.87
   21:12:10.346.16-Jul-2020 4135.51 4700.13 77.11 7.00 227.33 2799.87
   21:12:10.546.16-Jul-2020 4135.51 4700.24 77.11 7.00 227.53 2799.87
   21:12:10.746.16-Jul-2020 4135.51 4700.03 77.11 7.00 227.73 2799.87
   21:12:10.946.16-Jul-2020 4135.51 4700.10 77.11 7.00 227.93 2799.87
   21:12:11.146.16-Jul-2020 4135.51 4700.11 77.11 7.00 228.13 2799.87
   21:12:11.347.16-Jul-2020 4135.51 4700.11 77.11 7.00 228.33 2799.87
   21:12:11.547.16-Jul-2020 4135.51 4700.17 77.11 7.00 228.53 2799.87
   21:12:11.747.16-Jul-2020 4135.51 4700.11 77.11 7.00 228.73 2799.87
   21:12:11.947.16-Jul-2020 4135.51 4700.14 77.11 7.00 228.93 2799.87
   21:12:12.147.16-Jul-2020 4135.51 4700.08 77.11 7.00 229.13 2799.87
   21:12:12.347.16-Jul-2020 4135.51 4700.08 77.11 7.00 229.33 2799.87
   21:12:12.547.16-Jul-2020 4135.51 4700.10 77.11 7.00 229.53 2799.87
   21:12:12.747.16-Jul-2020 4135.51 4700.11 77.11 7.00 229.73 2799.87
   21:12:12.947.16-Jul-2020 4135.51 4700.11 77.11 7.00 229.93 2799.87
