~Version Information
 VERS.                  2.0:   CWLS log ASCII Standard -VERSION 2.0
 WRAP.                   NO:   One line per depth step
~Well Information Block
#MNEM.UNIT     VALUE/NAME     DESCRIPTION
#---------     -----------    ---------------------------
 STRT.S             22:12:50 16-Jul-20: START TIME 22:12:50 16-Jul-20
 STOP.S             22:19:40 16-Jul-20: STOP TIME  22:19:40 16-Jul-20
 STEP.S                   0.00: STEP TIME
 NULL.                 -999.25: NULL VALUE
 MDS .        Operator Entered:  MAG DATA SOURCE
 UNIT.                     N/A:  LOGGING EQUIPMENT ID
 DCON.         Sperry Drilling:  DIRECTNL CONTR
 DOE .                     N/A:  DOE NUMBER
 RIG .               EastAzeri:  RIG NAME
 JOBN.        AZ-XX-0906363297:  JOB TICKET NUMB
 MWDS.                    Baku:  MWD SHOP
 SRVC.     Turan Drilling & Engineering:  CONTRACTOR
 PROV.                    Baku:  PROVINCE
 STAT.                    Baku:  STATE NAME
 REGN.                   EESSA:  REGION
 BASE.              Azerbaijan:  LOGGING EQUIPMENT BASE LOCATION
 WTYP.                Deviated:  WELL TYPE
 UWI .                     N/A:  UNIQUE WELL IDENTIFIER
 API .                     N/A:  API NUMBER
 COMP.     BP Exploration (Caspian Sea) ltd.:  COMPANY
 WELL.                    D07z:  WELL NAME
 CTRY.              Azerbaijan:  COUNTRY NAME
 SON .        AZ-XX-0906363297:  JOB NUMBER
 FLD .                     ACG:  FIELD NAME
 PDAT.          Mean Sea Level:  PERMANENT DATUM
 FTOP.          Formation Tops:  FORM TOPS DESC
 ILTD.               Lithology:  INTERP LTH DESC
 SVYD.                  Survey:  SURVEY DESC
 DMOD.             Drill Model:  DRILL MOD DESC
 HPTY.       Minimum Curvature:  HOLE POS TYPE
 NREF.                    Grid:  NORTH REFERENCE
 SPUD.               28-Jun-20:  SPUD DATE
 DATE.      18.27.12 28-Jun-20:  END TIME
 STIM.      18.27.12 28-Jun-20:  START TIME
 DMF .             Drill Floor:  DRILL MEAS FROM
 DFST.                        :  DIST FSL TEXT
 DFWT.                        :  DIST FWL TEXT
 CNTY.                        :  COUNTY
 LOC .                        :  LOCATION
 LMF .             Drill Floor:  LOG MEASURED FROM
 VSNS.m                  -7.75:  VERT SEC N/S
 VSEW.m                  -9.19:  VERT SEC E/W
 MMDE.m                   0.00:  MAGUTM CALC DEP
 AGAP.m                  43.60:  AIR GAP
 DEP .m                4058.99:  DEPTH
 APD .m                  43.60:  DEPTH ABOVE PD
 WDMS.m                 151.80:  WD ELEV
 EGL .m                   0.00:  GROUND ELEVATION
 EPD .m                   0.00:  ELEVATION
 AZTC.deg                 6.19:  AZM TOTAL CORR
 GRDC.deg                 0.27:  GRID CORRECTION
 MDEC.deg                 6.46:  MAGNETIC DECL
 MDIP.deg                59.47:  MAGNETIC DIP
 MFLD.nT              50279.00:  MAGNETIC FIELD
 GVFD.g                   1.00:  GRAVITY FIELD
 VSDR.deg               249.96:  VERT SEC DIRECT
 TDD .m                   0.00:  TOTAL DEPTH (DRILLER)
 SDEP.m                   0.00:  START DEPTH
 DFSL.m                   0.00:  DISTANCE FSL
 DFWL.m                   0.00:  DISTANCE FWL
 UTMY.m             4431880.20:  UTM Y
 UTMX.m              538763.98:  UTM X
 WHEW.m                  -9.19:  WELL HEAD E/W
 WHNS.m                  -7.75:  WELL HEAD N/S
 LONG.deg                51.45:  LONGITUDE
 LATI.deg                40.02:  LATITUDE
 TVDS.m                  43.60:  TVDSS CORRECTN
 EKB .m                  43.60:  KB ELEVATION
 EDF .m                  43.60:  DF ELEVATION
 TDL .m                 248.00:  TOTAL DEPTH (LOGGER)
 MAGU.                 1849075:  MAGUTM CHECKSUM
 VSC .                       0:  VS TO CLOSURE
~Parameter Information Block
#MNEM.UNIT       Value        Description
#---------     -----------    ---------------------------
 AV  .mps                 6.34:  Ann Velocity 
 AVMX.mps                 7.00:  Max Ann Veloc 
 AZIF.deg               260.29:  Azm, Final 
 BHAT.        Rotary Steerable:  BHA Type 
 BROT.°/30m               1.20:  Build Rotating 
 BS  .in                  8.50:  Bit Size 
 BSZ .in                  8.50:  Bit Size 
 BTPL.psig              620.00:  Bit Press Loss 
 CABU.                     Yes:  Customer Abuse 
 TCS .hr                 56.22:  Time Ciculation Ended 
 CV  .mps                 3.05:  Crit Velocity 
 CVMX.mps                 3.20:  Max Crit Veloc 
 DD1 .            Musa Ahmadov:  Direct Drillr 1 
 DDSV.                 iCruise:  DD Service 
 DEFF.%                  98.00:  % Det Eff 
 DLRX.°/30m               2.78:  Dogleg Rot Max 
 DLSO.°/30m               0.00:  Dogleg Oriented 
 DLSX.°/30m               0.00:  Dogleg Str Max 
 DRET.      05.20.48 16-Jul-20:  Drill End Time 
 DRST.      10.20.48 13-Jul-20:  Drill Start Tim 
 DTIM.hr                 14.25:  Time Drilling 
 EDEP.m                4326.01:  End Depth 
 ENG1.      Artemiy Matviyanov:  Engineer 1 
 ENG2.           Amrah Tahirov:  Engineer 2 
 ETIM.      22.30.00 18-Jul-20:  End Time 
 FLOI.gpm               550.00:  Flow In 
 FLON.gpm               450.00:  Flow In Min 
 FLOS.cptm                0.00:  Fluid Loss 
 FLOX.gpm               600.00:  Flow In Max 
 HFLO.                      No:  High Flow 
 HPRE.                      No:  High Pressure 
 HTEM.                      No:  High Temp 
 HYDO.m                   1.80:  Hydro Offset 
 IFIN.deg                65.41:  Inc, Final 
 IMAX.deg                65.14:  Inc Max 
 IMIN.deg                58.89:  Inc Min 
 IMND.m                4104.92:  Inc Min Depth 
 IMXD.m                4303.89:  Inc Max Depth 
 JARR.                      No:  Jarring 
 LETM.      10.20.48 17-Jul-20:  Log End Time 
 LOST.hr                     0:  Lost Rig Time 
 LSTM.      10.20.48 13-Jul-20:  Log Start Time 
 MDCL.ppm             37000.00:  Mud Chlorides 
 MDES.     Inversion Oil/Synthetic:  Mud Desc 
 DFD .sg                  1.52:  Mud Density 
 MDMN.sg                  1.52:  Dens Mud Min 
 MDMX.sg                  1.52:  Dens Mud Max 
 MOIL.                   52.70:  Run Mud Oil % 
 MOWR.                   68:32:  Run Mud OWR 
 MSND.                     0.2:  Run Mud Sand % 
 MSOL.                    21.6:  Run Mud Solids% 
 DFV .spqt               79.00:  Mud Viscosity 
 MWOD.in                  6.75:  MWD Tool OD 
 MWSI.                      No:  Serv Intrp, MWD 
 OTIM.hr                114.04:  Time Operating 
 PCON.          Wear / Scratch:  Pad Condition 
 PMAX.psia            11782.92:  Press Op, Max 
 PV  .cP                 49.00:  Mud PV 
 RUN .                     600:  Run Number 
 ROPA.m/hr               20.00:  ROP Avg 
 ROPN.m/hr               15.00:  ROP Min 
 ROPX.m/hr               22.00:  ROP Max 
 RPMA.rpm               120.00:  RPM Surface Avg 
 RPMN.rpm                90.00:  RPM Surface Min 
 RPMX.rpm               140.00:  RPM Surface Max 
 RRUN.                     600:  Rig Run Number 
 SAZI.deg               260.29:  Azm, Start 
 SDEP.m                4078.01:  Start Depth 
 SIDD.                      No:  Serv Intrp, DD 
 SINC.deg                58.89:  Inc, Start 
 SPPA.psig             4560.00:  SPP Avg 
 SPPN.psig             3600.00:  SPP Min 
 SPPX.psig             4800.00:  SPP Max 
 STIM.      10.20.48 13-Jul-20:  Start Time 
 SVCS.                 DD, MWD:  Services 
 SVER.                    9.20:  Sperry Version 
 TDAT.m                4378.01:  Tot Depth Attmp 
 TDDF.                      No:  Trip for DD 
 TDLG.m                 248.00:  Tot Depth Loggd 
 TFF .                      No:  Trip for Fail 
 TQAA.f-kp               18.00:  Torque Abs Avg 
 TQAN.f-kp               15.00:  Torque Abs Min 
 TQAX.f-kp               20.00:  Torque Abs Max 
 TRRT.°/30m               0.70:  Turn Rotating 
 MRT .                    HCIM:  Maximum Recorded Temperature 
 TTMX.degC               86.00:  Max Tool Temp 
 WBMN.klb                 3.00:  WOB Min 
 WOBA.klb                 5.00:  WOB Avg 
 WOBX.klb                 9.00:  WOB Max 
 YP  .lhf2               32.00:  Yield Point 
~Curve Information Block
#MNEM.UNIT                 API CODE     Curve Description
#---------               -----------    ---------------------------
 TIME.HHMMSS            00 000 000 000:  GT Time & Date
 GTDEPTH.m              00 000 000 000:  GT Depth
 GTPQH.psia             00 000 000 000:  GT HR Quartz Pressure
 GTTQ.degC              00 000 000 000:  GT Quartz Temperature
 GTTN.NONE              00 000 000 000:  GT Test Number
 GTET.sec               00 000 000 000:  GT Elapsed Test Time
 GTTVD.m                00 000 000 000:  GT True Vertical Depth
#Other Information
#
#WARRANTY: Halliburton will use its best efforts to furnish customers with 
#accurate information and interpretations that are part of, and incident to, the services 
#provided.  However, Halliburton cannot and does not warrant the accuracy 
#or correctness of such information and interpretations.  Under no circumstances should any 
#such information or interpretation be relied upon as the sole basis for any drilling, 
#completion, production, or financial decision or any procedure involving any risk to the 
#safety of any drilling venture, drilling rig or its crew or any other third party.  The 
#Customer has full responsibility for all drilling, completion and production operation.  
#Halliburton makes no representations or warranties, either expressed or 
#implied, including, but not limited to, the implied warranties of merchantability or fitness 
#for a particular purpose, with respect to the services rendered.  In no event will 
#Halliburton be liable for failure to obtain any particular results or for 
#any damages, including, but not limited to, indirect, special or consequential damages, 
#resulting from the use of any information or interpretation provided by Halliburton.
#
~A           TIME           GTDEPTH  GTPQH  GTTQ  GTTN  GTET   GTTVD  
# ...
   22:15:31.356.16-Jul-2020 4093.01 4652.88 76.38 8.00 161.06 2778.38
   22:15:31.556.16-Jul-2020 4093.01 4652.88 76.38 8.00 161.26 2778.38
   22:15:31.756.16-Jul-2020 4093.01 4652.84 76.38 8.00 161.46 2778.38
   22:15:31.956.16-Jul-2020 4093.01 4652.86 76.38 8.00 161.66 2778.38
   22:15:32.156.16-Jul-2020 4093.01 4652.85 76.38 8.00 161.86 2778.38
   22:15:32.356.16-Jul-2020 4093.01 4652.94 76.38 8.00 162.06 2778.38
   22:15:32.556.16-Jul-2020 4093.01 4652.94 76.38 8.00 162.26 2778.38
   22:15:32.756.16-Jul-2020 4093.01 4652.85 76.38 8.00 162.46 2778.38
   22:15:32.956.16-Jul-2020 4093.01 4652.83 76.38 8.00 162.66 2778.38
   22:15:33.156.16-Jul-2020 4093.01 4652.96 76.38 8.00 162.86 2778.38
   22:15:33.356.16-Jul-2020 4093.01 4652.84 76.38 8.00 163.06 2778.38
   22:15:33.556.16-Jul-2020 4093.01 4652.85 76.38 8.00 163.26 2778.38
   22:15:33.756.16-Jul-2020 4093.01 4652.86 76.38 8.00 163.46 2778.38
   22:15:33.957.16-Jul-2020 4093.01 4652.86 76.38 8.00 163.66 2778.38
   22:15:34.157.16-Jul-2020 4093.01 4652.86 76.38 8.00 163.86 2778.38
   22:15:34.357.16-Jul-2020 4093.01 4652.85 76.38 8.00 164.06 2778.38
   22:15:34.557.16-Jul-2020 4093.01 4652.85 76.38 8.00 164.26 2778.38
   22:15:34.757.16-Jul-2020 4093.01 4652.86 76.38 8.00 164.46 2778.38
   22:15:34.957.16-Jul-2020 4093.01 4652.88 76.38 8.00 164.66 2778.38
   22:15:35.157.16-Jul-2020 4093.01 4652.86 76.38 8.00 164.86 2778.38
   22:15:35.357.16-Jul-2020 4093.01 4652.87 76.38 8.00 165.06 2778.38
   22:15:35.557.16-Jul-2020 4093.01 4652.87 76.38 8.00 165.26 2778.38
   22:15:35.757.16-Jul-2020 4093.01 4652.93 76.38 8.00 165.46 2778.38
   22:15:35.957.16-Jul-2020 4093.01 4652.84 76.38 8.00 165.66 2778.38
   22:15:36.157.16-Jul-2020 4093.01 4652.85 76.38 8.00 165.86 2778.38
   22:15:36.357.16-Jul-2020 4093.01 4652.86 76.38 8.00 166.06 2778.38
   22:15:36.558.16-Jul-2020 4093.01 4652.86 76.38 8.00 166.26 2778.38
   22:15:36.758.16-Jul-2020 4093.01 4652.88 76.38 8.00 166.46 2778.38
   22:15:36.958.16-Jul-2020 4093.01 4652.86 76.38 8.00 166.66 2778.38
   22:15:37.158.16-Jul-2020 4093.01 4652.86 76.38 8.00 166.86 2778.38
   22:15:37.358.16-Jul-2020 4093.01 4652.87 76.38 8.00 167.06 2778.38
   22:15:37.558.16-Jul-2020 4093.01 4652.87 76.38 8.00 167.26 2778.38
   22:15:37.758.16-Jul-2020 4093.01 4652.88 76.38 8.00 167.46 2778.38
   22:15:37.958.16-Jul-2020 4093.01 4652.88 76.38 8.00 167.66 2778.38
   22:15:38.158.16-Jul-2020 4093.01 4652.88 76.38 8.00 167.86 2778.38
   22:15:38.358.16-Jul-2020 4093.01 4652.87 76.38 8.00 168.06 2778.38
   22:15:38.558.16-Jul-2020 4093.01 4652.88 76.38 8.00 168.26 2778.38
   22:15:38.758.16-Jul-2020 4093.01 4652.88 76.38 8.00 168.46 2778.38
   22:15:38.958.16-Jul-2020 4093.01 4652.95 76.38 8.00 168.66 2778.38
   22:15:39.159.16-Jul-2020 4093.01 4652.83 76.38 8.00 168.86 2778.38
   22:15:39.359.16-Jul-2020 4093.01 4652.86 76.38 8.00 169.06 2778.38
   22:15:39.559.16-Jul-2020 4093.01 4652.86 76.38 8.00 169.26 2778.38
   22:15:39.759.16-Jul-2020 4093.01 4652.85 76.38 8.00 169.46 2778.38
   22:15:39.959.16-Jul-2020 4093.01 4652.93 76.38 8.00 169.66 2778.38
   22:15:40.159.16-Jul-2020 4093.01 4652.85 76.38 8.00 169.86 2778.38
   22:15:40.359.16-Jul-2020 4093.01 4652.88 76.38 8.00 170.06 2778.38
   22:15:40.559.16-Jul-2020 4093.01 4652.94 76.38 8.00 170.26 2778.38
   22:15:40.759.16-Jul-2020 4093.01 4652.83 76.38 8.00 170.46 2778.38
   22:15:40.959.16-Jul-2020 4093.01 4652.86 76.38 8.00 170.66 2778.38
   22:15:41.159.16-Jul-2020 4093.01 4652.86 76.38 8.00 170.86 2778.38
   22:15:41.359.16-Jul-2020 4093.01 4652.86 76.38 8.00 171.06 2778.38
   22:15:41.559.16-Jul-2020 4093.01 4652.88 76.38 8.00 171.26 2778.38
   22:15:41.760.16-Jul-2020 4093.01 4652.88 76.38 8.00 171.46 2778.38
   22:15:41.960.16-Jul-2020 4093.01 4652.93 76.38 8.00 171.66 2778.38
   22:15:42.160.16-Jul-2020 4093.01 4652.84 76.38 8.00 171.86 2778.38
   22:15:42.360.16-Jul-2020 4093.01 4652.88 76.38 8.00 172.06 2778.38
   22:15:42.560.16-Jul-2020 4093.01 4652.88 76.38 8.00 172.26 2778.38
   22:15:42.760.16-Jul-2020 4093.01 4652.86 76.38 8.00 172.47 2778.38
   22:15:42.960.16-Jul-2020 4093.01 4652.88 76.38 8.00 172.67 2778.38
   22:15:43.160.16-Jul-2020 4093.01 4652.87 76.38 8.00 172.87 2778.38
   22:15:43.360.16-Jul-2020 4093.01 4652.88 76.38 8.00 173.07 2778.38
   22:15:43.560.16-Jul-2020 4093.01 4652.88 76.38 8.00 173.27 2778.38
   22:15:43.760.16-Jul-2020 4093.01 4652.88 76.38 8.00 173.47 2778.38
   22:15:43.960.16-Jul-2020 4093.01 4652.87 76.38 8.00 173.67 2778.38
   22:15:44.160.16-Jul-2020 4093.01 4652.86 76.38 8.00 173.87 2778.38
   22:15:44.360.16-Jul-2020 4093.01 4652.84 76.38 8.00 174.07 2778.38
   22:15:44.561.16-Jul-2020 4093.01 4652.97 76.38 8.00 174.27 2778.38
   22:15:44.761.16-Jul-2020 4093.01 4652.84 76.38 8.00 174.47 2778.38
   22:15:44.961.16-Jul-2020 4093.01 4652.87 76.38 8.00 174.67 2778.38
   22:15:45.161.16-Jul-2020 4093.01 4652.86 76.38 8.00 174.87 2778.38
   22:15:45.361.16-Jul-2020 4093.01 4652.88 76.38 8.00 175.07 2778.38
   22:15:45.561.16-Jul-2020 4093.01 4652.88 76.38 8.00 175.27 2778.38
   22:15:45.761.16-Jul-2020 4093.01 4652.87 76.38 8.00 175.47 2778.38
   22:15:45.961.16-Jul-2020 4093.01 4652.88 76.38 8.00 175.67 2778.38
   22:15:46.161.16-Jul-2020 4093.01 4652.87 76.38 8.00 175.87 2778.38
   22:15:46.361.16-Jul-2020 4093.01 4652.88 76.38 8.00 176.07 2778.38
   22:15:46.561.16-Jul-2020 4093.01 4652.84 76.38 8.00 176.27 2778.38
   22:15:46.761.16-Jul-2020 4093.01 4652.98 76.38 8.00 176.47 2778.38
   22:15:46.961.16-Jul-2020 4093.01 4652.84 76.38 8.00 176.67 2778.38
   22:15:47.162.16-Jul-2020 4093.01 4652.87 76.38 8.00 176.87 2778.38
   22:15:47.362.16-Jul-2020 4093.01 4652.88 76.38 8.00 177.07 2778.38
   22:15:47.562.16-Jul-2020 4093.01 4652.96 76.38 8.00 177.27 2778.38
   22:15:47.762.16-Jul-2020 4093.01 4652.83 76.38 8.00 177.47 2778.38
   22:15:47.962.16-Jul-2020 4093.01 4652.86 76.38 8.00 177.67 2778.38
   22:15:48.162.16-Jul-2020 4093.01 4652.83 76.38 8.00 177.87 2778.38
   22:15:48.362.16-Jul-2020 4093.01 4652.96 76.38 8.00 178.07 2778.38
   22:15:48.562.16-Jul-2020 4093.01 4652.85 76.38 8.00 178.27 2778.38
   22:15:48.762.16-Jul-2020 4093.01 4652.87 76.38 8.00 178.47 2778.38
   22:15:48.962.16-Jul-2020 4093.01 4652.87 76.38 8.00 178.67 2778.38
   22:15:49.162.16-Jul-2020 4093.01 4652.85 76.38 8.00 178.87 2778.38
   22:15:49.362.16-Jul-2020 4093.01 4652.88 76.38 8.00 179.07 2778.38
   22:15:49.562.16-Jul-2020 4093.01 4652.97 76.38 8.00 179.27 2778.38
   22:15:49.763.16-Jul-2020 4093.01 4652.82 76.38 8.00 179.47 2778.38
   22:15:49.963.16-Jul-2020 4093.01 4652.86 76.38 8.00 179.67 2778.38
   22:15:50.163.16-Jul-2020 4093.01 4652.88 76.38 8.00 179.87 2778.38
   22:15:50.363.16-Jul-2020 4093.01 4652.85 76.38 8.00 180.07 2778.38
   22:15:50.563.16-Jul-2020 4093.01 4652.85 76.38 8.00 180.27 2778.38
   22:15:50.763.16-Jul-2020 4093.01 4652.88 76.38 8.00 180.47 2778.38
   22:15:50.963.16-Jul-2020 4093.01 4652.86 76.38 8.00 180.67 2778.38
   22:15:51.163.16-Jul-2020 4093.01 4652.88 76.38 8.00 180.87 2778.38
   22:15:51.363.16-Jul-2020 4093.01 4652.88 76.38 8.00 181.07 2778.38
   22:15:51.563.16-Jul-2020 4093.01 4652.88 76.38 8.00 181.27 2778.38
   22:15:51.763.16-Jul-2020 4093.01 4652.88 76.38 8.00 181.47 2778.38
   22:15:51.963.16-Jul-2020 4093.01 4652.88 76.38 8.00 181.67 2778.38
   22:15:52.163.16-Jul-2020 4093.01 4652.88 76.38 8.00 181.87 2778.38
   22:15:52.364.16-Jul-2020 4093.01 4652.92 76.38 8.00 182.07 2778.38
   22:15:52.564.16-Jul-2020 4093.01 4652.85 76.38 8.00 182.27 2778.38
   22:15:52.764.16-Jul-2020 4093.01 4652.88 76.38 8.00 182.47 2778.38
   22:15:52.964.16-Jul-2020 4093.01 4652.87 76.38 8.00 182.67 2778.38
   22:15:53.164.16-Jul-2020 4093.01 4652.88 76.38 8.00 182.87 2778.38
   22:15:53.364.16-Jul-2020 4093.01 4652.87 76.38 8.00 183.07 2778.38
   22:15:53.564.16-Jul-2020 4093.01 4652.87 76.38 8.00 183.27 2778.38
   22:15:53.764.16-Jul-2020 4093.01 4652.88 76.38 8.00 183.47 2778.38
   22:15:53.964.16-Jul-2020 4093.01 4652.88 76.38 8.00 183.67 2778.38
   22:15:54.164.16-Jul-2020 4093.01 4652.87 76.38 8.00 183.87 2778.38
