~Version Information
 VERS.                  2.0:   CWLS log ASCII Standard -VERSION 2.0
 WRAP.                   NO:   One line per depth step
~Well Information Block
#MNEM.UNIT     VALUE/NAME     DESCRIPTION
#---------     -----------    ---------------------------
 STRT.S             18:36:16 16-Jul-20: START TIME 18:36:16 16-Jul-20
 STOP.S             18:43:12 16-Jul-20: STOP TIME  18:43:12 16-Jul-20
 STEP.S                   0.00: STEP TIME
 NULL.                 -999.25: NULL VALUE
 MDS .        Operator Entered:  MAG DATA SOURCE
 UNIT.                     N/A:  LOGGING EQUIPMENT ID
 DCON.         Sperry Drilling:  DIRECTNL CONTR
 DOE .                     N/A:  DOE NUMBER
 RIG .               EastAzeri:  RIG NAME
 JOBN.        AZ-XX-0906363297:  JOB TICKET NUMB
 MWDS.                    Baku:  MWD SHOP
 SRVC.     Turan Drilling & Engineering:  CONTRACTOR
 PROV.                    Baku:  PROVINCE
 STAT.                    Baku:  STATE NAME
 REGN.                   EESSA:  REGION
 BASE.              Azerbaijan:  LOGGING EQUIPMENT BASE LOCATION
 WTYP.                Deviated:  WELL TYPE
 UWI .                     N/A:  UNIQUE WELL IDENTIFIER
 API .                     N/A:  API NUMBER
 COMP.     BP Exploration (Caspian Sea) ltd.:  COMPANY
 WELL.                    D07z:  WELL NAME
 CTRY.              Azerbaijan:  COUNTRY NAME
 SON .        AZ-XX-0906363297:  JOB NUMBER
 FLD .                     ACG:  FIELD NAME
 PDAT.          Mean Sea Level:  PERMANENT DATUM
 FTOP.          Formation Tops:  FORM TOPS DESC
 ILTD.               Lithology:  INTERP LTH DESC
 SVYD.                  Survey:  SURVEY DESC
 DMOD.             Drill Model:  DRILL MOD DESC
 HPTY.       Minimum Curvature:  HOLE POS TYPE
 NREF.                    Grid:  NORTH REFERENCE
 SPUD.               28-Jun-20:  SPUD DATE
 DATE.      18.27.12 28-Jun-20:  END TIME
 STIM.      18.27.12 28-Jun-20:  START TIME
 DMF .             Drill Floor:  DRILL MEAS FROM
 DFST.                        :  DIST FSL TEXT
 DFWT.                        :  DIST FWL TEXT
 CNTY.                        :  COUNTY
 LOC .                        :  LOCATION
 LMF .             Drill Floor:  LOG MEASURED FROM
 VSNS.m                  -7.75:  VERT SEC N/S
 VSEW.m                  -9.19:  VERT SEC E/W
 MMDE.m                   0.00:  MAGUTM CALC DEP
 AGAP.m                  43.60:  AIR GAP
 DEP .m                4058.99:  DEPTH
 APD .m                  43.60:  DEPTH ABOVE PD
 WDMS.m                 151.80:  WD ELEV
 EGL .m                   0.00:  GROUND ELEVATION
 EPD .m                   0.00:  ELEVATION
 AZTC.deg                 6.19:  AZM TOTAL CORR
 GRDC.deg                 0.27:  GRID CORRECTION
 MDEC.deg                 6.46:  MAGNETIC DECL
 MDIP.deg                59.47:  MAGNETIC DIP
 MFLD.nT              50279.00:  MAGNETIC FIELD
 GVFD.g                   1.00:  GRAVITY FIELD
 VSDR.deg               249.96:  VERT SEC DIRECT
 TDD .m                   0.00:  TOTAL DEPTH (DRILLER)
 SDEP.m                   0.00:  START DEPTH
 DFSL.m                   0.00:  DISTANCE FSL
 DFWL.m                   0.00:  DISTANCE FWL
 UTMY.m             4431880.20:  UTM Y
 UTMX.m              538763.98:  UTM X
 WHEW.m                  -9.19:  WELL HEAD E/W
 WHNS.m                  -7.75:  WELL HEAD N/S
 LONG.deg                51.45:  LONGITUDE
 LATI.deg                40.02:  LATITUDE
 TVDS.m                  43.60:  TVDSS CORRECTN
 EKB .m                  43.60:  KB ELEVATION
 EDF .m                  43.60:  DF ELEVATION
 TDL .m                 248.00:  TOTAL DEPTH (LOGGER)
 MAGU.                 1849075:  MAGUTM CHECKSUM
 VSC .                       0:  VS TO CLOSURE
~Parameter Information Block
#MNEM.UNIT       Value        Description
#---------     -----------    ---------------------------
 AV  .mps                 6.34:  Ann Velocity 
 AVMX.mps                 7.00:  Max Ann Veloc 
 AZIF.deg               260.29:  Azm, Final 
 BHAT.        Rotary Steerable:  BHA Type 
 BROT.°/30m               1.20:  Build Rotating 
 BS  .in                  8.50:  Bit Size 
 BSZ .in                  8.50:  Bit Size 
 BTPL.psig              620.00:  Bit Press Loss 
 CABU.                     Yes:  Customer Abuse 
 COMM.                     Ì>`:  Run Comments 1 
 TCS .hr                 56.22:  Time Ciculation Ended 
 CV  .mps                 3.05:  Crit Velocity 
 CVMX.mps                 3.20:  Max Crit Veloc 
 DD1 .            Musa Ahmadov:  Direct Drillr 1 
 DDSV.                 iCruise:  DD Service 
 DEFF.%                  98.00:  % Det Eff 
 DLRX.°/30m               2.78:  Dogleg Rot Max 
 DLSO.°/30m               0.00:  Dogleg Oriented 
 DLSX.°/30m               0.00:  Dogleg Str Max 
 DRET.      05.20.48 16-Jul-20:  Drill End Time 
 DRST.      10.20.48 13-Jul-20:  Drill Start Tim 
 DTIM.hr                 14.25:  Time Drilling 
 EDEP.m                4326.01:  End Depth 
 ENG1.      Artemiy Matviyanov:  Engineer 1 
 ENG2.           Amrah Tahirov:  Engineer 2 
 ETIM.      22.30.00 18-Jul-20:  End Time 
 FLOI.gpm               550.00:  Flow In 
 FLON.gpm               450.00:  Flow In Min 
 FLOS.cptm                0.00:  Fluid Loss 
 FLOX.gpm               600.00:  Flow In Max 
 HFLO.                      No:  High Flow 
 HPRE.                      No:  High Pressure 
 HTEM.                      No:  High Temp 
 HYDO.m                   1.80:  Hydro Offset 
 IFIN.deg                65.41:  Inc, Final 
 IMAX.deg                65.14:  Inc Max 
 IMIN.deg                58.89:  Inc Min 
 IMND.m                4104.92:  Inc Min Depth 
 IMXD.m                4303.89:  Inc Max Depth 
 JARR.                      No:  Jarring 
 LETM.      10.20.48 17-Jul-20:  Log End Time 
 LOST.hr                     0:  Lost Rig Time 
 LSTM.      10.20.48 13-Jul-20:  Log Start Time 
 MDCL.ppm             37000.00:  Mud Chlorides 
 MDES.     Inversion Oil/Synthetic:  Mud Desc 
 DFD .sg                  1.52:  Mud Density 
 MDMN.sg                  1.52:  Dens Mud Min 
 MDMX.sg                  1.52:  Dens Mud Max 
 MOIL.                   52.70:  Run Mud Oil % 
 MOWR.                   68:32:  Run Mud OWR 
 MSND.                     0.2:  Run Mud Sand % 
 MSOL.                    21.6:  Run Mud Solids% 
 DFV .spqt               79.00:  Mud Viscosity 
 MWOD.in                  6.75:  MWD Tool OD 
 MWSI.                      No:  Serv Intrp, MWD 
 OTIM.hr                114.04:  Time Operating 
 PCON.          Wear / Scratch:  Pad Condition 
 PMAX.psia            11782.92:  Press Op, Max 
 PV  .cP                 49.00:  Mud PV 
 RUN .                     600:  Run Number 
 ROPA.m/hr               20.00:  ROP Avg 
 ROPN.m/hr               15.00:  ROP Min 
 ROPX.m/hr               22.00:  ROP Max 
 RPMA.rpm               120.00:  RPM Surface Avg 
 RPMN.rpm                90.00:  RPM Surface Min 
 RPMX.rpm               140.00:  RPM Surface Max 
 RRUN.                     600:  Rig Run Number 
 SAZI.deg               260.29:  Azm, Start 
 SDEP.m                4078.01:  Start Depth 
 SIDD.                      No:  Serv Intrp, DD 
 SINC.deg                58.89:  Inc, Start 
 SPPA.psig             4560.00:  SPP Avg 
 SPPN.psig             3600.00:  SPP Min 
 SPPX.psig             4800.00:  SPP Max 
 STIM.      10.20.48 13-Jul-20:  Start Time 
 SVCS.                 DD, MWD:  Services 
 SVER.                    9.20:  Sperry Version 
 TDAT.m                4378.01:  Tot Depth Attmp 
 TDDF.                      No:  Trip for DD 
 TDLG.m                 248.00:  Tot Depth Loggd 
 TFF .                      No:  Trip for Fail 
 TQAA.f-kp               18.00:  Torque Abs Avg 
 TQAN.f-kp               15.00:  Torque Abs Min 
 TQAX.f-kp               20.00:  Torque Abs Max 
 TRRT.°/30m               0.70:  Turn Rotating 
 MRT .                    HCIM:  Maximum Recorded Temperature 
 TTMX.degC               86.00:  Max Tool Temp 
 WBMN.klb                 3.00:  WOB Min 
 WOBA.klb                 5.00:  WOB Avg 
 WOBX.klb                 9.00:  WOB Max 
 YP  .lhf2               32.00:  Yield Point 
~Curve Information Block
#MNEM.UNIT                 API CODE     Curve Description
#---------               -----------    ---------------------------
 TIME.HHMMSS            00 000 000 000:  GT Time & Date
 GTDEPTH.m              00 000 000 000:  GT Depth
 GTPQH.psia             00 000 000 000:  GT HR Quartz Pressure
 GTTQ.degC              00 000 000 000:  GT Quartz Temperature
 GTTN.NONE              00 000 000 000:  GT Test Number
 GTET.sec               00 000 000 000:  GT Elapsed Test Time
 GTTVD.m                00 000 000 000:  GT True Vertical Depth
#Other Information
#
#WARRANTY: Halliburton will use its best efforts to furnish customers with 
#accurate information and interpretations that are part of, and incident to, the services 
#provided.  However, Halliburton cannot and does not warrant the accuracy 
#or correctness of such information and interpretations.  Under no circumstances should any 
#such information or interpretation be relied upon as the sole basis for any drilling, 
#completion, production, or financial decision or any procedure involving any risk to the 
#safety of any drilling venture, drilling rig or its crew or any other third party.  The 
#Customer has full responsibility for all drilling, completion and production operation.  
#Halliburton makes no representations or warranties, either expressed or 
#implied, including, but not limited to, the implied warranties of merchantability or fitness 
#for a particular purpose, with respect to the services rendered.  In no event will 
#Halliburton be liable for failure to obtain any particular results or for 
#any damages, including, but not limited to, indirect, special or consequential damages, 
#resulting from the use of any information or interpretation provided by Halliburton.
#
~A           TIME           GTDEPTH  GTPQH  GTTQ  GTTN  GTET   GTTVD  
# ...
   18:42:24.573.16-Jul-2020 4198.01 6988.69 79.36 5.00 367.86 2828.58
   18:42:24.773.16-Jul-2020 4198.01 6988.69 79.36 5.00 368.06 2828.58
   18:42:24.973.16-Jul-2020 4198.01 6988.70 79.36 5.00 368.26 2828.58
   18:42:25.172.16-Jul-2020 4198.01 6988.42 79.36 5.00 368.46 2828.58
   18:42:25.372.16-Jul-2020 4198.01 6988.57 79.36 5.00 368.66 2828.58
   18:42:25.572.16-Jul-2020 4198.01 6988.33 79.36 5.00 368.86 2828.58
   18:42:25.772.16-Jul-2020 4198.01 6988.71 79.36 5.00 369.06 2828.58
   18:42:25.972.16-Jul-2020 4198.01 6987.32 79.36 5.00 369.26 2828.58
   18:42:26.172.16-Jul-2020 4198.01 6997.91 79.37 5.00 369.46 2828.58
   18:42:26.372.16-Jul-2020 4198.01 6986.61 79.37 5.00 369.66 2828.58
   18:42:26.572.16-Jul-2020 4198.01 6992.14 79.37 5.00 369.86 2828.58
   18:42:26.772.16-Jul-2020 4198.01 6986.68 79.37 5.00 370.06 2828.58
   18:42:26.972.16-Jul-2020 4198.01 6991.29 79.37 5.00 370.26 2828.58
   18:42:27.172.16-Jul-2020 4198.01 6989.73 79.37 5.00 370.46 2828.58
   18:42:27.372.16-Jul-2020 4198.01 6986.60 79.37 5.00 370.66 2828.58
   18:42:27.572.16-Jul-2020 4198.01 7005.91 79.37 5.00 370.86 2828.58
   18:42:27.771.16-Jul-2020 4198.01 6977.03 79.37 5.00 371.06 2828.58
   18:42:27.971.16-Jul-2020 4198.01 6995.00 79.37 5.00 371.26 2828.58
   18:42:28.171.16-Jul-2020 4198.01 6988.79 79.37 5.00 371.46 2828.58
   18:42:28.371.16-Jul-2020 4198.01 6998.36 79.37 5.00 371.66 2828.58
   18:42:28.571.16-Jul-2020 4198.01 6987.37 79.37 5.00 371.86 2828.58
   18:42:28.771.16-Jul-2020 4198.01 6987.37 79.37 5.00 372.06 2828.58
   18:42:28.971.16-Jul-2020 4198.01 6987.64 79.37 5.00 372.26 2828.58
   18:42:29.171.16-Jul-2020 4198.01 6990.11 79.37 5.00 372.46 2828.58
   18:42:29.371.16-Jul-2020 4198.01 7002.09 79.37 5.00 372.66 2828.58
   18:42:29.571.16-Jul-2020 4198.01 6983.41 79.37 5.00 372.86 2828.58
   18:42:29.771.16-Jul-2020 4198.01 6983.41 79.37 5.00 373.06 2828.58
   18:42:29.971.16-Jul-2020 4198.01 6991.25 79.37 5.00 373.26 2828.58
   18:42:30.171.16-Jul-2020 4198.01 6989.42 79.37 5.00 373.46 2828.58
   18:42:30.371.16-Jul-2020 4198.01 6990.70 79.37 5.00 373.66 2828.58
   18:42:30.570.16-Jul-2020 4198.01 6989.79 79.37 5.00 373.86 2828.58
   18:42:30.770.16-Jul-2020 4198.01 6990.22 79.37 5.00 374.06 2828.58
   18:42:30.970.16-Jul-2020 4198.01 6988.10 79.37 5.00 374.26 2828.58
   18:42:31.170.16-Jul-2020 4198.01 6990.08 79.37 5.00 374.46 2828.58
   18:42:31.370.16-Jul-2020 4198.01 6988.65 79.37 5.00 374.66 2828.58
   18:42:31.570.16-Jul-2020 4198.01 6989.18 79.37 5.00 374.86 2828.58
   18:42:31.770.16-Jul-2020 4198.01 6989.18 79.37 5.00 375.06 2828.58
   18:42:31.970.16-Jul-2020 4198.01 6988.31 79.37 5.00 375.26 2828.58
   18:42:32.170.16-Jul-2020 4198.01 6997.12 79.37 5.00 375.46 2828.58
   18:42:32.370.16-Jul-2020 4198.01 6991.35 79.37 5.00 375.66 2828.58
   18:42:32.570.16-Jul-2020 4198.01 6988.53 79.37 5.00 375.86 2828.58
   18:42:32.770.16-Jul-2020 4198.01 6988.53 79.37 5.00 376.06 2828.58
   18:42:32.970.16-Jul-2020 4198.01 6990.92 79.36 5.00 376.26 2828.58
   18:42:33.169.16-Jul-2020 4198.01 6988.67 79.36 5.00 376.46 2828.58
   18:42:33.369.16-Jul-2020 4198.01 6989.17 79.36 5.00 376.66 2828.58
   18:42:33.569.16-Jul-2020 4198.01 6989.24 79.36 5.00 376.86 2828.58
   18:42:33.769.16-Jul-2020 4198.01 6989.04 79.36 5.00 377.06 2828.58
   18:42:33.969.16-Jul-2020 4198.01 6989.43 79.36 5.00 377.26 2828.58
   18:42:34.169.16-Jul-2020 4198.01 6987.77 79.36 5.00 377.46 2828.58
   18:42:34.369.16-Jul-2020 4198.01 6989.17 79.36 5.00 377.66 2828.58
   18:42:34.569.16-Jul-2020 4198.01 6987.88 79.36 5.00 377.86 2828.58
   18:42:34.769.16-Jul-2020 4198.01 6988.54 79.36 5.00 378.06 2828.58
   18:42:34.969.16-Jul-2020 4198.01 6987.71 79.36 5.00 378.26 2828.58
   18:42:35.169.16-Jul-2020 4198.01 6987.46 79.36 5.00 378.46 2828.58
   18:42:35.369.16-Jul-2020 4198.01 6999.39 79.36 5.00 378.66 2828.58
   18:42:35.569.16-Jul-2020 4198.01 6982.99 79.36 5.00 378.86 2828.58
   18:42:35.768.16-Jul-2020 4198.01 6982.99 79.36 5.00 379.06 2828.58
   18:42:35.968.16-Jul-2020 4198.01 6999.36 79.36 5.00 379.26 2828.58
   18:42:36.168.16-Jul-2020 4198.01 6988.04 79.36 5.00 379.46 2828.58
   18:42:36.368.16-Jul-2020 4198.01 6991.59 79.36 5.00 379.66 2828.58
   18:42:36.568.16-Jul-2020 4198.01 6987.16 79.36 5.00 379.86 2828.58
   18:42:36.768.16-Jul-2020 4198.01 6987.16 79.36 5.00 380.06 2828.58
   18:42:36.968.16-Jul-2020 4198.01 6989.18 79.36 5.00 380.26 2828.58
   18:42:37.168.16-Jul-2020 4198.01 7005.37 79.36 5.00 380.46 2828.58
   18:42:37.368.16-Jul-2020 4198.01 6976.27 79.36 5.00 380.66 2828.58
   18:42:37.568.16-Jul-2020 4198.01 6995.57 79.36 5.00 380.86 2828.58
   18:42:37.768.16-Jul-2020 4198.01 6995.57 79.36 5.00 381.06 2828.58
   18:42:37.968.16-Jul-2020 4198.01 6989.88 79.36 5.00 381.26 2828.58
   18:42:38.168.16-Jul-2020 4198.01 6996.68 79.36 5.00 381.46 2828.58
   18:42:38.368.16-Jul-2020 4198.01 6992.67 79.36 5.00 381.66 2828.58
   18:42:38.567.16-Jul-2020 4198.01 6988.19 79.36 5.00 381.86 2828.58
   18:42:38.767.16-Jul-2020 4198.01 6991.05 79.36 5.00 382.06 2828.58
   18:42:38.967.16-Jul-2020 4198.01 6991.53 79.36 5.00 382.26 2828.58
   18:42:39.167.16-Jul-2020 4198.01 6989.00 79.36 5.00 382.46 2828.58
   18:42:39.367.16-Jul-2020 4198.01 6990.26 79.35 5.00 382.66 2828.58
   18:42:39.567.16-Jul-2020 4198.01 6989.35 79.35 5.00 382.86 2828.58
   18:42:39.767.16-Jul-2020 4198.01 6989.35 79.35 5.00 383.06 2828.58
   18:42:39.967.16-Jul-2020 4198.01 6988.56 79.35 5.00 383.26 2828.58
   18:42:40.167.16-Jul-2020 4198.01 6988.89 79.35 5.00 383.46 2828.58
   18:42:40.367.16-Jul-2020 4198.01 6989.08 79.35 5.00 383.66 2828.58
   18:42:40.567.16-Jul-2020 4198.01 6988.18 79.35 5.00 383.86 2828.58
   18:42:40.767.16-Jul-2020 4198.01 6998.70 79.35 5.00 384.06 2828.58
   18:42:40.967.16-Jul-2020 4198.01 6986.16 79.35 5.00 384.26 2828.58
   18:42:41.166.16-Jul-2020 4198.01 6992.83 79.35 5.00 384.46 2828.58
   18:42:41.366.16-Jul-2020 4198.01 6986.57 79.35 5.00 384.66 2828.58
   18:42:41.566.16-Jul-2020 4198.01 6990.96 79.35 5.00 384.86 2828.58
   18:42:41.766.16-Jul-2020 4198.01 6989.77 79.35 5.00 385.06 2828.58
   18:42:41.966.16-Jul-2020 4198.01 6988.01 79.35 5.00 385.26 2828.58
   18:42:42.166.16-Jul-2020 4198.01 6988.84 79.35 5.00 385.46 2828.58
   18:42:42.366.16-Jul-2020 4198.01 6988.16 79.35 5.00 385.66 2828.58
   18:42:42.566.16-Jul-2020 4198.01 6988.96 79.35 5.00 385.86 2828.58
   18:42:42.766.16-Jul-2020 4198.01 6987.87 79.35 5.00 386.06 2828.58
   18:42:42.966.16-Jul-2020 4198.01 6988.91 79.35 5.00 386.25 2828.58
   18:42:43.166.16-Jul-2020 4198.01 6987.63 79.35 5.00 386.45 2828.58
   18:42:43.366.16-Jul-2020 4198.01 6988.18 79.35 5.00 386.65 2828.58
   18:42:43.566.16-Jul-2020 4198.01 6987.84 79.35 5.00 386.85 2828.58
   18:42:43.765.16-Jul-2020 4198.01 6987.84 79.35 5.00 387.05 2828.58
   18:42:43.965.16-Jul-2020 4198.01 6987.21 79.35 5.00 387.25 2828.58
   18:42:44.165.16-Jul-2020 4198.01 6994.25 79.35 5.00 387.45 2828.58
   18:42:44.365.16-Jul-2020 4198.01 6991.53 79.35 5.00 387.65 2828.58
   18:42:44.565.16-Jul-2020 4198.01 6985.86 79.35 5.00 387.85 2828.58
   18:42:44.765.16-Jul-2020 4198.01 6985.86 79.35 5.00 388.05 2828.58
   18:42:44.965.16-Jul-2020 4198.01 6977.64 79.35 5.00 388.25 2828.58
   18:42:45.165.16-Jul-2020 4198.01 6993.90 79.35 5.00 388.45 2828.58
   18:42:45.365.16-Jul-2020 4198.01 6989.90 79.35 5.00 388.65 2828.58
   18:42:45.565.16-Jul-2020 4198.01 6989.48 79.35 5.00 388.85 2828.58
   18:42:45.765.16-Jul-2020 4198.01 6989.48 79.35 5.00 389.05 2828.58
   18:42:45.965.16-Jul-2020 4198.01 6999.43 79.35 5.00 389.25 2828.58
   18:42:46.165.16-Jul-2020 4198.01 6985.29 79.35 5.00 389.45 2828.58
   18:42:46.365.16-Jul-2020 4198.01 6993.28 79.35 5.00 389.65 2828.58
   18:42:46.564.16-Jul-2020 4198.01 6991.26 79.35 5.00 389.85 2828.58
   18:42:46.764.16-Jul-2020 4198.01 6998.46 79.35 5.00 390.05 2828.58
   18:42:46.964.16-Jul-2020 4198.01 6987.99 79.35 5.00 390.25 2828.58
   18:42:47.164.16-Jul-2020 4198.01 6994.39 79.35 5.00 390.45 2828.58
   18:42:47.364.16-Jul-2020 4198.01 6988.08 79.34 5.00 390.65 2828.58
