~Version Information
 VERS.                  2.0:   CWLS log ASCII Standard -VERSION 2.0
 WRAP.                   NO:   One line per depth step
~Well Information Block
#MNEM.UNIT     VALUE/NAME     DESCRIPTION
#---------     -----------    ---------------------------
 STRT.S             17:17:21 16-Jul-20: START TIME 17:17:21 16-Jul-20
 STOP.S             17:24:07 16-Jul-20: STOP TIME  17:24:07 16-Jul-20
 STEP.S                   0.00: STEP TIME
 NULL.                 -999.25: NULL VALUE
 MDS .        Operator Entered:  MAG DATA SOURCE
 UNIT.                     N/A:  LOGGING EQUIPMENT ID
 DCON.         Sperry Drilling:  DIRECTNL CONTR
 DOE .                     N/A:  DOE NUMBER
 RIG .               EastAzeri:  RIG NAME
 JOBN.        AZ-XX-0906363297:  JOB TICKET NUMB
 MWDS.                    Baku:  MWD SHOP
 SRVC.     Turan Drilling & Engineering:  CONTRACTOR
 PROV.                    Baku:  PROVINCE
 STAT.                    Baku:  STATE NAME
 REGN.                   EESSA:  REGION
 BASE.              Azerbaijan:  LOGGING EQUIPMENT BASE LOCATION
 WTYP.                Deviated:  WELL TYPE
 UWI .                     N/A:  UNIQUE WELL IDENTIFIER
 API .                     N/A:  API NUMBER
 COMP.     BP Exploration (Caspian Sea) ltd.:  COMPANY
 WELL.                    D07z:  WELL NAME
 CTRY.              Azerbaijan:  COUNTRY NAME
 SON .        AZ-XX-0906363297:  JOB NUMBER
 FLD .                     ACG:  FIELD NAME
 PDAT.          Mean Sea Level:  PERMANENT DATUM
 FTOP.          Formation Tops:  FORM TOPS DESC
 ILTD.               Lithology:  INTERP LTH DESC
 SVYD.                  Survey:  SURVEY DESC
 DMOD.             Drill Model:  DRILL MOD DESC
 HPTY.       Minimum Curvature:  HOLE POS TYPE
 NREF.                    Grid:  NORTH REFERENCE
 SPUD.               28-Jun-20:  SPUD DATE
 DATE.      18.27.12 28-Jun-20:  END TIME
 STIM.      18.27.12 28-Jun-20:  START TIME
 DMF .             Drill Floor:  DRILL MEAS FROM
 DFST.                        :  DIST FSL TEXT
 DFWT.                        :  DIST FWL TEXT
 CNTY.                        :  COUNTY
 LOC .                        :  LOCATION
 LMF .             Drill Floor:  LOG MEASURED FROM
 VSNS.m                  -7.75:  VERT SEC N/S
 VSEW.m                  -9.19:  VERT SEC E/W
 MMDE.m                   0.00:  MAGUTM CALC DEP
 AGAP.m                  43.60:  AIR GAP
 DEP .m                4058.99:  DEPTH
 APD .m                  43.60:  DEPTH ABOVE PD
 WDMS.m                 151.80:  WD ELEV
 EGL .m                   0.00:  GROUND ELEVATION
 EPD .m                   0.00:  ELEVATION
 AZTC.deg                 6.19:  AZM TOTAL CORR
 GRDC.deg                 0.27:  GRID CORRECTION
 MDEC.deg                 6.46:  MAGNETIC DECL
 MDIP.deg                59.47:  MAGNETIC DIP
 MFLD.nT              50279.00:  MAGNETIC FIELD
 GVFD.g                   1.00:  GRAVITY FIELD
 VSDR.deg               249.96:  VERT SEC DIRECT
 TDD .m                   0.00:  TOTAL DEPTH (DRILLER)
 SDEP.m                   0.00:  START DEPTH
 DFSL.m                   0.00:  DISTANCE FSL
 DFWL.m                   0.00:  DISTANCE FWL
 UTMY.m             4431880.20:  UTM Y
 UTMX.m              538763.98:  UTM X
 WHEW.m                  -9.19:  WELL HEAD E/W
 WHNS.m                  -7.75:  WELL HEAD N/S
 LONG.deg                51.45:  LONGITUDE
 LATI.deg                40.02:  LATITUDE
 TVDS.m                  43.60:  TVDSS CORRECTN
 EKB .m                  43.60:  KB ELEVATION
 EDF .m                  43.60:  DF ELEVATION
 TDL .m                 248.00:  TOTAL DEPTH (LOGGER)
 MAGU.                 1849075:  MAGUTM CHECKSUM
 VSC .                       0:  VS TO CLOSURE
~Parameter Information Block
#MNEM.UNIT       Value        Description
#---------     -----------    ---------------------------
 AV  .mps                 6.34:  Ann Velocity 
 AVMX.mps                 7.00:  Max Ann Veloc 
 AZIF.deg               260.29:  Azm, Final 
 BHAT.        Rotary Steerable:  BHA Type 
 BROT.°/30m               1.20:  Build Rotating 
 BS  .in                  8.50:  Bit Size 
 BSZ .in                  8.50:  Bit Size 
 BTPL.psig              620.00:  Bit Press Loss 
 CABU.                     Yes:  Customer Abuse 
 COMM.                     fb:  Run Comments 1 
 TCS .hr                 56.22:  Time Ciculation Ended 
 CV  .mps                 3.05:  Crit Velocity 
 CVMX.mps                 3.20:  Max Crit Veloc 
 DD1 .            Musa Ahmadov:  Direct Drillr 1 
 DDSV.                 iCruise:  DD Service 
 DEFF.%                  98.00:  % Det Eff 
 DLRX.°/30m               2.78:  Dogleg Rot Max 
 DLSO.°/30m               0.00:  Dogleg Oriented 
 DLSX.°/30m               0.00:  Dogleg Str Max 
 DRET.      05.20.48 16-Jul-20:  Drill End Time 
 DRST.      10.20.48 13-Jul-20:  Drill Start Tim 
 DTIM.hr                 14.25:  Time Drilling 
 EDEP.m                4326.01:  End Depth 
 ENG1.      Artemiy Matviyanov:  Engineer 1 
 ENG2.           Amrah Tahirov:  Engineer 2 
 ETIM.      22.30.00 18-Jul-20:  End Time 
 FLOI.gpm               550.00:  Flow In 
 FLON.gpm               450.00:  Flow In Min 
 FLOS.cptm                0.00:  Fluid Loss 
 FLOX.gpm               600.00:  Flow In Max 
 HFLO.                      No:  High Flow 
 HPRE.                      No:  High Pressure 
 HTEM.                      No:  High Temp 
 HYDO.m                   1.80:  Hydro Offset 
 IFIN.deg                65.41:  Inc, Final 
 IMAX.deg                65.14:  Inc Max 
 IMIN.deg                58.89:  Inc Min 
 IMND.m                4104.92:  Inc Min Depth 
 IMXD.m                4303.89:  Inc Max Depth 
 JARR.                      No:  Jarring 
 LETM.      10.20.48 17-Jul-20:  Log End Time 
 LOST.hr                     0:  Lost Rig Time 
 LSTM.      10.20.48 13-Jul-20:  Log Start Time 
 MDCL.ppm             37000.00:  Mud Chlorides 
 MDES.     Inversion Oil/Synthetic:  Mud Desc 
 DFD .sg                  1.52:  Mud Density 
 MDMN.sg                  1.52:  Dens Mud Min 
 MDMX.sg                  1.52:  Dens Mud Max 
 MOIL.                   52.70:  Run Mud Oil % 
 MOWR.                   68:32:  Run Mud OWR 
 MSND.                     0.2:  Run Mud Sand % 
 MSOL.                    21.6:  Run Mud Solids% 
 DFV .spqt               79.00:  Mud Viscosity 
 MWOD.in                  6.75:  MWD Tool OD 
 MWSI.                      No:  Serv Intrp, MWD 
 OTIM.hr                114.04:  Time Operating 
 PCON.          Wear / Scratch:  Pad Condition 
 PMAX.psia            11782.92:  Press Op, Max 
 PV  .cP                 49.00:  Mud PV 
 RUN .                     600:  Run Number 
 ROPA.m/hr               20.00:  ROP Avg 
 ROPN.m/hr               15.00:  ROP Min 
 ROPX.m/hr               22.00:  ROP Max 
 RPMA.rpm               120.00:  RPM Surface Avg 
 RPMN.rpm                90.00:  RPM Surface Min 
 RPMX.rpm               140.00:  RPM Surface Max 
 RRUN.                     600:  Rig Run Number 
 SAZI.deg               260.29:  Azm, Start 
 SDEP.m                4078.01:  Start Depth 
 SIDD.                      No:  Serv Intrp, DD 
 SINC.deg                58.89:  Inc, Start 
 SPPA.psig             4560.00:  SPP Avg 
 SPPN.psig             3600.00:  SPP Min 
 SPPX.psig             4800.00:  SPP Max 
 STIM.      10.20.48 13-Jul-20:  Start Time 
 SVCS.                 DD, MWD:  Services 
 SVER.                    9.20:  Sperry Version 
 TDAT.m                4378.01:  Tot Depth Attmp 
 TDDF.                      No:  Trip for DD 
 TDLG.m                 248.00:  Tot Depth Loggd 
 TFF .                      No:  Trip for Fail 
 TQAA.f-kp               18.00:  Torque Abs Avg 
 TQAN.f-kp               15.00:  Torque Abs Min 
 TQAX.f-kp               20.00:  Torque Abs Max 
 TRRT.°/30m               0.70:  Turn Rotating 
 MRT .                    HCIM:  Maximum Recorded Temperature 
 TTMX.degC               86.00:  Max Tool Temp 
 WBMN.klb                 3.00:  WOB Min 
 WOBA.klb                 5.00:  WOB Avg 
 WOBX.klb                 9.00:  WOB Max 
 YP  .lhf2               32.00:  Yield Point 
~Curve Information Block
#MNEM.UNIT                 API CODE     Curve Description
#---------               -----------    ---------------------------
 TIME.HHMMSS            00 000 000 000:  GT Time & Date
 GTDEPTH.m              00 000 000 000:  GT Depth
 GTPQH.psia             00 000 000 000:  GT HR Quartz Pressure
 GTTQ.degC              00 000 000 000:  GT Quartz Temperature
 GTTN.NONE              00 000 000 000:  GT Test Number
 GTET.sec               00 000 000 000:  GT Elapsed Test Time
 GTTVD.m                00 000 000 000:  GT True Vertical Depth
#Other Information
#
#WARRANTY: Halliburton will use its best efforts to furnish customers with 
#accurate information and interpretations that are part of, and incident to, the services 
#provided.  However, Halliburton cannot and does not warrant the accuracy 
#or correctness of such information and interpretations.  Under no circumstances should any 
#such information or interpretation be relied upon as the sole basis for any drilling, 
#completion, production, or financial decision or any procedure involving any risk to the 
#safety of any drilling venture, drilling rig or its crew or any other third party.  The 
#Customer has full responsibility for all drilling, completion and production operation.  
#Halliburton makes no representations or warranties, either expressed or 
#implied, including, but not limited to, the implied warranties of merchantability or fitness 
#for a particular purpose, with respect to the services rendered.  In no event will 
#Halliburton be liable for failure to obtain any particular results or for 
#any damages, including, but not limited to, indirect, special or consequential damages, 
#resulting from the use of any information or interpretation provided by Halliburton.
#
~A           TIME           GTDEPTH  GTPQH  GTTQ  GTTN  GTET   GTTVD  
# ...
   17:20:02.680.16-Jul-2020 4251.01 4620.73 79.79 3.00 161.03 2851.33
   17:20:02.880.16-Jul-2020 4251.01 4621.95 79.79 3.00 161.23 2851.33
   17:20:03.080.16-Jul-2020 4251.01 4621.95 79.79 3.00 161.43 2851.33
   17:20:03.280.16-Jul-2020 4251.01 4624.09 79.80 3.00 161.63 2851.33
   17:20:03.480.16-Jul-2020 4251.01 4624.50 79.81 3.00 161.83 2851.33
   17:20:03.680.16-Jul-2020 4251.01 4624.65 79.81 3.00 162.03 2851.33
   17:20:03.880.16-Jul-2020 4251.01 4624.65 79.81 3.00 162.23 2851.33
   17:20:04.080.16-Jul-2020 4251.01 4625.13 79.82 3.00 162.43 2851.33
   17:20:04.280.16-Jul-2020 4251.01 4625.34 79.82 3.00 162.63 2851.33
   17:20:04.481.16-Jul-2020 4251.01 4625.43 79.82 3.00 162.83 2851.33
   17:20:04.681.16-Jul-2020 4251.01 4625.51 79.82 3.00 163.03 2851.33
   17:20:04.881.16-Jul-2020 4251.01 4625.51 79.83 3.00 163.23 2851.33
   17:20:05.081.16-Jul-2020 4251.01 4625.77 79.83 3.00 163.43 2851.33
   17:20:05.281.16-Jul-2020 4251.01 4626.52 79.83 3.00 163.63 2851.33
   17:20:05.481.16-Jul-2020 4251.01 4626.85 79.83 3.00 163.83 2851.33
   17:20:05.681.16-Jul-2020 4251.01 4626.82 79.83 3.00 164.03 2851.33
   17:20:05.881.16-Jul-2020 4251.01 4626.84 79.84 3.00 164.23 2851.33
   17:20:06.081.16-Jul-2020 4251.01 4626.61 79.84 3.00 164.43 2851.33
   17:20:06.281.16-Jul-2020 4251.01 4627.39 79.84 3.00 164.63 2851.33
   17:20:06.481.16-Jul-2020 4251.01 4628.19 79.84 3.00 164.83 2851.33
   17:20:06.681.16-Jul-2020 4251.01 4628.21 79.84 3.00 165.03 2851.33
   17:20:06.881.16-Jul-2020 4251.01 4628.21 79.84 3.00 165.23 2851.33
   17:20:07.081.16-Jul-2020 4251.01 4628.30 79.85 3.00 165.43 2851.33
   17:20:07.281.16-Jul-2020 4251.01 4628.35 79.85 3.00 165.63 2851.33
   17:20:07.481.16-Jul-2020 4251.01 4628.41 79.85 3.00 165.83 2851.33
   17:20:07.681.16-Jul-2020 4251.01 4628.36 79.85 3.00 166.03 2851.33
   17:20:07.881.16-Jul-2020 4251.01 4628.36 79.85 3.00 166.23 2851.33
   17:20:08.081.16-Jul-2020 4251.01 4628.34 79.85 3.00 166.43 2851.33
   17:20:08.281.16-Jul-2020 4251.01 4628.29 79.85 3.00 166.63 2851.33
   17:20:08.481.16-Jul-2020 4251.01 4628.49 79.85 3.00 166.83 2851.33
   17:20:08.681.16-Jul-2020 4251.01 4628.47 79.85 3.00 167.03 2851.33
   17:20:08.881.16-Jul-2020 4251.01 4628.47 79.86 3.00 167.23 2851.33
   17:20:09.081.16-Jul-2020 4251.01 4628.50 79.86 3.00 167.43 2851.33
   17:20:09.282.16-Jul-2020 4251.01 4628.48 79.86 3.00 167.63 2851.33
   17:20:09.482.16-Jul-2020 4251.01 4628.46 79.86 3.00 167.83 2851.33
   17:20:09.682.16-Jul-2020 4251.01 4628.47 79.86 3.00 168.03 2851.33
   17:20:09.882.16-Jul-2020 4251.01 4628.47 79.86 3.00 168.23 2851.33
   17:20:10.082.16-Jul-2020 4251.01 4628.47 79.86 3.00 168.43 2851.33
   17:20:10.282.16-Jul-2020 4251.01 4628.48 79.86 3.00 168.63 2851.33
   17:20:10.482.16-Jul-2020 4251.01 4628.47 79.86 3.00 168.83 2851.33
   17:20:10.682.16-Jul-2020 4251.01 4628.48 79.86 3.00 169.03 2851.33
   17:20:10.882.16-Jul-2020 4251.01 4628.48 79.86 3.00 169.23 2851.33
   17:20:11.082.16-Jul-2020 4251.01 4628.47 79.86 3.00 169.43 2851.33
   17:20:11.282.16-Jul-2020 4251.01 4628.65 79.86 3.00 169.63 2851.33
   17:20:11.482.16-Jul-2020 4251.01 4628.63 79.86 3.00 169.83 2851.33
   17:20:11.682.16-Jul-2020 4251.01 4628.57 79.86 3.00 170.04 2851.33
   17:20:11.882.16-Jul-2020 4251.01 4628.57 79.86 3.00 170.24 2851.33
   17:20:12.082.16-Jul-2020 4251.01 4628.55 79.86 3.00 170.44 2851.33
   17:20:12.282.16-Jul-2020 4251.01 4628.55 79.86 3.00 170.64 2851.33
   17:20:12.482.16-Jul-2020 4251.01 4628.55 79.86 3.00 170.84 2851.33
   17:20:12.682.16-Jul-2020 4251.01 4628.53 79.86 3.00 171.04 2851.33
   17:20:12.882.16-Jul-2020 4251.01 4628.53 79.86 3.00 171.24 2851.33
   17:20:13.082.16-Jul-2020 4251.01 4628.55 79.86 3.00 171.44 2851.33
   17:20:13.282.16-Jul-2020 4251.01 4628.54 79.86 3.00 171.64 2851.33
   17:20:13.482.16-Jul-2020 4251.01 4628.53 79.86 3.00 171.84 2851.33
   17:20:13.682.16-Jul-2020 4251.01 4628.53 79.86 3.00 172.04 2851.33
   17:20:13.882.16-Jul-2020 4251.01 4628.53 79.86 3.00 172.24 2851.33
   17:20:14.082.16-Jul-2020 4251.01 4628.54 79.86 3.00 172.44 2851.33
   17:20:14.283.16-Jul-2020 4251.01 4628.56 79.86 3.00 172.64 2851.33
   17:20:14.483.16-Jul-2020 4251.01 4628.69 79.86 3.00 172.84 2851.33
   17:20:14.683.16-Jul-2020 4251.01 4628.66 79.86 3.00 173.04 2851.33
   17:20:14.883.16-Jul-2020 4251.01 4628.66 79.86 3.00 173.24 2851.33
   17:20:15.083.16-Jul-2020 4251.01 4628.69 79.86 3.00 173.44 2851.33
   17:20:15.283.16-Jul-2020 4251.01 4628.69 79.86 3.00 173.64 2851.33
   17:20:15.483.16-Jul-2020 4251.01 4628.65 79.86 3.00 173.84 2851.33
   17:20:15.683.16-Jul-2020 4251.01 4628.59 79.86 3.00 174.04 2851.33
   17:20:15.883.16-Jul-2020 4251.01 4628.59 79.86 3.00 174.24 2851.33
   17:20:16.083.16-Jul-2020 4251.01 4628.69 79.86 3.00 174.44 2851.33
   17:20:16.283.16-Jul-2020 4251.01 4628.63 79.86 3.00 174.64 2851.33
   17:20:16.483.16-Jul-2020 4251.01 4628.64 79.86 3.00 174.84 2851.33
   17:20:16.683.16-Jul-2020 4251.01 4628.60 79.86 3.00 175.04 2851.33
   17:20:16.883.16-Jul-2020 4251.01 4628.67 79.86 3.00 175.24 2851.33
   17:20:17.083.16-Jul-2020 4251.01 4628.64 79.86 3.00 175.44 2851.33
   17:20:17.283.16-Jul-2020 4251.01 4628.64 79.86 3.00 175.64 2851.33
   17:20:17.483.16-Jul-2020 4251.01 4628.66 79.86 3.00 175.84 2851.33
   17:20:17.683.16-Jul-2020 4251.01 4628.64 79.86 3.00 176.04 2851.33
   17:20:17.883.16-Jul-2020 4251.01 4628.61 79.86 3.00 176.24 2851.33
   17:20:18.083.16-Jul-2020 4251.01 4628.59 79.86 3.00 176.44 2851.33
   17:20:18.283.16-Jul-2020 4251.01 4628.59 79.86 3.00 176.64 2851.33
   17:20:18.483.16-Jul-2020 4251.01 4628.57 79.86 3.00 176.84 2851.33
   17:20:18.683.16-Jul-2020 4251.01 4628.58 79.86 3.00 177.04 2851.33
   17:20:18.883.16-Jul-2020 4251.01 4628.58 79.86 3.00 177.24 2851.33
   17:20:19.084.16-Jul-2020 4251.01 4628.56 79.86 3.00 177.44 2851.33
   17:20:19.284.16-Jul-2020 4251.01 4628.56 79.86 3.00 177.64 2851.33
   17:20:19.484.16-Jul-2020 4251.01 4628.56 79.86 3.00 177.84 2851.33
   17:20:19.684.16-Jul-2020 4251.01 4628.66 79.86 3.00 178.04 2851.33
   17:20:19.884.16-Jul-2020 4251.01 4628.66 79.86 3.00 178.24 2851.33
   17:20:20.084.16-Jul-2020 4251.01 4628.60 79.86 3.00 178.44 2851.33
   17:20:20.284.16-Jul-2020 4251.01 4628.60 79.86 3.00 178.64 2851.33
   17:20:20.484.16-Jul-2020 4251.01 4628.58 79.86 3.00 178.84 2851.33
   17:20:20.684.16-Jul-2020 4251.01 4628.58 79.86 3.00 179.04 2851.33
   17:20:20.884.16-Jul-2020 4251.01 4628.58 79.86 3.00 179.24 2851.33
   17:20:21.084.16-Jul-2020 4251.01 4628.56 79.86 3.00 179.44 2851.33
   17:20:21.284.16-Jul-2020 4251.01 4628.55 79.86 3.00 179.64 2851.33
   17:20:21.484.16-Jul-2020 4251.01 4628.55 79.86 3.00 179.84 2851.33
   17:20:21.684.16-Jul-2020 4251.01 4628.54 79.86 3.00 180.04 2851.33
   17:20:21.884.16-Jul-2020 4251.01 4628.53 79.86 3.00 180.24 2851.33
   17:20:22.084.16-Jul-2020 4251.01 4628.53 79.86 3.00 180.44 2851.33
   17:20:22.284.16-Jul-2020 4251.01 4628.52 79.86 3.00 180.64 2851.33
   17:20:22.484.16-Jul-2020 4251.01 4628.53 79.86 3.00 180.84 2851.33
   17:20:22.684.16-Jul-2020 4251.01 4628.53 79.86 3.00 181.04 2851.33
   17:20:22.884.16-Jul-2020 4251.01 4628.53 79.86 3.00 181.24 2851.33
   17:20:23.084.16-Jul-2020 4251.01 4628.63 79.86 3.00 181.44 2851.33
   17:20:23.284.16-Jul-2020 4251.01 4628.55 79.86 3.00 181.64 2851.33
   17:20:23.484.16-Jul-2020 4251.01 4628.63 79.86 3.00 181.84 2851.33
   17:20:23.684.16-Jul-2020 4251.01 4628.64 79.86 3.00 182.04 2851.33
   17:20:23.885.16-Jul-2020 4251.01 4628.64 79.86 3.00 182.24 2851.33
   17:20:24.085.16-Jul-2020 4251.01 4628.66 79.86 3.00 182.44 2851.33
   17:20:24.285.16-Jul-2020 4251.01 4628.57 79.85 3.00 182.64 2851.33
   17:20:24.485.16-Jul-2020 4251.01 4628.58 79.85 3.00 182.84 2851.33
   17:20:24.685.16-Jul-2020 4251.01 4628.58 79.85 3.00 183.04 2851.33
   17:20:24.885.16-Jul-2020 4251.01 4628.58 79.85 3.00 183.24 2851.33
   17:20:25.085.16-Jul-2020 4251.01 4628.57 79.85 3.00 183.44 2851.33
   17:20:25.285.16-Jul-2020 4251.01 4628.57 79.85 3.00 183.64 2851.33
   17:20:25.485.16-Jul-2020 4251.01 4628.62 79.85 3.00 183.84 2851.33
