~Version Information
 VERS.                  2.0:   CWLS log ASCII Standard -VERSION 2.0
 WRAP.                   NO:   One line per depth step
~Well Information Block
#MNEM.UNIT     VALUE/NAME     DESCRIPTION
#---------     -----------    ---------------------------
 STRT.S             19:19:02 16-Jul-20: START TIME 19:19:02 16-Jul-20
 STOP.S             19:25:52 16-Jul-20: STOP TIME  19:25:52 16-Jul-20
 STEP.S                   0.00: STEP TIME
 NULL.                 -999.25: NULL VALUE
 MDS .        Operator Entered:  MAG DATA SOURCE
 UNIT.                     N/A:  LOGGING EQUIPMENT ID
 DCON.         Sperry Drilling:  DIRECTNL CONTR
 DOE .                     N/A:  DOE NUMBER
 RIG .               EastAzeri:  RIG NAME
 JOBN.        AZ-XX-0906363297:  JOB TICKET NUMB
 MWDS.                    Baku:  MWD SHOP
 SRVC.     Turan Drilling & Engineering:  CONTRACTOR
 PROV.                    Baku:  PROVINCE
 STAT.                    Baku:  STATE NAME
 REGN.                   EESSA:  REGION
 BASE.              Azerbaijan:  LOGGING EQUIPMENT BASE LOCATION
 WTYP.                Deviated:  WELL TYPE
 UWI .                     N/A:  UNIQUE WELL IDENTIFIER
 API .                     N/A:  API NUMBER
 COMP.     BP Exploration (Caspian Sea) ltd.:  COMPANY
 WELL.                    D07z:  WELL NAME
 CTRY.              Azerbaijan:  COUNTRY NAME
 SON .        AZ-XX-0906363297:  JOB NUMBER
 FLD .                     ACG:  FIELD NAME
 PDAT.          Mean Sea Level:  PERMANENT DATUM
 FTOP.          Formation Tops:  FORM TOPS DESC
 ILTD.               Lithology:  INTERP LTH DESC
 SVYD.                  Survey:  SURVEY DESC
 DMOD.             Drill Model:  DRILL MOD DESC
 HPTY.       Minimum Curvature:  HOLE POS TYPE
 NREF.                    Grid:  NORTH REFERENCE
 SPUD.               28-Jun-20:  SPUD DATE
 DATE.      18.27.12 28-Jun-20:  END TIME
 STIM.      18.27.12 28-Jun-20:  START TIME
 DMF .             Drill Floor:  DRILL MEAS FROM
 DFST.                        :  DIST FSL TEXT
 DFWT.                        :  DIST FWL TEXT
 CNTY.                        :  COUNTY
 LOC .                        :  LOCATION
 LMF .             Drill Floor:  LOG MEASURED FROM
 VSNS.m                  -7.75:  VERT SEC N/S
 VSEW.m                  -9.19:  VERT SEC E/W
 MMDE.m                   0.00:  MAGUTM CALC DEP
 AGAP.m                  43.60:  AIR GAP
 DEP .m                4058.99:  DEPTH
 APD .m                  43.60:  DEPTH ABOVE PD
 WDMS.m                 151.80:  WD ELEV
 EGL .m                   0.00:  GROUND ELEVATION
 EPD .m                   0.00:  ELEVATION
 AZTC.deg                 6.19:  AZM TOTAL CORR
 GRDC.deg                 0.27:  GRID CORRECTION
 MDEC.deg                 6.46:  MAGNETIC DECL
 MDIP.deg                59.47:  MAGNETIC DIP
 MFLD.nT              50279.00:  MAGNETIC FIELD
 GVFD.g                   1.00:  GRAVITY FIELD
 VSDR.deg               249.96:  VERT SEC DIRECT
 TDD .m                   0.00:  TOTAL DEPTH (DRILLER)
 SDEP.m                   0.00:  START DEPTH
 DFSL.m                   0.00:  DISTANCE FSL
 DFWL.m                   0.00:  DISTANCE FWL
 UTMY.m             4431880.20:  UTM Y
 UTMX.m              538763.98:  UTM X
 WHEW.m                  -9.19:  WELL HEAD E/W
 WHNS.m                  -7.75:  WELL HEAD N/S
 LONG.deg                51.45:  LONGITUDE
 LATI.deg                40.02:  LATITUDE
 TVDS.m                  43.60:  TVDSS CORRECTN
 EKB .m                  43.60:  KB ELEVATION
 EDF .m                  43.60:  DF ELEVATION
 TDL .m                 248.00:  TOTAL DEPTH (LOGGER)
 MAGU.                 1849075:  MAGUTM CHECKSUM
 VSC .                       0:  VS TO CLOSURE
~Parameter Information Block
#MNEM.UNIT       Value        Description
#---------     -----------    ---------------------------
 AV  .mps                 6.34:  Ann Velocity 
 AVMX.mps                 7.00:  Max Ann Veloc 
 AZIF.deg               260.29:  Azm, Final 
 BHAT.        Rotary Steerable:  BHA Type 
 BROT.°/30m               1.20:  Build Rotating 
 BS  .in                  8.50:  Bit Size 
 BSZ .in                  8.50:  Bit Size 
 BTPL.psig              620.00:  Bit Press Loss 
 CABU.                     Yes:  Customer Abuse 
 COMM.                     d)s:  Run Comments 1 
 TCS .hr                 56.22:  Time Ciculation Ended 
 CV  .mps                 3.05:  Crit Velocity 
 CVMX.mps                 3.20:  Max Crit Veloc 
 DD1 .            Musa Ahmadov:  Direct Drillr 1 
 DDSV.                 iCruise:  DD Service 
 DEFF.%                  98.00:  % Det Eff 
 DLRX.°/30m               2.78:  Dogleg Rot Max 
 DLSO.°/30m               0.00:  Dogleg Oriented 
 DLSX.°/30m               0.00:  Dogleg Str Max 
 DRET.      05.20.48 16-Jul-20:  Drill End Time 
 DRST.      10.20.48 13-Jul-20:  Drill Start Tim 
 DTIM.hr                 14.25:  Time Drilling 
 EDEP.m                4326.01:  End Depth 
 ENG1.      Artemiy Matviyanov:  Engineer 1 
 ENG2.           Amrah Tahirov:  Engineer 2 
 ETIM.      22.30.00 18-Jul-20:  End Time 
 FLOI.gpm               550.00:  Flow In 
 FLON.gpm               450.00:  Flow In Min 
 FLOS.cptm                0.00:  Fluid Loss 
 FLOX.gpm               600.00:  Flow In Max 
 HFLO.                      No:  High Flow 
 HPRE.                      No:  High Pressure 
 HTEM.                      No:  High Temp 
 HYDO.m                   1.80:  Hydro Offset 
 IFIN.deg                65.41:  Inc, Final 
 IMAX.deg                65.14:  Inc Max 
 IMIN.deg                58.89:  Inc Min 
 IMND.m                4104.92:  Inc Min Depth 
 IMXD.m                4303.89:  Inc Max Depth 
 JARR.                      No:  Jarring 
 LETM.      10.20.48 17-Jul-20:  Log End Time 
 LOST.hr                     0:  Lost Rig Time 
 LSTM.      10.20.48 13-Jul-20:  Log Start Time 
 MDCL.ppm             37000.00:  Mud Chlorides 
 MDES.     Inversion Oil/Synthetic:  Mud Desc 
 DFD .sg                  1.52:  Mud Density 
 MDMN.sg                  1.52:  Dens Mud Min 
 MDMX.sg                  1.52:  Dens Mud Max 
 MOIL.                   52.70:  Run Mud Oil % 
 MOWR.                   68:32:  Run Mud OWR 
 MSND.                     0.2:  Run Mud Sand % 
 MSOL.                    21.6:  Run Mud Solids% 
 DFV .spqt               79.00:  Mud Viscosity 
 MWOD.in                  6.75:  MWD Tool OD 
 MWSI.                      No:  Serv Intrp, MWD 
 OTIM.hr                114.04:  Time Operating 
 PCON.          Wear / Scratch:  Pad Condition 
 PMAX.psia            11782.92:  Press Op, Max 
 PV  .cP                 49.00:  Mud PV 
 RUN .                     600:  Run Number 
 ROPA.m/hr               20.00:  ROP Avg 
 ROPN.m/hr               15.00:  ROP Min 
 ROPX.m/hr               22.00:  ROP Max 
 RPMA.rpm               120.00:  RPM Surface Avg 
 RPMN.rpm                90.00:  RPM Surface Min 
 RPMX.rpm               140.00:  RPM Surface Max 
 RRUN.                     600:  Rig Run Number 
 SAZI.deg               260.29:  Azm, Start 
 SDEP.m                4078.01:  Start Depth 
 SIDD.                      No:  Serv Intrp, DD 
 SINC.deg                58.89:  Inc, Start 
 SPPA.psig             4560.00:  SPP Avg 
 SPPN.psig             3600.00:  SPP Min 
 SPPX.psig             4800.00:  SPP Max 
 STIM.      10.20.48 13-Jul-20:  Start Time 
 SVCS.                 DD, MWD:  Services 
 SVER.                    9.20:  Sperry Version 
 TDAT.m                4378.01:  Tot Depth Attmp 
 TDDF.                      No:  Trip for DD 
 TDLG.m                 248.00:  Tot Depth Loggd 
 TFF .                      No:  Trip for Fail 
 TQAA.f-kp               18.00:  Torque Abs Avg 
 TQAN.f-kp               15.00:  Torque Abs Min 
 TQAX.f-kp               20.00:  Torque Abs Max 
 TRRT.°/30m               0.70:  Turn Rotating 
 MRT .                    HCIM:  Maximum Recorded Temperature 
 TTMX.degC               86.00:  Max Tool Temp 
 WBMN.klb                 3.00:  WOB Min 
 WOBA.klb                 5.00:  WOB Avg 
 WOBX.klb                 9.00:  WOB Max 
 YP  .lhf2               32.00:  Yield Point 
~Curve Information Block
#MNEM.UNIT                 API CODE     Curve Description
#---------               -----------    ---------------------------
 TIME.HHMMSS            00 000 000 000:  GT Time & Date
 GTDEPTH.m              00 000 000 000:  GT Depth
 GTPQH.psia             00 000 000 000:  GT HR Quartz Pressure
 GTTQ.degC              00 000 000 000:  GT Quartz Temperature
 GTTN.NONE              00 000 000 000:  GT Test Number
 GTET.sec               00 000 000 000:  GT Elapsed Test Time
 GTTVD.m                00 000 000 000:  GT True Vertical Depth
#Other Information
#
#WARRANTY: Halliburton will use its best efforts to furnish customers with 
#accurate information and interpretations that are part of, and incident to, the services 
#provided.  However, Halliburton cannot and does not warrant the accuracy 
#or correctness of such information and interpretations.  Under no circumstances should any 
#such information or interpretation be relied upon as the sole basis for any drilling, 
#completion, production, or financial decision or any procedure involving any risk to the 
#safety of any drilling venture, drilling rig or its crew or any other third party.  The 
#Customer has full responsibility for all drilling, completion and production operation.  
#Halliburton makes no representations or warranties, either expressed or 
#implied, including, but not limited to, the implied warranties of merchantability or fitness 
#for a particular purpose, with respect to the services rendered.  In no event will 
#Halliburton be liable for failure to obtain any particular results or for 
#any damages, including, but not limited to, indirect, special or consequential damages, 
#resulting from the use of any information or interpretation provided by Halliburton.
#
~A           TIME           GTDEPTH  GTPQH  GTTQ  GTTN  GTET   GTTVD  
# ...
   19:19:25.311.16-Jul-2020 4190.01 6948.35 79.13 6.00  23.01 2825.02
   19:19:25.511.16-Jul-2020 4190.01 6948.35 79.13 6.00  23.21 2825.02
   19:19:25.711.16-Jul-2020 4190.01 6946.78 79.13 6.00  23.41 2825.02
   19:19:25.911.16-Jul-2020 4190.01 6947.48 79.13 6.00  23.61 2825.02
   19:19:26.111.16-Jul-2020 4190.01 6948.16 79.13 6.00  23.81 2825.02
   19:19:26.312.16-Jul-2020 4190.01 6947.93 79.13 6.00  24.01 2825.02
   19:19:26.512.16-Jul-2020 4190.01 6947.93 79.13 6.00  24.21 2825.02
   19:19:26.712.16-Jul-2020 4190.01 6948.25 79.13 6.00  24.41 2825.02
   19:19:26.912.16-Jul-2020 4190.01 6948.75 79.13 6.00  24.61 2825.02
   19:19:27.112.16-Jul-2020 4190.01 6948.17 79.13 6.00  24.81 2825.02
   19:19:27.312.16-Jul-2020 4190.01 6959.32 79.13 6.00  25.01 2825.02
   19:19:27.512.16-Jul-2020 4190.01 6959.32 79.13 6.00  25.21 2825.02
   19:19:27.712.16-Jul-2020 4190.01 6953.86 79.13 6.00  25.41 2825.02
   19:19:27.912.16-Jul-2020 4190.01 6948.50 79.13 6.00  25.61 2825.02
   19:19:28.112.16-Jul-2020 4190.01 6950.34 79.13 6.00  25.81 2825.02
   19:19:28.312.16-Jul-2020 4190.01 6951.86 79.13 6.00  26.01 2825.02
   19:19:28.513.16-Jul-2020 4190.01 6951.86 79.13 6.00  26.21 2825.02
   19:19:28.713.16-Jul-2020 4190.01 6950.87 79.13 6.00  26.41 2825.02
   19:19:28.913.16-Jul-2020 4190.01 6951.19 79.13 6.00  26.61 2825.02
   19:19:29.113.16-Jul-2020 4190.01 6951.41 79.13 6.00  26.81 2825.02
   19:19:29.313.16-Jul-2020 4190.01 6951.59 79.13 6.00  27.01 2825.02
   19:19:29.513.16-Jul-2020 4190.01 6951.59 79.13 6.00  27.21 2825.02
   19:19:29.713.16-Jul-2020 4190.01 6952.01 79.13 6.00  27.41 2825.02
   19:19:29.913.16-Jul-2020 4190.01 6951.66 79.13 6.00  27.61 2825.02
   19:19:30.113.16-Jul-2020 4190.01 6952.01 79.13 6.00  27.81 2825.02
   19:19:30.313.16-Jul-2020 4190.01 6951.15 79.13 6.00  28.01 2825.02
   19:19:30.513.16-Jul-2020 4190.01 6951.15 79.13 6.00  28.21 2825.02
   19:19:30.714.16-Jul-2020 4190.01 6957.90 79.13 6.00  28.41 2825.02
   19:19:30.914.16-Jul-2020 4190.01 6956.43 79.13 6.00  28.61 2825.02
   19:19:31.114.16-Jul-2020 4190.01 6949.56 79.13 6.00  28.81 2825.02
   19:19:31.314.16-Jul-2020 4190.01 6964.18 79.13 6.00  29.01 2825.02
   19:19:31.514.16-Jul-2020 4190.01 6951.09 79.13 6.00  29.21 2825.02
   19:19:31.714.16-Jul-2020 4190.01 6956.65 79.13 6.00  29.41 2825.02
   19:19:31.914.16-Jul-2020 4190.01 6951.91 79.13 6.00  29.61 2825.02
   19:19:32.114.16-Jul-2020 4190.01 6956.35 79.13 6.00  29.81 2825.02
   19:19:32.314.16-Jul-2020 4190.01 6960.58 79.13 6.00  30.01 2825.02
   19:19:32.514.16-Jul-2020 4190.01 6957.42 79.13 6.00  30.21 2825.02
   19:19:32.714.16-Jul-2020 4190.01 6950.63 79.13 6.00  30.41 2825.02
   19:19:32.915.16-Jul-2020 4190.01 6956.57 79.13 6.00  30.61 2825.02
   19:19:33.115.16-Jul-2020 4190.01 6956.10 79.13 6.00  30.81 2825.02
   19:19:33.315.16-Jul-2020 4190.01 6954.50 79.13 6.00  31.01 2825.02
   19:19:33.515.16-Jul-2020 4190.01 6954.50 79.13 6.00  31.21 2825.02
   19:19:33.715.16-Jul-2020 4190.01 6951.61 79.13 6.00  31.41 2825.02
   19:19:33.915.16-Jul-2020 4190.01 6960.23 79.13 6.00  31.61 2825.02
   19:19:34.115.16-Jul-2020 4190.01 6955.35 79.13 6.00  31.81 2825.02
   19:19:34.315.16-Jul-2020 4190.01 7273.95 79.13 6.00  32.01 2825.02
   19:19:34.515.16-Jul-2020 4190.01 7273.95 79.13 6.00  32.21 2825.02
   19:19:34.715.16-Jul-2020 4190.01 7251.27 79.13 6.00  32.41 2825.02
   19:19:34.915.16-Jul-2020 4190.01 7243.11 79.13 6.00  32.61 2825.02
   19:19:35.116.16-Jul-2020 4190.01 7228.08 79.13 6.00  32.81 2825.02
   19:19:35.316.16-Jul-2020 4190.01 7230.94 79.13 6.00  33.01 2825.02
   19:19:35.516.16-Jul-2020 4190.01 7193.64 79.13 6.00  33.21 2825.02
   19:19:35.716.16-Jul-2020 4190.01 7096.83 79.13 6.00  33.41 2825.02
   19:19:35.916.16-Jul-2020 4190.01 7030.92 79.13 6.00  33.62 2825.02
   19:19:36.116.16-Jul-2020 4190.01 6980.87 79.13 6.00  33.82 2825.02
   19:19:36.316.16-Jul-2020 4190.01 7273.95 79.13 6.00  34.02 2825.02
   19:19:36.516.16-Jul-2020 4190.01 6943.02 79.13 6.00  34.22 2825.02
   19:19:36.716.16-Jul-2020 4190.01 6943.02 79.13 6.00  34.42 2825.02
   19:19:36.916.16-Jul-2020 4190.01 6943.02 79.13 6.00  34.62 2825.02
   19:19:37.116.16-Jul-2020 4190.01 6917.98 79.13 6.00  34.82 2825.02
   19:19:37.317.16-Jul-2020 4190.01 6915.95 79.13 6.00  35.02 2825.02
   19:19:37.517.16-Jul-2020 4190.01 6915.95 79.13 6.00  35.22 2825.02
   19:19:37.717.16-Jul-2020 4190.01 6910.40 79.13 6.00  35.42 2825.02
   19:19:37.917.16-Jul-2020 4190.01 6906.43 79.13 6.00  35.62 2825.02
   19:19:38.117.16-Jul-2020 4190.01 6901.35 79.13 6.00  35.82 2825.02
   19:19:38.317.16-Jul-2020 4190.01 6898.90 79.13 6.00  36.02 2825.02
   19:19:38.517.16-Jul-2020 4190.01 6898.90 79.13 6.00  36.22 2825.02
   19:19:38.717.16-Jul-2020 4190.01 6893.55 79.13 6.00  36.42 2825.02
   19:19:38.917.16-Jul-2020 4190.01 6890.55 79.13 6.00  36.62 2825.02
   19:19:39.117.16-Jul-2020 4190.01 6887.39 79.12 6.00  36.82 2825.02
   19:19:39.317.16-Jul-2020 4190.01 6884.15 79.12 6.00  37.02 2825.02
   19:19:39.518.16-Jul-2020 4190.01 6884.15 79.12 6.00  37.22 2825.02
   19:19:39.718.16-Jul-2020 4190.01 6878.29 79.12 6.00  37.42 2825.02
   19:19:39.918.16-Jul-2020 4190.01 6874.40 79.12 6.00  37.62 2825.02
   19:19:40.118.16-Jul-2020 4190.01 6816.11 79.12 6.00  37.82 2825.02
   19:19:40.318.16-Jul-2020 4190.01 6142.40 79.12 6.00  38.02 2825.02
   19:19:40.518.16-Jul-2020 4190.01 6142.40 79.12 6.00  38.22 2825.02
   19:19:40.718.16-Jul-2020 4190.01 4746.13 79.12 6.00  38.42 2825.02
   19:19:40.918.16-Jul-2020 4190.01 4750.98 79.12 6.00  38.62 2825.02
   19:19:41.118.16-Jul-2020 4190.01 4750.62 79.12 6.00  38.82 2825.02
   19:19:41.318.16-Jul-2020 4190.01 4748.33 79.12 6.00  39.02 2825.02
   19:19:41.518.16-Jul-2020 4190.01 4748.33 79.12 6.00  39.22 2825.02
   19:19:41.718.16-Jul-2020 4190.01 4692.52 79.12 6.00  39.42 2825.02
   19:19:41.919.16-Jul-2020 4190.01 4662.96 79.11 6.00  39.62 2825.02
   19:19:42.119.16-Jul-2020 4190.01 4652.96 79.11 6.00  39.82 2825.02
   19:19:42.319.16-Jul-2020 4190.01 4649.47 79.11 6.00  40.02 2825.02
   19:19:42.519.16-Jul-2020 4190.01 4650.46 79.11 6.00  40.22 2825.02
   19:19:42.719.16-Jul-2020 4190.01 4641.22 79.11 6.00  40.42 2825.02
   19:19:42.919.16-Jul-2020 4190.01 4636.27 79.10 6.00  40.62 2825.02
   19:19:43.119.16-Jul-2020 4190.01 4635.30 79.10 6.00  40.82 2825.02
   19:19:43.319.16-Jul-2020 4190.01 4635.18 79.10 6.00  41.02 2825.02
   19:19:43.519.16-Jul-2020 4190.01 4635.18 79.10 6.00  41.22 2825.02
   19:19:43.719.16-Jul-2020 4190.01 4626.96 79.09 6.00  41.42 2825.02
   19:19:43.919.16-Jul-2020 4190.01 4625.85 79.09 6.00  41.62 2825.02
   19:19:44.120.16-Jul-2020 4190.01 4626.64 79.09 6.00  41.82 2825.02
   19:19:44.320.16-Jul-2020 4190.01 4624.49 79.08 6.00  42.02 2825.02
   19:19:44.520.16-Jul-2020 4190.01 4624.49 79.08 6.00  42.22 2825.02
   19:19:44.720.16-Jul-2020 4190.01 4616.62 79.08 6.00  42.42 2825.02
   19:19:44.920.16-Jul-2020 4190.01 4615.51 79.08 6.00  42.62 2825.02
   19:19:45.120.16-Jul-2020 4190.01 4618.41 79.07 6.00  42.82 2825.02
   19:19:45.320.16-Jul-2020 4190.01 4625.16 79.07 6.00  43.02 2825.02
   19:19:45.520.16-Jul-2020 4190.01 4625.16 79.07 6.00  43.22 2825.02
   19:19:45.720.16-Jul-2020 4190.01 4616.25 79.07 6.00  43.42 2825.02
   19:19:45.920.16-Jul-2020 4190.01 4611.46 79.06 6.00  43.62 2825.02
   19:19:46.120.16-Jul-2020 4190.01 4611.17 79.06 6.00  43.82 2825.02
   19:19:46.321.16-Jul-2020 4190.01 4606.79 79.06 6.00  44.02 2825.02
   19:19:46.521.16-Jul-2020 4190.01 4606.79 79.06 6.00  44.22 2825.02
   19:19:46.721.16-Jul-2020 4190.01 4602.05 79.06 6.00  44.42 2825.02
   19:19:46.921.16-Jul-2020 4190.01 4602.24 79.05 6.00  44.62 2825.02
   19:19:47.121.16-Jul-2020 4190.01 4599.85 79.05 6.00  44.82 2825.02
   19:19:47.321.16-Jul-2020 4190.01 4592.54 79.05 6.00  45.02 2825.02
   19:19:47.521.16-Jul-2020 4190.01 4592.54 79.05 6.00  45.22 2825.02
   19:19:47.721.16-Jul-2020 4190.01 4591.72 79.05 6.00  45.42 2825.02
   19:19:47.921.16-Jul-2020 4190.01 4592.59 79.05 6.00  45.62 2825.02
   19:19:48.121.16-Jul-2020 4190.01 4596.58 79.04 6.00  45.82 2825.02
