~Version Information
 VERS.                  2.0:   CWLS log ASCII Standard -VERSION 2.0
 WRAP.                   NO:   One line per depth step
~Well Information Block
#MNEM.UNIT     VALUE/NAME     DESCRIPTION
#---------     -----------    ---------------------------
 STRT.S             22:12:50 16-Jul-20: START TIME 22:12:50 16-Jul-20
 STOP.S             22:19:40 16-Jul-20: STOP TIME  22:19:40 16-Jul-20
 STEP.S                   0.00: STEP TIME
 NULL.                 -999.25: NULL VALUE
 MDS .        Operator Entered:  MAG DATA SOURCE
 UNIT.                     N/A:  LOGGING EQUIPMENT ID
 DCON.         Sperry Drilling:  DIRECTNL CONTR
 DOE .                     N/A:  DOE NUMBER
 RIG .               EastAzeri:  RIG NAME
 JOBN.        AZ-XX-0906363297:  JOB TICKET NUMB
 MWDS.                    Baku:  MWD SHOP
 SRVC.     Turan Drilling & Engineering:  CONTRACTOR
 PROV.                    Baku:  PROVINCE
 STAT.                    Baku:  STATE NAME
 REGN.                   EESSA:  REGION
 BASE.              Azerbaijan:  LOGGING EQUIPMENT BASE LOCATION
 WTYP.                Deviated:  WELL TYPE
 UWI .                     N/A:  UNIQUE WELL IDENTIFIER
 API .                     N/A:  API NUMBER
 COMP.     BP Exploration (Caspian Sea) ltd.:  COMPANY
 WELL.                    D07z:  WELL NAME
 CTRY.              Azerbaijan:  COUNTRY NAME
 SON .        AZ-XX-0906363297:  JOB NUMBER
 FLD .                     ACG:  FIELD NAME
 PDAT.          Mean Sea Level:  PERMANENT DATUM
 FTOP.          Formation Tops:  FORM TOPS DESC
 ILTD.               Lithology:  INTERP LTH DESC
 SVYD.                  Survey:  SURVEY DESC
 DMOD.             Drill Model:  DRILL MOD DESC
 HPTY.       Minimum Curvature:  HOLE POS TYPE
 NREF.                    Grid:  NORTH REFERENCE
 SPUD.               28-Jun-20:  SPUD DATE
 DATE.      18.27.12 28-Jun-20:  END TIME
 STIM.      18.27.12 28-Jun-20:  START TIME
 DMF .             Drill Floor:  DRILL MEAS FROM
 DFST.                        :  DIST FSL TEXT
 DFWT.                        :  DIST FWL TEXT
 CNTY.                        :  COUNTY
 LOC .                        :  LOCATION
 LMF .             Drill Floor:  LOG MEASURED FROM
 VSNS.m                  -7.75:  VERT SEC N/S
 VSEW.m                  -9.19:  VERT SEC E/W
 MMDE.m                   0.00:  MAGUTM CALC DEP
 AGAP.m                  43.60:  AIR GAP
 DEP .m                4058.99:  DEPTH
 APD .m                  43.60:  DEPTH ABOVE PD
 WDMS.m                 151.80:  WD ELEV
 EGL .m                   0.00:  GROUND ELEVATION
 EPD .m                   0.00:  ELEVATION
 AZTC.deg                 6.19:  AZM TOTAL CORR
 GRDC.deg                 0.27:  GRID CORRECTION
 MDEC.deg                 6.46:  MAGNETIC DECL
 MDIP.deg                59.47:  MAGNETIC DIP
 MFLD.nT              50279.00:  MAGNETIC FIELD
 GVFD.g                   1.00:  GRAVITY FIELD
 VSDR.deg               249.96:  VERT SEC DIRECT
 TDD .m                   0.00:  TOTAL DEPTH (DRILLER)
 SDEP.m                   0.00:  START DEPTH
 DFSL.m                   0.00:  DISTANCE FSL
 DFWL.m                   0.00:  DISTANCE FWL
 UTMY.m             4431880.20:  UTM Y
 UTMX.m              538763.98:  UTM X
 WHEW.m                  -9.19:  WELL HEAD E/W
 WHNS.m                  -7.75:  WELL HEAD N/S
 LONG.deg                51.45:  LONGITUDE
 LATI.deg                40.02:  LATITUDE
 TVDS.m                  43.60:  TVDSS CORRECTN
 EKB .m                  43.60:  KB ELEVATION
 EDF .m                  43.60:  DF ELEVATION
 TDL .m                 248.00:  TOTAL DEPTH (LOGGER)
 MAGU.                 1849075:  MAGUTM CHECKSUM
 VSC .                       0:  VS TO CLOSURE
~Parameter Information Block
#MNEM.UNIT       Value        Description
#---------     -----------    ---------------------------
 AV  .mps                 6.34:  Ann Velocity 
 AVMX.mps                 7.00:  Max Ann Veloc 
 AZIF.deg               260.29:  Azm, Final 
 BHAT.        Rotary Steerable:  BHA Type 
 BROT.°/30m               1.20:  Build Rotating 
 BS  .in                  8.50:  Bit Size 
 BSZ .in                  8.50:  Bit Size 
 BTPL.psig              620.00:  Bit Press Loss 
 CABU.                     Yes:  Customer Abuse 
 TCS .hr                 56.22:  Time Ciculation Ended 
 CV  .mps                 3.05:  Crit Velocity 
 CVMX.mps                 3.20:  Max Crit Veloc 
 DD1 .            Musa Ahmadov:  Direct Drillr 1 
 DDSV.                 iCruise:  DD Service 
 DEFF.%                  98.00:  % Det Eff 
 DLRX.°/30m               2.78:  Dogleg Rot Max 
 DLSO.°/30m               0.00:  Dogleg Oriented 
 DLSX.°/30m               0.00:  Dogleg Str Max 
 DRET.      05.20.48 16-Jul-20:  Drill End Time 
 DRST.      10.20.48 13-Jul-20:  Drill Start Tim 
 DTIM.hr                 14.25:  Time Drilling 
 EDEP.m                4326.01:  End Depth 
 ENG1.      Artemiy Matviyanov:  Engineer 1 
 ENG2.           Amrah Tahirov:  Engineer 2 
 ETIM.      22.30.00 18-Jul-20:  End Time 
 FLOI.gpm               550.00:  Flow In 
 FLON.gpm               450.00:  Flow In Min 
 FLOS.cptm                0.00:  Fluid Loss 
 FLOX.gpm               600.00:  Flow In Max 
 HFLO.                      No:  High Flow 
 HPRE.                      No:  High Pressure 
 HTEM.                      No:  High Temp 
 HYDO.m                   1.80:  Hydro Offset 
 IFIN.deg                65.41:  Inc, Final 
 IMAX.deg                65.14:  Inc Max 
 IMIN.deg                58.89:  Inc Min 
 IMND.m                4104.92:  Inc Min Depth 
 IMXD.m                4303.89:  Inc Max Depth 
 JARR.                      No:  Jarring 
 LETM.      10.20.48 17-Jul-20:  Log End Time 
 LOST.hr                     0:  Lost Rig Time 
 LSTM.      10.20.48 13-Jul-20:  Log Start Time 
 MDCL.ppm             37000.00:  Mud Chlorides 
 MDES.     Inversion Oil/Synthetic:  Mud Desc 
 DFD .sg                  1.52:  Mud Density 
 MDMN.sg                  1.52:  Dens Mud Min 
 MDMX.sg                  1.52:  Dens Mud Max 
 MOIL.                   52.70:  Run Mud Oil % 
 MOWR.                   68:32:  Run Mud OWR 
 MSND.                     0.2:  Run Mud Sand % 
 MSOL.                    21.6:  Run Mud Solids% 
 DFV .spqt               79.00:  Mud Viscosity 
 MWOD.in                  6.75:  MWD Tool OD 
 MWSI.                      No:  Serv Intrp, MWD 
 OTIM.hr                114.04:  Time Operating 
 PCON.          Wear / Scratch:  Pad Condition 
 PMAX.psia            11782.92:  Press Op, Max 
 PV  .cP                 49.00:  Mud PV 
 RUN .                     600:  Run Number 
 ROPA.m/hr               20.00:  ROP Avg 
 ROPN.m/hr               15.00:  ROP Min 
 ROPX.m/hr               22.00:  ROP Max 
 RPMA.rpm               120.00:  RPM Surface Avg 
 RPMN.rpm                90.00:  RPM Surface Min 
 RPMX.rpm               140.00:  RPM Surface Max 
 RRUN.                     600:  Rig Run Number 
 SAZI.deg               260.29:  Azm, Start 
 SDEP.m                4078.01:  Start Depth 
 SIDD.                      No:  Serv Intrp, DD 
 SINC.deg                58.89:  Inc, Start 
 SPPA.psig             4560.00:  SPP Avg 
 SPPN.psig             3600.00:  SPP Min 
 SPPX.psig             4800.00:  SPP Max 
 STIM.      10.20.48 13-Jul-20:  Start Time 
 SVCS.                 DD, MWD:  Services 
 SVER.                    9.20:  Sperry Version 
 TDAT.m                4378.01:  Tot Depth Attmp 
 TDDF.                      No:  Trip for DD 
 TDLG.m                 248.00:  Tot Depth Loggd 
 TFF .                      No:  Trip for Fail 
 TQAA.f-kp               18.00:  Torque Abs Avg 
 TQAN.f-kp               15.00:  Torque Abs Min 
 TQAX.f-kp               20.00:  Torque Abs Max 
 TRRT.°/30m               0.70:  Turn Rotating 
 MRT .                    HCIM:  Maximum Recorded Temperature 
 TTMX.degC               86.00:  Max Tool Temp 
 WBMN.klb                 3.00:  WOB Min 
 WOBA.klb                 5.00:  WOB Avg 
 WOBX.klb                 9.00:  WOB Max 
 YP  .lhf2               32.00:  Yield Point 
~Curve Information Block
#MNEM.UNIT                 API CODE     Curve Description
#---------               -----------    ---------------------------
 TIME.HHMMSS            00 000 000 000:  GT Time & Date
 GTDEPTH.m              00 000 000 000:  GT Depth
 GTPQH.psia             00 000 000 000:  GT HR Quartz Pressure
 GTTQ.degC              00 000 000 000:  GT Quartz Temperature
 GTTN.NONE              00 000 000 000:  GT Test Number
 GTET.sec               00 000 000 000:  GT Elapsed Test Time
 GTTVD.m                00 000 000 000:  GT True Vertical Depth
#Other Information
#
#WARRANTY: Halliburton will use its best efforts to furnish customers with 
#accurate information and interpretations that are part of, and incident to, the services 
#provided.  However, Halliburton cannot and does not warrant the accuracy 
#or correctness of such information and interpretations.  Under no circumstances should any 
#such information or interpretation be relied upon as the sole basis for any drilling, 
#completion, production, or financial decision or any procedure involving any risk to the 
#safety of any drilling venture, drilling rig or its crew or any other third party.  The 
#Customer has full responsibility for all drilling, completion and production operation.  
#Halliburton makes no representations or warranties, either expressed or 
#implied, including, but not limited to, the implied warranties of merchantability or fitness 
#for a particular purpose, with respect to the services rendered.  In no event will 
#Halliburton be liable for failure to obtain any particular results or for 
#any damages, including, but not limited to, indirect, special or consequential damages, 
#resulting from the use of any information or interpretation provided by Halliburton.
#
~A           TIME           GTDEPTH  GTPQH  GTTQ  GTTN  GTET   GTTVD  
# ...
   22:19:21.442.16-Jul-2020 4093.01 6833.33 76.46 8.00 391.15 2778.38
   22:19:21.642.16-Jul-2020 4093.01 6833.33 76.46 8.00 391.35 2778.38
   22:19:21.843.16-Jul-2020 4093.01 6819.92 76.46 8.00 391.55 2778.38
   22:19:22.043.16-Jul-2020 4093.01 6825.04 76.46 8.00 391.75 2778.38
   22:19:22.243.16-Jul-2020 4093.01 6821.06 76.46 8.00 391.95 2778.38
   22:19:22.443.16-Jul-2020 4093.01 6823.19 76.46 8.00 392.15 2778.38
   22:19:22.643.16-Jul-2020 4093.01 6823.19 76.46 8.00 392.35 2778.38
   22:19:22.843.16-Jul-2020 4093.01 6822.30 76.46 8.00 392.55 2778.38
   22:19:23.043.16-Jul-2020 4093.01 6821.96 76.46 8.00 392.75 2778.38
   22:19:23.243.16-Jul-2020 4093.01 6822.04 76.46 8.00 392.95 2778.38
   22:19:23.443.16-Jul-2020 4093.01 6822.04 76.46 8.00 393.15 2778.38
   22:19:23.643.16-Jul-2020 4093.01 6822.04 76.46 8.00 393.35 2778.38
   22:19:23.843.16-Jul-2020 4093.01 6821.85 76.46 8.00 393.55 2778.38
   22:19:24.043.16-Jul-2020 4093.01 6821.44 76.46 8.00 393.75 2778.38
   22:19:24.243.16-Jul-2020 4093.01 6821.14 76.46 8.00 393.95 2778.38
   22:19:24.443.16-Jul-2020 4093.01 6820.78 76.46 8.00 394.15 2778.38
   22:19:24.644.16-Jul-2020 4093.01 6832.81 76.46 8.00 394.35 2778.38
   22:19:24.844.16-Jul-2020 4093.01 6819.59 76.46 8.00 394.55 2778.38
   22:19:25.044.16-Jul-2020 4093.01 6819.71 76.46 8.00 394.75 2778.38
   22:19:25.244.16-Jul-2020 4093.01 6825.01 76.46 8.00 394.95 2778.38
   22:19:25.444.16-Jul-2020 4093.01 6820.58 76.46 8.00 395.15 2778.38
   22:19:25.644.16-Jul-2020 4093.01 6822.27 76.46 8.00 395.35 2778.38
   22:19:25.844.16-Jul-2020 4093.01 6827.20 76.46 8.00 395.55 2778.38
   22:19:26.044.16-Jul-2020 4093.01 6826.83 76.46 8.00 395.75 2778.38
   22:19:26.244.16-Jul-2020 4093.01 6819.24 76.46 8.00 395.95 2778.38
   22:19:26.444.16-Jul-2020 4093.01 6822.69 76.46 8.00 396.15 2778.38
   22:19:26.644.16-Jul-2020 4093.01 6822.69 76.46 8.00 396.35 2778.38
   22:19:26.844.16-Jul-2020 4093.01 6819.52 76.46 8.00 396.55 2778.38
   22:19:27.044.16-Jul-2020 4093.01 6821.09 76.46 8.00 396.75 2778.38
   22:19:27.245.16-Jul-2020 4093.01 6829.71 76.46 8.00 396.95 2778.38
   22:19:27.445.16-Jul-2020 4093.01 6827.28 76.46 8.00 397.15 2778.38
   22:19:27.645.16-Jul-2020 4093.01 6827.28 76.46 8.00 397.35 2778.38
   22:19:27.845.16-Jul-2020 4093.01 6823.62 76.46 8.00 397.55 2778.38
   22:19:28.045.16-Jul-2020 4093.01 6823.12 76.46 8.00 397.75 2778.38
   22:19:28.245.16-Jul-2020 4093.01 6822.56 76.46 8.00 397.95 2778.38
   22:19:28.445.16-Jul-2020 4093.01 6822.96 76.46 8.00 398.15 2778.38
   22:19:28.645.16-Jul-2020 4093.01 6822.96 76.46 8.00 398.35 2778.38
   22:19:28.845.16-Jul-2020 4093.01 6822.34 76.46 8.00 398.55 2778.38
   22:19:29.045.16-Jul-2020 4093.01 6821.79 76.46 8.00 398.75 2778.38
   22:19:29.245.16-Jul-2020 4093.01 6822.16 76.46 8.00 398.95 2778.38
   22:19:29.445.16-Jul-2020 4093.01 6822.02 76.46 8.00 399.15 2778.38
   22:19:29.645.16-Jul-2020 4093.01 6822.02 76.46 8.00 399.35 2778.38
   22:19:29.846.16-Jul-2020 4093.01 6820.59 76.46 8.00 399.55 2778.38
   22:19:30.046.16-Jul-2020 4093.01 6832.47 76.46 8.00 399.75 2778.38
   22:19:30.246.16-Jul-2020 4093.01 6819.23 76.46 8.00 399.95 2778.38
   22:19:30.446.16-Jul-2020 4093.01 6819.42 76.46 8.00 400.15 2778.38
   22:19:30.646.16-Jul-2020 4093.01 6819.42 76.46 8.00 400.35 2778.38
   22:19:30.846.16-Jul-2020 4093.01 6820.77 76.46 8.00 400.55 2778.38
   22:19:31.046.16-Jul-2020 4093.01 6822.62 76.46 8.00 400.75 2778.38
   22:19:31.246.16-Jul-2020 4093.01 6821.34 76.46 8.00 400.95 2778.38
   22:19:31.446.16-Jul-2020 4093.01 6821.82 76.46 8.00 401.15 2778.38
   22:19:31.646.16-Jul-2020 4093.01 6821.82 76.46 8.00 401.35 2778.38
   22:19:31.846.16-Jul-2020 4093.01 6821.53 76.46 8.00 401.55 2778.38
   22:19:32.046.16-Jul-2020 4093.01 6821.65 76.46 8.00 401.75 2778.38
   22:19:32.246.16-Jul-2020 4093.01 6821.24 76.46 8.00 401.95 2778.38
   22:19:32.447.16-Jul-2020 4093.01 6821.67 76.45 8.00 402.15 2778.38
   22:19:32.647.16-Jul-2020 4093.01 6821.67 76.45 8.00 402.35 2778.38
   22:19:32.847.16-Jul-2020 4093.01 6821.09 76.45 8.00 402.55 2778.38
   22:19:33.047.16-Jul-2020 4093.01 6820.67 76.45 8.00 402.75 2778.38
   22:19:33.247.16-Jul-2020 4093.01 6832.38 76.45 8.00 402.95 2778.38
   22:19:33.447.16-Jul-2020 4093.01 6819.42 76.45 8.00 403.15 2778.38
   22:19:33.647.16-Jul-2020 4093.01 6819.42 76.45 8.00 403.35 2778.38
   22:19:33.847.16-Jul-2020 4093.01 6824.95 76.45 8.00 403.55 2778.38
   22:19:34.047.16-Jul-2020 4093.01 6820.17 76.45 8.00 403.75 2778.38
   22:19:34.247.16-Jul-2020 4093.01 6821.79 76.45 8.00 403.95 2778.38
   22:19:34.447.16-Jul-2020 4093.01 6833.09 76.45 8.00 404.15 2778.38
   22:19:34.647.16-Jul-2020 4093.01 6833.09 76.45 8.00 404.35 2778.38
   22:19:34.847.16-Jul-2020 4093.01 6819.62 76.45 8.00 404.55 2778.38
   22:19:35.047.16-Jul-2020 4093.01 6823.97 76.45 8.00 404.75 2778.38
   22:19:35.248.16-Jul-2020 4093.01 6832.96 76.45 8.00 404.95 2778.38
   22:19:35.448.16-Jul-2020 4093.01 6820.47 76.45 8.00 405.15 2778.38
   22:19:35.648.16-Jul-2020 4093.01 6820.43 76.45 8.00 405.35 2778.38
   22:19:35.848.16-Jul-2020 4093.01 6824.13 76.45 8.00 405.55 2778.38
   22:19:36.048.16-Jul-2020 4093.01 6833.07 76.45 8.00 405.75 2778.38
   22:19:36.248.16-Jul-2020 4093.01 6820.85 76.45 8.00 405.95 2778.38
   22:19:36.448.16-Jul-2020 4093.01 6820.93 76.45 8.00 406.15 2778.38
   22:19:36.648.16-Jul-2020 4093.01 6820.93 76.45 8.00 406.35 2778.38
   22:19:36.848.16-Jul-2020 4093.01 6821.57 76.45 8.00 406.55 2778.38
   22:19:37.048.16-Jul-2020 4093.01 6824.09 76.45 8.00 406.75 2778.38
   22:19:37.248.16-Jul-2020 4093.01 6821.87 76.45 8.00 406.95 2778.38
   22:19:37.448.16-Jul-2020 4093.01 6822.52 76.45 8.00 407.15 2778.38
   22:19:37.648.16-Jul-2020 4093.01 6822.52 76.45 8.00 407.35 2778.38
   22:19:37.849.16-Jul-2020 4093.01 6822.06 76.45 8.00 407.55 2778.38
   22:19:38.049.16-Jul-2020 4093.01 6821.61 76.45 8.00 407.75 2778.38
   22:19:38.249.16-Jul-2020 4093.01 6820.64 76.45 8.00 407.95 2778.38
   22:19:38.449.16-Jul-2020 4093.01 6820.85 76.45 8.00 408.15 2778.38
   22:19:38.649.16-Jul-2020 4093.01 6820.85 76.45 8.00 408.35 2778.38
   22:19:38.849.16-Jul-2020 4093.01 6831.99 76.45 8.00 408.55 2778.38
   22:19:39.049.16-Jul-2020 4093.01 6819.13 76.45 8.00 408.75 2778.38
   22:19:39.249.16-Jul-2020 4093.01 6821.65 76.45 8.00 408.95 2778.38
   22:19:39.449.16-Jul-2020 4093.01 6822.53 76.45 8.00 409.15 2778.38
   22:19:39.649.16-Jul-2020 4093.01 6822.53 76.45 8.00 409.35 2778.38
   22:19:39.849.16-Jul-2020 4093.01 6822.42 76.45 8.00 409.55 2778.38
   22:19:40.049.16-Jul-2020 4093.01 6820.82 76.45 8.00 409.75 2778.38
   22:19:40.249.16-Jul-2020 4093.01 6821.55 76.45 8.00 409.95 2778.38
