~Version Information
 VERS.                  2.0:   CWLS log ASCII Standard -VERSION 2.0
 WRAP.                   NO:   One line per depth step
~Well Information Block
#MNEM.UNIT     VALUE/NAME     DESCRIPTION
#---------     -----------    ---------------------------
 STRT.S             16:55:55 16-Jul-20: START TIME 16:55:55 16-Jul-20
 STOP.S             17:02:47 16-Jul-20: STOP TIME  17:02:47 16-Jul-20
 STEP.S                   0.00: STEP TIME
 NULL.                 -999.25: NULL VALUE
 MDS .        Operator Entered:  MAG DATA SOURCE
 UNIT.                     N/A:  LOGGING EQUIPMENT ID
 DCON.         Sperry Drilling:  DIRECTNL CONTR
 DOE .                     N/A:  DOE NUMBER
 RIG .               EastAzeri:  RIG NAME
 JOBN.        AZ-XX-0906363297:  JOB TICKET NUMB
 MWDS.                    Baku:  MWD SHOP
 SRVC.     Turan Drilling & Engineering:  CONTRACTOR
 PROV.                    Baku:  PROVINCE
 STAT.                    Baku:  STATE NAME
 REGN.                   EESSA:  REGION
 BASE.              Azerbaijan:  LOGGING EQUIPMENT BASE LOCATION
 WTYP.                Deviated:  WELL TYPE
 UWI .                     N/A:  UNIQUE WELL IDENTIFIER
 API .                     N/A:  API NUMBER
 COMP.     BP Exploration (Caspian Sea) ltd.:  COMPANY
 WELL.                    D07z:  WELL NAME
 CTRY.              Azerbaijan:  COUNTRY NAME
 SON .        AZ-XX-0906363297:  JOB NUMBER
 FLD .                     ACG:  FIELD NAME
 PDAT.          Mean Sea Level:  PERMANENT DATUM
 FTOP.          Formation Tops:  FORM TOPS DESC
 ILTD.               Lithology:  INTERP LTH DESC
 SVYD.                  Survey:  SURVEY DESC
 DMOD.             Drill Model:  DRILL MOD DESC
 HPTY.       Minimum Curvature:  HOLE POS TYPE
 NREF.                    Grid:  NORTH REFERENCE
 SPUD.               28-Jun-20:  SPUD DATE
 DATE.      18.27.12 28-Jun-20:  END TIME
 STIM.      18.27.12 28-Jun-20:  START TIME
 DMF .             Drill Floor:  DRILL MEAS FROM
 DFST.                        :  DIST FSL TEXT
 DFWT.                        :  DIST FWL TEXT
 CNTY.                        :  COUNTY
 LOC .                        :  LOCATION
 LMF .             Drill Floor:  LOG MEASURED FROM
 VSNS.m                  -7.75:  VERT SEC N/S
 VSEW.m                  -9.19:  VERT SEC E/W
 MMDE.m                   0.00:  MAGUTM CALC DEP
 AGAP.m                  43.60:  AIR GAP
 DEP .m                4058.99:  DEPTH
 APD .m                  43.60:  DEPTH ABOVE PD
 WDMS.m                 151.80:  WD ELEV
 EGL .m                   0.00:  GROUND ELEVATION
 EPD .m                   0.00:  ELEVATION
 AZTC.deg                 6.19:  AZM TOTAL CORR
 GRDC.deg                 0.27:  GRID CORRECTION
 MDEC.deg                 6.46:  MAGNETIC DECL
 MDIP.deg                59.47:  MAGNETIC DIP
 MFLD.nT              50279.00:  MAGNETIC FIELD
 GVFD.g                   1.00:  GRAVITY FIELD
 VSDR.deg               249.96:  VERT SEC DIRECT
 TDD .m                   0.00:  TOTAL DEPTH (DRILLER)
 SDEP.m                   0.00:  START DEPTH
 DFSL.m                   0.00:  DISTANCE FSL
 DFWL.m                   0.00:  DISTANCE FWL
 UTMY.m             4431880.20:  UTM Y
 UTMX.m              538763.98:  UTM X
 WHEW.m                  -9.19:  WELL HEAD E/W
 WHNS.m                  -7.75:  WELL HEAD N/S
 LONG.deg                51.45:  LONGITUDE
 LATI.deg                40.02:  LATITUDE
 TVDS.m                  43.60:  TVDSS CORRECTN
 EKB .m                  43.60:  KB ELEVATION
 EDF .m                  43.60:  DF ELEVATION
 TDL .m                 248.00:  TOTAL DEPTH (LOGGER)
 MAGU.                 1849075:  MAGUTM CHECKSUM
 VSC .                       0:  VS TO CLOSURE
~Parameter Information Block
#MNEM.UNIT       Value        Description
#---------     -----------    ---------------------------
 AV  .mps                 6.34:  Ann Velocity 
 AVMX.mps                 7.00:  Max Ann Veloc 
 AZIF.deg               260.29:  Azm, Final 
 BHAT.        Rotary Steerable:  BHA Type 
 BROT.°/30m               1.20:  Build Rotating 
 BS  .in                  8.50:  Bit Size 
 BSZ .in                  8.50:  Bit Size 
 BTPL.psig              620.00:  Bit Press Loss 
 CABU.                     Yes:  Customer Abuse 
 COMM.                     3z:  Run Comments 1 
 TCS .hr                 56.22:  Time Ciculation Ended 
 CV  .mps                 3.05:  Crit Velocity 
 CVMX.mps                 3.20:  Max Crit Veloc 
 DD1 .            Musa Ahmadov:  Direct Drillr 1 
 DDSV.                 iCruise:  DD Service 
 DEFF.%                  98.00:  % Det Eff 
 DLRX.°/30m               2.78:  Dogleg Rot Max 
 DLSO.°/30m               0.00:  Dogleg Oriented 
 DLSX.°/30m               0.00:  Dogleg Str Max 
 DRET.      05.20.48 16-Jul-20:  Drill End Time 
 DRST.      10.20.48 13-Jul-20:  Drill Start Tim 
 DTIM.hr                 14.25:  Time Drilling 
 EDEP.m                4326.01:  End Depth 
 ENG1.      Artemiy Matviyanov:  Engineer 1 
 ENG2.           Amrah Tahirov:  Engineer 2 
 ETIM.      22.30.00 18-Jul-20:  End Time 
 FLOI.gpm               550.00:  Flow In 
 FLON.gpm               450.00:  Flow In Min 
 FLOS.cptm                0.00:  Fluid Loss 
 FLOX.gpm               600.00:  Flow In Max 
 HFLO.                      No:  High Flow 
 HPRE.                      No:  High Pressure 
 HTEM.                      No:  High Temp 
 HYDO.m                   1.80:  Hydro Offset 
 IFIN.deg                65.41:  Inc, Final 
 IMAX.deg                65.14:  Inc Max 
 IMIN.deg                58.89:  Inc Min 
 IMND.m                4104.92:  Inc Min Depth 
 IMXD.m                4303.89:  Inc Max Depth 
 JARR.                      No:  Jarring 
 LETM.      10.20.48 17-Jul-20:  Log End Time 
 LOST.hr                     0:  Lost Rig Time 
 LSTM.      10.20.48 13-Jul-20:  Log Start Time 
 MDCL.ppm             37000.00:  Mud Chlorides 
 MDES.     Inversion Oil/Synthetic:  Mud Desc 
 DFD .sg                  1.52:  Mud Density 
 MDMN.sg                  1.52:  Dens Mud Min 
 MDMX.sg                  1.52:  Dens Mud Max 
 MOIL.                   52.70:  Run Mud Oil % 
 MOWR.                   68:32:  Run Mud OWR 
 MSND.                     0.2:  Run Mud Sand % 
 MSOL.                    21.6:  Run Mud Solids% 
 DFV .spqt               79.00:  Mud Viscosity 
 MWOD.in                  6.75:  MWD Tool OD 
 MWSI.                      No:  Serv Intrp, MWD 
 OTIM.hr                114.04:  Time Operating 
 PCON.          Wear / Scratch:  Pad Condition 
 PMAX.psia            11782.92:  Press Op, Max 
 PV  .cP                 49.00:  Mud PV 
 RUN .                     600:  Run Number 
 ROPA.m/hr               20.00:  ROP Avg 
 ROPN.m/hr               15.00:  ROP Min 
 ROPX.m/hr               22.00:  ROP Max 
 RPMA.rpm               120.00:  RPM Surface Avg 
 RPMN.rpm                90.00:  RPM Surface Min 
 RPMX.rpm               140.00:  RPM Surface Max 
 RRUN.                     600:  Rig Run Number 
 SAZI.deg               260.29:  Azm, Start 
 SDEP.m                4078.01:  Start Depth 
 SIDD.                      No:  Serv Intrp, DD 
 SINC.deg                58.89:  Inc, Start 
 SPPA.psig             4560.00:  SPP Avg 
 SPPN.psig             3600.00:  SPP Min 
 SPPX.psig             4800.00:  SPP Max 
 STIM.      10.20.48 13-Jul-20:  Start Time 
 SVCS.                 DD, MWD:  Services 
 SVER.                    9.20:  Sperry Version 
 TDAT.m                4378.01:  Tot Depth Attmp 
 TDDF.                      No:  Trip for DD 
 TDLG.m                 248.00:  Tot Depth Loggd 
 TFF .                      No:  Trip for Fail 
 TQAA.f-kp               18.00:  Torque Abs Avg 
 TQAN.f-kp               15.00:  Torque Abs Min 
 TQAX.f-kp               20.00:  Torque Abs Max 
 TRRT.°/30m               0.70:  Turn Rotating 
 MRT .                    HCIM:  Maximum Recorded Temperature 
 TTMX.degC               86.00:  Max Tool Temp 
 WBMN.klb                 3.00:  WOB Min 
 WOBA.klb                 5.00:  WOB Avg 
 WOBX.klb                 9.00:  WOB Max 
 YP  .lhf2               32.00:  Yield Point 
~Curve Information Block
#MNEM.UNIT                 API CODE     Curve Description
#---------               -----------    ---------------------------
 TIME.HHMMSS            00 000 000 000:  GT Time & Date
 GTDEPTH.m              00 000 000 000:  GT Depth
 GTPQH.psia             00 000 000 000:  GT HR Quartz Pressure
 GTTQ.degC              00 000 000 000:  GT Quartz Temperature
 GTTN.NONE              00 000 000 000:  GT Test Number
 GTET.sec               00 000 000 000:  GT Elapsed Test Time
 GTTVD.m                00 000 000 000:  GT True Vertical Depth
#Other Information
#
#WARRANTY: Halliburton will use its best efforts to furnish customers with 
#accurate information and interpretations that are part of, and incident to, the services 
#provided.  However, Halliburton cannot and does not warrant the accuracy 
#or correctness of such information and interpretations.  Under no circumstances should any 
#such information or interpretation be relied upon as the sole basis for any drilling, 
#completion, production, or financial decision or any procedure involving any risk to the 
#safety of any drilling venture, drilling rig or its crew or any other third party.  The 
#Customer has full responsibility for all drilling, completion and production operation.  
#Halliburton makes no representations or warranties, either expressed or 
#implied, including, but not limited to, the implied warranties of merchantability or fitness 
#for a particular purpose, with respect to the services rendered.  In no event will 
#Halliburton be liable for failure to obtain any particular results or for 
#any damages, including, but not limited to, indirect, special or consequential damages, 
#resulting from the use of any information or interpretation provided by Halliburton.
#
~A           TIME           GTDEPTH  GTPQH  GTTQ  GTTN  GTET   GTTVD  
# ...
   16:58:13.411.16-Jul-2020 4261.01 4635.63 80.08 2.00 138.03 2855.56
   16:58:13.611.16-Jul-2020 4261.01 4635.67 80.08 2.00 138.23 2855.56
   16:58:13.811.16-Jul-2020 4261.01 4635.64 80.08 2.00 138.43 2855.56
   16:58:14.011.16-Jul-2020 4261.01 4635.65 80.08 2.00 138.63 2855.56
   16:58:14.211.16-Jul-2020 4261.01 4635.67 80.08 2.00 138.83 2855.56
   16:58:14.411.16-Jul-2020 4261.01 4635.66 80.08 2.00 139.03 2855.56
   16:58:14.611.16-Jul-2020 4261.01 4635.62 80.08 2.00 139.23 2855.56
   16:58:14.811.16-Jul-2020 4261.01 4635.66 80.08 2.00 139.43 2855.56
   16:58:15.011.16-Jul-2020 4261.01 4635.73 80.08 2.00 139.63 2855.56
   16:58:15.211.16-Jul-2020 4261.01 4635.79 80.08 2.00 139.83 2855.56
   16:58:15.411.16-Jul-2020 4261.01 4635.60 80.08 2.00 140.03 2855.56
   16:58:15.611.16-Jul-2020 4261.01 4635.62 80.08 2.00 140.23 2855.56
   16:58:15.811.16-Jul-2020 4261.01 4635.69 80.08 2.00 140.43 2855.56
   16:58:16.011.16-Jul-2020 4261.01 4635.63 80.08 2.00 140.63 2855.56
   16:58:16.211.16-Jul-2020 4261.01 4635.64 80.08 2.00 140.83 2855.56
   16:58:16.411.16-Jul-2020 4261.01 4635.68 80.08 2.00 141.03 2855.56
   16:58:16.611.16-Jul-2020 4261.01 4635.65 80.08 2.00 141.23 2855.56
   16:58:16.811.16-Jul-2020 4261.01 4635.65 80.08 2.00 141.43 2855.56
   16:58:17.011.16-Jul-2020 4261.01 4635.68 80.08 2.00 141.63 2855.56
   16:58:17.211.16-Jul-2020 4261.01 4635.67 80.08 2.00 141.83 2855.56
   16:58:17.411.16-Jul-2020 4261.01 4635.67 80.08 2.00 142.03 2855.56
   16:58:17.611.16-Jul-2020 4261.01 4635.67 80.08 2.00 142.23 2855.56
   16:58:17.812.16-Jul-2020 4261.01 4635.66 80.08 2.00 142.43 2855.56
   16:58:18.012.16-Jul-2020 4261.01 4635.66 80.08 2.00 142.63 2855.56
   16:58:18.212.16-Jul-2020 4261.01 4635.68 80.08 2.00 142.83 2855.56
   16:58:18.412.16-Jul-2020 4261.01 4635.79 80.08 2.00 143.03 2855.56
   16:58:18.612.16-Jul-2020 4261.01 4635.79 80.08 2.00 143.23 2855.56
   16:58:18.812.16-Jul-2020 4261.01 4635.65 80.08 2.00 143.43 2855.56
   16:58:19.012.16-Jul-2020 4261.01 4635.99 80.08 2.00 143.63 2855.56
   16:58:19.212.16-Jul-2020 4261.01 4635.47 80.08 2.00 143.83 2855.56
   16:58:19.412.16-Jul-2020 4261.01 4635.53 80.08 2.00 144.03 2855.56
   16:58:19.612.16-Jul-2020 4261.01 4635.53 80.08 2.00 144.23 2855.56
   16:58:19.812.16-Jul-2020 4261.01 4596.28 80.08 2.00 144.43 2855.56
   16:58:20.012.16-Jul-2020 4261.01 4425.32 80.08 2.00 144.63 2855.56
   16:58:20.212.16-Jul-2020 4261.01 4337.38 80.08 2.00 144.83 2855.56
   16:58:20.412.16-Jul-2020 4261.01 4315.18 80.08 2.00 145.03 2855.56
   16:58:20.612.16-Jul-2020 4261.01 4314.45 80.08 2.00 145.23 2855.56
   16:58:20.812.16-Jul-2020 4261.01 4310.22 80.08 2.00 145.43 2855.56
   16:58:21.012.16-Jul-2020 4261.01 4314.71 80.08 2.00 145.63 2855.56
   16:58:21.212.16-Jul-2020 4261.01 4302.97 80.08 2.00 145.83 2855.56
   16:58:21.412.16-Jul-2020 4261.01 4310.26 80.08 2.00 146.03 2855.56
   16:58:21.612.16-Jul-2020 4261.01 4310.26 80.08 2.00 146.23 2855.56
   16:58:21.812.16-Jul-2020 4261.01 4267.71 80.07 2.00 146.43 2855.56
   16:58:22.012.16-Jul-2020 4261.01 4264.38 80.07 2.00 146.63 2855.56
   16:58:22.212.16-Jul-2020 4261.01 4268.11 80.07 2.00 146.83 2855.56
   16:58:22.412.16-Jul-2020 4261.01 4266.39 80.07 2.00 147.03 2855.56
   16:58:22.613.16-Jul-2020 4261.01 4266.39 80.07 2.00 147.23 2855.56
   16:58:22.813.16-Jul-2020 4261.01 4249.50 80.07 2.00 147.43 2855.56
   16:58:23.013.16-Jul-2020 4261.01 4245.47 80.07 2.00 147.63 2855.56
   16:58:23.213.16-Jul-2020 4261.01 4235.79 80.07 2.00 147.83 2855.56
   16:58:23.413.16-Jul-2020 4261.01 4230.49 80.07 2.00 148.03 2855.56
   16:58:23.613.16-Jul-2020 4261.01 4230.49 80.07 2.00 148.23 2855.56
   16:58:23.813.16-Jul-2020 4261.01 4231.83 80.07 2.00 148.43 2855.56
   16:58:24.013.16-Jul-2020 4261.01 4200.49 80.07 2.00 148.63 2855.56
   16:58:24.213.16-Jul-2020 4261.01 4179.05 80.07 2.00 148.83 2855.56
   16:58:24.413.16-Jul-2020 4261.01 4195.65 80.07 2.00 149.03 2855.56
   16:58:24.613.16-Jul-2020 4261.01 4195.65 80.07 2.00 149.23 2855.56
   16:58:24.813.16-Jul-2020 4261.01 4197.80 80.07 2.00 149.43 2855.56
   16:58:25.013.16-Jul-2020 4261.01 4199.68 80.07 2.00 149.63 2855.56
   16:58:25.213.16-Jul-2020 4261.01 4202.12 80.07 2.00 149.83 2855.56
   16:58:25.413.16-Jul-2020 4261.01 4200.91 80.07 2.00 150.03 2855.56
   16:58:25.613.16-Jul-2020 4261.01 4200.91 80.07 2.00 150.23 2855.56
   16:58:25.813.16-Jul-2020 4261.01 4189.82 80.07 2.00 150.43 2855.56
   16:58:26.013.16-Jul-2020 4261.01 4173.91 80.07 2.00 150.63 2855.56
   16:58:26.213.16-Jul-2020 4261.01 4175.23 80.07 2.00 150.83 2855.56
   16:58:26.413.16-Jul-2020 4261.01 4177.22 80.06 2.00 151.03 2855.56
   16:58:26.613.16-Jul-2020 4261.01 4177.22 80.06 2.00 151.23 2855.56
   16:58:26.813.16-Jul-2020 4261.01 4163.25 80.06 2.00 151.43 2855.56
   16:58:27.013.16-Jul-2020 4261.01 4150.81 80.06 2.00 151.63 2855.56
   16:58:27.213.16-Jul-2020 4261.01 4144.88 80.06 2.00 151.83 2855.56
   16:58:27.413.16-Jul-2020 4261.01 4109.64 80.06 2.00 152.03 2855.56
   16:58:27.614.16-Jul-2020 4261.01 4109.64 80.06 2.00 152.23 2855.56
   16:58:27.814.16-Jul-2020 4261.01 4076.20 80.06 2.00 152.43 2855.56
   16:58:28.014.16-Jul-2020 4261.01 4069.97 80.06 2.00 152.63 2855.56
   16:58:28.214.16-Jul-2020 4261.01 4066.37 80.06 2.00 152.83 2855.56
   16:58:28.414.16-Jul-2020 4261.01 4085.80 80.06 2.00 153.03 2855.56
   16:58:28.614.16-Jul-2020 4261.01 4085.80 80.06 2.00 153.23 2855.56
   16:58:28.814.16-Jul-2020 4261.01 4045.90 80.06 2.00 153.43 2855.56
   16:58:29.014.16-Jul-2020 4261.01 4043.49 80.06 2.00 153.63 2855.56
   16:58:29.214.16-Jul-2020 4261.01 4020.43 80.06 2.00 153.83 2855.56
   16:58:29.414.16-Jul-2020 4261.01 4009.76 80.06 2.00 154.03 2855.56
   16:58:29.614.16-Jul-2020 4261.01 4009.76 80.06 2.00 154.23 2855.56
   16:58:29.814.16-Jul-2020 4261.01 3998.86 80.06 2.00 154.43 2855.56
   16:58:30.014.16-Jul-2020 4261.01 4271.33 80.06 2.00 154.63 2855.56
   16:58:30.214.16-Jul-2020 4261.01 4495.95 80.06 2.00 154.83 2855.56
   16:58:30.414.16-Jul-2020 4261.01 4584.88 80.06 2.00 155.03 2855.56
   16:58:30.614.16-Jul-2020 4261.01 4616.27 80.06 2.00 155.23 2855.56
   16:58:30.814.16-Jul-2020 4261.01 4627.12 80.06 2.00 155.43 2855.56
   16:58:31.014.16-Jul-2020 4261.01 4630.78 80.06 2.00 155.63 2855.56
   16:58:31.214.16-Jul-2020 4261.01 4632.17 80.06 2.00 155.83 2855.56
   16:58:31.414.16-Jul-2020 4261.01 4009.76 80.06 2.00 156.03 2855.56
   16:58:31.614.16-Jul-2020 4261.01 4632.82 80.06 2.00 156.23 2855.56
   16:58:31.814.16-Jul-2020 4261.01 4632.82 80.06 2.00 156.43 2855.56
   16:58:32.014.16-Jul-2020 4261.01 4634.05 80.06 2.00 156.63 2855.56
   16:58:32.214.16-Jul-2020 4261.01 4634.27 80.06 2.00 156.83 2855.56
   16:58:32.415.16-Jul-2020 4261.01 4634.39 80.06 2.00 157.03 2855.56
   16:58:32.615.16-Jul-2020 4261.01 4634.45 80.06 2.00 157.23 2855.56
   16:58:32.815.16-Jul-2020 4261.01 4634.53 80.06 2.00 157.43 2855.56
   16:58:33.015.16-Jul-2020 4261.01 4634.62 80.06 2.00 157.63 2855.56
   16:58:33.215.16-Jul-2020 4261.01 4634.72 80.06 2.00 157.83 2855.56
   16:58:33.415.16-Jul-2020 4261.01 4634.74 80.06 2.00 158.03 2855.56
   16:58:33.615.16-Jul-2020 4261.01 4634.81 80.06 2.00 158.23 2855.56
   16:58:33.815.16-Jul-2020 4261.01 4634.88 80.06 2.00 158.43 2855.56
   16:58:34.015.16-Jul-2020 4261.01 4634.89 80.06 2.00 158.63 2855.56
   16:58:34.215.16-Jul-2020 4261.01 4634.92 80.06 2.00 158.83 2855.56
   16:58:34.415.16-Jul-2020 4261.01 4634.94 80.06 2.00 159.03 2855.56
   16:58:34.615.16-Jul-2020 4261.01 4635.01 80.06 2.00 159.23 2855.56
   16:58:34.815.16-Jul-2020 4261.01 4635.37 80.06 2.00 159.43 2855.56
   16:58:35.015.16-Jul-2020 4261.01 4635.03 80.07 2.00 159.63 2855.56
   16:58:35.215.16-Jul-2020 4261.01 4635.04 80.07 2.00 159.83 2855.56
   16:58:35.415.16-Jul-2020 4261.01 4635.24 80.07 2.00 160.03 2855.56
   16:58:35.615.16-Jul-2020 4261.01 4635.22 80.07 2.00 160.23 2855.56
   16:58:35.815.16-Jul-2020 4261.01 4635.31 80.07 2.00 160.43 2855.56
   16:58:36.015.16-Jul-2020 4261.01 4635.17 80.07 2.00 160.63 2855.56
   16:58:36.215.16-Jul-2020 4261.01 4635.27 80.07 2.00 160.83 2855.56
