~Version Information
 VERS.                  2.0:   CWLS log ASCII Standard -VERSION 2.0
 WRAP.                   NO:   One line per depth step
~Well Information Block
#MNEM.UNIT     VALUE/NAME     DESCRIPTION
#---------     -----------    ---------------------------
 STRT.S             08:06:40 27-Aug-21: START TIME 08:06:40 27-Aug-21
 STOP.S             08:13:50 27-Aug-21: STOP TIME  08:13:50 27-Aug-21
 STEP.S                   0.00: STEP TIME
 NULL.                 -999.25: NULL VALUE
 DFWT.                        :  DIST FWL TEXT
 DFST.                        :  DIST FSL TEXT
 DMF .             Drill Floor:  DRILL MEAS FROM
 STIM.      20.00.00 17-Aug-21:  START TIME
 DATE.      19.00.00 29-Aug-21:  END TIME
 SPUD.               15-Aug-21:  SPUD DATE
 NREF.                    Grid:  NORTH REFERENCE
 HPTY.       Minimum Curvature:  HOLE POS TYPE
 DMOD.             Drill Model:  DRILL MOD DESC
 SVYD.                  Survey:  SURVEY DESC
 ILTD.               Lithology:  INTERP LTH DESC
 FTOP.          Formation Tops:  FORM TOPS DESC
 RIG .              East Azeri:  RIG NAME
 PDAT.          Mean Sea Level:  PERMANENT DATUM
 FLD .                     ACG:  FIELD NAME
 SON .        AZ-XX-0907180857:  JOB NUMBER
 CTRY.              Azerbaijan:  COUNTRY NAME
 WELL.                    D23x:  WELL NAME
 SRVC.     Turan Drilling and Engineering:  CONTRACTOR
 COMP.     BP Exploration (Caspian Sea) Ltd.:  COMPANY
 UWI .            /AZE00000214:  UNIQUE WELL IDENTIFIER
 API .            /AZE00000214:  API NUMBER
 MDS .        Operator Entered:  MAG DATA SOURCE
 BASE.              Azerbaijan:  LOGGING EQUIPMENT BASE LOCATION
 REGN.                   EESSA:  REGION
 PROV.                    Baku:  PROVINCE
 STAT.                    Baku:  STATE NAME
 MWDS.                    Baku:  MWD SHOP
 DOE .                     N/A:  DOE NUMBER
 DCON.         Sperry Drilling:  DIRECTNL CONTR
 UNIT.                     N/A:  LOGGING EQUIPMENT ID
 WTYP.                Deviated:  WELL TYPE
 CNTY.                        :  COUNTY
 LOC .                        :  LOCATION
 LMF .             Drill Floor:  LOG MEASURED FROM
 TVDS.m                  43.60:  TVDSS CORRECTN
 LATI.deg                40.02:  LATITUDE
 LONG.deg                51.45:  LONGITUDE
 WHNS.m                  -7.04:  WELL HEAD N/S
 WHEW.m                  -0.67:  WELL HEAD E/W
 UTMX.m              538762.90:  UTM X
 UTMY.m             4431871.34:  UTM Y
 DFWL.m                   0.00:  DISTANCE FWL
 DFSL.m                   0.00:  DISTANCE FSL
 SDEP.m                4127.00:  START DEPTH
 TDD .m                5084.50:  TOTAL DEPTH (DRILLER)
 VSDR.deg               140.47:  VERT SEC DIRECT
 GVFD.g                   1.00:  GRAVITY FIELD
 MFLD.nT              50362.00:  MAGNETIC FIELD
 MDIP.deg                59.48:  MAGNETIC DIP
 MDEC.deg                 6.47:  MAGNETIC DECL
 GRDC.deg                 0.31:  GRID CORRECTION
 AZTC.deg                 6.16:  AZM TOTAL CORR
 EPD .m                   0.00:  ELEVATION
 EGL .m                   0.00:  GROUND ELEVATION
 WDMS.m                 151.80:  WD ELEV
 APD .m                  43.60:  DEPTH ABOVE PD
 DEP .m                4092.57:  DEPTH
 AGAP.m                  43.60:  AIR GAP
 VSEW.m                  -0.67:  VERT SEC E/W
 VSNS.m                  -7.04:  VERT SEC N/S
 EKB .m                  43.60:  KB ELEVATION
 EDF .m                  43.60:  DF ELEVATION
 TDL .m                 957.50:  TOTAL DEPTH (LOGGER)
 VSC .                       0:  VS TO CLOSURE
 MAGU.                 1851413:  MAGUTM CHECKSUM
~Parameter Information Block
#MNEM.UNIT       Value        Description
#---------     -----------    ---------------------------
 AV  .mps                 1.50:  Ann Velocity 
 AVMX.mps                 2.00:  Max Ann Veloc 
 AZIF.deg               184.66:  Azm, Final 
 BHAT.        Rotary Steerable:  BHA Type 
 BREV.rev               300.00:  Rev Bit Total 
 BROT.°/30m              -0.50:  Build Rotating 
 BS  .in                  8.50:  Bit Size 
 BSZ .in                  8.50:  Bit Size 
 BTPL.psig              370.00:  Bit Press Loss 
 CABU.                      No:  Customer Abuse 
 CGEO.      Behruz Shahbaliyev:  Customer Geo 
 COMM.                     ü;x:  Run Comments 1 
 TCS .hr                140.08:  Time Ciculation Ended 
 CV  .mps                 3.00:  Crit Velocity 
 CVMX.mps                 3.20:  Max Crit Veloc 
 DD1 .            Musa Ahmadov:  Direct Drillr 1 
 DD2 .           Hamid Ahmadov:  Direct Drillr 2 
 DDSV.               Geo-Pilot:  DD Service 
 DEFF.%                  98.40:  % Det Eff 
 DLRX.°/30m               3.40:  Dogleg Rot Max 
 DLSO.°/30m               1.45:  Dogleg Oriented 
 DLSX.°/30m               3.40:  Dogleg Str Max 
 DRET.      18.40.00 29-Aug-21:  Drill End Time 
 DRST.      21.00.00 20-Aug-21:  Drill Start Tim 
 DTIM.hr                 69.47:  Time Drilling 
 EDEP.m                5084.50:  End Depth 
 ENG1.      Artemiy Matviyanov:  Engineer 1 
 ENG2.         Almaz Almadatov:  Engineer 2 
 ETIM.      18.40.00 29-Aug-21:  End Time 
 FLOI.gpm               500.00:  Flow In 
 FLON.gpm               400.00:  Flow In Min 
 FLOS.cptm                0.00:  Fluid Loss 
 FLOX.gpm               500.00:  Flow In Max 
 DFT .        Mineral Oil Base:  Mud Type 
 HFLO.                      No:  High Flow 
 HPRE.                      No:  High Pressure 
 HTEM.                      No:  High Temp 
 HYDO.m                   1.80:  Hydro Offset 
 IFIN.deg                25.62:  Inc, Final 
 IMAX.deg                48.69:  Inc Max 
 IMIN.deg                24.01:  Inc Min 
 IMND.m                4962.57:  Inc Min Depth 
 IMXD.m                4119.01:  Inc Max Depth 
 JARR.                      No:  Jarring 
 LETM.      18.40.00 29-Aug-21:  Log End Time 
 LOST.hr                     0:  Lost Rig Time 
 LSTM.      21.00.00 20-Aug-21:  Log Start Time 
 MDCL.ppm             41500.00:  Mud Chlorides 
 MDES.     Inversion Oil/Synthetic:  Mud Desc 
 DFD .sg                  1.56:  Mud Density 
 MDMN.sg                  1.56:  Dens Mud Min 
 MDMX.sg                  1.56:  Dens Mud Max 
 MOIL.                      70:  Run Mud Oil % 
 MOWR.                   70:30:  Run Mud OWR 
 MSND.                     0.2:  Run Mud Sand % 
 MSOL.                    23.3:  Run Mud Solids% 
 DFV .spqt               78.00:  Mud Viscosity 
 MWOD.in                  6.75:  MWD Tool OD 
 MWSI.                      No:  Serv Intrp, MWD 
 OTIM.hr                218.30:  Time Operating 
 PCON.           Look Like New:  Pad Condition 
 PMAX.psia            11015.30:  Press Op, Max 
 PV  .cP                 38.00:  Mud PV 
 RUN .                     300:  Run Number 
 ROPA.m/hr               15.00:  ROP Avg 
 ROPN.m/hr                9.00:  ROP Min 
 ROPX.m/hr               17.00:  ROP Max 
 RPMA.rpm               120.00:  RPM Surface Avg 
 RPMN.rpm                90.00:  RPM Surface Min 
 RPMX.rpm               140.00:  RPM Surface Max 
 RRUN.                     300:  Rig Run Number 
 RTIM.hr                 31.53:  Time Reaming 
 SAZI.deg               331.64:  Azm, Start 
 SDEP.m                4127.00:  Start Depth 
 SIDD.                      No:  Serv Intrp, DD 
 SINC.deg                48.43:  Inc, Start 
 SPPA.psig             5830.00:  SPP Avg 
 SPPN.psig             5600.00:  SPP Min 
 SPPX.psig             5900.00:  SPP Max 
 STIM.      21.00.00 20-Aug-21:  Start Time 
 SVCS.                 DD, MWD:  Services 
 SVER.                    9.20:  Sperry Version 
 TDAT.m                 957.50:  Tot Depth Attmp 
 TDDF.                      No:  Trip for DD 
 TDLG.m                 957.50:  Tot Depth Loggd 
 TFF .                      No:  Trip for Fail 
 TQAA.f-kp               15.00:  Torque Abs Avg 
 TQAN.f-kp               12.00:  Torque Abs Min 
 TQAX.f-kp               19.00:  Torque Abs Max 
 TRRT.°/30m              -3.40:  Turn Rotating 
 MRT .                  EWR-M5:  Maximum Recorded Temperature 
 TTMX.degC              100.00:  Max Tool Temp 
 VS01.                90639251:  Virtual Str1 SN 
 VS02.                90634715:  Virtual Str2 SN 
 VS03.                90652479:  Virtual Str3 SN 
 VS04.                90642262:  Virtual Str4 SN 
 WBMN.klb                 0.00:  WOB Min 
 WITN.           Murad Guliyev:  Customer Rep 
 WITN.          Yashar Gaziyev:  Customer Rep 2 
 WOBA.klb                 9.00:  WOB Avg 
 WOBX.klb                12.00:  WOB Max 
 YP  .lhf2               30.00:  Yield Point 
~Curve Information Block
#MNEM.UNIT                 API CODE     Curve Description
#---------               -----------    ---------------------------
 TIME.HHMMSS            00 000 000 000:  GT Time & Date
 GTDEPTH.m              00 000 000 000:  GT Depth
 GTPQH.psia             00 000 000 000:  GT HR Quartz Pressure
 GTTQ.degC              00 000 000 000:  GT Quartz Temperature
 GTTN.NONE              00 000 000 000:  GT Test Number
 GTET.sec               00 000 000 000:  GT Elapsed Test Time
 GTTVD.m                00 000 000 000:  GT True Vertical Depth
#Other Information
#
#WARRANTY: Halliburton will use its best efforts to furnish customers with 
#accurate information and interpretations that are part of, and incident to, the services 
#provided.  However, Halliburton cannot and does not warrant the accuracy 
#or correctness of such information and interpretations.  Under no circumstances should any 
#such information or interpretation be relied upon as the sole basis for any drilling, 
#completion, production, or financial decision or any procedure involving any risk to the 
#safety of any drilling venture, drilling rig or its crew or any other third party.  The 
#Customer has full responsibility for all drilling, completion and production operation.  
#Halliburton makes no representations or warranties, either expressed or 
#implied, including, but not limited to, the implied warranties of merchantability or fitness 
#for a particular purpose, with respect to the services rendered.  In no event will 
#Halliburton be liable for failure to obtain any particular results or for 
#any damages, including, but not limited to, indirect, special or consequential damages, 
#resulting from the use of any information or interpretation provided by Halliburton.
#
~A           TIME           GTDEPTH  GTPQH  GTTQ  GTTN  GTET   GTTVD  
# ...
   08:13:34.794.27-Aug-2021 4992.50 7986.82 87.02 5.00 414.07 3332.84
   08:13:34.994.27-Aug-2021 4992.50 7986.82 87.02 5.00 414.27 3332.84
   08:13:35.194.27-Aug-2021 4992.50 7987.04 87.02 5.00 414.47 3332.84
   08:13:35.394.27-Aug-2021 4992.50 7991.54 87.02 5.00 414.67 3332.84
   08:13:35.594.27-Aug-2021 4992.50 7988.62 87.02 5.00 414.87 3332.84
   08:13:35.794.27-Aug-2021 4992.50 7987.42 87.02 5.00 415.07 3332.84
   08:13:35.994.27-Aug-2021 4992.50 7987.42 87.02 5.00 415.27 3332.84
   08:13:36.194.27-Aug-2021 4992.50 7987.64 87.02 5.00 415.47 3332.84
   08:13:36.394.27-Aug-2021 4992.50 7987.97 87.02 5.00 415.67 3332.84
   08:13:36.594.27-Aug-2021 4992.50 7987.83 87.02 5.00 415.87 3332.84
   08:13:36.794.27-Aug-2021 4992.50 7986.80 87.02 5.00 416.07 3332.84
   08:13:36.994.27-Aug-2021 4992.50 7986.80 87.02 5.00 416.27 3332.84
   08:13:37.194.27-Aug-2021 4992.50 7986.66 87.02 5.00 416.47 3332.84
   08:13:37.394.27-Aug-2021 4992.50 7987.21 87.02 5.00 416.67 3332.84
   08:13:37.594.27-Aug-2021 4992.50 7988.30 87.02 5.00 416.87 3332.84
   08:13:37.794.27-Aug-2021 4992.50 7988.41 87.02 5.00 417.07 3332.84
   08:13:37.994.27-Aug-2021 4992.50 7988.41 87.02 5.00 417.27 3332.84
   08:13:38.194.27-Aug-2021 4992.50 7987.27 87.02 5.00 417.47 3332.84
   08:13:38.394.27-Aug-2021 4992.50 7987.28 87.02 5.00 417.67 3332.84
   08:13:38.594.27-Aug-2021 4992.50 7987.36 87.02 5.00 417.87 3332.84
   08:13:38.794.27-Aug-2021 4992.50 7991.16 87.02 5.00 418.07 3332.84
   08:13:38.994.27-Aug-2021 4992.50 7991.16 87.02 5.00 418.27 3332.84
   08:13:39.194.27-Aug-2021 4992.50 7986.48 87.02 5.00 418.47 3332.84
   08:13:39.394.27-Aug-2021 4992.50 7986.56 87.02 5.00 418.67 3332.84
   08:13:39.594.27-Aug-2021 4992.50 7986.50 87.02 5.00 418.87 3332.84
   08:13:39.794.27-Aug-2021 4992.50 7986.96 87.02 5.00 419.07 3332.84
   08:13:39.994.27-Aug-2021 4992.50 7986.96 87.02 5.00 419.27 3332.84
   08:13:40.194.27-Aug-2021 4992.50 7986.51 87.02 5.00 419.47 3332.84
   08:13:40.394.27-Aug-2021 4992.50 7986.70 87.02 5.00 419.67 3332.84
   08:13:40.594.27-Aug-2021 4992.50 7987.16 87.02 5.00 419.87 3332.84
   08:13:40.795.27-Aug-2021 4992.50 7988.35 87.02 5.00 420.07 3332.84
   08:13:40.995.27-Aug-2021 4992.50 7988.35 87.02 5.00 420.27 3332.84
   08:13:41.195.27-Aug-2021 4992.50 7988.40 87.02 5.00 420.47 3332.84
   08:13:41.395.27-Aug-2021 4992.50 7987.98 87.02 5.00 420.67 3332.84
   08:13:41.595.27-Aug-2021 4992.50 7987.83 87.02 5.00 420.87 3332.84
   08:13:41.795.27-Aug-2021 4992.50 7987.74 87.02 5.00 421.07 3332.84
   08:13:41.995.27-Aug-2021 4992.50 7987.74 87.02 5.00 421.27 3332.84
   08:13:42.195.27-Aug-2021 4992.50 7991.85 87.02 5.00 421.47 3332.84
   08:13:42.395.27-Aug-2021 4992.50 7988.22 87.02 5.00 421.67 3332.84
   08:13:42.595.27-Aug-2021 4992.50 7987.37 87.02 5.00 421.87 3332.84
   08:13:42.795.27-Aug-2021 4992.50 7987.35 87.02 5.00 422.07 3332.84
   08:13:42.995.27-Aug-2021 4992.50 7987.35 87.02 5.00 422.27 3332.84
   08:13:43.195.27-Aug-2021 4992.50 7991.39 87.02 5.00 422.47 3332.84
   08:13:43.395.27-Aug-2021 4992.50 7989.22 87.02 5.00 422.67 3332.84
   08:13:43.595.27-Aug-2021 4992.50 7986.76 87.02 5.00 422.87 3332.84
   08:13:43.795.27-Aug-2021 4992.50 7986.95 87.02 5.00 423.07 3332.84
   08:13:43.995.27-Aug-2021 4992.50 7986.95 87.02 5.00 423.27 3332.84
   08:13:44.195.27-Aug-2021 4992.50 7987.40 87.02 5.00 423.47 3332.84
   08:13:44.395.27-Aug-2021 4992.50 7988.07 87.02 5.00 423.67 3332.84
   08:13:44.595.27-Aug-2021 4992.50 7987.53 87.02 5.00 423.87 3332.84
   08:13:44.795.27-Aug-2021 4992.50 7987.24 87.02 5.00 424.07 3332.84
   08:13:44.995.27-Aug-2021 4992.50 7987.24 87.02 5.00 424.27 3332.84
   08:13:45.195.27-Aug-2021 4992.50 7988.23 87.02 5.00 424.47 3332.84
   08:13:45.395.27-Aug-2021 4992.50 7991.77 87.02 5.00 424.67 3332.84
   08:13:45.595.27-Aug-2021 4992.50 7989.10 87.01 5.00 424.87 3332.84
   08:13:45.795.27-Aug-2021 4992.50 7987.01 87.01 5.00 425.07 3332.84
   08:13:45.995.27-Aug-2021 4992.50 7987.01 87.01 5.00 425.27 3332.84
   08:13:46.195.27-Aug-2021 4992.50 7988.43 87.01 5.00 425.47 3332.84
   08:13:46.395.27-Aug-2021 4992.50 7988.66 87.01 5.00 425.67 3332.84
   08:13:46.595.27-Aug-2021 4992.50 7987.67 87.01 5.00 425.87 3332.84
   08:13:46.795.27-Aug-2021 4992.50 7987.32 87.01 5.00 426.07 3332.84
   08:13:46.996.27-Aug-2021 4992.50 7987.32 87.01 5.00 426.27 3332.84
   08:13:47.196.27-Aug-2021 4992.50 7987.77 87.01 5.00 426.47 3332.84
   08:13:47.396.27-Aug-2021 4992.50 7988.84 87.01 5.00 426.67 3332.84
   08:13:47.596.27-Aug-2021 4992.50 7988.78 87.01 5.00 426.87 3332.84
   08:13:47.796.27-Aug-2021 4992.50 7988.06 87.01 5.00 427.07 3332.84
   08:13:47.996.27-Aug-2021 4992.50 7988.06 87.01 5.00 427.27 3332.84
   08:13:48.196.27-Aug-2021 4992.50 7987.45 87.01 5.00 427.47 3332.84
   08:13:48.396.27-Aug-2021 4992.50 7987.54 87.01 5.00 427.67 3332.84
   08:13:48.596.27-Aug-2021 4992.50 7991.94 87.01 5.00 427.87 3332.84
   08:13:48.796.27-Aug-2021 4992.50 7988.21 87.01 5.00 428.07 3332.84
   08:13:48.996.27-Aug-2021 4992.50 7988.21 87.01 5.00 428.27 3332.84
   08:13:49.196.27-Aug-2021 4992.50 7986.88 87.01 5.00 428.47 3332.84
   08:13:49.396.27-Aug-2021 4992.50 7986.75 87.01 5.00 428.67 3332.84
   08:13:49.596.27-Aug-2021 4992.50 7986.79 87.01 5.00 428.87 3332.84
   08:13:49.796.27-Aug-2021 4992.50 7986.87 87.01 5.00 429.07 3332.84
   08:13:49.996.27-Aug-2021 4992.50 7986.87 87.01 5.00 429.27 3332.84
   08:13:50.196.27-Aug-2021 4992.50 7986.57 87.01 5.00 429.47 3332.84
   08:13:50.396.27-Aug-2021 4992.50 7986.92 87.01 5.00 429.67 3332.84
   08:13:50.596.27-Aug-2021 4992.50 7987.98 87.01 5.00 429.87 3332.84
