~Version Information
 VERS.                  2.0:   CWLS log ASCII Standard -VERSION 2.0
 WRAP.                   NO:   One line per depth step
~Well Information Block
#MNEM.UNIT     VALUE/NAME     DESCRIPTION
#---------     -----------    ---------------------------
 STRT.S             10:43:45 27-Aug-21: START TIME 10:43:45 27-Aug-21
 STOP.S             10:50:54 27-Aug-21: STOP TIME  10:50:54 27-Aug-21
 STEP.S                   0.00: STEP TIME
 NULL.                 -999.25: NULL VALUE
 DFWT.                        :  DIST FWL TEXT
 DFST.                        :  DIST FSL TEXT
 DMF .             Drill Floor:  DRILL MEAS FROM
 STIM.      20.00.00 17-Aug-21:  START TIME
 DATE.      19.00.00 29-Aug-21:  END TIME
 SPUD.               15-Aug-21:  SPUD DATE
 NREF.                    Grid:  NORTH REFERENCE
 HPTY.       Minimum Curvature:  HOLE POS TYPE
 DMOD.             Drill Model:  DRILL MOD DESC
 SVYD.                  Survey:  SURVEY DESC
 ILTD.               Lithology:  INTERP LTH DESC
 FTOP.          Formation Tops:  FORM TOPS DESC
 RIG .              East Azeri:  RIG NAME
 PDAT.          Mean Sea Level:  PERMANENT DATUM
 FLD .                     ACG:  FIELD NAME
 SON .        AZ-XX-0907180857:  JOB NUMBER
 CTRY.              Azerbaijan:  COUNTRY NAME
 WELL.                    D23x:  WELL NAME
 SRVC.     Turan Drilling and Engineering:  CONTRACTOR
 COMP.     BP Exploration (Caspian Sea) Ltd.:  COMPANY
 UWI .            /AZE00000214:  UNIQUE WELL IDENTIFIER
 API .            /AZE00000214:  API NUMBER
 MDS .        Operator Entered:  MAG DATA SOURCE
 BASE.              Azerbaijan:  LOGGING EQUIPMENT BASE LOCATION
 REGN.                   EESSA:  REGION
 PROV.                    Baku:  PROVINCE
 STAT.                    Baku:  STATE NAME
 MWDS.                    Baku:  MWD SHOP
 DOE .                     N/A:  DOE NUMBER
 DCON.         Sperry Drilling:  DIRECTNL CONTR
 UNIT.                     N/A:  LOGGING EQUIPMENT ID
 WTYP.                Deviated:  WELL TYPE
 CNTY.                        :  COUNTY
 LOC .                        :  LOCATION
 LMF .             Drill Floor:  LOG MEASURED FROM
 TVDS.m                  43.60:  TVDSS CORRECTN
 LATI.deg                40.02:  LATITUDE
 LONG.deg                51.45:  LONGITUDE
 WHNS.m                  -7.04:  WELL HEAD N/S
 WHEW.m                  -0.67:  WELL HEAD E/W
 UTMX.m              538762.90:  UTM X
 UTMY.m             4431871.34:  UTM Y
 DFWL.m                   0.00:  DISTANCE FWL
 DFSL.m                   0.00:  DISTANCE FSL
 SDEP.m                4127.00:  START DEPTH
 TDD .m                5084.50:  TOTAL DEPTH (DRILLER)
 VSDR.deg               140.47:  VERT SEC DIRECT
 GVFD.g                   1.00:  GRAVITY FIELD
 MFLD.nT              50362.00:  MAGNETIC FIELD
 MDIP.deg                59.48:  MAGNETIC DIP
 MDEC.deg                 6.47:  MAGNETIC DECL
 GRDC.deg                 0.31:  GRID CORRECTION
 AZTC.deg                 6.16:  AZM TOTAL CORR
 EPD .m                   0.00:  ELEVATION
 EGL .m                   0.00:  GROUND ELEVATION
 WDMS.m                 151.80:  WD ELEV
 APD .m                  43.60:  DEPTH ABOVE PD
 DEP .m                4092.57:  DEPTH
 AGAP.m                  43.60:  AIR GAP
 VSEW.m                  -0.67:  VERT SEC E/W
 VSNS.m                  -7.04:  VERT SEC N/S
 EKB .m                  43.60:  KB ELEVATION
 EDF .m                  43.60:  DF ELEVATION
 TDL .m                 957.50:  TOTAL DEPTH (LOGGER)
 VSC .                       0:  VS TO CLOSURE
 MAGU.                 1851413:  MAGUTM CHECKSUM
~Parameter Information Block
#MNEM.UNIT       Value        Description
#---------     -----------    ---------------------------
 AV  .mps                 1.50:  Ann Velocity 
 AVMX.mps                 2.00:  Max Ann Veloc 
 AZIF.deg               184.66:  Azm, Final 
 BHAT.        Rotary Steerable:  BHA Type 
 BREV.rev               300.00:  Rev Bit Total 
 BROT.°/30m              -0.50:  Build Rotating 
 BS  .in                  8.50:  Bit Size 
 BSZ .in                  8.50:  Bit Size 
 BTPL.psig              370.00:  Bit Press Loss 
 CABU.                      No:  Customer Abuse 
 CGEO.      Behruz Shahbaliyev:  Customer Geo 
 COMM.                     $K:  Run Comments 1 
 TCS .hr                140.08:  Time Ciculation Ended 
 CV  .mps                 3.00:  Crit Velocity 
 CVMX.mps                 3.20:  Max Crit Veloc 
 DD1 .            Musa Ahmadov:  Direct Drillr 1 
 DD2 .           Hamid Ahmadov:  Direct Drillr 2 
 DDSV.               Geo-Pilot:  DD Service 
 DEFF.%                  98.40:  % Det Eff 
 DLRX.°/30m               3.40:  Dogleg Rot Max 
 DLSO.°/30m               1.45:  Dogleg Oriented 
 DLSX.°/30m               3.40:  Dogleg Str Max 
 DRET.      18.40.00 29-Aug-21:  Drill End Time 
 DRST.      21.00.00 20-Aug-21:  Drill Start Tim 
 DTIM.hr                 69.47:  Time Drilling 
 EDEP.m                5084.50:  End Depth 
 ENG1.      Artemiy Matviyanov:  Engineer 1 
 ENG2.         Almaz Almadatov:  Engineer 2 
 ETIM.      18.40.00 29-Aug-21:  End Time 
 FLOI.gpm               500.00:  Flow In 
 FLON.gpm               400.00:  Flow In Min 
 FLOS.cptm                0.00:  Fluid Loss 
 FLOX.gpm               500.00:  Flow In Max 
 DFT .        Mineral Oil Base:  Mud Type 
 HFLO.                      No:  High Flow 
 HPRE.                      No:  High Pressure 
 HTEM.                      No:  High Temp 
 HYDO.m                   1.80:  Hydro Offset 
 IFIN.deg                25.62:  Inc, Final 
 IMAX.deg                48.69:  Inc Max 
 IMIN.deg                24.01:  Inc Min 
 IMND.m                4962.57:  Inc Min Depth 
 IMXD.m                4119.01:  Inc Max Depth 
 JARR.                      No:  Jarring 
 LETM.      18.40.00 29-Aug-21:  Log End Time 
 LOST.hr                     0:  Lost Rig Time 
 LSTM.      21.00.00 20-Aug-21:  Log Start Time 
 MDCL.ppm             41500.00:  Mud Chlorides 
 MDES.     Inversion Oil/Synthetic:  Mud Desc 
 DFD .sg                  1.56:  Mud Density 
 MDMN.sg                  1.56:  Dens Mud Min 
 MDMX.sg                  1.56:  Dens Mud Max 
 MOIL.                      70:  Run Mud Oil % 
 MOWR.                   70:30:  Run Mud OWR 
 MSND.                     0.2:  Run Mud Sand % 
 MSOL.                    23.3:  Run Mud Solids% 
 DFV .spqt               78.00:  Mud Viscosity 
 MWOD.in                  6.75:  MWD Tool OD 
 MWSI.                      No:  Serv Intrp, MWD 
 OTIM.hr                218.30:  Time Operating 
 PCON.           Look Like New:  Pad Condition 
 PMAX.psia            11015.30:  Press Op, Max 
 PV  .cP                 38.00:  Mud PV 
 RUN .                     300:  Run Number 
 ROPA.m/hr               15.00:  ROP Avg 
 ROPN.m/hr                9.00:  ROP Min 
 ROPX.m/hr               17.00:  ROP Max 
 RPMA.rpm               120.00:  RPM Surface Avg 
 RPMN.rpm                90.00:  RPM Surface Min 
 RPMX.rpm               140.00:  RPM Surface Max 
 RRUN.                     300:  Rig Run Number 
 RTIM.hr                 31.53:  Time Reaming 
 SAZI.deg               331.64:  Azm, Start 
 SDEP.m                4127.00:  Start Depth 
 SIDD.                      No:  Serv Intrp, DD 
 SINC.deg                48.43:  Inc, Start 
 SPPA.psig             5830.00:  SPP Avg 
 SPPN.psig             5600.00:  SPP Min 
 SPPX.psig             5900.00:  SPP Max 
 STIM.      21.00.00 20-Aug-21:  Start Time 
 SVCS.                 DD, MWD:  Services 
 SVER.                    9.20:  Sperry Version 
 TDAT.m                 957.50:  Tot Depth Attmp 
 TDDF.                      No:  Trip for DD 
 TDLG.m                 957.50:  Tot Depth Loggd 
 TFF .                      No:  Trip for Fail 
 TQAA.f-kp               15.00:  Torque Abs Avg 
 TQAN.f-kp               12.00:  Torque Abs Min 
 TQAX.f-kp               19.00:  Torque Abs Max 
 TRRT.°/30m              -3.40:  Turn Rotating 
 MRT .                  EWR-M5:  Maximum Recorded Temperature 
 TTMX.degC              100.00:  Max Tool Temp 
 VS01.                90639251:  Virtual Str1 SN 
 VS02.                90634715:  Virtual Str2 SN 
 VS03.                90652479:  Virtual Str3 SN 
 VS04.                90642262:  Virtual Str4 SN 
 WBMN.klb                 0.00:  WOB Min 
 WITN.           Murad Guliyev:  Customer Rep 
 WITN.          Yashar Gaziyev:  Customer Rep 2 
 WOBA.klb                 9.00:  WOB Avg 
 WOBX.klb                12.00:  WOB Max 
 YP  .lhf2               30.00:  Yield Point 
~Curve Information Block
#MNEM.UNIT                 API CODE     Curve Description
#---------               -----------    ---------------------------
 TIME.HHMMSS            00 000 000 000:  GT Time & Date
 GTDEPTH.m              00 000 000 000:  GT Depth
 GTPQH.psia             00 000 000 000:  GT HR Quartz Pressure
 GTTQ.degC              00 000 000 000:  GT Quartz Temperature
 GTTN.NONE              00 000 000 000:  GT Test Number
 GTET.sec               00 000 000 000:  GT Elapsed Test Time
 GTTVD.m                00 000 000 000:  GT True Vertical Depth
#Other Information
#
#WARRANTY: Halliburton will use its best efforts to furnish customers with 
#accurate information and interpretations that are part of, and incident to, the services 
#provided.  However, Halliburton cannot and does not warrant the accuracy 
#or correctness of such information and interpretations.  Under no circumstances should any 
#such information or interpretation be relied upon as the sole basis for any drilling, 
#completion, production, or financial decision or any procedure involving any risk to the 
#safety of any drilling venture, drilling rig or its crew or any other third party.  The 
#Customer has full responsibility for all drilling, completion and production operation.  
#Halliburton makes no representations or warranties, either expressed or 
#implied, including, but not limited to, the implied warranties of merchantability or fitness 
#for a particular purpose, with respect to the services rendered.  In no event will 
#Halliburton be liable for failure to obtain any particular results or for 
#any damages, including, but not limited to, indirect, special or consequential damages, 
#resulting from the use of any information or interpretation provided by Halliburton.
#
~A           TIME           GTDEPTH  GTPQH  GTTQ  GTTN  GTET   GTTVD  
# ...
   10:46:03.323.27-Aug-2021 4957.82 5167.91 85.93 9.00 137.84 3301.29
   10:46:03.522.27-Aug-2021 4957.82 5167.91 85.93 9.00 138.04 3301.29
   10:46:03.722.27-Aug-2021 4957.82 5167.92 85.93 9.00 138.23 3301.29
   10:46:03.922.27-Aug-2021 4957.82 5167.92 85.93 9.00 138.43 3301.29
   10:46:04.122.27-Aug-2021 4957.82 5167.93 85.93 9.00 138.63 3301.29
   10:46:04.322.27-Aug-2021 4957.82 5167.91 85.93 9.00 138.83 3301.29
   10:46:04.521.27-Aug-2021 4957.82 5167.91 85.93 9.00 139.03 3301.29
   10:46:04.721.27-Aug-2021 4957.82 5167.91 85.93 9.00 139.23 3301.29
   10:46:04.921.27-Aug-2021 4957.82 5167.87 85.93 9.00 139.43 3301.29
   10:46:05.121.27-Aug-2021 4957.82 5167.89 85.93 9.00 139.63 3301.29
   10:46:05.320.27-Aug-2021 4957.82 5167.90 85.93 9.00 139.83 3301.29
   10:46:05.520.27-Aug-2021 4957.82 5167.90 85.93 9.00 140.03 3301.29
   10:46:05.720.27-Aug-2021 4957.82 5167.92 85.93 9.00 140.23 3301.29
   10:46:05.920.27-Aug-2021 4957.82 5167.84 85.93 9.00 140.43 3301.29
   10:46:06.119.27-Aug-2021 4957.82 5167.88 85.93 9.00 140.63 3301.29
   10:46:06.319.27-Aug-2021 4957.82 5167.95 85.93 9.00 140.83 3301.29
   10:46:06.519.27-Aug-2021 4957.82 5167.95 85.93 9.00 141.03 3301.29
   10:46:06.719.27-Aug-2021 4957.82 5167.84 85.93 9.00 141.23 3301.29
   10:46:06.918.27-Aug-2021 4957.82 5167.85 85.93 9.00 141.43 3301.29
   10:46:07.118.27-Aug-2021 4957.82 5167.94 85.93 9.00 141.63 3301.29
   10:46:07.318.27-Aug-2021 4957.82 5167.90 85.93 9.00 141.83 3301.29
   10:46:07.518.27-Aug-2021 4957.82 5167.90 85.93 9.00 142.03 3301.29
   10:46:07.717.27-Aug-2021 4957.82 5167.85 85.93 9.00 142.23 3301.29
   10:46:07.917.27-Aug-2021 4957.82 5167.88 85.93 9.00 142.43 3301.29
   10:46:08.117.27-Aug-2021 4957.82 5167.86 85.93 9.00 142.63 3301.29
   10:46:08.317.27-Aug-2021 4957.82 5167.87 85.93 9.00 142.83 3301.29
   10:46:08.516.27-Aug-2021 4957.82 5167.87 85.93 9.00 143.03 3301.29
   10:46:08.716.27-Aug-2021 4957.82 5167.89 85.93 9.00 143.23 3301.29
   10:46:08.916.27-Aug-2021 4957.82 5167.90 85.93 9.00 143.43 3301.29
   10:46:09.116.27-Aug-2021 4957.82 5167.91 85.93 9.00 143.63 3301.29
   10:46:09.316.27-Aug-2021 4957.82 5167.91 85.93 9.00 143.83 3301.29
   10:46:09.515.27-Aug-2021 4957.82 5167.91 85.93 9.00 144.03 3301.29
   10:46:09.715.27-Aug-2021 4957.82 5167.92 85.93 9.00 144.23 3301.29
   10:46:09.915.27-Aug-2021 4957.82 5167.91 85.93 9.00 144.43 3301.29
   10:46:10.115.27-Aug-2021 4957.82 5167.95 85.93 9.00 144.63 3301.29
   10:46:10.314.27-Aug-2021 4957.82 5167.92 85.93 9.00 144.83 3301.29
   10:46:10.514.27-Aug-2021 4957.82 5167.92 85.93 9.00 145.03 3301.29
   10:46:10.714.27-Aug-2021 4957.82 5167.89 85.93 9.00 145.23 3301.29
   10:46:10.914.27-Aug-2021 4957.82 5167.88 85.93 9.00 145.43 3301.29
   10:46:11.113.27-Aug-2021 4957.82 5167.90 85.93 9.00 145.63 3301.29
   10:46:11.313.27-Aug-2021 4957.82 5167.90 85.93 9.00 145.83 3301.29
   10:46:11.513.27-Aug-2021 4957.82 5167.90 85.93 9.00 146.03 3301.29
   10:46:11.713.27-Aug-2021 4957.82 5167.90 85.93 9.00 146.23 3301.29
   10:46:11.912.27-Aug-2021 4957.82 5167.91 85.93 9.00 146.43 3301.29
   10:46:12.112.27-Aug-2021 4957.82 5167.93 85.93 9.00 146.62 3301.29
   10:46:12.312.27-Aug-2021 4957.82 5167.93 85.93 9.00 146.82 3301.29
   10:46:12.512.27-Aug-2021 4957.82 5167.93 85.93 9.00 147.02 3301.29
   10:46:12.711.27-Aug-2021 4957.82 5167.94 85.93 9.00 147.22 3301.29
   10:46:12.911.27-Aug-2021 4957.82 5167.94 85.93 9.00 147.42 3301.29
   10:46:13.111.27-Aug-2021 4957.82 5167.94 85.93 9.00 147.62 3301.29
   10:46:13.311.27-Aug-2021 4957.82 5167.94 85.93 9.00 147.82 3301.29
   10:46:13.511.27-Aug-2021 4957.82 5167.94 85.93 9.00 148.02 3301.29
   10:46:13.710.27-Aug-2021 4957.82 5167.95 85.93 9.00 148.22 3301.29
   10:46:13.910.27-Aug-2021 4957.82 5167.95 85.93 9.00 148.42 3301.29
   10:46:14.110.27-Aug-2021 4957.82 5167.89 85.93 9.00 148.62 3301.29
   10:46:14.310.27-Aug-2021 4957.82 5167.91 85.93 9.00 148.82 3301.29
   10:46:14.509.27-Aug-2021 4957.82 5167.91 85.93 9.00 149.02 3301.29
   10:46:14.709.27-Aug-2021 4957.82 5168.00 85.93 9.00 149.22 3301.29
   10:46:14.909.27-Aug-2021 4957.82 5167.91 85.93 9.00 149.42 3301.29
   10:46:15.109.27-Aug-2021 4957.82 5167.88 85.93 9.00 149.62 3301.29
   10:46:15.308.27-Aug-2021 4957.82 5167.90 85.93 9.00 149.82 3301.29
   10:46:15.508.27-Aug-2021 4957.82 5167.90 85.93 9.00 150.02 3301.29
   10:46:15.708.27-Aug-2021 4957.82 5167.94 85.93 9.00 150.22 3301.29
   10:46:15.908.27-Aug-2021 4957.82 5167.89 85.93 9.00 150.42 3301.29
   10:46:16.107.27-Aug-2021 4957.82 5167.88 85.93 9.00 150.62 3301.29
   10:46:16.307.27-Aug-2021 4957.82 5167.97 85.93 9.00 150.82 3301.29
   10:46:16.507.27-Aug-2021 4957.82 5167.97 85.93 9.00 151.02 3301.29
   10:46:16.707.27-Aug-2021 4957.82 5167.90 85.93 9.00 151.22 3301.29
   10:46:16.906.27-Aug-2021 4957.82 5167.90 85.93 9.00 151.42 3301.29
   10:46:17.106.27-Aug-2021 4957.82 5167.91 85.93 9.00 151.62 3301.29
   10:46:17.306.27-Aug-2021 4957.82 5167.90 85.93 9.00 151.82 3301.29
   10:46:17.506.27-Aug-2021 4957.82 5167.90 85.93 9.00 152.02 3301.29
   10:46:17.706.27-Aug-2021 4957.82 5167.90 85.93 9.00 152.22 3301.29
   10:46:17.905.27-Aug-2021 4957.82 5167.93 85.93 9.00 152.42 3301.29
   10:46:18.105.27-Aug-2021 4957.82 5167.94 85.93 9.00 152.62 3301.29
   10:46:18.305.27-Aug-2021 4957.82 5167.94 85.93 9.00 152.82 3301.29
   10:46:18.505.27-Aug-2021 4957.82 5167.94 85.93 9.00 153.02 3301.29
   10:46:18.704.27-Aug-2021 4957.82 5167.94 85.93 9.00 153.22 3301.29
   10:46:18.904.27-Aug-2021 4957.82 5167.93 85.93 9.00 153.42 3301.29
   10:46:19.104.27-Aug-2021 4957.82 5167.95 85.93 9.00 153.62 3301.29
   10:46:19.304.27-Aug-2021 4957.82 5168.01 85.93 9.00 153.82 3301.29
   10:46:19.503.27-Aug-2021 4957.82 5168.01 85.93 9.00 154.02 3301.29
   10:46:19.703.27-Aug-2021 4957.82 5167.96 85.93 9.00 154.22 3301.29
   10:46:19.903.27-Aug-2021 4957.82 5167.91 85.93 9.00 154.42 3301.29
   10:46:20.103.27-Aug-2021 4957.82 5167.91 85.93 9.00 154.62 3301.29
   10:46:20.302.27-Aug-2021 4957.82 5167.93 85.93 9.00 154.82 3301.29
   10:46:20.502.27-Aug-2021 4957.82 5167.93 85.93 9.00 155.01 3301.29
   10:46:20.702.27-Aug-2021 4957.82 5167.92 85.93 9.00 155.21 3301.29
   10:46:20.902.27-Aug-2021 4957.82 5167.93 85.93 9.00 155.41 3301.29
   10:46:21.101.27-Aug-2021 4957.82 5167.94 85.93 9.00 155.61 3301.29
   10:46:21.301.27-Aug-2021 4957.82 5167.96 85.93 9.00 155.81 3301.29
   10:46:21.501.27-Aug-2021 4957.82 5167.96 85.93 9.00 156.01 3301.29
   10:46:21.701.27-Aug-2021 4957.82 5167.95 85.93 9.00 156.21 3301.29
   10:46:21.901.27-Aug-2021 4957.82 5167.95 85.93 9.00 156.41 3301.29
   10:46:22.100.27-Aug-2021 4957.82 5167.95 85.93 9.00 156.61 3301.29
   10:46:22.300.27-Aug-2021 4957.82 5167.96 85.93 9.00 156.81 3301.29
   10:46:22.500.27-Aug-2021 4957.82 5167.96 85.93 9.00 157.01 3301.29
   10:46:22.700.27-Aug-2021 4957.82 5168.05 85.93 9.00 157.21 3301.29
   10:46:22.899.27-Aug-2021 4957.82 5167.97 85.93 9.00 157.41 3301.29
   10:46:23.099.27-Aug-2021 4957.82 5167.92 85.93 9.00 157.61 3301.29
   10:46:23.299.27-Aug-2021 4957.82 5167.93 85.93 9.00 157.81 3301.29
   10:46:23.499.27-Aug-2021 4957.82 5167.93 85.93 9.00 158.01 3301.29
   10:46:23.698.27-Aug-2021 4957.82 5167.97 85.93 9.00 158.21 3301.29
   10:46:23.898.27-Aug-2021 4957.82 5167.97 85.93 9.00 158.41 3301.29
   10:46:24.098.27-Aug-2021 4957.82 5167.96 85.93 9.00 158.61 3301.29
   10:46:24.298.27-Aug-2021 4957.82 5167.94 85.93 9.00 158.81 3301.29
   10:46:24.497.27-Aug-2021 4957.82 5167.94 85.93 9.00 159.01 3301.29
   10:46:24.697.27-Aug-2021 4957.82 5155.66 85.93 9.00 159.21 3301.29
   10:46:24.897.27-Aug-2021 4957.82 5111.26 85.93 9.00 159.41 3301.29
   10:46:25.097.27-Aug-2021 4957.82 5103.41 85.93 9.00 159.61 3301.29
   10:46:25.296.27-Aug-2021 4957.82 5100.94 85.93 9.00 159.81 3301.29
   10:46:25.496.27-Aug-2021 4957.82 5100.94 85.93 9.00 160.01 3301.29
   10:46:25.696.27-Aug-2021 4957.82 5100.07 85.93 9.00 160.21 3301.29
   10:46:25.896.27-Aug-2021 4957.82 5098.69 85.93 9.00 160.41 3301.29
   10:46:26.096.27-Aug-2021 4957.82 5097.99 85.93 9.00 160.61 3301.29
