~Version Information
 VERS.                  2.0:   CWLS log ASCII Standard -VERSION 2.0
 WRAP.                   NO:   One line per depth step
~Well Information Block
#MNEM.UNIT     VALUE/NAME     DESCRIPTION
#---------     -----------    ---------------------------
 STRT.S             16:56:36 27-Aug-21: START TIME 16:56:36 27-Aug-21
 STOP.S             17:03:52 27-Aug-21: STOP TIME  17:03:52 27-Aug-21
 STEP.S                   0.00: STEP TIME
 NULL.                 -999.25: NULL VALUE
 DFWT.                        :  DIST FWL TEXT
 DFST.                        :  DIST FSL TEXT
 DMF .             Drill Floor:  DRILL MEAS FROM
 STIM.      20.00.00 17-Aug-21:  START TIME
 DATE.      19.00.00 29-Aug-21:  END TIME
 SPUD.               15-Aug-21:  SPUD DATE
 NREF.                    Grid:  NORTH REFERENCE
 HPTY.       Minimum Curvature:  HOLE POS TYPE
 DMOD.             Drill Model:  DRILL MOD DESC
 SVYD.                  Survey:  SURVEY DESC
 ILTD.               Lithology:  INTERP LTH DESC
 FTOP.          Formation Tops:  FORM TOPS DESC
 RIG .              East Azeri:  RIG NAME
 PDAT.          Mean Sea Level:  PERMANENT DATUM
 FLD .                     ACG:  FIELD NAME
 SON .        AZ-XX-0907180857:  JOB NUMBER
 CTRY.              Azerbaijan:  COUNTRY NAME
 WELL.                    D23x:  WELL NAME
 SRVC.     Turan Drilling and Engineering:  CONTRACTOR
 COMP.     BP Exploration (Caspian Sea) Ltd.:  COMPANY
 UWI .            /AZE00000214:  UNIQUE WELL IDENTIFIER
 API .            /AZE00000214:  API NUMBER
 MDS .        Operator Entered:  MAG DATA SOURCE
 BASE.              Azerbaijan:  LOGGING EQUIPMENT BASE LOCATION
 REGN.                   EESSA:  REGION
 PROV.                    Baku:  PROVINCE
 STAT.                    Baku:  STATE NAME
 MWDS.                    Baku:  MWD SHOP
 DOE .                     N/A:  DOE NUMBER
 DCON.         Sperry Drilling:  DIRECTNL CONTR
 UNIT.                     N/A:  LOGGING EQUIPMENT ID
 WTYP.                Deviated:  WELL TYPE
 CNTY.                        :  COUNTY
 LOC .                        :  LOCATION
 LMF .             Drill Floor:  LOG MEASURED FROM
 TVDS.m                  43.60:  TVDSS CORRECTN
 LATI.deg                40.02:  LATITUDE
 LONG.deg                51.45:  LONGITUDE
 WHNS.m                  -7.04:  WELL HEAD N/S
 WHEW.m                  -0.67:  WELL HEAD E/W
 UTMX.m              538762.90:  UTM X
 UTMY.m             4431871.34:  UTM Y
 DFWL.m                   0.00:  DISTANCE FWL
 DFSL.m                   0.00:  DISTANCE FSL
 SDEP.m                4127.00:  START DEPTH
 TDD .m                5084.50:  TOTAL DEPTH (DRILLER)
 VSDR.deg               140.47:  VERT SEC DIRECT
 GVFD.g                   1.00:  GRAVITY FIELD
 MFLD.nT              50362.00:  MAGNETIC FIELD
 MDIP.deg                59.48:  MAGNETIC DIP
 MDEC.deg                 6.47:  MAGNETIC DECL
 GRDC.deg                 0.31:  GRID CORRECTION
 AZTC.deg                 6.16:  AZM TOTAL CORR
 EPD .m                   0.00:  ELEVATION
 EGL .m                   0.00:  GROUND ELEVATION
 WDMS.m                 151.80:  WD ELEV
 APD .m                  43.60:  DEPTH ABOVE PD
 DEP .m                4092.57:  DEPTH
 AGAP.m                  43.60:  AIR GAP
 VSEW.m                  -0.67:  VERT SEC E/W
 VSNS.m                  -7.04:  VERT SEC N/S
 EKB .m                  43.60:  KB ELEVATION
 EDF .m                  43.60:  DF ELEVATION
 TDL .m                 957.50:  TOTAL DEPTH (LOGGER)
 VSC .                       0:  VS TO CLOSURE
 MAGU.                 1851413:  MAGUTM CHECKSUM
~Parameter Information Block
#MNEM.UNIT       Value        Description
#---------     -----------    ---------------------------
 AV  .mps                 1.50:  Ann Velocity 
 AVMX.mps                 2.00:  Max Ann Veloc 
 AZIF.deg               184.66:  Azm, Final 
 BHAT.        Rotary Steerable:  BHA Type 
 BREV.rev               300.00:  Rev Bit Total 
 BROT.°/30m              -0.50:  Build Rotating 
 BS  .in                  8.50:  Bit Size 
 BSZ .in                  8.50:  Bit Size 
 BTPL.psig              370.00:  Bit Press Loss 
 CABU.                      No:  Customer Abuse 
 CGEO.      Behruz Shahbaliyev:  Customer Geo 
 COMM.                     T
k:  Run Comments 1 
 TCS .hr                140.08:  Time Ciculation Ended 
 CV  .mps                 3.00:  Crit Velocity 
 CVMX.mps                 3.20:  Max Crit Veloc 
 DD1 .            Musa Ahmadov:  Direct Drillr 1 
 DD2 .           Hamid Ahmadov:  Direct Drillr 2 
 DDSV.               Geo-Pilot:  DD Service 
 DEFF.%                  98.40:  % Det Eff 
 DLRX.°/30m               3.40:  Dogleg Rot Max 
 DLSO.°/30m               1.45:  Dogleg Oriented 
 DLSX.°/30m               3.40:  Dogleg Str Max 
 DRET.      18.40.00 29-Aug-21:  Drill End Time 
 DRST.      21.00.00 20-Aug-21:  Drill Start Tim 
 DTIM.hr                 69.47:  Time Drilling 
 EDEP.m                5084.50:  End Depth 
 ENG1.      Artemiy Matviyanov:  Engineer 1 
 ENG2.         Almaz Almadatov:  Engineer 2 
 ETIM.      18.40.00 29-Aug-21:  End Time 
 FLOI.gpm               500.00:  Flow In 
 FLON.gpm               400.00:  Flow In Min 
 FLOS.cptm                0.00:  Fluid Loss 
 FLOX.gpm               500.00:  Flow In Max 
 DFT .        Mineral Oil Base:  Mud Type 
 HFLO.                      No:  High Flow 
 HPRE.                      No:  High Pressure 
 HTEM.                      No:  High Temp 
 HYDO.m                   1.80:  Hydro Offset 
 IFIN.deg                25.62:  Inc, Final 
 IMAX.deg                48.69:  Inc Max 
 IMIN.deg                24.01:  Inc Min 
 IMND.m                4962.57:  Inc Min Depth 
 IMXD.m                4119.01:  Inc Max Depth 
 JARR.                      No:  Jarring 
 LETM.      18.40.00 29-Aug-21:  Log End Time 
 LOST.hr                     0:  Lost Rig Time 
 LSTM.      21.00.00 20-Aug-21:  Log Start Time 
 MDCL.ppm             41500.00:  Mud Chlorides 
 MDES.     Inversion Oil/Synthetic:  Mud Desc 
 DFD .sg                  1.56:  Mud Density 
 MDMN.sg                  1.56:  Dens Mud Min 
 MDMX.sg                  1.56:  Dens Mud Max 
 MOIL.                      70:  Run Mud Oil % 
 MOWR.                   70:30:  Run Mud OWR 
 MSND.                     0.2:  Run Mud Sand % 
 MSOL.                    23.3:  Run Mud Solids% 
 DFV .spqt               78.00:  Mud Viscosity 
 MWOD.in                  6.75:  MWD Tool OD 
 MWSI.                      No:  Serv Intrp, MWD 
 OTIM.hr                218.30:  Time Operating 
 PCON.           Look Like New:  Pad Condition 
 PMAX.psia            11015.30:  Press Op, Max 
 PV  .cP                 38.00:  Mud PV 
 RUN .                     300:  Run Number 
 ROPA.m/hr               15.00:  ROP Avg 
 ROPN.m/hr                9.00:  ROP Min 
 ROPX.m/hr               17.00:  ROP Max 
 RPMA.rpm               120.00:  RPM Surface Avg 
 RPMN.rpm                90.00:  RPM Surface Min 
 RPMX.rpm               140.00:  RPM Surface Max 
 RRUN.                     300:  Rig Run Number 
 RTIM.hr                 31.53:  Time Reaming 
 SAZI.deg               331.64:  Azm, Start 
 SDEP.m                4127.00:  Start Depth 
 SIDD.                      No:  Serv Intrp, DD 
 SINC.deg                48.43:  Inc, Start 
 SPPA.psig             5830.00:  SPP Avg 
 SPPN.psig             5600.00:  SPP Min 
 SPPX.psig             5900.00:  SPP Max 
 STIM.      21.00.00 20-Aug-21:  Start Time 
 SVCS.                 DD, MWD:  Services 
 SVER.                    9.20:  Sperry Version 
 TDAT.m                 957.50:  Tot Depth Attmp 
 TDDF.                      No:  Trip for DD 
 TDLG.m                 957.50:  Tot Depth Loggd 
 TFF .                      No:  Trip for Fail 
 TQAA.f-kp               15.00:  Torque Abs Avg 
 TQAN.f-kp               12.00:  Torque Abs Min 
 TQAX.f-kp               19.00:  Torque Abs Max 
 TRRT.°/30m              -3.40:  Turn Rotating 
 MRT .                  EWR-M5:  Maximum Recorded Temperature 
 TTMX.degC              100.00:  Max Tool Temp 
 VS01.                90639251:  Virtual Str1 SN 
 VS02.                90634715:  Virtual Str2 SN 
 VS03.                90652479:  Virtual Str3 SN 
 VS04.                90642262:  Virtual Str4 SN 
 WBMN.klb                 0.00:  WOB Min 
 WITN.           Murad Guliyev:  Customer Rep 
 WITN.          Yashar Gaziyev:  Customer Rep 2 
 WOBA.klb                 9.00:  WOB Avg 
 WOBX.klb                12.00:  WOB Max 
 YP  .lhf2               30.00:  Yield Point 
~Curve Information Block
#MNEM.UNIT                 API CODE     Curve Description
#---------               -----------    ---------------------------
 TIME.HHMMSS            00 000 000 000:  GT Time & Date
 GTDEPTH.m              00 000 000 000:  GT Depth
 GTPQH.psia             00 000 000 000:  GT HR Quartz Pressure
 GTTQ.degC              00 000 000 000:  GT Quartz Temperature
 GTTN.NONE              00 000 000 000:  GT Test Number
 GTET.sec               00 000 000 000:  GT Elapsed Test Time
 GTTVD.m                00 000 000 000:  GT True Vertical Depth
#Other Information
#
#WARRANTY: Halliburton will use its best efforts to furnish customers with 
#accurate information and interpretations that are part of, and incident to, the services 
#provided.  However, Halliburton cannot and does not warrant the accuracy 
#or correctness of such information and interpretations.  Under no circumstances should any 
#such information or interpretation be relied upon as the sole basis for any drilling, 
#completion, production, or financial decision or any procedure involving any risk to the 
#safety of any drilling venture, drilling rig or its crew or any other third party.  The 
#Customer has full responsibility for all drilling, completion and production operation.  
#Halliburton makes no representations or warranties, either expressed or 
#implied, including, but not limited to, the implied warranties of merchantability or fitness 
#for a particular purpose, with respect to the services rendered.  In no event will 
#Halliburton be liable for failure to obtain any particular results or for 
#any damages, including, but not limited to, indirect, special or consequential damages, 
#resulting from the use of any information or interpretation provided by Halliburton.
#
~A           TIME           GTDEPTH  GTPQH  GTTQ  GTTN   GTET   GTTVD  
# ...
   17:01:07.098.27-Aug-2021 4788.50 7534.89 83.15 18.00 270.93 3147.67
   17:01:07.298.27-Aug-2021 4788.50 7534.10 83.15 18.00 271.13 3147.67
   17:01:07.498.27-Aug-2021 4788.50 7535.27 83.15 18.00 271.33 3147.67
   17:01:07.697.27-Aug-2021 4788.50 7535.69 83.15 18.00 271.53 3147.67
   17:01:07.897.27-Aug-2021 4788.50 7534.03 83.15 18.00 271.73 3147.67
   17:01:08.097.27-Aug-2021 4788.50 7534.03 83.15 18.00 271.93 3147.67
   17:01:08.297.27-Aug-2021 4788.50 7530.08 83.15 18.00 272.13 3147.67
   17:01:08.497.27-Aug-2021 4788.50 7530.36 83.15 18.00 272.33 3147.67
   17:01:08.696.27-Aug-2021 4788.50 7531.23 83.15 18.00 272.53 3147.67
   17:01:08.896.27-Aug-2021 4788.50 7530.66 83.15 18.00 272.73 3147.67
   17:01:09.096.27-Aug-2021 4788.50 7530.66 83.15 18.00 272.93 3147.67
   17:01:09.296.27-Aug-2021 4788.50 7531.10 83.15 18.00 273.13 3147.67
   17:01:09.496.27-Aug-2021 4788.50 7530.58 83.15 18.00 273.33 3147.67
   17:01:09.695.27-Aug-2021 4788.50 7526.69 83.15 18.00 273.53 3147.67
   17:01:09.895.27-Aug-2021 4788.50 7502.78 83.15 18.00 273.73 3147.67
   17:01:10.095.27-Aug-2021 4788.50 7502.78 83.15 18.00 273.93 3147.67
   17:01:10.295.27-Aug-2021 4788.50 7534.01 83.15 18.00 274.13 3147.67
   17:01:10.495.27-Aug-2021 4788.50 7529.72 83.15 18.00 274.33 3147.67
   17:01:10.694.27-Aug-2021 4788.50 7529.28 83.15 18.00 274.53 3147.67
   17:01:10.894.27-Aug-2021 4788.50 7529.30 83.15 18.00 274.73 3147.67
   17:01:11.094.27-Aug-2021 4788.50 7529.30 83.15 18.00 274.93 3147.67
   17:01:11.294.27-Aug-2021 4788.50 7531.45 83.15 18.00 275.13 3147.67
   17:01:11.494.27-Aug-2021 4788.50 7530.79 83.15 18.00 275.33 3147.67
   17:01:11.693.27-Aug-2021 4788.50 7531.23 83.15 18.00 275.52 3147.67
   17:01:11.893.27-Aug-2021 4788.50 7531.91 83.15 18.00 275.72 3147.67
   17:01:12.093.27-Aug-2021 4788.50 7531.91 83.15 18.00 275.92 3147.67
   17:01:12.293.27-Aug-2021 4788.50 7531.76 83.15 18.00 276.12 3147.67
   17:01:12.493.27-Aug-2021 4788.50 7531.91 83.15 18.00 276.32 3147.67
   17:01:12.692.27-Aug-2021 4788.50 7531.71 83.15 18.00 276.52 3147.67
   17:01:12.892.27-Aug-2021 4788.50 7531.74 83.15 18.00 276.72 3147.67
   17:01:13.092.27-Aug-2021 4788.50 7531.74 83.15 18.00 276.92 3147.67
   17:01:13.292.27-Aug-2021 4788.50 7531.48 83.15 18.00 277.12 3147.67
   17:01:13.492.27-Aug-2021 4788.50 7531.25 83.15 18.00 277.32 3147.67
   17:01:13.691.27-Aug-2021 4788.50 7536.73 83.15 18.00 277.52 3147.67
   17:01:13.891.27-Aug-2021 4788.50 7528.89 83.15 18.00 277.72 3147.67
   17:01:14.091.27-Aug-2021 4788.50 7528.89 83.15 18.00 277.92 3147.67
   17:01:14.291.27-Aug-2021 4788.50 7532.37 83.15 18.00 278.12 3147.67
   17:01:14.491.27-Aug-2021 4788.50 7530.99 83.15 18.00 278.32 3147.67
   17:01:14.691.27-Aug-2021 4788.50 7536.46 83.15 18.00 278.52 3147.67
   17:01:14.890.27-Aug-2021 4788.50 7526.89 83.15 18.00 278.72 3147.67
   17:01:15.090.27-Aug-2021 4788.50 7526.89 83.15 18.00 278.92 3147.67
   17:01:15.290.27-Aug-2021 4788.50 7532.83 83.15 18.00 279.12 3147.67
   17:01:15.490.27-Aug-2021 4788.50 7530.94 83.15 18.00 279.32 3147.67
   17:01:15.690.27-Aug-2021 4788.50 7531.51 83.15 18.00 279.52 3147.67
   17:01:15.889.27-Aug-2021 4788.50 7535.49 83.15 18.00 279.72 3147.67
   17:01:16.089.27-Aug-2021 4788.50 7535.49 83.15 18.00 279.92 3147.67
   17:01:16.289.27-Aug-2021 4788.50 7531.98 83.15 18.00 280.12 3147.67
   17:01:16.489.27-Aug-2021 4788.50 7532.41 83.15 18.00 280.32 3147.67
   17:01:16.689.27-Aug-2021 4788.50 7531.75 83.15 18.00 280.52 3147.67
   17:01:16.888.27-Aug-2021 4788.50 7531.55 83.15 18.00 280.72 3147.67
   17:01:17.088.27-Aug-2021 4788.50 7531.55 83.15 18.00 280.92 3147.67
   17:01:17.288.27-Aug-2021 4788.50 7535.82 83.15 18.00 281.12 3147.67
   17:01:17.488.27-Aug-2021 4788.50 7530.54 83.15 18.00 281.32 3147.67
   17:01:17.688.27-Aug-2021 4788.50 7531.31 83.15 18.00 281.52 3147.67
   17:01:17.887.27-Aug-2021 4788.50 7532.34 83.15 18.00 281.72 3147.67
   17:01:18.087.27-Aug-2021 4788.50 7532.34 83.15 18.00 281.92 3147.67
   17:01:18.287.27-Aug-2021 4788.50 7534.57 83.15 18.00 282.12 3147.67
   17:01:18.487.27-Aug-2021 4788.50 7534.48 83.15 18.00 282.32 3147.67
   17:01:18.687.27-Aug-2021 4788.50 7534.69 83.15 18.00 282.52 3147.67
   17:01:18.886.27-Aug-2021 4788.50 7535.00 83.15 18.00 282.72 3147.67
   17:01:19.086.27-Aug-2021 4788.50 7535.00 83.15 18.00 282.92 3147.67
   17:01:19.286.27-Aug-2021 4788.50 7534.95 83.15 18.00 283.12 3147.67
   17:01:19.486.27-Aug-2021 4788.50 7535.21 83.15 18.00 283.32 3147.67
   17:01:19.686.27-Aug-2021 4788.50 7535.22 83.15 18.00 283.52 3147.67
   17:01:19.885.27-Aug-2021 4788.50 7535.01 83.15 18.00 283.72 3147.67
   17:01:20.085.27-Aug-2021 4788.50 7535.01 83.15 18.00 283.92 3147.67
   17:01:20.285.27-Aug-2021 4788.50 7534.92 83.15 18.00 284.12 3147.67
   17:01:20.485.27-Aug-2021 4788.50 7539.15 83.15 18.00 284.32 3147.67
   17:01:20.685.27-Aug-2021 4788.50 7533.55 83.15 18.00 284.52 3147.67
   17:01:20.884.27-Aug-2021 4788.50 7534.66 83.15 18.00 284.72 3147.67
   17:01:21.084.27-Aug-2021 4788.50 7534.66 83.15 18.00 284.92 3147.67
   17:01:21.284.27-Aug-2021 4788.50 7535.67 83.15 18.00 285.12 3147.67
   17:01:21.484.27-Aug-2021 4788.50 7534.55 83.15 18.00 285.32 3147.67
   17:01:21.684.27-Aug-2021 4788.50 7534.61 83.15 18.00 285.51 3147.67
   17:01:21.883.27-Aug-2021 4788.50 7534.68 83.15 18.00 285.71 3147.67
   17:01:22.083.27-Aug-2021 4788.50 7534.68 83.15 18.00 285.91 3147.67
   17:01:22.283.27-Aug-2021 4788.50 7535.15 83.15 18.00 286.11 3147.67
   17:01:22.483.27-Aug-2021 4788.50 7535.10 83.15 18.00 286.31 3147.67
   17:01:22.683.27-Aug-2021 4788.50 7535.42 83.15 18.00 286.51 3147.67
   17:01:22.882.27-Aug-2021 4788.50 7535.40 83.15 18.00 286.71 3147.67
   17:01:23.082.27-Aug-2021 4788.50 7535.40 83.15 18.00 286.91 3147.67
   17:01:23.282.27-Aug-2021 4788.50 7535.26 83.15 18.00 287.11 3147.67
   17:01:23.482.27-Aug-2021 4788.50 7535.14 83.15 18.00 287.31 3147.67
   17:01:23.682.27-Aug-2021 4788.50 7534.96 83.15 18.00 287.51 3147.67
   17:01:23.881.27-Aug-2021 4788.50 7535.66 83.15 18.00 287.71 3147.67
   17:01:24.081.27-Aug-2021 4788.50 7535.66 83.15 18.00 287.91 3147.67
   17:01:24.281.27-Aug-2021 4788.50 7534.41 83.15 18.00 288.11 3147.67
   17:01:24.481.27-Aug-2021 4788.50 7534.94 83.15 18.00 288.31 3147.67
   17:01:24.681.27-Aug-2021 4788.50 7535.43 83.15 18.00 288.51 3147.67
   17:01:24.880.27-Aug-2021 4788.50 7535.01 83.15 18.00 288.71 3147.67
   17:01:25.080.27-Aug-2021 4788.50 7535.01 83.15 18.00 288.91 3147.67
   17:01:25.280.27-Aug-2021 4788.50 7533.90 83.15 18.00 289.11 3147.67
   17:01:25.480.27-Aug-2021 4788.50 7534.87 83.15 18.00 289.31 3147.67
   17:01:25.680.27-Aug-2021 4788.50 7535.74 83.15 18.00 289.51 3147.67
   17:01:25.879.27-Aug-2021 4788.50 7534.18 83.15 18.00 289.71 3147.67
   17:01:26.079.27-Aug-2021 4788.50 7534.18 83.15 18.00 289.91 3147.67
   17:01:26.279.27-Aug-2021 4788.50 7540.60 83.15 18.00 290.11 3147.67
   17:01:26.479.27-Aug-2021 4788.50 7534.92 83.15 18.00 290.31 3147.67
   17:01:26.679.27-Aug-2021 4788.50 7536.20 83.15 18.00 290.51 3147.67
   17:01:26.878.27-Aug-2021 4788.50 7534.67 83.15 18.00 290.71 3147.67
   17:01:27.078.27-Aug-2021 4788.50 7534.67 83.15 18.00 290.91 3147.67
   17:01:27.278.27-Aug-2021 4788.50 7536.81 83.15 18.00 291.11 3147.67
   17:01:27.478.27-Aug-2021 4788.50 7534.57 83.15 18.00 291.31 3147.67
   17:01:27.678.27-Aug-2021 4788.50 7535.68 83.15 18.00 291.51 3147.67
   17:01:27.877.27-Aug-2021 4788.50 7535.43 83.15 18.00 291.71 3147.67
   17:01:28.077.27-Aug-2021 4788.50 7535.43 83.15 18.00 291.91 3147.67
   17:01:28.277.27-Aug-2021 4788.50 7535.09 83.15 18.00 292.11 3147.67
   17:01:28.477.27-Aug-2021 4788.50 7534.29 83.15 18.00 292.31 3147.67
   17:01:28.677.27-Aug-2021 4788.50 7534.60 83.15 18.00 292.51 3147.67
   17:01:28.876.27-Aug-2021 4788.50 7534.90 83.15 18.00 292.71 3147.67
   17:01:29.076.27-Aug-2021 4788.50 7534.90 83.15 18.00 292.91 3147.67
   17:01:29.276.27-Aug-2021 4788.50 7534.90 83.15 18.00 293.11 3147.67
   17:01:29.476.27-Aug-2021 4788.50 7534.93 83.15 18.00 293.31 3147.67
