~Version Information
 VERS.                  2.0:   CWLS log ASCII Standard -VERSION 2.0
 WRAP.                   NO:   One line per depth step
~Well Information Block
#MNEM.UNIT     VALUE/NAME     DESCRIPTION
#---------     -----------    ---------------------------
 STRT.S             06:14:43 27-Aug-21: START TIME 06:14:43 27-Aug-21
 STOP.S             06:21:54 27-Aug-21: STOP TIME  06:21:54 27-Aug-21
 STEP.S                   0.00: STEP TIME
 NULL.                 -999.25: NULL VALUE
 DFWT.                        :  DIST FWL TEXT
 DFST.                        :  DIST FSL TEXT
 DMF .             Drill Floor:  DRILL MEAS FROM
 STIM.      20.00.00 17-Aug-21:  START TIME
 DATE.      19.00.00 29-Aug-21:  END TIME
 SPUD.               15-Aug-21:  SPUD DATE
 NREF.                    Grid:  NORTH REFERENCE
 HPTY.       Minimum Curvature:  HOLE POS TYPE
 DMOD.             Drill Model:  DRILL MOD DESC
 SVYD.                  Survey:  SURVEY DESC
 ILTD.               Lithology:  INTERP LTH DESC
 FTOP.          Formation Tops:  FORM TOPS DESC
 RIG .              East Azeri:  RIG NAME
 PDAT.          Mean Sea Level:  PERMANENT DATUM
 FLD .                     ACG:  FIELD NAME
 SON .        AZ-XX-0907180857:  JOB NUMBER
 CTRY.              Azerbaijan:  COUNTRY NAME
 WELL.                    D23x:  WELL NAME
 SRVC.     Turan Drilling and Engineering:  CONTRACTOR
 COMP.     BP Exploration (Caspian Sea) Ltd.:  COMPANY
 UWI .            /AZE00000214:  UNIQUE WELL IDENTIFIER
 API .            /AZE00000214:  API NUMBER
 MDS .        Operator Entered:  MAG DATA SOURCE
 BASE.              Azerbaijan:  LOGGING EQUIPMENT BASE LOCATION
 REGN.                   EESSA:  REGION
 PROV.                    Baku:  PROVINCE
 STAT.                    Baku:  STATE NAME
 MWDS.                    Baku:  MWD SHOP
 DOE .                     N/A:  DOE NUMBER
 DCON.         Sperry Drilling:  DIRECTNL CONTR
 UNIT.                     N/A:  LOGGING EQUIPMENT ID
 WTYP.                Deviated:  WELL TYPE
 CNTY.                        :  COUNTY
 LOC .                        :  LOCATION
 LMF .             Drill Floor:  LOG MEASURED FROM
 TVDS.m                  43.60:  TVDSS CORRECTN
 LATI.deg                40.02:  LATITUDE
 LONG.deg                51.45:  LONGITUDE
 WHNS.m                  -7.04:  WELL HEAD N/S
 WHEW.m                  -0.67:  WELL HEAD E/W
 UTMX.m              538762.90:  UTM X
 UTMY.m             4431871.34:  UTM Y
 DFWL.m                   0.00:  DISTANCE FWL
 DFSL.m                   0.00:  DISTANCE FSL
 SDEP.m                4127.00:  START DEPTH
 TDD .m                5084.50:  TOTAL DEPTH (DRILLER)
 VSDR.deg               140.47:  VERT SEC DIRECT
 GVFD.g                   1.00:  GRAVITY FIELD
 MFLD.nT              50362.00:  MAGNETIC FIELD
 MDIP.deg                59.48:  MAGNETIC DIP
 MDEC.deg                 6.47:  MAGNETIC DECL
 GRDC.deg                 0.31:  GRID CORRECTION
 AZTC.deg                 6.16:  AZM TOTAL CORR
 EPD .m                   0.00:  ELEVATION
 EGL .m                   0.00:  GROUND ELEVATION
 WDMS.m                 151.80:  WD ELEV
 APD .m                  43.60:  DEPTH ABOVE PD
 DEP .m                4092.57:  DEPTH
 AGAP.m                  43.60:  AIR GAP
 VSEW.m                  -0.67:  VERT SEC E/W
 VSNS.m                  -7.04:  VERT SEC N/S
 EKB .m                  43.60:  KB ELEVATION
 EDF .m                  43.60:  DF ELEVATION
 TDL .m                 957.50:  TOTAL DEPTH (LOGGER)
 VSC .                       0:  VS TO CLOSURE
 MAGU.                 1851413:  MAGUTM CHECKSUM
~Parameter Information Block
#MNEM.UNIT       Value        Description
#---------     -----------    ---------------------------
 AV  .mps                 1.50:  Ann Velocity 
 AVMX.mps                 2.00:  Max Ann Veloc 
 AZIF.deg               184.66:  Azm, Final 
 BHAT.        Rotary Steerable:  BHA Type 
 BREV.rev               300.00:  Rev Bit Total 
 BROT.°/30m              -0.50:  Build Rotating 
 BS  .in                  8.50:  Bit Size 
 BSZ .in                  8.50:  Bit Size 
 BTPL.psig              370.00:  Bit Press Loss 
 CABU.                      No:  Customer Abuse 
 CGEO.      Behruz Shahbaliyev:  Customer Geo 
 COMM.                     4V:  Run Comments 1 
 TCS .hr                140.08:  Time Ciculation Ended 
 CV  .mps                 3.00:  Crit Velocity 
 CVMX.mps                 3.20:  Max Crit Veloc 
 DD1 .            Musa Ahmadov:  Direct Drillr 1 
 DD2 .           Hamid Ahmadov:  Direct Drillr 2 
 DDSV.               Geo-Pilot:  DD Service 
 DEFF.%                  98.40:  % Det Eff 
 DLRX.°/30m               3.40:  Dogleg Rot Max 
 DLSO.°/30m               1.45:  Dogleg Oriented 
 DLSX.°/30m               3.40:  Dogleg Str Max 
 DRET.      18.40.00 29-Aug-21:  Drill End Time 
 DRST.      21.00.00 20-Aug-21:  Drill Start Tim 
 DTIM.hr                 69.47:  Time Drilling 
 EDEP.m                5084.50:  End Depth 
 ENG1.      Artemiy Matviyanov:  Engineer 1 
 ENG2.         Almaz Almadatov:  Engineer 2 
 ETIM.      18.40.00 29-Aug-21:  End Time 
 FLOI.gpm               500.00:  Flow In 
 FLON.gpm               400.00:  Flow In Min 
 FLOS.cptm                0.00:  Fluid Loss 
 FLOX.gpm               500.00:  Flow In Max 
 DFT .        Mineral Oil Base:  Mud Type 
 HFLO.                      No:  High Flow 
 HPRE.                      No:  High Pressure 
 HTEM.                      No:  High Temp 
 HYDO.m                   1.80:  Hydro Offset 
 IFIN.deg                25.62:  Inc, Final 
 IMAX.deg                48.69:  Inc Max 
 IMIN.deg                24.01:  Inc Min 
 IMND.m                4962.57:  Inc Min Depth 
 IMXD.m                4119.01:  Inc Max Depth 
 JARR.                      No:  Jarring 
 LETM.      18.40.00 29-Aug-21:  Log End Time 
 LOST.hr                     0:  Lost Rig Time 
 LSTM.      21.00.00 20-Aug-21:  Log Start Time 
 MDCL.ppm             41500.00:  Mud Chlorides 
 MDES.     Inversion Oil/Synthetic:  Mud Desc 
 DFD .sg                  1.56:  Mud Density 
 MDMN.sg                  1.56:  Dens Mud Min 
 MDMX.sg                  1.56:  Dens Mud Max 
 MOIL.                      70:  Run Mud Oil % 
 MOWR.                   70:30:  Run Mud OWR 
 MSND.                     0.2:  Run Mud Sand % 
 MSOL.                    23.3:  Run Mud Solids% 
 DFV .spqt               78.00:  Mud Viscosity 
 MWOD.in                  6.75:  MWD Tool OD 
 MWSI.                      No:  Serv Intrp, MWD 
 OTIM.hr                218.30:  Time Operating 
 PCON.           Look Like New:  Pad Condition 
 PMAX.psia            11015.30:  Press Op, Max 
 PV  .cP                 38.00:  Mud PV 
 RUN .                     300:  Run Number 
 ROPA.m/hr               15.00:  ROP Avg 
 ROPN.m/hr                9.00:  ROP Min 
 ROPX.m/hr               17.00:  ROP Max 
 RPMA.rpm               120.00:  RPM Surface Avg 
 RPMN.rpm                90.00:  RPM Surface Min 
 RPMX.rpm               140.00:  RPM Surface Max 
 RRUN.                     300:  Rig Run Number 
 RTIM.hr                 31.53:  Time Reaming 
 SAZI.deg               331.64:  Azm, Start 
 SDEP.m                4127.00:  Start Depth 
 SIDD.                      No:  Serv Intrp, DD 
 SINC.deg                48.43:  Inc, Start 
 SPPA.psig             5830.00:  SPP Avg 
 SPPN.psig             5600.00:  SPP Min 
 SPPX.psig             5900.00:  SPP Max 
 STIM.      21.00.00 20-Aug-21:  Start Time 
 SVCS.                 DD, MWD:  Services 
 SVER.                    9.20:  Sperry Version 
 TDAT.m                 957.50:  Tot Depth Attmp 
 TDDF.                      No:  Trip for DD 
 TDLG.m                 957.50:  Tot Depth Loggd 
 TFF .                      No:  Trip for Fail 
 TQAA.f-kp               15.00:  Torque Abs Avg 
 TQAN.f-kp               12.00:  Torque Abs Min 
 TQAX.f-kp               19.00:  Torque Abs Max 
 TRRT.°/30m              -3.40:  Turn Rotating 
 MRT .                  EWR-M5:  Maximum Recorded Temperature 
 TTMX.degC              100.00:  Max Tool Temp 
 VS01.                90639251:  Virtual Str1 SN 
 VS02.                90634715:  Virtual Str2 SN 
 VS03.                90652479:  Virtual Str3 SN 
 VS04.                90642262:  Virtual Str4 SN 
 WBMN.klb                 0.00:  WOB Min 
 WITN.           Murad Guliyev:  Customer Rep 
 WITN.          Yashar Gaziyev:  Customer Rep 2 
 WOBA.klb                 9.00:  WOB Avg 
 WOBX.klb                12.00:  WOB Max 
 YP  .lhf2               30.00:  Yield Point 
~Curve Information Block
#MNEM.UNIT                 API CODE     Curve Description
#---------               -----------    ---------------------------
 TIME.HHMMSS            00 000 000 000:  GT Time & Date
 GTDEPTH.m              00 000 000 000:  GT Depth
 GTPQH.psia             00 000 000 000:  GT HR Quartz Pressure
 GTTQ.degC              00 000 000 000:  GT Quartz Temperature
 GTTN.NONE              00 000 000 000:  GT Test Number
 GTET.sec               00 000 000 000:  GT Elapsed Test Time
 GTTVD.m                00 000 000 000:  GT True Vertical Depth
#Other Information
#
#WARRANTY: Halliburton will use its best efforts to furnish customers with 
#accurate information and interpretations that are part of, and incident to, the services 
#provided.  However, Halliburton cannot and does not warrant the accuracy 
#or correctness of such information and interpretations.  Under no circumstances should any 
#such information or interpretation be relied upon as the sole basis for any drilling, 
#completion, production, or financial decision or any procedure involving any risk to the 
#safety of any drilling venture, drilling rig or its crew or any other third party.  The 
#Customer has full responsibility for all drilling, completion and production operation.  
#Halliburton makes no representations or warranties, either expressed or 
#implied, including, but not limited to, the implied warranties of merchantability or fitness 
#for a particular purpose, with respect to the services rendered.  In no event will 
#Halliburton be liable for failure to obtain any particular results or for 
#any damages, including, but not limited to, indirect, special or consequential damages, 
#resulting from the use of any information or interpretation provided by Halliburton.
#
~A           TIME           GTDEPTH  GTPQH  GTTQ  GTTN  GTET   GTTVD  
# ...
   06:18:33.660.27-Aug-2021 5020.50 8000.14 88.15 2.00 230.04 3358.11
   06:18:33.860.27-Aug-2021 5020.50 8000.14 88.15 2.00 230.24 3358.11
   06:18:34.060.27-Aug-2021 5020.50 8000.03 88.15 2.00 230.44 3358.11
   06:18:34.260.27-Aug-2021 5020.50 8003.00 88.15 2.00 230.64 3358.11
   06:18:34.460.27-Aug-2021 5020.50 8000.51 88.15 2.00 230.84 3358.11
   06:18:34.660.27-Aug-2021 5020.50 8001.10 88.15 2.00 231.04 3358.11
   06:18:34.860.27-Aug-2021 5020.50 8001.10 88.15 2.00 231.24 3358.11
   06:18:35.060.27-Aug-2021 5020.50 8004.18 88.15 2.00 231.44 3358.11
   06:18:35.260.27-Aug-2021 5020.50 8000.35 88.15 2.00 231.64 3358.11
   06:18:35.460.27-Aug-2021 5020.50 8000.80 88.15 2.00 231.84 3358.11
   06:18:35.660.27-Aug-2021 5020.50 7999.88 88.15 2.00 232.04 3358.11
   06:18:35.861.27-Aug-2021 5020.50 7999.88 88.15 2.00 232.24 3358.11
   06:18:36.061.27-Aug-2021 5020.50 8000.37 88.15 2.00 232.44 3358.11
   06:18:36.261.27-Aug-2021 5020.50 8000.47 88.15 2.00 232.64 3358.11
   06:18:36.461.27-Aug-2021 5020.50 8000.62 88.15 2.00 232.84 3358.11
   06:18:36.661.27-Aug-2021 5020.50 8000.49 88.15 2.00 233.04 3358.11
   06:18:36.861.27-Aug-2021 5020.50 8000.49 88.15 2.00 233.24 3358.11
   06:18:37.061.27-Aug-2021 5020.50 8001.95 88.15 2.00 233.44 3358.11
   06:18:37.261.27-Aug-2021 5020.50 8001.90 88.15 2.00 233.64 3358.11
   06:18:37.461.27-Aug-2021 5020.50 8001.79 88.15 2.00 233.84 3358.11
   06:18:37.661.27-Aug-2021 5020.50 8001.31 88.15 2.00 234.04 3358.11
   06:18:37.861.27-Aug-2021 5020.50 8001.31 88.15 2.00 234.24 3358.11
   06:18:38.061.27-Aug-2021 5020.50 8006.30 88.15 2.00 234.44 3358.11
   06:18:38.261.27-Aug-2021 5020.50 8001.23 88.15 2.00 234.64 3358.11
   06:18:38.461.27-Aug-2021 5020.50 8000.10 88.15 2.00 234.84 3358.11
   06:18:38.661.27-Aug-2021 5020.50 8000.70 88.15 2.00 235.04 3358.11
   06:18:38.861.27-Aug-2021 5020.50 8000.70 88.15 2.00 235.24 3358.11
   06:18:39.061.27-Aug-2021 5020.50 8000.52 88.15 2.00 235.44 3358.11
   06:18:39.261.27-Aug-2021 5020.50 8000.38 88.15 2.00 235.64 3358.11
   06:18:39.461.27-Aug-2021 5020.50 7999.91 88.15 2.00 235.84 3358.11
   06:18:39.661.27-Aug-2021 5020.50 8000.35 88.15 2.00 236.04 3358.11
   06:18:39.861.27-Aug-2021 5020.50 8000.35 88.15 2.00 236.24 3358.11
   06:18:40.061.27-Aug-2021 5020.50 8001.38 88.15 2.00 236.44 3358.11
   06:18:40.261.27-Aug-2021 5020.50 8002.10 88.15 2.00 236.64 3358.11
   06:18:40.461.27-Aug-2021 5020.50 8002.18 88.15 2.00 236.84 3358.11
   06:18:40.661.27-Aug-2021 5020.50 8001.93 88.15 2.00 237.04 3358.11
   06:18:40.861.27-Aug-2021 5020.50 8001.93 88.15 2.00 237.24 3358.11
   06:18:41.061.27-Aug-2021 5020.50 8001.61 88.15 2.00 237.44 3358.11
   06:18:41.261.27-Aug-2021 5020.50 8001.13 88.15 2.00 237.64 3358.11
   06:18:41.461.27-Aug-2021 5020.50 8009.63 88.15 2.00 237.84 3358.11
   06:18:41.661.27-Aug-2021 5020.50 7998.48 88.15 2.00 238.04 3358.11
   06:18:41.861.27-Aug-2021 5020.50 7998.48 88.15 2.00 238.24 3358.11
   06:18:42.062.27-Aug-2021 5020.50 8000.37 88.15 2.00 238.44 3358.11
   06:18:42.262.27-Aug-2021 5020.50 8004.21 88.15 2.00 238.64 3358.11
   06:18:42.462.27-Aug-2021 5020.50 8002.58 88.15 2.00 238.84 3358.11
   06:18:42.662.27-Aug-2021 5020.50 8000.56 88.15 2.00 239.04 3358.11
   06:18:42.862.27-Aug-2021 5020.50 8000.56 88.15 2.00 239.24 3358.11
   06:18:43.062.27-Aug-2021 5020.50 8000.06 88.15 2.00 239.44 3358.11
   06:18:43.262.27-Aug-2021 5020.50 8004.93 88.15 2.00 239.64 3358.11
   06:18:43.462.27-Aug-2021 5020.50 8001.13 88.15 2.00 239.84 3358.11
   06:18:43.662.27-Aug-2021 5020.50 8001.90 88.15 2.00 240.04 3358.11
   06:18:43.862.27-Aug-2021 5020.50 8001.90 88.15 2.00 240.24 3358.11
   06:18:44.062.27-Aug-2021 5020.50 8004.92 88.15 2.00 240.44 3358.11
   06:18:44.262.27-Aug-2021 5020.50 8002.37 88.15 2.00 240.64 3358.11
   06:18:44.462.27-Aug-2021 5020.50 8002.39 88.15 2.00 240.84 3358.11
   06:18:44.662.27-Aug-2021 5020.50 8000.53 88.15 2.00 241.04 3358.11
   06:18:44.862.27-Aug-2021 5020.50 8000.53 88.15 2.00 241.24 3358.11
   06:18:45.062.27-Aug-2021 5020.50 8000.17 88.15 2.00 241.44 3358.11
   06:18:45.262.27-Aug-2021 5020.50 8000.58 88.15 2.00 241.64 3358.11
   06:18:45.462.27-Aug-2021 5020.50 8000.56 88.15 2.00 241.84 3358.11
   06:18:45.662.27-Aug-2021 5020.50 8000.99 88.15 2.00 242.04 3358.11
   06:18:45.862.27-Aug-2021 5020.50 8000.99 88.15 2.00 242.24 3358.11
   06:18:46.062.27-Aug-2021 5020.50 8000.49 88.15 2.00 242.44 3358.11
   06:18:46.262.27-Aug-2021 5020.50 8001.67 88.15 2.00 242.64 3358.11
   06:18:46.462.27-Aug-2021 5020.50 8002.36 88.15 2.00 242.84 3358.11
   06:18:46.662.27-Aug-2021 5020.50 8001.84 88.15 2.00 243.04 3358.11
   06:18:46.862.27-Aug-2021 5020.50 8001.84 88.15 2.00 243.24 3358.11
   06:18:47.062.27-Aug-2021 5020.50 8001.43 88.15 2.00 243.44 3358.11
   06:18:47.262.27-Aug-2021 5020.50 8001.24 88.15 2.00 243.64 3358.11
   06:18:47.462.27-Aug-2021 5020.50 8004.88 88.15 2.00 243.84 3358.11
   06:18:47.662.27-Aug-2021 5020.50 8002.80 88.15 2.00 244.04 3358.11
   06:18:47.862.27-Aug-2021 5020.50 8002.80 88.15 2.00 244.24 3358.11
   06:18:48.063.27-Aug-2021 5020.50 8000.62 88.15 2.00 244.44 3358.11
   06:18:48.263.27-Aug-2021 5020.50 8000.58 88.15 2.00 244.64 3358.11
   06:18:48.463.27-Aug-2021 5020.50 8000.91 88.15 2.00 244.84 3358.11
   06:18:48.663.27-Aug-2021 5020.50 8000.48 88.15 2.00 245.04 3358.11
   06:18:48.863.27-Aug-2021 5020.50 8000.48 88.15 2.00 245.24 3358.11
   06:18:49.063.27-Aug-2021 5020.50 8000.51 88.15 2.00 245.44 3358.11
   06:18:49.263.27-Aug-2021 5020.50 8000.93 88.15 2.00 245.64 3358.11
   06:18:49.463.27-Aug-2021 5020.50 8001.68 88.15 2.00 245.84 3358.11
   06:18:49.663.27-Aug-2021 5020.50 8002.74 88.15 2.00 246.04 3358.11
   06:18:49.863.27-Aug-2021 5020.50 8002.74 88.15 2.00 246.24 3358.11
   06:18:50.063.27-Aug-2021 5020.50 8002.12 88.15 2.00 246.44 3358.11
   06:18:50.263.27-Aug-2021 5020.50 8001.50 88.15 2.00 246.64 3358.11
   06:18:50.463.27-Aug-2021 5020.50 8001.49 88.15 2.00 246.84 3358.11
   06:18:50.663.27-Aug-2021 5020.50 8001.36 88.15 2.00 247.04 3358.11
   06:18:50.863.27-Aug-2021 5020.50 8001.36 88.15 2.00 247.24 3358.11
   06:18:51.063.27-Aug-2021 5020.50 8001.41 88.15 2.00 247.44 3358.11
   06:18:51.263.27-Aug-2021 5020.50 8000.29 88.15 2.00 247.64 3358.11
   06:18:51.463.27-Aug-2021 5020.50 8004.83 88.15 2.00 247.84 3358.11
   06:18:51.663.27-Aug-2021 5020.50 8001.28 88.15 2.00 248.04 3358.11
   06:18:51.863.27-Aug-2021 5020.50 8001.28 88.15 2.00 248.24 3358.11
   06:18:52.063.27-Aug-2021 5020.50 8000.14 88.15 2.00 248.44 3358.11
   06:18:52.263.27-Aug-2021 5020.50 8000.23 88.15 2.00 248.64 3358.11
   06:18:52.463.27-Aug-2021 5020.50 7999.76 88.15 2.00 248.84 3358.11
   06:18:52.663.27-Aug-2021 5020.50 8008.50 88.15 2.00 249.04 3358.11
   06:18:52.863.27-Aug-2021 5020.50 8008.50 88.15 2.00 249.24 3358.11
   06:18:53.063.27-Aug-2021 5020.50 8000.66 88.15 2.00 249.44 3358.11
   06:18:53.263.27-Aug-2021 5020.50 8001.00 88.15 2.00 249.64 3358.11
   06:18:53.463.27-Aug-2021 5020.50 8009.06 88.15 2.00 249.84 3358.11
   06:18:53.663.27-Aug-2021 5020.50 7999.31 88.15 2.00 250.04 3358.11
   06:18:53.863.27-Aug-2021 5020.50 7999.31 88.15 2.00 250.24 3358.11
   06:18:54.063.27-Aug-2021 5020.50 8000.79 88.15 2.00 250.44 3358.11
   06:18:54.264.27-Aug-2021 5020.50 8000.80 88.15 2.00 250.64 3358.11
   06:18:54.464.27-Aug-2021 5020.50 8000.03 88.15 2.00 250.84 3358.11
   06:18:54.664.27-Aug-2021 5020.50 8000.96 88.15 2.00 251.04 3358.11
   06:18:54.864.27-Aug-2021 5020.50 8000.96 88.15 2.00 251.24 3358.11
   06:18:55.064.27-Aug-2021 5020.50 8001.09 88.15 2.00 251.44 3358.11
   06:18:55.264.27-Aug-2021 5020.50 8000.41 88.15 2.00 251.64 3358.11
   06:18:55.464.27-Aug-2021 5020.50 8001.09 88.15 2.00 251.84 3358.11
   06:18:55.664.27-Aug-2021 5020.50 8001.87 88.15 2.00 252.04 3358.11
   06:18:55.864.27-Aug-2021 5020.50 8001.87 88.15 2.00 252.24 3358.11
   06:18:56.064.27-Aug-2021 5020.50 8001.99 88.15 2.00 252.44 3358.11
   06:18:56.264.27-Aug-2021 5020.50 8001.60 88.15 2.00 252.64 3358.11
   06:18:56.464.27-Aug-2021 5020.50 8001.51 88.15 2.00 252.84 3358.11
