~Version Information
 VERS.                  2.0:   CWLS log ASCII Standard -VERSION 2.0
 WRAP.                   NO:   One line per depth step
~Well Information Block
#MNEM.UNIT     VALUE/NAME     DESCRIPTION
#---------     -----------    ---------------------------
 STRT.S             13:07:39 27-Aug-21: START TIME 13:07:39 27-Aug-21
 STOP.S             13:14:54 27-Aug-21: STOP TIME  13:14:54 27-Aug-21
 STEP.S                   0.00: STEP TIME
 NULL.                 -999.25: NULL VALUE
 DFWT.                        :  DIST FWL TEXT
 DFST.                        :  DIST FSL TEXT
 DMF .             Drill Floor:  DRILL MEAS FROM
 STIM.      20.00.00 17-Aug-21:  START TIME
 DATE.      19.00.00 29-Aug-21:  END TIME
 SPUD.               15-Aug-21:  SPUD DATE
 NREF.                    Grid:  NORTH REFERENCE
 HPTY.       Minimum Curvature:  HOLE POS TYPE
 DMOD.             Drill Model:  DRILL MOD DESC
 SVYD.                  Survey:  SURVEY DESC
 ILTD.               Lithology:  INTERP LTH DESC
 FTOP.          Formation Tops:  FORM TOPS DESC
 RIG .              East Azeri:  RIG NAME
 PDAT.          Mean Sea Level:  PERMANENT DATUM
 FLD .                     ACG:  FIELD NAME
 SON .        AZ-XX-0907180857:  JOB NUMBER
 CTRY.              Azerbaijan:  COUNTRY NAME
 WELL.                    D23x:  WELL NAME
 SRVC.     Turan Drilling and Engineering:  CONTRACTOR
 COMP.     BP Exploration (Caspian Sea) Ltd.:  COMPANY
 UWI .            /AZE00000214:  UNIQUE WELL IDENTIFIER
 API .            /AZE00000214:  API NUMBER
 MDS .        Operator Entered:  MAG DATA SOURCE
 BASE.              Azerbaijan:  LOGGING EQUIPMENT BASE LOCATION
 REGN.                   EESSA:  REGION
 PROV.                    Baku:  PROVINCE
 STAT.                    Baku:  STATE NAME
 MWDS.                    Baku:  MWD SHOP
 DOE .                     N/A:  DOE NUMBER
 DCON.         Sperry Drilling:  DIRECTNL CONTR
 UNIT.                     N/A:  LOGGING EQUIPMENT ID
 WTYP.                Deviated:  WELL TYPE
 CNTY.                        :  COUNTY
 LOC .                        :  LOCATION
 LMF .             Drill Floor:  LOG MEASURED FROM
 TVDS.m                  43.60:  TVDSS CORRECTN
 LATI.deg                40.02:  LATITUDE
 LONG.deg                51.45:  LONGITUDE
 WHNS.m                  -7.04:  WELL HEAD N/S
 WHEW.m                  -0.67:  WELL HEAD E/W
 UTMX.m              538762.90:  UTM X
 UTMY.m             4431871.34:  UTM Y
 DFWL.m                   0.00:  DISTANCE FWL
 DFSL.m                   0.00:  DISTANCE FSL
 SDEP.m                4127.00:  START DEPTH
 TDD .m                5084.50:  TOTAL DEPTH (DRILLER)
 VSDR.deg               140.47:  VERT SEC DIRECT
 GVFD.g                   1.00:  GRAVITY FIELD
 MFLD.nT              50362.00:  MAGNETIC FIELD
 MDIP.deg                59.48:  MAGNETIC DIP
 MDEC.deg                 6.47:  MAGNETIC DECL
 GRDC.deg                 0.31:  GRID CORRECTION
 AZTC.deg                 6.16:  AZM TOTAL CORR
 EPD .m                   0.00:  ELEVATION
 EGL .m                   0.00:  GROUND ELEVATION
 WDMS.m                 151.80:  WD ELEV
 APD .m                  43.60:  DEPTH ABOVE PD
 DEP .m                4092.57:  DEPTH
 AGAP.m                  43.60:  AIR GAP
 VSEW.m                  -0.67:  VERT SEC E/W
 VSNS.m                  -7.04:  VERT SEC N/S
 EKB .m                  43.60:  KB ELEVATION
 EDF .m                  43.60:  DF ELEVATION
 TDL .m                 957.50:  TOTAL DEPTH (LOGGER)
 VSC .                       0:  VS TO CLOSURE
 MAGU.                 1851413:  MAGUTM CHECKSUM
~Parameter Information Block
#MNEM.UNIT       Value        Description
#---------     -----------    ---------------------------
 AV  .mps                 1.50:  Ann Velocity 
 AVMX.mps                 2.00:  Max Ann Veloc 
 AZIF.deg               184.66:  Azm, Final 
 BHAT.        Rotary Steerable:  BHA Type 
 BREV.rev               300.00:  Rev Bit Total 
 BROT.°/30m              -0.50:  Build Rotating 
 BS  .in                  8.50:  Bit Size 
 BSZ .in                  8.50:  Bit Size 
 BTPL.psig              370.00:  Bit Press Loss 
 CABU.                      No:  Customer Abuse 
 CGEO.      Behruz Shahbaliyev:  Customer Geo 
 COMM.                     ¤R:  Run Comments 1 
 TCS .hr                140.08:  Time Ciculation Ended 
 CV  .mps                 3.00:  Crit Velocity 
 CVMX.mps                 3.20:  Max Crit Veloc 
 DD1 .            Musa Ahmadov:  Direct Drillr 1 
 DD2 .           Hamid Ahmadov:  Direct Drillr 2 
 DDSV.               Geo-Pilot:  DD Service 
 DEFF.%                  98.40:  % Det Eff 
 DLRX.°/30m               3.40:  Dogleg Rot Max 
 DLSO.°/30m               1.45:  Dogleg Oriented 
 DLSX.°/30m               3.40:  Dogleg Str Max 
 DRET.      18.40.00 29-Aug-21:  Drill End Time 
 DRST.      21.00.00 20-Aug-21:  Drill Start Tim 
 DTIM.hr                 69.47:  Time Drilling 
 EDEP.m                5084.50:  End Depth 
 ENG1.      Artemiy Matviyanov:  Engineer 1 
 ENG2.         Almaz Almadatov:  Engineer 2 
 ETIM.      18.40.00 29-Aug-21:  End Time 
 FLOI.gpm               500.00:  Flow In 
 FLON.gpm               400.00:  Flow In Min 
 FLOS.cptm                0.00:  Fluid Loss 
 FLOX.gpm               500.00:  Flow In Max 
 DFT .        Mineral Oil Base:  Mud Type 
 HFLO.                      No:  High Flow 
 HPRE.                      No:  High Pressure 
 HTEM.                      No:  High Temp 
 HYDO.m                   1.80:  Hydro Offset 
 IFIN.deg                25.62:  Inc, Final 
 IMAX.deg                48.69:  Inc Max 
 IMIN.deg                24.01:  Inc Min 
 IMND.m                4962.57:  Inc Min Depth 
 IMXD.m                4119.01:  Inc Max Depth 
 JARR.                      No:  Jarring 
 LETM.      18.40.00 29-Aug-21:  Log End Time 
 LOST.hr                     0:  Lost Rig Time 
 LSTM.      21.00.00 20-Aug-21:  Log Start Time 
 MDCL.ppm             41500.00:  Mud Chlorides 
 MDES.     Inversion Oil/Synthetic:  Mud Desc 
 DFD .sg                  1.56:  Mud Density 
 MDMN.sg                  1.56:  Dens Mud Min 
 MDMX.sg                  1.56:  Dens Mud Max 
 MOIL.                      70:  Run Mud Oil % 
 MOWR.                   70:30:  Run Mud OWR 
 MSND.                     0.2:  Run Mud Sand % 
 MSOL.                    23.3:  Run Mud Solids% 
 DFV .spqt               78.00:  Mud Viscosity 
 MWOD.in                  6.75:  MWD Tool OD 
 MWSI.                      No:  Serv Intrp, MWD 
 OTIM.hr                218.30:  Time Operating 
 PCON.           Look Like New:  Pad Condition 
 PMAX.psia            11015.30:  Press Op, Max 
 PV  .cP                 38.00:  Mud PV 
 RUN .                     300:  Run Number 
 ROPA.m/hr               15.00:  ROP Avg 
 ROPN.m/hr                9.00:  ROP Min 
 ROPX.m/hr               17.00:  ROP Max 
 RPMA.rpm               120.00:  RPM Surface Avg 
 RPMN.rpm                90.00:  RPM Surface Min 
 RPMX.rpm               140.00:  RPM Surface Max 
 RRUN.                     300:  Rig Run Number 
 RTIM.hr                 31.53:  Time Reaming 
 SAZI.deg               331.64:  Azm, Start 
 SDEP.m                4127.00:  Start Depth 
 SIDD.                      No:  Serv Intrp, DD 
 SINC.deg                48.43:  Inc, Start 
 SPPA.psig             5830.00:  SPP Avg 
 SPPN.psig             5600.00:  SPP Min 
 SPPX.psig             5900.00:  SPP Max 
 STIM.      21.00.00 20-Aug-21:  Start Time 
 SVCS.                 DD, MWD:  Services 
 SVER.                    9.20:  Sperry Version 
 TDAT.m                 957.50:  Tot Depth Attmp 
 TDDF.                      No:  Trip for DD 
 TDLG.m                 957.50:  Tot Depth Loggd 
 TFF .                      No:  Trip for Fail 
 TQAA.f-kp               15.00:  Torque Abs Avg 
 TQAN.f-kp               12.00:  Torque Abs Min 
 TQAX.f-kp               19.00:  Torque Abs Max 
 TRRT.°/30m              -3.40:  Turn Rotating 
 MRT .                  EWR-M5:  Maximum Recorded Temperature 
 TTMX.degC              100.00:  Max Tool Temp 
 VS01.                90639251:  Virtual Str1 SN 
 VS02.                90634715:  Virtual Str2 SN 
 VS03.                90652479:  Virtual Str3 SN 
 VS04.                90642262:  Virtual Str4 SN 
 WBMN.klb                 0.00:  WOB Min 
 WITN.           Murad Guliyev:  Customer Rep 
 WITN.          Yashar Gaziyev:  Customer Rep 2 
 WOBA.klb                 9.00:  WOB Avg 
 WOBX.klb                12.00:  WOB Max 
 YP  .lhf2               30.00:  Yield Point 
~Curve Information Block
#MNEM.UNIT                 API CODE     Curve Description
#---------               -----------    ---------------------------
 TIME.HHMMSS            00 000 000 000:  GT Time & Date
 GTDEPTH.m              00 000 000 000:  GT Depth
 GTPQH.psia             00 000 000 000:  GT HR Quartz Pressure
 GTTQ.degC              00 000 000 000:  GT Quartz Temperature
 GTTN.NONE              00 000 000 000:  GT Test Number
 GTET.sec               00 000 000 000:  GT Elapsed Test Time
 GTTVD.m                00 000 000 000:  GT True Vertical Depth
#Other Information
#
#WARRANTY: Halliburton will use its best efforts to furnish customers with 
#accurate information and interpretations that are part of, and incident to, the services 
#provided.  However, Halliburton cannot and does not warrant the accuracy 
#or correctness of such information and interpretations.  Under no circumstances should any 
#such information or interpretation be relied upon as the sole basis for any drilling, 
#completion, production, or financial decision or any procedure involving any risk to the 
#safety of any drilling venture, drilling rig or its crew or any other third party.  The 
#Customer has full responsibility for all drilling, completion and production operation.  
#Halliburton makes no representations or warranties, either expressed or 
#implied, including, but not limited to, the implied warranties of merchantability or fitness 
#for a particular purpose, with respect to the services rendered.  In no event will 
#Halliburton be liable for failure to obtain any particular results or for 
#any damages, including, but not limited to, indirect, special or consequential damages, 
#resulting from the use of any information or interpretation provided by Halliburton.
#
~A           TIME           GTDEPTH  GTPQH  GTTQ  GTTN   GTET   GTTVD  
# ...
   13:10:18.292.27-Aug-2021 4901.50 5051.67 84.96 13.00 158.36 3249.95
   13:10:18.492.27-Aug-2021 4901.50 5051.67 84.96 13.00 158.56 3249.95
   13:10:18.692.27-Aug-2021 4901.50 5051.68 84.96 13.00 158.76 3249.95
   13:10:18.893.27-Aug-2021 4901.50 5051.68 84.96 13.00 158.96 3249.95
   13:10:19.093.27-Aug-2021 4901.50 5051.63 84.96 13.00 159.16 3249.95
   13:10:19.293.27-Aug-2021 4901.50 5051.63 84.96 13.00 159.36 3249.95
   13:10:19.493.27-Aug-2021 4901.50 5051.65 84.96 13.00 159.56 3249.95
   13:10:19.693.27-Aug-2021 4901.50 5051.64 84.96 13.00 159.76 3249.95
   13:10:19.894.27-Aug-2021 4901.50 5051.65 84.96 13.00 159.96 3249.95
   13:10:20.094.27-Aug-2021 4901.50 5051.65 84.96 13.00 160.16 3249.95
   13:10:20.294.27-Aug-2021 4901.50 5051.65 84.96 13.00 160.36 3249.95
   13:10:20.494.27-Aug-2021 4901.50 5051.58 84.96 13.00 160.56 3249.95
   13:10:20.694.27-Aug-2021 4901.50 5051.79 84.96 13.00 160.76 3249.95
   13:10:20.895.27-Aug-2021 4901.50 5051.64 84.96 13.00 160.96 3249.95
   13:10:21.095.27-Aug-2021 4901.50 5051.64 84.96 13.00 161.16 3249.95
   13:10:21.295.27-Aug-2021 4901.50 5051.64 84.96 13.00 161.36 3249.95
   13:10:21.495.27-Aug-2021 4901.50 5051.62 84.96 13.00 161.56 3249.95
   13:10:21.695.27-Aug-2021 4901.50 5051.70 84.96 13.00 161.76 3249.95
   13:10:21.896.27-Aug-2021 4901.50 5051.66 84.96 13.00 161.96 3249.95
   13:10:22.096.27-Aug-2021 4901.50 5051.63 84.96 13.00 162.16 3249.95
   13:10:22.296.27-Aug-2021 4901.50 5051.63 84.96 13.00 162.37 3249.95
   13:10:22.496.27-Aug-2021 4901.50 5051.55 84.96 13.00 162.57 3249.95
   13:10:22.696.27-Aug-2021 4901.50 5051.76 84.96 13.00 162.77 3249.95
   13:10:22.897.27-Aug-2021 4901.50 5051.64 84.96 13.00 162.97 3249.95
   13:10:23.097.27-Aug-2021 4901.50 5051.63 84.96 13.00 163.17 3249.95
   13:10:23.297.27-Aug-2021 4901.50 5051.63 84.96 13.00 163.37 3249.95
   13:10:23.497.27-Aug-2021 4901.50 5051.50 84.96 13.00 163.57 3249.95
   13:10:23.697.27-Aug-2021 4901.50 5001.46 84.96 13.00 163.77 3249.95
   13:10:23.898.27-Aug-2021 4901.50 4971.49 84.96 13.00 163.97 3249.95
   13:10:24.098.27-Aug-2021 4901.50 4964.53 84.96 13.00 164.17 3249.95
   13:10:24.298.27-Aug-2021 4901.50 4964.53 84.96 13.00 164.37 3249.95
   13:10:24.498.27-Aug-2021 4901.50 4966.63 84.96 13.00 164.57 3249.95
   13:10:24.699.27-Aug-2021 4901.50 4966.46 84.96 13.00 164.77 3249.95
   13:10:24.899.27-Aug-2021 4901.50 4965.98 84.96 13.00 164.97 3249.95
   13:10:25.099.27-Aug-2021 4901.50 4965.78 84.96 13.00 165.17 3249.95
   13:10:25.299.27-Aug-2021 4901.50 4965.78 84.96 13.00 165.37 3249.95
   13:10:25.499.27-Aug-2021 4901.50 4967.18 84.96 13.00 165.57 3249.95
   13:10:25.700.27-Aug-2021 4901.50 4966.10 84.96 13.00 165.77 3249.95
   13:10:25.900.27-Aug-2021 4901.50 4964.83 84.96 13.00 165.97 3249.95
   13:10:26.100.27-Aug-2021 4901.50 4965.57 84.96 13.00 166.17 3249.95
   13:10:26.300.27-Aug-2021 4901.50 4965.57 84.96 13.00 166.37 3249.95
   13:10:26.500.27-Aug-2021 4901.50 4965.57 84.96 13.00 166.57 3249.95
   13:10:26.701.27-Aug-2021 4901.50 4966.98 84.96 13.00 166.77 3249.95
   13:10:26.901.27-Aug-2021 4901.50 4965.59 84.96 13.00 166.97 3249.95
   13:10:27.101.27-Aug-2021 4901.50 4965.65 84.96 13.00 167.17 3249.95
   13:10:27.301.27-Aug-2021 4901.50 4965.65 84.96 13.00 167.37 3249.95
   13:10:27.501.27-Aug-2021 4901.50 4964.82 84.96 13.00 167.57 3249.95
   13:10:27.702.27-Aug-2021 4901.50 4965.50 84.96 13.00 167.77 3249.95
   13:10:27.902.27-Aug-2021 4901.50 4965.78 84.96 13.00 167.97 3249.95
   13:10:28.102.27-Aug-2021 4901.50 4966.72 84.96 13.00 168.17 3249.95
   13:10:28.302.27-Aug-2021 4901.50 4966.72 84.96 13.00 168.37 3249.95
   13:10:28.502.27-Aug-2021 4901.50 4965.87 84.96 13.00 168.57 3249.95
   13:10:28.703.27-Aug-2021 4901.50 4965.10 84.96 13.00 168.77 3249.95
   13:10:28.903.27-Aug-2021 4901.50 4965.99 84.96 13.00 168.97 3249.95
   13:10:29.103.27-Aug-2021 4901.50 4965.93 84.96 13.00 169.17 3249.95
   13:10:29.303.27-Aug-2021 4901.50 4965.93 84.96 13.00 169.37 3249.95
   13:10:29.503.27-Aug-2021 4901.50 4966.09 84.96 13.00 169.57 3249.95
   13:10:29.704.27-Aug-2021 4901.50 4966.63 84.96 13.00 169.77 3249.95
   13:10:29.904.27-Aug-2021 4901.50 4965.08 84.96 13.00 169.97 3249.95
   13:10:30.104.27-Aug-2021 4901.50 4965.82 84.96 13.00 170.17 3249.95
   13:10:30.304.27-Aug-2021 4901.50 4965.82 84.96 13.00 170.37 3249.95
   13:10:30.504.27-Aug-2021 4901.50 4966.06 84.96 13.00 170.57 3249.95
   13:10:30.705.27-Aug-2021 4901.50 4965.00 84.96 13.00 170.77 3249.95
   13:10:30.905.27-Aug-2021 4901.50 4966.51 84.96 13.00 170.97 3249.95
   13:10:31.105.27-Aug-2021 4901.50 4965.57 84.96 13.00 171.17 3249.95
   13:10:31.305.27-Aug-2021 4901.50 4965.57 84.96 13.00 171.37 3249.95
   13:10:31.505.27-Aug-2021 4901.50 4966.29 84.96 13.00 171.57 3249.95
   13:10:31.706.27-Aug-2021 4901.50 4965.72 84.96 13.00 171.77 3249.95
   13:10:31.906.27-Aug-2021 4901.50 4966.33 84.96 13.00 171.97 3249.95
   13:10:32.106.27-Aug-2021 4901.50 4965.72 84.96 13.00 172.18 3249.95
   13:10:32.306.27-Aug-2021 4901.50 4965.72 84.96 13.00 172.38 3249.95
   13:10:32.506.27-Aug-2021 4901.50 4966.58 84.96 13.00 172.58 3249.95
   13:10:32.707.27-Aug-2021 4901.50 4965.18 84.96 13.00 172.78 3249.95
   13:10:32.907.27-Aug-2021 4901.50 4966.69 84.96 13.00 172.98 3249.95
   13:10:33.107.27-Aug-2021 4901.50 4966.13 84.96 13.00 173.18 3249.95
   13:10:33.307.27-Aug-2021 4901.50 4966.13 84.96 13.00 173.38 3249.95
   13:10:33.507.27-Aug-2021 4901.50 4966.06 84.96 13.00 173.58 3249.95
   13:10:33.708.27-Aug-2021 4901.50 4969.01 84.96 13.00 173.78 3249.95
   13:10:33.908.27-Aug-2021 4901.50 5040.64 84.96 13.00 173.98 3249.95
   13:10:34.108.27-Aug-2021 4901.50 5049.80 84.96 13.00 174.18 3249.95
   13:10:34.308.27-Aug-2021 4901.50 5049.80 84.96 13.00 174.38 3249.95
   13:10:34.508.27-Aug-2021 4901.50 5050.18 84.96 13.00 174.58 3249.95
   13:10:34.709.27-Aug-2021 4901.50 5050.24 84.96 13.00 174.78 3249.95
   13:10:34.909.27-Aug-2021 4901.50 5050.31 84.96 13.00 174.98 3249.95
   13:10:35.109.27-Aug-2021 4901.50 5050.36 84.96 13.00 175.18 3249.95
   13:10:35.309.27-Aug-2021 4901.50 5050.36 84.96 13.00 175.38 3249.95
   13:10:35.510.27-Aug-2021 4901.50 5050.47 84.96 13.00 175.58 3249.95
   13:10:35.710.27-Aug-2021 4901.50 5050.65 84.96 13.00 175.78 3249.95
   13:10:35.910.27-Aug-2021 4901.50 5050.98 84.96 13.00 175.98 3249.95
   13:10:36.110.27-Aug-2021 4901.50 5051.05 84.96 13.00 176.18 3249.95
   13:10:36.310.27-Aug-2021 4901.50 5051.05 84.96 13.00 176.38 3249.95
   13:10:36.511.27-Aug-2021 4901.50 5051.03 84.96 13.00 176.58 3249.95
   13:10:36.711.27-Aug-2021 4901.50 5051.02 84.96 13.00 176.78 3249.95
   13:10:36.911.27-Aug-2021 4901.50 5051.03 84.96 13.00 176.98 3249.95
   13:10:37.111.27-Aug-2021 4901.50 5051.03 84.96 13.00 177.18 3249.95
   13:10:37.311.27-Aug-2021 4901.50 5051.03 84.96 13.00 177.38 3249.95
   13:10:37.512.27-Aug-2021 4901.50 5051.02 84.96 13.00 177.58 3249.95
   13:10:37.712.27-Aug-2021 4901.50 5051.03 84.96 13.00 177.78 3249.95
   13:10:37.912.27-Aug-2021 4901.50 5051.02 84.96 13.00 177.98 3249.95
   13:10:38.112.27-Aug-2021 4901.50 5051.03 84.96 13.00 178.18 3249.95
   13:10:38.312.27-Aug-2021 4901.50 5051.03 84.96 13.00 178.38 3249.95
   13:10:38.513.27-Aug-2021 4901.50 5051.02 84.96 13.00 178.58 3249.95
   13:10:38.713.27-Aug-2021 4901.50 5051.03 84.96 13.00 178.78 3249.95
   13:10:38.913.27-Aug-2021 4901.50 5051.03 84.96 13.00 178.98 3249.95
   13:10:39.113.27-Aug-2021 4901.50 5051.13 84.96 13.00 179.18 3249.95
   13:10:39.313.27-Aug-2021 4901.50 5051.13 84.96 13.00 179.38 3249.95
   13:10:39.514.27-Aug-2021 4901.50 5051.29 84.96 13.00 179.58 3249.95
   13:10:39.714.27-Aug-2021 4901.50 5051.30 84.96 13.00 179.78 3249.95
   13:10:39.914.27-Aug-2021 4901.50 5051.20 84.96 13.00 179.98 3249.95
   13:10:40.114.27-Aug-2021 4901.50 5051.41 84.96 13.00 180.18 3249.95
   13:10:40.314.27-Aug-2021 4901.50 5051.41 84.96 13.00 180.38 3249.95
   13:10:40.515.27-Aug-2021 4901.50 5051.35 84.96 13.00 180.58 3249.95
   13:10:40.715.27-Aug-2021 4901.50 5051.34 84.96 13.00 180.78 3249.95
