~Version Information
 VERS.                  2.0:   CWLS log ASCII Standard -VERSION 2.0
 WRAP.                   NO:   One line per depth step
~Well Information Block
#MNEM.UNIT     VALUE/NAME     DESCRIPTION
#---------     -----------    ---------------------------
 STRT.S             07:19:48 27-Aug-21: START TIME 07:19:48 27-Aug-21
 STOP.S             07:26:57 27-Aug-21: STOP TIME  07:26:57 27-Aug-21
 STEP.S                   0.00: STEP TIME
 NULL.                 -999.25: NULL VALUE
 DFWT.                        :  DIST FWL TEXT
 DFST.                        :  DIST FSL TEXT
 DMF .             Drill Floor:  DRILL MEAS FROM
 STIM.      20.00.00 17-Aug-21:  START TIME
 DATE.      19.00.00 29-Aug-21:  END TIME
 SPUD.               15-Aug-21:  SPUD DATE
 NREF.                    Grid:  NORTH REFERENCE
 HPTY.       Minimum Curvature:  HOLE POS TYPE
 DMOD.             Drill Model:  DRILL MOD DESC
 SVYD.                  Survey:  SURVEY DESC
 ILTD.               Lithology:  INTERP LTH DESC
 FTOP.          Formation Tops:  FORM TOPS DESC
 RIG .              East Azeri:  RIG NAME
 PDAT.          Mean Sea Level:  PERMANENT DATUM
 FLD .                     ACG:  FIELD NAME
 SON .        AZ-XX-0907180857:  JOB NUMBER
 CTRY.              Azerbaijan:  COUNTRY NAME
 WELL.                    D23x:  WELL NAME
 SRVC.     Turan Drilling and Engineering:  CONTRACTOR
 COMP.     BP Exploration (Caspian Sea) Ltd.:  COMPANY
 UWI .            /AZE00000214:  UNIQUE WELL IDENTIFIER
 API .            /AZE00000214:  API NUMBER
 MDS .        Operator Entered:  MAG DATA SOURCE
 BASE.              Azerbaijan:  LOGGING EQUIPMENT BASE LOCATION
 REGN.                   EESSA:  REGION
 PROV.                    Baku:  PROVINCE
 STAT.                    Baku:  STATE NAME
 MWDS.                    Baku:  MWD SHOP
 DOE .                     N/A:  DOE NUMBER
 DCON.         Sperry Drilling:  DIRECTNL CONTR
 UNIT.                     N/A:  LOGGING EQUIPMENT ID
 WTYP.                Deviated:  WELL TYPE
 CNTY.                        :  COUNTY
 LOC .                        :  LOCATION
 LMF .             Drill Floor:  LOG MEASURED FROM
 TVDS.m                  43.60:  TVDSS CORRECTN
 LATI.deg                40.02:  LATITUDE
 LONG.deg                51.45:  LONGITUDE
 WHNS.m                  -7.04:  WELL HEAD N/S
 WHEW.m                  -0.67:  WELL HEAD E/W
 UTMX.m              538762.90:  UTM X
 UTMY.m             4431871.34:  UTM Y
 DFWL.m                   0.00:  DISTANCE FWL
 DFSL.m                   0.00:  DISTANCE FSL
 SDEP.m                4127.00:  START DEPTH
 TDD .m                5084.50:  TOTAL DEPTH (DRILLER)
 VSDR.deg               140.47:  VERT SEC DIRECT
 GVFD.g                   1.00:  GRAVITY FIELD
 MFLD.nT              50362.00:  MAGNETIC FIELD
 MDIP.deg                59.48:  MAGNETIC DIP
 MDEC.deg                 6.47:  MAGNETIC DECL
 GRDC.deg                 0.31:  GRID CORRECTION
 AZTC.deg                 6.16:  AZM TOTAL CORR
 EPD .m                   0.00:  ELEVATION
 EGL .m                   0.00:  GROUND ELEVATION
 WDMS.m                 151.80:  WD ELEV
 APD .m                  43.60:  DEPTH ABOVE PD
 DEP .m                4092.57:  DEPTH
 AGAP.m                  43.60:  AIR GAP
 VSEW.m                  -0.67:  VERT SEC E/W
 VSNS.m                  -7.04:  VERT SEC N/S
 EKB .m                  43.60:  KB ELEVATION
 EDF .m                  43.60:  DF ELEVATION
 TDL .m                 957.50:  TOTAL DEPTH (LOGGER)
 VSC .                       0:  VS TO CLOSURE
 MAGU.                 1851413:  MAGUTM CHECKSUM
~Parameter Information Block
#MNEM.UNIT       Value        Description
#---------     -----------    ---------------------------
 AV  .mps                 1.50:  Ann Velocity 
 AVMX.mps                 2.00:  Max Ann Veloc 
 AZIF.deg               184.66:  Azm, Final 
 BHAT.        Rotary Steerable:  BHA Type 
 BREV.rev               300.00:  Rev Bit Total 
 BROT.°/30m              -0.50:  Build Rotating 
 BS  .in                  8.50:  Bit Size 
 BSZ .in                  8.50:  Bit Size 
 BTPL.psig              370.00:  Bit Press Loss 
 CABU.                      No:  Customer Abuse 
 CGEO.      Behruz Shahbaliyev:  Customer Geo 
 COMM.                     Ô‘[:  Run Comments 1 
 TCS .hr                140.08:  Time Ciculation Ended 
 CV  .mps                 3.00:  Crit Velocity 
 CVMX.mps                 3.20:  Max Crit Veloc 
 DD1 .            Musa Ahmadov:  Direct Drillr 1 
 DD2 .           Hamid Ahmadov:  Direct Drillr 2 
 DDSV.               Geo-Pilot:  DD Service 
 DEFF.%                  98.40:  % Det Eff 
 DLRX.°/30m               3.40:  Dogleg Rot Max 
 DLSO.°/30m               1.45:  Dogleg Oriented 
 DLSX.°/30m               3.40:  Dogleg Str Max 
 DRET.      18.40.00 29-Aug-21:  Drill End Time 
 DRST.      21.00.00 20-Aug-21:  Drill Start Tim 
 DTIM.hr                 69.47:  Time Drilling 
 EDEP.m                5084.50:  End Depth 
 ENG1.      Artemiy Matviyanov:  Engineer 1 
 ENG2.         Almaz Almadatov:  Engineer 2 
 ETIM.      18.40.00 29-Aug-21:  End Time 
 FLOI.gpm               500.00:  Flow In 
 FLON.gpm               400.00:  Flow In Min 
 FLOS.cptm                0.00:  Fluid Loss 
 FLOX.gpm               500.00:  Flow In Max 
 DFT .        Mineral Oil Base:  Mud Type 
 HFLO.                      No:  High Flow 
 HPRE.                      No:  High Pressure 
 HTEM.                      No:  High Temp 
 HYDO.m                   1.80:  Hydro Offset 
 IFIN.deg                25.62:  Inc, Final 
 IMAX.deg                48.69:  Inc Max 
 IMIN.deg                24.01:  Inc Min 
 IMND.m                4962.57:  Inc Min Depth 
 IMXD.m                4119.01:  Inc Max Depth 
 JARR.                      No:  Jarring 
 LETM.      18.40.00 29-Aug-21:  Log End Time 
 LOST.hr                     0:  Lost Rig Time 
 LSTM.      21.00.00 20-Aug-21:  Log Start Time 
 MDCL.ppm             41500.00:  Mud Chlorides 
 MDES.     Inversion Oil/Synthetic:  Mud Desc 
 DFD .sg                  1.56:  Mud Density 
 MDMN.sg                  1.56:  Dens Mud Min 
 MDMX.sg                  1.56:  Dens Mud Max 
 MOIL.                      70:  Run Mud Oil % 
 MOWR.                   70:30:  Run Mud OWR 
 MSND.                     0.2:  Run Mud Sand % 
 MSOL.                    23.3:  Run Mud Solids% 
 DFV .spqt               78.00:  Mud Viscosity 
 MWOD.in                  6.75:  MWD Tool OD 
 MWSI.                      No:  Serv Intrp, MWD 
 OTIM.hr                218.30:  Time Operating 
 PCON.           Look Like New:  Pad Condition 
 PMAX.psia            11015.30:  Press Op, Max 
 PV  .cP                 38.00:  Mud PV 
 RUN .                     300:  Run Number 
 ROPA.m/hr               15.00:  ROP Avg 
 ROPN.m/hr                9.00:  ROP Min 
 ROPX.m/hr               17.00:  ROP Max 
 RPMA.rpm               120.00:  RPM Surface Avg 
 RPMN.rpm                90.00:  RPM Surface Min 
 RPMX.rpm               140.00:  RPM Surface Max 
 RRUN.                     300:  Rig Run Number 
 RTIM.hr                 31.53:  Time Reaming 
 SAZI.deg               331.64:  Azm, Start 
 SDEP.m                4127.00:  Start Depth 
 SIDD.                      No:  Serv Intrp, DD 
 SINC.deg                48.43:  Inc, Start 
 SPPA.psig             5830.00:  SPP Avg 
 SPPN.psig             5600.00:  SPP Min 
 SPPX.psig             5900.00:  SPP Max 
 STIM.      21.00.00 20-Aug-21:  Start Time 
 SVCS.                 DD, MWD:  Services 
 SVER.                    9.20:  Sperry Version 
 TDAT.m                 957.50:  Tot Depth Attmp 
 TDDF.                      No:  Trip for DD 
 TDLG.m                 957.50:  Tot Depth Loggd 
 TFF .                      No:  Trip for Fail 
 TQAA.f-kp               15.00:  Torque Abs Avg 
 TQAN.f-kp               12.00:  Torque Abs Min 
 TQAX.f-kp               19.00:  Torque Abs Max 
 TRRT.°/30m              -3.40:  Turn Rotating 
 MRT .                  EWR-M5:  Maximum Recorded Temperature 
 TTMX.degC              100.00:  Max Tool Temp 
 VS01.                90639251:  Virtual Str1 SN 
 VS02.                90634715:  Virtual Str2 SN 
 VS03.                90652479:  Virtual Str3 SN 
 VS04.                90642262:  Virtual Str4 SN 
 WBMN.klb                 0.00:  WOB Min 
 WITN.           Murad Guliyev:  Customer Rep 
 WITN.          Yashar Gaziyev:  Customer Rep 2 
 WOBA.klb                 9.00:  WOB Avg 
 WOBX.klb                12.00:  WOB Max 
 YP  .lhf2               30.00:  Yield Point 
~Curve Information Block
#MNEM.UNIT                 API CODE     Curve Description
#---------               -----------    ---------------------------
 TIME.HHMMSS            00 000 000 000:  GT Time & Date
 GTDEPTH.m              00 000 000 000:  GT Depth
 GTPQH.psia             00 000 000 000:  GT HR Quartz Pressure
 GTTQ.degC              00 000 000 000:  GT Quartz Temperature
 GTTN.NONE              00 000 000 000:  GT Test Number
 GTET.sec               00 000 000 000:  GT Elapsed Test Time
 GTTVD.m                00 000 000 000:  GT True Vertical Depth
#Other Information
#
#WARRANTY: Halliburton will use its best efforts to furnish customers with 
#accurate information and interpretations that are part of, and incident to, the services 
#provided.  However, Halliburton cannot and does not warrant the accuracy 
#or correctness of such information and interpretations.  Under no circumstances should any 
#such information or interpretation be relied upon as the sole basis for any drilling, 
#completion, production, or financial decision or any procedure involving any risk to the 
#safety of any drilling venture, drilling rig or its crew or any other third party.  The 
#Customer has full responsibility for all drilling, completion and production operation.  
#Halliburton makes no representations or warranties, either expressed or 
#implied, including, but not limited to, the implied warranties of merchantability or fitness 
#for a particular purpose, with respect to the services rendered.  In no event will 
#Halliburton be liable for failure to obtain any particular results or for 
#any damages, including, but not limited to, indirect, special or consequential damages, 
#resulting from the use of any information or interpretation provided by Halliburton.
#
~A           TIME           GTDEPTH  GTPQH  GTTQ  GTTN  GTET   GTTVD  
# ...
   07:24:24.309.27-Aug-2021 5010.50 4280.36 87.51 3.00 276.05 3349.10
   07:24:24.509.27-Aug-2021 5010.50 4280.36 87.51 3.00 276.25 3349.10
   07:24:24.709.27-Aug-2021 5010.50 4280.58 87.51 3.00 276.45 3349.10
   07:24:24.909.27-Aug-2021 5010.50 4280.60 87.51 3.00 276.65 3349.10
   07:24:25.109.27-Aug-2021 5010.50 4280.62 87.51 3.00 276.85 3349.10
   07:24:25.309.27-Aug-2021 5010.50 4280.63 87.51 3.00 277.05 3349.10
   07:24:25.509.27-Aug-2021 5010.50 4280.63 87.51 3.00 277.25 3349.10
   07:24:25.709.27-Aug-2021 5010.50 4280.82 87.51 3.00 277.45 3349.10
   07:24:25.909.27-Aug-2021 5010.50 4287.80 87.51 3.00 277.65 3349.10
   07:24:26.109.27-Aug-2021 5010.50 4283.62 87.51 3.00 277.85 3349.10
   07:24:26.309.27-Aug-2021 5010.50 4283.26 87.51 3.00 278.05 3349.10
   07:24:26.509.27-Aug-2021 5010.50 4283.26 87.51 3.00 278.25 3349.10
   07:24:26.709.27-Aug-2021 5010.50 4283.10 87.51 3.00 278.45 3349.10
   07:24:26.909.27-Aug-2021 5010.50 4283.01 87.51 3.00 278.65 3349.10
   07:24:27.109.27-Aug-2021 5010.50 4282.60 87.51 3.00 278.85 3349.10
   07:24:27.309.27-Aug-2021 5010.50 4282.51 87.51 3.00 279.05 3349.10
   07:24:27.509.27-Aug-2021 5010.50 4282.51 87.51 3.00 279.25 3349.10
   07:24:27.710.27-Aug-2021 5010.50 4282.48 87.51 3.00 279.45 3349.10
   07:24:27.910.27-Aug-2021 5010.50 4282.47 87.51 3.00 279.65 3349.10
   07:24:28.110.27-Aug-2021 5010.50 4282.31 87.51 3.00 279.85 3349.10
   07:24:28.310.27-Aug-2021 5010.50 4282.24 87.51 3.00 280.05 3349.10
   07:24:28.510.27-Aug-2021 5010.50 4282.24 87.51 3.00 280.25 3349.10
   07:24:28.710.27-Aug-2021 5010.50 4282.21 87.51 3.00 280.45 3349.10
   07:24:28.910.27-Aug-2021 5010.50 4282.20 87.51 3.00 280.65 3349.10
   07:24:29.110.27-Aug-2021 5010.50 4282.12 87.51 3.00 280.85 3349.10
   07:24:29.310.27-Aug-2021 5010.50 4282.06 87.51 3.00 281.05 3349.10
   07:24:29.510.27-Aug-2021 5010.50 4282.06 87.51 3.00 281.25 3349.10
   07:24:29.710.27-Aug-2021 5010.50 4282.04 87.51 3.00 281.45 3349.10
   07:24:29.910.27-Aug-2021 5010.50 4282.05 87.51 3.00 281.65 3349.10
   07:24:30.110.27-Aug-2021 5010.50 4282.03 87.51 3.00 281.85 3349.10
   07:24:30.310.27-Aug-2021 5010.50 4282.03 87.51 3.00 282.05 3349.10
   07:24:30.510.27-Aug-2021 5010.50 4282.03 87.51 3.00 282.25 3349.10
   07:24:30.710.27-Aug-2021 5010.50 4282.01 87.51 3.00 282.45 3349.10
   07:24:30.910.27-Aug-2021 5010.50 4282.00 87.51 3.00 282.65 3349.10
   07:24:31.110.27-Aug-2021 5010.50 4281.99 87.51 3.00 282.85 3349.10
   07:24:31.310.27-Aug-2021 5010.50 4281.98 87.51 3.00 283.05 3349.10
   07:24:31.510.27-Aug-2021 5010.50 4281.98 87.51 3.00 283.25 3349.10
   07:24:31.710.27-Aug-2021 5010.50 4281.97 87.51 3.00 283.45 3349.10
   07:24:31.910.27-Aug-2021 5010.50 4281.96 87.51 3.00 283.65 3349.10
   07:24:32.110.27-Aug-2021 5010.50 4281.95 87.51 3.00 283.85 3349.10
   07:24:32.310.27-Aug-2021 5010.50 4281.91 87.51 3.00 284.05 3349.10
   07:24:32.510.27-Aug-2021 5010.50 4281.91 87.51 3.00 284.25 3349.10
   07:24:32.710.27-Aug-2021 5010.50 4281.88 87.50 3.00 284.45 3349.10
   07:24:32.910.27-Aug-2021 5010.50 4281.88 87.50 3.00 284.65 3349.10
   07:24:33.110.27-Aug-2021 5010.50 4281.88 87.50 3.00 284.85 3349.10
   07:24:33.310.27-Aug-2021 5010.50 4281.87 87.50 3.00 285.05 3349.10
   07:24:33.510.27-Aug-2021 5010.50 4281.87 87.50 3.00 285.25 3349.10
   07:24:33.711.27-Aug-2021 5010.50 4281.86 87.50 3.00 285.45 3349.10
   07:24:33.911.27-Aug-2021 5010.50 4281.85 87.50 3.00 285.65 3349.10
   07:24:34.111.27-Aug-2021 5010.50 4281.84 87.50 3.00 285.85 3349.10
   07:24:34.311.27-Aug-2021 5010.50 4281.83 87.50 3.00 286.05 3349.10
   07:24:34.511.27-Aug-2021 5010.50 4281.83 87.50 3.00 286.25 3349.10
   07:24:34.711.27-Aug-2021 5010.50 4281.81 87.50 3.00 286.45 3349.10
   07:24:34.911.27-Aug-2021 5010.50 4281.82 87.50 3.00 286.65 3349.10
   07:24:35.111.27-Aug-2021 5010.50 4281.81 87.50 3.00 286.85 3349.10
   07:24:35.311.27-Aug-2021 5010.50 4281.81 87.50 3.00 287.05 3349.10
   07:24:35.511.27-Aug-2021 5010.50 4281.81 87.50 3.00 287.25 3349.10
   07:24:35.711.27-Aug-2021 5010.50 4281.79 87.50 3.00 287.45 3349.10
   07:24:35.911.27-Aug-2021 5010.50 4281.77 87.50 3.00 287.65 3349.10
   07:24:36.111.27-Aug-2021 5010.50 4281.77 87.50 3.00 287.85 3349.10
   07:24:36.311.27-Aug-2021 5010.50 4281.77 87.50 3.00 288.05 3349.10
   07:24:36.511.27-Aug-2021 5010.50 4281.77 87.50 3.00 288.25 3349.10
   07:24:36.711.27-Aug-2021 5010.50 4281.75 87.50 3.00 288.45 3349.10
   07:24:36.911.27-Aug-2021 5010.50 4281.75 87.50 3.00 288.65 3349.10
   07:24:37.111.27-Aug-2021 5010.50 4281.75 87.50 3.00 288.85 3349.10
   07:24:37.311.27-Aug-2021 5010.50 4281.73 87.50 3.00 289.05 3349.10
   07:24:37.511.27-Aug-2021 5010.50 4281.73 87.50 3.00 289.25 3349.10
   07:24:37.711.27-Aug-2021 5010.50 4281.73 87.50 3.00 289.45 3349.10
   07:24:37.911.27-Aug-2021 5010.50 4281.72 87.50 3.00 289.65 3349.10
   07:24:38.111.27-Aug-2021 5010.50 4281.70 87.50 3.00 289.85 3349.10
   07:24:38.311.27-Aug-2021 5010.50 4281.70 87.50 3.00 290.05 3349.10
   07:24:38.511.27-Aug-2021 5010.50 4281.70 87.50 3.00 290.25 3349.10
   07:24:38.711.27-Aug-2021 5010.50 4281.68 87.50 3.00 290.45 3349.10
   07:24:38.911.27-Aug-2021 5010.50 4281.68 87.50 3.00 290.65 3349.10
   07:24:39.111.27-Aug-2021 5010.50 4281.68 87.50 3.00 290.85 3349.10
   07:24:39.311.27-Aug-2021 5010.50 4281.68 87.50 3.00 291.05 3349.10
   07:24:39.511.27-Aug-2021 5010.50 4281.68 87.50 3.00 291.25 3349.10
   07:24:39.711.27-Aug-2021 5010.50 4281.66 87.50 3.00 291.45 3349.10
   07:24:39.912.27-Aug-2021 5010.50 4281.65 87.50 3.00 291.65 3349.10
   07:24:40.112.27-Aug-2021 5010.50 4281.65 87.50 3.00 291.85 3349.10
   07:24:40.312.27-Aug-2021 5010.50 4281.64 87.50 3.00 292.05 3349.10
   07:24:40.512.27-Aug-2021 5010.50 4281.64 87.50 3.00 292.25 3349.10
   07:24:40.712.27-Aug-2021 5010.50 4281.62 87.50 3.00 292.45 3349.10
   07:24:40.912.27-Aug-2021 5010.50 4281.62 87.50 3.00 292.65 3349.10
   07:24:41.112.27-Aug-2021 5010.50 4281.61 87.50 3.00 292.85 3349.10
   07:24:41.312.27-Aug-2021 5010.50 4281.60 87.50 3.00 293.05 3349.10
   07:24:41.512.27-Aug-2021 5010.50 4281.60 87.50 3.00 293.25 3349.10
   07:24:41.712.27-Aug-2021 5010.50 4281.60 87.50 3.00 293.45 3349.10
   07:24:41.912.27-Aug-2021 5010.50 4281.60 87.50 3.00 293.65 3349.10
   07:24:42.112.27-Aug-2021 5010.50 4281.60 87.50 3.00 293.85 3349.10
   07:24:42.312.27-Aug-2021 5010.50 4281.62 87.50 3.00 294.05 3349.10
   07:24:42.512.27-Aug-2021 5010.50 4281.62 87.50 3.00 294.25 3349.10
   07:24:42.712.27-Aug-2021 5010.50 4281.60 87.50 3.00 294.45 3349.10
   07:24:42.912.27-Aug-2021 5010.50 4281.60 87.50 3.00 294.65 3349.10
   07:24:43.112.27-Aug-2021 5010.50 4281.60 87.50 3.00 294.85 3349.10
   07:24:43.312.27-Aug-2021 5010.50 4281.59 87.50 3.00 295.05 3349.10
   07:24:43.512.27-Aug-2021 5010.50 4281.59 87.50 3.00 295.25 3349.10
   07:24:43.712.27-Aug-2021 5010.50 4281.57 87.50 3.00 295.45 3349.10
   07:24:43.912.27-Aug-2021 5010.50 4281.57 87.50 3.00 295.65 3349.10
   07:24:44.112.27-Aug-2021 5010.50 4281.57 87.50 3.00 295.85 3349.10
   07:24:44.312.27-Aug-2021 5010.50 4281.56 87.50 3.00 296.05 3349.10
   07:24:44.512.27-Aug-2021 5010.50 4281.56 87.50 3.00 296.25 3349.10
   07:24:44.712.27-Aug-2021 5010.50 4281.55 87.50 3.00 296.45 3349.10
   07:24:44.912.27-Aug-2021 5010.50 4281.54 87.50 3.00 296.65 3349.10
   07:24:45.112.27-Aug-2021 5010.50 4281.54 87.50 3.00 296.85 3349.10
   07:24:45.312.27-Aug-2021 5010.50 4281.53 87.50 3.00 297.05 3349.10
   07:24:45.512.27-Aug-2021 5010.50 4281.53 87.50 3.00 297.25 3349.10
   07:24:45.712.27-Aug-2021 5010.50 4281.57 87.50 3.00 297.45 3349.10
   07:24:45.913.27-Aug-2021 5010.50 4281.57 87.50 3.00 297.65 3349.10
   07:24:46.113.27-Aug-2021 5010.50 4281.55 87.50 3.00 297.85 3349.10
   07:24:46.313.27-Aug-2021 5010.50 4281.55 87.50 3.00 298.05 3349.10
   07:24:46.513.27-Aug-2021 5010.50 4281.55 87.50 3.00 298.25 3349.10
   07:24:46.713.27-Aug-2021 5010.50 4281.54 87.50 3.00 298.45 3349.10
   07:24:46.913.27-Aug-2021 5010.50 4281.54 87.50 3.00 298.65 3349.10
   07:24:47.113.27-Aug-2021 5010.50 4281.57 87.50 3.00 298.85 3349.10
