~Version Information
 VERS.                  2.0:   CWLS log ASCII Standard -VERSION 2.0
 WRAP.                   NO:   One line per depth step
~Well Information Block
#MNEM.UNIT     VALUE/NAME     DESCRIPTION
#---------     -----------    ---------------------------
 STRT.S             14:18:21 27-Aug-21: START TIME 14:18:21 27-Aug-21
 STOP.S             14:25:11 27-Aug-21: STOP TIME  14:25:11 27-Aug-21
 STEP.S                   0.00: STEP TIME
 NULL.                 -999.25: NULL VALUE
 DFWT.                        :  DIST FWL TEXT
 DFST.                        :  DIST FSL TEXT
 DMF .             Drill Floor:  DRILL MEAS FROM
 STIM.      20.00.00 17-Aug-21:  START TIME
 DATE.      19.00.00 29-Aug-21:  END TIME
 SPUD.               15-Aug-21:  SPUD DATE
 NREF.                    Grid:  NORTH REFERENCE
 HPTY.       Minimum Curvature:  HOLE POS TYPE
 DMOD.             Drill Model:  DRILL MOD DESC
 SVYD.                  Survey:  SURVEY DESC
 ILTD.               Lithology:  INTERP LTH DESC
 FTOP.          Formation Tops:  FORM TOPS DESC
 RIG .              East Azeri:  RIG NAME
 PDAT.          Mean Sea Level:  PERMANENT DATUM
 FLD .                     ACG:  FIELD NAME
 SON .        AZ-XX-0907180857:  JOB NUMBER
 CTRY.              Azerbaijan:  COUNTRY NAME
 WELL.                    D23x:  WELL NAME
 SRVC.     Turan Drilling and Engineering:  CONTRACTOR
 COMP.     BP Exploration (Caspian Sea) Ltd.:  COMPANY
 UWI .            /AZE00000214:  UNIQUE WELL IDENTIFIER
 API .            /AZE00000214:  API NUMBER
 MDS .        Operator Entered:  MAG DATA SOURCE
 BASE.              Azerbaijan:  LOGGING EQUIPMENT BASE LOCATION
 REGN.                   EESSA:  REGION
 PROV.                    Baku:  PROVINCE
 STAT.                    Baku:  STATE NAME
 MWDS.                    Baku:  MWD SHOP
 DOE .                     N/A:  DOE NUMBER
 DCON.         Sperry Drilling:  DIRECTNL CONTR
 UNIT.                     N/A:  LOGGING EQUIPMENT ID
 WTYP.                Deviated:  WELL TYPE
 CNTY.                        :  COUNTY
 LOC .                        :  LOCATION
 LMF .             Drill Floor:  LOG MEASURED FROM
 TVDS.m                  43.60:  TVDSS CORRECTN
 LATI.deg                40.02:  LATITUDE
 LONG.deg                51.45:  LONGITUDE
 WHNS.m                  -7.04:  WELL HEAD N/S
 WHEW.m                  -0.67:  WELL HEAD E/W
 UTMX.m              538762.90:  UTM X
 UTMY.m             4431871.34:  UTM Y
 DFWL.m                   0.00:  DISTANCE FWL
 DFSL.m                   0.00:  DISTANCE FSL
 SDEP.m                4127.00:  START DEPTH
 TDD .m                5084.50:  TOTAL DEPTH (DRILLER)
 VSDR.deg               140.47:  VERT SEC DIRECT
 GVFD.g                   1.00:  GRAVITY FIELD
 MFLD.nT              50362.00:  MAGNETIC FIELD
 MDIP.deg                59.48:  MAGNETIC DIP
 MDEC.deg                 6.47:  MAGNETIC DECL
 GRDC.deg                 0.31:  GRID CORRECTION
 AZTC.deg                 6.16:  AZM TOTAL CORR
 EPD .m                   0.00:  ELEVATION
 EGL .m                   0.00:  GROUND ELEVATION
 WDMS.m                 151.80:  WD ELEV
 APD .m                  43.60:  DEPTH ABOVE PD
 DEP .m                4092.57:  DEPTH
 AGAP.m                  43.60:  AIR GAP
 VSEW.m                  -0.67:  VERT SEC E/W
 VSNS.m                  -7.04:  VERT SEC N/S
 EKB .m                  43.60:  KB ELEVATION
 EDF .m                  43.60:  DF ELEVATION
 TDL .m                 957.50:  TOTAL DEPTH (LOGGER)
 VSC .                       0:  VS TO CLOSURE
 MAGU.                 1851413:  MAGUTM CHECKSUM
~Parameter Information Block
#MNEM.UNIT       Value        Description
#---------     -----------    ---------------------------
 AV  .mps                 1.50:  Ann Velocity 
 AVMX.mps                 2.00:  Max Ann Veloc 
 AZIF.deg               184.66:  Azm, Final 
 BHAT.        Rotary Steerable:  BHA Type 
 BREV.rev               300.00:  Rev Bit Total 
 BROT.°/30m              -0.50:  Build Rotating 
 BS  .in                  8.50:  Bit Size 
 BSZ .in                  8.50:  Bit Size 
 BTPL.psig              370.00:  Bit Press Loss 
 CABU.                      No:  Customer Abuse 
 CGEO.      Behruz Shahbaliyev:  Customer Geo 
 COMM.                     LAp:  Run Comments 1 
 TCS .hr                140.08:  Time Ciculation Ended 
 CV  .mps                 3.00:  Crit Velocity 
 CVMX.mps                 3.20:  Max Crit Veloc 
 DD1 .            Musa Ahmadov:  Direct Drillr 1 
 DD2 .           Hamid Ahmadov:  Direct Drillr 2 
 DDSV.               Geo-Pilot:  DD Service 
 DEFF.%                  98.40:  % Det Eff 
 DLRX.°/30m               3.40:  Dogleg Rot Max 
 DLSO.°/30m               1.45:  Dogleg Oriented 
 DLSX.°/30m               3.40:  Dogleg Str Max 
 DRET.      18.40.00 29-Aug-21:  Drill End Time 
 DRST.      21.00.00 20-Aug-21:  Drill Start Tim 
 DTIM.hr                 69.47:  Time Drilling 
 EDEP.m                5084.50:  End Depth 
 ENG1.      Artemiy Matviyanov:  Engineer 1 
 ENG2.         Almaz Almadatov:  Engineer 2 
 ETIM.      18.40.00 29-Aug-21:  End Time 
 FLOI.gpm               500.00:  Flow In 
 FLON.gpm               400.00:  Flow In Min 
 FLOS.cptm                0.00:  Fluid Loss 
 FLOX.gpm               500.00:  Flow In Max 
 DFT .        Mineral Oil Base:  Mud Type 
 HFLO.                      No:  High Flow 
 HPRE.                      No:  High Pressure 
 HTEM.                      No:  High Temp 
 HYDO.m                   1.80:  Hydro Offset 
 IFIN.deg                25.62:  Inc, Final 
 IMAX.deg                48.69:  Inc Max 
 IMIN.deg                24.01:  Inc Min 
 IMND.m                4962.57:  Inc Min Depth 
 IMXD.m                4119.01:  Inc Max Depth 
 JARR.                      No:  Jarring 
 LETM.      18.40.00 29-Aug-21:  Log End Time 
 LOST.hr                     0:  Lost Rig Time 
 LSTM.      21.00.00 20-Aug-21:  Log Start Time 
 MDCL.ppm             41500.00:  Mud Chlorides 
 MDES.     Inversion Oil/Synthetic:  Mud Desc 
 DFD .sg                  1.56:  Mud Density 
 MDMN.sg                  1.56:  Dens Mud Min 
 MDMX.sg                  1.56:  Dens Mud Max 
 MOIL.                      70:  Run Mud Oil % 
 MOWR.                   70:30:  Run Mud OWR 
 MSND.                     0.2:  Run Mud Sand % 
 MSOL.                    23.3:  Run Mud Solids% 
 DFV .spqt               78.00:  Mud Viscosity 
 MWOD.in                  6.75:  MWD Tool OD 
 MWSI.                      No:  Serv Intrp, MWD 
 OTIM.hr                218.30:  Time Operating 
 PCON.           Look Like New:  Pad Condition 
 PMAX.psia            11015.30:  Press Op, Max 
 PV  .cP                 38.00:  Mud PV 
 RUN .                     300:  Run Number 
 ROPA.m/hr               15.00:  ROP Avg 
 ROPN.m/hr                9.00:  ROP Min 
 ROPX.m/hr               17.00:  ROP Max 
 RPMA.rpm               120.00:  RPM Surface Avg 
 RPMN.rpm                90.00:  RPM Surface Min 
 RPMX.rpm               140.00:  RPM Surface Max 
 RRUN.                     300:  Rig Run Number 
 RTIM.hr                 31.53:  Time Reaming 
 SAZI.deg               331.64:  Azm, Start 
 SDEP.m                4127.00:  Start Depth 
 SIDD.                      No:  Serv Intrp, DD 
 SINC.deg                48.43:  Inc, Start 
 SPPA.psig             5830.00:  SPP Avg 
 SPPN.psig             5600.00:  SPP Min 
 SPPX.psig             5900.00:  SPP Max 
 STIM.      21.00.00 20-Aug-21:  Start Time 
 SVCS.                 DD, MWD:  Services 
 SVER.                    9.20:  Sperry Version 
 TDAT.m                 957.50:  Tot Depth Attmp 
 TDDF.                      No:  Trip for DD 
 TDLG.m                 957.50:  Tot Depth Loggd 
 TFF .                      No:  Trip for Fail 
 TQAA.f-kp               15.00:  Torque Abs Avg 
 TQAN.f-kp               12.00:  Torque Abs Min 
 TQAX.f-kp               19.00:  Torque Abs Max 
 TRRT.°/30m              -3.40:  Turn Rotating 
 MRT .                  EWR-M5:  Maximum Recorded Temperature 
 TTMX.degC              100.00:  Max Tool Temp 
 VS01.                90639251:  Virtual Str1 SN 
 VS02.                90634715:  Virtual Str2 SN 
 VS03.                90652479:  Virtual Str3 SN 
 VS04.                90642262:  Virtual Str4 SN 
 WBMN.klb                 0.00:  WOB Min 
 WITN.           Murad Guliyev:  Customer Rep 
 WITN.          Yashar Gaziyev:  Customer Rep 2 
 WOBA.klb                 9.00:  WOB Avg 
 WOBX.klb                12.00:  WOB Max 
 YP  .lhf2               30.00:  Yield Point 
~Curve Information Block
#MNEM.UNIT                 API CODE     Curve Description
#---------               -----------    ---------------------------
 TIME.HHMMSS            00 000 000 000:  GT Time & Date
 GTDEPTH.m              00 000 000 000:  GT Depth
 GTPQH.psia             00 000 000 000:  GT HR Quartz Pressure
 GTTQ.degC              00 000 000 000:  GT Quartz Temperature
 GTTN.NONE              00 000 000 000:  GT Test Number
 GTET.sec               00 000 000 000:  GT Elapsed Test Time
 GTTVD.m                00 000 000 000:  GT True Vertical Depth
#Other Information
#
#WARRANTY: Halliburton will use its best efforts to furnish customers with 
#accurate information and interpretations that are part of, and incident to, the services 
#provided.  However, Halliburton cannot and does not warrant the accuracy 
#or correctness of such information and interpretations.  Under no circumstances should any 
#such information or interpretation be relied upon as the sole basis for any drilling, 
#completion, production, or financial decision or any procedure involving any risk to the 
#safety of any drilling venture, drilling rig or its crew or any other third party.  The 
#Customer has full responsibility for all drilling, completion and production operation.  
#Halliburton makes no representations or warranties, either expressed or 
#implied, including, but not limited to, the implied warranties of merchantability or fitness 
#for a particular purpose, with respect to the services rendered.  In no event will 
#Halliburton be liable for failure to obtain any particular results or for 
#any damages, including, but not limited to, indirect, special or consequential damages, 
#resulting from the use of any information or interpretation provided by Halliburton.
#
~A           TIME           GTDEPTH  GTPQH  GTTQ  GTTN   GTET   GTTVD  
# ...
   14:24:00.000.27-Aug-2021 4859.50 3075.26 84.40 15.00 339.00 3211.87
   14:24:00.200.27-Aug-2021 4859.50 3075.26 84.40 15.00 339.20 3211.87
   14:24:00.400.27-Aug-2021 4859.50 3082.91 84.40 15.00 339.40 3211.87
   14:24:00.600.27-Aug-2021 4859.50 3086.67 84.40 15.00 339.60 3211.87
   14:24:00.800.27-Aug-2021 4859.50 3090.50 84.40 15.00 339.80 3211.87
   14:24:01.000.27-Aug-2021 4859.50 3094.21 84.40 15.00 340.00 3211.87
   14:24:01.200.27-Aug-2021 4859.50 3094.21 84.40 15.00 340.20 3211.87
   14:24:01.400.27-Aug-2021 4859.50 3101.08 84.40 15.00 340.40 3211.87
   14:24:01.600.27-Aug-2021 4859.50 3104.46 84.40 15.00 340.60 3211.87
   14:24:01.800.27-Aug-2021 4859.50 3107.57 84.40 15.00 340.80 3211.87
   14:24:02.000.27-Aug-2021 4859.50 3110.38 84.40 15.00 341.00 3211.87
   14:24:02.200.27-Aug-2021 4859.50 3110.38 84.40 15.00 341.20 3211.87
   14:24:02.400.27-Aug-2021 4859.50 3117.46 84.40 15.00 341.40 3211.87
   14:24:02.600.27-Aug-2021 4859.50 3120.50 84.40 15.00 341.60 3211.87
   14:24:02.800.27-Aug-2021 4859.50 3124.24 84.40 15.00 341.80 3211.87
   14:24:03.000.27-Aug-2021 4859.50 3127.97 84.40 15.00 342.00 3211.87
   14:24:03.200.27-Aug-2021 4859.50 3127.97 84.40 15.00 342.20 3211.87
   14:24:03.400.27-Aug-2021 4859.50 3135.35 84.40 15.00 342.40 3211.87
   14:24:03.600.27-Aug-2021 4859.50 3139.13 84.40 15.00 342.60 3211.87
   14:24:03.800.27-Aug-2021 4859.50 3142.07 84.40 15.00 342.80 3211.87
   14:24:04.000.27-Aug-2021 4859.50 3146.01 84.40 15.00 343.00 3211.87
   14:24:04.200.27-Aug-2021 4859.50 3146.01 84.40 15.00 343.20 3211.87
   14:24:04.400.27-Aug-2021 4859.50 3152.20 84.40 15.00 343.40 3211.87
   14:24:04.600.27-Aug-2021 4859.50 3155.37 84.40 15.00 343.60 3211.87
   14:24:04.800.27-Aug-2021 4859.50 3158.60 84.40 15.00 343.80 3211.87
   14:24:05.000.27-Aug-2021 4859.50 3162.42 84.40 15.00 344.00 3211.87
   14:24:05.200.27-Aug-2021 4859.50 3162.42 84.40 15.00 344.20 3211.87
   14:24:05.400.27-Aug-2021 4859.50 3169.53 84.40 15.00 344.40 3211.87
   14:24:05.600.27-Aug-2021 4859.50 3173.10 84.40 15.00 344.60 3211.87
   14:24:05.800.27-Aug-2021 4859.50 3176.83 84.40 15.00 344.80 3211.87
   14:24:06.000.27-Aug-2021 4859.50 3180.41 84.40 15.00 345.00 3211.87
   14:24:06.200.27-Aug-2021 4859.50 3180.41 84.40 15.00 345.20 3211.87
   14:24:06.400.27-Aug-2021 4859.50 3187.72 84.40 15.00 345.40 3211.87
   14:24:06.600.27-Aug-2021 4859.50 3191.28 84.40 15.00 345.60 3211.87
   14:24:06.800.27-Aug-2021 4859.50 3194.24 84.40 15.00 345.80 3211.87
   14:24:07.000.27-Aug-2021 4859.50 3197.25 84.40 15.00 346.00 3211.87
   14:24:07.200.27-Aug-2021 4859.50 3197.25 84.40 15.00 346.20 3211.87
   14:24:07.400.27-Aug-2021 4859.50 3204.29 84.40 15.00 346.40 3211.87
   14:24:07.600.27-Aug-2021 4859.50 3207.94 84.40 15.00 346.60 3211.87
   14:24:07.800.27-Aug-2021 4859.50 3211.51 84.40 15.00 346.80 3211.87
   14:24:08.000.27-Aug-2021 4859.50 3214.56 84.40 15.00 347.00 3211.87
   14:24:08.200.27-Aug-2021 4859.50 3214.56 84.40 15.00 347.20 3211.87
   14:24:08.400.27-Aug-2021 4859.50 3221.16 84.40 15.00 347.40 3211.87
   14:24:08.600.27-Aug-2021 4859.50 3224.77 84.40 15.00 347.60 3211.87
   14:24:08.800.27-Aug-2021 4859.50 3228.25 84.40 15.00 347.80 3211.87
   14:24:09.000.27-Aug-2021 4859.50 3231.89 84.40 15.00 348.00 3211.87
   14:24:09.200.27-Aug-2021 4859.50 3231.89 84.40 15.00 348.20 3211.87
   14:24:09.400.27-Aug-2021 4859.50 3237.84 84.40 15.00 348.40 3211.87
   14:24:09.600.27-Aug-2021 4859.50 3241.05 84.40 15.00 348.60 3211.87
   14:24:09.800.27-Aug-2021 4859.50 3244.55 84.40 15.00 348.80 3211.87
   14:24:10.000.27-Aug-2021 4859.50 3248.12 84.40 15.00 349.00 3211.87
   14:24:10.200.27-Aug-2021 4859.50 3248.12 84.40 15.00 349.20 3211.87
   14:24:10.400.27-Aug-2021 4859.50 3255.24 84.40 15.00 349.40 3211.87
   14:24:10.600.27-Aug-2021 4859.50 3258.68 84.40 15.00 349.60 3211.87
   14:24:10.800.27-Aug-2021 4859.50 3262.29 84.40 15.00 349.80 3211.87
   14:24:11.000.27-Aug-2021 4859.50 3265.71 84.40 15.00 350.00 3211.87
   14:24:11.200.27-Aug-2021 4859.50 3265.71 84.40 15.00 350.20 3211.87
   14:24:11.400.27-Aug-2021 4859.50 3271.77 84.40 15.00 350.40 3211.87
   14:24:11.600.27-Aug-2021 4859.50 3274.90 84.40 15.00 350.60 3211.87
   14:24:11.800.27-Aug-2021 4859.50 3278.29 84.40 15.00 350.80 3211.87
   14:24:12.000.27-Aug-2021 4859.50 3280.72 84.40 15.00 351.00 3211.87
   14:24:12.200.27-Aug-2021 4859.50 3280.72 84.40 15.00 351.20 3211.87
   14:24:12.400.27-Aug-2021 4859.50 3286.78 84.40 15.00 351.40 3211.87
   14:24:12.600.27-Aug-2021 4859.50 3289.91 84.40 15.00 351.60 3211.87
   14:24:12.800.27-Aug-2021 4859.50 3293.36 84.40 15.00 351.80 3211.87
   14:24:13.000.27-Aug-2021 4859.50 3296.11 84.40 15.00 352.00 3211.87
   14:24:13.200.27-Aug-2021 4859.50 3296.11 84.40 15.00 352.20 3211.87
   14:24:13.400.27-Aug-2021 4859.50 3303.00 84.40 15.00 352.40 3211.87
   14:24:13.600.27-Aug-2021 4859.50 3306.48 84.40 15.00 352.60 3211.87
   14:24:13.800.27-Aug-2021 4859.50 3309.88 84.40 15.00 352.80 3211.87
   14:24:14.000.27-Aug-2021 4859.50 3313.40 84.40 15.00 353.00 3211.87
   14:24:14.200.27-Aug-2021 4859.50 3313.40 84.40 15.00 353.20 3211.87
   14:24:14.400.27-Aug-2021 4859.50 3319.74 84.40 15.00 353.40 3211.87
   14:24:14.600.27-Aug-2021 4859.50 3322.42 84.40 15.00 353.60 3211.87
   14:24:14.800.27-Aug-2021 4859.50 3325.09 84.40 15.00 353.80 3211.87
   14:24:15.000.27-Aug-2021 4859.50 3328.18 84.40 15.00 354.00 3211.87
   14:24:15.200.27-Aug-2021 4859.50 3328.18 84.40 15.00 354.20 3211.87
   14:24:15.400.27-Aug-2021 4859.50 3334.98 84.40 15.00 354.40 3211.87
   14:24:15.600.27-Aug-2021 4859.50 3338.35 84.40 15.00 354.60 3211.87
   14:24:15.800.27-Aug-2021 4859.50 3341.85 84.40 15.00 354.80 3211.87
   14:24:16.000.27-Aug-2021 4859.50 3345.22 84.40 15.00 355.00 3211.87
   14:24:16.200.27-Aug-2021 4859.50 3345.22 84.40 15.00 355.20 3211.87
   14:24:16.400.27-Aug-2021 4859.50 3352.06 84.41 15.00 355.40 3211.87
   14:24:16.600.27-Aug-2021 4859.50 3355.42 84.41 15.00 355.60 3211.87
   14:24:16.800.27-Aug-2021 4859.50 3358.81 84.40 15.00 355.80 3211.87
   14:24:17.000.27-Aug-2021 4859.50 3362.09 84.41 15.00 356.00 3211.87
   14:24:17.200.27-Aug-2021 4859.50 3362.09 84.41 15.00 356.20 3211.87
   14:24:17.400.27-Aug-2021 4859.50 3367.07 84.41 15.00 356.40 3211.87
   14:24:17.600.27-Aug-2021 4859.50 3369.98 84.41 15.00 356.60 3211.87
   14:24:17.800.27-Aug-2021 4859.50 3372.90 84.41 15.00 356.80 3211.87
   14:24:18.000.27-Aug-2021 4859.50 3376.26 84.41 15.00 357.00 3211.87
   14:24:18.200.27-Aug-2021 4859.50 3376.26 84.41 15.00 357.20 3211.87
   14:24:18.400.27-Aug-2021 4859.50 3382.93 84.41 15.00 357.40 3211.87
   14:24:18.600.27-Aug-2021 4859.50 3386.26 84.41 15.00 357.60 3211.87
   14:24:18.800.27-Aug-2021 4859.50 3389.56 84.41 15.00 357.80 3211.87
   14:24:19.000.27-Aug-2021 4859.50 3392.97 84.41 15.00 358.00 3211.87
   14:24:19.200.27-Aug-2021 4859.50 3392.97 84.41 15.00 358.20 3211.87
   14:24:19.400.27-Aug-2021 4859.50 3399.62 84.41 15.00 358.40 3211.87
   14:24:19.600.27-Aug-2021 4859.50 3402.87 84.41 15.00 358.60 3211.87
   14:24:19.800.27-Aug-2021 4859.50 3405.93 84.41 15.00 358.80 3211.87
   14:24:20.000.27-Aug-2021 4859.50 3408.42 84.41 15.00 359.00 3211.87
   14:24:20.200.27-Aug-2021 4859.50 3408.42 84.41 15.00 359.20 3211.87
   14:24:20.400.27-Aug-2021 4859.50 3414.58 84.41 15.00 359.40 3211.87
   14:24:20.600.27-Aug-2021 4859.50 3417.23 84.41 15.00 359.60 3211.87
   14:24:20.800.27-Aug-2021 4859.50 3420.20 84.41 15.00 359.80 3211.87
   14:24:21.000.27-Aug-2021 4859.50 3423.10 84.41 15.00 360.00 3211.87
   14:24:21.200.27-Aug-2021 4859.50 3423.10 84.41 15.00 360.20 3211.87
   14:24:21.400.27-Aug-2021 4859.50 3429.62 84.41 15.00 360.40 3211.87
   14:24:21.600.27-Aug-2021 4859.50 3432.92 84.41 15.00 360.60 3211.87
   14:24:21.800.27-Aug-2021 4859.50 3435.36 84.41 15.00 360.80 3211.87
   14:24:22.000.27-Aug-2021 4859.50 3438.76 84.41 15.00 361.00 3211.87
   14:24:22.200.27-Aug-2021 4859.50 3438.76 84.41 15.00 361.20 3211.87
   14:24:22.400.27-Aug-2021 4859.50 3444.96 84.41 15.00 361.40 3211.87
