~Version Information
 VERS.                  2.0:   CWLS log ASCII Standard -VERSION 2.0
 WRAP.                   NO:   One line per depth step
~Well Information Block
#MNEM.UNIT     VALUE/NAME     DESCRIPTION
#---------     -----------    ---------------------------
 STRT.S             11:29:40 27-Aug-21: START TIME 11:29:40 27-Aug-21
 STOP.S             11:36:51 27-Aug-21: STOP TIME  11:36:51 27-Aug-21
 STEP.S                   0.00: STEP TIME
 NULL.                 -999.25: NULL VALUE
 DFWT.                        :  DIST FWL TEXT
 DFST.                        :  DIST FSL TEXT
 DMF .             Drill Floor:  DRILL MEAS FROM
 STIM.      20.00.00 17-Aug-21:  START TIME
 DATE.      19.00.00 29-Aug-21:  END TIME
 SPUD.               15-Aug-21:  SPUD DATE
 NREF.                    Grid:  NORTH REFERENCE
 HPTY.       Minimum Curvature:  HOLE POS TYPE
 DMOD.             Drill Model:  DRILL MOD DESC
 SVYD.                  Survey:  SURVEY DESC
 ILTD.               Lithology:  INTERP LTH DESC
 FTOP.          Formation Tops:  FORM TOPS DESC
 RIG .              East Azeri:  RIG NAME
 PDAT.          Mean Sea Level:  PERMANENT DATUM
 FLD .                     ACG:  FIELD NAME
 SON .        AZ-XX-0907180857:  JOB NUMBER
 CTRY.              Azerbaijan:  COUNTRY NAME
 WELL.                    D23x:  WELL NAME
 SRVC.     Turan Drilling and Engineering:  CONTRACTOR
 COMP.     BP Exploration (Caspian Sea) Ltd.:  COMPANY
 UWI .            /AZE00000214:  UNIQUE WELL IDENTIFIER
 API .            /AZE00000214:  API NUMBER
 MDS .        Operator Entered:  MAG DATA SOURCE
 BASE.              Azerbaijan:  LOGGING EQUIPMENT BASE LOCATION
 REGN.                   EESSA:  REGION
 PROV.                    Baku:  PROVINCE
 STAT.                    Baku:  STATE NAME
 MWDS.                    Baku:  MWD SHOP
 DOE .                     N/A:  DOE NUMBER
 DCON.         Sperry Drilling:  DIRECTNL CONTR
 UNIT.                     N/A:  LOGGING EQUIPMENT ID
 WTYP.                Deviated:  WELL TYPE
 CNTY.                        :  COUNTY
 LOC .                        :  LOCATION
 LMF .             Drill Floor:  LOG MEASURED FROM
 TVDS.m                  43.60:  TVDSS CORRECTN
 LATI.deg                40.02:  LATITUDE
 LONG.deg                51.45:  LONGITUDE
 WHNS.m                  -7.04:  WELL HEAD N/S
 WHEW.m                  -0.67:  WELL HEAD E/W
 UTMX.m              538762.90:  UTM X
 UTMY.m             4431871.34:  UTM Y
 DFWL.m                   0.00:  DISTANCE FWL
 DFSL.m                   0.00:  DISTANCE FSL
 SDEP.m                4127.00:  START DEPTH
 TDD .m                5084.50:  TOTAL DEPTH (DRILLER)
 VSDR.deg               140.47:  VERT SEC DIRECT
 GVFD.g                   1.00:  GRAVITY FIELD
 MFLD.nT              50362.00:  MAGNETIC FIELD
 MDIP.deg                59.48:  MAGNETIC DIP
 MDEC.deg                 6.47:  MAGNETIC DECL
 GRDC.deg                 0.31:  GRID CORRECTION
 AZTC.deg                 6.16:  AZM TOTAL CORR
 EPD .m                   0.00:  ELEVATION
 EGL .m                   0.00:  GROUND ELEVATION
 WDMS.m                 151.80:  WD ELEV
 APD .m                  43.60:  DEPTH ABOVE PD
 DEP .m                4092.57:  DEPTH
 AGAP.m                  43.60:  AIR GAP
 VSEW.m                  -0.67:  VERT SEC E/W
 VSNS.m                  -7.04:  VERT SEC N/S
 EKB .m                  43.60:  KB ELEVATION
 EDF .m                  43.60:  DF ELEVATION
 TDL .m                 957.50:  TOTAL DEPTH (LOGGER)
 VSC .                       0:  VS TO CLOSURE
 MAGU.                 1851413:  MAGUTM CHECKSUM
~Parameter Information Block
#MNEM.UNIT       Value        Description
#---------     -----------    ---------------------------
 AV  .mps                 1.50:  Ann Velocity 
 AVMX.mps                 2.00:  Max Ann Veloc 
 AZIF.deg               184.66:  Azm, Final 
 BHAT.        Rotary Steerable:  BHA Type 
 BREV.rev               300.00:  Rev Bit Total 
 BROT.°/30m              -0.50:  Build Rotating 
 BS  .in                  8.50:  Bit Size 
 BSZ .in                  8.50:  Bit Size 
 BTPL.psig              370.00:  Bit Press Loss 
 CABU.                      No:  Customer Abuse 
 CGEO.      Behruz Shahbaliyev:  Customer Geo 
 COMM.                     ,A[:  Run Comments 1 
 TCS .hr                140.08:  Time Ciculation Ended 
 CV  .mps                 3.00:  Crit Velocity 
 CVMX.mps                 3.20:  Max Crit Veloc 
 DD1 .            Musa Ahmadov:  Direct Drillr 1 
 DD2 .           Hamid Ahmadov:  Direct Drillr 2 
 DDSV.               Geo-Pilot:  DD Service 
 DEFF.%                  98.40:  % Det Eff 
 DLRX.°/30m               3.40:  Dogleg Rot Max 
 DLSO.°/30m               1.45:  Dogleg Oriented 
 DLSX.°/30m               3.40:  Dogleg Str Max 
 DRET.      18.40.00 29-Aug-21:  Drill End Time 
 DRST.      21.00.00 20-Aug-21:  Drill Start Tim 
 DTIM.hr                 69.47:  Time Drilling 
 EDEP.m                5084.50:  End Depth 
 ENG1.      Artemiy Matviyanov:  Engineer 1 
 ENG2.         Almaz Almadatov:  Engineer 2 
 ETIM.      18.40.00 29-Aug-21:  End Time 
 FLOI.gpm               500.00:  Flow In 
 FLON.gpm               400.00:  Flow In Min 
 FLOS.cptm                0.00:  Fluid Loss 
 FLOX.gpm               500.00:  Flow In Max 
 DFT .        Mineral Oil Base:  Mud Type 
 HFLO.                      No:  High Flow 
 HPRE.                      No:  High Pressure 
 HTEM.                      No:  High Temp 
 HYDO.m                   1.80:  Hydro Offset 
 IFIN.deg                25.62:  Inc, Final 
 IMAX.deg                48.69:  Inc Max 
 IMIN.deg                24.01:  Inc Min 
 IMND.m                4962.57:  Inc Min Depth 
 IMXD.m                4119.01:  Inc Max Depth 
 JARR.                      No:  Jarring 
 LETM.      18.40.00 29-Aug-21:  Log End Time 
 LOST.hr                     0:  Lost Rig Time 
 LSTM.      21.00.00 20-Aug-21:  Log Start Time 
 MDCL.ppm             41500.00:  Mud Chlorides 
 MDES.     Inversion Oil/Synthetic:  Mud Desc 
 DFD .sg                  1.56:  Mud Density 
 MDMN.sg                  1.56:  Dens Mud Min 
 MDMX.sg                  1.56:  Dens Mud Max 
 MOIL.                      70:  Run Mud Oil % 
 MOWR.                   70:30:  Run Mud OWR 
 MSND.                     0.2:  Run Mud Sand % 
 MSOL.                    23.3:  Run Mud Solids% 
 DFV .spqt               78.00:  Mud Viscosity 
 MWOD.in                  6.75:  MWD Tool OD 
 MWSI.                      No:  Serv Intrp, MWD 
 OTIM.hr                218.30:  Time Operating 
 PCON.           Look Like New:  Pad Condition 
 PMAX.psia            11015.30:  Press Op, Max 
 PV  .cP                 38.00:  Mud PV 
 RUN .                     300:  Run Number 
 ROPA.m/hr               15.00:  ROP Avg 
 ROPN.m/hr                9.00:  ROP Min 
 ROPX.m/hr               17.00:  ROP Max 
 RPMA.rpm               120.00:  RPM Surface Avg 
 RPMN.rpm                90.00:  RPM Surface Min 
 RPMX.rpm               140.00:  RPM Surface Max 
 RRUN.                     300:  Rig Run Number 
 RTIM.hr                 31.53:  Time Reaming 
 SAZI.deg               331.64:  Azm, Start 
 SDEP.m                4127.00:  Start Depth 
 SIDD.                      No:  Serv Intrp, DD 
 SINC.deg                48.43:  Inc, Start 
 SPPA.psig             5830.00:  SPP Avg 
 SPPN.psig             5600.00:  SPP Min 
 SPPX.psig             5900.00:  SPP Max 
 STIM.      21.00.00 20-Aug-21:  Start Time 
 SVCS.                 DD, MWD:  Services 
 SVER.                    9.20:  Sperry Version 
 TDAT.m                 957.50:  Tot Depth Attmp 
 TDDF.                      No:  Trip for DD 
 TDLG.m                 957.50:  Tot Depth Loggd 
 TFF .                      No:  Trip for Fail 
 TQAA.f-kp               15.00:  Torque Abs Avg 
 TQAN.f-kp               12.00:  Torque Abs Min 
 TQAX.f-kp               19.00:  Torque Abs Max 
 TRRT.°/30m              -3.40:  Turn Rotating 
 MRT .                  EWR-M5:  Maximum Recorded Temperature 
 TTMX.degC              100.00:  Max Tool Temp 
 VS01.                90639251:  Virtual Str1 SN 
 VS02.                90634715:  Virtual Str2 SN 
 VS03.                90652479:  Virtual Str3 SN 
 VS04.                90642262:  Virtual Str4 SN 
 WBMN.klb                 0.00:  WOB Min 
 WITN.           Murad Guliyev:  Customer Rep 
 WITN.          Yashar Gaziyev:  Customer Rep 2 
 WOBA.klb                 9.00:  WOB Avg 
 WOBX.klb                12.00:  WOB Max 
 YP  .lhf2               30.00:  Yield Point 
~Curve Information Block
#MNEM.UNIT                 API CODE     Curve Description
#---------               -----------    ---------------------------
 TIME.HHMMSS            00 000 000 000:  GT Time & Date
 GTDEPTH.m              00 000 000 000:  GT Depth
 GTPQH.psia             00 000 000 000:  GT HR Quartz Pressure
 GTTQ.degC              00 000 000 000:  GT Quartz Temperature
 GTTN.NONE              00 000 000 000:  GT Test Number
 GTET.sec               00 000 000 000:  GT Elapsed Test Time
 GTTVD.m                00 000 000 000:  GT True Vertical Depth
#Other Information
#
#WARRANTY: Halliburton will use its best efforts to furnish customers with 
#accurate information and interpretations that are part of, and incident to, the services 
#provided.  However, Halliburton cannot and does not warrant the accuracy 
#or correctness of such information and interpretations.  Under no circumstances should any 
#such information or interpretation be relied upon as the sole basis for any drilling, 
#completion, production, or financial decision or any procedure involving any risk to the 
#safety of any drilling venture, drilling rig or its crew or any other third party.  The 
#Customer has full responsibility for all drilling, completion and production operation.  
#Halliburton makes no representations or warranties, either expressed or 
#implied, including, but not limited to, the implied warranties of merchantability or fitness 
#for a particular purpose, with respect to the services rendered.  In no event will 
#Halliburton be liable for failure to obtain any particular results or for 
#any damages, including, but not limited to, indirect, special or consequential damages, 
#resulting from the use of any information or interpretation provided by Halliburton.
#
~A           TIME           GTDEPTH  GTPQH  GTTQ  GTTN   GTET   GTTVD  
# ...
   11:30:02.846.27-Aug-2021 4925.00 7799.08 85.65 10.00  22.61 3271.33
   11:30:03.046.27-Aug-2021 4925.00 7799.19 85.65 10.00  22.81 3271.33
   11:30:03.246.27-Aug-2021 4925.00 7798.97 85.65 10.00  23.01 3271.33
   11:30:03.446.27-Aug-2021 4925.00 7798.97 85.65 10.00  23.21 3271.33
   11:30:03.646.27-Aug-2021 4925.00 7799.49 85.65 10.00  23.41 3271.33
   11:30:03.846.27-Aug-2021 4925.00 7799.92 85.65 10.00  23.61 3271.33
   11:30:04.046.27-Aug-2021 4925.00 7800.09 85.65 10.00  23.81 3271.33
   11:30:04.246.27-Aug-2021 4925.00 7800.20 85.65 10.00  24.01 3271.33
   11:30:04.446.27-Aug-2021 4925.00 7800.20 85.65 10.00  24.21 3271.33
   11:30:04.646.27-Aug-2021 4925.00 7800.06 85.65 10.00  24.41 3271.33
   11:30:04.846.27-Aug-2021 4925.00 7800.19 85.64 10.00  24.61 3271.33
   11:30:05.047.27-Aug-2021 4925.00 7806.22 85.64 10.00  24.81 3271.33
   11:30:05.247.27-Aug-2021 4925.00 7797.96 85.64 10.00  25.01 3271.33
   11:30:05.447.27-Aug-2021 4925.00 7797.96 85.64 10.00  25.21 3271.33
   11:30:05.647.27-Aug-2021 4925.00 7801.24 85.64 10.00  25.41 3271.33
   11:30:05.847.27-Aug-2021 4925.00 7801.10 85.64 10.00  25.61 3271.33
   11:30:06.047.27-Aug-2021 4925.00 7801.40 85.64 10.00  25.81 3271.33
   11:30:06.247.27-Aug-2021 4925.00 7801.43 85.64 10.00  26.01 3271.33
   11:30:06.447.27-Aug-2021 4925.00 7801.43 85.64 10.00  26.21 3271.33
   11:30:06.647.27-Aug-2021 4925.00 7801.82 85.64 10.00  26.41 3271.33
   11:30:06.847.27-Aug-2021 4925.00 7802.21 85.64 10.00  26.61 3271.33
   11:30:07.047.27-Aug-2021 4925.00 7803.04 85.64 10.00  26.81 3271.33
   11:30:07.247.27-Aug-2021 4925.00 7803.21 85.64 10.00  27.01 3271.33
   11:30:07.447.27-Aug-2021 4925.00 7803.21 85.64 10.00  27.21 3271.33
   11:30:07.647.27-Aug-2021 4925.00 7803.21 85.64 10.00  27.41 3271.33
   11:30:07.848.27-Aug-2021 4925.00 7803.26 85.64 10.00  27.61 3271.33
   11:30:08.048.27-Aug-2021 4925.00 7803.27 85.64 10.00  27.81 3271.33
   11:30:08.248.27-Aug-2021 4925.00 7803.11 85.64 10.00  28.01 3271.33
   11:30:08.448.27-Aug-2021 4925.00 7803.11 85.64 10.00  28.21 3271.33
   11:30:08.648.27-Aug-2021 4925.00 7800.56 85.64 10.00  28.41 3271.33
   11:30:08.848.27-Aug-2021 4925.00 7804.71 85.64 10.00  28.61 3271.33
   11:30:09.048.27-Aug-2021 4925.00 7803.67 85.64 10.00  28.81 3271.33
   11:30:09.248.27-Aug-2021 4925.00 7803.61 85.64 10.00  29.01 3271.33
   11:30:09.448.27-Aug-2021 4925.00 7803.61 85.64 10.00  29.21 3271.33
   11:30:09.648.27-Aug-2021 4925.00 7803.22 85.64 10.00  29.41 3271.33
   11:30:09.848.27-Aug-2021 4925.00 7804.97 85.64 10.00  29.61 3271.33
   11:30:10.048.27-Aug-2021 4925.00 7803.85 85.64 10.00  29.81 3271.33
   11:30:10.248.27-Aug-2021 4925.00 7804.10 85.64 10.00  30.01 3271.33
   11:30:10.448.27-Aug-2021 4925.00 7804.10 85.64 10.00  30.21 3271.33
   11:30:10.649.27-Aug-2021 4925.00 7808.80 85.64 10.00  30.41 3271.33
   11:30:10.849.27-Aug-2021 4925.00 7804.20 85.64 10.00  30.61 3271.33
   11:30:11.049.27-Aug-2021 4925.00 7806.38 85.64 10.00  30.81 3271.33
   11:30:11.249.27-Aug-2021 4925.00 7805.54 85.64 10.00  31.01 3271.33
   11:30:11.449.27-Aug-2021 4925.00 7805.54 85.64 10.00  31.21 3271.33
   11:30:11.649.27-Aug-2021 4925.00 7812.00 85.64 10.00  31.41 3271.33
   11:30:11.849.27-Aug-2021 4925.00 7802.72 85.64 10.00  31.61 3271.33
   11:30:12.049.27-Aug-2021 4925.00 7807.26 85.64 10.00  31.81 3271.33
   11:30:12.249.27-Aug-2021 4925.00 7805.55 85.64 10.00  32.01 3271.33
   11:30:12.449.27-Aug-2021 4925.00 7805.55 85.64 10.00  32.21 3271.33
   11:30:12.649.27-Aug-2021 4925.00 7806.24 85.64 10.00  32.41 3271.33
   11:30:12.849.27-Aug-2021 4925.00 7806.20 85.64 10.00  32.61 3271.33
   11:30:13.049.27-Aug-2021 4925.00 7806.81 85.64 10.00  32.81 3271.33
   11:30:13.249.27-Aug-2021 4925.00 7806.62 85.64 10.00  33.01 3271.33
   11:30:13.450.27-Aug-2021 4925.00 7806.62 85.64 10.00  33.21 3271.33
   11:30:13.650.27-Aug-2021 4925.00 7807.60 85.64 10.00  33.41 3271.33
   11:30:13.850.27-Aug-2021 4925.00 7807.85 85.64 10.00  33.61 3271.33
   11:30:14.050.27-Aug-2021 4925.00 7808.06 85.64 10.00  33.81 3271.33
   11:30:14.250.27-Aug-2021 4925.00 7808.03 85.64 10.00  34.01 3271.33
   11:30:14.450.27-Aug-2021 4925.00 7808.03 85.64 10.00  34.21 3271.33
   11:30:14.650.27-Aug-2021 4925.00 7807.83 85.64 10.00  34.41 3271.33
   11:30:14.850.27-Aug-2021 4925.00 7807.95 85.64 10.00  34.61 3271.33
   11:30:15.050.27-Aug-2021 4925.00 7808.06 85.64 10.00  34.81 3271.33
   11:30:15.250.27-Aug-2021 4925.00 7808.35 85.64 10.00  35.01 3271.33
   11:30:15.450.27-Aug-2021 4925.00 7808.35 85.64 10.00  35.21 3271.33
   11:30:15.650.27-Aug-2021 4925.00 7809.58 85.64 10.00  35.41 3271.33
   11:30:15.850.27-Aug-2021 4925.00 7808.80 85.64 10.00  35.61 3271.33
   11:30:16.050.27-Aug-2021 4925.00 7808.31 85.64 10.00  35.81 3271.33
   11:30:16.251.27-Aug-2021 4925.00 7808.50 85.64 10.00  36.01 3271.33
   11:30:16.451.27-Aug-2021 4925.00 7808.50 85.64 10.00  36.21 3271.33
   11:30:16.651.27-Aug-2021 4925.00 7808.82 85.64 10.00  36.41 3271.33
   11:30:16.851.27-Aug-2021 4925.00 7808.29 85.64 10.00  36.61 3271.33
   11:30:17.051.27-Aug-2021 4925.00 7808.91 85.64 10.00  36.81 3271.33
   11:30:17.251.27-Aug-2021 4925.00 7809.45 85.64 10.00  37.01 3271.33
   11:30:17.451.27-Aug-2021 4925.00 7809.45 85.64 10.00  37.21 3271.33
   11:30:17.651.27-Aug-2021 4925.00 7810.21 85.64 10.00  37.41 3271.33
   11:30:17.851.27-Aug-2021 4925.00 7810.13 85.64 10.00  37.61 3271.33
   11:30:18.051.27-Aug-2021 4925.00 7810.19 85.64 10.00  37.81 3271.33
   11:30:18.251.27-Aug-2021 4925.00 7810.10 85.64 10.00  38.01 3271.33
   11:30:18.451.27-Aug-2021 4925.00 7810.10 85.64 10.00  38.21 3271.33
   11:30:18.651.27-Aug-2021 4925.00 7812.94 85.63 10.00  38.41 3271.33
   11:30:18.851.27-Aug-2021 4925.00 7811.30 85.64 10.00  38.61 3271.33
   11:30:19.052.27-Aug-2021 4925.00 7810.37 85.63 10.00  38.81 3271.33
   11:30:19.252.27-Aug-2021 4925.00 7809.85 85.63 10.00  39.01 3271.33
   11:30:19.452.27-Aug-2021 4925.00 7809.85 85.63 10.00  39.21 3271.33
   11:30:19.652.27-Aug-2021 4925.00 7810.37 85.63 10.00  39.41 3271.33
   11:30:19.852.27-Aug-2021 4925.00 7813.43 85.63 10.00  39.61 3271.33
   11:30:20.052.27-Aug-2021 4925.00 7811.31 85.63 10.00  39.81 3271.33
   11:30:20.252.27-Aug-2021 4925.00 7811.04 85.63 10.00  40.01 3271.33
   11:30:20.452.27-Aug-2021 4925.00 7811.04 85.63 10.00  40.21 3271.33
   11:30:20.652.27-Aug-2021 4925.00 7811.43 85.63 10.00  40.41 3271.33
   11:30:20.852.27-Aug-2021 4925.00 7815.44 85.63 10.00  40.61 3271.33
   11:30:21.052.27-Aug-2021 4925.00 7811.35 85.63 10.00  40.81 3271.33
   11:30:21.252.27-Aug-2021 4925.00 7812.53 85.63 10.00  41.01 3271.33
   11:30:21.452.27-Aug-2021 4925.00 7812.53 85.63 10.00  41.21 3271.33
   11:30:21.652.27-Aug-2021 4925.00 7812.15 85.63 10.00  41.41 3271.33
   11:30:21.853.27-Aug-2021 4925.00 7810.11 85.63 10.00  41.61 3271.33
   11:30:22.053.27-Aug-2021 4925.00 7811.44 85.63 10.00  41.81 3271.33
   11:30:22.253.27-Aug-2021 4925.00 7795.32 85.63 10.00  42.01 3271.33
   11:30:22.453.27-Aug-2021 4925.00 7795.32 85.63 10.00  42.21 3271.33
   11:30:22.653.27-Aug-2021 4925.00 7756.89 85.63 10.00  42.42 3271.33
   11:30:22.853.27-Aug-2021 4925.00 7734.95 85.63 10.00  42.62 3271.33
   11:30:23.053.27-Aug-2021 4925.00 7701.05 85.63 10.00  42.82 3271.33
   11:30:23.253.27-Aug-2021 4925.00 7661.81 85.63 10.00  43.02 3271.33
   11:30:23.453.27-Aug-2021 4925.00 7661.81 85.63 10.00  43.22 3271.33
   11:30:23.653.27-Aug-2021 4925.00 7582.80 85.63 10.00  43.42 3271.33
   11:30:23.853.27-Aug-2021 4925.00 7548.21 85.63 10.00  43.62 3271.33
   11:30:24.053.27-Aug-2021 4925.00 7493.91 85.63 10.00  43.82 3271.33
   11:30:24.253.27-Aug-2021 4925.00 7444.09 85.63 10.00  44.02 3271.33
   11:30:24.453.27-Aug-2021 4925.00 7444.09 85.63 10.00  44.22 3271.33
   11:30:24.654.27-Aug-2021 4925.00 7337.88 85.63 10.00  44.42 3271.33
   11:30:24.854.27-Aug-2021 4925.00 7288.45 85.63 10.00  44.62 3271.33
   11:30:25.054.27-Aug-2021 4925.00 7253.60 85.63 10.00  44.82 3271.33
   11:30:25.254.27-Aug-2021 4925.00 7240.06 85.63 10.00  45.02 3271.33
