~Version Information
 VERS.                  2.0:   CWLS log ASCII Standard -VERSION 2.0
 WRAP.                   NO:   One line per depth step
~Well Information Block
#MNEM.UNIT     VALUE/NAME     DESCRIPTION
#---------     -----------    ---------------------------
 STRT.S             11:29:40 27-Aug-21: START TIME 11:29:40 27-Aug-21
 STOP.S             11:36:51 27-Aug-21: STOP TIME  11:36:51 27-Aug-21
 STEP.S                   0.00: STEP TIME
 NULL.                 -999.25: NULL VALUE
 DFWT.                        :  DIST FWL TEXT
 DFST.                        :  DIST FSL TEXT
 DMF .             Drill Floor:  DRILL MEAS FROM
 STIM.      20.00.00 17-Aug-21:  START TIME
 DATE.      19.00.00 29-Aug-21:  END TIME
 SPUD.               15-Aug-21:  SPUD DATE
 NREF.                    Grid:  NORTH REFERENCE
 HPTY.       Minimum Curvature:  HOLE POS TYPE
 DMOD.             Drill Model:  DRILL MOD DESC
 SVYD.                  Survey:  SURVEY DESC
 ILTD.               Lithology:  INTERP LTH DESC
 FTOP.          Formation Tops:  FORM TOPS DESC
 RIG .              East Azeri:  RIG NAME
 PDAT.          Mean Sea Level:  PERMANENT DATUM
 FLD .                     ACG:  FIELD NAME
 SON .        AZ-XX-0907180857:  JOB NUMBER
 CTRY.              Azerbaijan:  COUNTRY NAME
 WELL.                    D23x:  WELL NAME
 SRVC.     Turan Drilling and Engineering:  CONTRACTOR
 COMP.     BP Exploration (Caspian Sea) Ltd.:  COMPANY
 UWI .            /AZE00000214:  UNIQUE WELL IDENTIFIER
 API .            /AZE00000214:  API NUMBER
 MDS .        Operator Entered:  MAG DATA SOURCE
 BASE.              Azerbaijan:  LOGGING EQUIPMENT BASE LOCATION
 REGN.                   EESSA:  REGION
 PROV.                    Baku:  PROVINCE
 STAT.                    Baku:  STATE NAME
 MWDS.                    Baku:  MWD SHOP
 DOE .                     N/A:  DOE NUMBER
 DCON.         Sperry Drilling:  DIRECTNL CONTR
 UNIT.                     N/A:  LOGGING EQUIPMENT ID
 WTYP.                Deviated:  WELL TYPE
 CNTY.                        :  COUNTY
 LOC .                        :  LOCATION
 LMF .             Drill Floor:  LOG MEASURED FROM
 TVDS.m                  43.60:  TVDSS CORRECTN
 LATI.deg                40.02:  LATITUDE
 LONG.deg                51.45:  LONGITUDE
 WHNS.m                  -7.04:  WELL HEAD N/S
 WHEW.m                  -0.67:  WELL HEAD E/W
 UTMX.m              538762.90:  UTM X
 UTMY.m             4431871.34:  UTM Y
 DFWL.m                   0.00:  DISTANCE FWL
 DFSL.m                   0.00:  DISTANCE FSL
 SDEP.m                4127.00:  START DEPTH
 TDD .m                5084.50:  TOTAL DEPTH (DRILLER)
 VSDR.deg               140.47:  VERT SEC DIRECT
 GVFD.g                   1.00:  GRAVITY FIELD
 MFLD.nT              50362.00:  MAGNETIC FIELD
 MDIP.deg                59.48:  MAGNETIC DIP
 MDEC.deg                 6.47:  MAGNETIC DECL
 GRDC.deg                 0.31:  GRID CORRECTION
 AZTC.deg                 6.16:  AZM TOTAL CORR
 EPD .m                   0.00:  ELEVATION
 EGL .m                   0.00:  GROUND ELEVATION
 WDMS.m                 151.80:  WD ELEV
 APD .m                  43.60:  DEPTH ABOVE PD
 DEP .m                4092.57:  DEPTH
 AGAP.m                  43.60:  AIR GAP
 VSEW.m                  -0.67:  VERT SEC E/W
 VSNS.m                  -7.04:  VERT SEC N/S
 EKB .m                  43.60:  KB ELEVATION
 EDF .m                  43.60:  DF ELEVATION
 TDL .m                 957.50:  TOTAL DEPTH (LOGGER)
 VSC .                       0:  VS TO CLOSURE
 MAGU.                 1851413:  MAGUTM CHECKSUM
~Parameter Information Block
#MNEM.UNIT       Value        Description
#---------     -----------    ---------------------------
 AV  .mps                 1.50:  Ann Velocity 
 AVMX.mps                 2.00:  Max Ann Veloc 
 AZIF.deg               184.66:  Azm, Final 
 BHAT.        Rotary Steerable:  BHA Type 
 BREV.rev               300.00:  Rev Bit Total 
 BROT.°/30m              -0.50:  Build Rotating 
 BS  .in                  8.50:  Bit Size 
 BSZ .in                  8.50:  Bit Size 
 BTPL.psig              370.00:  Bit Press Loss 
 CABU.                      No:  Customer Abuse 
 CGEO.      Behruz Shahbaliyev:  Customer Geo 
 COMM.                     ,A[:  Run Comments 1 
 TCS .hr                140.08:  Time Ciculation Ended 
 CV  .mps                 3.00:  Crit Velocity 
 CVMX.mps                 3.20:  Max Crit Veloc 
 DD1 .            Musa Ahmadov:  Direct Drillr 1 
 DD2 .           Hamid Ahmadov:  Direct Drillr 2 
 DDSV.               Geo-Pilot:  DD Service 
 DEFF.%                  98.40:  % Det Eff 
 DLRX.°/30m               3.40:  Dogleg Rot Max 
 DLSO.°/30m               1.45:  Dogleg Oriented 
 DLSX.°/30m               3.40:  Dogleg Str Max 
 DRET.      18.40.00 29-Aug-21:  Drill End Time 
 DRST.      21.00.00 20-Aug-21:  Drill Start Tim 
 DTIM.hr                 69.47:  Time Drilling 
 EDEP.m                5084.50:  End Depth 
 ENG1.      Artemiy Matviyanov:  Engineer 1 
 ENG2.         Almaz Almadatov:  Engineer 2 
 ETIM.      18.40.00 29-Aug-21:  End Time 
 FLOI.gpm               500.00:  Flow In 
 FLON.gpm               400.00:  Flow In Min 
 FLOS.cptm                0.00:  Fluid Loss 
 FLOX.gpm               500.00:  Flow In Max 
 DFT .        Mineral Oil Base:  Mud Type 
 HFLO.                      No:  High Flow 
 HPRE.                      No:  High Pressure 
 HTEM.                      No:  High Temp 
 HYDO.m                   1.80:  Hydro Offset 
 IFIN.deg                25.62:  Inc, Final 
 IMAX.deg                48.69:  Inc Max 
 IMIN.deg                24.01:  Inc Min 
 IMND.m                4962.57:  Inc Min Depth 
 IMXD.m                4119.01:  Inc Max Depth 
 JARR.                      No:  Jarring 
 LETM.      18.40.00 29-Aug-21:  Log End Time 
 LOST.hr                     0:  Lost Rig Time 
 LSTM.      21.00.00 20-Aug-21:  Log Start Time 
 MDCL.ppm             41500.00:  Mud Chlorides 
 MDES.     Inversion Oil/Synthetic:  Mud Desc 
 DFD .sg                  1.56:  Mud Density 
 MDMN.sg                  1.56:  Dens Mud Min 
 MDMX.sg                  1.56:  Dens Mud Max 
 MOIL.                      70:  Run Mud Oil % 
 MOWR.                   70:30:  Run Mud OWR 
 MSND.                     0.2:  Run Mud Sand % 
 MSOL.                    23.3:  Run Mud Solids% 
 DFV .spqt               78.00:  Mud Viscosity 
 MWOD.in                  6.75:  MWD Tool OD 
 MWSI.                      No:  Serv Intrp, MWD 
 OTIM.hr                218.30:  Time Operating 
 PCON.           Look Like New:  Pad Condition 
 PMAX.psia            11015.30:  Press Op, Max 
 PV  .cP                 38.00:  Mud PV 
 RUN .                     300:  Run Number 
 ROPA.m/hr               15.00:  ROP Avg 
 ROPN.m/hr                9.00:  ROP Min 
 ROPX.m/hr               17.00:  ROP Max 
 RPMA.rpm               120.00:  RPM Surface Avg 
 RPMN.rpm                90.00:  RPM Surface Min 
 RPMX.rpm               140.00:  RPM Surface Max 
 RRUN.                     300:  Rig Run Number 
 RTIM.hr                 31.53:  Time Reaming 
 SAZI.deg               331.64:  Azm, Start 
 SDEP.m                4127.00:  Start Depth 
 SIDD.                      No:  Serv Intrp, DD 
 SINC.deg                48.43:  Inc, Start 
 SPPA.psig             5830.00:  SPP Avg 
 SPPN.psig             5600.00:  SPP Min 
 SPPX.psig             5900.00:  SPP Max 
 STIM.      21.00.00 20-Aug-21:  Start Time 
 SVCS.                 DD, MWD:  Services 
 SVER.                    9.20:  Sperry Version 
 TDAT.m                 957.50:  Tot Depth Attmp 
 TDDF.                      No:  Trip for DD 
 TDLG.m                 957.50:  Tot Depth Loggd 
 TFF .                      No:  Trip for Fail 
 TQAA.f-kp               15.00:  Torque Abs Avg 
 TQAN.f-kp               12.00:  Torque Abs Min 
 TQAX.f-kp               19.00:  Torque Abs Max 
 TRRT.°/30m              -3.40:  Turn Rotating 
 MRT .                  EWR-M5:  Maximum Recorded Temperature 
 TTMX.degC              100.00:  Max Tool Temp 
 VS01.                90639251:  Virtual Str1 SN 
 VS02.                90634715:  Virtual Str2 SN 
 VS03.                90652479:  Virtual Str3 SN 
 VS04.                90642262:  Virtual Str4 SN 
 WBMN.klb                 0.00:  WOB Min 
 WITN.           Murad Guliyev:  Customer Rep 
 WITN.          Yashar Gaziyev:  Customer Rep 2 
 WOBA.klb                 9.00:  WOB Avg 
 WOBX.klb                12.00:  WOB Max 
 YP  .lhf2               30.00:  Yield Point 
~Curve Information Block
#MNEM.UNIT                 API CODE     Curve Description
#---------               -----------    ---------------------------
 TIME.HHMMSS            00 000 000 000:  GT Time & Date
 GTDEPTH.m              00 000 000 000:  GT Depth
 GTPQH.psia             00 000 000 000:  GT HR Quartz Pressure
 GTTQ.degC              00 000 000 000:  GT Quartz Temperature
 GTTN.NONE              00 000 000 000:  GT Test Number
 GTET.sec               00 000 000 000:  GT Elapsed Test Time
 GTTVD.m                00 000 000 000:  GT True Vertical Depth
#Other Information
#
#WARRANTY: Halliburton will use its best efforts to furnish customers with 
#accurate information and interpretations that are part of, and incident to, the services 
#provided.  However, Halliburton cannot and does not warrant the accuracy 
#or correctness of such information and interpretations.  Under no circumstances should any 
#such information or interpretation be relied upon as the sole basis for any drilling, 
#completion, production, or financial decision or any procedure involving any risk to the 
#safety of any drilling venture, drilling rig or its crew or any other third party.  The 
#Customer has full responsibility for all drilling, completion and production operation.  
#Halliburton makes no representations or warranties, either expressed or 
#implied, including, but not limited to, the implied warranties of merchantability or fitness 
#for a particular purpose, with respect to the services rendered.  In no event will 
#Halliburton be liable for failure to obtain any particular results or for 
#any damages, including, but not limited to, indirect, special or consequential damages, 
#resulting from the use of any information or interpretation provided by Halliburton.
#
~A           TIME           GTDEPTH  GTPQH  GTTQ  GTTN   GTET   GTTVD  
# ...
   11:34:34.142.27-Aug-2021 4925.00 4811.18 85.53 10.00 293.90 3271.33
   11:34:34.342.27-Aug-2021 4925.00 4811.19 85.53 10.00 294.10 3271.33
   11:34:34.542.27-Aug-2021 4925.00 4811.19 85.53 10.00 294.30 3271.33
   11:34:34.742.27-Aug-2021 4925.00 4811.17 85.53 10.00 294.50 3271.33
   11:34:34.942.27-Aug-2021 4925.00 4811.17 85.53 10.00 294.70 3271.33
   11:34:35.142.27-Aug-2021 4925.00 4811.17 85.53 10.00 294.90 3271.33
   11:34:35.342.27-Aug-2021 4925.00 4811.17 85.53 10.00 295.10 3271.33
   11:34:35.543.27-Aug-2021 4925.00 4811.17 85.53 10.00 295.30 3271.33
   11:34:35.743.27-Aug-2021 4925.00 4811.17 85.53 10.00 295.50 3271.33
   11:34:35.943.27-Aug-2021 4925.00 4811.17 85.53 10.00 295.70 3271.33
   11:34:36.143.27-Aug-2021 4925.00 4811.16 85.53 10.00 295.91 3271.33
   11:34:36.343.27-Aug-2021 4925.00 4811.16 85.53 10.00 296.11 3271.33
   11:34:36.543.27-Aug-2021 4925.00 4811.16 85.53 10.00 296.31 3271.33
   11:34:36.743.27-Aug-2021 4925.00 4811.16 85.53 10.00 296.51 3271.33
   11:34:36.943.27-Aug-2021 4925.00 4811.19 85.53 10.00 296.71 3271.33
   11:34:37.143.27-Aug-2021 4925.00 4811.21 85.53 10.00 296.91 3271.33
   11:34:37.343.27-Aug-2021 4925.00 4811.20 85.53 10.00 297.11 3271.33
   11:34:37.543.27-Aug-2021 4925.00 4811.20 85.53 10.00 297.31 3271.33
   11:34:37.743.27-Aug-2021 4925.00 4811.20 85.53 10.00 297.51 3271.33
   11:34:37.943.27-Aug-2021 4925.00 4811.14 85.53 10.00 297.71 3271.33
   11:34:38.143.27-Aug-2021 4925.00 4811.29 85.53 10.00 297.91 3271.33
   11:34:38.344.27-Aug-2021 4925.00 4811.21 85.53 10.00 298.11 3271.33
   11:34:38.544.27-Aug-2021 4925.00 4811.21 85.53 10.00 298.31 3271.33
   11:34:38.744.27-Aug-2021 4925.00 4811.22 85.53 10.00 298.51 3271.33
   11:34:38.944.27-Aug-2021 4925.00 4811.23 85.53 10.00 298.71 3271.33
   11:34:39.144.27-Aug-2021 4925.00 4811.20 85.53 10.00 298.91 3271.33
   11:34:39.344.27-Aug-2021 4925.00 4811.23 85.53 10.00 299.11 3271.33
   11:34:39.544.27-Aug-2021 4925.00 4811.23 85.53 10.00 299.31 3271.33
   11:34:39.744.27-Aug-2021 4925.00 4811.22 85.53 10.00 299.51 3271.33
   11:34:39.944.27-Aug-2021 4925.00 4811.18 85.53 10.00 299.71 3271.33
   11:34:40.144.27-Aug-2021 4925.00 4811.25 85.52 10.00 299.91 3271.33
   11:34:40.344.27-Aug-2021 4925.00 4811.29 85.52 10.00 300.11 3271.33
   11:34:40.544.27-Aug-2021 4925.00 4811.29 85.52 10.00 300.31 3271.33
   11:34:40.744.27-Aug-2021 4925.00 4811.21 85.52 10.00 300.51 3271.33
   11:34:40.944.27-Aug-2021 4925.00 4811.24 85.52 10.00 300.71 3271.33
   11:34:41.145.27-Aug-2021 4925.00 4811.22 85.52 10.00 300.91 3271.33
   11:34:41.345.27-Aug-2021 4925.00 4811.23 85.52 10.00 301.11 3271.33
   11:34:41.545.27-Aug-2021 4925.00 4811.23 85.52 10.00 301.31 3271.33
   11:34:41.745.27-Aug-2021 4925.00 4811.23 85.52 10.00 301.51 3271.33
   11:34:41.945.27-Aug-2021 4925.00 4811.22 85.52 10.00 301.71 3271.33
   11:34:42.145.27-Aug-2021 4925.00 4811.23 85.52 10.00 301.91 3271.33
   11:34:42.345.27-Aug-2021 4925.00 4811.22 85.52 10.00 302.11 3271.33
   11:34:42.545.27-Aug-2021 4925.00 4811.22 85.52 10.00 302.31 3271.33
   11:34:42.745.27-Aug-2021 4925.00 4811.21 85.52 10.00 302.51 3271.33
   11:34:42.945.27-Aug-2021 4925.00 4811.21 85.52 10.00 302.71 3271.33
   11:34:43.145.27-Aug-2021 4925.00 4811.15 85.52 10.00 302.91 3271.33
   11:34:43.345.27-Aug-2021 4925.00 4811.31 85.52 10.00 303.11 3271.33
   11:34:43.545.27-Aug-2021 4925.00 4811.31 85.52 10.00 303.31 3271.33
   11:34:43.745.27-Aug-2021 4925.00 4811.22 85.52 10.00 303.51 3271.33
   11:34:43.946.27-Aug-2021 4925.00 4811.23 85.52 10.00 303.71 3271.33
   11:34:44.146.27-Aug-2021 4925.00 4811.24 85.52 10.00 303.91 3271.33
   11:34:44.346.27-Aug-2021 4925.00 4811.21 85.52 10.00 304.11 3271.33
   11:34:44.546.27-Aug-2021 4925.00 4811.21 85.52 10.00 304.31 3271.33
   11:34:44.746.27-Aug-2021 4925.00 4811.22 85.52 10.00 304.51 3271.33
   11:34:44.946.27-Aug-2021 4925.00 4811.24 85.52 10.00 304.71 3271.33
   11:34:45.146.27-Aug-2021 4925.00 4811.23 85.52 10.00 304.91 3271.33
   11:34:45.346.27-Aug-2021 4925.00 4811.23 85.52 10.00 305.11 3271.33
   11:34:45.546.27-Aug-2021 4925.00 4811.23 85.52 10.00 305.31 3271.33
   11:34:45.746.27-Aug-2021 4925.00 4811.22 85.52 10.00 305.51 3271.33
   11:34:45.946.27-Aug-2021 4925.00 4811.23 85.52 10.00 305.71 3271.33
   11:34:46.146.27-Aug-2021 4925.00 4811.21 85.52 10.00 305.91 3271.33
   11:34:46.346.27-Aug-2021 4925.00 4811.22 85.52 10.00 306.11 3271.33
   11:34:46.546.27-Aug-2021 4925.00 4811.22 85.52 10.00 306.31 3271.33
   11:34:46.747.27-Aug-2021 4925.00 4811.23 85.52 10.00 306.51 3271.33
   11:34:46.947.27-Aug-2021 4925.00 4811.25 85.52 10.00 306.71 3271.33
   11:34:47.147.27-Aug-2021 4925.00 4811.23 85.52 10.00 306.91 3271.33
   11:34:47.347.27-Aug-2021 4925.00 4811.23 85.52 10.00 307.11 3271.33
   11:34:47.547.27-Aug-2021 4925.00 4811.23 85.52 10.00 307.31 3271.33
   11:34:47.747.27-Aug-2021 4925.00 4811.23 85.52 10.00 307.51 3271.33
   11:34:47.947.27-Aug-2021 4925.00 4811.23 85.52 10.00 307.71 3271.33
   11:34:48.147.27-Aug-2021 4925.00 4811.26 85.52 10.00 307.91 3271.33
   11:34:48.347.27-Aug-2021 4925.00 4811.25 85.52 10.00 308.11 3271.33
   11:34:48.547.27-Aug-2021 4925.00 4811.25 85.52 10.00 308.31 3271.33
   11:34:48.747.27-Aug-2021 4925.00 4811.25 85.52 10.00 308.51 3271.33
   11:34:48.947.27-Aug-2021 4925.00 4811.25 85.52 10.00 308.71 3271.33
   11:34:49.147.27-Aug-2021 4925.00 4811.26 85.52 10.00 308.91 3271.33
   11:34:49.347.27-Aug-2021 4925.00 4811.24 85.52 10.00 309.11 3271.33
   11:34:49.548.27-Aug-2021 4925.00 4811.24 85.52 10.00 309.31 3271.33
   11:34:49.748.27-Aug-2021 4925.00 4811.23 85.52 10.00 309.51 3271.33
   11:34:49.948.27-Aug-2021 4925.00 4811.27 85.52 10.00 309.71 3271.33
   11:34:50.148.27-Aug-2021 4925.00 4811.24 85.52 10.00 309.91 3271.33
   11:34:50.348.27-Aug-2021 4925.00 4811.25 85.52 10.00 310.11 3271.33
   11:34:50.548.27-Aug-2021 4925.00 4811.25 85.52 10.00 310.31 3271.33
   11:34:50.748.27-Aug-2021 4925.00 4811.26 85.52 10.00 310.51 3271.33
   11:34:50.948.27-Aug-2021 4925.00 4811.27 85.52 10.00 310.71 3271.33
   11:34:51.148.27-Aug-2021 4925.00 4811.26 85.52 10.00 310.91 3271.33
   11:34:51.348.27-Aug-2021 4925.00 4811.25 85.52 10.00 311.11 3271.33
   11:34:51.548.27-Aug-2021 4925.00 4811.25 85.52 10.00 311.31 3271.33
   11:34:51.748.27-Aug-2021 4925.00 4811.25 85.52 10.00 311.51 3271.33
   11:34:51.948.27-Aug-2021 4925.00 4811.26 85.52 10.00 311.71 3271.33
   11:34:52.148.27-Aug-2021 4925.00 4811.24 85.52 10.00 311.91 3271.33
   11:34:52.349.27-Aug-2021 4925.00 4811.25 85.52 10.00 312.11 3271.33
   11:34:52.549.27-Aug-2021 4925.00 4811.25 85.52 10.00 312.31 3271.33
   11:34:52.749.27-Aug-2021 4925.00 4811.25 85.52 10.00 312.51 3271.33
   11:34:52.949.27-Aug-2021 4925.00 4811.23 85.52 10.00 312.71 3271.33
   11:34:53.149.27-Aug-2021 4925.00 4811.25 85.52 10.00 312.91 3271.33
   11:34:53.349.27-Aug-2021 4925.00 4811.25 85.52 10.00 313.11 3271.33
   11:34:53.549.27-Aug-2021 4925.00 4811.25 85.52 10.00 313.31 3271.33
   11:34:53.749.27-Aug-2021 4925.00 4811.25 85.52 10.00 313.51 3271.33
   11:34:53.949.27-Aug-2021 4925.00 4811.23 85.52 10.00 313.71 3271.33
   11:34:54.149.27-Aug-2021 4925.00 4811.26 85.52 10.00 313.91 3271.33
   11:34:54.349.27-Aug-2021 4925.00 4811.25 85.52 10.00 314.11 3271.33
   11:34:54.549.27-Aug-2021 4925.00 4811.25 85.52 10.00 314.31 3271.33
   11:34:54.749.27-Aug-2021 4925.00 4811.25 85.52 10.00 314.51 3271.33
   11:34:54.949.27-Aug-2021 4925.00 4811.25 85.52 10.00 314.71 3271.33
   11:34:55.150.27-Aug-2021 4925.00 4811.25 85.52 10.00 314.91 3271.33
   11:34:55.350.27-Aug-2021 4925.00 4811.26 85.52 10.00 315.11 3271.33
   11:34:55.550.27-Aug-2021 4925.00 4811.26 85.52 10.00 315.31 3271.33
   11:34:55.750.27-Aug-2021 4925.00 4811.24 85.52 10.00 315.51 3271.33
   11:34:55.950.27-Aug-2021 4925.00 4811.24 85.52 10.00 315.71 3271.33
   11:34:56.150.27-Aug-2021 4925.00 4811.24 85.52 10.00 315.91 3271.33
   11:34:56.350.27-Aug-2021 4925.00 4811.19 85.52 10.00 316.11 3271.33
   11:34:56.550.27-Aug-2021 4925.00 4811.19 85.52 10.00 316.31 3271.33
