~Version Information
 VERS.                  2.0:   CWLS log ASCII Standard -VERSION 2.0
 WRAP.                   NO:   One line per depth step
~Well Information Block
#MNEM.UNIT     VALUE/NAME     DESCRIPTION
#---------     -----------    ---------------------------
 STRT.S             07:46:52 27-Aug-21: START TIME 07:46:52 27-Aug-21
 STOP.S             07:54:09 27-Aug-21: STOP TIME  07:54:09 27-Aug-21
 STEP.S                   0.00: STEP TIME
 NULL.                 -999.25: NULL VALUE
 DFWT.                        :  DIST FWL TEXT
 DFST.                        :  DIST FSL TEXT
 DMF .             Drill Floor:  DRILL MEAS FROM
 STIM.      20.00.00 17-Aug-21:  START TIME
 DATE.      19.00.00 29-Aug-21:  END TIME
 SPUD.               15-Aug-21:  SPUD DATE
 NREF.                    Grid:  NORTH REFERENCE
 HPTY.       Minimum Curvature:  HOLE POS TYPE
 DMOD.             Drill Model:  DRILL MOD DESC
 SVYD.                  Survey:  SURVEY DESC
 ILTD.               Lithology:  INTERP LTH DESC
 FTOP.          Formation Tops:  FORM TOPS DESC
 RIG .              East Azeri:  RIG NAME
 PDAT.          Mean Sea Level:  PERMANENT DATUM
 FLD .                     ACG:  FIELD NAME
 SON .        AZ-XX-0907180857:  JOB NUMBER
 CTRY.              Azerbaijan:  COUNTRY NAME
 WELL.                    D23x:  WELL NAME
 SRVC.     Turan Drilling and Engineering:  CONTRACTOR
 COMP.     BP Exploration (Caspian Sea) Ltd.:  COMPANY
 UWI .            /AZE00000214:  UNIQUE WELL IDENTIFIER
 API .            /AZE00000214:  API NUMBER
 MDS .        Operator Entered:  MAG DATA SOURCE
 BASE.              Azerbaijan:  LOGGING EQUIPMENT BASE LOCATION
 REGN.                   EESSA:  REGION
 PROV.                    Baku:  PROVINCE
 STAT.                    Baku:  STATE NAME
 MWDS.                    Baku:  MWD SHOP
 DOE .                     N/A:  DOE NUMBER
 DCON.         Sperry Drilling:  DIRECTNL CONTR
 UNIT.                     N/A:  LOGGING EQUIPMENT ID
 WTYP.                Deviated:  WELL TYPE
 CNTY.                        :  COUNTY
 LOC .                        :  LOCATION
 LMF .             Drill Floor:  LOG MEASURED FROM
 TVDS.m                  43.60:  TVDSS CORRECTN
 LATI.deg                40.02:  LATITUDE
 LONG.deg                51.45:  LONGITUDE
 WHNS.m                  -7.04:  WELL HEAD N/S
 WHEW.m                  -0.67:  WELL HEAD E/W
 UTMX.m              538762.90:  UTM X
 UTMY.m             4431871.34:  UTM Y
 DFWL.m                   0.00:  DISTANCE FWL
 DFSL.m                   0.00:  DISTANCE FSL
 SDEP.m                4127.00:  START DEPTH
 TDD .m                5084.50:  TOTAL DEPTH (DRILLER)
 VSDR.deg               140.47:  VERT SEC DIRECT
 GVFD.g                   1.00:  GRAVITY FIELD
 MFLD.nT              50362.00:  MAGNETIC FIELD
 MDIP.deg                59.48:  MAGNETIC DIP
 MDEC.deg                 6.47:  MAGNETIC DECL
 GRDC.deg                 0.31:  GRID CORRECTION
 AZTC.deg                 6.16:  AZM TOTAL CORR
 EPD .m                   0.00:  ELEVATION
 EGL .m                   0.00:  GROUND ELEVATION
 WDMS.m                 151.80:  WD ELEV
 APD .m                  43.60:  DEPTH ABOVE PD
 DEP .m                4092.57:  DEPTH
 AGAP.m                  43.60:  AIR GAP
 VSEW.m                  -0.67:  VERT SEC E/W
 VSNS.m                  -7.04:  VERT SEC N/S
 EKB .m                  43.60:  KB ELEVATION
 EDF .m                  43.60:  DF ELEVATION
 TDL .m                 957.50:  TOTAL DEPTH (LOGGER)
 VSC .                       0:  VS TO CLOSURE
 MAGU.                 1851413:  MAGUTM CHECKSUM
~Parameter Information Block
#MNEM.UNIT       Value        Description
#---------     -----------    ---------------------------
 AV  .mps                 1.50:  Ann Velocity 
 AVMX.mps                 2.00:  Max Ann Veloc 
 AZIF.deg               184.66:  Azm, Final 
 BHAT.        Rotary Steerable:  BHA Type 
 BREV.rev               300.00:  Rev Bit Total 
 BROT.°/30m              -0.50:  Build Rotating 
 BS  .in                  8.50:  Bit Size 
 BSZ .in                  8.50:  Bit Size 
 BTPL.psig              370.00:  Bit Press Loss 
 CABU.                      No:  Customer Abuse 
 CGEO.      Behruz Shahbaliyev:  Customer Geo 
 COMM.                     T\d:  Run Comments 1 
 TCS .hr                140.08:  Time Ciculation Ended 
 CV  .mps                 3.00:  Crit Velocity 
 CVMX.mps                 3.20:  Max Crit Veloc 
 DD1 .            Musa Ahmadov:  Direct Drillr 1 
 DD2 .           Hamid Ahmadov:  Direct Drillr 2 
 DDSV.               Geo-Pilot:  DD Service 
 DEFF.%                  98.40:  % Det Eff 
 DLRX.°/30m               3.40:  Dogleg Rot Max 
 DLSO.°/30m               1.45:  Dogleg Oriented 
 DLSX.°/30m               3.40:  Dogleg Str Max 
 DRET.      18.40.00 29-Aug-21:  Drill End Time 
 DRST.      21.00.00 20-Aug-21:  Drill Start Tim 
 DTIM.hr                 69.47:  Time Drilling 
 EDEP.m                5084.50:  End Depth 
 ENG1.      Artemiy Matviyanov:  Engineer 1 
 ENG2.         Almaz Almadatov:  Engineer 2 
 ETIM.      18.40.00 29-Aug-21:  End Time 
 FLOI.gpm               500.00:  Flow In 
 FLON.gpm               400.00:  Flow In Min 
 FLOS.cptm                0.00:  Fluid Loss 
 FLOX.gpm               500.00:  Flow In Max 
 DFT .        Mineral Oil Base:  Mud Type 
 HFLO.                      No:  High Flow 
 HPRE.                      No:  High Pressure 
 HTEM.                      No:  High Temp 
 HYDO.m                   1.80:  Hydro Offset 
 IFIN.deg                25.62:  Inc, Final 
 IMAX.deg                48.69:  Inc Max 
 IMIN.deg                24.01:  Inc Min 
 IMND.m                4962.57:  Inc Min Depth 
 IMXD.m                4119.01:  Inc Max Depth 
 JARR.                      No:  Jarring 
 LETM.      18.40.00 29-Aug-21:  Log End Time 
 LOST.hr                     0:  Lost Rig Time 
 LSTM.      21.00.00 20-Aug-21:  Log Start Time 
 MDCL.ppm             41500.00:  Mud Chlorides 
 MDES.     Inversion Oil/Synthetic:  Mud Desc 
 DFD .sg                  1.56:  Mud Density 
 MDMN.sg                  1.56:  Dens Mud Min 
 MDMX.sg                  1.56:  Dens Mud Max 
 MOIL.                      70:  Run Mud Oil % 
 MOWR.                   70:30:  Run Mud OWR 
 MSND.                     0.2:  Run Mud Sand % 
 MSOL.                    23.3:  Run Mud Solids% 
 DFV .spqt               78.00:  Mud Viscosity 
 MWOD.in                  6.75:  MWD Tool OD 
 MWSI.                      No:  Serv Intrp, MWD 
 OTIM.hr                218.30:  Time Operating 
 PCON.           Look Like New:  Pad Condition 
 PMAX.psia            11015.30:  Press Op, Max 
 PV  .cP                 38.00:  Mud PV 
 RUN .                     300:  Run Number 
 ROPA.m/hr               15.00:  ROP Avg 
 ROPN.m/hr                9.00:  ROP Min 
 ROPX.m/hr               17.00:  ROP Max 
 RPMA.rpm               120.00:  RPM Surface Avg 
 RPMN.rpm                90.00:  RPM Surface Min 
 RPMX.rpm               140.00:  RPM Surface Max 
 RRUN.                     300:  Rig Run Number 
 RTIM.hr                 31.53:  Time Reaming 
 SAZI.deg               331.64:  Azm, Start 
 SDEP.m                4127.00:  Start Depth 
 SIDD.                      No:  Serv Intrp, DD 
 SINC.deg                48.43:  Inc, Start 
 SPPA.psig             5830.00:  SPP Avg 
 SPPN.psig             5600.00:  SPP Min 
 SPPX.psig             5900.00:  SPP Max 
 STIM.      21.00.00 20-Aug-21:  Start Time 
 SVCS.                 DD, MWD:  Services 
 SVER.                    9.20:  Sperry Version 
 TDAT.m                 957.50:  Tot Depth Attmp 
 TDDF.                      No:  Trip for DD 
 TDLG.m                 957.50:  Tot Depth Loggd 
 TFF .                      No:  Trip for Fail 
 TQAA.f-kp               15.00:  Torque Abs Avg 
 TQAN.f-kp               12.00:  Torque Abs Min 
 TQAX.f-kp               19.00:  Torque Abs Max 
 TRRT.°/30m              -3.40:  Turn Rotating 
 MRT .                  EWR-M5:  Maximum Recorded Temperature 
 TTMX.degC              100.00:  Max Tool Temp 
 VS01.                90639251:  Virtual Str1 SN 
 VS02.                90634715:  Virtual Str2 SN 
 VS03.                90652479:  Virtual Str3 SN 
 VS04.                90642262:  Virtual Str4 SN 
 WBMN.klb                 0.00:  WOB Min 
 WITN.           Murad Guliyev:  Customer Rep 
 WITN.          Yashar Gaziyev:  Customer Rep 2 
 WOBA.klb                 9.00:  WOB Avg 
 WOBX.klb                12.00:  WOB Max 
 YP  .lhf2               30.00:  Yield Point 
~Curve Information Block
#MNEM.UNIT                 API CODE     Curve Description
#---------               -----------    ---------------------------
 TIME.HHMMSS            00 000 000 000:  GT Time & Date
 GTDEPTH.m              00 000 000 000:  GT Depth
 GTPQH.psia             00 000 000 000:  GT HR Quartz Pressure
 GTTQ.degC              00 000 000 000:  GT Quartz Temperature
 GTTN.NONE              00 000 000 000:  GT Test Number
 GTET.sec               00 000 000 000:  GT Elapsed Test Time
 GTTVD.m                00 000 000 000:  GT True Vertical Depth
#Other Information
#
#WARRANTY: Halliburton will use its best efforts to furnish customers with 
#accurate information and interpretations that are part of, and incident to, the services 
#provided.  However, Halliburton cannot and does not warrant the accuracy 
#or correctness of such information and interpretations.  Under no circumstances should any 
#such information or interpretation be relied upon as the sole basis for any drilling, 
#completion, production, or financial decision or any procedure involving any risk to the 
#safety of any drilling venture, drilling rig or its crew or any other third party.  The 
#Customer has full responsibility for all drilling, completion and production operation.  
#Halliburton makes no representations or warranties, either expressed or 
#implied, including, but not limited to, the implied warranties of merchantability or fitness 
#for a particular purpose, with respect to the services rendered.  In no event will 
#Halliburton be liable for failure to obtain any particular results or for 
#any damages, including, but not limited to, indirect, special or consequential damages, 
#resulting from the use of any information or interpretation provided by Halliburton.
#
~A           TIME           GTDEPTH  GTPQH  GTTQ  GTTN  GTET   GTTVD  
# ...
   07:53:46.598.27-Aug-2021 5003.00 7990.11 87.36 4.00 414.07 3342.33
   07:53:46.798.27-Aug-2021 5003.00 7990.11 87.36 4.00 414.27 3342.33
   07:53:46.998.27-Aug-2021 5003.00 7991.19 87.36 4.00 414.47 3342.33
   07:53:47.198.27-Aug-2021 5003.00 7988.96 87.36 4.00 414.67 3342.33
   07:53:47.399.27-Aug-2021 5003.00 7989.21 87.36 4.00 414.87 3342.33
   07:53:47.599.27-Aug-2021 5003.00 7988.79 87.36 4.00 415.07 3342.33
   07:53:47.799.27-Aug-2021 5003.00 7988.79 87.36 4.00 415.27 3342.33
   07:53:47.999.27-Aug-2021 5003.00 7989.24 87.36 4.00 415.47 3342.33
   07:53:48.199.27-Aug-2021 5003.00 7989.15 87.36 4.00 415.67 3342.33
   07:53:48.399.27-Aug-2021 5003.00 7989.12 87.36 4.00 415.87 3342.33
   07:53:48.599.27-Aug-2021 5003.00 7989.70 87.36 4.00 416.07 3342.33
   07:53:48.799.27-Aug-2021 5003.00 7989.70 87.36 4.00 416.27 3342.33
   07:53:48.999.27-Aug-2021 5003.00 7991.49 87.36 4.00 416.47 3342.33
   07:53:49.199.27-Aug-2021 5003.00 7991.07 87.36 4.00 416.67 3342.33
   07:53:49.399.27-Aug-2021 5003.00 7990.18 87.36 4.00 416.87 3342.33
   07:53:49.599.27-Aug-2021 5003.00 7990.17 87.36 4.00 417.07 3342.33
   07:53:49.799.27-Aug-2021 5003.00 7990.17 87.36 4.00 417.27 3342.33
   07:53:49.999.27-Aug-2021 5003.00 7989.89 87.36 4.00 417.47 3342.33
   07:53:50.199.27-Aug-2021 5003.00 7995.71 87.36 4.00 417.67 3342.33
   07:53:50.399.27-Aug-2021 5003.00 7988.56 87.36 4.00 417.87 3342.33
   07:53:50.599.27-Aug-2021 5003.00 7989.19 87.35 4.00 418.07 3342.33
   07:53:50.799.27-Aug-2021 5003.00 7989.19 87.35 4.00 418.27 3342.33
   07:53:50.999.27-Aug-2021 5003.00 7989.52 87.35 4.00 418.47 3342.33
   07:53:51.199.27-Aug-2021 5003.00 7993.09 87.35 4.00 418.67 3342.33
   07:53:51.399.27-Aug-2021 5003.00 7990.96 87.35 4.00 418.87 3342.33
   07:53:51.599.27-Aug-2021 5003.00 7988.50 87.35 4.00 419.07 3342.33
   07:53:51.799.27-Aug-2021 5003.00 7988.50 87.35 4.00 419.27 3342.33
   07:53:51.999.27-Aug-2021 5003.00 7988.81 87.35 4.00 419.47 3342.33
   07:53:52.199.27-Aug-2021 5003.00 7993.79 87.35 4.00 419.67 3342.33
   07:53:52.399.27-Aug-2021 5003.00 7991.85 87.35 4.00 419.87 3342.33
   07:53:52.599.27-Aug-2021 5003.00 7989.06 87.35 4.00 420.07 3342.33
   07:53:52.799.27-Aug-2021 5003.00 7989.06 87.35 4.00 420.27 3342.33
   07:53:52.999.27-Aug-2021 5003.00 7988.56 87.35 4.00 420.47 3342.33
   07:53:53.199.27-Aug-2021 5003.00 7995.62 87.35 4.00 420.67 3342.33
   07:53:53.400.27-Aug-2021 5003.00 7990.13 87.35 4.00 420.87 3342.33
   07:53:53.600.27-Aug-2021 5003.00 7988.96 87.35 4.00 421.07 3342.33
   07:53:53.800.27-Aug-2021 5003.00 7988.96 87.35 4.00 421.27 3342.33
   07:53:54.000.27-Aug-2021 5003.00 7988.71 87.35 4.00 421.47 3342.33
   07:53:54.200.27-Aug-2021 5003.00 7990.05 87.35 4.00 421.67 3342.33
   07:53:54.400.27-Aug-2021 5003.00 7990.40 87.35 4.00 421.87 3342.33
   07:53:54.600.27-Aug-2021 5003.00 7989.27 87.35 4.00 422.07 3342.33
   07:53:54.800.27-Aug-2021 5003.00 7989.27 87.35 4.00 422.27 3342.33
   07:53:55.000.27-Aug-2021 5003.00 7989.01 87.35 4.00 422.47 3342.33
   07:53:55.200.27-Aug-2021 5003.00 7989.85 87.35 4.00 422.67 3342.33
   07:53:55.400.27-Aug-2021 5003.00 7991.00 87.35 4.00 422.87 3342.33
   07:53:55.600.27-Aug-2021 5003.00 7991.21 87.35 4.00 423.07 3342.33
   07:53:55.800.27-Aug-2021 5003.00 7991.21 87.35 4.00 423.27 3342.33
   07:53:56.000.27-Aug-2021 5003.00 7989.96 87.35 4.00 423.47 3342.33
   07:53:56.200.27-Aug-2021 5003.00 7989.63 87.35 4.00 423.67 3342.33
   07:53:56.400.27-Aug-2021 5003.00 7991.62 87.35 4.00 423.87 3342.33
   07:53:56.600.27-Aug-2021 5003.00 7992.45 87.35 4.00 424.07 3342.33
   07:53:56.800.27-Aug-2021 5003.00 7992.45 87.35 4.00 424.27 3342.33
   07:53:57.000.27-Aug-2021 5003.00 7988.98 87.35 4.00 424.47 3342.33
   07:53:57.200.27-Aug-2021 5003.00 7989.05 87.35 4.00 424.67 3342.33
   07:53:57.400.27-Aug-2021 5003.00 7989.02 87.34 4.00 424.87 3342.33
   07:53:57.600.27-Aug-2021 5003.00 7989.47 87.34 4.00 425.07 3342.33
   07:53:57.800.27-Aug-2021 5003.00 7989.47 87.34 4.00 425.27 3342.33
   07:53:58.000.27-Aug-2021 5003.00 7988.78 87.34 4.00 425.47 3342.33
   07:53:58.200.27-Aug-2021 5003.00 7988.91 87.34 4.00 425.67 3342.33
   07:53:58.400.27-Aug-2021 5003.00 7989.63 87.34 4.00 425.87 3342.33
   07:53:58.600.27-Aug-2021 5003.00 7990.91 87.34 4.00 426.07 3342.33
   07:53:58.800.27-Aug-2021 5003.00 7990.91 87.34 4.00 426.27 3342.33
   07:53:59.000.27-Aug-2021 5003.00 7990.45 87.34 4.00 426.47 3342.33
   07:53:59.200.27-Aug-2021 5003.00 7990.13 87.34 4.00 426.67 3342.33
   07:53:59.400.27-Aug-2021 5003.00 7989.73 87.34 4.00 426.87 3342.33
   07:53:59.601.27-Aug-2021 5003.00 7989.95 87.34 4.00 427.07 3342.33
   07:53:59.801.27-Aug-2021 5003.00 7989.95 87.34 4.00 427.27 3342.33
   07:54:00.001.27-Aug-2021 5003.00 7993.24 87.34 4.00 427.47 3342.33
   07:54:00.201.27-Aug-2021 5003.00 7990.68 87.34 4.00 427.67 3342.33
   07:54:00.401.27-Aug-2021 5003.00 7988.93 87.34 4.00 427.87 3342.33
   07:54:00.601.27-Aug-2021 5003.00 7989.56 87.34 4.00 428.07 3342.33
   07:54:00.801.27-Aug-2021 5003.00 7989.56 87.34 4.00 428.27 3342.33
   07:54:01.001.27-Aug-2021 5003.00 7990.24 87.34 4.00 428.47 3342.33
   07:54:01.201.27-Aug-2021 5003.00 7989.27 87.34 4.00 428.67 3342.33
   07:54:01.401.27-Aug-2021 5003.00 7989.00 87.34 4.00 428.87 3342.33
   07:54:01.601.27-Aug-2021 5003.00 7989.09 87.34 4.00 429.07 3342.33
   07:54:01.801.27-Aug-2021 5003.00 7989.09 87.34 4.00 429.27 3342.33
   07:54:02.001.27-Aug-2021 5003.00 7993.28 87.34 4.00 429.47 3342.33
   07:54:02.201.27-Aug-2021 5003.00 7991.17 87.34 4.00 429.67 3342.33
   07:54:02.401.27-Aug-2021 5003.00 7989.27 87.34 4.00 429.87 3342.33
   07:54:02.601.27-Aug-2021 5003.00 7989.39 87.34 4.00 430.07 3342.33
   07:54:02.801.27-Aug-2021 5003.00 7989.39 87.34 4.00 430.27 3342.33
   07:54:03.001.27-Aug-2021 5003.00 7991.23 87.34 4.00 430.47 3342.33
   07:54:03.201.27-Aug-2021 5003.00 7991.93 87.34 4.00 430.67 3342.33
   07:54:03.401.27-Aug-2021 5003.00 7992.15 87.34 4.00 430.87 3342.33
   07:54:03.601.27-Aug-2021 5003.00 7990.61 87.34 4.00 431.07 3342.33
   07:54:03.801.27-Aug-2021 5003.00 7990.61 87.34 4.00 431.27 3342.33
   07:54:04.001.27-Aug-2021 5003.00 7990.94 87.34 4.00 431.47 3342.33
   07:54:04.201.27-Aug-2021 5003.00 7991.02 87.34 4.00 431.67 3342.33
   07:54:04.401.27-Aug-2021 5003.00 7990.64 87.34 4.00 431.87 3342.33
   07:54:04.601.27-Aug-2021 5003.00 7989.39 87.34 4.00 432.07 3342.33
   07:54:04.801.27-Aug-2021 5003.00 7989.39 87.34 4.00 432.27 3342.33
   07:54:05.001.27-Aug-2021 5003.00 7989.61 87.34 4.00 432.47 3342.33
   07:54:05.201.27-Aug-2021 5003.00 7990.49 87.33 4.00 432.67 3342.33
   07:54:05.401.27-Aug-2021 5003.00 7991.67 87.33 4.00 432.87 3342.33
   07:54:05.602.27-Aug-2021 5003.00 7991.79 87.33 4.00 433.07 3342.33
   07:54:05.802.27-Aug-2021 5003.00 7991.79 87.33 4.00 433.27 3342.33
   07:54:06.002.27-Aug-2021 5003.00 7990.65 87.33 4.00 433.47 3342.33
   07:54:06.202.27-Aug-2021 5003.00 7990.49 87.33 4.00 433.67 3342.33
   07:54:06.402.27-Aug-2021 5003.00 7990.82 87.33 4.00 433.87 3342.33
   07:54:06.602.27-Aug-2021 5003.00 7994.06 87.33 4.00 434.07 3342.33
   07:54:06.802.27-Aug-2021 5003.00 7994.06 87.33 4.00 434.27 3342.33
   07:54:07.002.27-Aug-2021 5003.00 7989.19 87.33 4.00 434.47 3342.33
   07:54:07.202.27-Aug-2021 5003.00 7989.13 87.33 4.00 434.67 3342.33
   07:54:07.402.27-Aug-2021 5003.00 7989.28 87.33 4.00 434.87 3342.33
   07:54:07.602.27-Aug-2021 5003.00 7989.49 87.33 4.00 435.07 3342.33
   07:54:07.802.27-Aug-2021 5003.00 7989.49 87.33 4.00 435.27 3342.33
   07:54:08.002.27-Aug-2021 5003.00 7989.01 87.33 4.00 435.47 3342.33
   07:54:08.202.27-Aug-2021 5003.00 7989.27 87.33 4.00 435.67 3342.33
   07:54:08.402.27-Aug-2021 5003.00 7989.79 87.33 4.00 435.87 3342.33
   07:54:08.602.27-Aug-2021 5003.00 7990.94 87.33 4.00 436.07 3342.33
   07:54:08.802.27-Aug-2021 5003.00 7990.94 87.33 4.00 436.27 3342.33
   07:54:09.002.27-Aug-2021 5003.00 7990.71 87.33 4.00 436.47 3342.33
   07:54:09.202.27-Aug-2021 5003.00 7990.26 87.33 4.00 436.67 3342.33
   07:54:09.402.27-Aug-2021 5003.00 7989.68 87.33 4.00 436.87 3342.33
