~Version Information
 VERS.                  2.0:   CWLS log ASCII Standard -VERSION 2.0
 WRAP.                   NO:   One line per depth step
~Well Information Block
#MNEM.UNIT     VALUE/NAME     DESCRIPTION
#---------     -----------    ---------------------------
 STRT.S             07:19:48 27-Aug-21: START TIME 07:19:48 27-Aug-21
 STOP.S             07:26:57 27-Aug-21: STOP TIME  07:26:57 27-Aug-21
 STEP.S                   0.00: STEP TIME
 NULL.                 -999.25: NULL VALUE
 DFWT.                        :  DIST FWL TEXT
 DFST.                        :  DIST FSL TEXT
 DMF .             Drill Floor:  DRILL MEAS FROM
 STIM.      20.00.00 17-Aug-21:  START TIME
 DATE.      19.00.00 29-Aug-21:  END TIME
 SPUD.               15-Aug-21:  SPUD DATE
 NREF.                    Grid:  NORTH REFERENCE
 HPTY.       Minimum Curvature:  HOLE POS TYPE
 DMOD.             Drill Model:  DRILL MOD DESC
 SVYD.                  Survey:  SURVEY DESC
 ILTD.               Lithology:  INTERP LTH DESC
 FTOP.          Formation Tops:  FORM TOPS DESC
 RIG .              East Azeri:  RIG NAME
 PDAT.          Mean Sea Level:  PERMANENT DATUM
 FLD .                     ACG:  FIELD NAME
 SON .        AZ-XX-0907180857:  JOB NUMBER
 CTRY.              Azerbaijan:  COUNTRY NAME
 WELL.                    D23x:  WELL NAME
 SRVC.     Turan Drilling and Engineering:  CONTRACTOR
 COMP.     BP Exploration (Caspian Sea) Ltd.:  COMPANY
 UWI .            /AZE00000214:  UNIQUE WELL IDENTIFIER
 API .            /AZE00000214:  API NUMBER
 MDS .        Operator Entered:  MAG DATA SOURCE
 BASE.              Azerbaijan:  LOGGING EQUIPMENT BASE LOCATION
 REGN.                   EESSA:  REGION
 PROV.                    Baku:  PROVINCE
 STAT.                    Baku:  STATE NAME
 MWDS.                    Baku:  MWD SHOP
 DOE .                     N/A:  DOE NUMBER
 DCON.         Sperry Drilling:  DIRECTNL CONTR
 UNIT.                     N/A:  LOGGING EQUIPMENT ID
 WTYP.                Deviated:  WELL TYPE
 CNTY.                        :  COUNTY
 LOC .                        :  LOCATION
 LMF .             Drill Floor:  LOG MEASURED FROM
 TVDS.m                  43.60:  TVDSS CORRECTN
 LATI.deg                40.02:  LATITUDE
 LONG.deg                51.45:  LONGITUDE
 WHNS.m                  -7.04:  WELL HEAD N/S
 WHEW.m                  -0.67:  WELL HEAD E/W
 UTMX.m              538762.90:  UTM X
 UTMY.m             4431871.34:  UTM Y
 DFWL.m                   0.00:  DISTANCE FWL
 DFSL.m                   0.00:  DISTANCE FSL
 SDEP.m                4127.00:  START DEPTH
 TDD .m                5084.50:  TOTAL DEPTH (DRILLER)
 VSDR.deg               140.47:  VERT SEC DIRECT
 GVFD.g                   1.00:  GRAVITY FIELD
 MFLD.nT              50362.00:  MAGNETIC FIELD
 MDIP.deg                59.48:  MAGNETIC DIP
 MDEC.deg                 6.47:  MAGNETIC DECL
 GRDC.deg                 0.31:  GRID CORRECTION
 AZTC.deg                 6.16:  AZM TOTAL CORR
 EPD .m                   0.00:  ELEVATION
 EGL .m                   0.00:  GROUND ELEVATION
 WDMS.m                 151.80:  WD ELEV
 APD .m                  43.60:  DEPTH ABOVE PD
 DEP .m                4092.57:  DEPTH
 AGAP.m                  43.60:  AIR GAP
 VSEW.m                  -0.67:  VERT SEC E/W
 VSNS.m                  -7.04:  VERT SEC N/S
 EKB .m                  43.60:  KB ELEVATION
 EDF .m                  43.60:  DF ELEVATION
 TDL .m                 957.50:  TOTAL DEPTH (LOGGER)
 VSC .                       0:  VS TO CLOSURE
 MAGU.                 1851413:  MAGUTM CHECKSUM
~Parameter Information Block
#MNEM.UNIT       Value        Description
#---------     -----------    ---------------------------
 AV  .mps                 1.50:  Ann Velocity 
 AVMX.mps                 2.00:  Max Ann Veloc 
 AZIF.deg               184.66:  Azm, Final 
 BHAT.        Rotary Steerable:  BHA Type 
 BREV.rev               300.00:  Rev Bit Total 
 BROT.°/30m              -0.50:  Build Rotating 
 BS  .in                  8.50:  Bit Size 
 BSZ .in                  8.50:  Bit Size 
 BTPL.psig              370.00:  Bit Press Loss 
 CABU.                      No:  Customer Abuse 
 CGEO.      Behruz Shahbaliyev:  Customer Geo 
 COMM.                     Ô‘[:  Run Comments 1 
 TCS .hr                140.08:  Time Ciculation Ended 
 CV  .mps                 3.00:  Crit Velocity 
 CVMX.mps                 3.20:  Max Crit Veloc 
 DD1 .            Musa Ahmadov:  Direct Drillr 1 
 DD2 .           Hamid Ahmadov:  Direct Drillr 2 
 DDSV.               Geo-Pilot:  DD Service 
 DEFF.%                  98.40:  % Det Eff 
 DLRX.°/30m               3.40:  Dogleg Rot Max 
 DLSO.°/30m               1.45:  Dogleg Oriented 
 DLSX.°/30m               3.40:  Dogleg Str Max 
 DRET.      18.40.00 29-Aug-21:  Drill End Time 
 DRST.      21.00.00 20-Aug-21:  Drill Start Tim 
 DTIM.hr                 69.47:  Time Drilling 
 EDEP.m                5084.50:  End Depth 
 ENG1.      Artemiy Matviyanov:  Engineer 1 
 ENG2.         Almaz Almadatov:  Engineer 2 
 ETIM.      18.40.00 29-Aug-21:  End Time 
 FLOI.gpm               500.00:  Flow In 
 FLON.gpm               400.00:  Flow In Min 
 FLOS.cptm                0.00:  Fluid Loss 
 FLOX.gpm               500.00:  Flow In Max 
 DFT .        Mineral Oil Base:  Mud Type 
 HFLO.                      No:  High Flow 
 HPRE.                      No:  High Pressure 
 HTEM.                      No:  High Temp 
 HYDO.m                   1.80:  Hydro Offset 
 IFIN.deg                25.62:  Inc, Final 
 IMAX.deg                48.69:  Inc Max 
 IMIN.deg                24.01:  Inc Min 
 IMND.m                4962.57:  Inc Min Depth 
 IMXD.m                4119.01:  Inc Max Depth 
 JARR.                      No:  Jarring 
 LETM.      18.40.00 29-Aug-21:  Log End Time 
 LOST.hr                     0:  Lost Rig Time 
 LSTM.      21.00.00 20-Aug-21:  Log Start Time 
 MDCL.ppm             41500.00:  Mud Chlorides 
 MDES.     Inversion Oil/Synthetic:  Mud Desc 
 DFD .sg                  1.56:  Mud Density 
 MDMN.sg                  1.56:  Dens Mud Min 
 MDMX.sg                  1.56:  Dens Mud Max 
 MOIL.                      70:  Run Mud Oil % 
 MOWR.                   70:30:  Run Mud OWR 
 MSND.                     0.2:  Run Mud Sand % 
 MSOL.                    23.3:  Run Mud Solids% 
 DFV .spqt               78.00:  Mud Viscosity 
 MWOD.in                  6.75:  MWD Tool OD 
 MWSI.                      No:  Serv Intrp, MWD 
 OTIM.hr                218.30:  Time Operating 
 PCON.           Look Like New:  Pad Condition 
 PMAX.psia            11015.30:  Press Op, Max 
 PV  .cP                 38.00:  Mud PV 
 RUN .                     300:  Run Number 
 ROPA.m/hr               15.00:  ROP Avg 
 ROPN.m/hr                9.00:  ROP Min 
 ROPX.m/hr               17.00:  ROP Max 
 RPMA.rpm               120.00:  RPM Surface Avg 
 RPMN.rpm                90.00:  RPM Surface Min 
 RPMX.rpm               140.00:  RPM Surface Max 
 RRUN.                     300:  Rig Run Number 
 RTIM.hr                 31.53:  Time Reaming 
 SAZI.deg               331.64:  Azm, Start 
 SDEP.m                4127.00:  Start Depth 
 SIDD.                      No:  Serv Intrp, DD 
 SINC.deg                48.43:  Inc, Start 
 SPPA.psig             5830.00:  SPP Avg 
 SPPN.psig             5600.00:  SPP Min 
 SPPX.psig             5900.00:  SPP Max 
 STIM.      21.00.00 20-Aug-21:  Start Time 
 SVCS.                 DD, MWD:  Services 
 SVER.                    9.20:  Sperry Version 
 TDAT.m                 957.50:  Tot Depth Attmp 
 TDDF.                      No:  Trip for DD 
 TDLG.m                 957.50:  Tot Depth Loggd 
 TFF .                      No:  Trip for Fail 
 TQAA.f-kp               15.00:  Torque Abs Avg 
 TQAN.f-kp               12.00:  Torque Abs Min 
 TQAX.f-kp               19.00:  Torque Abs Max 
 TRRT.°/30m              -3.40:  Turn Rotating 
 MRT .                  EWR-M5:  Maximum Recorded Temperature 
 TTMX.degC              100.00:  Max Tool Temp 
 VS01.                90639251:  Virtual Str1 SN 
 VS02.                90634715:  Virtual Str2 SN 
 VS03.                90652479:  Virtual Str3 SN 
 VS04.                90642262:  Virtual Str4 SN 
 WBMN.klb                 0.00:  WOB Min 
 WITN.           Murad Guliyev:  Customer Rep 
 WITN.          Yashar Gaziyev:  Customer Rep 2 
 WOBA.klb                 9.00:  WOB Avg 
 WOBX.klb                12.00:  WOB Max 
 YP  .lhf2               30.00:  Yield Point 
~Curve Information Block
#MNEM.UNIT                 API CODE     Curve Description
#---------               -----------    ---------------------------
 TIME.HHMMSS            00 000 000 000:  GT Time & Date
 GTDEPTH.m              00 000 000 000:  GT Depth
 GTPQH.psia             00 000 000 000:  GT HR Quartz Pressure
 GTTQ.degC              00 000 000 000:  GT Quartz Temperature
 GTTN.NONE              00 000 000 000:  GT Test Number
 GTET.sec               00 000 000 000:  GT Elapsed Test Time
 GTTVD.m                00 000 000 000:  GT True Vertical Depth
#Other Information
#
#WARRANTY: Halliburton will use its best efforts to furnish customers with 
#accurate information and interpretations that are part of, and incident to, the services 
#provided.  However, Halliburton cannot and does not warrant the accuracy 
#or correctness of such information and interpretations.  Under no circumstances should any 
#such information or interpretation be relied upon as the sole basis for any drilling, 
#completion, production, or financial decision or any procedure involving any risk to the 
#safety of any drilling venture, drilling rig or its crew or any other third party.  The 
#Customer has full responsibility for all drilling, completion and production operation.  
#Halliburton makes no representations or warranties, either expressed or 
#implied, including, but not limited to, the implied warranties of merchantability or fitness 
#for a particular purpose, with respect to the services rendered.  In no event will 
#Halliburton be liable for failure to obtain any particular results or for 
#any damages, including, but not limited to, indirect, special or consequential damages, 
#resulting from the use of any information or interpretation provided by Halliburton.
#
~A           TIME           GTDEPTH  GTPQH  GTTQ  GTTN  GTET   GTTVD  
   07:19:48.264.27-Aug-2021 5010.50 7975.19 87.80 3.00   0.00 3349.10
   07:19:48.464.27-Aug-2021 5010.50 7975.19 87.80 3.00   0.20 3349.10
   07:19:48.664.27-Aug-2021 5010.50 7977.57 87.80 3.00   0.40 3349.10
   07:19:48.864.27-Aug-2021 5010.50 7977.64 87.80 3.00   0.60 3349.10
   07:19:49.064.27-Aug-2021 5010.50 7977.59 87.80 3.00   0.80 3349.10
   07:19:49.264.27-Aug-2021 5010.50 7977.71 87.80 3.00   1.00 3349.10
   07:19:49.464.27-Aug-2021 5010.50 7977.71 87.80 3.00   1.20 3349.10
   07:19:49.664.27-Aug-2021 5010.50 7978.97 87.80 3.00   1.40 3349.10
   07:19:49.864.27-Aug-2021 5010.50 7978.80 87.80 3.00   1.60 3349.10
   07:19:50.064.27-Aug-2021 5010.50 7977.36 87.79 3.00   1.80 3349.10
   07:19:50.264.27-Aug-2021 5010.50 7975.56 87.79 3.00   2.00 3349.10
   07:19:50.464.27-Aug-2021 5010.50 7975.56 87.79 3.00   2.20 3349.10
   07:19:50.664.27-Aug-2021 5010.50 7977.03 87.79 3.00   2.40 3349.10
   07:19:50.864.27-Aug-2021 5010.50 7977.56 87.79 3.00   2.60 3349.10
   07:19:51.064.27-Aug-2021 5010.50 7976.17 87.79 3.00   2.80 3349.10
   07:19:51.264.27-Aug-2021 5010.50 7975.06 87.79 3.00   3.00 3349.10
   07:19:51.464.27-Aug-2021 5010.50 7975.06 87.79 3.00   3.20 3349.10
   07:19:51.664.27-Aug-2021 5010.50 7982.55 87.79 3.00   3.40 3349.10
   07:19:51.864.27-Aug-2021 5010.50 7976.98 87.79 3.00   3.60 3349.10
   07:19:52.064.27-Aug-2021 5010.50 7977.34 87.79 3.00   3.80 3349.10
   07:19:52.264.27-Aug-2021 5010.50 7979.13 87.79 3.00   4.00 3349.10
   07:19:52.464.27-Aug-2021 5010.50 7979.13 87.79 3.00   4.20 3349.10
   07:19:52.664.27-Aug-2021 5010.50 7978.87 87.79 3.00   4.40 3349.10
   07:19:52.864.27-Aug-2021 5010.50 7978.58 87.79 3.00   4.60 3349.10
   07:19:53.064.27-Aug-2021 5010.50 7978.37 87.79 3.00   4.80 3349.10
   07:19:53.264.27-Aug-2021 5010.50 7983.25 87.79 3.00   5.00 3349.10
   07:19:53.464.27-Aug-2021 5010.50 7983.25 87.79 3.00   5.20 3349.10
   07:19:53.665.27-Aug-2021 5010.50 7983.25 87.79 3.00   5.40 3349.10
   07:19:53.865.27-Aug-2021 5010.50 7979.06 87.79 3.00   5.60 3349.10
   07:19:54.065.27-Aug-2021 5010.50 7979.05 87.79 3.00   5.80 3349.10
   07:19:54.265.27-Aug-2021 5010.50 7979.82 87.79 3.00   6.00 3349.10
   07:19:54.465.27-Aug-2021 5010.50 7979.82 87.79 3.00   6.20 3349.10
   07:19:54.665.27-Aug-2021 5010.50 7979.92 87.79 3.00   6.40 3349.10
   07:19:54.865.27-Aug-2021 5010.50 7980.28 87.79 3.00   6.60 3349.10
   07:19:55.065.27-Aug-2021 5010.50 7980.41 87.79 3.00   6.80 3349.10
   07:19:55.265.27-Aug-2021 5010.50 7981.67 87.79 3.00   7.00 3349.10
   07:19:55.465.27-Aug-2021 5010.50 7981.67 87.79 3.00   7.20 3349.10
   07:19:55.665.27-Aug-2021 5010.50 7983.50 87.79 3.00   7.40 3349.10
   07:19:55.865.27-Aug-2021 5010.50 7980.89 87.79 3.00   7.60 3349.10
   07:19:56.065.27-Aug-2021 5010.50 7981.79 87.79 3.00   7.80 3349.10
   07:19:56.265.27-Aug-2021 5010.50 7981.88 87.79 3.00   8.00 3349.10
   07:19:56.465.27-Aug-2021 5010.50 7981.88 87.79 3.00   8.20 3349.10
   07:19:56.665.27-Aug-2021 5010.50 7984.02 87.79 3.00   8.40 3349.10
   07:19:56.865.27-Aug-2021 5010.50 7984.32 87.79 3.00   8.60 3349.10
   07:19:57.065.27-Aug-2021 5010.50 7983.90 87.79 3.00   8.80 3349.10
   07:19:57.265.27-Aug-2021 5010.50 7984.02 87.79 3.00   9.00 3349.10
   07:19:57.465.27-Aug-2021 5010.50 7984.02 87.79 3.00   9.20 3349.10
   07:19:57.665.27-Aug-2021 5010.50 7986.14 87.79 3.00   9.40 3349.10
   07:19:57.865.27-Aug-2021 5010.50 7986.17 87.78 3.00   9.60 3349.10
   07:19:58.065.27-Aug-2021 5010.50 7985.87 87.78 3.00   9.80 3349.10
   07:19:58.265.27-Aug-2021 5010.50 7985.78 87.78 3.00  10.00 3349.10
   07:19:58.465.27-Aug-2021 5010.50 7985.78 87.78 3.00  10.20 3349.10
   07:19:58.665.27-Aug-2021 5010.50 7985.93 87.78 3.00  10.40 3349.10
   07:19:58.865.27-Aug-2021 5010.50 7986.39 87.78 3.00  10.60 3349.10
   07:19:59.065.27-Aug-2021 5010.50 7991.69 87.78 3.00  10.80 3349.10
   07:19:59.265.27-Aug-2021 5010.50 7986.02 87.78 3.00  11.00 3349.10
   07:19:59.465.27-Aug-2021 5010.50 7986.02 87.78 3.00  11.20 3349.10
   07:19:59.665.27-Aug-2021 5010.50 7986.37 87.78 3.00  11.40 3349.10
   07:19:59.866.27-Aug-2021 5010.50 7986.89 87.78 3.00  11.60 3349.10
   07:20:00.066.27-Aug-2021 5010.50 7986.91 87.78 3.00  11.80 3349.10
   07:20:00.266.27-Aug-2021 5010.50 7987.68 87.78 3.00  12.00 3349.10
   07:20:00.466.27-Aug-2021 5010.50 7987.68 87.78 3.00  12.20 3349.10
   07:20:00.666.27-Aug-2021 5010.50 7987.13 87.78 3.00  12.40 3349.10
   07:20:00.866.27-Aug-2021 5010.50 7987.15 87.78 3.00  12.60 3349.10
   07:20:01.066.27-Aug-2021 5010.50 7988.42 87.78 3.00  12.80 3349.10
   07:20:01.266.27-Aug-2021 5010.50 7989.53 87.78 3.00  13.00 3349.10
   07:20:01.466.27-Aug-2021 5010.50 7989.53 87.78 3.00  13.20 3349.10
   07:20:01.666.27-Aug-2021 5010.50 7989.43 87.78 3.00  13.40 3349.10
   07:20:01.866.27-Aug-2021 5010.50 7989.37 87.78 3.00  13.60 3349.10
   07:20:02.066.27-Aug-2021 5010.50 7989.70 87.78 3.00  13.80 3349.10
   07:20:02.266.27-Aug-2021 5010.50 7995.22 87.78 3.00  14.00 3349.10
   07:20:02.466.27-Aug-2021 5010.50 7995.22 87.78 3.00  14.20 3349.10
   07:20:02.666.27-Aug-2021 5010.50 7989.63 87.78 3.00  14.40 3349.10
   07:20:02.866.27-Aug-2021 5010.50 7989.55 87.78 3.00  14.60 3349.10
   07:20:03.066.27-Aug-2021 5010.50 7989.81 87.78 3.00  14.80 3349.10
   07:20:03.266.27-Aug-2021 5010.50 7990.04 87.78 3.00  15.00 3349.10
   07:20:03.466.27-Aug-2021 5010.50 7990.04 87.78 3.00  15.20 3349.10
   07:20:03.666.27-Aug-2021 5010.50 7989.77 87.78 3.00  15.40 3349.10
   07:20:03.866.27-Aug-2021 5010.50 7990.82 87.78 3.00  15.60 3349.10
   07:20:04.066.27-Aug-2021 5010.50 7990.66 87.78 3.00  15.80 3349.10
   07:20:04.266.27-Aug-2021 5010.50 7991.86 87.78 3.00  16.00 3349.10
   07:20:04.466.27-Aug-2021 5010.50 7991.86 87.78 3.00  16.20 3349.10
   07:20:04.666.27-Aug-2021 5010.50 7999.55 87.78 3.00  16.40 3349.10
   07:20:04.866.27-Aug-2021 5010.50 7990.79 87.78 3.00  16.60 3349.10
   07:20:05.066.27-Aug-2021 5010.50 7991.69 87.78 3.00  16.80 3349.10
   07:20:05.266.27-Aug-2021 5010.50 7992.23 87.78 3.00  17.00 3349.10
   07:20:05.466.27-Aug-2021 5010.50 7992.23 87.78 3.00  17.20 3349.10
   07:20:05.666.27-Aug-2021 5010.50 7995.54 87.77 3.00  17.40 3349.10
   07:20:05.867.27-Aug-2021 5010.50 7995.74 87.77 3.00  17.60 3349.10
   07:20:06.067.27-Aug-2021 5010.50 7993.99 87.77 3.00  17.80 3349.10
   07:20:06.267.27-Aug-2021 5010.50 7992.28 87.77 3.00  18.00 3349.10
   07:20:06.467.27-Aug-2021 5010.50 7992.28 87.77 3.00  18.20 3349.10
   07:20:06.667.27-Aug-2021 5010.50 7993.70 87.77 3.00  18.40 3349.10
   07:20:06.867.27-Aug-2021 5010.50 7995.16 87.77 3.00  18.60 3349.10
   07:20:07.067.27-Aug-2021 5010.50 7994.16 87.77 3.00  18.80 3349.10
   07:20:07.267.27-Aug-2021 5010.50 7994.12 87.77 3.00  19.00 3349.10
   07:20:07.467.27-Aug-2021 5010.50 7994.12 87.77 3.00  19.20 3349.10
   07:20:07.667.27-Aug-2021 5010.50 7997.21 87.77 3.00  19.40 3349.10
   07:20:07.867.27-Aug-2021 5010.50 7996.91 87.77 3.00  19.60 3349.10
   07:20:08.067.27-Aug-2021 5010.50 7995.83 87.77 3.00  19.80 3349.10
   07:20:08.267.27-Aug-2021 5010.50 7995.85 87.77 3.00  20.00 3349.10
   07:20:08.467.27-Aug-2021 5010.50 7995.85 87.77 3.00  20.20 3349.10
   07:20:08.667.27-Aug-2021 5010.50 7997.01 87.77 3.00  20.40 3349.10
   07:20:08.867.27-Aug-2021 5010.50 7996.37 87.77 3.00  20.60 3349.10
   07:20:09.067.27-Aug-2021 5010.50 7996.25 87.77 3.00  20.80 3349.10
   07:20:09.267.27-Aug-2021 5010.50 7996.56 87.77 3.00  21.00 3349.10
   07:20:09.467.27-Aug-2021 5010.50 7996.56 87.77 3.00  21.20 3349.10
   07:20:09.667.27-Aug-2021 5010.50 7998.06 87.77 3.00  21.40 3349.10
   07:20:09.867.27-Aug-2021 5010.50 7998.30 87.77 3.00  21.60 3349.10
   07:20:10.067.27-Aug-2021 5010.50 7997.93 87.77 3.00  21.80 3349.10
   07:20:10.267.27-Aug-2021 5010.50 7998.05 87.77 3.00  22.00 3349.10
   07:20:10.467.27-Aug-2021 5010.50 7998.05 87.77 3.00  22.20 3349.10
   07:20:10.667.27-Aug-2021 5010.50 7998.33 87.77 3.00  22.40 3349.10
   07:20:10.867.27-Aug-2021 5010.50 8002.40 87.77 3.00  22.60 3349.10
   07:20:11.067.27-Aug-2021 5010.50 7999.98 87.77 3.00  22.80 3349.10
