~Version Information
 VERS.                  2.0:   CWLS log ASCII Standard -VERSION 2.0
 WRAP.                   NO:   One line per depth step
~Well Information Block
#MNEM.UNIT     VALUE/NAME     DESCRIPTION
#---------     -----------    ---------------------------
 STRT.S             22:11:58 27-Aug-21: START TIME 22:11:58 27-Aug-21
 STOP.S             22:18:52 27-Aug-21: STOP TIME  22:18:52 27-Aug-21
 STEP.S                   0.00: STEP TIME
 NULL.                 -999.25: NULL VALUE
 DFWT.                        :  DIST FWL TEXT
 DFST.                        :  DIST FSL TEXT
 DMF .             Drill Floor:  DRILL MEAS FROM
 STIM.      20.00.00 17-Aug-21:  START TIME
 DATE.      19.00.00 29-Aug-21:  END TIME
 SPUD.               15-Aug-21:  SPUD DATE
 NREF.                    Grid:  NORTH REFERENCE
 HPTY.       Minimum Curvature:  HOLE POS TYPE
 DMOD.             Drill Model:  DRILL MOD DESC
 SVYD.                  Survey:  SURVEY DESC
 ILTD.               Lithology:  INTERP LTH DESC
 FTOP.          Formation Tops:  FORM TOPS DESC
 RIG .              East Azeri:  RIG NAME
 PDAT.          Mean Sea Level:  PERMANENT DATUM
 FLD .                     ACG:  FIELD NAME
 SON .        AZ-XX-0907180857:  JOB NUMBER
 CTRY.              Azerbaijan:  COUNTRY NAME
 WELL.                    D23x:  WELL NAME
 SRVC.     Turan Drilling and Engineering:  CONTRACTOR
 COMP.     BP Exploration (Caspian Sea) Ltd.:  COMPANY
 UWI .            /AZE00000214:  UNIQUE WELL IDENTIFIER
 API .            /AZE00000214:  API NUMBER
 MDS .        Operator Entered:  MAG DATA SOURCE
 BASE.              Azerbaijan:  LOGGING EQUIPMENT BASE LOCATION
 REGN.                   EESSA:  REGION
 PROV.                    Baku:  PROVINCE
 STAT.                    Baku:  STATE NAME
 MWDS.                    Baku:  MWD SHOP
 DOE .                     N/A:  DOE NUMBER
 DCON.         Sperry Drilling:  DIRECTNL CONTR
 UNIT.                     N/A:  LOGGING EQUIPMENT ID
 WTYP.                Deviated:  WELL TYPE
 CNTY.                        :  COUNTY
 LOC .                        :  LOCATION
 LMF .             Drill Floor:  LOG MEASURED FROM
 TVDS.m                  43.60:  TVDSS CORRECTN
 LATI.deg                40.02:  LATITUDE
 LONG.deg                51.45:  LONGITUDE
 WHNS.m                  -7.04:  WELL HEAD N/S
 WHEW.m                  -0.67:  WELL HEAD E/W
 UTMX.m              538762.90:  UTM X
 UTMY.m             4431871.34:  UTM Y
 DFWL.m                   0.00:  DISTANCE FWL
 DFSL.m                   0.00:  DISTANCE FSL
 SDEP.m                4127.00:  START DEPTH
 TDD .m                5084.50:  TOTAL DEPTH (DRILLER)
 VSDR.deg               140.47:  VERT SEC DIRECT
 GVFD.g                   1.00:  GRAVITY FIELD
 MFLD.nT              50362.00:  MAGNETIC FIELD
 MDIP.deg                59.48:  MAGNETIC DIP
 MDEC.deg                 6.47:  MAGNETIC DECL
 GRDC.deg                 0.31:  GRID CORRECTION
 AZTC.deg                 6.16:  AZM TOTAL CORR
 EPD .m                   0.00:  ELEVATION
 EGL .m                   0.00:  GROUND ELEVATION
 WDMS.m                 151.80:  WD ELEV
 APD .m                  43.60:  DEPTH ABOVE PD
 DEP .m                4092.57:  DEPTH
 AGAP.m                  43.60:  AIR GAP
 VSEW.m                  -0.67:  VERT SEC E/W
 VSNS.m                  -7.04:  VERT SEC N/S
 EKB .m                  43.60:  KB ELEVATION
 EDF .m                  43.60:  DF ELEVATION
 TDL .m                 957.50:  TOTAL DEPTH (LOGGER)
 VSC .                       0:  VS TO CLOSURE
 MAGU.                 1851413:  MAGUTM CHECKSUM
~Parameter Information Block
#MNEM.UNIT       Value        Description
#---------     -----------    ---------------------------
 AV  .mps                 1.50:  Ann Velocity 
 AVMX.mps                 2.00:  Max Ann Veloc 
 AZIF.deg               184.66:  Azm, Final 
 BHAT.        Rotary Steerable:  BHA Type 
 BREV.rev               300.00:  Rev Bit Total 
 BROT.°/30m              -0.50:  Build Rotating 
 BS  .in                  8.50:  Bit Size 
 BSZ .in                  8.50:  Bit Size 
 BTPL.psig              370.00:  Bit Press Loss 
 CABU.                      No:  Customer Abuse 
 CGEO.      Behruz Shahbaliyev:  Customer Geo 
 COMM.                     Tªl:  Run Comments 1 
 TCS .hr                140.08:  Time Ciculation Ended 
 CV  .mps                 3.00:  Crit Velocity 
 CVMX.mps                 3.20:  Max Crit Veloc 
 DD1 .            Musa Ahmadov:  Direct Drillr 1 
 DD2 .           Hamid Ahmadov:  Direct Drillr 2 
 DDSV.               Geo-Pilot:  DD Service 
 DEFF.%                  98.40:  % Det Eff 
 DLRX.°/30m               3.40:  Dogleg Rot Max 
 DLSO.°/30m               1.45:  Dogleg Oriented 
 DLSX.°/30m               3.40:  Dogleg Str Max 
 DRET.      18.40.00 29-Aug-21:  Drill End Time 
 DRST.      21.00.00 20-Aug-21:  Drill Start Tim 
 DTIM.hr                 69.47:  Time Drilling 
 EDEP.m                5084.50:  End Depth 
 ENG1.      Artemiy Matviyanov:  Engineer 1 
 ENG2.         Almaz Almadatov:  Engineer 2 
 ETIM.      18.40.00 29-Aug-21:  End Time 
 FLOI.gpm               500.00:  Flow In 
 FLON.gpm               400.00:  Flow In Min 
 FLOS.cptm                0.00:  Fluid Loss 
 FLOX.gpm               500.00:  Flow In Max 
 DFT .        Mineral Oil Base:  Mud Type 
 HFLO.                      No:  High Flow 
 HPRE.                      No:  High Pressure 
 HTEM.                      No:  High Temp 
 HYDO.m                   1.80:  Hydro Offset 
 IFIN.deg                25.62:  Inc, Final 
 IMAX.deg                48.69:  Inc Max 
 IMIN.deg                24.01:  Inc Min 
 IMND.m                4962.57:  Inc Min Depth 
 IMXD.m                4119.01:  Inc Max Depth 
 JARR.                      No:  Jarring 
 LETM.      18.40.00 29-Aug-21:  Log End Time 
 LOST.hr                     0:  Lost Rig Time 
 LSTM.      21.00.00 20-Aug-21:  Log Start Time 
 MDCL.ppm             41500.00:  Mud Chlorides 
 MDES.     Inversion Oil/Synthetic:  Mud Desc 
 DFD .sg                  1.56:  Mud Density 
 MDMN.sg                  1.56:  Dens Mud Min 
 MDMX.sg                  1.56:  Dens Mud Max 
 MOIL.                      70:  Run Mud Oil % 
 MOWR.                   70:30:  Run Mud OWR 
 MSND.                     0.2:  Run Mud Sand % 
 MSOL.                    23.3:  Run Mud Solids% 
 DFV .spqt               78.00:  Mud Viscosity 
 MWOD.in                  6.75:  MWD Tool OD 
 MWSI.                      No:  Serv Intrp, MWD 
 OTIM.hr                218.30:  Time Operating 
 PCON.           Look Like New:  Pad Condition 
 PMAX.psia            11015.30:  Press Op, Max 
 PV  .cP                 38.00:  Mud PV 
 RUN .                     300:  Run Number 
 ROPA.m/hr               15.00:  ROP Avg 
 ROPN.m/hr                9.00:  ROP Min 
 ROPX.m/hr               17.00:  ROP Max 
 RPMA.rpm               120.00:  RPM Surface Avg 
 RPMN.rpm                90.00:  RPM Surface Min 
 RPMX.rpm               140.00:  RPM Surface Max 
 RRUN.                     300:  Rig Run Number 
 RTIM.hr                 31.53:  Time Reaming 
 SAZI.deg               331.64:  Azm, Start 
 SDEP.m                4127.00:  Start Depth 
 SIDD.                      No:  Serv Intrp, DD 
 SINC.deg                48.43:  Inc, Start 
 SPPA.psig             5830.00:  SPP Avg 
 SPPN.psig             5600.00:  SPP Min 
 SPPX.psig             5900.00:  SPP Max 
 STIM.      21.00.00 20-Aug-21:  Start Time 
 SVCS.                 DD, MWD:  Services 
 SVER.                    9.20:  Sperry Version 
 TDAT.m                 957.50:  Tot Depth Attmp 
 TDDF.                      No:  Trip for DD 
 TDLG.m                 957.50:  Tot Depth Loggd 
 TFF .                      No:  Trip for Fail 
 TQAA.f-kp               15.00:  Torque Abs Avg 
 TQAN.f-kp               12.00:  Torque Abs Min 
 TQAX.f-kp               19.00:  Torque Abs Max 
 TRRT.°/30m              -3.40:  Turn Rotating 
 MRT .                  EWR-M5:  Maximum Recorded Temperature 
 TTMX.degC              100.00:  Max Tool Temp 
 VS01.                90639251:  Virtual Str1 SN 
 VS02.                90634715:  Virtual Str2 SN 
 VS03.                90652479:  Virtual Str3 SN 
 VS04.                90642262:  Virtual Str4 SN 
 WBMN.klb                 0.00:  WOB Min 
 WITN.           Murad Guliyev:  Customer Rep 
 WITN.          Yashar Gaziyev:  Customer Rep 2 
 WOBA.klb                 9.00:  WOB Avg 
 WOBX.klb                12.00:  WOB Max 
 YP  .lhf2               30.00:  Yield Point 
~Curve Information Block
#MNEM.UNIT                 API CODE     Curve Description
#---------               -----------    ---------------------------
 TIME.HHMMSS            00 000 000 000:  GT Time & Date
 GTDEPTH.m              00 000 000 000:  GT Depth
 GTPQH.psia             00 000 000 000:  GT HR Quartz Pressure
 GTTQ.degC              00 000 000 000:  GT Quartz Temperature
 GTTN.NONE              00 000 000 000:  GT Test Number
 GTET.sec               00 000 000 000:  GT Elapsed Test Time
 GTTVD.m                00 000 000 000:  GT True Vertical Depth
#Other Information
#
#WARRANTY: Halliburton will use its best efforts to furnish customers with 
#accurate information and interpretations that are part of, and incident to, the services 
#provided.  However, Halliburton cannot and does not warrant the accuracy 
#or correctness of such information and interpretations.  Under no circumstances should any 
#such information or interpretation be relied upon as the sole basis for any drilling, 
#completion, production, or financial decision or any procedure involving any risk to the 
#safety of any drilling venture, drilling rig or its crew or any other third party.  The 
#Customer has full responsibility for all drilling, completion and production operation.  
#Halliburton makes no representations or warranties, either expressed or 
#implied, including, but not limited to, the implied warranties of merchantability or fitness 
#for a particular purpose, with respect to the services rendered.  In no event will 
#Halliburton be liable for failure to obtain any particular results or for 
#any damages, including, but not limited to, indirect, special or consequential damages, 
#resulting from the use of any information or interpretation provided by Halliburton.
#
~A           TIME           GTDEPTH  GTPQH  GTTQ  GTTN   GTET   GTTVD  
# ...
   22:13:06.353.27-Aug-2021 4635.80 1261.02 82.33 24.00  67.81 3009.39
   22:13:06.553.27-Aug-2021 4635.80 1282.60 82.33 24.00  68.01 3009.39
   22:13:06.753.27-Aug-2021 4635.80 1282.60 82.33 24.00  68.21 3009.39
   22:13:06.953.27-Aug-2021 4635.80 1324.57 82.33 24.00  68.41 3009.39
   22:13:07.153.27-Aug-2021 4635.80 1344.84 82.33 24.00  68.61 3009.39
   22:13:07.353.27-Aug-2021 4635.80 1364.97 82.33 24.00  68.81 3009.39
   22:13:07.553.27-Aug-2021 4635.80 1384.95 82.33 24.00  69.01 3009.39
   22:13:07.753.27-Aug-2021 4635.80 1384.95 82.33 24.00  69.21 3009.39
   22:13:07.953.27-Aug-2021 4635.80 1423.88 82.33 24.00  69.41 3009.39
   22:13:08.153.27-Aug-2021 4635.80 1443.37 82.33 24.00  69.61 3009.39
   22:13:08.353.27-Aug-2021 4635.80 1462.58 82.33 24.00  69.81 3009.39
   22:13:08.553.27-Aug-2021 4635.80 1482.00 82.33 24.00  70.01 3009.39
   22:13:08.753.27-Aug-2021 4635.80 1482.00 82.33 24.00  70.21 3009.39
   22:13:08.953.27-Aug-2021 4635.80 1520.15 82.33 24.00  70.41 3009.39
   22:13:09.153.27-Aug-2021 4635.80 1539.08 82.33 24.00  70.61 3009.39
   22:13:09.353.27-Aug-2021 4635.80 1557.82 82.33 24.00  70.81 3009.39
   22:13:09.553.27-Aug-2021 4635.80 1576.38 82.33 24.00  71.01 3009.39
   22:13:09.753.27-Aug-2021 4635.80 1576.38 82.33 24.00  71.21 3009.39
   22:13:09.953.27-Aug-2021 4635.80 1613.13 82.33 24.00  71.41 3009.39
   22:13:10.153.27-Aug-2021 4635.80 1631.24 82.33 24.00  71.61 3009.39
   22:13:10.353.27-Aug-2021 4635.80 1649.32 82.33 24.00  71.81 3009.39
   22:13:10.553.27-Aug-2021 4635.80 1667.20 82.33 24.00  72.01 3009.39
   22:13:10.753.27-Aug-2021 4635.80 1667.20 82.33 24.00  72.21 3009.39
   22:13:10.953.27-Aug-2021 4635.80 1701.74 82.33 24.00  72.41 3009.39
   22:13:11.153.27-Aug-2021 4635.80 1719.33 82.33 24.00  72.61 3009.39
   22:13:11.353.27-Aug-2021 4635.80 1736.75 82.33 24.00  72.81 3009.39
   22:13:11.553.27-Aug-2021 4635.80 1754.26 82.33 24.00  73.01 3009.39
   22:13:11.753.27-Aug-2021 4635.80 1754.26 82.33 24.00  73.21 3009.39
   22:13:11.953.27-Aug-2021 4635.80 1787.27 82.34 24.00  73.41 3009.39
   22:13:12.153.27-Aug-2021 4635.80 1803.36 82.34 24.00  73.61 3009.39
   22:13:12.353.27-Aug-2021 4635.80 1819.38 82.34 24.00  73.81 3009.39
   22:13:12.553.27-Aug-2021 4635.80 1835.90 82.34 24.00  74.01 3009.39
   22:13:12.753.27-Aug-2021 4635.80 1835.90 82.34 24.00  74.21 3009.39
   22:13:12.953.27-Aug-2021 4635.80 1868.85 82.34 24.00  74.41 3009.39
   22:13:13.153.27-Aug-2021 4635.80 1884.12 82.34 24.00  74.61 3009.39
   22:13:13.353.27-Aug-2021 4635.80 1900.18 82.34 24.00  74.81 3009.39
   22:13:13.553.27-Aug-2021 4635.80 1916.77 82.34 24.00  75.01 3009.39
   22:13:13.753.27-Aug-2021 4635.80 1916.77 82.34 24.00  75.21 3009.39
   22:13:13.953.27-Aug-2021 4635.80 1948.23 82.34 24.00  75.41 3009.39
   22:13:14.153.27-Aug-2021 4635.80 1963.78 82.34 24.00  75.61 3009.39
   22:13:14.354.27-Aug-2021 4635.80 1979.25 82.34 24.00  75.81 3009.39
   22:13:14.554.27-Aug-2021 4635.80 1995.24 82.34 24.00  76.01 3009.39
   22:13:14.754.27-Aug-2021 4635.80 1995.24 82.34 24.00  76.21 3009.39
   22:13:14.954.27-Aug-2021 4635.80 2026.41 82.35 24.00  76.41 3009.39
   22:13:15.154.27-Aug-2021 4635.80 2041.56 82.35 24.00  76.61 3009.39
   22:13:15.354.27-Aug-2021 4635.80 2057.00 82.35 24.00  76.81 3009.39
   22:13:15.554.27-Aug-2021 4635.80 2072.17 82.35 24.00  77.01 3009.39
   22:13:15.754.27-Aug-2021 4635.80 2072.17 82.35 24.00  77.21 3009.39
   22:13:15.954.27-Aug-2021 4635.80 2102.00 82.35 24.00  77.41 3009.39
   22:13:16.154.27-Aug-2021 4635.80 2116.92 82.35 24.00  77.61 3009.39
   22:13:16.354.27-Aug-2021 4635.80 2131.36 82.35 24.00  77.81 3009.39
   22:13:16.554.27-Aug-2021 4635.80 2146.13 82.35 24.00  78.01 3009.39
   22:13:16.754.27-Aug-2021 4635.80 2146.13 82.35 24.00  78.21 3009.39
   22:13:16.954.27-Aug-2021 4635.80 2174.78 82.35 24.00  78.41 3009.39
   22:13:17.154.27-Aug-2021 4635.80 2187.94 82.35 24.00  78.61 3009.39
   22:13:17.354.27-Aug-2021 4635.80 2201.82 82.35 24.00  78.81 3009.39
   22:13:17.554.27-Aug-2021 4635.80 2215.88 82.36 24.00  79.01 3009.39
   22:13:17.754.27-Aug-2021 4635.80 2215.88 82.36 24.00  79.21 3009.39
   22:13:17.954.27-Aug-2021 4635.80 2244.53 82.36 24.00  79.41 3009.39
   22:13:18.154.27-Aug-2021 4635.80 2258.39 82.36 24.00  79.61 3009.39
   22:13:18.354.27-Aug-2021 4635.80 2272.44 82.36 24.00  79.81 3009.39
   22:13:18.554.27-Aug-2021 4635.80 2286.18 82.36 24.00  80.01 3009.39
   22:13:18.754.27-Aug-2021 4635.80 2286.18 82.36 24.00  80.21 3009.39
   22:13:18.954.27-Aug-2021 4635.80 2313.45 82.36 24.00  80.41 3009.39
   22:13:19.154.27-Aug-2021 4635.80 2326.93 82.36 24.00  80.61 3009.39
   22:13:19.354.27-Aug-2021 4635.80 2339.95 82.36 24.00  80.81 3009.39
   22:13:19.554.27-Aug-2021 4635.80 2352.86 82.36 24.00  81.01 3009.39
   22:13:19.754.27-Aug-2021 4635.80 2352.86 82.36 24.00  81.21 3009.39
   22:13:19.954.27-Aug-2021 4635.80 2378.60 82.36 24.00  81.41 3009.39
   22:13:20.154.27-Aug-2021 4635.80 2391.30 82.37 24.00  81.61 3009.39
   22:13:20.354.27-Aug-2021 4635.80 2402.76 82.37 24.00  81.81 3009.39
   22:13:20.554.27-Aug-2021 4635.80 2415.19 82.37 24.00  82.01 3009.39
   22:13:20.754.27-Aug-2021 4635.80 2415.19 82.37 24.00  82.21 3009.39
   22:13:20.954.27-Aug-2021 4635.80 2427.75 82.37 24.00  82.41 3009.39
   22:13:21.154.27-Aug-2021 4635.80 2453.27 82.37 24.00  82.61 3009.39
   22:13:21.354.27-Aug-2021 4635.80 2463.88 82.37 24.00  82.81 3009.39
   22:13:21.554.27-Aug-2021 4635.80 2476.30 82.37 24.00  83.01 3009.39
   22:13:21.754.27-Aug-2021 4635.80 2476.30 82.37 24.00  83.21 3009.39
   22:13:21.954.27-Aug-2021 4635.80 2501.26 82.37 24.00  83.41 3009.39
   22:13:22.154.27-Aug-2021 4635.80 2513.67 82.37 24.00  83.61 3009.39
   22:13:22.354.27-Aug-2021 4635.80 2525.48 82.37 24.00  83.81 3009.39
   22:13:22.554.27-Aug-2021 4635.80 2536.92 82.37 24.00  84.01 3009.39
   22:13:22.754.27-Aug-2021 4635.80 2536.92 82.37 24.00  84.21 3009.39
   22:13:22.954.27-Aug-2021 4635.80 2559.67 82.38 24.00  84.41 3009.39
   22:13:23.154.27-Aug-2021 4635.80 2571.64 82.38 24.00  84.61 3009.39
   22:13:23.354.27-Aug-2021 4635.80 2583.46 82.38 24.00  84.81 3009.39
   22:13:23.554.27-Aug-2021 4635.80 2593.41 82.38 24.00  85.01 3009.39
   22:13:23.754.27-Aug-2021 4635.80 2593.41 82.38 24.00  85.21 3009.39
   22:13:23.954.27-Aug-2021 4635.80 2615.69 82.38 24.00  85.41 3009.39
   22:13:24.155.27-Aug-2021 4635.80 2627.12 82.38 24.00  85.61 3009.39
   22:13:24.355.27-Aug-2021 4635.80 2638.31 82.38 24.00  85.81 3009.39
   22:13:24.555.27-Aug-2021 4635.80 2649.46 82.38 24.00  86.01 3009.39
   22:13:24.755.27-Aug-2021 4635.80 2649.46 82.38 24.00  86.21 3009.39
   22:13:24.955.27-Aug-2021 4635.80 2671.85 82.38 24.00  86.41 3009.39
   22:13:25.155.27-Aug-2021 4635.80 2682.71 82.38 24.00  86.61 3009.39
   22:13:25.355.27-Aug-2021 4635.80 2693.77 82.38 24.00  86.81 3009.39
   22:13:25.555.27-Aug-2021 4635.80 2704.45 82.38 24.00  87.01 3009.39
   22:13:25.755.27-Aug-2021 4635.80 2704.45 82.38 24.00  87.21 3009.39
   22:13:25.955.27-Aug-2021 4635.80 2704.45 82.38 24.00  87.41 3009.39
   22:13:26.155.27-Aug-2021 4635.80 2736.92 82.39 24.00  87.61 3009.39
   22:13:26.355.27-Aug-2021 4635.80 2747.64 82.39 24.00  87.81 3009.39
   22:13:26.555.27-Aug-2021 4635.80 2758.20 82.39 24.00  88.01 3009.39
   22:13:26.755.27-Aug-2021 4635.80 2758.20 82.39 24.00  88.21 3009.39
   22:13:26.955.27-Aug-2021 4635.80 2777.08 82.39 24.00  88.41 3009.39
   22:13:27.155.27-Aug-2021 4635.80 2787.60 82.39 24.00  88.61 3009.39
   22:13:27.355.27-Aug-2021 4635.80 2797.81 82.39 24.00  88.81 3009.39
   22:13:27.555.27-Aug-2021 4635.80 2808.27 82.39 24.00  89.01 3009.39
   22:13:27.755.27-Aug-2021 4635.80 2808.27 82.39 24.00  89.21 3009.39
   22:13:27.955.27-Aug-2021 4635.80 2828.69 82.39 24.00  89.41 3009.39
   22:13:28.155.27-Aug-2021 4635.80 2838.83 82.39 24.00  89.61 3009.39
   22:13:28.355.27-Aug-2021 4635.80 2849.00 82.39 24.00  89.81 3009.39
   22:13:28.555.27-Aug-2021 4635.80 2859.22 82.39 24.00  90.01 3009.39
   22:13:28.755.27-Aug-2021 4635.80 2859.22 82.39 24.00  90.21 3009.39
