~Version Information
 VERS.                  2.0:   CWLS log ASCII Standard -VERSION 2.0
 WRAP.                   NO:   One line per depth step
~Well Information Block
#MNEM.UNIT     VALUE/NAME     DESCRIPTION
#---------     -----------    ---------------------------
 STRT.S             11:29:40 27-Aug-21: START TIME 11:29:40 27-Aug-21
 STOP.S             11:36:51 27-Aug-21: STOP TIME  11:36:51 27-Aug-21
 STEP.S                   0.00: STEP TIME
 NULL.                 -999.25: NULL VALUE
 DFWT.                        :  DIST FWL TEXT
 DFST.                        :  DIST FSL TEXT
 DMF .             Drill Floor:  DRILL MEAS FROM
 STIM.      20.00.00 17-Aug-21:  START TIME
 DATE.      19.00.00 29-Aug-21:  END TIME
 SPUD.               15-Aug-21:  SPUD DATE
 NREF.                    Grid:  NORTH REFERENCE
 HPTY.       Minimum Curvature:  HOLE POS TYPE
 DMOD.             Drill Model:  DRILL MOD DESC
 SVYD.                  Survey:  SURVEY DESC
 ILTD.               Lithology:  INTERP LTH DESC
 FTOP.          Formation Tops:  FORM TOPS DESC
 RIG .              East Azeri:  RIG NAME
 PDAT.          Mean Sea Level:  PERMANENT DATUM
 FLD .                     ACG:  FIELD NAME
 SON .        AZ-XX-0907180857:  JOB NUMBER
 CTRY.              Azerbaijan:  COUNTRY NAME
 WELL.                    D23x:  WELL NAME
 SRVC.     Turan Drilling and Engineering:  CONTRACTOR
 COMP.     BP Exploration (Caspian Sea) Ltd.:  COMPANY
 UWI .            /AZE00000214:  UNIQUE WELL IDENTIFIER
 API .            /AZE00000214:  API NUMBER
 MDS .        Operator Entered:  MAG DATA SOURCE
 BASE.              Azerbaijan:  LOGGING EQUIPMENT BASE LOCATION
 REGN.                   EESSA:  REGION
 PROV.                    Baku:  PROVINCE
 STAT.                    Baku:  STATE NAME
 MWDS.                    Baku:  MWD SHOP
 DOE .                     N/A:  DOE NUMBER
 DCON.         Sperry Drilling:  DIRECTNL CONTR
 UNIT.                     N/A:  LOGGING EQUIPMENT ID
 WTYP.                Deviated:  WELL TYPE
 CNTY.                        :  COUNTY
 LOC .                        :  LOCATION
 LMF .             Drill Floor:  LOG MEASURED FROM
 TVDS.m                  43.60:  TVDSS CORRECTN
 LATI.deg                40.02:  LATITUDE
 LONG.deg                51.45:  LONGITUDE
 WHNS.m                  -7.04:  WELL HEAD N/S
 WHEW.m                  -0.67:  WELL HEAD E/W
 UTMX.m              538762.90:  UTM X
 UTMY.m             4431871.34:  UTM Y
 DFWL.m                   0.00:  DISTANCE FWL
 DFSL.m                   0.00:  DISTANCE FSL
 SDEP.m                4127.00:  START DEPTH
 TDD .m                5084.50:  TOTAL DEPTH (DRILLER)
 VSDR.deg               140.47:  VERT SEC DIRECT
 GVFD.g                   1.00:  GRAVITY FIELD
 MFLD.nT              50362.00:  MAGNETIC FIELD
 MDIP.deg                59.48:  MAGNETIC DIP
 MDEC.deg                 6.47:  MAGNETIC DECL
 GRDC.deg                 0.31:  GRID CORRECTION
 AZTC.deg                 6.16:  AZM TOTAL CORR
 EPD .m                   0.00:  ELEVATION
 EGL .m                   0.00:  GROUND ELEVATION
 WDMS.m                 151.80:  WD ELEV
 APD .m                  43.60:  DEPTH ABOVE PD
 DEP .m                4092.57:  DEPTH
 AGAP.m                  43.60:  AIR GAP
 VSEW.m                  -0.67:  VERT SEC E/W
 VSNS.m                  -7.04:  VERT SEC N/S
 EKB .m                  43.60:  KB ELEVATION
 EDF .m                  43.60:  DF ELEVATION
 TDL .m                 957.50:  TOTAL DEPTH (LOGGER)
 VSC .                       0:  VS TO CLOSURE
 MAGU.                 1851413:  MAGUTM CHECKSUM
~Parameter Information Block
#MNEM.UNIT       Value        Description
#---------     -----------    ---------------------------
 AV  .mps                 1.50:  Ann Velocity 
 AVMX.mps                 2.00:  Max Ann Veloc 
 AZIF.deg               184.66:  Azm, Final 
 BHAT.        Rotary Steerable:  BHA Type 
 BREV.rev               300.00:  Rev Bit Total 
 BROT.°/30m              -0.50:  Build Rotating 
 BS  .in                  8.50:  Bit Size 
 BSZ .in                  8.50:  Bit Size 
 BTPL.psig              370.00:  Bit Press Loss 
 CABU.                      No:  Customer Abuse 
 CGEO.      Behruz Shahbaliyev:  Customer Geo 
 COMM.                     ,A[:  Run Comments 1 
 TCS .hr                140.08:  Time Ciculation Ended 
 CV  .mps                 3.00:  Crit Velocity 
 CVMX.mps                 3.20:  Max Crit Veloc 
 DD1 .            Musa Ahmadov:  Direct Drillr 1 
 DD2 .           Hamid Ahmadov:  Direct Drillr 2 
 DDSV.               Geo-Pilot:  DD Service 
 DEFF.%                  98.40:  % Det Eff 
 DLRX.°/30m               3.40:  Dogleg Rot Max 
 DLSO.°/30m               1.45:  Dogleg Oriented 
 DLSX.°/30m               3.40:  Dogleg Str Max 
 DRET.      18.40.00 29-Aug-21:  Drill End Time 
 DRST.      21.00.00 20-Aug-21:  Drill Start Tim 
 DTIM.hr                 69.47:  Time Drilling 
 EDEP.m                5084.50:  End Depth 
 ENG1.      Artemiy Matviyanov:  Engineer 1 
 ENG2.         Almaz Almadatov:  Engineer 2 
 ETIM.      18.40.00 29-Aug-21:  End Time 
 FLOI.gpm               500.00:  Flow In 
 FLON.gpm               400.00:  Flow In Min 
 FLOS.cptm                0.00:  Fluid Loss 
 FLOX.gpm               500.00:  Flow In Max 
 DFT .        Mineral Oil Base:  Mud Type 
 HFLO.                      No:  High Flow 
 HPRE.                      No:  High Pressure 
 HTEM.                      No:  High Temp 
 HYDO.m                   1.80:  Hydro Offset 
 IFIN.deg                25.62:  Inc, Final 
 IMAX.deg                48.69:  Inc Max 
 IMIN.deg                24.01:  Inc Min 
 IMND.m                4962.57:  Inc Min Depth 
 IMXD.m                4119.01:  Inc Max Depth 
 JARR.                      No:  Jarring 
 LETM.      18.40.00 29-Aug-21:  Log End Time 
 LOST.hr                     0:  Lost Rig Time 
 LSTM.      21.00.00 20-Aug-21:  Log Start Time 
 MDCL.ppm             41500.00:  Mud Chlorides 
 MDES.     Inversion Oil/Synthetic:  Mud Desc 
 DFD .sg                  1.56:  Mud Density 
 MDMN.sg                  1.56:  Dens Mud Min 
 MDMX.sg                  1.56:  Dens Mud Max 
 MOIL.                      70:  Run Mud Oil % 
 MOWR.                   70:30:  Run Mud OWR 
 MSND.                     0.2:  Run Mud Sand % 
 MSOL.                    23.3:  Run Mud Solids% 
 DFV .spqt               78.00:  Mud Viscosity 
 MWOD.in                  6.75:  MWD Tool OD 
 MWSI.                      No:  Serv Intrp, MWD 
 OTIM.hr                218.30:  Time Operating 
 PCON.           Look Like New:  Pad Condition 
 PMAX.psia            11015.30:  Press Op, Max 
 PV  .cP                 38.00:  Mud PV 
 RUN .                     300:  Run Number 
 ROPA.m/hr               15.00:  ROP Avg 
 ROPN.m/hr                9.00:  ROP Min 
 ROPX.m/hr               17.00:  ROP Max 
 RPMA.rpm               120.00:  RPM Surface Avg 
 RPMN.rpm                90.00:  RPM Surface Min 
 RPMX.rpm               140.00:  RPM Surface Max 
 RRUN.                     300:  Rig Run Number 
 RTIM.hr                 31.53:  Time Reaming 
 SAZI.deg               331.64:  Azm, Start 
 SDEP.m                4127.00:  Start Depth 
 SIDD.                      No:  Serv Intrp, DD 
 SINC.deg                48.43:  Inc, Start 
 SPPA.psig             5830.00:  SPP Avg 
 SPPN.psig             5600.00:  SPP Min 
 SPPX.psig             5900.00:  SPP Max 
 STIM.      21.00.00 20-Aug-21:  Start Time 
 SVCS.                 DD, MWD:  Services 
 SVER.                    9.20:  Sperry Version 
 TDAT.m                 957.50:  Tot Depth Attmp 
 TDDF.                      No:  Trip for DD 
 TDLG.m                 957.50:  Tot Depth Loggd 
 TFF .                      No:  Trip for Fail 
 TQAA.f-kp               15.00:  Torque Abs Avg 
 TQAN.f-kp               12.00:  Torque Abs Min 
 TQAX.f-kp               19.00:  Torque Abs Max 
 TRRT.°/30m              -3.40:  Turn Rotating 
 MRT .                  EWR-M5:  Maximum Recorded Temperature 
 TTMX.degC              100.00:  Max Tool Temp 
 VS01.                90639251:  Virtual Str1 SN 
 VS02.                90634715:  Virtual Str2 SN 
 VS03.                90652479:  Virtual Str3 SN 
 VS04.                90642262:  Virtual Str4 SN 
 WBMN.klb                 0.00:  WOB Min 
 WITN.           Murad Guliyev:  Customer Rep 
 WITN.          Yashar Gaziyev:  Customer Rep 2 
 WOBA.klb                 9.00:  WOB Avg 
 WOBX.klb                12.00:  WOB Max 
 YP  .lhf2               30.00:  Yield Point 
~Curve Information Block
#MNEM.UNIT                 API CODE     Curve Description
#---------               -----------    ---------------------------
 TIME.HHMMSS            00 000 000 000:  GT Time & Date
 GTDEPTH.m              00 000 000 000:  GT Depth
 GTPQH.psia             00 000 000 000:  GT HR Quartz Pressure
 GTTQ.degC              00 000 000 000:  GT Quartz Temperature
 GTTN.NONE              00 000 000 000:  GT Test Number
 GTET.sec               00 000 000 000:  GT Elapsed Test Time
 GTTVD.m                00 000 000 000:  GT True Vertical Depth
#Other Information
#
#WARRANTY: Halliburton will use its best efforts to furnish customers with 
#accurate information and interpretations that are part of, and incident to, the services 
#provided.  However, Halliburton cannot and does not warrant the accuracy 
#or correctness of such information and interpretations.  Under no circumstances should any 
#such information or interpretation be relied upon as the sole basis for any drilling, 
#completion, production, or financial decision or any procedure involving any risk to the 
#safety of any drilling venture, drilling rig or its crew or any other third party.  The 
#Customer has full responsibility for all drilling, completion and production operation.  
#Halliburton makes no representations or warranties, either expressed or 
#implied, including, but not limited to, the implied warranties of merchantability or fitness 
#for a particular purpose, with respect to the services rendered.  In no event will 
#Halliburton be liable for failure to obtain any particular results or for 
#any damages, including, but not limited to, indirect, special or consequential damages, 
#resulting from the use of any information or interpretation provided by Halliburton.
#
~A           TIME           GTDEPTH  GTPQH  GTTQ  GTTN   GTET   GTTVD  
# ...
   11:35:41.966.27-Aug-2021 4925.00 4811.27 85.51 10.00 361.73 3271.33
   11:35:42.166.27-Aug-2021 4925.00 4811.28 85.51 10.00 361.93 3271.33
   11:35:42.366.27-Aug-2021 4925.00 4811.27 85.51 10.00 362.13 3271.33
   11:35:42.566.27-Aug-2021 4925.00 4811.27 85.51 10.00 362.33 3271.33
   11:35:42.766.27-Aug-2021 4925.00 4811.34 85.51 10.00 362.53 3271.33
   11:35:42.966.27-Aug-2021 4925.00 4811.29 85.51 10.00 362.73 3271.33
   11:35:43.167.27-Aug-2021 4925.00 4811.27 85.51 10.00 362.93 3271.33
   11:35:43.367.27-Aug-2021 4925.00 4811.26 85.51 10.00 363.13 3271.33
   11:35:43.567.27-Aug-2021 4925.00 4811.26 85.51 10.00 363.33 3271.33
   11:35:43.767.27-Aug-2021 4925.00 4811.29 85.51 10.00 363.53 3271.33
   11:35:43.967.27-Aug-2021 4925.00 4811.29 85.51 10.00 363.73 3271.33
   11:35:44.167.27-Aug-2021 4925.00 4811.27 85.51 10.00 363.93 3271.33
   11:35:44.367.27-Aug-2021 4925.00 4811.27 85.51 10.00 364.13 3271.33
   11:35:44.567.27-Aug-2021 4925.00 4811.27 85.51 10.00 364.33 3271.33
   11:35:44.767.27-Aug-2021 4925.00 4811.28 85.51 10.00 364.53 3271.33
   11:35:44.967.27-Aug-2021 4925.00 4811.28 85.51 10.00 364.73 3271.33
   11:35:45.167.27-Aug-2021 4925.00 4811.27 85.51 10.00 364.93 3271.33
   11:35:45.367.27-Aug-2021 4925.00 4811.27 85.51 10.00 365.13 3271.33
   11:35:45.567.27-Aug-2021 4925.00 4811.27 85.51 10.00 365.33 3271.33
   11:35:45.767.27-Aug-2021 4925.00 4811.27 85.51 10.00 365.53 3271.33
   11:35:45.968.27-Aug-2021 4925.00 4811.29 85.51 10.00 365.73 3271.33
   11:35:46.168.27-Aug-2021 4925.00 4811.28 85.51 10.00 365.93 3271.33
   11:35:46.368.27-Aug-2021 4925.00 4811.30 85.51 10.00 366.13 3271.33
   11:35:46.568.27-Aug-2021 4925.00 4811.30 85.51 10.00 366.33 3271.33
   11:35:46.768.27-Aug-2021 4925.00 4811.28 85.51 10.00 366.53 3271.33
   11:35:46.968.27-Aug-2021 4925.00 4811.28 85.51 10.00 366.73 3271.33
   11:35:47.168.27-Aug-2021 4925.00 4811.29 85.51 10.00 366.93 3271.33
   11:35:47.368.27-Aug-2021 4925.00 4811.27 85.51 10.00 367.13 3271.33
   11:35:47.568.27-Aug-2021 4925.00 4811.27 85.51 10.00 367.33 3271.33
   11:35:47.768.27-Aug-2021 4925.00 4811.27 85.51 10.00 367.53 3271.33
   11:35:47.968.27-Aug-2021 4925.00 4811.28 85.51 10.00 367.73 3271.33
   11:35:48.168.27-Aug-2021 4925.00 4811.28 85.51 10.00 367.93 3271.33
   11:35:48.368.27-Aug-2021 4925.00 4811.28 85.51 10.00 368.13 3271.33
   11:35:48.568.27-Aug-2021 4925.00 4811.28 85.51 10.00 368.33 3271.33
   11:35:48.769.27-Aug-2021 4925.00 4811.30 85.51 10.00 368.53 3271.33
   11:35:48.969.27-Aug-2021 4925.00 4811.28 85.51 10.00 368.73 3271.33
   11:35:49.169.27-Aug-2021 4925.00 4811.29 85.51 10.00 368.93 3271.33
   11:35:49.369.27-Aug-2021 4925.00 4811.29 85.51 10.00 369.13 3271.33
   11:35:49.569.27-Aug-2021 4925.00 4811.29 85.51 10.00 369.33 3271.33
   11:35:49.769.27-Aug-2021 4925.00 4811.26 85.51 10.00 369.53 3271.33
   11:35:49.969.27-Aug-2021 4925.00 4811.29 85.51 10.00 369.73 3271.33
   11:35:50.169.27-Aug-2021 4925.00 4811.29 85.51 10.00 369.93 3271.33
   11:35:50.369.27-Aug-2021 4925.00 4811.28 85.51 10.00 370.13 3271.33
   11:35:50.569.27-Aug-2021 4925.00 4811.28 85.51 10.00 370.33 3271.33
   11:35:50.769.27-Aug-2021 4925.00 4811.28 85.51 10.00 370.53 3271.33
   11:35:50.969.27-Aug-2021 4925.00 4811.28 85.51 10.00 370.73 3271.33
   11:35:51.169.27-Aug-2021 4925.00 4811.28 85.51 10.00 370.93 3271.33
   11:35:51.369.27-Aug-2021 4925.00 4811.29 85.51 10.00 371.13 3271.33
   11:35:51.570.27-Aug-2021 4925.00 4811.29 85.51 10.00 371.33 3271.33
   11:35:51.770.27-Aug-2021 4925.00 4811.28 85.51 10.00 371.53 3271.33
   11:35:51.970.27-Aug-2021 4925.00 4811.28 85.51 10.00 371.73 3271.33
   11:35:52.170.27-Aug-2021 4925.00 4811.28 85.51 10.00 371.93 3271.33
   11:35:52.370.27-Aug-2021 4925.00 4811.27 85.51 10.00 372.13 3271.33
   11:35:52.570.27-Aug-2021 4925.00 4811.27 85.51 10.00 372.33 3271.33
   11:35:52.770.27-Aug-2021 4925.00 4811.29 85.51 10.00 372.53 3271.33
   11:35:52.970.27-Aug-2021 4925.00 4811.29 85.51 10.00 372.73 3271.33
   11:35:53.170.27-Aug-2021 4925.00 4811.27 85.51 10.00 372.93 3271.33
   11:35:53.370.27-Aug-2021 4925.00 4811.27 85.51 10.00 373.13 3271.33
   11:35:53.570.27-Aug-2021 4925.00 4811.27 85.51 10.00 373.33 3271.33
   11:35:53.770.27-Aug-2021 4925.00 4811.28 85.51 10.00 373.53 3271.33
   11:35:53.970.27-Aug-2021 4925.00 4811.28 85.51 10.00 373.73 3271.33
   11:35:54.170.27-Aug-2021 4925.00 4811.28 85.51 10.00 373.93 3271.33
   11:35:54.371.27-Aug-2021 4925.00 4811.27 85.51 10.00 374.13 3271.33
   11:35:54.571.27-Aug-2021 4925.00 4811.27 85.51 10.00 374.33 3271.33
   11:35:54.771.27-Aug-2021 4925.00 4811.27 85.51 10.00 374.53 3271.33
   11:35:54.971.27-Aug-2021 4925.00 4814.56 85.51 10.00 374.73 3271.33
   11:35:55.171.27-Aug-2021 4925.00 4830.17 85.51 10.00 374.93 3271.33
   11:35:55.371.27-Aug-2021 4925.00 4850.15 85.51 10.00 375.13 3271.33
   11:35:55.571.27-Aug-2021 4925.00 4850.15 85.51 10.00 375.33 3271.33
   11:35:55.771.27-Aug-2021 4925.00 7826.98 85.51 10.00 375.53 3271.33
   11:35:55.971.27-Aug-2021 4925.00 7822.12 85.51 10.00 375.73 3271.33
   11:35:56.171.27-Aug-2021 4925.00 7823.10 85.51 10.00 375.93 3271.33
   11:35:56.371.27-Aug-2021 4925.00 7821.97 85.51 10.00 376.13 3271.33
   11:35:56.571.27-Aug-2021 4925.00 7821.97 85.51 10.00 376.33 3271.33
   11:35:56.771.27-Aug-2021 4925.00 7821.10 85.51 10.00 376.53 3271.33
   11:35:56.971.27-Aug-2021 4925.00 7821.65 85.52 10.00 376.73 3271.33
   11:35:57.172.27-Aug-2021 4925.00 7827.00 85.52 10.00 376.93 3271.33
   11:35:57.372.27-Aug-2021 4925.00 7825.43 85.52 10.00 377.13 3271.33
   11:35:57.572.27-Aug-2021 4925.00 7825.43 85.52 10.00 377.33 3271.33
   11:35:57.772.27-Aug-2021 4925.00 7825.62 85.52 10.00 377.53 3271.33
   11:35:57.972.27-Aug-2021 4925.00 7825.62 85.53 10.00 377.73 3271.33
   11:35:58.172.27-Aug-2021 4925.00 7830.19 85.53 10.00 377.93 3271.33
   11:35:58.372.27-Aug-2021 4925.00 7826.71 85.53 10.00 378.13 3271.33
   11:35:58.572.27-Aug-2021 4925.00 7826.71 85.53 10.00 378.33 3271.33
   11:35:58.772.27-Aug-2021 4925.00 7827.45 85.54 10.00 378.53 3271.33
   11:35:58.972.27-Aug-2021 4925.00 7827.41 85.54 10.00 378.73 3271.33
   11:35:59.172.27-Aug-2021 4925.00 7827.56 85.54 10.00 378.93 3271.33
   11:35:59.372.27-Aug-2021 4925.00 7830.94 85.54 10.00 379.13 3271.33
   11:35:59.572.27-Aug-2021 4925.00 7830.94 85.54 10.00 379.33 3271.33
   11:35:59.772.27-Aug-2021 4925.00 7828.11 85.55 10.00 379.53 3271.33
   11:35:59.973.27-Aug-2021 4925.00 7827.94 85.55 10.00 379.73 3271.33
   11:36:00.173.27-Aug-2021 4925.00 7828.45 85.55 10.00 379.93 3271.33
   11:36:00.373.27-Aug-2021 4925.00 7828.72 85.55 10.00 380.13 3271.33
   11:36:00.573.27-Aug-2021 4925.00 7828.72 85.55 10.00 380.33 3271.33
   11:36:00.773.27-Aug-2021 4925.00 7828.42 85.56 10.00 380.54 3271.33
   11:36:00.973.27-Aug-2021 4925.00 7828.58 85.56 10.00 380.74 3271.33
   11:36:01.173.27-Aug-2021 4925.00 7828.82 85.56 10.00 380.94 3271.33
   11:36:01.373.27-Aug-2021 4925.00 7829.16 85.56 10.00 381.14 3271.33
   11:36:01.573.27-Aug-2021 4925.00 7829.16 85.56 10.00 381.34 3271.33
   11:36:01.773.27-Aug-2021 4925.00 7829.43 85.57 10.00 381.54 3271.33
   11:36:01.973.27-Aug-2021 4925.00 7829.00 85.57 10.00 381.74 3271.33
   11:36:02.173.27-Aug-2021 4925.00 7828.76 85.57 10.00 381.94 3271.33
   11:36:02.373.27-Aug-2021 4925.00 7828.59 85.57 10.00 382.14 3271.33
   11:36:02.573.27-Aug-2021 4925.00 7828.59 85.57 10.00 382.34 3271.33
   11:36:02.774.27-Aug-2021 4925.00 7829.33 85.57 10.00 382.54 3271.33
   11:36:02.974.27-Aug-2021 4925.00 7830.65 85.57 10.00 382.74 3271.33
   11:36:03.174.27-Aug-2021 4925.00 7829.42 85.57 10.00 382.94 3271.33
   11:36:03.374.27-Aug-2021 4925.00 7829.08 85.58 10.00 383.14 3271.33
   11:36:03.574.27-Aug-2021 4925.00 7829.08 85.58 10.00 383.34 3271.33
   11:36:03.774.27-Aug-2021 4925.00 7828.98 85.58 10.00 383.54 3271.33
   11:36:03.974.27-Aug-2021 4925.00 7828.89 85.58 10.00 383.74 3271.33
   11:36:04.174.27-Aug-2021 4925.00 7829.02 85.58 10.00 383.94 3271.33
   11:36:04.374.27-Aug-2021 4925.00 7829.21 85.58 10.00 384.14 3271.33
