~Version Information
 VERS.                  2.0:   CWLS log ASCII Standard -VERSION 2.0
 WRAP.                   NO:   One line per depth step
~Well Information Block
#MNEM.UNIT     VALUE/NAME     DESCRIPTION
#---------     -----------    ---------------------------
 STRT.S             10:43:45 27-Aug-21: START TIME 10:43:45 27-Aug-21
 STOP.S             10:50:54 27-Aug-21: STOP TIME  10:50:54 27-Aug-21
 STEP.S                   0.00: STEP TIME
 NULL.                 -999.25: NULL VALUE
 DFWT.                        :  DIST FWL TEXT
 DFST.                        :  DIST FSL TEXT
 DMF .             Drill Floor:  DRILL MEAS FROM
 STIM.      20.00.00 17-Aug-21:  START TIME
 DATE.      19.00.00 29-Aug-21:  END TIME
 SPUD.               15-Aug-21:  SPUD DATE
 NREF.                    Grid:  NORTH REFERENCE
 HPTY.       Minimum Curvature:  HOLE POS TYPE
 DMOD.             Drill Model:  DRILL MOD DESC
 SVYD.                  Survey:  SURVEY DESC
 ILTD.               Lithology:  INTERP LTH DESC
 FTOP.          Formation Tops:  FORM TOPS DESC
 RIG .              East Azeri:  RIG NAME
 PDAT.          Mean Sea Level:  PERMANENT DATUM
 FLD .                     ACG:  FIELD NAME
 SON .        AZ-XX-0907180857:  JOB NUMBER
 CTRY.              Azerbaijan:  COUNTRY NAME
 WELL.                    D23x:  WELL NAME
 SRVC.     Turan Drilling and Engineering:  CONTRACTOR
 COMP.     BP Exploration (Caspian Sea) Ltd.:  COMPANY
 UWI .            /AZE00000214:  UNIQUE WELL IDENTIFIER
 API .            /AZE00000214:  API NUMBER
 MDS .        Operator Entered:  MAG DATA SOURCE
 BASE.              Azerbaijan:  LOGGING EQUIPMENT BASE LOCATION
 REGN.                   EESSA:  REGION
 PROV.                    Baku:  PROVINCE
 STAT.                    Baku:  STATE NAME
 MWDS.                    Baku:  MWD SHOP
 DOE .                     N/A:  DOE NUMBER
 DCON.         Sperry Drilling:  DIRECTNL CONTR
 UNIT.                     N/A:  LOGGING EQUIPMENT ID
 WTYP.                Deviated:  WELL TYPE
 CNTY.                        :  COUNTY
 LOC .                        :  LOCATION
 LMF .             Drill Floor:  LOG MEASURED FROM
 TVDS.m                  43.60:  TVDSS CORRECTN
 LATI.deg                40.02:  LATITUDE
 LONG.deg                51.45:  LONGITUDE
 WHNS.m                  -7.04:  WELL HEAD N/S
 WHEW.m                  -0.67:  WELL HEAD E/W
 UTMX.m              538762.90:  UTM X
 UTMY.m             4431871.34:  UTM Y
 DFWL.m                   0.00:  DISTANCE FWL
 DFSL.m                   0.00:  DISTANCE FSL
 SDEP.m                4127.00:  START DEPTH
 TDD .m                5084.50:  TOTAL DEPTH (DRILLER)
 VSDR.deg               140.47:  VERT SEC DIRECT
 GVFD.g                   1.00:  GRAVITY FIELD
 MFLD.nT              50362.00:  MAGNETIC FIELD
 MDIP.deg                59.48:  MAGNETIC DIP
 MDEC.deg                 6.47:  MAGNETIC DECL
 GRDC.deg                 0.31:  GRID CORRECTION
 AZTC.deg                 6.16:  AZM TOTAL CORR
 EPD .m                   0.00:  ELEVATION
 EGL .m                   0.00:  GROUND ELEVATION
 WDMS.m                 151.80:  WD ELEV
 APD .m                  43.60:  DEPTH ABOVE PD
 DEP .m                4092.57:  DEPTH
 AGAP.m                  43.60:  AIR GAP
 VSEW.m                  -0.67:  VERT SEC E/W
 VSNS.m                  -7.04:  VERT SEC N/S
 EKB .m                  43.60:  KB ELEVATION
 EDF .m                  43.60:  DF ELEVATION
 TDL .m                 957.50:  TOTAL DEPTH (LOGGER)
 VSC .                       0:  VS TO CLOSURE
 MAGU.                 1851413:  MAGUTM CHECKSUM
~Parameter Information Block
#MNEM.UNIT       Value        Description
#---------     -----------    ---------------------------
 AV  .mps                 1.50:  Ann Velocity 
 AVMX.mps                 2.00:  Max Ann Veloc 
 AZIF.deg               184.66:  Azm, Final 
 BHAT.        Rotary Steerable:  BHA Type 
 BREV.rev               300.00:  Rev Bit Total 
 BROT.°/30m              -0.50:  Build Rotating 
 BS  .in                  8.50:  Bit Size 
 BSZ .in                  8.50:  Bit Size 
 BTPL.psig              370.00:  Bit Press Loss 
 CABU.                      No:  Customer Abuse 
 CGEO.      Behruz Shahbaliyev:  Customer Geo 
 COMM.                     $K:  Run Comments 1 
 TCS .hr                140.08:  Time Ciculation Ended 
 CV  .mps                 3.00:  Crit Velocity 
 CVMX.mps                 3.20:  Max Crit Veloc 
 DD1 .            Musa Ahmadov:  Direct Drillr 1 
 DD2 .           Hamid Ahmadov:  Direct Drillr 2 
 DDSV.               Geo-Pilot:  DD Service 
 DEFF.%                  98.40:  % Det Eff 
 DLRX.°/30m               3.40:  Dogleg Rot Max 
 DLSO.°/30m               1.45:  Dogleg Oriented 
 DLSX.°/30m               3.40:  Dogleg Str Max 
 DRET.      18.40.00 29-Aug-21:  Drill End Time 
 DRST.      21.00.00 20-Aug-21:  Drill Start Tim 
 DTIM.hr                 69.47:  Time Drilling 
 EDEP.m                5084.50:  End Depth 
 ENG1.      Artemiy Matviyanov:  Engineer 1 
 ENG2.         Almaz Almadatov:  Engineer 2 
 ETIM.      18.40.00 29-Aug-21:  End Time 
 FLOI.gpm               500.00:  Flow In 
 FLON.gpm               400.00:  Flow In Min 
 FLOS.cptm                0.00:  Fluid Loss 
 FLOX.gpm               500.00:  Flow In Max 
 DFT .        Mineral Oil Base:  Mud Type 
 HFLO.                      No:  High Flow 
 HPRE.                      No:  High Pressure 
 HTEM.                      No:  High Temp 
 HYDO.m                   1.80:  Hydro Offset 
 IFIN.deg                25.62:  Inc, Final 
 IMAX.deg                48.69:  Inc Max 
 IMIN.deg                24.01:  Inc Min 
 IMND.m                4962.57:  Inc Min Depth 
 IMXD.m                4119.01:  Inc Max Depth 
 JARR.                      No:  Jarring 
 LETM.      18.40.00 29-Aug-21:  Log End Time 
 LOST.hr                     0:  Lost Rig Time 
 LSTM.      21.00.00 20-Aug-21:  Log Start Time 
 MDCL.ppm             41500.00:  Mud Chlorides 
 MDES.     Inversion Oil/Synthetic:  Mud Desc 
 DFD .sg                  1.56:  Mud Density 
 MDMN.sg                  1.56:  Dens Mud Min 
 MDMX.sg                  1.56:  Dens Mud Max 
 MOIL.                      70:  Run Mud Oil % 
 MOWR.                   70:30:  Run Mud OWR 
 MSND.                     0.2:  Run Mud Sand % 
 MSOL.                    23.3:  Run Mud Solids% 
 DFV .spqt               78.00:  Mud Viscosity 
 MWOD.in                  6.75:  MWD Tool OD 
 MWSI.                      No:  Serv Intrp, MWD 
 OTIM.hr                218.30:  Time Operating 
 PCON.           Look Like New:  Pad Condition 
 PMAX.psia            11015.30:  Press Op, Max 
 PV  .cP                 38.00:  Mud PV 
 RUN .                     300:  Run Number 
 ROPA.m/hr               15.00:  ROP Avg 
 ROPN.m/hr                9.00:  ROP Min 
 ROPX.m/hr               17.00:  ROP Max 
 RPMA.rpm               120.00:  RPM Surface Avg 
 RPMN.rpm                90.00:  RPM Surface Min 
 RPMX.rpm               140.00:  RPM Surface Max 
 RRUN.                     300:  Rig Run Number 
 RTIM.hr                 31.53:  Time Reaming 
 SAZI.deg               331.64:  Azm, Start 
 SDEP.m                4127.00:  Start Depth 
 SIDD.                      No:  Serv Intrp, DD 
 SINC.deg                48.43:  Inc, Start 
 SPPA.psig             5830.00:  SPP Avg 
 SPPN.psig             5600.00:  SPP Min 
 SPPX.psig             5900.00:  SPP Max 
 STIM.      21.00.00 20-Aug-21:  Start Time 
 SVCS.                 DD, MWD:  Services 
 SVER.                    9.20:  Sperry Version 
 TDAT.m                 957.50:  Tot Depth Attmp 
 TDDF.                      No:  Trip for DD 
 TDLG.m                 957.50:  Tot Depth Loggd 
 TFF .                      No:  Trip for Fail 
 TQAA.f-kp               15.00:  Torque Abs Avg 
 TQAN.f-kp               12.00:  Torque Abs Min 
 TQAX.f-kp               19.00:  Torque Abs Max 
 TRRT.°/30m              -3.40:  Turn Rotating 
 MRT .                  EWR-M5:  Maximum Recorded Temperature 
 TTMX.degC              100.00:  Max Tool Temp 
 VS01.                90639251:  Virtual Str1 SN 
 VS02.                90634715:  Virtual Str2 SN 
 VS03.                90652479:  Virtual Str3 SN 
 VS04.                90642262:  Virtual Str4 SN 
 WBMN.klb                 0.00:  WOB Min 
 WITN.           Murad Guliyev:  Customer Rep 
 WITN.          Yashar Gaziyev:  Customer Rep 2 
 WOBA.klb                 9.00:  WOB Avg 
 WOBX.klb                12.00:  WOB Max 
 YP  .lhf2               30.00:  Yield Point 
~Curve Information Block
#MNEM.UNIT                 API CODE     Curve Description
#---------               -----------    ---------------------------
 TIME.HHMMSS            00 000 000 000:  GT Time & Date
 GTDEPTH.m              00 000 000 000:  GT Depth
 GTPQH.psia             00 000 000 000:  GT HR Quartz Pressure
 GTTQ.degC              00 000 000 000:  GT Quartz Temperature
 GTTN.NONE              00 000 000 000:  GT Test Number
 GTET.sec               00 000 000 000:  GT Elapsed Test Time
 GTTVD.m                00 000 000 000:  GT True Vertical Depth
#Other Information
#
#WARRANTY: Halliburton will use its best efforts to furnish customers with 
#accurate information and interpretations that are part of, and incident to, the services 
#provided.  However, Halliburton cannot and does not warrant the accuracy 
#or correctness of such information and interpretations.  Under no circumstances should any 
#such information or interpretation be relied upon as the sole basis for any drilling, 
#completion, production, or financial decision or any procedure involving any risk to the 
#safety of any drilling venture, drilling rig or its crew or any other third party.  The 
#Customer has full responsibility for all drilling, completion and production operation.  
#Halliburton makes no representations or warranties, either expressed or 
#implied, including, but not limited to, the implied warranties of merchantability or fitness 
#for a particular purpose, with respect to the services rendered.  In no event will 
#Halliburton be liable for failure to obtain any particular results or for 
#any damages, including, but not limited to, indirect, special or consequential damages, 
#resulting from the use of any information or interpretation provided by Halliburton.
#
~A           TIME           GTDEPTH  GTPQH  GTTQ  GTTN  GTET   GTTVD  
# ...
   10:47:58.186.27-Aug-2021 4957.82 5167.73 85.92 9.00 252.70 3301.29
   10:47:58.385.27-Aug-2021 4957.82 5167.73 85.92 9.00 252.90 3301.29
   10:47:58.585.27-Aug-2021 4957.82 5167.72 85.92 9.00 253.10 3301.29
   10:47:58.785.27-Aug-2021 4957.82 5167.73 85.92 9.00 253.30 3301.29
   10:47:58.985.27-Aug-2021 4957.82 5167.71 85.92 9.00 253.50 3301.29
   10:47:59.184.27-Aug-2021 4957.82 5167.72 85.92 9.00 253.70 3301.29
   10:47:59.384.27-Aug-2021 4957.82 5167.72 85.92 9.00 253.90 3301.29
   10:47:59.584.27-Aug-2021 4957.82 5167.72 85.92 9.00 254.10 3301.29
   10:47:59.784.27-Aug-2021 4957.82 5167.74 85.92 9.00 254.30 3301.29
   10:47:59.983.27-Aug-2021 4957.82 5167.73 85.92 9.00 254.50 3301.29
   10:48:00.183.27-Aug-2021 4957.82 5167.73 85.92 9.00 254.70 3301.29
   10:48:00.383.27-Aug-2021 4957.82 5167.73 85.92 9.00 254.90 3301.29
   10:48:00.583.27-Aug-2021 4957.82 5167.74 85.92 9.00 255.10 3301.29
   10:48:00.782.27-Aug-2021 4957.82 5167.72 85.92 9.00 255.30 3301.29
   10:48:00.982.27-Aug-2021 4957.82 5167.78 85.92 9.00 255.49 3301.29
   10:48:01.182.27-Aug-2021 4957.82 5167.74 85.92 9.00 255.69 3301.29
   10:48:01.382.27-Aug-2021 4957.82 5167.74 85.92 9.00 255.89 3301.29
   10:48:01.581.27-Aug-2021 4957.82 5167.72 85.92 9.00 256.09 3301.29
   10:48:01.781.27-Aug-2021 4957.82 5167.72 85.92 9.00 256.29 3301.29
   10:48:01.981.27-Aug-2021 4957.82 5167.73 85.92 9.00 256.49 3301.29
   10:48:02.181.27-Aug-2021 4957.82 5167.72 85.92 9.00 256.69 3301.29
   10:48:02.381.27-Aug-2021 4957.82 5167.72 85.92 9.00 256.89 3301.29
   10:48:02.580.27-Aug-2021 4957.82 5167.71 85.92 9.00 257.09 3301.29
   10:48:02.780.27-Aug-2021 4957.82 5167.74 85.92 9.00 257.29 3301.29
   10:48:02.980.27-Aug-2021 4957.82 5167.75 85.92 9.00 257.49 3301.29
   10:48:03.180.27-Aug-2021 4957.82 5167.75 85.92 9.00 257.69 3301.29
   10:48:03.379.27-Aug-2021 4957.82 5167.75 85.92 9.00 257.89 3301.29
   10:48:03.579.27-Aug-2021 4957.82 5167.73 85.92 9.00 258.09 3301.29
   10:48:03.779.27-Aug-2021 4957.82 5167.74 85.92 9.00 258.29 3301.29
   10:48:03.979.27-Aug-2021 4957.82 5167.73 85.92 9.00 258.49 3301.29
   10:48:04.178.27-Aug-2021 4957.82 5167.74 85.92 9.00 258.69 3301.29
   10:48:04.378.27-Aug-2021 4957.82 5167.74 85.92 9.00 258.89 3301.29
   10:48:04.578.27-Aug-2021 4957.82 5167.75 85.92 9.00 259.09 3301.29
   10:48:04.778.27-Aug-2021 4957.82 5167.74 85.92 9.00 259.29 3301.29
   10:48:04.977.27-Aug-2021 4957.82 5167.72 85.92 9.00 259.49 3301.29
   10:48:05.177.27-Aug-2021 4957.82 5167.73 85.92 9.00 259.69 3301.29
   10:48:05.377.27-Aug-2021 4957.82 5167.73 85.92 9.00 259.89 3301.29
   10:48:05.577.27-Aug-2021 4957.82 5167.78 85.92 9.00 260.09 3301.29
   10:48:05.776.27-Aug-2021 4957.82 5167.77 85.92 9.00 260.29 3301.29
   10:48:05.976.27-Aug-2021 4957.82 5167.74 85.92 9.00 260.49 3301.29
   10:48:06.176.27-Aug-2021 4957.82 5167.70 85.92 9.00 260.69 3301.29
   10:48:06.376.27-Aug-2021 4957.82 5167.70 85.92 9.00 260.89 3301.29
   10:48:06.576.27-Aug-2021 4957.82 5167.75 85.92 9.00 261.09 3301.29
   10:48:06.775.27-Aug-2021 4957.82 5167.74 85.92 9.00 261.29 3301.29
   10:48:06.975.27-Aug-2021 4957.82 5167.74 85.92 9.00 261.49 3301.29
   10:48:07.175.27-Aug-2021 4957.82 5167.76 85.92 9.00 261.69 3301.29
   10:48:07.375.27-Aug-2021 4957.82 5167.76 85.92 9.00 261.89 3301.29
   10:48:07.574.27-Aug-2021 4957.82 5167.74 85.92 9.00 262.09 3301.29
   10:48:07.774.27-Aug-2021 4957.82 5167.73 85.92 9.00 262.29 3301.29
   10:48:07.974.27-Aug-2021 4957.82 5167.74 85.92 9.00 262.49 3301.29
   10:48:08.174.27-Aug-2021 4957.82 5167.74 85.92 9.00 262.69 3301.29
   10:48:08.373.27-Aug-2021 4957.82 5167.74 85.92 9.00 262.89 3301.29
   10:48:08.573.27-Aug-2021 4957.82 5167.73 85.92 9.00 263.09 3301.29
   10:48:08.773.27-Aug-2021 4957.82 5167.75 85.92 9.00 263.29 3301.29
   10:48:08.973.27-Aug-2021 4957.82 5167.76 85.92 9.00 263.49 3301.29
   10:48:09.172.27-Aug-2021 4957.82 5167.76 85.92 9.00 263.69 3301.29
   10:48:09.372.27-Aug-2021 4957.82 5167.76 85.92 9.00 263.88 3301.29
   10:48:09.572.27-Aug-2021 4957.82 5167.75 85.92 9.00 264.08 3301.29
   10:48:09.772.27-Aug-2021 4957.82 5167.74 85.92 9.00 264.28 3301.29
   10:48:09.971.27-Aug-2021 4957.82 5167.75 85.92 9.00 264.48 3301.29
   10:48:10.171.27-Aug-2021 4957.82 5167.84 85.92 9.00 264.68 3301.29
   10:48:10.371.27-Aug-2021 4957.82 5167.84 85.92 9.00 264.88 3301.29
   10:48:10.571.27-Aug-2021 4957.82 5167.74 85.92 9.00 265.08 3301.29
   10:48:10.771.27-Aug-2021 4957.82 5167.73 85.92 9.00 265.28 3301.29
   10:48:10.970.27-Aug-2021 4957.82 5167.75 85.92 9.00 265.48 3301.29
   10:48:11.170.27-Aug-2021 4957.82 5167.75 85.92 9.00 265.68 3301.29
   10:48:11.370.27-Aug-2021 4957.82 5167.75 85.92 9.00 265.88 3301.29
   10:48:11.570.27-Aug-2021 4957.82 5160.02 85.92 9.00 266.08 3301.29
   10:48:11.769.27-Aug-2021 4957.82 5119.17 85.92 9.00 266.28 3301.29
   10:48:11.969.27-Aug-2021 4957.82 5111.33 85.92 9.00 266.48 3301.29
   10:48:12.169.27-Aug-2021 4957.82 5106.63 85.92 9.00 266.68 3301.29
   10:48:12.369.27-Aug-2021 4957.82 5106.63 85.92 9.00 266.88 3301.29
   10:48:12.568.27-Aug-2021 4957.82 5105.44 85.92 9.00 267.08 3301.29
   10:48:12.768.27-Aug-2021 4957.82 5103.39 85.92 9.00 267.28 3301.29
   10:48:12.968.27-Aug-2021 4957.82 5102.11 85.92 9.00 267.48 3301.29
   10:48:13.168.27-Aug-2021 4957.82 5101.41 85.92 9.00 267.68 3301.29
   10:48:13.367.27-Aug-2021 4957.82 5101.41 85.92 9.00 267.88 3301.29
   10:48:13.567.27-Aug-2021 4957.82 5099.82 85.92 9.00 268.08 3301.29
   10:48:13.767.27-Aug-2021 4957.82 5099.69 85.92 9.00 268.28 3301.29
   10:48:13.967.27-Aug-2021 4957.82 5099.66 85.92 9.00 268.48 3301.29
   10:48:14.166.27-Aug-2021 4957.82 5098.76 85.92 9.00 268.68 3301.29
   10:48:14.366.27-Aug-2021 4957.82 5098.76 85.92 9.00 268.88 3301.29
   10:48:14.566.27-Aug-2021 4957.82 5098.90 85.92 9.00 269.08 3301.29
   10:48:14.766.27-Aug-2021 4957.82 5097.53 85.92 9.00 269.28 3301.29
   10:48:14.966.27-Aug-2021 4957.82 5098.14 85.92 9.00 269.48 3301.29
   10:48:15.165.27-Aug-2021 4957.82 5097.88 85.92 9.00 269.68 3301.29
   10:48:15.365.27-Aug-2021 4957.82 5097.88 85.92 9.00 269.88 3301.29
   10:48:15.565.27-Aug-2021 4957.82 5096.88 85.92 9.00 270.08 3301.29
   10:48:15.765.27-Aug-2021 4957.82 5097.74 85.92 9.00 270.28 3301.29
   10:48:15.964.27-Aug-2021 4957.82 5096.97 85.92 9.00 270.48 3301.29
   10:48:16.164.27-Aug-2021 4957.82 5096.76 85.91 9.00 270.68 3301.29
   10:48:16.364.27-Aug-2021 4957.82 5096.76 85.91 9.00 270.88 3301.29
   10:48:16.564.27-Aug-2021 4957.82 5096.56 85.91 9.00 271.08 3301.29
   10:48:16.763.27-Aug-2021 4957.82 5096.33 85.91 9.00 271.28 3301.29
   10:48:16.963.27-Aug-2021 4957.82 5096.14 85.91 9.00 271.48 3301.29
   10:48:17.163.27-Aug-2021 4957.82 5095.64 85.91 9.00 271.68 3301.29
   10:48:17.363.27-Aug-2021 4957.82 5095.64 85.91 9.00 271.88 3301.29
   10:48:17.562.27-Aug-2021 4957.82 5095.61 85.91 9.00 272.08 3301.29
   10:48:17.762.27-Aug-2021 4957.82 5095.59 85.91 9.00 272.27 3301.29
   10:48:17.962.27-Aug-2021 4957.82 5095.54 85.91 9.00 272.47 3301.29
   10:48:18.162.27-Aug-2021 4957.82 5095.46 85.91 9.00 272.67 3301.29
   10:48:18.361.27-Aug-2021 4957.82 5095.46 85.91 9.00 272.87 3301.29
   10:48:18.561.27-Aug-2021 4957.82 5095.20 85.91 9.00 273.07 3301.29
   10:48:18.761.27-Aug-2021 4957.82 5095.63 85.91 9.00 273.27 3301.29
   10:48:18.961.27-Aug-2021 4957.82 5095.08 85.91 9.00 273.47 3301.29
   10:48:19.161.27-Aug-2021 4957.82 5095.21 85.91 9.00 273.67 3301.29
   10:48:19.360.27-Aug-2021 4957.82 5095.21 85.91 9.00 273.87 3301.29
   10:48:19.560.27-Aug-2021 4957.82 5095.50 85.91 9.00 274.07 3301.29
   10:48:19.760.27-Aug-2021 4957.82 5095.12 85.91 9.00 274.27 3301.29
   10:48:19.960.27-Aug-2021 4957.82 5094.34 85.91 9.00 274.47 3301.29
   10:48:20.159.27-Aug-2021 4957.82 5094.64 85.91 9.00 274.67 3301.29
   10:48:20.359.27-Aug-2021 4957.82 5094.64 85.91 9.00 274.87 3301.29
   10:48:20.559.27-Aug-2021 4957.82 5094.70 85.91 9.00 275.07 3301.29
   10:48:20.759.27-Aug-2021 4957.82 5093.88 85.91 9.00 275.27 3301.29
   10:48:20.958.27-Aug-2021 4957.82 5094.76 85.91 9.00 275.47 3301.29
