~Version Information
 VERS.                  2.0:   CWLS log ASCII Standard -VERSION 2.0
 WRAP.                   NO:   One line per depth step
~Well Information Block
#MNEM.UNIT     VALUE/NAME     DESCRIPTION
#---------     -----------    ---------------------------
 STRT.S             05:44:14 27-Aug-21: START TIME 05:44:14 27-Aug-21
 STOP.S             05:51:24 27-Aug-21: STOP TIME  05:51:24 27-Aug-21
 STEP.S                   0.00: STEP TIME
 NULL.                 -999.25: NULL VALUE
 DFWT.                        :  DIST FWL TEXT
 DFST.                        :  DIST FSL TEXT
 DMF .             Drill Floor:  DRILL MEAS FROM
 STIM.      20.00.00 17-Aug-21:  START TIME
 DATE.      19.00.00 29-Aug-21:  END TIME
 SPUD.               15-Aug-21:  SPUD DATE
 NREF.                    Grid:  NORTH REFERENCE
 HPTY.       Minimum Curvature:  HOLE POS TYPE
 DMOD.             Drill Model:  DRILL MOD DESC
 SVYD.                  Survey:  SURVEY DESC
 ILTD.               Lithology:  INTERP LTH DESC
 FTOP.          Formation Tops:  FORM TOPS DESC
 RIG .              East Azeri:  RIG NAME
 PDAT.          Mean Sea Level:  PERMANENT DATUM
 FLD .                     ACG:  FIELD NAME
 SON .        AZ-XX-0907180857:  JOB NUMBER
 CTRY.              Azerbaijan:  COUNTRY NAME
 WELL.                    D23x:  WELL NAME
 SRVC.     Turan Drilling and Engineering:  CONTRACTOR
 COMP.     BP Exploration (Caspian Sea) Ltd.:  COMPANY
 UWI .            /AZE00000214:  UNIQUE WELL IDENTIFIER
 API .            /AZE00000214:  API NUMBER
 MDS .        Operator Entered:  MAG DATA SOURCE
 BASE.              Azerbaijan:  LOGGING EQUIPMENT BASE LOCATION
 REGN.                   EESSA:  REGION
 PROV.                    Baku:  PROVINCE
 STAT.                    Baku:  STATE NAME
 MWDS.                    Baku:  MWD SHOP
 DOE .                     N/A:  DOE NUMBER
 DCON.         Sperry Drilling:  DIRECTNL CONTR
 UNIT.                     N/A:  LOGGING EQUIPMENT ID
 WTYP.                Deviated:  WELL TYPE
 CNTY.                        :  COUNTY
 LOC .                        :  LOCATION
 LMF .             Drill Floor:  LOG MEASURED FROM
 TVDS.m                  43.60:  TVDSS CORRECTN
 LATI.deg                40.02:  LATITUDE
 LONG.deg                51.45:  LONGITUDE
 WHNS.m                  -7.04:  WELL HEAD N/S
 WHEW.m                  -0.67:  WELL HEAD E/W
 UTMX.m              538762.90:  UTM X
 UTMY.m             4431871.34:  UTM Y
 DFWL.m                   0.00:  DISTANCE FWL
 DFSL.m                   0.00:  DISTANCE FSL
 SDEP.m                4127.00:  START DEPTH
 TDD .m                5084.50:  TOTAL DEPTH (DRILLER)
 VSDR.deg               140.47:  VERT SEC DIRECT
 GVFD.g                   1.00:  GRAVITY FIELD
 MFLD.nT              50362.00:  MAGNETIC FIELD
 MDIP.deg                59.48:  MAGNETIC DIP
 MDEC.deg                 6.47:  MAGNETIC DECL
 GRDC.deg                 0.31:  GRID CORRECTION
 AZTC.deg                 6.16:  AZM TOTAL CORR
 EPD .m                   0.00:  ELEVATION
 EGL .m                   0.00:  GROUND ELEVATION
 WDMS.m                 151.80:  WD ELEV
 APD .m                  43.60:  DEPTH ABOVE PD
 DEP .m                4092.57:  DEPTH
 AGAP.m                  43.60:  AIR GAP
 VSEW.m                  -0.67:  VERT SEC E/W
 VSNS.m                  -7.04:  VERT SEC N/S
 EKB .m                  43.60:  KB ELEVATION
 EDF .m                  43.60:  DF ELEVATION
 TDL .m                 957.50:  TOTAL DEPTH (LOGGER)
 VSC .                       0:  VS TO CLOSURE
 MAGU.                 1851413:  MAGUTM CHECKSUM
~Parameter Information Block
#MNEM.UNIT       Value        Description
#---------     -----------    ---------------------------
 AV  .mps                 1.50:  Ann Velocity 
 AVMX.mps                 2.00:  Max Ann Veloc 
 AZIF.deg               184.66:  Azm, Final 
 BHAT.        Rotary Steerable:  BHA Type 
 BREV.rev               300.00:  Rev Bit Total 
 BROT.°/30m              -0.50:  Build Rotating 
 BS  .in                  8.50:  Bit Size 
 BSZ .in                  8.50:  Bit Size 
 BTPL.psig              370.00:  Bit Press Loss 
 CABU.                      No:  Customer Abuse 
 CGEO.      Behruz Shahbaliyev:  Customer Geo 
 COMM.                     ä=U:  Run Comments 1 
 TCS .hr                140.08:  Time Ciculation Ended 
 CV  .mps                 3.00:  Crit Velocity 
 CVMX.mps                 3.20:  Max Crit Veloc 
 DD1 .            Musa Ahmadov:  Direct Drillr 1 
 DD2 .           Hamid Ahmadov:  Direct Drillr 2 
 DDSV.               Geo-Pilot:  DD Service 
 DEFF.%                  98.40:  % Det Eff 
 DLRX.°/30m               3.40:  Dogleg Rot Max 
 DLSO.°/30m               1.45:  Dogleg Oriented 
 DLSX.°/30m               3.40:  Dogleg Str Max 
 DRET.      18.40.00 29-Aug-21:  Drill End Time 
 DRST.      21.00.00 20-Aug-21:  Drill Start Tim 
 DTIM.hr                 69.47:  Time Drilling 
 EDEP.m                5084.50:  End Depth 
 ENG1.      Artemiy Matviyanov:  Engineer 1 
 ENG2.         Almaz Almadatov:  Engineer 2 
 ETIM.      18.40.00 29-Aug-21:  End Time 
 FLOI.gpm               500.00:  Flow In 
 FLON.gpm               400.00:  Flow In Min 
 FLOS.cptm                0.00:  Fluid Loss 
 FLOX.gpm               500.00:  Flow In Max 
 DFT .        Mineral Oil Base:  Mud Type 
 HFLO.                      No:  High Flow 
 HPRE.                      No:  High Pressure 
 HTEM.                      No:  High Temp 
 HYDO.m                   1.80:  Hydro Offset 
 IFIN.deg                25.62:  Inc, Final 
 IMAX.deg                48.69:  Inc Max 
 IMIN.deg                24.01:  Inc Min 
 IMND.m                4962.57:  Inc Min Depth 
 IMXD.m                4119.01:  Inc Max Depth 
 JARR.                      No:  Jarring 
 LETM.      18.40.00 29-Aug-21:  Log End Time 
 LOST.hr                     0:  Lost Rig Time 
 LSTM.      21.00.00 20-Aug-21:  Log Start Time 
 MDCL.ppm             41500.00:  Mud Chlorides 
 MDES.     Inversion Oil/Synthetic:  Mud Desc 
 DFD .sg                  1.56:  Mud Density 
 MDMN.sg                  1.56:  Dens Mud Min 
 MDMX.sg                  1.56:  Dens Mud Max 
 MOIL.                      70:  Run Mud Oil % 
 MOWR.                   70:30:  Run Mud OWR 
 MSND.                     0.2:  Run Mud Sand % 
 MSOL.                    23.3:  Run Mud Solids% 
 DFV .spqt               78.00:  Mud Viscosity 
 MWOD.in                  6.75:  MWD Tool OD 
 MWSI.                      No:  Serv Intrp, MWD 
 OTIM.hr                218.30:  Time Operating 
 PCON.           Look Like New:  Pad Condition 
 PMAX.psia            11015.30:  Press Op, Max 
 PV  .cP                 38.00:  Mud PV 
 RUN .                     300:  Run Number 
 ROPA.m/hr               15.00:  ROP Avg 
 ROPN.m/hr                9.00:  ROP Min 
 ROPX.m/hr               17.00:  ROP Max 
 RPMA.rpm               120.00:  RPM Surface Avg 
 RPMN.rpm                90.00:  RPM Surface Min 
 RPMX.rpm               140.00:  RPM Surface Max 
 RRUN.                     300:  Rig Run Number 
 RTIM.hr                 31.53:  Time Reaming 
 SAZI.deg               331.64:  Azm, Start 
 SDEP.m                4127.00:  Start Depth 
 SIDD.                      No:  Serv Intrp, DD 
 SINC.deg                48.43:  Inc, Start 
 SPPA.psig             5830.00:  SPP Avg 
 SPPN.psig             5600.00:  SPP Min 
 SPPX.psig             5900.00:  SPP Max 
 STIM.      21.00.00 20-Aug-21:  Start Time 
 SVCS.                 DD, MWD:  Services 
 SVER.                    9.20:  Sperry Version 
 TDAT.m                 957.50:  Tot Depth Attmp 
 TDDF.                      No:  Trip for DD 
 TDLG.m                 957.50:  Tot Depth Loggd 
 TFF .                      No:  Trip for Fail 
 TQAA.f-kp               15.00:  Torque Abs Avg 
 TQAN.f-kp               12.00:  Torque Abs Min 
 TQAX.f-kp               19.00:  Torque Abs Max 
 TRRT.°/30m              -3.40:  Turn Rotating 
 MRT .                  EWR-M5:  Maximum Recorded Temperature 
 TTMX.degC              100.00:  Max Tool Temp 
 VS01.                90639251:  Virtual Str1 SN 
 VS02.                90634715:  Virtual Str2 SN 
 VS03.                90652479:  Virtual Str3 SN 
 VS04.                90642262:  Virtual Str4 SN 
 WBMN.klb                 0.00:  WOB Min 
 WITN.           Murad Guliyev:  Customer Rep 
 WITN.          Yashar Gaziyev:  Customer Rep 2 
 WOBA.klb                 9.00:  WOB Avg 
 WOBX.klb                12.00:  WOB Max 
 YP  .lhf2               30.00:  Yield Point 
~Curve Information Block
#MNEM.UNIT                 API CODE     Curve Description
#---------               -----------    ---------------------------
 TIME.HHMMSS            00 000 000 000:  GT Time & Date
 GTDEPTH.m              00 000 000 000:  GT Depth
 GTPQH.psia             00 000 000 000:  GT HR Quartz Pressure
 GTTQ.degC              00 000 000 000:  GT Quartz Temperature
 GTTN.NONE              00 000 000 000:  GT Test Number
 GTET.sec               00 000 000 000:  GT Elapsed Test Time
 GTTVD.m                00 000 000 000:  GT True Vertical Depth
#Other Information
#
#WARRANTY: Halliburton will use its best efforts to furnish customers with 
#accurate information and interpretations that are part of, and incident to, the services 
#provided.  However, Halliburton cannot and does not warrant the accuracy 
#or correctness of such information and interpretations.  Under no circumstances should any 
#such information or interpretation be relied upon as the sole basis for any drilling, 
#completion, production, or financial decision or any procedure involving any risk to the 
#safety of any drilling venture, drilling rig or its crew or any other third party.  The 
#Customer has full responsibility for all drilling, completion and production operation.  
#Halliburton makes no representations or warranties, either expressed or 
#implied, including, but not limited to, the implied warranties of merchantability or fitness 
#for a particular purpose, with respect to the services rendered.  In no event will 
#Halliburton be liable for failure to obtain any particular results or for 
#any damages, including, but not limited to, indirect, special or consequential damages, 
#resulting from the use of any information or interpretation provided by Halliburton.
#
~A           TIME           GTDEPTH  GTPQH  GTTQ  GTTN  GTET   GTTVD  
# ...
   05:44:37.326.27-Aug-2021 5021.00 7970.63 88.76 1.00  23.00 3358.56
   05:44:37.526.27-Aug-2021 5021.00 7970.63 88.76 1.00  23.20 3358.56
   05:44:37.726.27-Aug-2021 5021.00 7971.02 88.76 1.00  23.40 3358.56
   05:44:37.926.27-Aug-2021 5021.00 7975.42 88.76 1.00  23.60 3358.56
   05:44:38.126.27-Aug-2021 5021.00 7972.77 88.76 1.00  23.80 3358.56
   05:44:38.326.27-Aug-2021 5021.00 7972.17 88.76 1.00  24.00 3358.56
   05:44:38.526.27-Aug-2021 5021.00 7972.17 88.76 1.00  24.20 3358.56
   05:44:38.726.27-Aug-2021 5021.00 7971.79 88.75 1.00  24.40 3358.56
   05:44:38.926.27-Aug-2021 5021.00 7972.30 88.75 1.00  24.60 3358.56
   05:44:39.126.27-Aug-2021 5021.00 7973.57 88.75 1.00  24.80 3358.56
   05:44:39.326.27-Aug-2021 5021.00 7972.65 88.75 1.00  25.00 3358.56
   05:44:39.526.27-Aug-2021 5021.00 7972.65 88.75 1.00  25.20 3358.56
   05:44:39.726.27-Aug-2021 5021.00 7972.61 88.75 1.00  25.40 3358.56
   05:44:39.926.27-Aug-2021 5021.00 7973.53 88.75 1.00  25.60 3358.56
   05:44:40.126.27-Aug-2021 5021.00 7974.16 88.75 1.00  25.80 3358.56
   05:44:40.326.27-Aug-2021 5021.00 7974.96 88.75 1.00  26.00 3358.56
   05:44:40.526.27-Aug-2021 5021.00 7974.96 88.75 1.00  26.20 3358.56
   05:44:40.726.27-Aug-2021 5021.00 7974.46 88.75 1.00  26.40 3358.56
   05:44:40.926.27-Aug-2021 5021.00 7974.39 88.75 1.00  26.60 3358.56
   05:44:41.126.27-Aug-2021 5021.00 7974.38 88.75 1.00  26.80 3358.56
   05:44:41.326.27-Aug-2021 5021.00 7977.89 88.75 1.00  27.00 3358.56
   05:44:41.526.27-Aug-2021 5021.00 7977.89 88.75 1.00  27.20 3358.56
   05:44:41.726.27-Aug-2021 5021.00 7974.69 88.75 1.00  27.40 3358.56
   05:44:41.926.27-Aug-2021 5021.00 7974.71 88.75 1.00  27.60 3358.56
   05:44:42.127.27-Aug-2021 5021.00 7974.75 88.75 1.00  27.80 3358.56
   05:44:42.327.27-Aug-2021 5021.00 7975.43 88.75 1.00  28.00 3358.56
   05:44:42.527.27-Aug-2021 5021.00 7975.43 88.75 1.00  28.20 3358.56
   05:44:42.727.27-Aug-2021 5021.00 7975.32 88.75 1.00  28.40 3358.56
   05:44:42.927.27-Aug-2021 5021.00 7975.12 88.75 1.00  28.60 3358.56
   05:44:43.127.27-Aug-2021 5021.00 7975.75 88.75 1.00  28.80 3358.56
   05:44:43.327.27-Aug-2021 5021.00 7976.54 88.75 1.00  29.00 3358.56
   05:44:43.527.27-Aug-2021 5021.00 7976.54 88.75 1.00  29.20 3358.56
   05:44:43.727.27-Aug-2021 5021.00 7977.18 88.75 1.00  29.40 3358.56
   05:44:43.927.27-Aug-2021 5021.00 7977.29 88.75 1.00  29.60 3358.56
   05:44:44.127.27-Aug-2021 5021.00 7977.17 88.75 1.00  29.80 3358.56
   05:44:44.327.27-Aug-2021 5021.00 7977.21 88.75 1.00  30.00 3358.56
   05:44:44.527.27-Aug-2021 5021.00 7977.21 88.75 1.00  30.20 3358.56
   05:44:44.727.27-Aug-2021 5021.00 7982.22 88.75 1.00  30.40 3358.56
   05:44:44.927.27-Aug-2021 5021.00 7977.72 88.75 1.00  30.61 3358.56
   05:44:45.127.27-Aug-2021 5021.00 7976.91 88.75 1.00  30.81 3358.56
   05:44:45.327.27-Aug-2021 5021.00 7977.56 88.75 1.00  31.01 3358.56
   05:44:45.527.27-Aug-2021 5021.00 7977.56 88.75 1.00  31.21 3358.56
   05:44:45.727.27-Aug-2021 5021.00 7975.63 88.75 1.00  31.41 3358.56
   05:44:45.927.27-Aug-2021 5021.00 7977.41 88.75 1.00  31.61 3358.56
   05:44:46.127.27-Aug-2021 5021.00 7977.52 88.75 1.00  31.81 3358.56
   05:44:46.327.27-Aug-2021 5021.00 7977.74 88.74 1.00  32.01 3358.56
   05:44:46.527.27-Aug-2021 5021.00 7977.74 88.74 1.00  32.21 3358.56
   05:44:46.727.27-Aug-2021 5021.00 7976.77 88.74 1.00  32.41 3358.56
   05:44:46.927.27-Aug-2021 5021.00 7978.57 88.74 1.00  32.61 3358.56
   05:44:47.127.27-Aug-2021 5021.00 7979.23 88.74 1.00  32.81 3358.56
   05:44:47.327.27-Aug-2021 5021.00 7983.89 88.74 1.00  33.01 3358.56
   05:44:47.527.27-Aug-2021 5021.00 7983.89 88.74 1.00  33.21 3358.56
   05:44:47.727.27-Aug-2021 5021.00 7979.94 88.74 1.00  33.41 3358.56
   05:44:47.927.27-Aug-2021 5021.00 7979.40 88.74 1.00  33.61 3358.56
   05:44:48.127.27-Aug-2021 5021.00 7979.50 88.74 1.00  33.81 3358.56
   05:44:48.328.27-Aug-2021 5021.00 7979.31 88.74 1.00  34.01 3358.56
   05:44:48.528.27-Aug-2021 5021.00 7979.31 88.74 1.00  34.21 3358.56
   05:44:48.728.27-Aug-2021 5021.00 7980.16 88.74 1.00  34.41 3358.56
   05:44:48.928.27-Aug-2021 5021.00 7980.45 88.74 1.00  34.61 3358.56
   05:44:49.128.27-Aug-2021 5021.00 7980.48 88.74 1.00  34.81 3358.56
   05:44:49.328.27-Aug-2021 5021.00 7981.02 88.74 1.00  35.01 3358.56
   05:44:49.528.27-Aug-2021 5021.00 7981.02 88.74 1.00  35.21 3358.56
   05:44:49.728.27-Aug-2021 5021.00 7981.60 88.74 1.00  35.41 3358.56
   05:44:49.928.27-Aug-2021 5021.00 7981.85 88.74 1.00  35.61 3358.56
   05:44:50.128.27-Aug-2021 5021.00 7981.64 88.74 1.00  35.81 3358.56
   05:44:50.328.27-Aug-2021 5021.00 7981.73 88.74 1.00  36.01 3358.56
   05:44:50.528.27-Aug-2021 5021.00 7981.73 88.74 1.00  36.21 3358.56
   05:44:50.728.27-Aug-2021 5021.00 7981.70 88.74 1.00  36.41 3358.56
   05:44:50.928.27-Aug-2021 5021.00 7985.64 88.74 1.00  36.61 3358.56
   05:44:51.128.27-Aug-2021 5021.00 7982.20 88.74 1.00  36.81 3358.56
   05:44:51.328.27-Aug-2021 5021.00 7982.61 88.74 1.00  37.01 3358.56
   05:44:51.528.27-Aug-2021 5021.00 7982.61 88.74 1.00  37.21 3358.56
   05:44:51.728.27-Aug-2021 5021.00 7982.33 88.74 1.00  37.41 3358.56
   05:44:51.928.27-Aug-2021 5021.00 7981.86 88.74 1.00  37.61 3358.56
   05:44:52.128.27-Aug-2021 5021.00 7982.53 88.74 1.00  37.81 3358.56
   05:44:52.328.27-Aug-2021 5021.00 7981.47 88.74 1.00  38.01 3358.56
   05:44:52.528.27-Aug-2021 5021.00 7981.47 88.74 1.00  38.21 3358.56
   05:44:52.728.27-Aug-2021 5021.00 7981.90 88.74 1.00  38.41 3358.56
   05:44:52.928.27-Aug-2021 5021.00 7982.42 88.74 1.00  38.61 3358.56
   05:44:53.128.27-Aug-2021 5021.00 7983.84 88.74 1.00  38.81 3358.56
   05:44:53.328.27-Aug-2021 5021.00 7984.09 88.74 1.00  39.01 3358.56
   05:44:53.528.27-Aug-2021 5021.00 7984.09 88.74 1.00  39.21 3358.56
   05:44:53.728.27-Aug-2021 5021.00 7983.63 88.74 1.00  39.41 3358.56
   05:44:53.928.27-Aug-2021 5021.00 7983.63 88.74 1.00  39.61 3358.56
   05:44:54.128.27-Aug-2021 5021.00 7987.49 88.74 1.00  39.81 3358.56
   05:44:54.329.27-Aug-2021 5021.00 7983.95 88.73 1.00  40.01 3358.56
   05:44:54.529.27-Aug-2021 5021.00 7983.95 88.73 1.00  40.21 3358.56
   05:44:54.729.27-Aug-2021 5021.00 7982.92 88.73 1.00  40.41 3358.56
   05:44:54.929.27-Aug-2021 5021.00 7983.46 88.73 1.00  40.61 3358.56
   05:44:55.129.27-Aug-2021 5021.00 7982.73 88.73 1.00  40.81 3358.56
   05:44:55.329.27-Aug-2021 5021.00 7987.65 88.73 1.00  41.01 3358.56
   05:44:55.529.27-Aug-2021 5021.00 7987.65 88.73 1.00  41.21 3358.56
   05:44:55.729.27-Aug-2021 5021.00 7984.22 88.73 1.00  41.41 3358.56
   05:44:55.929.27-Aug-2021 5021.00 7983.28 88.73 1.00  41.61 3358.56
   05:44:56.129.27-Aug-2021 5021.00 7984.16 88.73 1.00  41.81 3358.56
   05:44:56.329.27-Aug-2021 5021.00 7984.92 88.73 1.00  42.01 3358.56
   05:44:56.529.27-Aug-2021 5021.00 7984.92 88.73 1.00  42.21 3358.56
   05:44:56.729.27-Aug-2021 5021.00 7982.01 88.73 1.00  42.41 3358.56
   05:44:56.929.27-Aug-2021 5021.00 7983.99 88.73 1.00  42.61 3358.56
   05:44:57.129.27-Aug-2021 5021.00 7984.21 88.73 1.00  42.81 3358.56
   05:44:57.329.27-Aug-2021 5021.00 7984.62 88.73 1.00  43.01 3358.56
   05:44:57.529.27-Aug-2021 5021.00 7984.62 88.73 1.00  43.21 3358.56
   05:44:57.729.27-Aug-2021 5021.00 7988.99 88.73 1.00  43.41 3358.56
   05:44:57.929.27-Aug-2021 5021.00 7986.24 88.73 1.00  43.61 3358.56
   05:44:58.129.27-Aug-2021 5021.00 7984.36 88.73 1.00  43.81 3358.56
   05:44:58.329.27-Aug-2021 5021.00 7988.37 88.73 1.00  44.01 3358.56
   05:44:58.529.27-Aug-2021 5021.00 7988.37 88.73 1.00  44.21 3358.56
   05:44:58.729.27-Aug-2021 5021.00 7987.15 88.73 1.00  44.41 3358.56
   05:44:58.929.27-Aug-2021 5021.00 7985.53 88.73 1.00  44.61 3358.56
   05:44:59.129.27-Aug-2021 5021.00 7985.74 88.73 1.00  44.81 3358.56
   05:44:59.329.27-Aug-2021 5021.00 7985.00 88.73 1.00  45.01 3358.56
   05:44:59.529.27-Aug-2021 5021.00 7985.00 88.73 1.00  45.21 3358.56
   05:44:59.729.27-Aug-2021 5021.00 7987.90 88.73 1.00  45.41 3358.56
   05:44:59.929.27-Aug-2021 5021.00 7987.18 88.73 1.00  45.61 3358.56
   05:45:00.129.27-Aug-2021 5021.00 7986.88 88.73 1.00  45.81 3358.56
