~Version Information
 VERS.                  2.0:   CWLS log ASCII Standard -VERSION 2.0
 WRAP.                   NO:   One line per depth step
~Well Information Block
#MNEM.UNIT     VALUE/NAME     DESCRIPTION
#---------     -----------    ---------------------------
 STRT.S             13:52:51 27-Aug-21: START TIME 13:52:51 27-Aug-21
 STOP.S             13:59:42 27-Aug-21: STOP TIME  13:59:42 27-Aug-21
 STEP.S                   0.00: STEP TIME
 NULL.                 -999.25: NULL VALUE
 DFWT.                        :  DIST FWL TEXT
 DFST.                        :  DIST FSL TEXT
 DMF .             Drill Floor:  DRILL MEAS FROM
 STIM.      20.00.00 17-Aug-21:  START TIME
 DATE.      19.00.00 29-Aug-21:  END TIME
 SPUD.               15-Aug-21:  SPUD DATE
 NREF.                    Grid:  NORTH REFERENCE
 HPTY.       Minimum Curvature:  HOLE POS TYPE
 DMOD.             Drill Model:  DRILL MOD DESC
 SVYD.                  Survey:  SURVEY DESC
 ILTD.               Lithology:  INTERP LTH DESC
 FTOP.          Formation Tops:  FORM TOPS DESC
 RIG .              East Azeri:  RIG NAME
 PDAT.          Mean Sea Level:  PERMANENT DATUM
 FLD .                     ACG:  FIELD NAME
 SON .        AZ-XX-0907180857:  JOB NUMBER
 CTRY.              Azerbaijan:  COUNTRY NAME
 WELL.                    D23x:  WELL NAME
 SRVC.     Turan Drilling and Engineering:  CONTRACTOR
 COMP.     BP Exploration (Caspian Sea) Ltd.:  COMPANY
 UWI .            /AZE00000214:  UNIQUE WELL IDENTIFIER
 API .            /AZE00000214:  API NUMBER
 MDS .        Operator Entered:  MAG DATA SOURCE
 BASE.              Azerbaijan:  LOGGING EQUIPMENT BASE LOCATION
 REGN.                   EESSA:  REGION
 PROV.                    Baku:  PROVINCE
 STAT.                    Baku:  STATE NAME
 MWDS.                    Baku:  MWD SHOP
 DOE .                     N/A:  DOE NUMBER
 DCON.         Sperry Drilling:  DIRECTNL CONTR
 UNIT.                     N/A:  LOGGING EQUIPMENT ID
 WTYP.                Deviated:  WELL TYPE
 CNTY.                        :  COUNTY
 LOC .                        :  LOCATION
 LMF .             Drill Floor:  LOG MEASURED FROM
 TVDS.m                  43.60:  TVDSS CORRECTN
 LATI.deg                40.02:  LATITUDE
 LONG.deg                51.45:  LONGITUDE
 WHNS.m                  -7.04:  WELL HEAD N/S
 WHEW.m                  -0.67:  WELL HEAD E/W
 UTMX.m              538762.90:  UTM X
 UTMY.m             4431871.34:  UTM Y
 DFWL.m                   0.00:  DISTANCE FWL
 DFSL.m                   0.00:  DISTANCE FSL
 SDEP.m                4127.00:  START DEPTH
 TDD .m                5084.50:  TOTAL DEPTH (DRILLER)
 VSDR.deg               140.47:  VERT SEC DIRECT
 GVFD.g                   1.00:  GRAVITY FIELD
 MFLD.nT              50362.00:  MAGNETIC FIELD
 MDIP.deg                59.48:  MAGNETIC DIP
 MDEC.deg                 6.47:  MAGNETIC DECL
 GRDC.deg                 0.31:  GRID CORRECTION
 AZTC.deg                 6.16:  AZM TOTAL CORR
 EPD .m                   0.00:  ELEVATION
 EGL .m                   0.00:  GROUND ELEVATION
 WDMS.m                 151.80:  WD ELEV
 APD .m                  43.60:  DEPTH ABOVE PD
 DEP .m                4092.57:  DEPTH
 AGAP.m                  43.60:  AIR GAP
 VSEW.m                  -0.67:  VERT SEC E/W
 VSNS.m                  -7.04:  VERT SEC N/S
 EKB .m                  43.60:  KB ELEVATION
 EDF .m                  43.60:  DF ELEVATION
 TDL .m                 957.50:  TOTAL DEPTH (LOGGER)
 VSC .                       0:  VS TO CLOSURE
 MAGU.                 1851413:  MAGUTM CHECKSUM
~Parameter Information Block
#MNEM.UNIT       Value        Description
#---------     -----------    ---------------------------
 AV  .mps                 1.50:  Ann Velocity 
 AVMX.mps                 2.00:  Max Ann Veloc 
 AZIF.deg               184.66:  Azm, Final 
 BHAT.        Rotary Steerable:  BHA Type 
 BREV.rev               300.00:  Rev Bit Total 
 BROT.°/30m              -0.50:  Build Rotating 
 BS  .in                  8.50:  Bit Size 
 BSZ .in                  8.50:  Bit Size 
 BTPL.psig              370.00:  Bit Press Loss 
 CABU.                      No:  Customer Abuse 
 CGEO.      Behruz Shahbaliyev:  Customer Geo 
 COMM.                     ÄÆy:  Run Comments 1 
 TCS .hr                140.08:  Time Ciculation Ended 
 CV  .mps                 3.00:  Crit Velocity 
 CVMX.mps                 3.20:  Max Crit Veloc 
 DD1 .            Musa Ahmadov:  Direct Drillr 1 
 DD2 .           Hamid Ahmadov:  Direct Drillr 2 
 DDSV.               Geo-Pilot:  DD Service 
 DEFF.%                  98.40:  % Det Eff 
 DLRX.°/30m               3.40:  Dogleg Rot Max 
 DLSO.°/30m               1.45:  Dogleg Oriented 
 DLSX.°/30m               3.40:  Dogleg Str Max 
 DRET.      18.40.00 29-Aug-21:  Drill End Time 
 DRST.      21.00.00 20-Aug-21:  Drill Start Tim 
 DTIM.hr                 69.47:  Time Drilling 
 EDEP.m                5084.50:  End Depth 
 ENG1.      Artemiy Matviyanov:  Engineer 1 
 ENG2.         Almaz Almadatov:  Engineer 2 
 ETIM.      18.40.00 29-Aug-21:  End Time 
 FLOI.gpm               500.00:  Flow In 
 FLON.gpm               400.00:  Flow In Min 
 FLOS.cptm                0.00:  Fluid Loss 
 FLOX.gpm               500.00:  Flow In Max 
 DFT .        Mineral Oil Base:  Mud Type 
 HFLO.                      No:  High Flow 
 HPRE.                      No:  High Pressure 
 HTEM.                      No:  High Temp 
 HYDO.m                   1.80:  Hydro Offset 
 IFIN.deg                25.62:  Inc, Final 
 IMAX.deg                48.69:  Inc Max 
 IMIN.deg                24.01:  Inc Min 
 IMND.m                4962.57:  Inc Min Depth 
 IMXD.m                4119.01:  Inc Max Depth 
 JARR.                      No:  Jarring 
 LETM.      18.40.00 29-Aug-21:  Log End Time 
 LOST.hr                     0:  Lost Rig Time 
 LSTM.      21.00.00 20-Aug-21:  Log Start Time 
 MDCL.ppm             41500.00:  Mud Chlorides 
 MDES.     Inversion Oil/Synthetic:  Mud Desc 
 DFD .sg                  1.56:  Mud Density 
 MDMN.sg                  1.56:  Dens Mud Min 
 MDMX.sg                  1.56:  Dens Mud Max 
 MOIL.                      70:  Run Mud Oil % 
 MOWR.                   70:30:  Run Mud OWR 
 MSND.                     0.2:  Run Mud Sand % 
 MSOL.                    23.3:  Run Mud Solids% 
 DFV .spqt               78.00:  Mud Viscosity 
 MWOD.in                  6.75:  MWD Tool OD 
 MWSI.                      No:  Serv Intrp, MWD 
 OTIM.hr                218.30:  Time Operating 
 PCON.           Look Like New:  Pad Condition 
 PMAX.psia            11015.30:  Press Op, Max 
 PV  .cP                 38.00:  Mud PV 
 RUN .                     300:  Run Number 
 ROPA.m/hr               15.00:  ROP Avg 
 ROPN.m/hr                9.00:  ROP Min 
 ROPX.m/hr               17.00:  ROP Max 
 RPMA.rpm               120.00:  RPM Surface Avg 
 RPMN.rpm                90.00:  RPM Surface Min 
 RPMX.rpm               140.00:  RPM Surface Max 
 RRUN.                     300:  Rig Run Number 
 RTIM.hr                 31.53:  Time Reaming 
 SAZI.deg               331.64:  Azm, Start 
 SDEP.m                4127.00:  Start Depth 
 SIDD.                      No:  Serv Intrp, DD 
 SINC.deg                48.43:  Inc, Start 
 SPPA.psig             5830.00:  SPP Avg 
 SPPN.psig             5600.00:  SPP Min 
 SPPX.psig             5900.00:  SPP Max 
 STIM.      21.00.00 20-Aug-21:  Start Time 
 SVCS.                 DD, MWD:  Services 
 SVER.                    9.20:  Sperry Version 
 TDAT.m                 957.50:  Tot Depth Attmp 
 TDDF.                      No:  Trip for DD 
 TDLG.m                 957.50:  Tot Depth Loggd 
 TFF .                      No:  Trip for Fail 
 TQAA.f-kp               15.00:  Torque Abs Avg 
 TQAN.f-kp               12.00:  Torque Abs Min 
 TQAX.f-kp               19.00:  Torque Abs Max 
 TRRT.°/30m              -3.40:  Turn Rotating 
 MRT .                  EWR-M5:  Maximum Recorded Temperature 
 TTMX.degC              100.00:  Max Tool Temp 
 VS01.                90639251:  Virtual Str1 SN 
 VS02.                90634715:  Virtual Str2 SN 
 VS03.                90652479:  Virtual Str3 SN 
 VS04.                90642262:  Virtual Str4 SN 
 WBMN.klb                 0.00:  WOB Min 
 WITN.           Murad Guliyev:  Customer Rep 
 WITN.          Yashar Gaziyev:  Customer Rep 2 
 WOBA.klb                 9.00:  WOB Avg 
 WOBX.klb                12.00:  WOB Max 
 YP  .lhf2               30.00:  Yield Point 
~Curve Information Block
#MNEM.UNIT                 API CODE     Curve Description
#---------               -----------    ---------------------------
 TIME.HHMMSS            00 000 000 000:  GT Time & Date
 GTDEPTH.m              00 000 000 000:  GT Depth
 GTPQH.psia             00 000 000 000:  GT HR Quartz Pressure
 GTTQ.degC              00 000 000 000:  GT Quartz Temperature
 GTTN.NONE              00 000 000 000:  GT Test Number
 GTET.sec               00 000 000 000:  GT Elapsed Test Time
 GTTVD.m                00 000 000 000:  GT True Vertical Depth
#Other Information
#
#WARRANTY: Halliburton will use its best efforts to furnish customers with 
#accurate information and interpretations that are part of, and incident to, the services 
#provided.  However, Halliburton cannot and does not warrant the accuracy 
#or correctness of such information and interpretations.  Under no circumstances should any 
#such information or interpretation be relied upon as the sole basis for any drilling, 
#completion, production, or financial decision or any procedure involving any risk to the 
#safety of any drilling venture, drilling rig or its crew or any other third party.  The 
#Customer has full responsibility for all drilling, completion and production operation.  
#Halliburton makes no representations or warranties, either expressed or 
#implied, including, but not limited to, the implied warranties of merchantability or fitness 
#for a particular purpose, with respect to the services rendered.  In no event will 
#Halliburton be liable for failure to obtain any particular results or for 
#any damages, including, but not limited to, indirect, special or consequential damages, 
#resulting from the use of any information or interpretation provided by Halliburton.
#
~A           TIME           GTDEPTH  GTPQH  GTTQ  GTTN   GTET   GTTVD  
# ...
   13:57:22.200.27-Aug-2021 4859.00 1673.22 84.54 14.00 271.20 3211.42
   13:57:22.400.27-Aug-2021 4859.00 1662.76 84.54 14.00 271.40 3211.42
   13:57:22.600.27-Aug-2021 4859.00 1658.81 84.53 14.00 271.60 3211.42
   13:57:22.800.27-Aug-2021 4859.00 1659.17 84.53 14.00 271.80 3211.42
   13:57:23.000.27-Aug-2021 4859.00 1659.37 84.53 14.00 272.00 3211.42
   13:57:23.200.27-Aug-2021 4859.00 1659.37 84.53 14.00 272.20 3211.42
   13:57:23.400.27-Aug-2021 4859.00 1654.77 84.52 14.00 272.40 3211.42
   13:57:23.600.27-Aug-2021 4859.00 1653.70 84.52 14.00 272.60 3211.42
   13:57:23.800.27-Aug-2021 4859.00 1647.96 84.52 14.00 272.80 3211.42
   13:57:24.000.27-Aug-2021 4859.00 1646.45 84.51 14.00 273.00 3211.42
   13:57:24.200.27-Aug-2021 4859.00 1646.45 84.51 14.00 273.20 3211.42
   13:57:24.400.27-Aug-2021 4859.00 1648.50 84.51 14.00 273.40 3211.42
   13:57:24.600.27-Aug-2021 4859.00 1647.07 84.50 14.00 273.60 3211.42
   13:57:24.800.27-Aug-2021 4859.00 1643.40 84.50 14.00 273.80 3211.42
   13:57:25.000.27-Aug-2021 4859.00 1642.22 84.50 14.00 274.00 3211.42
   13:57:25.200.27-Aug-2021 4859.00 1642.22 84.50 14.00 274.20 3211.42
   13:57:25.400.27-Aug-2021 4859.00 1644.14 84.49 14.00 274.40 3211.42
   13:57:25.600.27-Aug-2021 4859.00 1648.59 84.49 14.00 274.60 3211.42
   13:57:25.800.27-Aug-2021 4859.00 1647.67 84.49 14.00 274.80 3211.42
   13:57:26.000.27-Aug-2021 4859.00 1644.08 84.49 14.00 275.00 3211.42
   13:57:26.200.27-Aug-2021 4859.00 1644.08 84.49 14.00 275.20 3211.42
   13:57:26.400.27-Aug-2021 4859.00 1642.06 84.48 14.00 275.40 3211.42
   13:57:26.600.27-Aug-2021 4859.00 1650.11 84.48 14.00 275.60 3211.42
   13:57:26.800.27-Aug-2021 4859.00 1654.40 84.48 14.00 275.80 3211.42
   13:57:27.000.27-Aug-2021 4859.00 1654.74 84.47 14.00 276.00 3211.42
   13:57:27.200.27-Aug-2021 4859.00 1654.74 84.47 14.00 276.20 3211.42
   13:57:27.400.27-Aug-2021 4859.00 1649.74 84.47 14.00 276.40 3211.42
   13:57:27.600.27-Aug-2021 4859.00 1650.58 84.47 14.00 276.60 3211.42
   13:57:27.800.27-Aug-2021 4859.00 1649.72 84.46 14.00 276.80 3211.42
   13:57:28.000.27-Aug-2021 4859.00 1648.78 84.46 14.00 277.00 3211.42
   13:57:28.200.27-Aug-2021 4859.00 1648.78 84.46 14.00 277.20 3211.42
   13:57:28.400.27-Aug-2021 4859.00 1643.35 84.46 14.00 277.40 3211.42
   13:57:28.600.27-Aug-2021 4859.00 1645.93 84.46 14.00 277.60 3211.42
   13:57:28.800.27-Aug-2021 4859.00 1645.00 84.46 14.00 277.80 3211.42
   13:57:29.000.27-Aug-2021 4859.00 1642.44 84.45 14.00 278.00 3211.42
   13:57:29.200.27-Aug-2021 4859.00 1642.44 84.45 14.00 278.20 3211.42
   13:57:29.400.27-Aug-2021 4859.00 1642.42 84.45 14.00 278.40 3211.42
   13:57:29.600.27-Aug-2021 4859.00 1639.85 84.45 14.00 278.60 3211.42
   13:57:29.800.27-Aug-2021 4859.00 1641.86 84.45 14.00 278.80 3211.42
   13:57:30.000.27-Aug-2021 4859.00 1643.14 84.45 14.00 279.00 3211.42
   13:57:30.200.27-Aug-2021 4859.00 1643.14 84.45 14.00 279.20 3211.42
   13:57:30.400.27-Aug-2021 4859.00 1644.94 84.45 14.00 279.40 3211.42
   13:57:30.600.27-Aug-2021 4859.00 1641.73 84.44 14.00 279.60 3211.42
   13:57:30.800.27-Aug-2021 4859.00 1640.20 84.44 14.00 279.80 3211.42
   13:57:31.000.27-Aug-2021 4859.00 1647.52 84.44 14.00 280.00 3211.42
   13:57:31.200.27-Aug-2021 4859.00 1647.52 84.44 14.00 280.20 3211.42
   13:57:31.400.27-Aug-2021 4859.00 1723.80 84.44 14.00 280.40 3211.42
   13:57:31.600.27-Aug-2021 4859.00 1760.28 84.44 14.00 280.60 3211.42
   13:57:31.800.27-Aug-2021 4859.00 1796.19 84.44 14.00 280.80 3211.42
   13:57:32.000.27-Aug-2021 4859.00 1830.89 84.44 14.00 281.00 3211.42
   13:57:32.200.27-Aug-2021 4859.00 1830.89 84.44 14.00 281.20 3211.42
   13:57:32.400.27-Aug-2021 4859.00 1897.11 84.44 14.00 281.40 3211.42
   13:57:32.600.27-Aug-2021 4859.00 1929.57 84.44 14.00 281.60 3211.42
   13:57:32.800.27-Aug-2021 4859.00 1961.31 84.44 14.00 281.80 3211.42
   13:57:33.000.27-Aug-2021 4859.00 1992.96 84.44 14.00 282.00 3211.42
   13:57:33.200.27-Aug-2021 4859.00 1992.96 84.44 14.00 282.20 3211.42
   13:57:33.400.27-Aug-2021 4859.00 2055.00 84.44 14.00 282.40 3211.42
   13:57:33.600.27-Aug-2021 4859.00 2085.66 84.43 14.00 282.60 3211.42
   13:57:33.800.27-Aug-2021 4859.00 2115.33 84.43 14.00 282.80 3211.42
   13:57:34.000.27-Aug-2021 4859.00 2145.32 84.43 14.00 283.00 3211.42
   13:57:34.200.27-Aug-2021 4859.00 2145.32 84.43 14.00 283.20 3211.42
   13:57:34.400.27-Aug-2021 4859.00 2203.31 84.43 14.00 283.40 3211.42
   13:57:34.600.27-Aug-2021 4859.00 2231.96 84.43 14.00 283.60 3211.42
   13:57:34.800.27-Aug-2021 4859.00 2259.97 84.43 14.00 283.80 3211.42
   13:57:35.000.27-Aug-2021 4859.00 2287.84 84.43 14.00 284.00 3211.42
   13:57:35.200.27-Aug-2021 4859.00 2287.84 84.43 14.00 284.20 3211.42
   13:57:35.400.27-Aug-2021 4859.00 2342.48 84.44 14.00 284.40 3211.42
   13:57:35.600.27-Aug-2021 4859.00 2369.35 84.44 14.00 284.60 3211.42
   13:57:35.800.27-Aug-2021 4859.00 2395.80 84.44 14.00 284.80 3211.42
   13:57:36.000.27-Aug-2021 4859.00 2421.56 84.44 14.00 285.00 3211.42
   13:57:36.200.27-Aug-2021 4859.00 2421.56 84.44 14.00 285.20 3211.42
   13:57:36.400.27-Aug-2021 4859.00 2472.42 84.44 14.00 285.40 3211.42
   13:57:36.600.27-Aug-2021 4859.00 2498.07 84.44 14.00 285.60 3211.42
   13:57:36.800.27-Aug-2021 4859.00 2523.49 84.44 14.00 285.80 3211.42
   13:57:37.000.27-Aug-2021 4859.00 2547.37 84.44 14.00 286.00 3211.42
   13:57:37.200.27-Aug-2021 4859.00 2547.37 84.44 14.00 286.20 3211.42
   13:57:37.400.27-Aug-2021 4859.00 2595.29 84.44 14.00 286.40 3211.42
   13:57:37.600.27-Aug-2021 4859.00 2619.62 84.44 14.00 286.60 3211.42
   13:57:37.800.27-Aug-2021 4859.00 2643.92 84.44 14.00 286.80 3211.42
   13:57:38.000.27-Aug-2021 4859.00 2666.75 84.44 14.00 287.00 3211.42
   13:57:38.200.27-Aug-2021 4859.00 2666.75 84.44 14.00 287.20 3211.42
   13:57:38.400.27-Aug-2021 4859.00 2712.32 84.44 14.00 287.40 3211.42
   13:57:38.600.27-Aug-2021 4859.00 2734.95 84.44 14.00 287.60 3211.42
   13:57:38.800.27-Aug-2021 4859.00 2757.89 84.44 14.00 287.80 3211.42
   13:57:39.000.27-Aug-2021 4859.00 2780.24 84.45 14.00 288.00 3211.42
   13:57:39.200.27-Aug-2021 4859.00 2780.24 84.45 14.00 288.20 3211.42
   13:57:39.400.27-Aug-2021 4859.00 2822.89 84.45 14.00 288.40 3211.42
   13:57:39.600.27-Aug-2021 4859.00 2844.48 84.45 14.00 288.60 3211.42
   13:57:39.800.27-Aug-2021 4859.00 2865.44 84.45 14.00 288.80 3211.42
   13:57:40.000.27-Aug-2021 4859.00 2887.33 84.45 14.00 289.00 3211.42
   13:57:40.200.27-Aug-2021 4859.00 2887.33 84.45 14.00 289.20 3211.42
   13:57:40.400.27-Aug-2021 4859.00 2928.63 84.45 14.00 289.40 3211.42
   13:57:40.600.27-Aug-2021 4859.00 2948.98 84.45 14.00 289.60 3211.42
   13:57:40.800.27-Aug-2021 4859.00 2969.00 84.45 14.00 289.80 3211.42
   13:57:41.000.27-Aug-2021 4859.00 2989.27 84.45 14.00 290.00 3211.42
   13:57:41.200.27-Aug-2021 4859.00 2989.27 84.45 14.00 290.20 3211.42
   13:57:41.400.27-Aug-2021 4859.00 3028.56 84.45 14.00 290.40 3211.42
   13:57:41.600.27-Aug-2021 4859.00 3047.97 84.46 14.00 290.60 3211.42
   13:57:41.800.27-Aug-2021 4859.00 3067.05 84.46 14.00 290.80 3211.42
   13:57:42.000.27-Aug-2021 4859.00 3086.08 84.46 14.00 291.00 3211.42
   13:57:42.200.27-Aug-2021 4859.00 3086.08 84.46 14.00 291.20 3211.42
   13:57:42.400.27-Aug-2021 4859.00 3122.41 84.46 14.00 291.40 3211.42
   13:57:42.600.27-Aug-2021 4859.00 3140.47 84.46 14.00 291.60 3211.42
   13:57:42.800.27-Aug-2021 4859.00 3158.41 84.46 14.00 291.80 3211.42
   13:57:43.000.27-Aug-2021 4859.00 3176.15 84.46 14.00 292.00 3211.42
   13:57:43.200.27-Aug-2021 4859.00 3176.15 84.46 14.00 292.20 3211.42
   13:57:43.400.27-Aug-2021 4859.00 3212.19 84.46 14.00 292.40 3211.42
   13:57:43.600.27-Aug-2021 4859.00 3230.14 84.46 14.00 292.60 3211.42
   13:57:43.800.27-Aug-2021 4859.00 3247.75 84.47 14.00 292.80 3211.42
   13:57:44.000.27-Aug-2021 4859.00 3264.82 84.47 14.00 293.00 3211.42
   13:57:44.200.27-Aug-2021 4859.00 3264.82 84.47 14.00 293.20 3211.42
   13:57:44.400.27-Aug-2021 4859.00 3298.98 84.47 14.00 293.40 3211.42
   13:57:44.600.27-Aug-2021 4859.00 3315.87 84.47 14.00 293.60 3211.42
