~Version Information
 VERS.                  2.0:   CWLS log ASCII Standard -VERSION 2.0
 WRAP.                   NO:   One line per depth step
~Well Information Block
#MNEM.UNIT     VALUE/NAME     DESCRIPTION
#---------     -----------    ---------------------------
 STRT.S             19:17:17 27-Aug-21: START TIME 19:17:17 27-Aug-21
 STOP.S             19:24:30 27-Aug-21: STOP TIME  19:24:30 27-Aug-21
 STEP.S                   0.00: STEP TIME
 NULL.                 -999.25: NULL VALUE
 DFWT.                        :  DIST FWL TEXT
 DFST.                        :  DIST FSL TEXT
 DMF .             Drill Floor:  DRILL MEAS FROM
 STIM.      20.00.00 17-Aug-21:  START TIME
 DATE.      19.00.00 29-Aug-21:  END TIME
 SPUD.               15-Aug-21:  SPUD DATE
 NREF.                    Grid:  NORTH REFERENCE
 HPTY.       Minimum Curvature:  HOLE POS TYPE
 DMOD.             Drill Model:  DRILL MOD DESC
 SVYD.                  Survey:  SURVEY DESC
 ILTD.               Lithology:  INTERP LTH DESC
 FTOP.          Formation Tops:  FORM TOPS DESC
 RIG .              East Azeri:  RIG NAME
 PDAT.          Mean Sea Level:  PERMANENT DATUM
 FLD .                     ACG:  FIELD NAME
 SON .        AZ-XX-0907180857:  JOB NUMBER
 CTRY.              Azerbaijan:  COUNTRY NAME
 WELL.                    D23x:  WELL NAME
 SRVC.     Turan Drilling and Engineering:  CONTRACTOR
 COMP.     BP Exploration (Caspian Sea) Ltd.:  COMPANY
 UWI .            /AZE00000214:  UNIQUE WELL IDENTIFIER
 API .            /AZE00000214:  API NUMBER
 MDS .        Operator Entered:  MAG DATA SOURCE
 BASE.              Azerbaijan:  LOGGING EQUIPMENT BASE LOCATION
 REGN.                   EESSA:  REGION
 PROV.                    Baku:  PROVINCE
 STAT.                    Baku:  STATE NAME
 MWDS.                    Baku:  MWD SHOP
 DOE .                     N/A:  DOE NUMBER
 DCON.         Sperry Drilling:  DIRECTNL CONTR
 UNIT.                     N/A:  LOGGING EQUIPMENT ID
 WTYP.                Deviated:  WELL TYPE
 CNTY.                        :  COUNTY
 LOC .                        :  LOCATION
 LMF .             Drill Floor:  LOG MEASURED FROM
 TVDS.m                  43.60:  TVDSS CORRECTN
 LATI.deg                40.02:  LATITUDE
 LONG.deg                51.45:  LONGITUDE
 WHNS.m                  -7.04:  WELL HEAD N/S
 WHEW.m                  -0.67:  WELL HEAD E/W
 UTMX.m              538762.90:  UTM X
 UTMY.m             4431871.34:  UTM Y
 DFWL.m                   0.00:  DISTANCE FWL
 DFSL.m                   0.00:  DISTANCE FSL
 SDEP.m                4127.00:  START DEPTH
 TDD .m                5084.50:  TOTAL DEPTH (DRILLER)
 VSDR.deg               140.47:  VERT SEC DIRECT
 GVFD.g                   1.00:  GRAVITY FIELD
 MFLD.nT              50362.00:  MAGNETIC FIELD
 MDIP.deg                59.48:  MAGNETIC DIP
 MDEC.deg                 6.47:  MAGNETIC DECL
 GRDC.deg                 0.31:  GRID CORRECTION
 AZTC.deg                 6.16:  AZM TOTAL CORR
 EPD .m                   0.00:  ELEVATION
 EGL .m                   0.00:  GROUND ELEVATION
 WDMS.m                 151.80:  WD ELEV
 APD .m                  43.60:  DEPTH ABOVE PD
 DEP .m                4092.57:  DEPTH
 AGAP.m                  43.60:  AIR GAP
 VSEW.m                  -0.67:  VERT SEC E/W
 VSNS.m                  -7.04:  VERT SEC N/S
 EKB .m                  43.60:  KB ELEVATION
 EDF .m                  43.60:  DF ELEVATION
 TDL .m                 957.50:  TOTAL DEPTH (LOGGER)
 VSC .                       0:  VS TO CLOSURE
 MAGU.                 1851413:  MAGUTM CHECKSUM
~Parameter Information Block
#MNEM.UNIT       Value        Description
#---------     -----------    ---------------------------
 AV  .mps                 1.50:  Ann Velocity 
 AVMX.mps                 2.00:  Max Ann Veloc 
 AZIF.deg               184.66:  Azm, Final 
 BHAT.        Rotary Steerable:  BHA Type 
 BREV.rev               300.00:  Rev Bit Total 
 BROT.°/30m              -0.50:  Build Rotating 
 BS  .in                  8.50:  Bit Size 
 BSZ .in                  8.50:  Bit Size 
 BTPL.psig              370.00:  Bit Press Loss 
 CABU.                      No:  Customer Abuse 
 CGEO.      Behruz Shahbaliyev:  Customer Geo 
 COMM.                     œþQ:  Run Comments 1 
 TCS .hr                140.08:  Time Ciculation Ended 
 CV  .mps                 3.00:  Crit Velocity 
 CVMX.mps                 3.20:  Max Crit Veloc 
 DD1 .            Musa Ahmadov:  Direct Drillr 1 
 DD2 .           Hamid Ahmadov:  Direct Drillr 2 
 DDSV.               Geo-Pilot:  DD Service 
 DEFF.%                  98.40:  % Det Eff 
 DLRX.°/30m               3.40:  Dogleg Rot Max 
 DLSO.°/30m               1.45:  Dogleg Oriented 
 DLSX.°/30m               3.40:  Dogleg Str Max 
 DRET.      18.40.00 29-Aug-21:  Drill End Time 
 DRST.      21.00.00 20-Aug-21:  Drill Start Tim 
 DTIM.hr                 69.47:  Time Drilling 
 EDEP.m                5084.50:  End Depth 
 ENG1.      Artemiy Matviyanov:  Engineer 1 
 ENG2.         Almaz Almadatov:  Engineer 2 
 ETIM.      18.40.00 29-Aug-21:  End Time 
 FLOI.gpm               500.00:  Flow In 
 FLON.gpm               400.00:  Flow In Min 
 FLOS.cptm                0.00:  Fluid Loss 
 FLOX.gpm               500.00:  Flow In Max 
 DFT .        Mineral Oil Base:  Mud Type 
 HFLO.                      No:  High Flow 
 HPRE.                      No:  High Pressure 
 HTEM.                      No:  High Temp 
 HYDO.m                   1.80:  Hydro Offset 
 IFIN.deg                25.62:  Inc, Final 
 IMAX.deg                48.69:  Inc Max 
 IMIN.deg                24.01:  Inc Min 
 IMND.m                4962.57:  Inc Min Depth 
 IMXD.m                4119.01:  Inc Max Depth 
 JARR.                      No:  Jarring 
 LETM.      18.40.00 29-Aug-21:  Log End Time 
 LOST.hr                     0:  Lost Rig Time 
 LSTM.      21.00.00 20-Aug-21:  Log Start Time 
 MDCL.ppm             41500.00:  Mud Chlorides 
 MDES.     Inversion Oil/Synthetic:  Mud Desc 
 DFD .sg                  1.56:  Mud Density 
 MDMN.sg                  1.56:  Dens Mud Min 
 MDMX.sg                  1.56:  Dens Mud Max 
 MOIL.                      70:  Run Mud Oil % 
 MOWR.                   70:30:  Run Mud OWR 
 MSND.                     0.2:  Run Mud Sand % 
 MSOL.                    23.3:  Run Mud Solids% 
 DFV .spqt               78.00:  Mud Viscosity 
 MWOD.in                  6.75:  MWD Tool OD 
 MWSI.                      No:  Serv Intrp, MWD 
 OTIM.hr                218.30:  Time Operating 
 PCON.           Look Like New:  Pad Condition 
 PMAX.psia            11015.30:  Press Op, Max 
 PV  .cP                 38.00:  Mud PV 
 RUN .                     300:  Run Number 
 ROPA.m/hr               15.00:  ROP Avg 
 ROPN.m/hr                9.00:  ROP Min 
 ROPX.m/hr               17.00:  ROP Max 
 RPMA.rpm               120.00:  RPM Surface Avg 
 RPMN.rpm                90.00:  RPM Surface Min 
 RPMX.rpm               140.00:  RPM Surface Max 
 RRUN.                     300:  Rig Run Number 
 RTIM.hr                 31.53:  Time Reaming 
 SAZI.deg               331.64:  Azm, Start 
 SDEP.m                4127.00:  Start Depth 
 SIDD.                      No:  Serv Intrp, DD 
 SINC.deg                48.43:  Inc, Start 
 SPPA.psig             5830.00:  SPP Avg 
 SPPN.psig             5600.00:  SPP Min 
 SPPX.psig             5900.00:  SPP Max 
 STIM.      21.00.00 20-Aug-21:  Start Time 
 SVCS.                 DD, MWD:  Services 
 SVER.                    9.20:  Sperry Version 
 TDAT.m                 957.50:  Tot Depth Attmp 
 TDDF.                      No:  Trip for DD 
 TDLG.m                 957.50:  Tot Depth Loggd 
 TFF .                      No:  Trip for Fail 
 TQAA.f-kp               15.00:  Torque Abs Avg 
 TQAN.f-kp               12.00:  Torque Abs Min 
 TQAX.f-kp               19.00:  Torque Abs Max 
 TRRT.°/30m              -3.40:  Turn Rotating 
 MRT .                  EWR-M5:  Maximum Recorded Temperature 
 TTMX.degC              100.00:  Max Tool Temp 
 VS01.                90639251:  Virtual Str1 SN 
 VS02.                90634715:  Virtual Str2 SN 
 VS03.                90652479:  Virtual Str3 SN 
 VS04.                90642262:  Virtual Str4 SN 
 WBMN.klb                 0.00:  WOB Min 
 WITN.           Murad Guliyev:  Customer Rep 
 WITN.          Yashar Gaziyev:  Customer Rep 2 
 WOBA.klb                 9.00:  WOB Avg 
 WOBX.klb                12.00:  WOB Max 
 YP  .lhf2               30.00:  Yield Point 
~Curve Information Block
#MNEM.UNIT                 API CODE     Curve Description
#---------               -----------    ---------------------------
 TIME.HHMMSS            00 000 000 000:  GT Time & Date
 GTDEPTH.m              00 000 000 000:  GT Depth
 GTPQH.psia             00 000 000 000:  GT HR Quartz Pressure
 GTTQ.degC              00 000 000 000:  GT Quartz Temperature
 GTTN.NONE              00 000 000 000:  GT Test Number
 GTET.sec               00 000 000 000:  GT Elapsed Test Time
 GTTVD.m                00 000 000 000:  GT True Vertical Depth
#Other Information
#
#WARRANTY: Halliburton will use its best efforts to furnish customers with 
#accurate information and interpretations that are part of, and incident to, the services 
#provided.  However, Halliburton cannot and does not warrant the accuracy 
#or correctness of such information and interpretations.  Under no circumstances should any 
#such information or interpretation be relied upon as the sole basis for any drilling, 
#completion, production, or financial decision or any procedure involving any risk to the 
#safety of any drilling venture, drilling rig or its crew or any other third party.  The 
#Customer has full responsibility for all drilling, completion and production operation.  
#Halliburton makes no representations or warranties, either expressed or 
#implied, including, but not limited to, the implied warranties of merchantability or fitness 
#for a particular purpose, with respect to the services rendered.  In no event will 
#Halliburton be liable for failure to obtain any particular results or for 
#any damages, including, but not limited to, indirect, special or consequential damages, 
#resulting from the use of any information or interpretation provided by Halliburton.
#
~A           TIME           GTDEPTH  GTPQH  GTTQ  GTTN   GTET   GTTVD  
# ...
   19:18:02.200.27-Aug-2021 4687.50 7255.31 82.11 20.00  45.20 3056.27
   19:18:02.400.27-Aug-2021 4687.50 7184.98 82.11 20.00  45.40 3056.27
   19:18:02.600.27-Aug-2021 4687.50 7149.27 82.11 20.00  45.60 3056.27
   19:18:02.800.27-Aug-2021 4687.50 7145.53 82.11 20.00  45.80 3056.27
   19:18:03.000.27-Aug-2021 4687.50 7103.95 82.11 20.00  46.00 3056.27
   19:18:03.200.27-Aug-2021 4687.50 7103.95 82.11 20.00  46.20 3056.27
   19:18:03.400.27-Aug-2021 4687.50 7005.64 82.11 20.00  46.40 3056.27
   19:18:03.600.27-Aug-2021 4687.50 6962.95 82.11 20.00  46.60 3056.27
   19:18:03.800.27-Aug-2021 4687.50 6906.97 82.11 20.00  46.80 3056.27
   19:18:04.000.27-Aug-2021 4687.50 6857.90 82.11 20.00  47.00 3056.27
   19:18:04.200.27-Aug-2021 4687.50 6857.90 82.11 20.00  47.20 3056.27
   19:18:04.400.27-Aug-2021 4687.50 6747.92 82.11 20.00  47.40 3056.27
   19:18:04.600.27-Aug-2021 4687.50 6688.26 82.11 20.00  47.60 3056.27
   19:18:04.800.27-Aug-2021 4687.50 6628.19 82.11 20.00  47.80 3056.27
   19:18:05.000.27-Aug-2021 4687.50 6553.80 82.11 20.00  48.00 3056.27
   19:18:05.200.27-Aug-2021 4687.50 6553.80 82.11 20.00  48.20 3056.27
   19:18:05.400.27-Aug-2021 4687.50 6418.99 82.10 20.00  48.40 3056.27
   19:18:05.600.27-Aug-2021 4687.50 6348.80 82.10 20.00  48.60 3056.27
   19:18:05.800.27-Aug-2021 4687.50 6278.58 82.10 20.00  48.80 3056.27
   19:18:06.000.27-Aug-2021 4687.50 6205.41 82.10 20.00  49.00 3056.27
   19:18:06.200.27-Aug-2021 4687.50 6205.41 82.10 20.00  49.20 3056.27
   19:18:06.400.27-Aug-2021 4687.50 6051.40 82.10 20.00  49.40 3056.27
   19:18:06.600.27-Aug-2021 4687.50 5997.16 82.10 20.00  49.60 3056.27
   19:18:06.800.27-Aug-2021 4687.50 5915.74 82.10 20.00  49.80 3056.27
   19:18:07.000.27-Aug-2021 4687.50 5825.11 82.10 20.00  50.00 3056.27
   19:18:07.200.27-Aug-2021 4687.50 5825.11 82.10 20.00  50.20 3056.27
   19:18:07.400.27-Aug-2021 4687.50 5626.35 82.10 20.00  50.40 3056.27
   19:18:07.600.27-Aug-2021 4687.50 5528.61 82.10 20.00  50.60 3056.27
   19:18:07.800.27-Aug-2021 4687.50 5440.37 82.10 20.00  50.80 3056.27
   19:18:08.000.27-Aug-2021 4687.50 5332.12 82.09 20.00  51.00 3056.27
   19:18:08.200.27-Aug-2021 4687.50 5332.12 82.09 20.00  51.20 3056.27
   19:18:08.400.27-Aug-2021 4687.50 5102.28 82.09 20.00  51.40 3056.27
   19:18:08.600.27-Aug-2021 4687.50 4987.01 82.09 20.00  51.60 3056.27
   19:18:08.800.27-Aug-2021 4687.50 4872.11 82.09 20.00  51.80 3056.27
   19:18:09.000.27-Aug-2021 4687.50 4781.00 82.09 20.00  52.00 3056.27
   19:18:09.200.27-Aug-2021 4687.50 4781.00 82.09 20.00  52.20 3056.27
   19:18:09.400.27-Aug-2021 4687.50 4503.07 82.08 20.00  52.40 3056.27
   19:18:09.600.27-Aug-2021 4687.50 4424.30 82.08 20.00  52.60 3056.27
   19:18:09.800.27-Aug-2021 4687.50 4419.95 82.08 20.00  52.80 3056.27
   19:18:10.000.27-Aug-2021 4687.50 4416.84 82.08 20.00  53.00 3056.27
   19:18:10.200.27-Aug-2021 4687.50 4416.84 82.08 20.00  53.20 3056.27
   19:18:10.400.27-Aug-2021 4687.50 4416.72 82.08 20.00  53.40 3056.27
   19:18:10.600.27-Aug-2021 4687.50 4417.53 82.07 20.00  53.60 3056.27
   19:18:10.800.27-Aug-2021 4687.50 4418.06 82.07 20.00  53.80 3056.27
   19:18:11.000.27-Aug-2021 4687.50 4420.01 82.07 20.00  54.00 3056.27
   19:18:11.200.27-Aug-2021 4687.50 4420.01 82.07 20.00  54.20 3056.27
   19:18:11.400.27-Aug-2021 4687.50 4420.87 82.07 20.00  54.40 3056.27
   19:18:11.600.27-Aug-2021 4687.50 4420.85 82.07 20.00  54.60 3056.27
   19:18:11.800.27-Aug-2021 4687.50 4420.82 82.06 20.00  54.80 3056.27
   19:18:12.000.27-Aug-2021 4687.50 4420.82 82.06 20.00  55.00 3056.27
   19:18:12.200.27-Aug-2021 4687.50 4420.82 82.06 20.00  55.20 3056.27
   19:18:12.400.27-Aug-2021 4687.50 4420.87 82.06 20.00  55.40 3056.27
   19:18:12.600.27-Aug-2021 4687.50 4420.87 82.06 20.00  55.60 3056.27
   19:18:12.800.27-Aug-2021 4687.50 4420.92 82.05 20.00  55.80 3056.27
   19:18:13.000.27-Aug-2021 4687.50 4420.85 82.05 20.00  56.00 3056.27
   19:18:13.200.27-Aug-2021 4687.50 4420.85 82.05 20.00  56.20 3056.27
   19:18:13.400.27-Aug-2021 4687.50 4420.33 82.05 20.00  56.40 3056.27
   19:18:13.600.27-Aug-2021 4687.50 4420.71 82.05 20.00  56.60 3056.27
   19:18:13.800.27-Aug-2021 4687.50 4415.25 82.05 20.00  56.80 3056.27
   19:18:14.000.27-Aug-2021 4687.50 4398.65 82.05 20.00  57.00 3056.27
   19:18:14.200.27-Aug-2021 4687.50 4398.65 82.05 20.00  57.20 3056.27
   19:18:14.400.27-Aug-2021 4687.50 4392.37 82.04 20.00  57.40 3056.27
   19:18:14.600.27-Aug-2021 4687.50 4393.43 82.04 20.00  57.60 3056.27
   19:18:14.800.27-Aug-2021 4687.50 4394.41 82.04 20.00  57.80 3056.27
   19:18:15.000.27-Aug-2021 4687.50 4395.50 82.04 20.00  58.00 3056.27
   19:18:15.200.27-Aug-2021 4687.50 4395.50 82.04 20.00  58.20 3056.27
   19:18:15.400.27-Aug-2021 4687.50 4395.87 82.04 20.00  58.40 3056.27
   19:18:15.600.27-Aug-2021 4687.50 4396.62 82.04 20.00  58.60 3056.27
   19:18:15.800.27-Aug-2021 4687.50 4396.05 82.04 20.00  58.80 3056.27
   19:18:16.000.27-Aug-2021 4687.50 4396.70 82.04 20.00  59.00 3056.27
   19:18:16.200.27-Aug-2021 4687.50 4396.70 82.04 20.00  59.20 3056.27
   19:18:16.400.27-Aug-2021 4687.50 4396.87 82.03 20.00  59.40 3056.27
   19:18:16.600.27-Aug-2021 4687.50 4397.40 82.03 20.00  59.60 3056.27
   19:18:16.800.27-Aug-2021 4687.50 4397.50 82.03 20.00  59.80 3056.27
   19:18:17.000.27-Aug-2021 4687.50 4397.52 82.03 20.00  60.00 3056.27
   19:18:17.200.27-Aug-2021 4687.50 4397.52 82.03 20.00  60.20 3056.27
   19:18:17.400.27-Aug-2021 4687.50 4397.73 82.03 20.00  60.40 3056.27
   19:18:17.600.27-Aug-2021 4687.50 4397.65 82.03 20.00  60.60 3056.27
   19:18:17.800.27-Aug-2021 4687.50 4397.86 82.03 20.00  60.80 3056.27
   19:18:18.000.27-Aug-2021 4687.50 4398.03 82.03 20.00  61.00 3056.27
   19:18:18.200.27-Aug-2021 4687.50 4398.03 82.03 20.00  61.20 3056.27
   19:18:18.400.27-Aug-2021 4687.50 4398.09 82.03 20.00  61.40 3056.27
   19:18:18.600.27-Aug-2021 4687.50 4398.36 82.03 20.00  61.60 3056.27
   19:18:18.800.27-Aug-2021 4687.50 4398.29 82.03 20.00  61.80 3056.27
   19:18:19.000.27-Aug-2021 4687.50 4398.25 82.03 20.00  62.00 3056.27
   19:18:19.200.27-Aug-2021 4687.50 4398.25 82.03 20.00  62.20 3056.27
   19:18:19.400.27-Aug-2021 4687.50 4398.24 82.03 20.00  62.40 3056.27
   19:18:19.600.27-Aug-2021 4687.50 4397.79 82.03 20.00  62.60 3056.27
   19:18:19.800.27-Aug-2021 4687.50 4398.29 82.03 20.00  62.80 3056.27
   19:18:20.000.27-Aug-2021 4687.50 4398.19 82.03 20.00  63.00 3056.27
   19:18:20.200.27-Aug-2021 4687.50 4398.19 82.03 20.00  63.20 3056.27
   19:18:20.400.27-Aug-2021 4687.50 4398.34 82.03 20.00  63.40 3056.27
   19:18:20.600.27-Aug-2021 4687.50 4398.38 82.03 20.00  63.60 3056.27
   19:18:20.800.27-Aug-2021 4687.50 4398.45 82.03 20.00  63.80 3056.27
   19:18:21.000.27-Aug-2021 4687.50 4398.50 82.02 20.00  64.00 3056.27
   19:18:21.200.27-Aug-2021 4687.50 4398.50 82.02 20.00  64.20 3056.27
   19:18:21.400.27-Aug-2021 4687.50 4398.53 82.02 20.00  64.40 3056.27
   19:18:21.600.27-Aug-2021 4687.50 4398.64 82.02 20.00  64.60 3056.27
   19:18:21.800.27-Aug-2021 4687.50 4398.42 82.02 20.00  64.80 3056.27
   19:18:22.000.27-Aug-2021 4687.50 4398.55 82.02 20.00  65.00 3056.27
   19:18:22.200.27-Aug-2021 4687.50 4398.55 82.02 20.00  65.20 3056.27
   19:18:22.400.27-Aug-2021 4687.50 4398.54 82.02 20.00  65.40 3056.27
   19:18:22.600.27-Aug-2021 4687.50 4398.61 82.02 20.00  65.60 3056.27
   19:18:22.800.27-Aug-2021 4687.50 4398.67 82.02 20.00  65.80 3056.27
   19:18:23.000.27-Aug-2021 4687.50 4398.27 82.02 20.00  66.00 3056.27
   19:18:23.200.27-Aug-2021 4687.50 4398.27 82.02 20.00  66.20 3056.27
   19:18:23.400.27-Aug-2021 4687.50 4398.59 82.02 20.00  66.40 3056.27
   19:18:23.600.27-Aug-2021 4687.50 4398.36 82.02 20.00  66.60 3056.27
   19:18:23.800.27-Aug-2021 4687.50 4414.44 82.02 20.00  66.80 3056.27
   19:18:24.000.27-Aug-2021 4687.50 4416.18 82.02 20.00  67.00 3056.27
   19:18:24.200.27-Aug-2021 4687.50 4416.18 82.02 20.00  67.20 3056.27
   19:18:24.400.27-Aug-2021 4687.50 4416.32 82.02 20.00  67.40 3056.27
   19:18:24.600.27-Aug-2021 4687.50 4416.44 82.02 20.00  67.60 3056.27
