~Version Information
 VERS.                  2.0:   CWLS log ASCII Standard -VERSION 2.0
 WRAP.                   NO:   One line per depth step
~Well Information Block
#MNEM.UNIT     VALUE/NAME     DESCRIPTION
#---------     -----------    ---------------------------
 STRT.S             13:07:39 27-Aug-21: START TIME 13:07:39 27-Aug-21
 STOP.S             13:14:54 27-Aug-21: STOP TIME  13:14:54 27-Aug-21
 STEP.S                   0.00: STEP TIME
 NULL.                 -999.25: NULL VALUE
 DFWT.                        :  DIST FWL TEXT
 DFST.                        :  DIST FSL TEXT
 DMF .             Drill Floor:  DRILL MEAS FROM
 STIM.      20.00.00 17-Aug-21:  START TIME
 DATE.      19.00.00 29-Aug-21:  END TIME
 SPUD.               15-Aug-21:  SPUD DATE
 NREF.                    Grid:  NORTH REFERENCE
 HPTY.       Minimum Curvature:  HOLE POS TYPE
 DMOD.             Drill Model:  DRILL MOD DESC
 SVYD.                  Survey:  SURVEY DESC
 ILTD.               Lithology:  INTERP LTH DESC
 FTOP.          Formation Tops:  FORM TOPS DESC
 RIG .              East Azeri:  RIG NAME
 PDAT.          Mean Sea Level:  PERMANENT DATUM
 FLD .                     ACG:  FIELD NAME
 SON .        AZ-XX-0907180857:  JOB NUMBER
 CTRY.              Azerbaijan:  COUNTRY NAME
 WELL.                    D23x:  WELL NAME
 SRVC.     Turan Drilling and Engineering:  CONTRACTOR
 COMP.     BP Exploration (Caspian Sea) Ltd.:  COMPANY
 UWI .            /AZE00000214:  UNIQUE WELL IDENTIFIER
 API .            /AZE00000214:  API NUMBER
 MDS .        Operator Entered:  MAG DATA SOURCE
 BASE.              Azerbaijan:  LOGGING EQUIPMENT BASE LOCATION
 REGN.                   EESSA:  REGION
 PROV.                    Baku:  PROVINCE
 STAT.                    Baku:  STATE NAME
 MWDS.                    Baku:  MWD SHOP
 DOE .                     N/A:  DOE NUMBER
 DCON.         Sperry Drilling:  DIRECTNL CONTR
 UNIT.                     N/A:  LOGGING EQUIPMENT ID
 WTYP.                Deviated:  WELL TYPE
 CNTY.                        :  COUNTY
 LOC .                        :  LOCATION
 LMF .             Drill Floor:  LOG MEASURED FROM
 TVDS.m                  43.60:  TVDSS CORRECTN
 LATI.deg                40.02:  LATITUDE
 LONG.deg                51.45:  LONGITUDE
 WHNS.m                  -7.04:  WELL HEAD N/S
 WHEW.m                  -0.67:  WELL HEAD E/W
 UTMX.m              538762.90:  UTM X
 UTMY.m             4431871.34:  UTM Y
 DFWL.m                   0.00:  DISTANCE FWL
 DFSL.m                   0.00:  DISTANCE FSL
 SDEP.m                4127.00:  START DEPTH
 TDD .m                5084.50:  TOTAL DEPTH (DRILLER)
 VSDR.deg               140.47:  VERT SEC DIRECT
 GVFD.g                   1.00:  GRAVITY FIELD
 MFLD.nT              50362.00:  MAGNETIC FIELD
 MDIP.deg                59.48:  MAGNETIC DIP
 MDEC.deg                 6.47:  MAGNETIC DECL
 GRDC.deg                 0.31:  GRID CORRECTION
 AZTC.deg                 6.16:  AZM TOTAL CORR
 EPD .m                   0.00:  ELEVATION
 EGL .m                   0.00:  GROUND ELEVATION
 WDMS.m                 151.80:  WD ELEV
 APD .m                  43.60:  DEPTH ABOVE PD
 DEP .m                4092.57:  DEPTH
 AGAP.m                  43.60:  AIR GAP
 VSEW.m                  -0.67:  VERT SEC E/W
 VSNS.m                  -7.04:  VERT SEC N/S
 EKB .m                  43.60:  KB ELEVATION
 EDF .m                  43.60:  DF ELEVATION
 TDL .m                 957.50:  TOTAL DEPTH (LOGGER)
 VSC .                       0:  VS TO CLOSURE
 MAGU.                 1851413:  MAGUTM CHECKSUM
~Parameter Information Block
#MNEM.UNIT       Value        Description
#---------     -----------    ---------------------------
 AV  .mps                 1.50:  Ann Velocity 
 AVMX.mps                 2.00:  Max Ann Veloc 
 AZIF.deg               184.66:  Azm, Final 
 BHAT.        Rotary Steerable:  BHA Type 
 BREV.rev               300.00:  Rev Bit Total 
 BROT.°/30m              -0.50:  Build Rotating 
 BS  .in                  8.50:  Bit Size 
 BSZ .in                  8.50:  Bit Size 
 BTPL.psig              370.00:  Bit Press Loss 
 CABU.                      No:  Customer Abuse 
 CGEO.      Behruz Shahbaliyev:  Customer Geo 
 COMM.                     ¤R:  Run Comments 1 
 TCS .hr                140.08:  Time Ciculation Ended 
 CV  .mps                 3.00:  Crit Velocity 
 CVMX.mps                 3.20:  Max Crit Veloc 
 DD1 .            Musa Ahmadov:  Direct Drillr 1 
 DD2 .           Hamid Ahmadov:  Direct Drillr 2 
 DDSV.               Geo-Pilot:  DD Service 
 DEFF.%                  98.40:  % Det Eff 
 DLRX.°/30m               3.40:  Dogleg Rot Max 
 DLSO.°/30m               1.45:  Dogleg Oriented 
 DLSX.°/30m               3.40:  Dogleg Str Max 
 DRET.      18.40.00 29-Aug-21:  Drill End Time 
 DRST.      21.00.00 20-Aug-21:  Drill Start Tim 
 DTIM.hr                 69.47:  Time Drilling 
 EDEP.m                5084.50:  End Depth 
 ENG1.      Artemiy Matviyanov:  Engineer 1 
 ENG2.         Almaz Almadatov:  Engineer 2 
 ETIM.      18.40.00 29-Aug-21:  End Time 
 FLOI.gpm               500.00:  Flow In 
 FLON.gpm               400.00:  Flow In Min 
 FLOS.cptm                0.00:  Fluid Loss 
 FLOX.gpm               500.00:  Flow In Max 
 DFT .        Mineral Oil Base:  Mud Type 
 HFLO.                      No:  High Flow 
 HPRE.                      No:  High Pressure 
 HTEM.                      No:  High Temp 
 HYDO.m                   1.80:  Hydro Offset 
 IFIN.deg                25.62:  Inc, Final 
 IMAX.deg                48.69:  Inc Max 
 IMIN.deg                24.01:  Inc Min 
 IMND.m                4962.57:  Inc Min Depth 
 IMXD.m                4119.01:  Inc Max Depth 
 JARR.                      No:  Jarring 
 LETM.      18.40.00 29-Aug-21:  Log End Time 
 LOST.hr                     0:  Lost Rig Time 
 LSTM.      21.00.00 20-Aug-21:  Log Start Time 
 MDCL.ppm             41500.00:  Mud Chlorides 
 MDES.     Inversion Oil/Synthetic:  Mud Desc 
 DFD .sg                  1.56:  Mud Density 
 MDMN.sg                  1.56:  Dens Mud Min 
 MDMX.sg                  1.56:  Dens Mud Max 
 MOIL.                      70:  Run Mud Oil % 
 MOWR.                   70:30:  Run Mud OWR 
 MSND.                     0.2:  Run Mud Sand % 
 MSOL.                    23.3:  Run Mud Solids% 
 DFV .spqt               78.00:  Mud Viscosity 
 MWOD.in                  6.75:  MWD Tool OD 
 MWSI.                      No:  Serv Intrp, MWD 
 OTIM.hr                218.30:  Time Operating 
 PCON.           Look Like New:  Pad Condition 
 PMAX.psia            11015.30:  Press Op, Max 
 PV  .cP                 38.00:  Mud PV 
 RUN .                     300:  Run Number 
 ROPA.m/hr               15.00:  ROP Avg 
 ROPN.m/hr                9.00:  ROP Min 
 ROPX.m/hr               17.00:  ROP Max 
 RPMA.rpm               120.00:  RPM Surface Avg 
 RPMN.rpm                90.00:  RPM Surface Min 
 RPMX.rpm               140.00:  RPM Surface Max 
 RRUN.                     300:  Rig Run Number 
 RTIM.hr                 31.53:  Time Reaming 
 SAZI.deg               331.64:  Azm, Start 
 SDEP.m                4127.00:  Start Depth 
 SIDD.                      No:  Serv Intrp, DD 
 SINC.deg                48.43:  Inc, Start 
 SPPA.psig             5830.00:  SPP Avg 
 SPPN.psig             5600.00:  SPP Min 
 SPPX.psig             5900.00:  SPP Max 
 STIM.      21.00.00 20-Aug-21:  Start Time 
 SVCS.                 DD, MWD:  Services 
 SVER.                    9.20:  Sperry Version 
 TDAT.m                 957.50:  Tot Depth Attmp 
 TDDF.                      No:  Trip for DD 
 TDLG.m                 957.50:  Tot Depth Loggd 
 TFF .                      No:  Trip for Fail 
 TQAA.f-kp               15.00:  Torque Abs Avg 
 TQAN.f-kp               12.00:  Torque Abs Min 
 TQAX.f-kp               19.00:  Torque Abs Max 
 TRRT.°/30m              -3.40:  Turn Rotating 
 MRT .                  EWR-M5:  Maximum Recorded Temperature 
 TTMX.degC              100.00:  Max Tool Temp 
 VS01.                90639251:  Virtual Str1 SN 
 VS02.                90634715:  Virtual Str2 SN 
 VS03.                90652479:  Virtual Str3 SN 
 VS04.                90642262:  Virtual Str4 SN 
 WBMN.klb                 0.00:  WOB Min 
 WITN.           Murad Guliyev:  Customer Rep 
 WITN.          Yashar Gaziyev:  Customer Rep 2 
 WOBA.klb                 9.00:  WOB Avg 
 WOBX.klb                12.00:  WOB Max 
 YP  .lhf2               30.00:  Yield Point 
~Curve Information Block
#MNEM.UNIT                 API CODE     Curve Description
#---------               -----------    ---------------------------
 TIME.HHMMSS            00 000 000 000:  GT Time & Date
 GTDEPTH.m              00 000 000 000:  GT Depth
 GTPQH.psia             00 000 000 000:  GT HR Quartz Pressure
 GTTQ.degC              00 000 000 000:  GT Quartz Temperature
 GTTN.NONE              00 000 000 000:  GT Test Number
 GTET.sec               00 000 000 000:  GT Elapsed Test Time
 GTTVD.m                00 000 000 000:  GT True Vertical Depth
#Other Information
#
#WARRANTY: Halliburton will use its best efforts to furnish customers with 
#accurate information and interpretations that are part of, and incident to, the services 
#provided.  However, Halliburton cannot and does not warrant the accuracy 
#or correctness of such information and interpretations.  Under no circumstances should any 
#such information or interpretation be relied upon as the sole basis for any drilling, 
#completion, production, or financial decision or any procedure involving any risk to the 
#safety of any drilling venture, drilling rig or its crew or any other third party.  The 
#Customer has full responsibility for all drilling, completion and production operation.  
#Halliburton makes no representations or warranties, either expressed or 
#implied, including, but not limited to, the implied warranties of merchantability or fitness 
#for a particular purpose, with respect to the services rendered.  In no event will 
#Halliburton be liable for failure to obtain any particular results or for 
#any damages, including, but not limited to, indirect, special or consequential damages, 
#resulting from the use of any information or interpretation provided by Halliburton.
#
~A           TIME           GTDEPTH  GTPQH  GTTQ  GTTN   GTET   GTTVD  
# ...
   13:11:26.161.27-Aug-2021 4901.50 5051.46 84.94 13.00 226.23 3249.95
   13:11:26.361.27-Aug-2021 4901.50 5051.46 84.94 13.00 226.43 3249.95
   13:11:26.561.27-Aug-2021 4901.50 5051.46 84.94 13.00 226.63 3249.95
   13:11:26.762.27-Aug-2021 4901.50 5051.45 84.94 13.00 226.83 3249.95
   13:11:26.962.27-Aug-2021 4901.50 5051.46 84.94 13.00 227.03 3249.95
   13:11:27.162.27-Aug-2021 4901.50 5051.46 84.94 13.00 227.23 3249.95
   13:11:27.362.27-Aug-2021 4901.50 5051.46 84.94 13.00 227.43 3249.95
   13:11:27.562.27-Aug-2021 4901.50 5051.46 84.94 13.00 227.63 3249.95
   13:11:27.763.27-Aug-2021 4901.50 5051.46 84.94 13.00 227.83 3249.95
   13:11:27.963.27-Aug-2021 4901.50 5051.44 84.94 13.00 228.03 3249.95
   13:11:28.163.27-Aug-2021 4901.50 5051.44 84.94 13.00 228.23 3249.95
   13:11:28.363.27-Aug-2021 4901.50 5051.44 84.94 13.00 228.43 3249.95
   13:11:28.563.27-Aug-2021 4901.50 5051.53 84.94 13.00 228.63 3249.95
   13:11:28.764.27-Aug-2021 4901.50 5051.47 84.94 13.00 228.83 3249.95
   13:11:28.964.27-Aug-2021 4901.50 5051.45 84.94 13.00 229.03 3249.95
   13:11:29.164.27-Aug-2021 4901.50 5051.46 84.94 13.00 229.23 3249.95
   13:11:29.364.27-Aug-2021 4901.50 5051.46 84.94 13.00 229.43 3249.95
   13:11:29.564.27-Aug-2021 4901.50 5051.45 84.94 13.00 229.63 3249.95
   13:11:29.765.27-Aug-2021 4901.50 5051.45 84.94 13.00 229.83 3249.95
   13:11:29.965.27-Aug-2021 4901.50 5051.46 84.94 13.00 230.03 3249.95
   13:11:30.165.27-Aug-2021 4901.50 5051.47 84.94 13.00 230.23 3249.95
   13:11:30.365.27-Aug-2021 4901.50 5051.47 84.94 13.00 230.43 3249.95
   13:11:30.566.27-Aug-2021 4901.50 5051.47 84.94 13.00 230.63 3249.95
   13:11:30.766.27-Aug-2021 4901.50 5051.39 84.94 13.00 230.83 3249.95
   13:11:30.966.27-Aug-2021 4901.50 5051.53 84.94 13.00 231.03 3249.95
   13:11:31.166.27-Aug-2021 4901.50 5051.48 84.94 13.00 231.24 3249.95
   13:11:31.366.27-Aug-2021 4901.50 5051.48 84.94 13.00 231.44 3249.95
   13:11:31.567.27-Aug-2021 4901.50 5051.45 84.94 13.00 231.64 3249.95
   13:11:31.767.27-Aug-2021 4901.50 5051.46 84.94 13.00 231.84 3249.95
   13:11:31.967.27-Aug-2021 4901.50 5051.45 84.94 13.00 232.04 3249.95
   13:11:32.167.27-Aug-2021 4901.50 5051.48 84.94 13.00 232.24 3249.95
   13:11:32.367.27-Aug-2021 4901.50 5051.48 84.94 13.00 232.44 3249.95
   13:11:32.568.27-Aug-2021 4901.50 5051.47 84.94 13.00 232.64 3249.95
   13:11:32.768.27-Aug-2021 4901.50 5051.46 84.94 13.00 232.84 3249.95
   13:11:32.968.27-Aug-2021 4901.50 5051.46 84.94 13.00 233.04 3249.95
   13:11:33.168.27-Aug-2021 4901.50 5051.46 84.94 13.00 233.24 3249.95
   13:11:33.368.27-Aug-2021 4901.50 5051.46 84.94 13.00 233.44 3249.95
   13:11:33.569.27-Aug-2021 4901.50 5051.45 84.94 13.00 233.64 3249.95
   13:11:33.769.27-Aug-2021 4901.50 5051.46 84.94 13.00 233.84 3249.95
   13:11:33.969.27-Aug-2021 4901.50 5051.45 84.94 13.00 234.04 3249.95
   13:11:34.169.27-Aug-2021 4901.50 5051.45 84.94 13.00 234.24 3249.95
   13:11:34.369.27-Aug-2021 4901.50 5051.45 84.94 13.00 234.44 3249.95
   13:11:34.570.27-Aug-2021 4901.50 5051.44 84.94 13.00 234.64 3249.95
   13:11:34.770.27-Aug-2021 4901.50 5051.45 84.94 13.00 234.84 3249.95
   13:11:34.970.27-Aug-2021 4901.50 5051.39 84.94 13.00 235.04 3249.95
   13:11:35.170.27-Aug-2021 4901.50 5051.51 84.94 13.00 235.24 3249.95
   13:11:35.370.27-Aug-2021 4901.50 5051.51 84.94 13.00 235.44 3249.95
   13:11:35.571.27-Aug-2021 4901.50 5051.45 84.94 13.00 235.64 3249.95
   13:11:35.771.27-Aug-2021 4901.50 5051.44 84.94 13.00 235.84 3249.95
   13:11:35.971.27-Aug-2021 4901.50 5051.46 84.94 13.00 236.04 3249.95
   13:11:36.171.27-Aug-2021 4901.50 5051.44 84.94 13.00 236.24 3249.95
   13:11:36.371.27-Aug-2021 4901.50 5051.44 84.94 13.00 236.44 3249.95
   13:11:36.572.27-Aug-2021 4901.50 5051.45 84.94 13.00 236.64 3249.95
   13:11:36.772.27-Aug-2021 4901.50 5051.46 84.94 13.00 236.84 3249.95
   13:11:36.972.27-Aug-2021 4901.50 5051.45 84.94 13.00 237.04 3249.95
   13:11:37.172.27-Aug-2021 4901.50 5051.46 84.94 13.00 237.24 3249.95
   13:11:37.372.27-Aug-2021 4901.50 5051.46 84.94 13.00 237.44 3249.95
   13:11:37.573.27-Aug-2021 4901.50 5051.44 84.94 13.00 237.64 3249.95
   13:11:37.773.27-Aug-2021 4901.50 5051.45 84.94 13.00 237.84 3249.95
   13:11:37.973.27-Aug-2021 4901.50 5051.44 84.94 13.00 238.04 3249.95
   13:11:38.173.27-Aug-2021 4901.50 5051.44 84.94 13.00 238.24 3249.95
   13:11:38.373.27-Aug-2021 4901.50 5051.44 84.94 13.00 238.44 3249.95
   13:11:38.574.27-Aug-2021 4901.50 5051.55 84.94 13.00 238.64 3249.95
   13:11:38.774.27-Aug-2021 4901.50 5051.45 84.94 13.00 238.84 3249.95
   13:11:38.974.27-Aug-2021 4901.50 5051.45 84.94 13.00 239.04 3249.95
   13:11:39.174.27-Aug-2021 4901.50 5051.45 84.94 13.00 239.24 3249.95
   13:11:39.374.27-Aug-2021 4901.50 5051.45 84.94 13.00 239.44 3249.95
   13:11:39.575.27-Aug-2021 4901.50 5051.44 84.94 13.00 239.64 3249.95
   13:11:39.775.27-Aug-2021 4901.50 5051.40 84.94 13.00 239.84 3249.95
   13:11:39.975.27-Aug-2021 4901.50 5051.52 84.94 13.00 240.04 3249.95
   13:11:40.175.27-Aug-2021 4901.50 5051.47 84.94 13.00 240.24 3249.95
   13:11:40.375.27-Aug-2021 4901.50 5051.47 84.94 13.00 240.44 3249.95
   13:11:40.576.27-Aug-2021 4901.50 5051.45 84.94 13.00 240.64 3249.95
   13:11:40.776.27-Aug-2021 4901.50 5051.40 84.94 13.00 240.84 3249.95
   13:11:40.976.27-Aug-2021 4901.50 5051.53 84.94 13.00 241.05 3249.95
   13:11:41.176.27-Aug-2021 4901.50 5051.46 84.94 13.00 241.25 3249.95
   13:11:41.376.27-Aug-2021 4901.50 5051.46 84.94 13.00 241.45 3249.95
   13:11:41.577.27-Aug-2021 4901.50 5051.45 84.94 13.00 241.65 3249.95
   13:11:41.777.27-Aug-2021 4901.50 5051.40 84.94 13.00 241.85 3249.95
   13:11:41.977.27-Aug-2021 4901.50 5051.51 84.94 13.00 242.05 3249.95
   13:11:42.177.27-Aug-2021 4901.50 5051.48 84.94 13.00 242.25 3249.95
   13:11:42.378.27-Aug-2021 4901.50 5051.48 84.94 13.00 242.45 3249.95
   13:11:42.578.27-Aug-2021 4901.50 5051.45 84.94 13.00 242.65 3249.95
   13:11:42.778.27-Aug-2021 4901.50 5051.47 84.94 13.00 242.85 3249.95
   13:11:42.978.27-Aug-2021 4901.50 5051.45 84.94 13.00 243.05 3249.95
   13:11:43.178.27-Aug-2021 4901.50 5051.46 84.94 13.00 243.25 3249.95
   13:11:43.379.27-Aug-2021 4901.50 5051.46 84.94 13.00 243.45 3249.95
   13:11:43.579.27-Aug-2021 4901.50 5051.45 84.94 13.00 243.65 3249.95
   13:11:43.779.27-Aug-2021 4901.50 5051.45 84.94 13.00 243.85 3249.95
   13:11:43.979.27-Aug-2021 4901.50 5051.45 84.94 13.00 244.05 3249.95
   13:11:44.179.27-Aug-2021 4901.50 5051.44 84.94 13.00 244.25 3249.95
   13:11:44.380.27-Aug-2021 4901.50 5051.44 84.94 13.00 244.45 3249.95
   13:11:44.580.27-Aug-2021 4901.50 5051.44 84.94 13.00 244.65 3249.95
   13:11:44.780.27-Aug-2021 4901.50 5051.44 84.94 13.00 244.85 3249.95
   13:11:44.980.27-Aug-2021 4901.50 5051.37 84.94 13.00 245.05 3249.95
   13:11:45.180.27-Aug-2021 4901.50 5051.55 84.94 13.00 245.25 3249.95
   13:11:45.381.27-Aug-2021 4901.50 5051.55 84.94 13.00 245.45 3249.95
   13:11:45.581.27-Aug-2021 4901.50 5051.46 84.94 13.00 245.65 3249.95
   13:11:45.781.27-Aug-2021 4901.50 5051.44 84.94 13.00 245.85 3249.95
   13:11:45.981.27-Aug-2021 4901.50 5051.45 84.94 13.00 246.05 3249.95
   13:11:46.181.27-Aug-2021 4901.50 5051.44 84.94 13.00 246.25 3249.95
   13:11:46.382.27-Aug-2021 4901.50 5051.44 84.94 13.00 246.45 3249.95
   13:11:46.582.27-Aug-2021 4901.50 5051.44 84.94 13.00 246.65 3249.95
   13:11:46.782.27-Aug-2021 4901.50 5051.45 84.94 13.00 246.85 3249.95
   13:11:46.982.27-Aug-2021 4901.50 5051.44 84.94 13.00 247.05 3249.95
   13:11:47.182.27-Aug-2021 4901.50 5051.45 84.94 13.00 247.25 3249.95
   13:11:47.383.27-Aug-2021 4901.50 5051.45 84.94 13.00 247.45 3249.95
   13:11:47.583.27-Aug-2021 4901.50 5051.44 84.94 13.00 247.65 3249.95
   13:11:47.783.27-Aug-2021 4901.50 5051.44 84.94 13.00 247.85 3249.95
   13:11:47.983.27-Aug-2021 4901.50 5051.44 84.94 13.00 248.05 3249.95
   13:11:48.183.27-Aug-2021 4901.50 5051.44 84.94 13.00 248.25 3249.95
   13:11:48.384.27-Aug-2021 4901.50 5051.44 84.94 13.00 248.45 3249.95
   13:11:48.584.27-Aug-2021 4901.50 5051.43 84.94 13.00 248.65 3249.95
