~Version Information
 VERS.                  2.0:   CWLS log ASCII Standard -VERSION 2.0
 WRAP.                   NO:   One line per depth step
~Well Information Block
#MNEM.UNIT     VALUE/NAME     DESCRIPTION
#---------     -----------    ---------------------------
 STRT.S             09:25:17 27-Aug-21: START TIME 09:25:17 27-Aug-21
 STOP.S             09:32:27 27-Aug-21: STOP TIME  09:32:27 27-Aug-21
 STEP.S                   0.00: STEP TIME
 NULL.                 -999.25: NULL VALUE
 DFWT.                        :  DIST FWL TEXT
 DFST.                        :  DIST FSL TEXT
 DMF .             Drill Floor:  DRILL MEAS FROM
 STIM.      20.00.00 17-Aug-21:  START TIME
 DATE.      19.00.00 29-Aug-21:  END TIME
 SPUD.               15-Aug-21:  SPUD DATE
 NREF.                    Grid:  NORTH REFERENCE
 HPTY.       Minimum Curvature:  HOLE POS TYPE
 DMOD.             Drill Model:  DRILL MOD DESC
 SVYD.                  Survey:  SURVEY DESC
 ILTD.               Lithology:  INTERP LTH DESC
 FTOP.          Formation Tops:  FORM TOPS DESC
 RIG .              East Azeri:  RIG NAME
 PDAT.          Mean Sea Level:  PERMANENT DATUM
 FLD .                     ACG:  FIELD NAME
 SON .        AZ-XX-0907180857:  JOB NUMBER
 CTRY.              Azerbaijan:  COUNTRY NAME
 WELL.                    D23x:  WELL NAME
 SRVC.     Turan Drilling and Engineering:  CONTRACTOR
 COMP.     BP Exploration (Caspian Sea) Ltd.:  COMPANY
 UWI .            /AZE00000214:  UNIQUE WELL IDENTIFIER
 API .            /AZE00000214:  API NUMBER
 MDS .        Operator Entered:  MAG DATA SOURCE
 BASE.              Azerbaijan:  LOGGING EQUIPMENT BASE LOCATION
 REGN.                   EESSA:  REGION
 PROV.                    Baku:  PROVINCE
 STAT.                    Baku:  STATE NAME
 MWDS.                    Baku:  MWD SHOP
 DOE .                     N/A:  DOE NUMBER
 DCON.         Sperry Drilling:  DIRECTNL CONTR
 UNIT.                     N/A:  LOGGING EQUIPMENT ID
 WTYP.                Deviated:  WELL TYPE
 CNTY.                        :  COUNTY
 LOC .                        :  LOCATION
 LMF .             Drill Floor:  LOG MEASURED FROM
 TVDS.m                  43.60:  TVDSS CORRECTN
 LATI.deg                40.02:  LATITUDE
 LONG.deg                51.45:  LONGITUDE
 WHNS.m                  -7.04:  WELL HEAD N/S
 WHEW.m                  -0.67:  WELL HEAD E/W
 UTMX.m              538762.90:  UTM X
 UTMY.m             4431871.34:  UTM Y
 DFWL.m                   0.00:  DISTANCE FWL
 DFSL.m                   0.00:  DISTANCE FSL
 SDEP.m                4127.00:  START DEPTH
 TDD .m                5084.50:  TOTAL DEPTH (DRILLER)
 VSDR.deg               140.47:  VERT SEC DIRECT
 GVFD.g                   1.00:  GRAVITY FIELD
 MFLD.nT              50362.00:  MAGNETIC FIELD
 MDIP.deg                59.48:  MAGNETIC DIP
 MDEC.deg                 6.47:  MAGNETIC DECL
 GRDC.deg                 0.31:  GRID CORRECTION
 AZTC.deg                 6.16:  AZM TOTAL CORR
 EPD .m                   0.00:  ELEVATION
 EGL .m                   0.00:  GROUND ELEVATION
 WDMS.m                 151.80:  WD ELEV
 APD .m                  43.60:  DEPTH ABOVE PD
 DEP .m                4092.57:  DEPTH
 AGAP.m                  43.60:  AIR GAP
 VSEW.m                  -0.67:  VERT SEC E/W
 VSNS.m                  -7.04:  VERT SEC N/S
 EKB .m                  43.60:  KB ELEVATION
 EDF .m                  43.60:  DF ELEVATION
 TDL .m                 957.50:  TOTAL DEPTH (LOGGER)
 VSC .                       0:  VS TO CLOSURE
 MAGU.                 1851413:  MAGUTM CHECKSUM
~Parameter Information Block
#MNEM.UNIT       Value        Description
#---------     -----------    ---------------------------
 AV  .mps                 1.50:  Ann Velocity 
 AVMX.mps                 2.00:  Max Ann Veloc 
 AZIF.deg               184.66:  Azm, Final 
 BHAT.        Rotary Steerable:  BHA Type 
 BREV.rev               300.00:  Rev Bit Total 
 BROT.°/30m              -0.50:  Build Rotating 
 BS  .in                  8.50:  Bit Size 
 BSZ .in                  8.50:  Bit Size 
 BTPL.psig              370.00:  Bit Press Loss 
 CABU.                      No:  Customer Abuse 
 CGEO.      Behruz Shahbaliyev:  Customer Geo 
 COMM.                     TD\:  Run Comments 1 
 TCS .hr                140.08:  Time Ciculation Ended 
 CV  .mps                 3.00:  Crit Velocity 
 CVMX.mps                 3.20:  Max Crit Veloc 
 DD1 .            Musa Ahmadov:  Direct Drillr 1 
 DD2 .           Hamid Ahmadov:  Direct Drillr 2 
 DDSV.               Geo-Pilot:  DD Service 
 DEFF.%                  98.40:  % Det Eff 
 DLRX.°/30m               3.40:  Dogleg Rot Max 
 DLSO.°/30m               1.45:  Dogleg Oriented 
 DLSX.°/30m               3.40:  Dogleg Str Max 
 DRET.      18.40.00 29-Aug-21:  Drill End Time 
 DRST.      21.00.00 20-Aug-21:  Drill Start Tim 
 DTIM.hr                 69.47:  Time Drilling 
 EDEP.m                5084.50:  End Depth 
 ENG1.      Artemiy Matviyanov:  Engineer 1 
 ENG2.         Almaz Almadatov:  Engineer 2 
 ETIM.      18.40.00 29-Aug-21:  End Time 
 FLOI.gpm               500.00:  Flow In 
 FLON.gpm               400.00:  Flow In Min 
 FLOS.cptm                0.00:  Fluid Loss 
 FLOX.gpm               500.00:  Flow In Max 
 DFT .        Mineral Oil Base:  Mud Type 
 HFLO.                      No:  High Flow 
 HPRE.                      No:  High Pressure 
 HTEM.                      No:  High Temp 
 HYDO.m                   1.80:  Hydro Offset 
 IFIN.deg                25.62:  Inc, Final 
 IMAX.deg                48.69:  Inc Max 
 IMIN.deg                24.01:  Inc Min 
 IMND.m                4962.57:  Inc Min Depth 
 IMXD.m                4119.01:  Inc Max Depth 
 JARR.                      No:  Jarring 
 LETM.      18.40.00 29-Aug-21:  Log End Time 
 LOST.hr                     0:  Lost Rig Time 
 LSTM.      21.00.00 20-Aug-21:  Log Start Time 
 MDCL.ppm             41500.00:  Mud Chlorides 
 MDES.     Inversion Oil/Synthetic:  Mud Desc 
 DFD .sg                  1.56:  Mud Density 
 MDMN.sg                  1.56:  Dens Mud Min 
 MDMX.sg                  1.56:  Dens Mud Max 
 MOIL.                      70:  Run Mud Oil % 
 MOWR.                   70:30:  Run Mud OWR 
 MSND.                     0.2:  Run Mud Sand % 
 MSOL.                    23.3:  Run Mud Solids% 
 DFV .spqt               78.00:  Mud Viscosity 
 MWOD.in                  6.75:  MWD Tool OD 
 MWSI.                      No:  Serv Intrp, MWD 
 OTIM.hr                218.30:  Time Operating 
 PCON.           Look Like New:  Pad Condition 
 PMAX.psia            11015.30:  Press Op, Max 
 PV  .cP                 38.00:  Mud PV 
 RUN .                     300:  Run Number 
 ROPA.m/hr               15.00:  ROP Avg 
 ROPN.m/hr                9.00:  ROP Min 
 ROPX.m/hr               17.00:  ROP Max 
 RPMA.rpm               120.00:  RPM Surface Avg 
 RPMN.rpm                90.00:  RPM Surface Min 
 RPMX.rpm               140.00:  RPM Surface Max 
 RRUN.                     300:  Rig Run Number 
 RTIM.hr                 31.53:  Time Reaming 
 SAZI.deg               331.64:  Azm, Start 
 SDEP.m                4127.00:  Start Depth 
 SIDD.                      No:  Serv Intrp, DD 
 SINC.deg                48.43:  Inc, Start 
 SPPA.psig             5830.00:  SPP Avg 
 SPPN.psig             5600.00:  SPP Min 
 SPPX.psig             5900.00:  SPP Max 
 STIM.      21.00.00 20-Aug-21:  Start Time 
 SVCS.                 DD, MWD:  Services 
 SVER.                    9.20:  Sperry Version 
 TDAT.m                 957.50:  Tot Depth Attmp 
 TDDF.                      No:  Trip for DD 
 TDLG.m                 957.50:  Tot Depth Loggd 
 TFF .                      No:  Trip for Fail 
 TQAA.f-kp               15.00:  Torque Abs Avg 
 TQAN.f-kp               12.00:  Torque Abs Min 
 TQAX.f-kp               19.00:  Torque Abs Max 
 TRRT.°/30m              -3.40:  Turn Rotating 
 MRT .                  EWR-M5:  Maximum Recorded Temperature 
 TTMX.degC              100.00:  Max Tool Temp 
 VS01.                90639251:  Virtual Str1 SN 
 VS02.                90634715:  Virtual Str2 SN 
 VS03.                90652479:  Virtual Str3 SN 
 VS04.                90642262:  Virtual Str4 SN 
 WBMN.klb                 0.00:  WOB Min 
 WITN.           Murad Guliyev:  Customer Rep 
 WITN.          Yashar Gaziyev:  Customer Rep 2 
 WOBA.klb                 9.00:  WOB Avg 
 WOBX.klb                12.00:  WOB Max 
 YP  .lhf2               30.00:  Yield Point 
~Curve Information Block
#MNEM.UNIT                 API CODE     Curve Description
#---------               -----------    ---------------------------
 TIME.HHMMSS            00 000 000 000:  GT Time & Date
 GTDEPTH.m              00 000 000 000:  GT Depth
 GTPQH.psia             00 000 000 000:  GT HR Quartz Pressure
 GTTQ.degC              00 000 000 000:  GT Quartz Temperature
 GTTN.NONE              00 000 000 000:  GT Test Number
 GTET.sec               00 000 000 000:  GT Elapsed Test Time
 GTTVD.m                00 000 000 000:  GT True Vertical Depth
#Other Information
#
#WARRANTY: Halliburton will use its best efforts to furnish customers with 
#accurate information and interpretations that are part of, and incident to, the services 
#provided.  However, Halliburton cannot and does not warrant the accuracy 
#or correctness of such information and interpretations.  Under no circumstances should any 
#such information or interpretation be relied upon as the sole basis for any drilling, 
#completion, production, or financial decision or any procedure involving any risk to the 
#safety of any drilling venture, drilling rig or its crew or any other third party.  The 
#Customer has full responsibility for all drilling, completion and production operation.  
#Halliburton makes no representations or warranties, either expressed or 
#implied, including, but not limited to, the implied warranties of merchantability or fitness 
#for a particular purpose, with respect to the services rendered.  In no event will 
#Halliburton be liable for failure to obtain any particular results or for 
#any damages, including, but not limited to, indirect, special or consequential damages, 
#resulting from the use of any information or interpretation provided by Halliburton.
#
~A           TIME           GTDEPTH  GTPQH  GTTQ  GTTN  GTET   GTTVD  
   09:25:17.266.27-Aug-2021 4964.50 7853.53 86.44 7.00   0.00 3307.39
   09:25:17.466.27-Aug-2021 4964.50 7853.53 86.44 7.00   0.20 3307.39
   09:25:17.666.27-Aug-2021 4964.50 7855.03 86.44 7.00   0.40 3307.39
   09:25:17.866.27-Aug-2021 4964.50 7856.33 86.44 7.00   0.60 3307.39
   09:25:18.066.27-Aug-2021 4964.50 7856.83 86.44 7.00   0.80 3307.39
   09:25:18.266.27-Aug-2021 4964.50 7862.64 86.44 7.00   1.00 3307.39
   09:25:18.466.27-Aug-2021 4964.50 7862.64 86.44 7.00   1.20 3307.39
   09:25:18.666.27-Aug-2021 4964.50 7858.38 86.44 7.00   1.40 3307.39
   09:25:18.866.27-Aug-2021 4964.50 7857.11 86.44 7.00   1.60 3307.39
   09:25:19.066.27-Aug-2021 4964.50 7856.50 86.44 7.00   1.80 3307.39
   09:25:19.266.27-Aug-2021 4964.50 7861.50 86.44 7.00   2.00 3307.39
   09:25:19.467.27-Aug-2021 4964.50 7861.50 86.44 7.00   2.20 3307.39
   09:25:19.667.27-Aug-2021 4964.50 7856.26 86.44 7.00   2.40 3307.39
   09:25:19.867.27-Aug-2021 4964.50 7854.25 86.44 7.00   2.60 3307.39
   09:25:20.067.27-Aug-2021 4964.50 7854.31 86.44 7.00   2.80 3307.39
   09:25:20.267.27-Aug-2021 4964.50 7855.01 86.44 7.00   3.00 3307.39
   09:25:20.467.27-Aug-2021 4964.50 7855.01 86.44 7.00   3.20 3307.39
   09:25:20.667.27-Aug-2021 4964.50 7858.20 86.43 7.00   3.40 3307.39
   09:25:20.867.27-Aug-2021 4964.50 7856.54 86.44 7.00   3.60 3307.39
   09:25:21.067.27-Aug-2021 4964.50 7857.63 86.43 7.00   3.80 3307.39
   09:25:21.267.27-Aug-2021 4964.50 7857.32 86.43 7.00   4.00 3307.39
   09:25:21.467.27-Aug-2021 4964.50 7857.32 86.43 7.00   4.20 3307.39
   09:25:21.667.27-Aug-2021 4964.50 7856.17 86.43 7.00   4.40 3307.39
   09:25:21.868.27-Aug-2021 4964.50 7859.16 86.43 7.00   4.60 3307.39
   09:25:22.068.27-Aug-2021 4964.50 7857.77 86.43 7.00   4.80 3307.39
   09:25:22.268.27-Aug-2021 4964.50 7859.04 86.43 7.00   5.00 3307.39
   09:25:22.468.27-Aug-2021 4964.50 7859.04 86.43 7.00   5.20 3307.39
   09:25:22.668.27-Aug-2021 4964.50 7858.99 86.43 7.00   5.40 3307.39
   09:25:22.868.27-Aug-2021 4964.50 7858.41 86.43 7.00   5.60 3307.39
   09:25:23.068.27-Aug-2021 4964.50 7858.06 86.43 7.00   5.80 3307.39
   09:25:23.268.27-Aug-2021 4964.50 7858.32 86.43 7.00   6.00 3307.39
   09:25:23.468.27-Aug-2021 4964.50 7858.32 86.43 7.00   6.20 3307.39
   09:25:23.668.27-Aug-2021 4964.50 7858.32 86.43 7.00   6.40 3307.39
   09:25:23.868.27-Aug-2021 4964.50 7861.29 86.43 7.00   6.60 3307.39
   09:25:24.068.27-Aug-2021 4964.50 7860.87 86.43 7.00   6.80 3307.39
   09:25:24.269.27-Aug-2021 4964.50 7861.13 86.43 7.00   7.00 3307.39
   09:25:24.469.27-Aug-2021 4964.50 7861.13 86.43 7.00   7.20 3307.39
   09:25:24.669.27-Aug-2021 4964.50 7861.13 86.43 7.00   7.40 3307.39
   09:25:24.869.27-Aug-2021 4964.50 7862.68 86.43 7.00   7.60 3307.39
   09:25:25.069.27-Aug-2021 4964.50 7863.00 86.43 7.00   7.80 3307.39
   09:25:25.269.27-Aug-2021 4964.50 7862.27 86.43 7.00   8.00 3307.39
   09:25:25.469.27-Aug-2021 4964.50 7862.27 86.43 7.00   8.20 3307.39
   09:25:25.669.27-Aug-2021 4964.50 7863.67 86.43 7.00   8.40 3307.39
   09:25:25.869.27-Aug-2021 4964.50 7864.70 86.43 7.00   8.60 3307.39
   09:25:26.069.27-Aug-2021 4964.50 7863.95 86.43 7.00   8.80 3307.39
   09:25:26.269.27-Aug-2021 4964.50 7863.06 86.43 7.00   9.00 3307.39
   09:25:26.469.27-Aug-2021 4964.50 7863.06 86.43 7.00   9.20 3307.39
   09:25:26.670.27-Aug-2021 4964.50 7862.41 86.43 7.00   9.40 3307.39
   09:25:26.870.27-Aug-2021 4964.50 7866.09 86.43 7.00   9.60 3307.39
   09:25:27.070.27-Aug-2021 4964.50 7864.91 86.43 7.00   9.80 3307.39
   09:25:27.270.27-Aug-2021 4964.50 7865.24 86.43 7.00  10.00 3307.39
   09:25:27.470.27-Aug-2021 4964.50 7865.24 86.43 7.00  10.20 3307.39
   09:25:27.670.27-Aug-2021 4964.50 7865.84 86.43 7.00  10.40 3307.39
   09:25:27.870.27-Aug-2021 4964.50 7866.04 86.43 7.00  10.60 3307.39
   09:25:28.070.27-Aug-2021 4964.50 7865.64 86.43 7.00  10.80 3307.39
   09:25:28.270.27-Aug-2021 4964.50 7865.94 86.43 7.00  11.00 3307.39
   09:25:28.470.27-Aug-2021 4964.50 7865.94 86.43 7.00  11.20 3307.39
   09:25:28.670.27-Aug-2021 4964.50 7866.49 86.43 7.00  11.40 3307.39
   09:25:28.870.27-Aug-2021 4964.50 7866.54 86.43 7.00  11.60 3307.39
   09:25:29.071.27-Aug-2021 4964.50 7866.43 86.43 7.00  11.80 3307.39
   09:25:29.271.27-Aug-2021 4964.50 7866.37 86.43 7.00  12.00 3307.39
   09:25:29.471.27-Aug-2021 4964.50 7866.37 86.43 7.00  12.21 3307.39
   09:25:29.671.27-Aug-2021 4964.50 7866.27 86.43 7.00  12.41 3307.39
   09:25:29.871.27-Aug-2021 4964.50 7866.42 86.43 7.00  12.61 3307.39
   09:25:30.071.27-Aug-2021 4964.50 7866.73 86.43 7.00  12.81 3307.39
   09:25:30.271.27-Aug-2021 4964.50 7870.00 86.43 7.00  13.01 3307.39
   09:25:30.471.27-Aug-2021 4964.50 7870.00 86.43 7.00  13.21 3307.39
   09:25:30.671.27-Aug-2021 4964.50 7868.04 86.43 7.00  13.41 3307.39
   09:25:30.871.27-Aug-2021 4964.50 7867.94 86.43 7.00  13.61 3307.39
   09:25:31.071.27-Aug-2021 4964.50 7868.40 86.43 7.00  13.81 3307.39
   09:25:31.271.27-Aug-2021 4964.50 7868.75 86.43 7.00  14.01 3307.39
   09:25:31.472.27-Aug-2021 4964.50 7868.75 86.43 7.00  14.21 3307.39
   09:25:31.672.27-Aug-2021 4964.50 7868.73 86.43 7.00  14.41 3307.39
   09:25:31.872.27-Aug-2021 4964.50 7869.00 86.43 7.00  14.61 3307.39
   09:25:32.072.27-Aug-2021 4964.50 7869.36 86.43 7.00  14.81 3307.39
   09:25:32.272.27-Aug-2021 4964.50 7870.15 86.43 7.00  15.01 3307.39
   09:25:32.472.27-Aug-2021 4964.50 7870.15 86.43 7.00  15.21 3307.39
   09:25:32.672.27-Aug-2021 4964.50 7870.75 86.43 7.00  15.41 3307.39
   09:25:32.872.27-Aug-2021 4964.50 7870.72 86.43 7.00  15.61 3307.39
   09:25:33.072.27-Aug-2021 4964.50 7870.68 86.43 7.00  15.81 3307.39
   09:25:33.272.27-Aug-2021 4964.50 7870.87 86.43 7.00  16.01 3307.39
   09:25:33.472.27-Aug-2021 4964.50 7870.87 86.43 7.00  16.21 3307.39
   09:25:33.672.27-Aug-2021 4964.50 7872.69 86.43 7.00  16.41 3307.39
   09:25:33.873.27-Aug-2021 4964.50 7871.92 86.43 7.00  16.61 3307.39
   09:25:34.073.27-Aug-2021 4964.50 7871.31 86.43 7.00  16.81 3307.39
   09:25:34.273.27-Aug-2021 4964.50 7871.35 86.43 7.00  17.01 3307.39
   09:25:34.473.27-Aug-2021 4964.50 7871.35 86.43 7.00  17.21 3307.39
   09:25:34.673.27-Aug-2021 4964.50 7874.88 86.43 7.00  17.41 3307.39
   09:25:34.873.27-Aug-2021 4964.50 7873.13 86.43 7.00  17.61 3307.39
   09:25:35.073.27-Aug-2021 4964.50 7872.62 86.43 7.00  17.81 3307.39
   09:25:35.273.27-Aug-2021 4964.50 7872.30 86.43 7.00  18.01 3307.39
   09:25:35.473.27-Aug-2021 4964.50 7872.30 86.43 7.00  18.21 3307.39
   09:25:35.673.27-Aug-2021 4964.50 7875.73 86.43 7.00  18.41 3307.39
   09:25:35.873.27-Aug-2021 4964.50 7874.44 86.43 7.00  18.61 3307.39
   09:25:36.073.27-Aug-2021 4964.50 7874.62 86.43 7.00  18.81 3307.39
   09:25:36.274.27-Aug-2021 4964.50 7873.39 86.43 7.00  19.01 3307.39
   09:25:36.474.27-Aug-2021 4964.50 7873.39 86.43 7.00  19.21 3307.39
   09:25:36.674.27-Aug-2021 4964.50 7873.70 86.42 7.00  19.41 3307.39
   09:25:36.874.27-Aug-2021 4964.50 7878.92 86.42 7.00  19.61 3307.39
   09:25:37.074.27-Aug-2021 4964.50 7874.22 86.42 7.00  19.81 3307.39
   09:25:37.274.27-Aug-2021 4964.50 7873.85 86.42 7.00  20.01 3307.39
   09:25:37.474.27-Aug-2021 4964.50 7873.85 86.42 7.00  20.21 3307.39
   09:25:37.674.27-Aug-2021 4964.50 7877.14 86.42 7.00  20.41 3307.39
   09:25:37.874.27-Aug-2021 4964.50 7876.58 86.42 7.00  20.61 3307.39
   09:25:38.074.27-Aug-2021 4964.50 7875.70 86.42 7.00  20.81 3307.39
   09:25:38.274.27-Aug-2021 4964.50 7875.08 86.42 7.00  21.01 3307.39
   09:25:38.474.27-Aug-2021 4964.50 7875.08 86.42 7.00  21.21 3307.39
   09:25:38.675.27-Aug-2021 4964.50 7879.41 86.42 7.00  21.41 3307.39
   09:25:38.875.27-Aug-2021 4964.50 7875.71 86.42 7.00  21.61 3307.39
   09:25:39.075.27-Aug-2021 4964.50 7876.44 86.42 7.00  21.81 3307.39
   09:25:39.275.27-Aug-2021 4964.50 7876.40 86.42 7.00  22.01 3307.39
   09:25:39.475.27-Aug-2021 4964.50 7876.40 86.42 7.00  22.21 3307.39
   09:25:39.675.27-Aug-2021 4964.50 7876.92 86.42 7.00  22.41 3307.39
   09:25:39.875.27-Aug-2021 4964.50 7876.87 86.42 7.00  22.61 3307.39
   09:25:40.075.27-Aug-2021 4964.50 7876.79 86.42 7.00  22.81 3307.39
