~Version Information
 VERS.                  2.0:   CWLS log ASCII Standard -VERSION 2.0
 WRAP.                   NO:   One line per depth step
~Well Information Block
#MNEM.UNIT     VALUE/NAME     DESCRIPTION
#---------     -----------    ---------------------------
 STRT.S             05:44:14 27-Aug-21: START TIME 05:44:14 27-Aug-21
 STOP.S             05:51:24 27-Aug-21: STOP TIME  05:51:24 27-Aug-21
 STEP.S                   0.00: STEP TIME
 NULL.                 -999.25: NULL VALUE
 DFWT.                        :  DIST FWL TEXT
 DFST.                        :  DIST FSL TEXT
 DMF .             Drill Floor:  DRILL MEAS FROM
 STIM.      20.00.00 17-Aug-21:  START TIME
 DATE.      19.00.00 29-Aug-21:  END TIME
 SPUD.               15-Aug-21:  SPUD DATE
 NREF.                    Grid:  NORTH REFERENCE
 HPTY.       Minimum Curvature:  HOLE POS TYPE
 DMOD.             Drill Model:  DRILL MOD DESC
 SVYD.                  Survey:  SURVEY DESC
 ILTD.               Lithology:  INTERP LTH DESC
 FTOP.          Formation Tops:  FORM TOPS DESC
 RIG .              East Azeri:  RIG NAME
 PDAT.          Mean Sea Level:  PERMANENT DATUM
 FLD .                     ACG:  FIELD NAME
 SON .        AZ-XX-0907180857:  JOB NUMBER
 CTRY.              Azerbaijan:  COUNTRY NAME
 WELL.                    D23x:  WELL NAME
 SRVC.     Turan Drilling and Engineering:  CONTRACTOR
 COMP.     BP Exploration (Caspian Sea) Ltd.:  COMPANY
 UWI .            /AZE00000214:  UNIQUE WELL IDENTIFIER
 API .            /AZE00000214:  API NUMBER
 MDS .        Operator Entered:  MAG DATA SOURCE
 BASE.              Azerbaijan:  LOGGING EQUIPMENT BASE LOCATION
 REGN.                   EESSA:  REGION
 PROV.                    Baku:  PROVINCE
 STAT.                    Baku:  STATE NAME
 MWDS.                    Baku:  MWD SHOP
 DOE .                     N/A:  DOE NUMBER
 DCON.         Sperry Drilling:  DIRECTNL CONTR
 UNIT.                     N/A:  LOGGING EQUIPMENT ID
 WTYP.                Deviated:  WELL TYPE
 CNTY.                        :  COUNTY
 LOC .                        :  LOCATION
 LMF .             Drill Floor:  LOG MEASURED FROM
 TVDS.m                  43.60:  TVDSS CORRECTN
 LATI.deg                40.02:  LATITUDE
 LONG.deg                51.45:  LONGITUDE
 WHNS.m                  -7.04:  WELL HEAD N/S
 WHEW.m                  -0.67:  WELL HEAD E/W
 UTMX.m              538762.90:  UTM X
 UTMY.m             4431871.34:  UTM Y
 DFWL.m                   0.00:  DISTANCE FWL
 DFSL.m                   0.00:  DISTANCE FSL
 SDEP.m                4127.00:  START DEPTH
 TDD .m                5084.50:  TOTAL DEPTH (DRILLER)
 VSDR.deg               140.47:  VERT SEC DIRECT
 GVFD.g                   1.00:  GRAVITY FIELD
 MFLD.nT              50362.00:  MAGNETIC FIELD
 MDIP.deg                59.48:  MAGNETIC DIP
 MDEC.deg                 6.47:  MAGNETIC DECL
 GRDC.deg                 0.31:  GRID CORRECTION
 AZTC.deg                 6.16:  AZM TOTAL CORR
 EPD .m                   0.00:  ELEVATION
 EGL .m                   0.00:  GROUND ELEVATION
 WDMS.m                 151.80:  WD ELEV
 APD .m                  43.60:  DEPTH ABOVE PD
 DEP .m                4092.57:  DEPTH
 AGAP.m                  43.60:  AIR GAP
 VSEW.m                  -0.67:  VERT SEC E/W
 VSNS.m                  -7.04:  VERT SEC N/S
 EKB .m                  43.60:  KB ELEVATION
 EDF .m                  43.60:  DF ELEVATION
 TDL .m                 957.50:  TOTAL DEPTH (LOGGER)
 VSC .                       0:  VS TO CLOSURE
 MAGU.                 1851413:  MAGUTM CHECKSUM
~Parameter Information Block
#MNEM.UNIT       Value        Description
#---------     -----------    ---------------------------
 AV  .mps                 1.50:  Ann Velocity 
 AVMX.mps                 2.00:  Max Ann Veloc 
 AZIF.deg               184.66:  Azm, Final 
 BHAT.        Rotary Steerable:  BHA Type 
 BREV.rev               300.00:  Rev Bit Total 
 BROT.°/30m              -0.50:  Build Rotating 
 BS  .in                  8.50:  Bit Size 
 BSZ .in                  8.50:  Bit Size 
 BTPL.psig              370.00:  Bit Press Loss 
 CABU.                      No:  Customer Abuse 
 CGEO.      Behruz Shahbaliyev:  Customer Geo 
 COMM.                     ä=U:  Run Comments 1 
 TCS .hr                140.08:  Time Ciculation Ended 
 CV  .mps                 3.00:  Crit Velocity 
 CVMX.mps                 3.20:  Max Crit Veloc 
 DD1 .            Musa Ahmadov:  Direct Drillr 1 
 DD2 .           Hamid Ahmadov:  Direct Drillr 2 
 DDSV.               Geo-Pilot:  DD Service 
 DEFF.%                  98.40:  % Det Eff 
 DLRX.°/30m               3.40:  Dogleg Rot Max 
 DLSO.°/30m               1.45:  Dogleg Oriented 
 DLSX.°/30m               3.40:  Dogleg Str Max 
 DRET.      18.40.00 29-Aug-21:  Drill End Time 
 DRST.      21.00.00 20-Aug-21:  Drill Start Tim 
 DTIM.hr                 69.47:  Time Drilling 
 EDEP.m                5084.50:  End Depth 
 ENG1.      Artemiy Matviyanov:  Engineer 1 
 ENG2.         Almaz Almadatov:  Engineer 2 
 ETIM.      18.40.00 29-Aug-21:  End Time 
 FLOI.gpm               500.00:  Flow In 
 FLON.gpm               400.00:  Flow In Min 
 FLOS.cptm                0.00:  Fluid Loss 
 FLOX.gpm               500.00:  Flow In Max 
 DFT .        Mineral Oil Base:  Mud Type 
 HFLO.                      No:  High Flow 
 HPRE.                      No:  High Pressure 
 HTEM.                      No:  High Temp 
 HYDO.m                   1.80:  Hydro Offset 
 IFIN.deg                25.62:  Inc, Final 
 IMAX.deg                48.69:  Inc Max 
 IMIN.deg                24.01:  Inc Min 
 IMND.m                4962.57:  Inc Min Depth 
 IMXD.m                4119.01:  Inc Max Depth 
 JARR.                      No:  Jarring 
 LETM.      18.40.00 29-Aug-21:  Log End Time 
 LOST.hr                     0:  Lost Rig Time 
 LSTM.      21.00.00 20-Aug-21:  Log Start Time 
 MDCL.ppm             41500.00:  Mud Chlorides 
 MDES.     Inversion Oil/Synthetic:  Mud Desc 
 DFD .sg                  1.56:  Mud Density 
 MDMN.sg                  1.56:  Dens Mud Min 
 MDMX.sg                  1.56:  Dens Mud Max 
 MOIL.                      70:  Run Mud Oil % 
 MOWR.                   70:30:  Run Mud OWR 
 MSND.                     0.2:  Run Mud Sand % 
 MSOL.                    23.3:  Run Mud Solids% 
 DFV .spqt               78.00:  Mud Viscosity 
 MWOD.in                  6.75:  MWD Tool OD 
 MWSI.                      No:  Serv Intrp, MWD 
 OTIM.hr                218.30:  Time Operating 
 PCON.           Look Like New:  Pad Condition 
 PMAX.psia            11015.30:  Press Op, Max 
 PV  .cP                 38.00:  Mud PV 
 RUN .                     300:  Run Number 
 ROPA.m/hr               15.00:  ROP Avg 
 ROPN.m/hr                9.00:  ROP Min 
 ROPX.m/hr               17.00:  ROP Max 
 RPMA.rpm               120.00:  RPM Surface Avg 
 RPMN.rpm                90.00:  RPM Surface Min 
 RPMX.rpm               140.00:  RPM Surface Max 
 RRUN.                     300:  Rig Run Number 
 RTIM.hr                 31.53:  Time Reaming 
 SAZI.deg               331.64:  Azm, Start 
 SDEP.m                4127.00:  Start Depth 
 SIDD.                      No:  Serv Intrp, DD 
 SINC.deg                48.43:  Inc, Start 
 SPPA.psig             5830.00:  SPP Avg 
 SPPN.psig             5600.00:  SPP Min 
 SPPX.psig             5900.00:  SPP Max 
 STIM.      21.00.00 20-Aug-21:  Start Time 
 SVCS.                 DD, MWD:  Services 
 SVER.                    9.20:  Sperry Version 
 TDAT.m                 957.50:  Tot Depth Attmp 
 TDDF.                      No:  Trip for DD 
 TDLG.m                 957.50:  Tot Depth Loggd 
 TFF .                      No:  Trip for Fail 
 TQAA.f-kp               15.00:  Torque Abs Avg 
 TQAN.f-kp               12.00:  Torque Abs Min 
 TQAX.f-kp               19.00:  Torque Abs Max 
 TRRT.°/30m              -3.40:  Turn Rotating 
 MRT .                  EWR-M5:  Maximum Recorded Temperature 
 TTMX.degC              100.00:  Max Tool Temp 
 VS01.                90639251:  Virtual Str1 SN 
 VS02.                90634715:  Virtual Str2 SN 
 VS03.                90652479:  Virtual Str3 SN 
 VS04.                90642262:  Virtual Str4 SN 
 WBMN.klb                 0.00:  WOB Min 
 WITN.           Murad Guliyev:  Customer Rep 
 WITN.          Yashar Gaziyev:  Customer Rep 2 
 WOBA.klb                 9.00:  WOB Avg 
 WOBX.klb                12.00:  WOB Max 
 YP  .lhf2               30.00:  Yield Point 
~Curve Information Block
#MNEM.UNIT                 API CODE     Curve Description
#---------               -----------    ---------------------------
 TIME.HHMMSS            00 000 000 000:  GT Time & Date
 GTDEPTH.m              00 000 000 000:  GT Depth
 GTPQH.psia             00 000 000 000:  GT HR Quartz Pressure
 GTTQ.degC              00 000 000 000:  GT Quartz Temperature
 GTTN.NONE              00 000 000 000:  GT Test Number
 GTET.sec               00 000 000 000:  GT Elapsed Test Time
 GTTVD.m                00 000 000 000:  GT True Vertical Depth
#Other Information
#
#WARRANTY: Halliburton will use its best efforts to furnish customers with 
#accurate information and interpretations that are part of, and incident to, the services 
#provided.  However, Halliburton cannot and does not warrant the accuracy 
#or correctness of such information and interpretations.  Under no circumstances should any 
#such information or interpretation be relied upon as the sole basis for any drilling, 
#completion, production, or financial decision or any procedure involving any risk to the 
#safety of any drilling venture, drilling rig or its crew or any other third party.  The 
#Customer has full responsibility for all drilling, completion and production operation.  
#Halliburton makes no representations or warranties, either expressed or 
#implied, including, but not limited to, the implied warranties of merchantability or fitness 
#for a particular purpose, with respect to the services rendered.  In no event will 
#Halliburton be liable for failure to obtain any particular results or for 
#any damages, including, but not limited to, indirect, special or consequential damages, 
#resulting from the use of any information or interpretation provided by Halliburton.
#
~A           TIME           GTDEPTH  GTPQH  GTTQ  GTTN  GTET   GTTVD  
# ...
   05:51:08.390.27-Aug-2021 5021.00 7995.33 88.45 1.00 414.07 3358.56
   05:51:08.590.27-Aug-2021 5021.00 7995.33 88.45 1.00 414.27 3358.56
   05:51:08.790.27-Aug-2021 5021.00 7992.83 88.44 1.00 414.47 3358.56
   05:51:08.990.27-Aug-2021 5021.00 7994.99 88.44 1.00 414.67 3358.56
   05:51:09.190.27-Aug-2021 5021.00 7994.96 88.44 1.00 414.87 3358.56
   05:51:09.390.27-Aug-2021 5021.00 7995.11 88.44 1.00 415.07 3358.56
   05:51:09.590.27-Aug-2021 5021.00 7995.11 88.44 1.00 415.27 3358.56
   05:51:09.790.27-Aug-2021 5021.00 7996.42 88.44 1.00 415.47 3358.56
   05:51:09.990.27-Aug-2021 5021.00 7995.66 88.44 1.00 415.67 3358.56
   05:51:10.190.27-Aug-2021 5021.00 7994.71 88.44 1.00 415.87 3358.56
   05:51:10.390.27-Aug-2021 5021.00 7995.33 88.44 1.00 416.07 3358.56
   05:51:10.590.27-Aug-2021 5021.00 7995.33 88.44 1.00 416.27 3358.56
   05:51:10.790.27-Aug-2021 5021.00 7994.25 88.44 1.00 416.47 3358.56
   05:51:10.990.27-Aug-2021 5021.00 7995.11 88.44 1.00 416.67 3358.56
   05:51:11.190.27-Aug-2021 5021.00 7995.29 88.44 1.00 416.87 3358.56
   05:51:11.390.27-Aug-2021 5021.00 7994.85 88.44 1.00 417.07 3358.56
   05:51:11.590.27-Aug-2021 5021.00 7994.85 88.44 1.00 417.27 3358.56
   05:51:11.790.27-Aug-2021 5021.00 7993.68 88.44 1.00 417.47 3358.56
   05:51:11.991.27-Aug-2021 5021.00 7994.72 88.44 1.00 417.67 3358.56
   05:51:12.191.27-Aug-2021 5021.00 7995.05 88.44 1.00 417.87 3358.56
   05:51:12.391.27-Aug-2021 5021.00 7994.50 88.44 1.00 418.07 3358.56
   05:51:12.591.27-Aug-2021 5021.00 7994.50 88.44 1.00 418.27 3358.56
   05:51:12.791.27-Aug-2021 5021.00 7995.93 88.44 1.00 418.47 3358.56
   05:51:12.991.27-Aug-2021 5021.00 7994.94 88.44 1.00 418.67 3358.56
   05:51:13.191.27-Aug-2021 5021.00 7995.24 88.44 1.00 418.87 3358.56
   05:51:13.391.27-Aug-2021 5021.00 7994.74 88.44 1.00 419.07 3358.56
   05:51:13.591.27-Aug-2021 5021.00 7994.74 88.44 1.00 419.27 3358.56
   05:51:13.791.27-Aug-2021 5021.00 7996.20 88.44 1.00 419.47 3358.56
   05:51:13.991.27-Aug-2021 5021.00 7996.45 88.44 1.00 419.67 3358.56
   05:51:14.191.27-Aug-2021 5021.00 7995.93 88.44 1.00 419.87 3358.56
   05:51:14.391.27-Aug-2021 5021.00 7995.58 88.44 1.00 420.07 3358.56
   05:51:14.591.27-Aug-2021 5021.00 7995.58 88.44 1.00 420.27 3358.56
   05:51:14.791.27-Aug-2021 5021.00 7998.86 88.44 1.00 420.47 3358.56
   05:51:14.991.27-Aug-2021 5021.00 7996.60 88.44 1.00 420.67 3358.56
   05:51:15.191.27-Aug-2021 5021.00 7996.04 88.44 1.00 420.87 3358.56
   05:51:15.391.27-Aug-2021 5021.00 7995.02 88.44 1.00 421.07 3358.56
   05:51:15.591.27-Aug-2021 5021.00 7995.02 88.44 1.00 421.27 3358.56
   05:51:15.791.27-Aug-2021 5021.00 7994.68 88.44 1.00 421.47 3358.56
   05:51:15.991.27-Aug-2021 5021.00 7995.23 88.44 1.00 421.67 3358.56
   05:51:16.191.27-Aug-2021 5021.00 7994.46 88.44 1.00 421.87 3358.56
   05:51:16.391.27-Aug-2021 5021.00 7994.93 88.44 1.00 422.07 3358.56
   05:51:16.591.27-Aug-2021 5021.00 7994.93 88.44 1.00 422.27 3358.56
   05:51:16.791.27-Aug-2021 5021.00 7995.62 88.44 1.00 422.47 3358.56
   05:51:16.991.27-Aug-2021 5021.00 7996.35 88.44 1.00 422.67 3358.56
   05:51:17.191.27-Aug-2021 5021.00 7997.01 88.44 1.00 422.87 3358.56
   05:51:17.391.27-Aug-2021 5021.00 7996.47 88.44 1.00 423.07 3358.56
   05:51:17.591.27-Aug-2021 5021.00 7996.47 88.44 1.00 423.27 3358.56
   05:51:17.791.27-Aug-2021 5021.00 7996.13 88.44 1.00 423.47 3358.56
   05:51:17.992.27-Aug-2021 5021.00 7995.90 88.44 1.00 423.67 3358.56
   05:51:18.192.27-Aug-2021 5021.00 7995.95 88.44 1.00 423.87 3358.56
   05:51:18.392.27-Aug-2021 5021.00 7999.04 88.44 1.00 424.07 3358.56
   05:51:18.592.27-Aug-2021 5021.00 7999.04 88.44 1.00 424.27 3358.56
   05:51:18.792.27-Aug-2021 5021.00 7994.66 88.44 1.00 424.47 3358.56
   05:51:18.992.27-Aug-2021 5021.00 7994.99 88.44 1.00 424.67 3358.56
   05:51:19.192.27-Aug-2021 5021.00 7994.76 88.44 1.00 424.87 3358.56
   05:51:19.392.27-Aug-2021 5021.00 7999.00 88.44 1.00 425.07 3358.56
   05:51:19.592.27-Aug-2021 5021.00 7999.00 88.44 1.00 425.27 3358.56
   05:51:19.792.27-Aug-2021 5021.00 7994.10 88.44 1.00 425.47 3358.56
   05:51:19.992.27-Aug-2021 5021.00 7994.44 88.44 1.00 425.67 3358.56
   05:51:20.192.27-Aug-2021 5021.00 7994.53 88.44 1.00 425.87 3358.56
   05:51:20.392.27-Aug-2021 5021.00 7999.83 88.44 1.00 426.07 3358.56
   05:51:20.592.27-Aug-2021 5021.00 7999.83 88.44 1.00 426.27 3358.56
   05:51:20.792.27-Aug-2021 5021.00 7995.12 88.44 1.00 426.47 3358.56
   05:51:20.992.27-Aug-2021 5021.00 7994.95 88.44 1.00 426.67 3358.56
   05:51:21.192.27-Aug-2021 5021.00 8002.74 88.44 1.00 426.87 3358.56
   05:51:21.392.27-Aug-2021 5021.00 7993.95 88.44 1.00 427.07 3358.56
   05:51:21.592.27-Aug-2021 5021.00 7993.95 88.44 1.00 427.27 3358.56
   05:51:21.792.27-Aug-2021 5021.00 7994.58 88.44 1.00 427.47 3358.56
   05:51:21.992.27-Aug-2021 5021.00 7993.46 88.44 1.00 427.67 3358.56
   05:51:22.192.27-Aug-2021 5021.00 7993.64 88.44 1.00 427.87 3358.56
   05:51:22.392.27-Aug-2021 5021.00 7994.67 88.44 1.00 428.07 3358.56
   05:51:22.592.27-Aug-2021 5021.00 7994.67 88.44 1.00 428.27 3358.56
   05:51:22.792.27-Aug-2021 5021.00 7994.32 88.44 1.00 428.47 3358.56
   05:51:22.992.27-Aug-2021 5021.00 7994.03 88.44 1.00 428.67 3358.56
   05:51:23.192.27-Aug-2021 5021.00 7994.68 88.44 1.00 428.87 3358.56
   05:51:23.392.27-Aug-2021 5021.00 7995.30 88.44 1.00 429.07 3358.56
   05:51:23.592.27-Aug-2021 5021.00 7995.30 88.44 1.00 429.27 3358.56
   05:51:23.792.27-Aug-2021 5021.00 7995.01 88.44 1.00 429.47 3358.56
   05:51:23.993.27-Aug-2021 5021.00 7994.91 88.44 1.00 429.67 3358.56
   05:51:24.193.27-Aug-2021 5021.00 7994.48 88.44 1.00 429.87 3358.56
