~Version Information
 VERS.                  2.0:   CWLS log ASCII Standard -VERSION 2.0
 WRAP.                   NO:   One line per depth step
~Well Information Block
#MNEM.UNIT     VALUE/NAME     DESCRIPTION
#---------     -----------    ---------------------------
 STRT.S             13:52:51 27-Aug-21: START TIME 13:52:51 27-Aug-21
 STOP.S             13:59:42 27-Aug-21: STOP TIME  13:59:42 27-Aug-21
 STEP.S                   0.00: STEP TIME
 NULL.                 -999.25: NULL VALUE
 DFWT.                        :  DIST FWL TEXT
 DFST.                        :  DIST FSL TEXT
 DMF .             Drill Floor:  DRILL MEAS FROM
 STIM.      20.00.00 17-Aug-21:  START TIME
 DATE.      19.00.00 29-Aug-21:  END TIME
 SPUD.               15-Aug-21:  SPUD DATE
 NREF.                    Grid:  NORTH REFERENCE
 HPTY.       Minimum Curvature:  HOLE POS TYPE
 DMOD.             Drill Model:  DRILL MOD DESC
 SVYD.                  Survey:  SURVEY DESC
 ILTD.               Lithology:  INTERP LTH DESC
 FTOP.          Formation Tops:  FORM TOPS DESC
 RIG .              East Azeri:  RIG NAME
 PDAT.          Mean Sea Level:  PERMANENT DATUM
 FLD .                     ACG:  FIELD NAME
 SON .        AZ-XX-0907180857:  JOB NUMBER
 CTRY.              Azerbaijan:  COUNTRY NAME
 WELL.                    D23x:  WELL NAME
 SRVC.     Turan Drilling and Engineering:  CONTRACTOR
 COMP.     BP Exploration (Caspian Sea) Ltd.:  COMPANY
 UWI .            /AZE00000214:  UNIQUE WELL IDENTIFIER
 API .            /AZE00000214:  API NUMBER
 MDS .        Operator Entered:  MAG DATA SOURCE
 BASE.              Azerbaijan:  LOGGING EQUIPMENT BASE LOCATION
 REGN.                   EESSA:  REGION
 PROV.                    Baku:  PROVINCE
 STAT.                    Baku:  STATE NAME
 MWDS.                    Baku:  MWD SHOP
 DOE .                     N/A:  DOE NUMBER
 DCON.         Sperry Drilling:  DIRECTNL CONTR
 UNIT.                     N/A:  LOGGING EQUIPMENT ID
 WTYP.                Deviated:  WELL TYPE
 CNTY.                        :  COUNTY
 LOC .                        :  LOCATION
 LMF .             Drill Floor:  LOG MEASURED FROM
 TVDS.m                  43.60:  TVDSS CORRECTN
 LATI.deg                40.02:  LATITUDE
 LONG.deg                51.45:  LONGITUDE
 WHNS.m                  -7.04:  WELL HEAD N/S
 WHEW.m                  -0.67:  WELL HEAD E/W
 UTMX.m              538762.90:  UTM X
 UTMY.m             4431871.34:  UTM Y
 DFWL.m                   0.00:  DISTANCE FWL
 DFSL.m                   0.00:  DISTANCE FSL
 SDEP.m                4127.00:  START DEPTH
 TDD .m                5084.50:  TOTAL DEPTH (DRILLER)
 VSDR.deg               140.47:  VERT SEC DIRECT
 GVFD.g                   1.00:  GRAVITY FIELD
 MFLD.nT              50362.00:  MAGNETIC FIELD
 MDIP.deg                59.48:  MAGNETIC DIP
 MDEC.deg                 6.47:  MAGNETIC DECL
 GRDC.deg                 0.31:  GRID CORRECTION
 AZTC.deg                 6.16:  AZM TOTAL CORR
 EPD .m                   0.00:  ELEVATION
 EGL .m                   0.00:  GROUND ELEVATION
 WDMS.m                 151.80:  WD ELEV
 APD .m                  43.60:  DEPTH ABOVE PD
 DEP .m                4092.57:  DEPTH
 AGAP.m                  43.60:  AIR GAP
 VSEW.m                  -0.67:  VERT SEC E/W
 VSNS.m                  -7.04:  VERT SEC N/S
 EKB .m                  43.60:  KB ELEVATION
 EDF .m                  43.60:  DF ELEVATION
 TDL .m                 957.50:  TOTAL DEPTH (LOGGER)
 VSC .                       0:  VS TO CLOSURE
 MAGU.                 1851413:  MAGUTM CHECKSUM
~Parameter Information Block
#MNEM.UNIT       Value        Description
#---------     -----------    ---------------------------
 AV  .mps                 1.50:  Ann Velocity 
 AVMX.mps                 2.00:  Max Ann Veloc 
 AZIF.deg               184.66:  Azm, Final 
 BHAT.        Rotary Steerable:  BHA Type 
 BREV.rev               300.00:  Rev Bit Total 
 BROT.°/30m              -0.50:  Build Rotating 
 BS  .in                  8.50:  Bit Size 
 BSZ .in                  8.50:  Bit Size 
 BTPL.psig              370.00:  Bit Press Loss 
 CABU.                      No:  Customer Abuse 
 CGEO.      Behruz Shahbaliyev:  Customer Geo 
 COMM.                     ÄÆy:  Run Comments 1 
 TCS .hr                140.08:  Time Ciculation Ended 
 CV  .mps                 3.00:  Crit Velocity 
 CVMX.mps                 3.20:  Max Crit Veloc 
 DD1 .            Musa Ahmadov:  Direct Drillr 1 
 DD2 .           Hamid Ahmadov:  Direct Drillr 2 
 DDSV.               Geo-Pilot:  DD Service 
 DEFF.%                  98.40:  % Det Eff 
 DLRX.°/30m               3.40:  Dogleg Rot Max 
 DLSO.°/30m               1.45:  Dogleg Oriented 
 DLSX.°/30m               3.40:  Dogleg Str Max 
 DRET.      18.40.00 29-Aug-21:  Drill End Time 
 DRST.      21.00.00 20-Aug-21:  Drill Start Tim 
 DTIM.hr                 69.47:  Time Drilling 
 EDEP.m                5084.50:  End Depth 
 ENG1.      Artemiy Matviyanov:  Engineer 1 
 ENG2.         Almaz Almadatov:  Engineer 2 
 ETIM.      18.40.00 29-Aug-21:  End Time 
 FLOI.gpm               500.00:  Flow In 
 FLON.gpm               400.00:  Flow In Min 
 FLOS.cptm                0.00:  Fluid Loss 
 FLOX.gpm               500.00:  Flow In Max 
 DFT .        Mineral Oil Base:  Mud Type 
 HFLO.                      No:  High Flow 
 HPRE.                      No:  High Pressure 
 HTEM.                      No:  High Temp 
 HYDO.m                   1.80:  Hydro Offset 
 IFIN.deg                25.62:  Inc, Final 
 IMAX.deg                48.69:  Inc Max 
 IMIN.deg                24.01:  Inc Min 
 IMND.m                4962.57:  Inc Min Depth 
 IMXD.m                4119.01:  Inc Max Depth 
 JARR.                      No:  Jarring 
 LETM.      18.40.00 29-Aug-21:  Log End Time 
 LOST.hr                     0:  Lost Rig Time 
 LSTM.      21.00.00 20-Aug-21:  Log Start Time 
 MDCL.ppm             41500.00:  Mud Chlorides 
 MDES.     Inversion Oil/Synthetic:  Mud Desc 
 DFD .sg                  1.56:  Mud Density 
 MDMN.sg                  1.56:  Dens Mud Min 
 MDMX.sg                  1.56:  Dens Mud Max 
 MOIL.                      70:  Run Mud Oil % 
 MOWR.                   70:30:  Run Mud OWR 
 MSND.                     0.2:  Run Mud Sand % 
 MSOL.                    23.3:  Run Mud Solids% 
 DFV .spqt               78.00:  Mud Viscosity 
 MWOD.in                  6.75:  MWD Tool OD 
 MWSI.                      No:  Serv Intrp, MWD 
 OTIM.hr                218.30:  Time Operating 
 PCON.           Look Like New:  Pad Condition 
 PMAX.psia            11015.30:  Press Op, Max 
 PV  .cP                 38.00:  Mud PV 
 RUN .                     300:  Run Number 
 ROPA.m/hr               15.00:  ROP Avg 
 ROPN.m/hr                9.00:  ROP Min 
 ROPX.m/hr               17.00:  ROP Max 
 RPMA.rpm               120.00:  RPM Surface Avg 
 RPMN.rpm                90.00:  RPM Surface Min 
 RPMX.rpm               140.00:  RPM Surface Max 
 RRUN.                     300:  Rig Run Number 
 RTIM.hr                 31.53:  Time Reaming 
 SAZI.deg               331.64:  Azm, Start 
 SDEP.m                4127.00:  Start Depth 
 SIDD.                      No:  Serv Intrp, DD 
 SINC.deg                48.43:  Inc, Start 
 SPPA.psig             5830.00:  SPP Avg 
 SPPN.psig             5600.00:  SPP Min 
 SPPX.psig             5900.00:  SPP Max 
 STIM.      21.00.00 20-Aug-21:  Start Time 
 SVCS.                 DD, MWD:  Services 
 SVER.                    9.20:  Sperry Version 
 TDAT.m                 957.50:  Tot Depth Attmp 
 TDDF.                      No:  Trip for DD 
 TDLG.m                 957.50:  Tot Depth Loggd 
 TFF .                      No:  Trip for Fail 
 TQAA.f-kp               15.00:  Torque Abs Avg 
 TQAN.f-kp               12.00:  Torque Abs Min 
 TQAX.f-kp               19.00:  Torque Abs Max 
 TRRT.°/30m              -3.40:  Turn Rotating 
 MRT .                  EWR-M5:  Maximum Recorded Temperature 
 TTMX.degC              100.00:  Max Tool Temp 
 VS01.                90639251:  Virtual Str1 SN 
 VS02.                90634715:  Virtual Str2 SN 
 VS03.                90652479:  Virtual Str3 SN 
 VS04.                90642262:  Virtual Str4 SN 
 WBMN.klb                 0.00:  WOB Min 
 WITN.           Murad Guliyev:  Customer Rep 
 WITN.          Yashar Gaziyev:  Customer Rep 2 
 WOBA.klb                 9.00:  WOB Avg 
 WOBX.klb                12.00:  WOB Max 
 YP  .lhf2               30.00:  Yield Point 
~Curve Information Block
#MNEM.UNIT                 API CODE     Curve Description
#---------               -----------    ---------------------------
 TIME.HHMMSS            00 000 000 000:  GT Time & Date
 GTDEPTH.m              00 000 000 000:  GT Depth
 GTPQH.psia             00 000 000 000:  GT HR Quartz Pressure
 GTTQ.degC              00 000 000 000:  GT Quartz Temperature
 GTTN.NONE              00 000 000 000:  GT Test Number
 GTET.sec               00 000 000 000:  GT Elapsed Test Time
 GTTVD.m                00 000 000 000:  GT True Vertical Depth
#Other Information
#
#WARRANTY: Halliburton will use its best efforts to furnish customers with 
#accurate information and interpretations that are part of, and incident to, the services 
#provided.  However, Halliburton cannot and does not warrant the accuracy 
#or correctness of such information and interpretations.  Under no circumstances should any 
#such information or interpretation be relied upon as the sole basis for any drilling, 
#completion, production, or financial decision or any procedure involving any risk to the 
#safety of any drilling venture, drilling rig or its crew or any other third party.  The 
#Customer has full responsibility for all drilling, completion and production operation.  
#Halliburton makes no representations or warranties, either expressed or 
#implied, including, but not limited to, the implied warranties of merchantability or fitness 
#for a particular purpose, with respect to the services rendered.  In no event will 
#Halliburton be liable for failure to obtain any particular results or for 
#any damages, including, but not limited to, indirect, special or consequential damages, 
#resulting from the use of any information or interpretation provided by Halliburton.
#
~A           TIME           GTDEPTH  GTPQH  GTTQ  GTTN   GTET   GTTVD  
# ...
   13:55:51.800.27-Aug-2021 4859.00 2797.40 84.45 14.00 180.80 3211.42
   13:55:52.000.27-Aug-2021 4859.00 2820.97 84.45 14.00 181.00 3211.42
   13:55:52.200.27-Aug-2021 4859.00 2820.97 84.45 14.00 181.20 3211.42
   13:55:52.400.27-Aug-2021 4859.00 2865.33 84.45 14.00 181.40 3211.42
   13:55:52.600.27-Aug-2021 4859.00 2886.21 84.45 14.00 181.60 3211.42
   13:55:52.800.27-Aug-2021 4859.00 2907.30 84.45 14.00 181.80 3211.42
   13:55:53.000.27-Aug-2021 4859.00 2929.69 84.46 14.00 182.00 3211.42
   13:55:53.200.27-Aug-2021 4859.00 2929.69 84.46 14.00 182.20 3211.42
   13:55:53.400.27-Aug-2021 4859.00 2971.20 84.46 14.00 182.40 3211.42
   13:55:53.600.27-Aug-2021 4859.00 2992.02 84.46 14.00 182.60 3211.42
   13:55:53.800.27-Aug-2021 4859.00 3012.34 84.46 14.00 182.80 3211.42
   13:55:54.000.27-Aug-2021 4859.00 3032.92 84.46 14.00 183.00 3211.42
   13:55:54.200.27-Aug-2021 4859.00 3032.92 84.46 14.00 183.20 3211.42
   13:55:54.400.27-Aug-2021 4859.00 3073.06 84.46 14.00 183.40 3211.42
   13:55:54.600.27-Aug-2021 4859.00 3093.27 84.46 14.00 183.60 3211.42
   13:55:54.800.27-Aug-2021 4859.00 3112.66 84.46 14.00 183.80 3211.42
   13:55:55.000.27-Aug-2021 4859.00 3131.95 84.46 14.00 184.00 3211.42
   13:55:55.200.27-Aug-2021 4859.00 3131.95 84.46 14.00 184.20 3211.42
   13:55:55.400.27-Aug-2021 4859.00 3169.96 84.47 14.00 184.40 3211.42
   13:55:55.600.27-Aug-2021 4859.00 3188.89 84.47 14.00 184.60 3211.42
   13:55:55.800.27-Aug-2021 4859.00 3207.32 84.47 14.00 184.80 3211.42
   13:55:56.000.27-Aug-2021 4859.00 3225.61 84.47 14.00 185.00 3211.42
   13:55:56.200.27-Aug-2021 4859.00 3225.61 84.47 14.00 185.20 3211.42
   13:55:56.400.27-Aug-2021 4859.00 3261.63 84.47 14.00 185.40 3211.42
   13:55:56.600.27-Aug-2021 4859.00 3279.36 84.47 14.00 185.60 3211.42
   13:55:56.800.27-Aug-2021 4859.00 3295.62 84.47 14.00 185.80 3211.42
   13:55:57.000.27-Aug-2021 4859.00 3312.14 84.47 14.00 186.00 3211.42
   13:55:57.200.27-Aug-2021 4859.00 3312.14 84.47 14.00 186.20 3211.42
   13:55:57.400.27-Aug-2021 4859.00 3347.47 84.47 14.00 186.40 3211.42
   13:55:57.600.27-Aug-2021 4859.00 3364.21 84.48 14.00 186.60 3211.42
   13:55:57.800.27-Aug-2021 4859.00 3381.55 84.48 14.00 186.80 3211.42
   13:55:58.000.27-Aug-2021 4859.00 3397.96 84.48 14.00 187.00 3211.42
   13:55:58.200.27-Aug-2021 4859.00 3397.96 84.48 14.00 187.20 3211.42
   13:55:58.400.27-Aug-2021 4859.00 3430.95 84.48 14.00 187.40 3211.42
   13:55:58.600.27-Aug-2021 4859.00 3447.00 84.48 14.00 187.60 3211.42
   13:55:58.800.27-Aug-2021 4859.00 3463.17 84.48 14.00 187.80 3211.42
   13:55:59.000.27-Aug-2021 4859.00 3478.91 84.48 14.00 188.00 3211.42
   13:55:59.200.27-Aug-2021 4859.00 3478.91 84.48 14.00 188.20 3211.42
   13:55:59.400.27-Aug-2021 4859.00 3510.20 84.48 14.00 188.40 3211.42
   13:55:59.600.27-Aug-2021 4859.00 3525.55 84.48 14.00 188.60 3211.42
   13:55:59.800.27-Aug-2021 4859.00 3539.71 84.48 14.00 188.80 3211.42
   13:56:00.000.27-Aug-2021 4859.00 3553.66 84.49 14.00 189.00 3211.42
   13:56:00.200.27-Aug-2021 4859.00 3553.66 84.49 14.00 189.20 3211.42
   13:56:00.400.27-Aug-2021 4859.00 3582.77 84.49 14.00 189.40 3211.42
   13:56:00.600.27-Aug-2021 4859.00 3597.86 84.49 14.00 189.60 3211.42
   13:56:00.800.27-Aug-2021 4859.00 3609.72 84.49 14.00 189.80 3211.42
   13:56:01.000.27-Aug-2021 4859.00 3624.81 84.49 14.00 190.00 3211.42
   13:56:01.200.27-Aug-2021 4859.00 3624.81 84.49 14.00 190.20 3211.42
   13:56:01.400.27-Aug-2021 4859.00 3653.09 84.49 14.00 190.40 3211.42
   13:56:01.600.27-Aug-2021 4859.00 3667.01 84.49 14.00 190.60 3211.42
   13:56:01.800.27-Aug-2021 4859.00 3680.08 84.49 14.00 190.80 3211.42
   13:56:02.000.27-Aug-2021 4859.00 3694.40 84.49 14.00 191.00 3211.42
   13:56:02.200.27-Aug-2021 4859.00 3694.40 84.49 14.00 191.20 3211.42
   13:56:02.400.27-Aug-2021 4859.00 3721.40 84.49 14.00 191.40 3211.42
   13:56:02.600.27-Aug-2021 4859.00 3731.60 84.50 14.00 191.60 3211.42
   13:56:02.800.27-Aug-2021 4859.00 3745.59 84.50 14.00 191.80 3211.42
   13:56:03.000.27-Aug-2021 4859.00 3759.18 84.50 14.00 192.00 3211.42
   13:56:03.200.27-Aug-2021 4859.00 3759.18 84.50 14.00 192.20 3211.42
   13:56:03.400.27-Aug-2021 4859.00 3785.73 84.50 14.00 192.40 3211.42
   13:56:03.600.27-Aug-2021 4859.00 3798.21 84.50 14.00 192.60 3211.42
   13:56:03.800.27-Aug-2021 4859.00 3811.35 84.50 14.00 192.80 3211.42
   13:56:04.000.27-Aug-2021 4859.00 3824.05 84.50 14.00 193.00 3211.42
   13:56:04.200.27-Aug-2021 4859.00 3824.05 84.50 14.00 193.20 3211.42
   13:56:04.400.27-Aug-2021 4859.00 3849.04 84.50 14.00 193.40 3211.42
   13:56:04.600.27-Aug-2021 4859.00 3861.23 84.50 14.00 193.60 3211.42
   13:56:04.800.27-Aug-2021 4859.00 3873.49 84.50 14.00 193.80 3211.42
   13:56:05.000.27-Aug-2021 4859.00 3885.62 84.50 14.00 194.00 3211.42
   13:56:05.200.27-Aug-2021 4859.00 3885.62 84.50 14.00 194.20 3211.42
   13:56:05.400.27-Aug-2021 4859.00 3909.28 84.50 14.00 194.40 3211.42
   13:56:05.600.27-Aug-2021 4859.00 3919.82 84.50 14.00 194.60 3211.42
   13:56:05.800.27-Aug-2021 4859.00 3930.60 84.51 14.00 194.80 3211.42
   13:56:06.000.27-Aug-2021 4859.00 3942.93 84.51 14.00 195.00 3211.42
   13:56:06.200.27-Aug-2021 4859.00 3942.93 84.51 14.00 195.20 3211.42
   13:56:06.400.27-Aug-2021 4859.00 3965.72 84.51 14.00 195.40 3211.42
   13:56:06.600.27-Aug-2021 4859.00 3977.59 84.51 14.00 195.60 3211.42
   13:56:06.800.27-Aug-2021 4859.00 3988.46 84.51 14.00 195.80 3211.42
   13:56:07.000.27-Aug-2021 4859.00 3999.88 84.51 14.00 196.00 3211.42
   13:56:07.200.27-Aug-2021 4859.00 3999.88 84.51 14.00 196.20 3211.42
   13:56:07.400.27-Aug-2021 4859.00 4021.66 84.51 14.00 196.40 3211.42
   13:56:07.600.27-Aug-2021 4859.00 4032.59 84.51 14.00 196.60 3211.42
   13:56:07.800.27-Aug-2021 4859.00 4043.19 84.51 14.00 196.80 3211.42
   13:56:08.000.27-Aug-2021 4859.00 4053.84 84.51 14.00 197.00 3211.42
   13:56:08.200.27-Aug-2021 4859.00 4053.84 84.51 14.00 197.20 3211.42
   13:56:08.400.27-Aug-2021 4859.00 4074.64 84.51 14.00 197.40 3211.42
   13:56:08.600.27-Aug-2021 4859.00 4084.90 84.51 14.00 197.60 3211.42
   13:56:08.800.27-Aug-2021 4859.00 4094.21 84.51 14.00 197.80 3211.42
   13:56:09.000.27-Aug-2021 4859.00 4103.15 84.51 14.00 198.00 3211.42
   13:56:09.200.27-Aug-2021 4859.00 4103.15 84.51 14.00 198.20 3211.42
   13:56:09.400.27-Aug-2021 4859.00 4123.49 84.51 14.00 198.40 3211.42
   13:56:09.600.27-Aug-2021 4859.00 4133.76 84.52 14.00 198.60 3211.42
   13:56:09.800.27-Aug-2021 4859.00 4143.81 84.52 14.00 198.80 3211.42
   13:56:10.000.27-Aug-2021 4859.00 4152.53 84.52 14.00 199.00 3211.42
   13:56:10.200.27-Aug-2021 4859.00 4152.53 84.52 14.00 199.20 3211.42
   13:56:10.400.27-Aug-2021 4859.00 4171.52 84.52 14.00 199.40 3211.42
   13:56:10.600.27-Aug-2021 4859.00 4181.12 84.52 14.00 199.60 3211.42
   13:56:10.800.27-Aug-2021 4859.00 4189.66 84.52 14.00 199.80 3211.42
   13:56:11.000.27-Aug-2021 4859.00 4198.95 84.52 14.00 200.00 3211.42
   13:56:11.200.27-Aug-2021 4859.00 4198.95 84.52 14.00 200.20 3211.42
   13:56:11.400.27-Aug-2021 4859.00 4217.52 84.52 14.00 200.40 3211.42
   13:56:11.600.27-Aug-2021 4859.00 4226.69 84.52 14.00 200.60 3211.42
   13:56:11.800.27-Aug-2021 4859.00 4234.65 84.52 14.00 200.80 3211.42
   13:56:12.000.27-Aug-2021 4859.00 4244.23 84.52 14.00 201.00 3211.42
   13:56:12.200.27-Aug-2021 4859.00 4244.23 84.52 14.00 201.20 3211.42
   13:56:12.400.27-Aug-2021 4859.00 4261.59 84.52 14.00 201.40 3211.42
   13:56:12.600.27-Aug-2021 4859.00 4270.85 84.52 14.00 201.60 3211.42
   13:56:12.800.27-Aug-2021 4859.00 4279.27 84.52 14.00 201.80 3211.42
   13:56:13.000.27-Aug-2021 4859.00 4288.10 84.52 14.00 202.00 3211.42
   13:56:13.200.27-Aug-2021 4859.00 4288.10 84.52 14.00 202.20 3211.42
   13:56:13.400.27-Aug-2021 4859.00 4305.13 84.52 14.00 202.40 3211.42
   13:56:13.600.27-Aug-2021 4859.00 4313.57 84.52 14.00 202.60 3211.42
   13:56:13.800.27-Aug-2021 4859.00 4321.79 84.52 14.00 202.80 3211.42
   13:56:14.000.27-Aug-2021 4859.00 4330.03 84.52 14.00 203.00 3211.42
   13:56:14.200.27-Aug-2021 4859.00 4330.03 84.52 14.00 203.20 3211.42
