~Version Information
 VERS.                  2.0:   CWLS log ASCII Standard -VERSION 2.0
 WRAP.                   NO:   One line per depth step
~Well Information Block
#MNEM.UNIT     VALUE/NAME     DESCRIPTION
#---------     -----------    ---------------------------
 STRT.S             01:57:49 28-Aug-21: START TIME 01:57:49 28-Aug-21
 STOP.S             02:04:41 28-Aug-21: STOP TIME  02:04:41 28-Aug-21
 STEP.S                   0.00: STEP TIME
 NULL.                 -999.25: NULL VALUE
 DFWT.                        :  DIST FWL TEXT
 DFST.                        :  DIST FSL TEXT
 DMF .             Drill Floor:  DRILL MEAS FROM
 STIM.      20.00.00 17-Aug-21:  START TIME
 DATE.      19.00.00 29-Aug-21:  END TIME
 SPUD.               15-Aug-21:  SPUD DATE
 NREF.                    Grid:  NORTH REFERENCE
 HPTY.       Minimum Curvature:  HOLE POS TYPE
 DMOD.             Drill Model:  DRILL MOD DESC
 SVYD.                  Survey:  SURVEY DESC
 ILTD.               Lithology:  INTERP LTH DESC
 FTOP.          Formation Tops:  FORM TOPS DESC
 RIG .              East Azeri:  RIG NAME
 PDAT.          Mean Sea Level:  PERMANENT DATUM
 FLD .                     ACG:  FIELD NAME
 SON .        AZ-XX-0907180857:  JOB NUMBER
 CTRY.              Azerbaijan:  COUNTRY NAME
 WELL.                    D23x:  WELL NAME
 SRVC.     Turan Drilling and Engineering:  CONTRACTOR
 COMP.     BP Exploration (Caspian Sea) Ltd.:  COMPANY
 UWI .            /AZE00000214:  UNIQUE WELL IDENTIFIER
 API .            /AZE00000214:  API NUMBER
 MDS .        Operator Entered:  MAG DATA SOURCE
 BASE.              Azerbaijan:  LOGGING EQUIPMENT BASE LOCATION
 REGN.                   EESSA:  REGION
 PROV.                    Baku:  PROVINCE
 STAT.                    Baku:  STATE NAME
 MWDS.                    Baku:  MWD SHOP
 DOE .                     N/A:  DOE NUMBER
 DCON.         Sperry Drilling:  DIRECTNL CONTR
 UNIT.                     N/A:  LOGGING EQUIPMENT ID
 WTYP.                Deviated:  WELL TYPE
 CNTY.                        :  COUNTY
 LOC .                        :  LOCATION
 LMF .             Drill Floor:  LOG MEASURED FROM
 TVDS.m                  43.60:  TVDSS CORRECTN
 LATI.deg                40.02:  LATITUDE
 LONG.deg                51.45:  LONGITUDE
 WHNS.m                  -7.04:  WELL HEAD N/S
 WHEW.m                  -0.67:  WELL HEAD E/W
 UTMX.m              538762.90:  UTM X
 UTMY.m             4431871.34:  UTM Y
 DFWL.m                   0.00:  DISTANCE FWL
 DFSL.m                   0.00:  DISTANCE FSL
 SDEP.m                4127.00:  START DEPTH
 TDD .m                5084.50:  TOTAL DEPTH (DRILLER)
 VSDR.deg               140.47:  VERT SEC DIRECT
 GVFD.g                   1.00:  GRAVITY FIELD
 MFLD.nT              50362.00:  MAGNETIC FIELD
 MDIP.deg                59.48:  MAGNETIC DIP
 MDEC.deg                 6.47:  MAGNETIC DECL
 GRDC.deg                 0.31:  GRID CORRECTION
 AZTC.deg                 6.16:  AZM TOTAL CORR
 EPD .m                   0.00:  ELEVATION
 EGL .m                   0.00:  GROUND ELEVATION
 WDMS.m                 151.80:  WD ELEV
 APD .m                  43.60:  DEPTH ABOVE PD
 DEP .m                4092.57:  DEPTH
 AGAP.m                  43.60:  AIR GAP
 VSEW.m                  -0.67:  VERT SEC E/W
 VSNS.m                  -7.04:  VERT SEC N/S
 EKB .m                  43.60:  KB ELEVATION
 EDF .m                  43.60:  DF ELEVATION
 TDL .m                 957.50:  TOTAL DEPTH (LOGGER)
 VSC .                       0:  VS TO CLOSURE
 MAGU.                 1851413:  MAGUTM CHECKSUM
~Parameter Information Block
#MNEM.UNIT       Value        Description
#---------     -----------    ---------------------------
 AV  .mps                 1.50:  Ann Velocity 
 AVMX.mps                 2.00:  Max Ann Veloc 
 AZIF.deg               184.66:  Azm, Final 
 BHAT.        Rotary Steerable:  BHA Type 
 BREV.rev               300.00:  Rev Bit Total 
 BROT.°/30m              -0.50:  Build Rotating 
 BS  .in                  8.50:  Bit Size 
 BSZ .in                  8.50:  Bit Size 
 BTPL.psig              370.00:  Bit Press Loss 
 CABU.                      No:  Customer Abuse 
 CGEO.      Behruz Shahbaliyev:  Customer Geo 
 COMM.                     Äi}:  Run Comments 1 
 TCS .hr                140.08:  Time Ciculation Ended 
 CV  .mps                 3.00:  Crit Velocity 
 CVMX.mps                 3.20:  Max Crit Veloc 
 DD1 .            Musa Ahmadov:  Direct Drillr 1 
 DD2 .           Hamid Ahmadov:  Direct Drillr 2 
 DDSV.               Geo-Pilot:  DD Service 
 DEFF.%                  98.40:  % Det Eff 
 DLRX.°/30m               3.40:  Dogleg Rot Max 
 DLSO.°/30m               1.45:  Dogleg Oriented 
 DLSX.°/30m               3.40:  Dogleg Str Max 
 DRET.      18.40.00 29-Aug-21:  Drill End Time 
 DRST.      21.00.00 20-Aug-21:  Drill Start Tim 
 DTIM.hr                 69.47:  Time Drilling 
 EDEP.m                5084.50:  End Depth 
 ENG1.      Artemiy Matviyanov:  Engineer 1 
 ENG2.         Almaz Almadatov:  Engineer 2 
 ETIM.      18.40.00 29-Aug-21:  End Time 
 FLOI.gpm               500.00:  Flow In 
 FLON.gpm               400.00:  Flow In Min 
 FLOS.cptm                0.00:  Fluid Loss 
 FLOX.gpm               500.00:  Flow In Max 
 DFT .        Mineral Oil Base:  Mud Type 
 HFLO.                      No:  High Flow 
 HPRE.                      No:  High Pressure 
 HTEM.                      No:  High Temp 
 HYDO.m                   1.80:  Hydro Offset 
 IFIN.deg                25.62:  Inc, Final 
 IMAX.deg                48.69:  Inc Max 
 IMIN.deg                24.01:  Inc Min 
 IMND.m                4962.57:  Inc Min Depth 
 IMXD.m                4119.01:  Inc Max Depth 
 JARR.                      No:  Jarring 
 LETM.      18.40.00 29-Aug-21:  Log End Time 
 LOST.hr                     0:  Lost Rig Time 
 LSTM.      21.00.00 20-Aug-21:  Log Start Time 
 MDCL.ppm             41500.00:  Mud Chlorides 
 MDES.     Inversion Oil/Synthetic:  Mud Desc 
 DFD .sg                  1.56:  Mud Density 
 MDMN.sg                  1.56:  Dens Mud Min 
 MDMX.sg                  1.56:  Dens Mud Max 
 MOIL.                      70:  Run Mud Oil % 
 MOWR.                   70:30:  Run Mud OWR 
 MSND.                     0.2:  Run Mud Sand % 
 MSOL.                    23.3:  Run Mud Solids% 
 DFV .spqt               78.00:  Mud Viscosity 
 MWOD.in                  6.75:  MWD Tool OD 
 MWSI.                      No:  Serv Intrp, MWD 
 OTIM.hr                218.30:  Time Operating 
 PCON.           Look Like New:  Pad Condition 
 PMAX.psia            11015.30:  Press Op, Max 
 PV  .cP                 38.00:  Mud PV 
 RUN .                     300:  Run Number 
 ROPA.m/hr               15.00:  ROP Avg 
 ROPN.m/hr                9.00:  ROP Min 
 ROPX.m/hr               17.00:  ROP Max 
 RPMA.rpm               120.00:  RPM Surface Avg 
 RPMN.rpm                90.00:  RPM Surface Min 
 RPMX.rpm               140.00:  RPM Surface Max 
 RRUN.                     300:  Rig Run Number 
 RTIM.hr                 31.53:  Time Reaming 
 SAZI.deg               331.64:  Azm, Start 
 SDEP.m                4127.00:  Start Depth 
 SIDD.                      No:  Serv Intrp, DD 
 SINC.deg                48.43:  Inc, Start 
 SPPA.psig             5830.00:  SPP Avg 
 SPPN.psig             5600.00:  SPP Min 
 SPPX.psig             5900.00:  SPP Max 
 STIM.      21.00.00 20-Aug-21:  Start Time 
 SVCS.                 DD, MWD:  Services 
 SVER.                    9.20:  Sperry Version 
 TDAT.m                 957.50:  Tot Depth Attmp 
 TDDF.                      No:  Trip for DD 
 TDLG.m                 957.50:  Tot Depth Loggd 
 TFF .                      No:  Trip for Fail 
 TQAA.f-kp               15.00:  Torque Abs Avg 
 TQAN.f-kp               12.00:  Torque Abs Min 
 TQAX.f-kp               19.00:  Torque Abs Max 
 TRRT.°/30m              -3.40:  Turn Rotating 
 MRT .                  EWR-M5:  Maximum Recorded Temperature 
 TTMX.degC              100.00:  Max Tool Temp 
 VS01.                90639251:  Virtual Str1 SN 
 VS02.                90634715:  Virtual Str2 SN 
 VS03.                90652479:  Virtual Str3 SN 
 VS04.                90642262:  Virtual Str4 SN 
 WBMN.klb                 0.00:  WOB Min 
 WITN.           Murad Guliyev:  Customer Rep 
 WITN.          Yashar Gaziyev:  Customer Rep 2 
 WOBA.klb                 9.00:  WOB Avg 
 WOBX.klb                12.00:  WOB Max 
 YP  .lhf2               30.00:  Yield Point 
~Curve Information Block
#MNEM.UNIT                 API CODE     Curve Description
#---------               -----------    ---------------------------
 TIME.HHMMSS            00 000 000 000:  GT Time & Date
 GTDEPTH.m              00 000 000 000:  GT Depth
 GTPQH.psia             00 000 000 000:  GT HR Quartz Pressure
 GTTQ.degC              00 000 000 000:  GT Quartz Temperature
 GTTN.NONE              00 000 000 000:  GT Test Number
 GTET.sec               00 000 000 000:  GT Elapsed Test Time
 GTTVD.m                00 000 000 000:  GT True Vertical Depth
#Other Information
#
#WARRANTY: Halliburton will use its best efforts to furnish customers with 
#accurate information and interpretations that are part of, and incident to, the services 
#provided.  However, Halliburton cannot and does not warrant the accuracy 
#or correctness of such information and interpretations.  Under no circumstances should any 
#such information or interpretation be relied upon as the sole basis for any drilling, 
#completion, production, or financial decision or any procedure involving any risk to the 
#safety of any drilling venture, drilling rig or its crew or any other third party.  The 
#Customer has full responsibility for all drilling, completion and production operation.  
#Halliburton makes no representations or warranties, either expressed or 
#implied, including, but not limited to, the implied warranties of merchantability or fitness 
#for a particular purpose, with respect to the services rendered.  In no event will 
#Halliburton be liable for failure to obtain any particular results or for 
#any damages, including, but not limited to, indirect, special or consequential damages, 
#resulting from the use of any information or interpretation provided by Halliburton.
#
~A           TIME           GTDEPTH  GTPQH  GTTQ  GTTN   GTET   GTTVD  
# ...
   02:01:58.030.28-Aug-2021 4879.00 7755.16 81.16 27.00 248.68 3229.53
   02:01:58.230.28-Aug-2021 4879.00 7755.52 81.16 27.00 248.88 3229.53
   02:01:58.430.28-Aug-2021 4879.00 7755.82 81.16 27.00 249.08 3229.53
   02:01:58.630.28-Aug-2021 4879.00 7755.82 81.16 27.00 249.28 3229.53
   02:01:58.830.28-Aug-2021 4879.00 7756.16 81.16 27.00 249.48 3229.53
   02:01:59.030.28-Aug-2021 4879.00 7756.18 81.16 27.00 249.68 3229.53
   02:01:59.230.28-Aug-2021 4879.00 7756.07 81.16 27.00 249.88 3229.53
   02:01:59.430.28-Aug-2021 4879.00 7756.14 81.16 27.00 250.08 3229.53
   02:01:59.630.28-Aug-2021 4879.00 7756.14 81.16 27.00 250.28 3229.53
   02:01:59.830.28-Aug-2021 4879.00 7758.85 81.16 27.00 250.48 3229.53
   02:02:00.030.28-Aug-2021 4879.00 7755.93 81.16 27.00 250.68 3229.53
   02:02:00.231.28-Aug-2021 4879.00 7756.47 81.16 27.00 250.88 3229.53
   02:02:00.431.28-Aug-2021 4879.00 7756.58 81.16 27.00 251.08 3229.53
   02:02:00.631.28-Aug-2021 4879.00 7756.58 81.16 27.00 251.28 3229.53
   02:02:00.831.28-Aug-2021 4879.00 7755.50 81.16 27.00 251.48 3229.53
   02:02:01.031.28-Aug-2021 4879.00 7755.19 81.16 27.00 251.68 3229.53
   02:02:01.231.28-Aug-2021 4879.00 7755.28 81.16 27.00 251.88 3229.53
   02:02:01.431.28-Aug-2021 4879.00 7755.38 81.16 27.00 252.08 3229.53
   02:02:01.631.28-Aug-2021 4879.00 7755.38 81.16 27.00 252.28 3229.53
   02:02:01.831.28-Aug-2021 4879.00 7755.99 81.15 27.00 252.48 3229.53
   02:02:02.031.28-Aug-2021 4879.00 7756.11 81.15 27.00 252.68 3229.53
   02:02:02.231.28-Aug-2021 4879.00 7756.23 81.15 27.00 252.88 3229.53
   02:02:02.431.28-Aug-2021 4879.00 7756.18 81.15 27.00 253.08 3229.53
   02:02:02.631.28-Aug-2021 4879.00 7756.18 81.15 27.00 253.28 3229.53
   02:02:02.831.28-Aug-2021 4879.00 7756.06 81.15 27.00 253.48 3229.53
   02:02:03.031.28-Aug-2021 4879.00 7756.05 81.15 27.00 253.68 3229.53
   02:02:03.231.28-Aug-2021 4879.00 7758.81 81.15 27.00 253.88 3229.53
   02:02:03.432.28-Aug-2021 4879.00 7756.11 81.15 27.00 254.08 3229.53
   02:02:03.632.28-Aug-2021 4879.00 7756.11 81.15 27.00 254.28 3229.53
   02:02:03.832.28-Aug-2021 4879.00 7756.58 81.15 27.00 254.48 3229.53
   02:02:04.032.28-Aug-2021 4879.00 7758.73 81.15 27.00 254.68 3229.53
   02:02:04.232.28-Aug-2021 4879.00 7755.63 81.15 27.00 254.88 3229.53
   02:02:04.432.28-Aug-2021 4879.00 7756.02 81.15 27.00 255.08 3229.53
   02:02:04.632.28-Aug-2021 4879.00 7756.02 81.15 27.00 255.28 3229.53
   02:02:04.832.28-Aug-2021 4879.00 7755.62 81.15 27.00 255.48 3229.53
   02:02:05.032.28-Aug-2021 4879.00 7755.25 81.15 27.00 255.68 3229.53
   02:02:05.232.28-Aug-2021 4879.00 7755.40 81.15 27.00 255.88 3229.53
   02:02:05.432.28-Aug-2021 4879.00 7758.43 81.15 27.00 256.08 3229.53
   02:02:05.632.28-Aug-2021 4879.00 7758.43 81.15 27.00 256.28 3229.53
   02:02:05.832.28-Aug-2021 4879.00 7756.75 81.15 27.00 256.48 3229.53
   02:02:06.032.28-Aug-2021 4879.00 7756.14 81.15 27.00 256.68 3229.53
   02:02:06.232.28-Aug-2021 4879.00 7755.66 81.15 27.00 256.88 3229.53
   02:02:06.433.28-Aug-2021 4879.00 7758.67 81.15 27.00 257.08 3229.53
   02:02:06.633.28-Aug-2021 4879.00 7758.67 81.15 27.00 257.28 3229.53
   02:02:06.833.28-Aug-2021 4879.00 7756.62 81.15 27.00 257.48 3229.53
   02:02:07.033.28-Aug-2021 4879.00 7755.68 81.15 27.00 257.68 3229.53
   02:02:07.233.28-Aug-2021 4879.00 7755.58 81.15 27.00 257.88 3229.53
   02:02:07.433.28-Aug-2021 4879.00 7755.63 81.15 27.00 258.08 3229.53
   02:02:07.633.28-Aug-2021 4879.00 7755.63 81.15 27.00 258.28 3229.53
   02:02:07.833.28-Aug-2021 4879.00 7756.81 81.15 27.00 258.48 3229.53
   02:02:08.033.28-Aug-2021 4879.00 7756.96 81.15 27.00 258.68 3229.53
   02:02:08.233.28-Aug-2021 4879.00 7757.44 81.15 27.00 258.88 3229.53
   02:02:08.433.28-Aug-2021 4879.00 7757.26 81.15 27.00 259.08 3229.53
   02:02:08.633.28-Aug-2021 4879.00 7757.26 81.15 27.00 259.28 3229.53
   02:02:08.833.28-Aug-2021 4879.00 7757.37 81.15 27.00 259.48 3229.53
   02:02:09.033.28-Aug-2021 4879.00 7757.46 81.15 27.00 259.68 3229.53
   02:02:09.233.28-Aug-2021 4879.00 7757.21 81.15 27.00 259.88 3229.53
   02:02:09.433.28-Aug-2021 4879.00 7757.19 81.15 27.00 260.08 3229.53
   02:02:09.634.28-Aug-2021 4879.00 7757.19 81.15 27.00 260.28 3229.53
   02:02:09.834.28-Aug-2021 4879.00 7755.91 81.15 27.00 260.48 3229.53
   02:02:10.034.28-Aug-2021 4879.00 7758.11 81.15 27.00 260.68 3229.53
   02:02:10.234.28-Aug-2021 4879.00 7757.14 81.15 27.00 260.88 3229.53
   02:02:10.434.28-Aug-2021 4879.00 7756.91 81.15 27.00 261.08 3229.53
   02:02:10.634.28-Aug-2021 4879.00 7756.91 81.15 27.00 261.28 3229.53
   02:02:10.834.28-Aug-2021 4879.00 7756.66 81.15 27.00 261.48 3229.53
   02:02:11.034.28-Aug-2021 4879.00 7756.46 81.15 27.00 261.68 3229.53
   02:02:11.234.28-Aug-2021 4879.00 7756.92 81.15 27.00 261.88 3229.53
   02:02:11.434.28-Aug-2021 4879.00 7757.17 81.15 27.00 262.08 3229.53
   02:02:11.634.28-Aug-2021 4879.00 7757.17 81.15 27.00 262.28 3229.53
   02:02:11.834.28-Aug-2021 4879.00 7757.58 81.15 27.00 262.48 3229.53
   02:02:12.034.28-Aug-2021 4879.00 7757.52 81.15 27.00 262.68 3229.53
   02:02:12.234.28-Aug-2021 4879.00 7757.43 81.15 27.00 262.88 3229.53
   02:02:12.434.28-Aug-2021 4879.00 7757.35 81.15 27.00 263.08 3229.53
   02:02:12.634.28-Aug-2021 4879.00 7757.35 81.15 27.00 263.28 3229.53
   02:02:12.835.28-Aug-2021 4879.00 7757.02 81.15 27.00 263.48 3229.53
   02:02:13.035.28-Aug-2021 4879.00 7761.22 81.15 27.00 263.68 3229.53
   02:02:13.235.28-Aug-2021 4879.00 7755.40 81.15 27.00 263.88 3229.53
   02:02:13.435.28-Aug-2021 4879.00 7758.02 81.15 27.00 264.08 3229.53
   02:02:13.635.28-Aug-2021 4879.00 7758.02 81.15 27.00 264.28 3229.53
   02:02:13.835.28-Aug-2021 4879.00 7762.28 81.15 27.00 264.48 3229.53
   02:02:14.035.28-Aug-2021 4879.00 7753.71 81.15 27.00 264.68 3229.53
   02:02:14.235.28-Aug-2021 4879.00 7757.75 81.15 27.00 264.88 3229.53
   02:02:14.435.28-Aug-2021 4879.00 7756.45 81.15 27.00 265.08 3229.53
   02:02:14.635.28-Aug-2021 4879.00 7756.45 81.15 27.00 265.28 3229.53
   02:02:14.835.28-Aug-2021 4879.00 7756.62 81.15 27.00 265.48 3229.53
   02:02:15.035.28-Aug-2021 4879.00 7761.91 81.15 27.00 265.68 3229.53
   02:02:15.235.28-Aug-2021 4879.00 7753.79 81.15 27.00 265.88 3229.53
   02:02:15.435.28-Aug-2021 4879.00 7757.93 81.15 27.00 266.08 3229.53
   02:02:15.635.28-Aug-2021 4879.00 7757.93 81.15 27.00 266.28 3229.53
   02:02:15.835.28-Aug-2021 4879.00 7759.92 81.15 27.00 266.48 3229.53
   02:02:16.036.28-Aug-2021 4879.00 7757.32 81.15 27.00 266.68 3229.53
   02:02:16.236.28-Aug-2021 4879.00 7757.63 81.15 27.00 266.88 3229.53
   02:02:16.436.28-Aug-2021 4879.00 7756.58 81.15 27.00 267.08 3229.53
   02:02:16.636.28-Aug-2021 4879.00 7756.58 81.15 27.00 267.28 3229.53
   02:02:16.836.28-Aug-2021 4879.00 7756.33 81.15 27.00 267.48 3229.53
   02:02:17.036.28-Aug-2021 4879.00 7756.34 81.15 27.00 267.68 3229.53
   02:02:17.236.28-Aug-2021 4879.00 7756.55 81.15 27.00 267.88 3229.53
   02:02:17.436.28-Aug-2021 4879.00 7756.60 81.15 27.00 268.08 3229.53
   02:02:17.636.28-Aug-2021 4879.00 7756.60 81.15 27.00 268.28 3229.53
   02:02:17.836.28-Aug-2021 4879.00 7757.03 81.15 27.00 268.48 3229.53
   02:02:18.036.28-Aug-2021 4879.00 7757.42 81.14 27.00 268.68 3229.53
   02:02:18.236.28-Aug-2021 4879.00 7757.29 81.14 27.00 268.88 3229.53
   02:02:18.436.28-Aug-2021 4879.00 7757.29 81.14 27.00 269.08 3229.53
   02:02:18.636.28-Aug-2021 4879.00 7757.29 81.14 27.00 269.28 3229.53
   02:02:18.836.28-Aug-2021 4879.00 7757.15 81.14 27.00 269.48 3229.53
   02:02:19.036.28-Aug-2021 4879.00 7761.43 81.14 27.00 269.68 3229.53
   02:02:19.237.28-Aug-2021 4879.00 7755.70 81.14 27.00 269.88 3229.53
   02:02:19.437.28-Aug-2021 4879.00 7758.42 81.14 27.00 270.09 3229.53
   02:02:19.637.28-Aug-2021 4879.00 7758.42 81.14 27.00 270.29 3229.53
   02:02:19.837.28-Aug-2021 4879.00 7757.18 81.14 27.00 270.49 3229.53
   02:02:20.037.28-Aug-2021 4879.00 7756.93 81.14 27.00 270.69 3229.53
   02:02:20.237.28-Aug-2021 4879.00 7756.83 81.14 27.00 270.89 3229.53
   02:02:20.437.28-Aug-2021 4879.00 7756.64 81.14 27.00 271.09 3229.53
