~Version Information
 VERS.                  2.0:   CWLS log ASCII Standard -VERSION 2.0
 WRAP.                   NO:   One line per depth step
~Well Information Block
#MNEM.UNIT     VALUE/NAME     DESCRIPTION
#---------     -----------    ---------------------------
 STRT.S             22:57:07 27-Aug-21: START TIME 22:57:07 27-Aug-21
 STOP.S             23:04:14 27-Aug-21: STOP TIME  23:04:14 27-Aug-21
 STEP.S                   0.00: STEP TIME
 NULL.                 -999.25: NULL VALUE
 DFWT.                        :  DIST FWL TEXT
 DFST.                        :  DIST FSL TEXT
 DMF .             Drill Floor:  DRILL MEAS FROM
 STIM.      20.00.00 17-Aug-21:  START TIME
 DATE.      19.00.00 29-Aug-21:  END TIME
 SPUD.               15-Aug-21:  SPUD DATE
 NREF.                    Grid:  NORTH REFERENCE
 HPTY.       Minimum Curvature:  HOLE POS TYPE
 DMOD.             Drill Model:  DRILL MOD DESC
 SVYD.                  Survey:  SURVEY DESC
 ILTD.               Lithology:  INTERP LTH DESC
 FTOP.          Formation Tops:  FORM TOPS DESC
 RIG .              East Azeri:  RIG NAME
 PDAT.          Mean Sea Level:  PERMANENT DATUM
 FLD .                     ACG:  FIELD NAME
 SON .        AZ-XX-0907180857:  JOB NUMBER
 CTRY.              Azerbaijan:  COUNTRY NAME
 WELL.                    D23x:  WELL NAME
 SRVC.     Turan Drilling and Engineering:  CONTRACTOR
 COMP.     BP Exploration (Caspian Sea) Ltd.:  COMPANY
 UWI .            /AZE00000214:  UNIQUE WELL IDENTIFIER
 API .            /AZE00000214:  API NUMBER
 MDS .        Operator Entered:  MAG DATA SOURCE
 BASE.              Azerbaijan:  LOGGING EQUIPMENT BASE LOCATION
 REGN.                   EESSA:  REGION
 PROV.                    Baku:  PROVINCE
 STAT.                    Baku:  STATE NAME
 MWDS.                    Baku:  MWD SHOP
 DOE .                     N/A:  DOE NUMBER
 DCON.         Sperry Drilling:  DIRECTNL CONTR
 UNIT.                     N/A:  LOGGING EQUIPMENT ID
 WTYP.                Deviated:  WELL TYPE
 CNTY.                        :  COUNTY
 LOC .                        :  LOCATION
 LMF .             Drill Floor:  LOG MEASURED FROM
 TVDS.m                  43.60:  TVDSS CORRECTN
 LATI.deg                40.02:  LATITUDE
 LONG.deg                51.45:  LONGITUDE
 WHNS.m                  -7.04:  WELL HEAD N/S
 WHEW.m                  -0.67:  WELL HEAD E/W
 UTMX.m              538762.90:  UTM X
 UTMY.m             4431871.34:  UTM Y
 DFWL.m                   0.00:  DISTANCE FWL
 DFSL.m                   0.00:  DISTANCE FSL
 SDEP.m                4127.00:  START DEPTH
 TDD .m                5084.50:  TOTAL DEPTH (DRILLER)
 VSDR.deg               140.47:  VERT SEC DIRECT
 GVFD.g                   1.00:  GRAVITY FIELD
 MFLD.nT              50362.00:  MAGNETIC FIELD
 MDIP.deg                59.48:  MAGNETIC DIP
 MDEC.deg                 6.47:  MAGNETIC DECL
 GRDC.deg                 0.31:  GRID CORRECTION
 AZTC.deg                 6.16:  AZM TOTAL CORR
 EPD .m                   0.00:  ELEVATION
 EGL .m                   0.00:  GROUND ELEVATION
 WDMS.m                 151.80:  WD ELEV
 APD .m                  43.60:  DEPTH ABOVE PD
 DEP .m                4092.57:  DEPTH
 AGAP.m                  43.60:  AIR GAP
 VSEW.m                  -0.67:  VERT SEC E/W
 VSNS.m                  -7.04:  VERT SEC N/S
 EKB .m                  43.60:  KB ELEVATION
 EDF .m                  43.60:  DF ELEVATION
 TDL .m                 957.50:  TOTAL DEPTH (LOGGER)
 VSC .                       0:  VS TO CLOSURE
 MAGU.                 1851413:  MAGUTM CHECKSUM
~Parameter Information Block
#MNEM.UNIT       Value        Description
#---------     -----------    ---------------------------
 AV  .mps                 1.50:  Ann Velocity 
 AVMX.mps                 2.00:  Max Ann Veloc 
 AZIF.deg               184.66:  Azm, Final 
 BHAT.        Rotary Steerable:  BHA Type 
 BREV.rev               300.00:  Rev Bit Total 
 BROT.°/30m              -0.50:  Build Rotating 
 BS  .in                  8.50:  Bit Size 
 BSZ .in                  8.50:  Bit Size 
 BTPL.psig              370.00:  Bit Press Loss 
 CABU.                      No:  Customer Abuse 
 CGEO.      Behruz Shahbaliyev:  Customer Geo 
 TCS .hr                140.08:  Time Ciculation Ended 
 CV  .mps                 3.00:  Crit Velocity 
 CVMX.mps                 3.20:  Max Crit Veloc 
 DD1 .            Musa Ahmadov:  Direct Drillr 1 
 DD2 .           Hamid Ahmadov:  Direct Drillr 2 
 DDSV.               Geo-Pilot:  DD Service 
 DEFF.%                  98.40:  % Det Eff 
 DLRX.°/30m               3.40:  Dogleg Rot Max 
 DLSO.°/30m               1.45:  Dogleg Oriented 
 DLSX.°/30m               3.40:  Dogleg Str Max 
 DRET.      18.40.00 29-Aug-21:  Drill End Time 
 DRST.      21.00.00 20-Aug-21:  Drill Start Tim 
 DTIM.hr                 69.47:  Time Drilling 
 EDEP.m                5084.50:  End Depth 
 ENG1.      Artemiy Matviyanov:  Engineer 1 
 ENG2.         Almaz Almadatov:  Engineer 2 
 ETIM.      18.40.00 29-Aug-21:  End Time 
 FLOI.gpm               500.00:  Flow In 
 FLON.gpm               400.00:  Flow In Min 
 FLOS.cptm                0.00:  Fluid Loss 
 FLOX.gpm               500.00:  Flow In Max 
 DFT .        Mineral Oil Base:  Mud Type 
 HFLO.                      No:  High Flow 
 HPRE.                      No:  High Pressure 
 HTEM.                      No:  High Temp 
 HYDO.m                   1.80:  Hydro Offset 
 IFIN.deg                25.62:  Inc, Final 
 IMAX.deg                48.69:  Inc Max 
 IMIN.deg                24.01:  Inc Min 
 IMND.m                4962.57:  Inc Min Depth 
 IMXD.m                4119.01:  Inc Max Depth 
 JARR.                      No:  Jarring 
 LETM.      18.40.00 29-Aug-21:  Log End Time 
 LOST.hr                     0:  Lost Rig Time 
 LSTM.      21.00.00 20-Aug-21:  Log Start Time 
 MDCL.ppm             41500.00:  Mud Chlorides 
 MDES.     Inversion Oil/Synthetic:  Mud Desc 
 DFD .sg                  1.56:  Mud Density 
 MDMN.sg                  1.56:  Dens Mud Min 
 MDMX.sg                  1.56:  Dens Mud Max 
 MOIL.                      70:  Run Mud Oil % 
 MOWR.                   70:30:  Run Mud OWR 
 MSND.                     0.2:  Run Mud Sand % 
 MSOL.                    23.3:  Run Mud Solids% 
 DFV .spqt               78.00:  Mud Viscosity 
 MWOD.in                  6.75:  MWD Tool OD 
 MWSI.                      No:  Serv Intrp, MWD 
 OTIM.hr                218.30:  Time Operating 
 PCON.           Look Like New:  Pad Condition 
 PMAX.psia            11015.30:  Press Op, Max 
 PV  .cP                 38.00:  Mud PV 
 RUN .                     300:  Run Number 
 ROPA.m/hr               15.00:  ROP Avg 
 ROPN.m/hr                9.00:  ROP Min 
 ROPX.m/hr               17.00:  ROP Max 
 RPMA.rpm               120.00:  RPM Surface Avg 
 RPMN.rpm                90.00:  RPM Surface Min 
 RPMX.rpm               140.00:  RPM Surface Max 
 RRUN.                     300:  Rig Run Number 
 RTIM.hr                 31.53:  Time Reaming 
 SAZI.deg               331.64:  Azm, Start 
 SDEP.m                4127.00:  Start Depth 
 SIDD.                      No:  Serv Intrp, DD 
 SINC.deg                48.43:  Inc, Start 
 SPPA.psig             5830.00:  SPP Avg 
 SPPN.psig             5600.00:  SPP Min 
 SPPX.psig             5900.00:  SPP Max 
 STIM.      21.00.00 20-Aug-21:  Start Time 
 SVCS.                 DD, MWD:  Services 
 SVER.                    9.20:  Sperry Version 
 TDAT.m                 957.50:  Tot Depth Attmp 
 TDDF.                      No:  Trip for DD 
 TDLG.m                 957.50:  Tot Depth Loggd 
 TFF .                      No:  Trip for Fail 
 TQAA.f-kp               15.00:  Torque Abs Avg 
 TQAN.f-kp               12.00:  Torque Abs Min 
 TQAX.f-kp               19.00:  Torque Abs Max 
 TRRT.°/30m              -3.40:  Turn Rotating 
 MRT .                  EWR-M5:  Maximum Recorded Temperature 
 TTMX.degC              100.00:  Max Tool Temp 
 VS01.                90639251:  Virtual Str1 SN 
 VS02.                90634715:  Virtual Str2 SN 
 VS03.                90652479:  Virtual Str3 SN 
 VS04.                90642262:  Virtual Str4 SN 
 WBMN.klb                 0.00:  WOB Min 
 WITN.           Murad Guliyev:  Customer Rep 
 WITN.          Yashar Gaziyev:  Customer Rep 2 
 WOBA.klb                 9.00:  WOB Avg 
 WOBX.klb                12.00:  WOB Max 
 YP  .lhf2               30.00:  Yield Point 
~Curve Information Block
#MNEM.UNIT                 API CODE     Curve Description
#---------               -----------    ---------------------------
 TIME.HHMMSS            00 000 000 000:  GT Time & Date
 GTDEPTH.m              00 000 000 000:  GT Depth
 GTPQH.psia             00 000 000 000:  GT HR Quartz Pressure
 GTTQ.degC              00 000 000 000:  GT Quartz Temperature
 GTTN.NONE              00 000 000 000:  GT Test Number
 GTET.sec               00 000 000 000:  GT Elapsed Test Time
 GTTVD.m                00 000 000 000:  GT True Vertical Depth
#Other Information
#
#WARRANTY: Halliburton will use its best efforts to furnish customers with 
#accurate information and interpretations that are part of, and incident to, the services 
#provided.  However, Halliburton cannot and does not warrant the accuracy 
#or correctness of such information and interpretations.  Under no circumstances should any 
#such information or interpretation be relied upon as the sole basis for any drilling, 
#completion, production, or financial decision or any procedure involving any risk to the 
#safety of any drilling venture, drilling rig or its crew or any other third party.  The 
#Customer has full responsibility for all drilling, completion and production operation.  
#Halliburton makes no representations or warranties, either expressed or 
#implied, including, but not limited to, the implied warranties of merchantability or fitness 
#for a particular purpose, with respect to the services rendered.  In no event will 
#Halliburton be liable for failure to obtain any particular results or for 
#any damages, including, but not limited to, indirect, special or consequential damages, 
#resulting from the use of any information or interpretation provided by Halliburton.
#
~A           TIME           GTDEPTH  GTPQH  GTTQ  GTTN   GTET   GTTVD  
# ...
   23:00:53.846.27-Aug-2021 4636.60 4501.26 82.23 25.00 226.02 3010.11
   23:00:54.046.27-Aug-2021 4636.60 4501.26 82.23 25.00 226.22 3010.11
   23:00:54.246.27-Aug-2021 4636.60 4500.92 82.23 25.00 226.42 3010.11
   23:00:54.446.27-Aug-2021 4636.60 4501.38 82.23 25.00 226.62 3010.11
   23:00:54.646.27-Aug-2021 4636.60 4501.35 82.23 25.00 226.82 3010.11
   23:00:54.846.27-Aug-2021 4636.60 4501.32 82.23 25.00 227.02 3010.11
   23:00:55.046.27-Aug-2021 4636.60 4501.32 82.23 25.00 227.22 3010.11
   23:00:55.246.27-Aug-2021 4636.60 4500.65 82.23 25.00 227.42 3010.11
   23:00:55.446.27-Aug-2021 4636.60 4501.59 82.23 25.00 227.62 3010.11
   23:00:55.646.27-Aug-2021 4636.60 4501.38 82.23 25.00 227.82 3010.11
   23:00:55.846.27-Aug-2021 4636.60 4501.34 82.23 25.00 228.02 3010.11
   23:00:56.046.27-Aug-2021 4636.60 4501.34 82.23 25.00 228.22 3010.11
   23:00:56.246.27-Aug-2021 4636.60 4500.97 82.23 25.00 228.42 3010.11
   23:00:56.446.27-Aug-2021 4636.60 4501.30 82.23 25.00 228.62 3010.11
   23:00:56.646.27-Aug-2021 4636.60 4501.40 82.23 25.00 228.82 3010.11
   23:00:56.846.27-Aug-2021 4636.60 4501.36 82.23 25.00 229.02 3010.11
   23:00:57.046.27-Aug-2021 4636.60 4501.36 82.23 25.00 229.22 3010.11
   23:00:57.246.27-Aug-2021 4636.60 4501.34 82.23 25.00 229.42 3010.11
   23:00:57.446.27-Aug-2021 4636.60 4501.31 82.23 25.00 229.62 3010.11
   23:00:57.646.27-Aug-2021 4636.60 4501.31 82.23 25.00 229.82 3010.11
   23:00:57.846.27-Aug-2021 4636.60 4500.90 82.23 25.00 230.02 3010.11
   23:00:58.046.27-Aug-2021 4636.60 4500.90 82.23 25.00 230.22 3010.11
   23:00:58.246.27-Aug-2021 4636.60 4501.35 82.23 25.00 230.42 3010.11
   23:00:58.446.27-Aug-2021 4636.60 4501.33 82.23 25.00 230.62 3010.11
   23:00:58.646.27-Aug-2021 4636.60 4501.32 82.23 25.00 230.82 3010.11
   23:00:58.846.27-Aug-2021 4636.60 4501.31 82.23 25.00 231.02 3010.11
   23:00:59.046.27-Aug-2021 4636.60 4501.31 82.23 25.00 231.22 3010.11
   23:00:59.246.27-Aug-2021 4636.60 4501.29 82.23 25.00 231.42 3010.11
   23:00:59.446.27-Aug-2021 4636.60 4501.29 82.23 25.00 231.62 3010.11
   23:00:59.646.27-Aug-2021 4636.60 4501.29 82.23 25.00 231.82 3010.11
   23:00:59.846.27-Aug-2021 4636.60 4501.29 82.23 25.00 232.02 3010.11
   23:01:00.046.27-Aug-2021 4636.60 4501.29 82.23 25.00 232.22 3010.11
   23:01:00.246.27-Aug-2021 4636.60 4501.28 82.23 25.00 232.42 3010.11
   23:01:00.447.27-Aug-2021 4636.60 4501.27 82.23 25.00 232.62 3010.11
   23:01:00.647.27-Aug-2021 4636.60 4501.27 82.23 25.00 232.82 3010.11
   23:01:00.847.27-Aug-2021 4636.60 4500.66 82.23 25.00 233.02 3010.11
   23:01:01.047.27-Aug-2021 4636.60 4500.66 82.23 25.00 233.22 3010.11
   23:01:01.247.27-Aug-2021 4636.60 4501.38 82.23 25.00 233.42 3010.11
   23:01:01.447.27-Aug-2021 4636.60 4501.34 82.23 25.00 233.62 3010.11
   23:01:01.647.27-Aug-2021 4636.60 4501.32 82.23 25.00 233.82 3010.11
   23:01:01.847.27-Aug-2021 4636.60 4501.32 82.23 25.00 234.02 3010.11
   23:01:02.047.27-Aug-2021 4636.60 4501.32 82.23 25.00 234.22 3010.11
   23:01:02.247.27-Aug-2021 4636.60 4501.30 82.23 25.00 234.42 3010.11
   23:01:02.447.27-Aug-2021 4636.60 4501.30 82.23 25.00 234.62 3010.11
   23:01:02.647.27-Aug-2021 4636.60 4501.29 82.23 25.00 234.82 3010.11
   23:01:02.847.27-Aug-2021 4636.60 4501.29 82.23 25.00 235.02 3010.11
   23:01:03.047.27-Aug-2021 4636.60 4501.29 82.23 25.00 235.22 3010.11
   23:01:03.247.27-Aug-2021 4636.60 4501.29 82.23 25.00 235.42 3010.11
   23:01:03.447.27-Aug-2021 4636.60 4501.28 82.23 25.00 235.62 3010.11
   23:01:03.647.27-Aug-2021 4636.60 4501.27 82.23 25.00 235.82 3010.11
   23:01:03.847.27-Aug-2021 4636.60 4501.28 82.23 25.00 236.02 3010.11
   23:01:04.047.27-Aug-2021 4636.60 4501.28 82.23 25.00 236.22 3010.11
   23:01:04.247.27-Aug-2021 4636.60 4500.82 82.23 25.00 236.42 3010.11
   23:01:04.447.27-Aug-2021 4636.60 4501.51 82.23 25.00 236.62 3010.11
   23:01:04.647.27-Aug-2021 4636.60 4501.38 82.23 25.00 236.82 3010.11
   23:01:04.847.27-Aug-2021 4636.60 4501.35 82.23 25.00 237.02 3010.11
   23:01:05.047.27-Aug-2021 4636.60 4501.35 82.23 25.00 237.22 3010.11
   23:01:05.247.27-Aug-2021 4636.60 4501.00 82.23 25.00 237.42 3010.11
   23:01:05.447.27-Aug-2021 4636.60 4501.29 82.23 25.00 237.62 3010.11
   23:01:05.647.27-Aug-2021 4636.60 4501.40 82.23 25.00 237.82 3010.11
   23:01:05.847.27-Aug-2021 4636.60 4501.36 82.23 25.00 238.02 3010.11
   23:01:06.047.27-Aug-2021 4636.60 4501.36 82.23 25.00 238.22 3010.11
   23:01:06.247.27-Aug-2021 4636.60 4501.34 82.23 25.00 238.42 3010.11
   23:01:06.447.27-Aug-2021 4636.60 4500.94 82.23 25.00 238.62 3010.11
   23:01:06.647.27-Aug-2021 4636.60 4501.40 82.23 25.00 238.82 3010.11
   23:01:06.847.27-Aug-2021 4636.60 4501.37 82.23 25.00 239.02 3010.11
   23:01:07.047.27-Aug-2021 4636.60 4501.37 82.23 25.00 239.22 3010.11
   23:01:07.247.27-Aug-2021 4636.60 4501.33 82.23 25.00 239.42 3010.11
   23:01:07.447.27-Aug-2021 4636.60 4501.33 82.23 25.00 239.62 3010.11
   23:01:07.647.27-Aug-2021 4636.60 4501.32 82.23 25.00 239.82 3010.11
   23:01:07.847.27-Aug-2021 4636.60 4500.81 82.23 25.00 240.02 3010.11
   23:01:08.047.27-Aug-2021 4636.60 4500.81 82.23 25.00 240.22 3010.11
   23:01:08.247.27-Aug-2021 4636.60 4501.37 82.23 25.00 240.42 3010.11
   23:01:08.447.27-Aug-2021 4636.60 4501.35 82.23 25.00 240.62 3010.11
   23:01:08.647.27-Aug-2021 4636.60 4501.34 82.23 25.00 240.82 3010.11
   23:01:08.847.27-Aug-2021 4636.60 4501.34 82.23 25.00 241.02 3010.11
   23:01:09.047.27-Aug-2021 4636.60 4501.34 82.23 25.00 241.22 3010.11
   23:01:09.247.27-Aug-2021 4636.60 4501.32 82.23 25.00 241.42 3010.11
   23:01:09.447.27-Aug-2021 4636.60 4501.32 82.23 25.00 241.62 3010.11
   23:01:09.647.27-Aug-2021 4636.60 4501.31 82.23 25.00 241.82 3010.11
   23:01:09.847.27-Aug-2021 4636.60 4501.31 82.23 25.00 242.02 3010.11
   23:01:10.047.27-Aug-2021 4636.60 4501.31 82.23 25.00 242.22 3010.11
   23:01:10.248.27-Aug-2021 4636.60 4501.31 82.23 25.00 242.42 3010.11
   23:01:10.448.27-Aug-2021 4636.60 4501.31 82.23 25.00 242.62 3010.11
   23:01:10.648.27-Aug-2021 4636.60 4501.30 82.23 25.00 242.82 3010.11
   23:01:10.848.27-Aug-2021 4636.60 4501.00 82.23 25.00 243.02 3010.11
   23:01:11.048.27-Aug-2021 4636.60 4501.00 82.23 25.00 243.22 3010.11
   23:01:11.248.27-Aug-2021 4636.60 4501.40 82.23 25.00 243.42 3010.11
   23:01:11.448.27-Aug-2021 4636.60 4501.35 82.23 25.00 243.62 3010.11
   23:01:11.648.27-Aug-2021 4636.60 4501.34 82.23 25.00 243.82 3010.11
   23:01:11.848.27-Aug-2021 4636.60 4501.35 82.23 25.00 244.02 3010.11
   23:01:12.048.27-Aug-2021 4636.60 4501.35 82.23 25.00 244.22 3010.11
   23:01:12.248.27-Aug-2021 4636.60 4501.32 82.23 25.00 244.42 3010.11
   23:01:12.448.27-Aug-2021 4636.60 4501.32 82.23 25.00 244.63 3010.11
   23:01:12.648.27-Aug-2021 4636.60 4501.31 82.23 25.00 244.83 3010.11
   23:01:12.848.27-Aug-2021 4636.60 4501.32 82.23 25.00 245.03 3010.11
   23:01:13.048.27-Aug-2021 4636.60 4501.32 82.23 25.00 245.23 3010.11
   23:01:13.248.27-Aug-2021 4636.60 4501.31 82.23 25.00 245.43 3010.11
   23:01:13.448.27-Aug-2021 4636.60 4501.31 82.23 25.00 245.63 3010.11
   23:01:13.648.27-Aug-2021 4636.60 4501.30 82.23 25.00 245.83 3010.11
   23:01:13.848.27-Aug-2021 4636.60 4501.31 82.23 25.00 246.03 3010.11
   23:01:14.048.27-Aug-2021 4636.60 4501.31 82.23 25.00 246.23 3010.11
   23:01:14.248.27-Aug-2021 4636.60 4500.70 82.23 25.00 246.43 3010.11
   23:01:14.448.27-Aug-2021 4636.60 4501.63 82.23 25.00 246.63 3010.11
   23:01:14.648.27-Aug-2021 4636.60 4501.40 82.23 25.00 246.83 3010.11
   23:01:14.848.27-Aug-2021 4636.60 4501.37 82.23 25.00 247.03 3010.11
   23:01:15.048.27-Aug-2021 4636.60 4501.37 82.23 25.00 247.23 3010.11
   23:01:15.248.27-Aug-2021 4636.60 4501.35 82.23 25.00 247.43 3010.11
   23:01:15.448.27-Aug-2021 4636.60 4500.94 82.23 25.00 247.63 3010.11
   23:01:15.648.27-Aug-2021 4636.60 4501.45 82.23 25.00 247.83 3010.11
   23:01:15.848.27-Aug-2021 4636.60 4501.38 82.23 25.00 248.03 3010.11
   23:01:16.048.27-Aug-2021 4636.60 4501.38 82.23 25.00 248.23 3010.11
   23:01:16.248.27-Aug-2021 4636.60 4501.35 82.23 25.00 248.43 3010.11
