~Version Information
 VERS.                  2.0:   CWLS log ASCII Standard -VERSION 2.0
 WRAP.                   NO:   One line per depth step
~Well Information Block
#MNEM.UNIT     VALUE/NAME     DESCRIPTION
#---------     -----------    ---------------------------
 STRT.S             07:46:52 27-Aug-21: START TIME 07:46:52 27-Aug-21
 STOP.S             07:54:09 27-Aug-21: STOP TIME  07:54:09 27-Aug-21
 STEP.S                   0.00: STEP TIME
 NULL.                 -999.25: NULL VALUE
 DFWT.                        :  DIST FWL TEXT
 DFST.                        :  DIST FSL TEXT
 DMF .             Drill Floor:  DRILL MEAS FROM
 STIM.      20.00.00 17-Aug-21:  START TIME
 DATE.      19.00.00 29-Aug-21:  END TIME
 SPUD.               15-Aug-21:  SPUD DATE
 NREF.                    Grid:  NORTH REFERENCE
 HPTY.       Minimum Curvature:  HOLE POS TYPE
 DMOD.             Drill Model:  DRILL MOD DESC
 SVYD.                  Survey:  SURVEY DESC
 ILTD.               Lithology:  INTERP LTH DESC
 FTOP.          Formation Tops:  FORM TOPS DESC
 RIG .              East Azeri:  RIG NAME
 PDAT.          Mean Sea Level:  PERMANENT DATUM
 FLD .                     ACG:  FIELD NAME
 SON .        AZ-XX-0907180857:  JOB NUMBER
 CTRY.              Azerbaijan:  COUNTRY NAME
 WELL.                    D23x:  WELL NAME
 SRVC.     Turan Drilling and Engineering:  CONTRACTOR
 COMP.     BP Exploration (Caspian Sea) Ltd.:  COMPANY
 UWI .            /AZE00000214:  UNIQUE WELL IDENTIFIER
 API .            /AZE00000214:  API NUMBER
 MDS .        Operator Entered:  MAG DATA SOURCE
 BASE.              Azerbaijan:  LOGGING EQUIPMENT BASE LOCATION
 REGN.                   EESSA:  REGION
 PROV.                    Baku:  PROVINCE
 STAT.                    Baku:  STATE NAME
 MWDS.                    Baku:  MWD SHOP
 DOE .                     N/A:  DOE NUMBER
 DCON.         Sperry Drilling:  DIRECTNL CONTR
 UNIT.                     N/A:  LOGGING EQUIPMENT ID
 WTYP.                Deviated:  WELL TYPE
 CNTY.                        :  COUNTY
 LOC .                        :  LOCATION
 LMF .             Drill Floor:  LOG MEASURED FROM
 TVDS.m                  43.60:  TVDSS CORRECTN
 LATI.deg                40.02:  LATITUDE
 LONG.deg                51.45:  LONGITUDE
 WHNS.m                  -7.04:  WELL HEAD N/S
 WHEW.m                  -0.67:  WELL HEAD E/W
 UTMX.m              538762.90:  UTM X
 UTMY.m             4431871.34:  UTM Y
 DFWL.m                   0.00:  DISTANCE FWL
 DFSL.m                   0.00:  DISTANCE FSL
 SDEP.m                4127.00:  START DEPTH
 TDD .m                5084.50:  TOTAL DEPTH (DRILLER)
 VSDR.deg               140.47:  VERT SEC DIRECT
 GVFD.g                   1.00:  GRAVITY FIELD
 MFLD.nT              50362.00:  MAGNETIC FIELD
 MDIP.deg                59.48:  MAGNETIC DIP
 MDEC.deg                 6.47:  MAGNETIC DECL
 GRDC.deg                 0.31:  GRID CORRECTION
 AZTC.deg                 6.16:  AZM TOTAL CORR
 EPD .m                   0.00:  ELEVATION
 EGL .m                   0.00:  GROUND ELEVATION
 WDMS.m                 151.80:  WD ELEV
 APD .m                  43.60:  DEPTH ABOVE PD
 DEP .m                4092.57:  DEPTH
 AGAP.m                  43.60:  AIR GAP
 VSEW.m                  -0.67:  VERT SEC E/W
 VSNS.m                  -7.04:  VERT SEC N/S
 EKB .m                  43.60:  KB ELEVATION
 EDF .m                  43.60:  DF ELEVATION
 TDL .m                 957.50:  TOTAL DEPTH (LOGGER)
 VSC .                       0:  VS TO CLOSURE
 MAGU.                 1851413:  MAGUTM CHECKSUM
~Parameter Information Block
#MNEM.UNIT       Value        Description
#---------     -----------    ---------------------------
 AV  .mps                 1.50:  Ann Velocity 
 AVMX.mps                 2.00:  Max Ann Veloc 
 AZIF.deg               184.66:  Azm, Final 
 BHAT.        Rotary Steerable:  BHA Type 
 BREV.rev               300.00:  Rev Bit Total 
 BROT.°/30m              -0.50:  Build Rotating 
 BS  .in                  8.50:  Bit Size 
 BSZ .in                  8.50:  Bit Size 
 BTPL.psig              370.00:  Bit Press Loss 
 CABU.                      No:  Customer Abuse 
 CGEO.      Behruz Shahbaliyev:  Customer Geo 
 COMM.                     T\d:  Run Comments 1 
 TCS .hr                140.08:  Time Ciculation Ended 
 CV  .mps                 3.00:  Crit Velocity 
 CVMX.mps                 3.20:  Max Crit Veloc 
 DD1 .            Musa Ahmadov:  Direct Drillr 1 
 DD2 .           Hamid Ahmadov:  Direct Drillr 2 
 DDSV.               Geo-Pilot:  DD Service 
 DEFF.%                  98.40:  % Det Eff 
 DLRX.°/30m               3.40:  Dogleg Rot Max 
 DLSO.°/30m               1.45:  Dogleg Oriented 
 DLSX.°/30m               3.40:  Dogleg Str Max 
 DRET.      18.40.00 29-Aug-21:  Drill End Time 
 DRST.      21.00.00 20-Aug-21:  Drill Start Tim 
 DTIM.hr                 69.47:  Time Drilling 
 EDEP.m                5084.50:  End Depth 
 ENG1.      Artemiy Matviyanov:  Engineer 1 
 ENG2.         Almaz Almadatov:  Engineer 2 
 ETIM.      18.40.00 29-Aug-21:  End Time 
 FLOI.gpm               500.00:  Flow In 
 FLON.gpm               400.00:  Flow In Min 
 FLOS.cptm                0.00:  Fluid Loss 
 FLOX.gpm               500.00:  Flow In Max 
 DFT .        Mineral Oil Base:  Mud Type 
 HFLO.                      No:  High Flow 
 HPRE.                      No:  High Pressure 
 HTEM.                      No:  High Temp 
 HYDO.m                   1.80:  Hydro Offset 
 IFIN.deg                25.62:  Inc, Final 
 IMAX.deg                48.69:  Inc Max 
 IMIN.deg                24.01:  Inc Min 
 IMND.m                4962.57:  Inc Min Depth 
 IMXD.m                4119.01:  Inc Max Depth 
 JARR.                      No:  Jarring 
 LETM.      18.40.00 29-Aug-21:  Log End Time 
 LOST.hr                     0:  Lost Rig Time 
 LSTM.      21.00.00 20-Aug-21:  Log Start Time 
 MDCL.ppm             41500.00:  Mud Chlorides 
 MDES.     Inversion Oil/Synthetic:  Mud Desc 
 DFD .sg                  1.56:  Mud Density 
 MDMN.sg                  1.56:  Dens Mud Min 
 MDMX.sg                  1.56:  Dens Mud Max 
 MOIL.                      70:  Run Mud Oil % 
 MOWR.                   70:30:  Run Mud OWR 
 MSND.                     0.2:  Run Mud Sand % 
 MSOL.                    23.3:  Run Mud Solids% 
 DFV .spqt               78.00:  Mud Viscosity 
 MWOD.in                  6.75:  MWD Tool OD 
 MWSI.                      No:  Serv Intrp, MWD 
 OTIM.hr                218.30:  Time Operating 
 PCON.           Look Like New:  Pad Condition 
 PMAX.psia            11015.30:  Press Op, Max 
 PV  .cP                 38.00:  Mud PV 
 RUN .                     300:  Run Number 
 ROPA.m/hr               15.00:  ROP Avg 
 ROPN.m/hr                9.00:  ROP Min 
 ROPX.m/hr               17.00:  ROP Max 
 RPMA.rpm               120.00:  RPM Surface Avg 
 RPMN.rpm                90.00:  RPM Surface Min 
 RPMX.rpm               140.00:  RPM Surface Max 
 RRUN.                     300:  Rig Run Number 
 RTIM.hr                 31.53:  Time Reaming 
 SAZI.deg               331.64:  Azm, Start 
 SDEP.m                4127.00:  Start Depth 
 SIDD.                      No:  Serv Intrp, DD 
 SINC.deg                48.43:  Inc, Start 
 SPPA.psig             5830.00:  SPP Avg 
 SPPN.psig             5600.00:  SPP Min 
 SPPX.psig             5900.00:  SPP Max 
 STIM.      21.00.00 20-Aug-21:  Start Time 
 SVCS.                 DD, MWD:  Services 
 SVER.                    9.20:  Sperry Version 
 TDAT.m                 957.50:  Tot Depth Attmp 
 TDDF.                      No:  Trip for DD 
 TDLG.m                 957.50:  Tot Depth Loggd 
 TFF .                      No:  Trip for Fail 
 TQAA.f-kp               15.00:  Torque Abs Avg 
 TQAN.f-kp               12.00:  Torque Abs Min 
 TQAX.f-kp               19.00:  Torque Abs Max 
 TRRT.°/30m              -3.40:  Turn Rotating 
 MRT .                  EWR-M5:  Maximum Recorded Temperature 
 TTMX.degC              100.00:  Max Tool Temp 
 VS01.                90639251:  Virtual Str1 SN 
 VS02.                90634715:  Virtual Str2 SN 
 VS03.                90652479:  Virtual Str3 SN 
 VS04.                90642262:  Virtual Str4 SN 
 WBMN.klb                 0.00:  WOB Min 
 WITN.           Murad Guliyev:  Customer Rep 
 WITN.          Yashar Gaziyev:  Customer Rep 2 
 WOBA.klb                 9.00:  WOB Avg 
 WOBX.klb                12.00:  WOB Max 
 YP  .lhf2               30.00:  Yield Point 
~Curve Information Block
#MNEM.UNIT                 API CODE     Curve Description
#---------               -----------    ---------------------------
 TIME.HHMMSS            00 000 000 000:  GT Time & Date
 GTDEPTH.m              00 000 000 000:  GT Depth
 GTPQH.psia             00 000 000 000:  GT HR Quartz Pressure
 GTTQ.degC              00 000 000 000:  GT Quartz Temperature
 GTTN.NONE              00 000 000 000:  GT Test Number
 GTET.sec               00 000 000 000:  GT Elapsed Test Time
 GTTVD.m                00 000 000 000:  GT True Vertical Depth
#Other Information
#
#WARRANTY: Halliburton will use its best efforts to furnish customers with 
#accurate information and interpretations that are part of, and incident to, the services 
#provided.  However, Halliburton cannot and does not warrant the accuracy 
#or correctness of such information and interpretations.  Under no circumstances should any 
#such information or interpretation be relied upon as the sole basis for any drilling, 
#completion, production, or financial decision or any procedure involving any risk to the 
#safety of any drilling venture, drilling rig or its crew or any other third party.  The 
#Customer has full responsibility for all drilling, completion and production operation.  
#Halliburton makes no representations or warranties, either expressed or 
#implied, including, but not limited to, the implied warranties of merchantability or fitness 
#for a particular purpose, with respect to the services rendered.  In no event will 
#Halliburton be liable for failure to obtain any particular results or for 
#any damages, including, but not limited to, indirect, special or consequential damages, 
#resulting from the use of any information or interpretation provided by Halliburton.
#
~A           TIME           GTDEPTH  GTPQH  GTTQ  GTTN  GTET   GTTVD  
# ...
   07:47:38.538.27-Aug-2021 5003.00 7978.60 87.48 4.00  46.01 3342.33
   07:47:38.738.27-Aug-2021 5003.00 7978.60 87.48 4.00  46.21 3342.33
   07:47:38.938.27-Aug-2021 5003.00 7979.07 87.48 4.00  46.41 3342.33
   07:47:39.138.27-Aug-2021 5003.00 7979.75 87.48 4.00  46.61 3342.33
   07:47:39.338.27-Aug-2021 5003.00 7978.84 87.48 4.00  46.81 3342.33
   07:47:39.538.27-Aug-2021 5003.00 7979.07 87.48 4.00  47.01 3342.33
   07:47:39.738.27-Aug-2021 5003.00 7979.07 87.48 4.00  47.21 3342.33
   07:47:39.938.27-Aug-2021 5003.00 7980.24 87.48 4.00  47.41 3342.33
   07:47:40.138.27-Aug-2021 5003.00 7981.23 87.48 4.00  47.61 3342.33
   07:47:40.338.27-Aug-2021 5003.00 7980.73 87.48 4.00  47.81 3342.33
   07:47:40.538.27-Aug-2021 5003.00 7980.33 87.48 4.00  48.01 3342.33
   07:47:40.738.27-Aug-2021 5003.00 7980.33 87.48 4.00  48.21 3342.33
   07:47:40.938.27-Aug-2021 5003.00 7980.20 87.48 4.00  48.41 3342.33
   07:47:41.138.27-Aug-2021 5003.00 7980.14 87.48 4.00  48.61 3342.33
   07:47:41.338.27-Aug-2021 5003.00 7982.14 87.48 4.00  48.81 3342.33
   07:47:41.538.27-Aug-2021 5003.00 7982.02 87.48 4.00  49.01 3342.33
   07:47:41.738.27-Aug-2021 5003.00 7982.02 87.48 4.00  49.21 3342.33
   07:47:41.938.27-Aug-2021 5003.00 7979.55 87.47 4.00  49.41 3342.33
   07:47:42.139.27-Aug-2021 5003.00 7980.02 87.47 4.00  49.61 3342.33
   07:47:42.339.27-Aug-2021 5003.00 7986.17 87.47 4.00  49.81 3342.33
   07:47:42.539.27-Aug-2021 5003.00 7980.40 87.47 4.00  50.01 3342.33
   07:47:42.739.27-Aug-2021 5003.00 7980.40 87.47 4.00  50.21 3342.33
   07:47:42.939.27-Aug-2021 5003.00 7979.73 87.47 4.00  50.41 3342.33
   07:47:43.139.27-Aug-2021 5003.00 7986.11 87.47 4.00  50.61 3342.33
   07:47:43.339.27-Aug-2021 5003.00 7980.80 87.47 4.00  50.81 3342.33
   07:47:43.539.27-Aug-2021 5003.00 7981.82 87.47 4.00  51.01 3342.33
   07:47:43.739.27-Aug-2021 5003.00 7981.82 87.47 4.00  51.21 3342.33
   07:47:43.939.27-Aug-2021 5003.00 7983.87 87.47 4.00  51.41 3342.33
   07:47:44.139.27-Aug-2021 5003.00 7982.20 87.47 4.00  51.61 3342.33
   07:47:44.339.27-Aug-2021 5003.00 7981.37 87.47 4.00  51.81 3342.33
   07:47:44.539.27-Aug-2021 5003.00 7981.75 87.47 4.00  52.01 3342.33
   07:47:44.739.27-Aug-2021 5003.00 7981.75 87.47 4.00  52.21 3342.33
   07:47:44.939.27-Aug-2021 5003.00 7981.59 87.47 4.00  52.41 3342.33
   07:47:45.139.27-Aug-2021 5003.00 7990.77 87.47 4.00  52.61 3342.33
   07:47:45.339.27-Aug-2021 5003.00 8028.67 87.47 4.00  52.81 3342.33
   07:47:45.539.27-Aug-2021 5003.00 8103.95 87.47 4.00  53.01 3342.33
   07:47:45.739.27-Aug-2021 5003.00 8103.95 87.47 4.00  53.21 3342.33
   07:47:45.939.27-Aug-2021 5003.00 8129.68 87.47 4.00  53.41 3342.33
   07:47:46.139.27-Aug-2021 5003.00 8118.21 87.47 4.00  53.61 3342.33
   07:47:46.339.27-Aug-2021 5003.00 8121.66 87.47 4.00  53.81 3342.33
   07:47:46.539.27-Aug-2021 5003.00 8133.93 87.47 4.00  54.01 3342.33
   07:47:46.739.27-Aug-2021 5003.00 8133.93 87.47 4.00  54.21 3342.33
   07:47:46.939.27-Aug-2021 5003.00 8113.41 87.47 4.00  54.41 3342.33
   07:47:47.139.27-Aug-2021 5003.00 8115.51 87.47 4.00  54.61 3342.33
   07:47:47.339.27-Aug-2021 5003.00 8103.56 87.47 4.00  54.81 3342.33
   07:47:47.539.27-Aug-2021 5003.00 8094.14 87.47 4.00  55.01 3342.33
   07:47:47.739.27-Aug-2021 5003.00 8094.14 87.47 4.00  55.21 3342.33
   07:47:47.939.27-Aug-2021 5003.00 8065.96 87.47 4.00  55.41 3342.33
   07:47:48.140.27-Aug-2021 5003.00 8062.51 87.47 4.00  55.61 3342.33
   07:47:48.340.27-Aug-2021 5003.00 8058.14 87.47 4.00  55.81 3342.33
   07:47:48.540.27-Aug-2021 5003.00 8037.45 87.47 4.00  56.01 3342.33
   07:47:48.740.27-Aug-2021 5003.00 8037.45 87.47 4.00  56.21 3342.33
   07:47:48.940.27-Aug-2021 5003.00 8041.11 87.47 4.00  56.41 3342.33
   07:47:49.140.27-Aug-2021 5003.00 8042.63 87.47 4.00  56.61 3342.33
   07:47:49.340.27-Aug-2021 5003.00 8043.41 87.47 4.00  56.81 3342.33
   07:47:49.540.27-Aug-2021 5003.00 8043.50 87.47 4.00  57.01 3342.33
   07:47:49.740.27-Aug-2021 5003.00 8043.50 87.47 4.00  57.21 3342.33
   07:47:49.940.27-Aug-2021 5003.00 8043.28 87.47 4.00  57.41 3342.33
   07:47:50.140.27-Aug-2021 5003.00 8043.38 87.47 4.00  57.61 3342.33
   07:47:50.340.27-Aug-2021 5003.00 8043.26 87.47 4.00  57.81 3342.33
   07:47:50.540.27-Aug-2021 5003.00 8048.15 87.47 4.00  58.01 3342.33
   07:47:50.740.27-Aug-2021 5003.00 8048.15 87.47 4.00  58.21 3342.33
   07:47:50.940.27-Aug-2021 5003.00 8039.83 87.47 4.00  58.41 3342.33
   07:47:51.140.27-Aug-2021 5003.00 8038.63 87.47 4.00  58.61 3342.33
   07:47:51.340.27-Aug-2021 5003.00 8039.42 87.47 4.00  58.81 3342.33
   07:47:51.540.27-Aug-2021 5003.00 8044.63 87.47 4.00  59.01 3342.33
   07:47:51.740.27-Aug-2021 5003.00 8044.63 87.47 4.00  59.21 3342.33
   07:47:51.940.27-Aug-2021 5003.00 8038.41 87.47 4.00  59.41 3342.33
   07:47:52.140.27-Aug-2021 5003.00 8038.43 87.47 4.00  59.61 3342.33
   07:47:52.340.27-Aug-2021 5003.00 8041.28 87.47 4.00  59.81 3342.33
   07:47:52.540.27-Aug-2021 5003.00 7955.40 87.47 4.00  60.01 3342.33
   07:47:52.740.27-Aug-2021 5003.00 7955.40 87.47 4.00  60.21 3342.33
   07:47:52.940.27-Aug-2021 5003.00 7559.77 87.47 4.00  60.41 3342.33
   07:47:53.140.27-Aug-2021 5003.00 6999.87 87.47 4.00  60.61 3342.33
   07:47:53.340.27-Aug-2021 5003.00 6227.83 87.47 4.00  60.81 3342.33
   07:47:53.540.27-Aug-2021 5003.00 5398.67 87.47 4.00  61.01 3342.33
   07:47:53.740.27-Aug-2021 5003.00 5398.67 87.47 4.00  61.21 3342.33
   07:47:53.940.27-Aug-2021 5003.00 4235.59 87.47 4.00  61.41 3342.33
   07:47:54.140.27-Aug-2021 5003.00 4217.52 87.47 4.00  61.61 3342.33
   07:47:54.341.27-Aug-2021 5003.00 4221.48 87.46 4.00  61.81 3342.33
   07:47:54.541.27-Aug-2021 5003.00 4231.61 87.46 4.00  62.01 3342.33
   07:47:54.741.27-Aug-2021 5003.00 4231.61 87.46 4.00  62.21 3342.33
   07:47:54.941.27-Aug-2021 5003.00 4228.39 87.46 4.00  62.41 3342.33
   07:47:55.141.27-Aug-2021 5003.00 4229.59 87.46 4.00  62.61 3342.33
   07:47:55.341.27-Aug-2021 5003.00 4230.03 87.45 4.00  62.81 3342.33
   07:47:55.541.27-Aug-2021 5003.00 4229.97 87.45 4.00  63.01 3342.33
   07:47:55.741.27-Aug-2021 5003.00 4229.97 87.45 4.00  63.21 3342.33
   07:47:55.941.27-Aug-2021 5003.00 4231.53 87.44 4.00  63.41 3342.33
   07:47:56.141.27-Aug-2021 5003.00 4230.08 87.44 4.00  63.61 3342.33
   07:47:56.341.27-Aug-2021 5003.00 4229.79 87.44 4.00  63.81 3342.33
   07:47:56.541.27-Aug-2021 5003.00 4230.14 87.44 4.00  64.01 3342.33
   07:47:56.741.27-Aug-2021 5003.00 4230.14 87.44 4.00  64.21 3342.33
   07:47:56.941.27-Aug-2021 5003.00 4230.02 87.43 4.00  64.41 3342.33
   07:47:57.141.27-Aug-2021 5003.00 4229.36 87.43 4.00  64.61 3342.33
   07:47:57.341.27-Aug-2021 5003.00 4228.87 87.42 4.00  64.81 3342.33
   07:47:57.541.27-Aug-2021 5003.00 4229.43 87.42 4.00  65.01 3342.33
   07:47:57.741.27-Aug-2021 5003.00 4229.43 87.42 4.00  65.21 3342.33
   07:47:57.941.27-Aug-2021 5003.00 4233.32 87.42 4.00  65.41 3342.33
   07:47:58.141.27-Aug-2021 5003.00 4233.50 87.41 4.00  65.61 3342.33
   07:47:58.341.27-Aug-2021 5003.00 4231.20 87.41 4.00  65.81 3342.33
   07:47:58.541.27-Aug-2021 5003.00 4230.87 87.41 4.00  66.01 3342.33
   07:47:58.741.27-Aug-2021 5003.00 4230.87 87.41 4.00  66.21 3342.33
   07:47:58.941.27-Aug-2021 5003.00 4230.93 87.40 4.00  66.41 3342.33
   07:47:59.141.27-Aug-2021 5003.00 4231.00 87.40 4.00  66.61 3342.33
   07:47:59.341.27-Aug-2021 5003.00 4231.31 87.40 4.00  66.81 3342.33
   07:47:59.541.27-Aug-2021 5003.00 4231.35 87.40 4.00  67.01 3342.33
   07:47:59.741.27-Aug-2021 5003.00 4231.35 87.40 4.00  67.21 3342.33
   07:47:59.941.27-Aug-2021 5003.00 4230.91 87.39 4.00  67.41 3342.33
   07:48:00.141.27-Aug-2021 5003.00 4230.91 87.39 4.00  67.61 3342.33
   07:48:00.342.27-Aug-2021 5003.00 4231.05 87.39 4.00  67.81 3342.33
   07:48:00.542.27-Aug-2021 5003.00 4229.98 87.39 4.00  68.01 3342.33
   07:48:00.742.27-Aug-2021 5003.00 4229.98 87.39 4.00  68.21 3342.33
   07:48:00.942.27-Aug-2021 5003.00 4229.95 87.38 4.00  68.41 3342.33
   07:48:01.142.27-Aug-2021 5003.00 4230.14 87.38 4.00  68.61 3342.33
   07:48:01.342.27-Aug-2021 5003.00 4230.33 87.38 4.00  68.81 3342.33
