~Version Information
 VERS.                  2.0:   CWLS log ASCII Standard -VERSION 2.0
 WRAP.                   NO:   One line per depth step
~Well Information Block
#MNEM.UNIT     VALUE/NAME     DESCRIPTION
#---------     -----------    ---------------------------
 STRT.S             10:43:45 27-Aug-21: START TIME 10:43:45 27-Aug-21
 STOP.S             10:50:54 27-Aug-21: STOP TIME  10:50:54 27-Aug-21
 STEP.S                   0.00: STEP TIME
 NULL.                 -999.25: NULL VALUE
 DFWT.                        :  DIST FWL TEXT
 DFST.                        :  DIST FSL TEXT
 DMF .             Drill Floor:  DRILL MEAS FROM
 STIM.      20.00.00 17-Aug-21:  START TIME
 DATE.      19.00.00 29-Aug-21:  END TIME
 SPUD.               15-Aug-21:  SPUD DATE
 NREF.                    Grid:  NORTH REFERENCE
 HPTY.       Minimum Curvature:  HOLE POS TYPE
 DMOD.             Drill Model:  DRILL MOD DESC
 SVYD.                  Survey:  SURVEY DESC
 ILTD.               Lithology:  INTERP LTH DESC
 FTOP.          Formation Tops:  FORM TOPS DESC
 RIG .              East Azeri:  RIG NAME
 PDAT.          Mean Sea Level:  PERMANENT DATUM
 FLD .                     ACG:  FIELD NAME
 SON .        AZ-XX-0907180857:  JOB NUMBER
 CTRY.              Azerbaijan:  COUNTRY NAME
 WELL.                    D23x:  WELL NAME
 SRVC.     Turan Drilling and Engineering:  CONTRACTOR
 COMP.     BP Exploration (Caspian Sea) Ltd.:  COMPANY
 UWI .            /AZE00000214:  UNIQUE WELL IDENTIFIER
 API .            /AZE00000214:  API NUMBER
 MDS .        Operator Entered:  MAG DATA SOURCE
 BASE.              Azerbaijan:  LOGGING EQUIPMENT BASE LOCATION
 REGN.                   EESSA:  REGION
 PROV.                    Baku:  PROVINCE
 STAT.                    Baku:  STATE NAME
 MWDS.                    Baku:  MWD SHOP
 DOE .                     N/A:  DOE NUMBER
 DCON.         Sperry Drilling:  DIRECTNL CONTR
 UNIT.                     N/A:  LOGGING EQUIPMENT ID
 WTYP.                Deviated:  WELL TYPE
 CNTY.                        :  COUNTY
 LOC .                        :  LOCATION
 LMF .             Drill Floor:  LOG MEASURED FROM
 TVDS.m                  43.60:  TVDSS CORRECTN
 LATI.deg                40.02:  LATITUDE
 LONG.deg                51.45:  LONGITUDE
 WHNS.m                  -7.04:  WELL HEAD N/S
 WHEW.m                  -0.67:  WELL HEAD E/W
 UTMX.m              538762.90:  UTM X
 UTMY.m             4431871.34:  UTM Y
 DFWL.m                   0.00:  DISTANCE FWL
 DFSL.m                   0.00:  DISTANCE FSL
 SDEP.m                4127.00:  START DEPTH
 TDD .m                5084.50:  TOTAL DEPTH (DRILLER)
 VSDR.deg               140.47:  VERT SEC DIRECT
 GVFD.g                   1.00:  GRAVITY FIELD
 MFLD.nT              50362.00:  MAGNETIC FIELD
 MDIP.deg                59.48:  MAGNETIC DIP
 MDEC.deg                 6.47:  MAGNETIC DECL
 GRDC.deg                 0.31:  GRID CORRECTION
 AZTC.deg                 6.16:  AZM TOTAL CORR
 EPD .m                   0.00:  ELEVATION
 EGL .m                   0.00:  GROUND ELEVATION
 WDMS.m                 151.80:  WD ELEV
 APD .m                  43.60:  DEPTH ABOVE PD
 DEP .m                4092.57:  DEPTH
 AGAP.m                  43.60:  AIR GAP
 VSEW.m                  -0.67:  VERT SEC E/W
 VSNS.m                  -7.04:  VERT SEC N/S
 EKB .m                  43.60:  KB ELEVATION
 EDF .m                  43.60:  DF ELEVATION
 TDL .m                 957.50:  TOTAL DEPTH (LOGGER)
 VSC .                       0:  VS TO CLOSURE
 MAGU.                 1851413:  MAGUTM CHECKSUM
~Parameter Information Block
#MNEM.UNIT       Value        Description
#---------     -----------    ---------------------------
 AV  .mps                 1.50:  Ann Velocity 
 AVMX.mps                 2.00:  Max Ann Veloc 
 AZIF.deg               184.66:  Azm, Final 
 BHAT.        Rotary Steerable:  BHA Type 
 BREV.rev               300.00:  Rev Bit Total 
 BROT.°/30m              -0.50:  Build Rotating 
 BS  .in                  8.50:  Bit Size 
 BSZ .in                  8.50:  Bit Size 
 BTPL.psig              370.00:  Bit Press Loss 
 CABU.                      No:  Customer Abuse 
 CGEO.      Behruz Shahbaliyev:  Customer Geo 
 COMM.                     $K:  Run Comments 1 
 TCS .hr                140.08:  Time Ciculation Ended 
 CV  .mps                 3.00:  Crit Velocity 
 CVMX.mps                 3.20:  Max Crit Veloc 
 DD1 .            Musa Ahmadov:  Direct Drillr 1 
 DD2 .           Hamid Ahmadov:  Direct Drillr 2 
 DDSV.               Geo-Pilot:  DD Service 
 DEFF.%                  98.40:  % Det Eff 
 DLRX.°/30m               3.40:  Dogleg Rot Max 
 DLSO.°/30m               1.45:  Dogleg Oriented 
 DLSX.°/30m               3.40:  Dogleg Str Max 
 DRET.      18.40.00 29-Aug-21:  Drill End Time 
 DRST.      21.00.00 20-Aug-21:  Drill Start Tim 
 DTIM.hr                 69.47:  Time Drilling 
 EDEP.m                5084.50:  End Depth 
 ENG1.      Artemiy Matviyanov:  Engineer 1 
 ENG2.         Almaz Almadatov:  Engineer 2 
 ETIM.      18.40.00 29-Aug-21:  End Time 
 FLOI.gpm               500.00:  Flow In 
 FLON.gpm               400.00:  Flow In Min 
 FLOS.cptm                0.00:  Fluid Loss 
 FLOX.gpm               500.00:  Flow In Max 
 DFT .        Mineral Oil Base:  Mud Type 
 HFLO.                      No:  High Flow 
 HPRE.                      No:  High Pressure 
 HTEM.                      No:  High Temp 
 HYDO.m                   1.80:  Hydro Offset 
 IFIN.deg                25.62:  Inc, Final 
 IMAX.deg                48.69:  Inc Max 
 IMIN.deg                24.01:  Inc Min 
 IMND.m                4962.57:  Inc Min Depth 
 IMXD.m                4119.01:  Inc Max Depth 
 JARR.                      No:  Jarring 
 LETM.      18.40.00 29-Aug-21:  Log End Time 
 LOST.hr                     0:  Lost Rig Time 
 LSTM.      21.00.00 20-Aug-21:  Log Start Time 
 MDCL.ppm             41500.00:  Mud Chlorides 
 MDES.     Inversion Oil/Synthetic:  Mud Desc 
 DFD .sg                  1.56:  Mud Density 
 MDMN.sg                  1.56:  Dens Mud Min 
 MDMX.sg                  1.56:  Dens Mud Max 
 MOIL.                      70:  Run Mud Oil % 
 MOWR.                   70:30:  Run Mud OWR 
 MSND.                     0.2:  Run Mud Sand % 
 MSOL.                    23.3:  Run Mud Solids% 
 DFV .spqt               78.00:  Mud Viscosity 
 MWOD.in                  6.75:  MWD Tool OD 
 MWSI.                      No:  Serv Intrp, MWD 
 OTIM.hr                218.30:  Time Operating 
 PCON.           Look Like New:  Pad Condition 
 PMAX.psia            11015.30:  Press Op, Max 
 PV  .cP                 38.00:  Mud PV 
 RUN .                     300:  Run Number 
 ROPA.m/hr               15.00:  ROP Avg 
 ROPN.m/hr                9.00:  ROP Min 
 ROPX.m/hr               17.00:  ROP Max 
 RPMA.rpm               120.00:  RPM Surface Avg 
 RPMN.rpm                90.00:  RPM Surface Min 
 RPMX.rpm               140.00:  RPM Surface Max 
 RRUN.                     300:  Rig Run Number 
 RTIM.hr                 31.53:  Time Reaming 
 SAZI.deg               331.64:  Azm, Start 
 SDEP.m                4127.00:  Start Depth 
 SIDD.                      No:  Serv Intrp, DD 
 SINC.deg                48.43:  Inc, Start 
 SPPA.psig             5830.00:  SPP Avg 
 SPPN.psig             5600.00:  SPP Min 
 SPPX.psig             5900.00:  SPP Max 
 STIM.      21.00.00 20-Aug-21:  Start Time 
 SVCS.                 DD, MWD:  Services 
 SVER.                    9.20:  Sperry Version 
 TDAT.m                 957.50:  Tot Depth Attmp 
 TDDF.                      No:  Trip for DD 
 TDLG.m                 957.50:  Tot Depth Loggd 
 TFF .                      No:  Trip for Fail 
 TQAA.f-kp               15.00:  Torque Abs Avg 
 TQAN.f-kp               12.00:  Torque Abs Min 
 TQAX.f-kp               19.00:  Torque Abs Max 
 TRRT.°/30m              -3.40:  Turn Rotating 
 MRT .                  EWR-M5:  Maximum Recorded Temperature 
 TTMX.degC              100.00:  Max Tool Temp 
 VS01.                90639251:  Virtual Str1 SN 
 VS02.                90634715:  Virtual Str2 SN 
 VS03.                90652479:  Virtual Str3 SN 
 VS04.                90642262:  Virtual Str4 SN 
 WBMN.klb                 0.00:  WOB Min 
 WITN.           Murad Guliyev:  Customer Rep 
 WITN.          Yashar Gaziyev:  Customer Rep 2 
 WOBA.klb                 9.00:  WOB Avg 
 WOBX.klb                12.00:  WOB Max 
 YP  .lhf2               30.00:  Yield Point 
~Curve Information Block
#MNEM.UNIT                 API CODE     Curve Description
#---------               -----------    ---------------------------
 TIME.HHMMSS            00 000 000 000:  GT Time & Date
 GTDEPTH.m              00 000 000 000:  GT Depth
 GTPQH.psia             00 000 000 000:  GT HR Quartz Pressure
 GTTQ.degC              00 000 000 000:  GT Quartz Temperature
 GTTN.NONE              00 000 000 000:  GT Test Number
 GTET.sec               00 000 000 000:  GT Elapsed Test Time
 GTTVD.m                00 000 000 000:  GT True Vertical Depth
#Other Information
#
#WARRANTY: Halliburton will use its best efforts to furnish customers with 
#accurate information and interpretations that are part of, and incident to, the services 
#provided.  However, Halliburton cannot and does not warrant the accuracy 
#or correctness of such information and interpretations.  Under no circumstances should any 
#such information or interpretation be relied upon as the sole basis for any drilling, 
#completion, production, or financial decision or any procedure involving any risk to the 
#safety of any drilling venture, drilling rig or its crew or any other third party.  The 
#Customer has full responsibility for all drilling, completion and production operation.  
#Halliburton makes no representations or warranties, either expressed or 
#implied, including, but not limited to, the implied warranties of merchantability or fitness 
#for a particular purpose, with respect to the services rendered.  In no event will 
#Halliburton be liable for failure to obtain any particular results or for 
#any damages, including, but not limited to, indirect, special or consequential damages, 
#resulting from the use of any information or interpretation provided by Halliburton.
#
~A           TIME           GTDEPTH  GTPQH  GTTQ  GTTN  GTET   GTTVD  
# ...
   10:45:40.350.27-Aug-2021 4957.82 5167.75 85.93 9.00 114.86 3301.29
   10:45:40.550.27-Aug-2021 4957.82 5167.75 85.93 9.00 115.06 3301.29
   10:45:40.750.27-Aug-2021 4957.82 5167.76 85.93 9.00 115.26 3301.29
   10:45:40.949.27-Aug-2021 4957.82 5167.77 85.93 9.00 115.46 3301.29
   10:45:41.149.27-Aug-2021 4957.82 5167.78 85.93 9.00 115.66 3301.29
   10:45:41.349.27-Aug-2021 4957.82 5167.79 85.93 9.00 115.86 3301.29
   10:45:41.549.27-Aug-2021 4957.82 5167.79 85.93 9.00 116.06 3301.29
   10:45:41.748.27-Aug-2021 4957.82 5167.81 85.93 9.00 116.26 3301.29
   10:45:41.948.27-Aug-2021 4957.82 5167.82 85.93 9.00 116.46 3301.29
   10:45:42.148.27-Aug-2021 4957.82 5167.83 85.93 9.00 116.66 3301.29
   10:45:42.348.27-Aug-2021 4957.82 5167.84 85.93 9.00 116.86 3301.29
   10:45:42.548.27-Aug-2021 4957.82 5167.84 85.93 9.00 117.06 3301.29
   10:45:42.747.27-Aug-2021 4957.82 5167.88 85.93 9.00 117.26 3301.29
   10:45:42.947.27-Aug-2021 4957.82 5167.82 85.93 9.00 117.46 3301.29
   10:45:43.147.27-Aug-2021 4957.82 5167.74 85.93 9.00 117.66 3301.29
   10:45:43.347.27-Aug-2021 4957.82 5167.76 85.93 9.00 117.86 3301.29
   10:45:43.546.27-Aug-2021 4957.82 5167.76 85.93 9.00 118.06 3301.29
   10:45:43.746.27-Aug-2021 4957.82 5167.78 85.93 9.00 118.26 3301.29
   10:45:43.946.27-Aug-2021 4957.82 5167.79 85.93 9.00 118.46 3301.29
   10:45:44.146.27-Aug-2021 4957.82 5167.80 85.93 9.00 118.66 3301.29
   10:45:44.345.27-Aug-2021 4957.82 5167.81 85.93 9.00 118.86 3301.29
   10:45:44.545.27-Aug-2021 4957.82 5167.81 85.93 9.00 119.06 3301.29
   10:45:44.745.27-Aug-2021 4957.82 5167.85 85.93 9.00 119.26 3301.29
   10:45:44.945.27-Aug-2021 4957.82 5167.85 85.93 9.00 119.46 3301.29
   10:45:45.144.27-Aug-2021 4957.82 5167.85 85.93 9.00 119.66 3301.29
   10:45:45.344.27-Aug-2021 4957.82 5167.85 85.93 9.00 119.86 3301.29
   10:45:45.544.27-Aug-2021 4957.82 5167.85 85.93 9.00 120.06 3301.29
   10:45:45.744.27-Aug-2021 4957.82 5167.88 85.93 9.00 120.26 3301.29
   10:45:45.943.27-Aug-2021 4957.82 5167.87 85.93 9.00 120.46 3301.29
   10:45:46.143.27-Aug-2021 4957.82 5167.92 85.93 9.00 120.66 3301.29
   10:45:46.343.27-Aug-2021 4957.82 5167.86 85.93 9.00 120.86 3301.29
   10:45:46.543.27-Aug-2021 4957.82 5167.86 85.93 9.00 121.06 3301.29
   10:45:46.742.27-Aug-2021 4957.82 5167.80 85.93 9.00 121.26 3301.29
   10:45:46.942.27-Aug-2021 4957.82 5167.82 85.93 9.00 121.45 3301.29
   10:45:47.142.27-Aug-2021 4957.82 5167.86 85.93 9.00 121.65 3301.29
   10:45:47.342.27-Aug-2021 4957.82 5167.82 85.93 9.00 121.85 3301.29
   10:45:47.542.27-Aug-2021 4957.82 5167.82 85.93 9.00 122.05 3301.29
   10:45:47.741.27-Aug-2021 4957.82 5167.78 85.93 9.00 122.25 3301.29
   10:45:47.941.27-Aug-2021 4957.82 5167.78 85.93 9.00 122.45 3301.29
   10:45:48.141.27-Aug-2021 4957.82 5167.86 85.93 9.00 122.65 3301.29
   10:45:48.341.27-Aug-2021 4957.82 5167.83 85.93 9.00 122.85 3301.29
   10:45:48.540.27-Aug-2021 4957.82 5167.83 85.93 9.00 123.05 3301.29
   10:45:48.740.27-Aug-2021 4957.82 5167.85 85.93 9.00 123.25 3301.29
   10:45:48.940.27-Aug-2021 4957.82 5167.82 85.93 9.00 123.45 3301.29
   10:45:49.140.27-Aug-2021 4957.82 5167.80 85.93 9.00 123.65 3301.29
   10:45:49.339.27-Aug-2021 4957.82 5167.79 85.93 9.00 123.85 3301.29
   10:45:49.539.27-Aug-2021 4957.82 5167.79 85.93 9.00 124.05 3301.29
   10:45:49.739.27-Aug-2021 4957.82 5167.79 85.93 9.00 124.25 3301.29
   10:45:49.939.27-Aug-2021 4957.82 5167.82 85.93 9.00 124.45 3301.29
   10:45:50.138.27-Aug-2021 4957.82 5167.81 85.93 9.00 124.65 3301.29
   10:45:50.338.27-Aug-2021 4957.82 5167.82 85.93 9.00 124.85 3301.29
   10:45:50.538.27-Aug-2021 4957.82 5167.82 85.93 9.00 125.05 3301.29
   10:45:50.738.27-Aug-2021 4957.82 5167.85 85.93 9.00 125.25 3301.29
   10:45:50.937.27-Aug-2021 4957.82 5167.86 85.93 9.00 125.45 3301.29
   10:45:51.137.27-Aug-2021 4957.82 5167.85 85.93 9.00 125.65 3301.29
   10:45:51.337.27-Aug-2021 4957.82 5167.85 85.93 9.00 125.85 3301.29
   10:45:51.537.27-Aug-2021 4957.82 5167.85 85.93 9.00 126.05 3301.29
   10:45:51.737.27-Aug-2021 4957.82 5167.87 85.93 9.00 126.25 3301.29
   10:45:51.936.27-Aug-2021 4957.82 5167.88 85.93 9.00 126.45 3301.29
   10:45:52.136.27-Aug-2021 4957.82 5167.85 85.93 9.00 126.65 3301.29
   10:45:52.336.27-Aug-2021 4957.82 5167.81 85.93 9.00 126.85 3301.29
   10:45:52.536.27-Aug-2021 4957.82 5167.81 85.93 9.00 127.05 3301.29
   10:45:52.735.27-Aug-2021 4957.82 5167.83 85.93 9.00 127.25 3301.29
   10:45:52.935.27-Aug-2021 4957.82 5167.82 85.93 9.00 127.45 3301.29
   10:45:53.135.27-Aug-2021 4957.82 5167.84 85.93 9.00 127.65 3301.29
   10:45:53.335.27-Aug-2021 4957.82 5167.85 85.93 9.00 127.85 3301.29
   10:45:53.534.27-Aug-2021 4957.82 5167.85 85.93 9.00 128.05 3301.29
   10:45:53.734.27-Aug-2021 4957.82 5167.86 85.93 9.00 128.25 3301.29
   10:45:53.934.27-Aug-2021 4957.82 5167.89 85.93 9.00 128.45 3301.29
   10:45:54.134.27-Aug-2021 4957.82 5167.89 85.93 9.00 128.65 3301.29
   10:45:54.333.27-Aug-2021 4957.82 5167.88 85.93 9.00 128.85 3301.29
   10:45:54.533.27-Aug-2021 4957.82 5167.88 85.93 9.00 129.05 3301.29
   10:45:54.733.27-Aug-2021 4957.82 5167.90 85.93 9.00 129.25 3301.29
   10:45:54.933.27-Aug-2021 4957.82 5167.91 85.93 9.00 129.45 3301.29
   10:45:55.132.27-Aug-2021 4957.82 5167.90 85.93 9.00 129.65 3301.29
   10:45:55.332.27-Aug-2021 4957.82 5167.94 85.93 9.00 129.84 3301.29
   10:45:55.532.27-Aug-2021 4957.82 5167.94 85.93 9.00 130.04 3301.29
   10:45:55.732.27-Aug-2021 4957.82 5167.84 85.93 9.00 130.24 3301.29
   10:45:55.932.27-Aug-2021 4957.82 5167.84 85.93 9.00 130.44 3301.29
   10:45:56.131.27-Aug-2021 4957.82 5167.87 85.93 9.00 130.64 3301.29
   10:45:56.331.27-Aug-2021 4957.82 5167.93 85.93 9.00 130.84 3301.29
   10:45:56.531.27-Aug-2021 4957.82 5167.93 85.93 9.00 131.04 3301.29
   10:45:56.731.27-Aug-2021 4957.82 5167.80 85.93 9.00 131.24 3301.29
   10:45:56.930.27-Aug-2021 4957.82 5167.83 85.93 9.00 131.44 3301.29
   10:45:57.130.27-Aug-2021 4957.82 5167.87 85.93 9.00 131.64 3301.29
   10:45:57.330.27-Aug-2021 4957.82 5167.90 85.93 9.00 131.84 3301.29
   10:45:57.530.27-Aug-2021 4957.82 5167.90 85.93 9.00 132.04 3301.29
   10:45:57.729.27-Aug-2021 4957.82 5167.82 85.93 9.00 132.24 3301.29
   10:45:57.929.27-Aug-2021 4957.82 5167.90 85.93 9.00 132.44 3301.29
   10:45:58.129.27-Aug-2021 4957.82 5167.84 85.93 9.00 132.64 3301.29
   10:45:58.329.27-Aug-2021 4957.82 5167.81 85.93 9.00 132.84 3301.29
   10:45:58.528.27-Aug-2021 4957.82 5167.81 85.93 9.00 133.04 3301.29
   10:45:58.728.27-Aug-2021 4957.82 5167.81 85.93 9.00 133.24 3301.29
   10:45:58.928.27-Aug-2021 4957.82 5167.84 85.93 9.00 133.44 3301.29
   10:45:59.128.27-Aug-2021 4957.82 5167.84 85.93 9.00 133.64 3301.29
   10:45:59.327.27-Aug-2021 4957.82 5167.84 85.93 9.00 133.84 3301.29
   10:45:59.527.27-Aug-2021 4957.82 5167.84 85.93 9.00 134.04 3301.29
   10:45:59.727.27-Aug-2021 4957.82 5167.86 85.93 9.00 134.24 3301.29
   10:45:59.927.27-Aug-2021 4957.82 5167.89 85.93 9.00 134.44 3301.29
   10:46:00.127.27-Aug-2021 4957.82 5167.88 85.93 9.00 134.64 3301.29
   10:46:00.326.27-Aug-2021 4957.82 5167.88 85.93 9.00 134.84 3301.29
   10:46:00.526.27-Aug-2021 4957.82 5167.88 85.93 9.00 135.04 3301.29
   10:46:00.726.27-Aug-2021 4957.82 5167.89 85.93 9.00 135.24 3301.29
   10:46:00.926.27-Aug-2021 4957.82 5167.88 85.93 9.00 135.44 3301.29
   10:46:01.125.27-Aug-2021 4957.82 5167.95 85.93 9.00 135.64 3301.29
   10:46:01.325.27-Aug-2021 4957.82 5167.88 85.93 9.00 135.84 3301.29
   10:46:01.525.27-Aug-2021 4957.82 5167.88 85.93 9.00 136.04 3301.29
   10:46:01.725.27-Aug-2021 4957.82 5167.85 85.93 9.00 136.24 3301.29
   10:46:01.924.27-Aug-2021 4957.82 5167.88 85.93 9.00 136.44 3301.29
   10:46:02.124.27-Aug-2021 4957.82 5167.86 85.93 9.00 136.64 3301.29
   10:46:02.324.27-Aug-2021 4957.82 5167.87 85.93 9.00 136.84 3301.29
   10:46:02.524.27-Aug-2021 4957.82 5167.87 85.93 9.00 137.04 3301.29
   10:46:02.723.27-Aug-2021 4957.82 5167.89 85.93 9.00 137.24 3301.29
   10:46:02.923.27-Aug-2021 4957.82 5167.91 85.93 9.00 137.44 3301.29
   10:46:03.123.27-Aug-2021 4957.82 5167.92 85.93 9.00 137.64 3301.29
