~Version Information
 VERS.                  2.0:   CWLS log ASCII Standard -VERSION 2.0
 WRAP.                   NO:   One line per depth step
~Well Information Block
#MNEM.UNIT     VALUE/NAME     DESCRIPTION
#---------     -----------    ---------------------------
 STRT.S             04:10:22 28-Aug-21: START TIME 04:10:22 28-Aug-21
 STOP.S             04:17:14 28-Aug-21: STOP TIME  04:17:14 28-Aug-21
 STEP.S                   0.00: STEP TIME
 NULL.                 -999.25: NULL VALUE
 DFWT.                        :  DIST FWL TEXT
 DFST.                        :  DIST FSL TEXT
 DMF .             Drill Floor:  DRILL MEAS FROM
 STIM.      20.00.00 17-Aug-21:  START TIME
 DATE.      19.00.00 29-Aug-21:  END TIME
 SPUD.               15-Aug-21:  SPUD DATE
 NREF.                    Grid:  NORTH REFERENCE
 HPTY.       Minimum Curvature:  HOLE POS TYPE
 DMOD.             Drill Model:  DRILL MOD DESC
 SVYD.                  Survey:  SURVEY DESC
 ILTD.               Lithology:  INTERP LTH DESC
 FTOP.          Formation Tops:  FORM TOPS DESC
 RIG .              East Azeri:  RIG NAME
 PDAT.          Mean Sea Level:  PERMANENT DATUM
 FLD .                     ACG:  FIELD NAME
 SON .        AZ-XX-0907180857:  JOB NUMBER
 CTRY.              Azerbaijan:  COUNTRY NAME
 WELL.                    D23x:  WELL NAME
 SRVC.     Turan Drilling and Engineering:  CONTRACTOR
 COMP.     BP Exploration (Caspian Sea) Ltd.:  COMPANY
 UWI .            /AZE00000214:  UNIQUE WELL IDENTIFIER
 API .            /AZE00000214:  API NUMBER
 MDS .        Operator Entered:  MAG DATA SOURCE
 BASE.              Azerbaijan:  LOGGING EQUIPMENT BASE LOCATION
 REGN.                   EESSA:  REGION
 PROV.                    Baku:  PROVINCE
 STAT.                    Baku:  STATE NAME
 MWDS.                    Baku:  MWD SHOP
 DOE .                     N/A:  DOE NUMBER
 DCON.         Sperry Drilling:  DIRECTNL CONTR
 UNIT.                     N/A:  LOGGING EQUIPMENT ID
 WTYP.                Deviated:  WELL TYPE
 CNTY.                        :  COUNTY
 LOC .                        :  LOCATION
 LMF .             Drill Floor:  LOG MEASURED FROM
 TVDS.m                  43.60:  TVDSS CORRECTN
 LATI.deg                40.02:  LATITUDE
 LONG.deg                51.45:  LONGITUDE
 WHNS.m                  -7.04:  WELL HEAD N/S
 WHEW.m                  -0.67:  WELL HEAD E/W
 UTMX.m              538762.90:  UTM X
 UTMY.m             4431871.34:  UTM Y
 DFWL.m                   0.00:  DISTANCE FWL
 DFSL.m                   0.00:  DISTANCE FSL
 SDEP.m                4127.00:  START DEPTH
 TDD .m                5084.50:  TOTAL DEPTH (DRILLER)
 VSDR.deg               140.47:  VERT SEC DIRECT
 GVFD.g                   1.00:  GRAVITY FIELD
 MFLD.nT              50362.00:  MAGNETIC FIELD
 MDIP.deg                59.48:  MAGNETIC DIP
 MDEC.deg                 6.47:  MAGNETIC DECL
 GRDC.deg                 0.31:  GRID CORRECTION
 AZTC.deg                 6.16:  AZM TOTAL CORR
 EPD .m                   0.00:  ELEVATION
 EGL .m                   0.00:  GROUND ELEVATION
 WDMS.m                 151.80:  WD ELEV
 APD .m                  43.60:  DEPTH ABOVE PD
 DEP .m                4092.57:  DEPTH
 AGAP.m                  43.60:  AIR GAP
 VSEW.m                  -0.67:  VERT SEC E/W
 VSNS.m                  -7.04:  VERT SEC N/S
 EKB .m                  43.60:  KB ELEVATION
 EDF .m                  43.60:  DF ELEVATION
 TDL .m                 957.50:  TOTAL DEPTH (LOGGER)
 VSC .                       0:  VS TO CLOSURE
 MAGU.                 1851413:  MAGUTM CHECKSUM
~Parameter Information Block
#MNEM.UNIT       Value        Description
#---------     -----------    ---------------------------
 AV  .mps                 1.50:  Ann Velocity 
 AVMX.mps                 2.00:  Max Ann Veloc 
 AZIF.deg               184.66:  Azm, Final 
 BHAT.        Rotary Steerable:  BHA Type 
 BREV.rev               300.00:  Rev Bit Total 
 BROT.°/30m              -0.50:  Build Rotating 
 BS  .in                  8.50:  Bit Size 
 BSZ .in                  8.50:  Bit Size 
 BTPL.psig              370.00:  Bit Press Loss 
 CABU.                      No:  Customer Abuse 
 CGEO.      Behruz Shahbaliyev:  Customer Geo 
 COMM.                     LÁp:  Run Comments 1 
 TCS .hr                140.08:  Time Ciculation Ended 
 CV  .mps                 3.00:  Crit Velocity 
 CVMX.mps                 3.20:  Max Crit Veloc 
 DD1 .            Musa Ahmadov:  Direct Drillr 1 
 DD2 .           Hamid Ahmadov:  Direct Drillr 2 
 DDSV.               Geo-Pilot:  DD Service 
 DEFF.%                  98.40:  % Det Eff 
 DLRX.°/30m               3.40:  Dogleg Rot Max 
 DLSO.°/30m               1.45:  Dogleg Oriented 
 DLSX.°/30m               3.40:  Dogleg Str Max 
 DRET.      18.40.00 29-Aug-21:  Drill End Time 
 DRST.      21.00.00 20-Aug-21:  Drill Start Tim 
 DTIM.hr                 69.47:  Time Drilling 
 EDEP.m                5084.50:  End Depth 
 ENG1.      Artemiy Matviyanov:  Engineer 1 
 ENG2.         Almaz Almadatov:  Engineer 2 
 ETIM.      18.40.00 29-Aug-21:  End Time 
 FLOI.gpm               500.00:  Flow In 
 FLON.gpm               400.00:  Flow In Min 
 FLOS.cptm                0.00:  Fluid Loss 
 FLOX.gpm               500.00:  Flow In Max 
 DFT .        Mineral Oil Base:  Mud Type 
 HFLO.                      No:  High Flow 
 HPRE.                      No:  High Pressure 
 HTEM.                      No:  High Temp 
 HYDO.m                   1.80:  Hydro Offset 
 IFIN.deg                25.62:  Inc, Final 
 IMAX.deg                48.69:  Inc Max 
 IMIN.deg                24.01:  Inc Min 
 IMND.m                4962.57:  Inc Min Depth 
 IMXD.m                4119.01:  Inc Max Depth 
 JARR.                      No:  Jarring 
 LETM.      18.40.00 29-Aug-21:  Log End Time 
 LOST.hr                     0:  Lost Rig Time 
 LSTM.      21.00.00 20-Aug-21:  Log Start Time 
 MDCL.ppm             41500.00:  Mud Chlorides 
 MDES.     Inversion Oil/Synthetic:  Mud Desc 
 DFD .sg                  1.56:  Mud Density 
 MDMN.sg                  1.56:  Dens Mud Min 
 MDMX.sg                  1.56:  Dens Mud Max 
 MOIL.                      70:  Run Mud Oil % 
 MOWR.                   70:30:  Run Mud OWR 
 MSND.                     0.2:  Run Mud Sand % 
 MSOL.                    23.3:  Run Mud Solids% 
 DFV .spqt               78.00:  Mud Viscosity 
 MWOD.in                  6.75:  MWD Tool OD 
 MWSI.                      No:  Serv Intrp, MWD 
 OTIM.hr                218.30:  Time Operating 
 PCON.           Look Like New:  Pad Condition 
 PMAX.psia            11015.30:  Press Op, Max 
 PV  .cP                 38.00:  Mud PV 
 RUN .                     300:  Run Number 
 ROPA.m/hr               15.00:  ROP Avg 
 ROPN.m/hr                9.00:  ROP Min 
 ROPX.m/hr               17.00:  ROP Max 
 RPMA.rpm               120.00:  RPM Surface Avg 
 RPMN.rpm                90.00:  RPM Surface Min 
 RPMX.rpm               140.00:  RPM Surface Max 
 RRUN.                     300:  Rig Run Number 
 RTIM.hr                 31.53:  Time Reaming 
 SAZI.deg               331.64:  Azm, Start 
 SDEP.m                4127.00:  Start Depth 
 SIDD.                      No:  Serv Intrp, DD 
 SINC.deg                48.43:  Inc, Start 
 SPPA.psig             5830.00:  SPP Avg 
 SPPN.psig             5600.00:  SPP Min 
 SPPX.psig             5900.00:  SPP Max 
 STIM.      21.00.00 20-Aug-21:  Start Time 
 SVCS.                 DD, MWD:  Services 
 SVER.                    9.20:  Sperry Version 
 TDAT.m                 957.50:  Tot Depth Attmp 
 TDDF.                      No:  Trip for DD 
 TDLG.m                 957.50:  Tot Depth Loggd 
 TFF .                      No:  Trip for Fail 
 TQAA.f-kp               15.00:  Torque Abs Avg 
 TQAN.f-kp               12.00:  Torque Abs Min 
 TQAX.f-kp               19.00:  Torque Abs Max 
 TRRT.°/30m              -3.40:  Turn Rotating 
 MRT .                  EWR-M5:  Maximum Recorded Temperature 
 TTMX.degC              100.00:  Max Tool Temp 
 VS01.                90639251:  Virtual Str1 SN 
 VS02.                90634715:  Virtual Str2 SN 
 VS03.                90652479:  Virtual Str3 SN 
 VS04.                90642262:  Virtual Str4 SN 
 WBMN.klb                 0.00:  WOB Min 
 WITN.           Murad Guliyev:  Customer Rep 
 WITN.          Yashar Gaziyev:  Customer Rep 2 
 WOBA.klb                 9.00:  WOB Avg 
 WOBX.klb                12.00:  WOB Max 
 YP  .lhf2               30.00:  Yield Point 
~Curve Information Block
#MNEM.UNIT                 API CODE     Curve Description
#---------               -----------    ---------------------------
 TIME.HHMMSS            00 000 000 000:  GT Time & Date
 GTDEPTH.m              00 000 000 000:  GT Depth
 GTPQH.psia             00 000 000 000:  GT HR Quartz Pressure
 GTTQ.degC              00 000 000 000:  GT Quartz Temperature
 GTTN.NONE              00 000 000 000:  GT Test Number
 GTET.sec               00 000 000 000:  GT Elapsed Test Time
 GTTVD.m                00 000 000 000:  GT True Vertical Depth
#Other Information
#
#WARRANTY: Halliburton will use its best efforts to furnish customers with 
#accurate information and interpretations that are part of, and incident to, the services 
#provided.  However, Halliburton cannot and does not warrant the accuracy 
#or correctness of such information and interpretations.  Under no circumstances should any 
#such information or interpretation be relied upon as the sole basis for any drilling, 
#completion, production, or financial decision or any procedure involving any risk to the 
#safety of any drilling venture, drilling rig or its crew or any other third party.  The 
#Customer has full responsibility for all drilling, completion and production operation.  
#Halliburton makes no representations or warranties, either expressed or 
#implied, including, but not limited to, the implied warranties of merchantability or fitness 
#for a particular purpose, with respect to the services rendered.  In no event will 
#Halliburton be liable for failure to obtain any particular results or for 
#any damages, including, but not limited to, indirect, special or consequential damages, 
#resulting from the use of any information or interpretation provided by Halliburton.
#
~A           TIME           GTDEPTH  GTPQH  GTTQ  GTTN   GTET   GTTVD  
# ...
   04:15:39.666.28-Aug-2021 4978.00 7972.03 80.42 29.00 316.85 3319.69
   04:15:39.866.28-Aug-2021 4978.00 7971.41 80.42 29.00 317.05 3319.69
   04:15:40.067.28-Aug-2021 4978.00 7971.71 80.42 29.00 317.25 3319.69
   04:15:40.267.28-Aug-2021 4978.00 7972.05 80.42 29.00 317.45 3319.69
   04:15:40.467.28-Aug-2021 4978.00 7972.05 80.42 29.00 317.65 3319.69
   04:15:40.667.28-Aug-2021 4978.00 7972.65 80.42 29.00 317.85 3319.69
   04:15:40.868.28-Aug-2021 4978.00 7972.47 80.42 29.00 318.05 3319.69
   04:15:41.068.28-Aug-2021 4978.00 7972.36 80.42 29.00 318.25 3319.69
   04:15:41.268.28-Aug-2021 4978.00 7972.27 80.42 29.00 318.45 3319.69
   04:15:41.469.28-Aug-2021 4978.00 7972.27 80.42 29.00 318.65 3319.69
   04:15:41.669.28-Aug-2021 4978.00 7975.52 80.42 29.00 318.85 3319.69
   04:15:41.869.28-Aug-2021 4978.00 7973.58 80.42 29.00 319.05 3319.69
   04:15:42.069.28-Aug-2021 4978.00 7972.26 80.42 29.00 319.25 3319.69
   04:15:42.270.28-Aug-2021 4978.00 7972.00 80.42 29.00 319.45 3319.69
   04:15:42.470.28-Aug-2021 4978.00 7972.00 80.42 29.00 319.65 3319.69
   04:15:42.670.28-Aug-2021 4978.00 7972.12 80.42 29.00 319.85 3319.69
   04:15:42.871.28-Aug-2021 4978.00 7971.82 80.42 29.00 320.05 3319.69
   04:15:43.071.28-Aug-2021 4978.00 7971.43 80.42 29.00 320.25 3319.69
   04:15:43.271.28-Aug-2021 4978.00 7971.60 80.42 29.00 320.45 3319.69
   04:15:43.471.28-Aug-2021 4978.00 7971.60 80.42 29.00 320.65 3319.69
   04:15:43.672.28-Aug-2021 4978.00 7973.03 80.42 29.00 320.85 3319.69
   04:15:43.872.28-Aug-2021 4978.00 7973.20 80.42 29.00 321.05 3319.69
   04:15:44.072.28-Aug-2021 4978.00 7973.05 80.42 29.00 321.25 3319.69
   04:15:44.273.28-Aug-2021 4978.00 7972.82 80.42 29.00 321.45 3319.69
   04:15:44.473.28-Aug-2021 4978.00 7972.82 80.42 29.00 321.65 3319.69
   04:15:44.673.28-Aug-2021 4978.00 7972.69 80.42 29.00 321.85 3319.69
   04:15:44.873.28-Aug-2021 4978.00 7972.54 80.42 29.00 322.05 3319.69
   04:15:45.074.28-Aug-2021 4978.00 7976.99 80.42 29.00 322.25 3319.69
   04:15:45.274.28-Aug-2021 4978.00 7972.18 80.42 29.00 322.45 3319.69
   04:15:45.474.28-Aug-2021 4978.00 7972.18 80.42 29.00 322.65 3319.69
   04:15:45.675.28-Aug-2021 4978.00 7971.97 80.42 29.00 322.85 3319.69
   04:15:45.875.28-Aug-2021 4978.00 7974.22 80.42 29.00 323.05 3319.69
   04:15:46.075.28-Aug-2021 4978.00 7973.47 80.42 29.00 323.25 3319.69
   04:15:46.275.28-Aug-2021 4978.00 7972.75 80.42 29.00 323.45 3319.69
   04:15:46.476.28-Aug-2021 4978.00 7972.75 80.42 29.00 323.65 3319.69
   04:15:46.676.28-Aug-2021 4978.00 7973.48 80.42 29.00 323.86 3319.69
   04:15:46.876.28-Aug-2021 4978.00 7972.64 80.42 29.00 324.06 3319.69
   04:15:47.076.28-Aug-2021 4978.00 7973.56 80.42 29.00 324.26 3319.69
   04:15:47.277.28-Aug-2021 4978.00 7971.80 80.42 29.00 324.46 3319.69
   04:15:47.477.28-Aug-2021 4978.00 7971.80 80.42 29.00 324.66 3319.69
   04:15:47.677.28-Aug-2021 4978.00 7975.90 80.42 29.00 324.86 3319.69
   04:15:47.878.28-Aug-2021 4978.00 7972.07 80.42 29.00 325.06 3319.69
   04:15:48.078.28-Aug-2021 4978.00 7971.86 80.42 29.00 325.26 3319.69
   04:15:48.278.28-Aug-2021 4978.00 7971.61 80.42 29.00 325.46 3319.69
   04:15:48.478.28-Aug-2021 4978.00 7971.61 80.42 29.00 325.66 3319.69
   04:15:48.679.28-Aug-2021 4978.00 7972.07 80.42 29.00 325.86 3319.69
   04:15:48.879.28-Aug-2021 4978.00 7972.07 80.42 29.00 326.06 3319.69
   04:15:49.079.28-Aug-2021 4978.00 7971.84 80.42 29.00 326.26 3319.69
   04:15:49.280.28-Aug-2021 4978.00 7971.31 80.42 29.00 326.46 3319.69
   04:15:49.480.28-Aug-2021 4978.00 7971.31 80.42 29.00 326.66 3319.69
   04:15:49.680.28-Aug-2021 4978.00 7972.58 80.42 29.00 326.86 3319.69
   04:15:49.880.28-Aug-2021 4978.00 7972.53 80.42 29.00 327.06 3319.69
   04:15:50.081.28-Aug-2021 4978.00 7972.44 80.42 29.00 327.26 3319.69
   04:15:50.281.28-Aug-2021 4978.00 7972.21 80.42 29.00 327.46 3319.69
   04:15:50.481.28-Aug-2021 4978.00 7972.21 80.42 29.00 327.66 3319.69
   04:15:50.682.28-Aug-2021 4978.00 7971.94 80.42 29.00 327.86 3319.69
   04:15:50.882.28-Aug-2021 4978.00 7977.52 80.42 29.00 328.06 3319.69
   04:15:51.082.28-Aug-2021 4978.00 7970.49 80.42 29.00 328.26 3319.69
   04:15:51.282.28-Aug-2021 4978.00 7972.52 80.42 29.00 328.46 3319.69
   04:15:51.483.28-Aug-2021 4978.00 7972.52 80.42 29.00 328.66 3319.69
   04:15:51.683.28-Aug-2021 4978.00 7972.12 80.42 29.00 328.86 3319.69
   04:15:51.883.28-Aug-2021 4978.00 7972.06 80.42 29.00 329.06 3319.69
   04:15:52.084.28-Aug-2021 4978.00 7971.95 80.42 29.00 329.26 3319.69
   04:15:52.284.28-Aug-2021 4978.00 7971.50 80.42 29.00 329.46 3319.69
   04:15:52.484.28-Aug-2021 4978.00 7971.50 80.42 29.00 329.66 3319.69
   04:15:52.684.28-Aug-2021 4978.00 7971.59 80.42 29.00 329.86 3319.69
   04:15:52.885.28-Aug-2021 4978.00 7972.36 80.42 29.00 330.06 3319.69
   04:15:53.085.28-Aug-2021 4978.00 7972.81 80.42 29.00 330.26 3319.69
   04:15:53.285.28-Aug-2021 4978.00 7972.68 80.42 29.00 330.46 3319.69
   04:15:53.485.28-Aug-2021 4978.00 7972.68 80.42 29.00 330.66 3319.69
   04:15:53.686.28-Aug-2021 4978.00 7972.30 80.42 29.00 330.87 3319.69
   04:15:53.886.28-Aug-2021 4978.00 7972.30 80.42 29.00 331.07 3319.69
   04:15:54.086.28-Aug-2021 4978.00 7972.13 80.42 29.00 331.27 3319.69
   04:15:54.287.28-Aug-2021 4978.00 7974.30 80.42 29.00 331.47 3319.69
   04:15:54.487.28-Aug-2021 4978.00 7974.30 80.42 29.00 331.67 3319.69
   04:15:54.687.28-Aug-2021 4978.00 7972.84 80.42 29.00 331.87 3319.69
   04:15:54.887.28-Aug-2021 4978.00 7971.57 80.42 29.00 332.07 3319.69
   04:15:55.088.28-Aug-2021 4978.00 7971.65 80.42 29.00 332.27 3319.69
   04:15:55.288.28-Aug-2021 4978.00 7976.34 80.42 29.00 332.47 3319.69
   04:15:55.488.28-Aug-2021 4978.00 7976.34 80.42 29.00 332.67 3319.69
   04:15:55.689.28-Aug-2021 4978.00 7971.23 80.42 29.00 332.87 3319.69
   04:15:55.889.28-Aug-2021 4978.00 7970.79 80.42 29.00 333.07 3319.69
   04:15:56.089.28-Aug-2021 4978.00 7976.77 80.42 29.00 333.27 3319.69
   04:15:56.289.28-Aug-2021 4978.00 7970.46 80.42 29.00 333.47 3319.69
   04:15:56.490.28-Aug-2021 4978.00 7970.46 80.42 29.00 333.67 3319.69
   04:15:56.690.28-Aug-2021 4978.00 7971.80 80.42 29.00 333.87 3319.69
   04:15:56.890.28-Aug-2021 4978.00 7971.39 80.42 29.00 334.07 3319.69
   04:15:57.091.28-Aug-2021 4978.00 7976.87 80.42 29.00 334.27 3319.69
   04:15:57.291.28-Aug-2021 4978.00 7970.62 80.42 29.00 334.47 3319.69
   04:15:57.491.28-Aug-2021 4978.00 7970.62 80.42 29.00 334.67 3319.69
   04:15:57.691.28-Aug-2021 4978.00 7971.16 80.42 29.00 334.87 3319.69
   04:15:57.892.28-Aug-2021 4978.00 7971.37 80.42 29.00 335.07 3319.69
   04:15:58.092.28-Aug-2021 4978.00 7971.90 80.42 29.00 335.27 3319.69
   04:15:58.292.28-Aug-2021 4978.00 7971.90 80.42 29.00 335.47 3319.69
   04:15:58.493.28-Aug-2021 4978.00 7971.90 80.42 29.00 335.67 3319.69
   04:15:58.693.28-Aug-2021 4978.00 7971.02 80.42 29.00 335.87 3319.69
   04:15:58.893.28-Aug-2021 4978.00 7971.44 80.42 29.00 336.07 3319.69
   04:15:59.093.28-Aug-2021 4978.00 7972.07 80.42 29.00 336.27 3319.69
   04:15:59.294.28-Aug-2021 4978.00 7972.50 80.42 29.00 336.47 3319.69
   04:15:59.494.28-Aug-2021 4978.00 7972.50 80.42 29.00 336.67 3319.69
   04:15:59.694.28-Aug-2021 4978.00 7972.36 80.42 29.00 336.87 3319.69
   04:15:59.895.28-Aug-2021 4978.00 7972.26 80.42 29.00 337.07 3319.69
   04:16:00.095.28-Aug-2021 4978.00 7972.24 80.42 29.00 337.27 3319.69
   04:16:00.295.28-Aug-2021 4978.00 7974.42 80.42 29.00 337.47 3319.69
   04:16:00.495.28-Aug-2021 4978.00 7974.42 80.42 29.00 337.67 3319.69
   04:16:00.696.28-Aug-2021 4978.00 7973.55 80.42 29.00 337.87 3319.69
   04:16:00.896.28-Aug-2021 4978.00 7972.22 80.42 29.00 338.08 3319.69
   04:16:01.096.28-Aug-2021 4978.00 7972.18 80.42 29.00 338.28 3319.69
   04:16:01.296.28-Aug-2021 4978.00 7972.08 80.42 29.00 338.48 3319.69
   04:16:01.497.28-Aug-2021 4978.00 7972.08 80.42 29.00 338.68 3319.69
   04:16:01.697.28-Aug-2021 4978.00 7971.55 80.42 29.00 338.88 3319.69
   04:16:01.897.28-Aug-2021 4978.00 7971.31 80.42 29.00 339.08 3319.69
   04:16:02.098.28-Aug-2021 4978.00 7971.61 80.42 29.00 339.28 3319.69
