~Version Information
 VERS.                  2.0:   CWLS log ASCII Standard -VERSION 2.0
 WRAP.                   NO:   One line per depth step
~Well Information Block
#MNEM.UNIT     VALUE/NAME     DESCRIPTION
#---------     -----------    ---------------------------
 STRT.S             10:43:45 27-Aug-21: START TIME 10:43:45 27-Aug-21
 STOP.S             10:50:54 27-Aug-21: STOP TIME  10:50:54 27-Aug-21
 STEP.S                   0.00: STEP TIME
 NULL.                 -999.25: NULL VALUE
 DFWT.                        :  DIST FWL TEXT
 DFST.                        :  DIST FSL TEXT
 DMF .             Drill Floor:  DRILL MEAS FROM
 STIM.      20.00.00 17-Aug-21:  START TIME
 DATE.      19.00.00 29-Aug-21:  END TIME
 SPUD.               15-Aug-21:  SPUD DATE
 NREF.                    Grid:  NORTH REFERENCE
 HPTY.       Minimum Curvature:  HOLE POS TYPE
 DMOD.             Drill Model:  DRILL MOD DESC
 SVYD.                  Survey:  SURVEY DESC
 ILTD.               Lithology:  INTERP LTH DESC
 FTOP.          Formation Tops:  FORM TOPS DESC
 RIG .              East Azeri:  RIG NAME
 PDAT.          Mean Sea Level:  PERMANENT DATUM
 FLD .                     ACG:  FIELD NAME
 SON .        AZ-XX-0907180857:  JOB NUMBER
 CTRY.              Azerbaijan:  COUNTRY NAME
 WELL.                    D23x:  WELL NAME
 SRVC.     Turan Drilling and Engineering:  CONTRACTOR
 COMP.     BP Exploration (Caspian Sea) Ltd.:  COMPANY
 UWI .            /AZE00000214:  UNIQUE WELL IDENTIFIER
 API .            /AZE00000214:  API NUMBER
 MDS .        Operator Entered:  MAG DATA SOURCE
 BASE.              Azerbaijan:  LOGGING EQUIPMENT BASE LOCATION
 REGN.                   EESSA:  REGION
 PROV.                    Baku:  PROVINCE
 STAT.                    Baku:  STATE NAME
 MWDS.                    Baku:  MWD SHOP
 DOE .                     N/A:  DOE NUMBER
 DCON.         Sperry Drilling:  DIRECTNL CONTR
 UNIT.                     N/A:  LOGGING EQUIPMENT ID
 WTYP.                Deviated:  WELL TYPE
 CNTY.                        :  COUNTY
 LOC .                        :  LOCATION
 LMF .             Drill Floor:  LOG MEASURED FROM
 TVDS.m                  43.60:  TVDSS CORRECTN
 LATI.deg                40.02:  LATITUDE
 LONG.deg                51.45:  LONGITUDE
 WHNS.m                  -7.04:  WELL HEAD N/S
 WHEW.m                  -0.67:  WELL HEAD E/W
 UTMX.m              538762.90:  UTM X
 UTMY.m             4431871.34:  UTM Y
 DFWL.m                   0.00:  DISTANCE FWL
 DFSL.m                   0.00:  DISTANCE FSL
 SDEP.m                4127.00:  START DEPTH
 TDD .m                5084.50:  TOTAL DEPTH (DRILLER)
 VSDR.deg               140.47:  VERT SEC DIRECT
 GVFD.g                   1.00:  GRAVITY FIELD
 MFLD.nT              50362.00:  MAGNETIC FIELD
 MDIP.deg                59.48:  MAGNETIC DIP
 MDEC.deg                 6.47:  MAGNETIC DECL
 GRDC.deg                 0.31:  GRID CORRECTION
 AZTC.deg                 6.16:  AZM TOTAL CORR
 EPD .m                   0.00:  ELEVATION
 EGL .m                   0.00:  GROUND ELEVATION
 WDMS.m                 151.80:  WD ELEV
 APD .m                  43.60:  DEPTH ABOVE PD
 DEP .m                4092.57:  DEPTH
 AGAP.m                  43.60:  AIR GAP
 VSEW.m                  -0.67:  VERT SEC E/W
 VSNS.m                  -7.04:  VERT SEC N/S
 EKB .m                  43.60:  KB ELEVATION
 EDF .m                  43.60:  DF ELEVATION
 TDL .m                 957.50:  TOTAL DEPTH (LOGGER)
 VSC .                       0:  VS TO CLOSURE
 MAGU.                 1851413:  MAGUTM CHECKSUM
~Parameter Information Block
#MNEM.UNIT       Value        Description
#---------     -----------    ---------------------------
 AV  .mps                 1.50:  Ann Velocity 
 AVMX.mps                 2.00:  Max Ann Veloc 
 AZIF.deg               184.66:  Azm, Final 
 BHAT.        Rotary Steerable:  BHA Type 
 BREV.rev               300.00:  Rev Bit Total 
 BROT.°/30m              -0.50:  Build Rotating 
 BS  .in                  8.50:  Bit Size 
 BSZ .in                  8.50:  Bit Size 
 BTPL.psig              370.00:  Bit Press Loss 
 CABU.                      No:  Customer Abuse 
 CGEO.      Behruz Shahbaliyev:  Customer Geo 
 COMM.                     $K:  Run Comments 1 
 TCS .hr                140.08:  Time Ciculation Ended 
 CV  .mps                 3.00:  Crit Velocity 
 CVMX.mps                 3.20:  Max Crit Veloc 
 DD1 .            Musa Ahmadov:  Direct Drillr 1 
 DD2 .           Hamid Ahmadov:  Direct Drillr 2 
 DDSV.               Geo-Pilot:  DD Service 
 DEFF.%                  98.40:  % Det Eff 
 DLRX.°/30m               3.40:  Dogleg Rot Max 
 DLSO.°/30m               1.45:  Dogleg Oriented 
 DLSX.°/30m               3.40:  Dogleg Str Max 
 DRET.      18.40.00 29-Aug-21:  Drill End Time 
 DRST.      21.00.00 20-Aug-21:  Drill Start Tim 
 DTIM.hr                 69.47:  Time Drilling 
 EDEP.m                5084.50:  End Depth 
 ENG1.      Artemiy Matviyanov:  Engineer 1 
 ENG2.         Almaz Almadatov:  Engineer 2 
 ETIM.      18.40.00 29-Aug-21:  End Time 
 FLOI.gpm               500.00:  Flow In 
 FLON.gpm               400.00:  Flow In Min 
 FLOS.cptm                0.00:  Fluid Loss 
 FLOX.gpm               500.00:  Flow In Max 
 DFT .        Mineral Oil Base:  Mud Type 
 HFLO.                      No:  High Flow 
 HPRE.                      No:  High Pressure 
 HTEM.                      No:  High Temp 
 HYDO.m                   1.80:  Hydro Offset 
 IFIN.deg                25.62:  Inc, Final 
 IMAX.deg                48.69:  Inc Max 
 IMIN.deg                24.01:  Inc Min 
 IMND.m                4962.57:  Inc Min Depth 
 IMXD.m                4119.01:  Inc Max Depth 
 JARR.                      No:  Jarring 
 LETM.      18.40.00 29-Aug-21:  Log End Time 
 LOST.hr                     0:  Lost Rig Time 
 LSTM.      21.00.00 20-Aug-21:  Log Start Time 
 MDCL.ppm             41500.00:  Mud Chlorides 
 MDES.     Inversion Oil/Synthetic:  Mud Desc 
 DFD .sg                  1.56:  Mud Density 
 MDMN.sg                  1.56:  Dens Mud Min 
 MDMX.sg                  1.56:  Dens Mud Max 
 MOIL.                      70:  Run Mud Oil % 
 MOWR.                   70:30:  Run Mud OWR 
 MSND.                     0.2:  Run Mud Sand % 
 MSOL.                    23.3:  Run Mud Solids% 
 DFV .spqt               78.00:  Mud Viscosity 
 MWOD.in                  6.75:  MWD Tool OD 
 MWSI.                      No:  Serv Intrp, MWD 
 OTIM.hr                218.30:  Time Operating 
 PCON.           Look Like New:  Pad Condition 
 PMAX.psia            11015.30:  Press Op, Max 
 PV  .cP                 38.00:  Mud PV 
 RUN .                     300:  Run Number 
 ROPA.m/hr               15.00:  ROP Avg 
 ROPN.m/hr                9.00:  ROP Min 
 ROPX.m/hr               17.00:  ROP Max 
 RPMA.rpm               120.00:  RPM Surface Avg 
 RPMN.rpm                90.00:  RPM Surface Min 
 RPMX.rpm               140.00:  RPM Surface Max 
 RRUN.                     300:  Rig Run Number 
 RTIM.hr                 31.53:  Time Reaming 
 SAZI.deg               331.64:  Azm, Start 
 SDEP.m                4127.00:  Start Depth 
 SIDD.                      No:  Serv Intrp, DD 
 SINC.deg                48.43:  Inc, Start 
 SPPA.psig             5830.00:  SPP Avg 
 SPPN.psig             5600.00:  SPP Min 
 SPPX.psig             5900.00:  SPP Max 
 STIM.      21.00.00 20-Aug-21:  Start Time 
 SVCS.                 DD, MWD:  Services 
 SVER.                    9.20:  Sperry Version 
 TDAT.m                 957.50:  Tot Depth Attmp 
 TDDF.                      No:  Trip for DD 
 TDLG.m                 957.50:  Tot Depth Loggd 
 TFF .                      No:  Trip for Fail 
 TQAA.f-kp               15.00:  Torque Abs Avg 
 TQAN.f-kp               12.00:  Torque Abs Min 
 TQAX.f-kp               19.00:  Torque Abs Max 
 TRRT.°/30m              -3.40:  Turn Rotating 
 MRT .                  EWR-M5:  Maximum Recorded Temperature 
 TTMX.degC              100.00:  Max Tool Temp 
 VS01.                90639251:  Virtual Str1 SN 
 VS02.                90634715:  Virtual Str2 SN 
 VS03.                90652479:  Virtual Str3 SN 
 VS04.                90642262:  Virtual Str4 SN 
 WBMN.klb                 0.00:  WOB Min 
 WITN.           Murad Guliyev:  Customer Rep 
 WITN.          Yashar Gaziyev:  Customer Rep 2 
 WOBA.klb                 9.00:  WOB Avg 
 WOBX.klb                12.00:  WOB Max 
 YP  .lhf2               30.00:  Yield Point 
~Curve Information Block
#MNEM.UNIT                 API CODE     Curve Description
#---------               -----------    ---------------------------
 TIME.HHMMSS            00 000 000 000:  GT Time & Date
 GTDEPTH.m              00 000 000 000:  GT Depth
 GTPQH.psia             00 000 000 000:  GT HR Quartz Pressure
 GTTQ.degC              00 000 000 000:  GT Quartz Temperature
 GTTN.NONE              00 000 000 000:  GT Test Number
 GTET.sec               00 000 000 000:  GT Elapsed Test Time
 GTTVD.m                00 000 000 000:  GT True Vertical Depth
#Other Information
#
#WARRANTY: Halliburton will use its best efforts to furnish customers with 
#accurate information and interpretations that are part of, and incident to, the services 
#provided.  However, Halliburton cannot and does not warrant the accuracy 
#or correctness of such information and interpretations.  Under no circumstances should any 
#such information or interpretation be relied upon as the sole basis for any drilling, 
#completion, production, or financial decision or any procedure involving any risk to the 
#safety of any drilling venture, drilling rig or its crew or any other third party.  The 
#Customer has full responsibility for all drilling, completion and production operation.  
#Halliburton makes no representations or warranties, either expressed or 
#implied, including, but not limited to, the implied warranties of merchantability or fitness 
#for a particular purpose, with respect to the services rendered.  In no event will 
#Halliburton be liable for failure to obtain any particular results or for 
#any damages, including, but not limited to, indirect, special or consequential damages, 
#resulting from the use of any information or interpretation provided by Halliburton.
#
~A           TIME           GTDEPTH  GTPQH  GTTQ  GTTN  GTET   GTTVD  
# ...
   10:46:26.295.27-Aug-2021 4957.82 5097.70 85.93 9.00 160.81 3301.29
   10:46:26.495.27-Aug-2021 4957.82 5097.70 85.93 9.00 161.01 3301.29
   10:46:26.695.27-Aug-2021 4957.82 5096.98 85.93 9.00 161.21 3301.29
   10:46:26.895.27-Aug-2021 4957.82 5096.92 85.93 9.00 161.41 3301.29
   10:46:27.094.27-Aug-2021 4957.82 5100.32 85.93 9.00 161.61 3301.29
   10:46:27.294.27-Aug-2021 4957.82 5107.65 85.93 9.00 161.81 3301.29
   10:46:27.494.27-Aug-2021 4957.82 5107.65 85.93 9.00 162.01 3301.29
   10:46:27.694.27-Aug-2021 4957.82 5097.19 85.93 9.00 162.21 3301.29
   10:46:27.893.27-Aug-2021 4957.82 5096.24 85.93 9.00 162.41 3301.29
   10:46:28.093.27-Aug-2021 4957.82 5095.67 85.93 9.00 162.61 3301.29
   10:46:28.293.27-Aug-2021 4957.82 5095.95 85.93 9.00 162.81 3301.29
   10:46:28.493.27-Aug-2021 4957.82 5095.95 85.93 9.00 163.01 3301.29
   10:46:28.692.27-Aug-2021 4957.82 5095.15 85.93 9.00 163.21 3301.29
   10:46:28.892.27-Aug-2021 4957.82 5094.33 85.93 9.00 163.40 3301.29
   10:46:29.092.27-Aug-2021 4957.82 5094.19 85.93 9.00 163.60 3301.29
   10:46:29.292.27-Aug-2021 4957.82 5094.31 85.93 9.00 163.80 3301.29
   10:46:29.491.27-Aug-2021 4957.82 5094.31 85.93 9.00 164.00 3301.29
   10:46:29.691.27-Aug-2021 4957.82 5093.66 85.93 9.00 164.20 3301.29
   10:46:29.891.27-Aug-2021 4957.82 5093.71 85.93 9.00 164.40 3301.29
   10:46:30.091.27-Aug-2021 4957.82 5093.45 85.93 9.00 164.60 3301.29
   10:46:30.290.27-Aug-2021 4957.82 5093.65 85.93 9.00 164.80 3301.29
   10:46:30.490.27-Aug-2021 4957.82 5093.65 85.93 9.00 165.00 3301.29
   10:46:30.690.27-Aug-2021 4957.82 5093.57 85.93 9.00 165.20 3301.29
   10:46:30.890.27-Aug-2021 4957.82 5093.76 85.93 9.00 165.40 3301.29
   10:46:31.090.27-Aug-2021 4957.82 5093.99 85.93 9.00 165.60 3301.29
   10:46:31.289.27-Aug-2021 4957.82 5094.02 85.93 9.00 165.80 3301.29
   10:46:31.489.27-Aug-2021 4957.82 5094.02 85.93 9.00 166.00 3301.29
   10:46:31.689.27-Aug-2021 4957.82 5093.27 85.93 9.00 166.20 3301.29
   10:46:31.889.27-Aug-2021 4957.82 5093.91 85.93 9.00 166.40 3301.29
   10:46:32.088.27-Aug-2021 4957.82 5094.20 85.93 9.00 166.60 3301.29
   10:46:32.288.27-Aug-2021 4957.82 5094.52 85.93 9.00 166.80 3301.29
   10:46:32.488.27-Aug-2021 4957.82 5094.52 85.93 9.00 167.00 3301.29
   10:46:32.688.27-Aug-2021 4957.82 5094.16 85.93 9.00 167.20 3301.29
   10:46:32.887.27-Aug-2021 4957.82 5093.47 85.93 9.00 167.40 3301.29
   10:46:33.087.27-Aug-2021 4957.82 5094.06 85.93 9.00 167.60 3301.29
   10:46:33.287.27-Aug-2021 4957.82 5094.46 85.93 9.00 167.80 3301.29
   10:46:33.487.27-Aug-2021 4957.82 5094.46 85.93 9.00 168.00 3301.29
   10:46:33.686.27-Aug-2021 4957.82 5094.01 85.93 9.00 168.20 3301.29
   10:46:33.886.27-Aug-2021 4957.82 5093.94 85.93 9.00 168.40 3301.29
   10:46:34.086.27-Aug-2021 4957.82 5094.80 85.93 9.00 168.60 3301.29
   10:46:34.286.27-Aug-2021 4957.82 5093.39 85.93 9.00 168.80 3301.29
   10:46:34.485.27-Aug-2021 4957.82 5093.39 85.93 9.00 169.00 3301.29
   10:46:34.685.27-Aug-2021 4957.82 5094.09 85.93 9.00 169.20 3301.29
   10:46:34.885.27-Aug-2021 4957.82 5127.86 85.93 9.00 169.40 3301.29
   10:46:35.085.27-Aug-2021 4957.82 5153.08 85.93 9.00 169.60 3301.29
   10:46:35.285.27-Aug-2021 4957.82 5155.87 85.93 9.00 169.80 3301.29
   10:46:35.484.27-Aug-2021 4957.82 5155.87 85.93 9.00 170.00 3301.29
   10:46:35.684.27-Aug-2021 4957.82 5157.89 85.93 9.00 170.20 3301.29
   10:46:35.884.27-Aug-2021 4957.82 5158.58 85.93 9.00 170.40 3301.29
   10:46:36.084.27-Aug-2021 4957.82 5159.19 85.93 9.00 170.60 3301.29
   10:46:36.283.27-Aug-2021 4957.82 5159.71 85.93 9.00 170.80 3301.29
   10:46:36.483.27-Aug-2021 4957.82 5159.71 85.93 9.00 171.00 3301.29
   10:46:36.683.27-Aug-2021 4957.82 5160.59 85.93 9.00 171.20 3301.29
   10:46:36.883.27-Aug-2021 4957.82 5160.88 85.93 9.00 171.40 3301.29
   10:46:37.082.27-Aug-2021 4957.82 5161.23 85.93 9.00 171.60 3301.29
   10:46:37.282.27-Aug-2021 4957.82 5161.53 85.93 9.00 171.79 3301.29
   10:46:37.482.27-Aug-2021 4957.82 5161.53 85.93 9.00 171.99 3301.29
   10:46:37.682.27-Aug-2021 4957.82 5162.44 85.93 9.00 172.19 3301.29
   10:46:37.881.27-Aug-2021 4957.82 5162.87 85.93 9.00 172.39 3301.29
   10:46:38.081.27-Aug-2021 4957.82 5162.90 85.93 9.00 172.59 3301.29
   10:46:38.281.27-Aug-2021 4957.82 5163.00 85.93 9.00 172.79 3301.29
   10:46:38.481.27-Aug-2021 4957.82 5163.00 85.93 9.00 172.99 3301.29
   10:46:38.680.27-Aug-2021 4957.82 5163.21 85.93 9.00 173.19 3301.29
   10:46:38.880.27-Aug-2021 4957.82 5163.31 85.93 9.00 173.39 3301.29
   10:46:39.080.27-Aug-2021 4957.82 5163.45 85.93 9.00 173.59 3301.29
   10:46:39.280.27-Aug-2021 4957.82 5163.56 85.93 9.00 173.79 3301.29
   10:46:39.480.27-Aug-2021 4957.82 5163.56 85.93 9.00 173.99 3301.29
   10:46:39.679.27-Aug-2021 4957.82 5163.81 85.93 9.00 174.19 3301.29
   10:46:39.879.27-Aug-2021 4957.82 5163.92 85.93 9.00 174.39 3301.29
   10:46:40.079.27-Aug-2021 4957.82 5164.02 85.93 9.00 174.59 3301.29
   10:46:40.279.27-Aug-2021 4957.82 5164.11 85.93 9.00 174.79 3301.29
   10:46:40.478.27-Aug-2021 4957.82 5164.11 85.93 9.00 174.99 3301.29
   10:46:40.678.27-Aug-2021 4957.82 5164.28 85.93 9.00 175.19 3301.29
   10:46:40.878.27-Aug-2021 4957.82 5164.35 85.93 9.00 175.39 3301.29
   10:46:41.078.27-Aug-2021 4957.82 5164.93 85.93 9.00 175.59 3301.29
   10:46:41.277.27-Aug-2021 4957.82 5164.99 85.93 9.00 175.79 3301.29
   10:46:41.477.27-Aug-2021 4957.82 5164.99 85.93 9.00 175.99 3301.29
   10:46:41.677.27-Aug-2021 4957.82 5165.04 85.93 9.00 176.19 3301.29
   10:46:41.877.27-Aug-2021 4957.82 5165.08 85.93 9.00 176.39 3301.29
   10:46:42.076.27-Aug-2021 4957.82 5165.12 85.93 9.00 176.59 3301.29
   10:46:42.276.27-Aug-2021 4957.82 5165.23 85.93 9.00 176.79 3301.29
   10:46:42.476.27-Aug-2021 4957.82 5165.23 85.93 9.00 176.99 3301.29
   10:46:42.676.27-Aug-2021 4957.82 5165.45 85.93 9.00 177.19 3301.29
   10:46:42.875.27-Aug-2021 4957.82 5165.49 85.93 9.00 177.39 3301.29
   10:46:43.075.27-Aug-2021 4957.82 5165.53 85.93 9.00 177.59 3301.29
   10:46:43.275.27-Aug-2021 4957.82 5165.57 85.93 9.00 177.79 3301.29
   10:46:43.475.27-Aug-2021 4957.82 5165.57 85.93 9.00 177.99 3301.29
   10:46:43.675.27-Aug-2021 4957.82 5165.78 85.93 9.00 178.19 3301.29
   10:46:43.874.27-Aug-2021 4957.82 5165.81 85.93 9.00 178.39 3301.29
   10:46:44.074.27-Aug-2021 4957.82 5165.80 85.93 9.00 178.59 3301.29
   10:46:44.274.27-Aug-2021 4957.82 5165.84 85.93 9.00 178.79 3301.29
   10:46:44.474.27-Aug-2021 4957.82 5165.84 85.93 9.00 178.99 3301.29
   10:46:44.673.27-Aug-2021 4957.82 5166.04 85.93 9.00 179.19 3301.29
   10:46:44.873.27-Aug-2021 4957.82 5166.04 85.93 9.00 179.39 3301.29
   10:46:45.073.27-Aug-2021 4957.82 5166.01 85.93 9.00 179.59 3301.29
   10:46:45.273.27-Aug-2021 4957.82 5166.04 85.93 9.00 179.79 3301.29
   10:46:45.472.27-Aug-2021 4957.82 5166.04 85.93 9.00 179.99 3301.29
   10:46:45.672.27-Aug-2021 4957.82 5166.12 85.93 9.00 180.18 3301.29
   10:46:45.872.27-Aug-2021 4957.82 5166.12 85.93 9.00 180.38 3301.29
   10:46:46.072.27-Aug-2021 4957.82 5166.13 85.93 9.00 180.58 3301.29
   10:46:46.271.27-Aug-2021 4957.82 5166.15 85.93 9.00 180.78 3301.29
   10:46:46.471.27-Aug-2021 4957.82 5166.15 85.93 9.00 180.98 3301.29
   10:46:46.671.27-Aug-2021 4957.82 5166.22 85.93 9.00 181.18 3301.29
   10:46:46.871.27-Aug-2021 4957.82 5166.24 85.93 9.00 181.38 3301.29
   10:46:47.070.27-Aug-2021 4957.82 5166.24 85.93 9.00 181.58 3301.29
   10:46:47.270.27-Aug-2021 4957.82 5166.26 85.93 9.00 181.78 3301.29
   10:46:47.470.27-Aug-2021 4957.82 5166.26 85.93 9.00 181.98 3301.29
   10:46:47.670.27-Aug-2021 4957.82 5166.39 85.93 9.00 182.18 3301.29
   10:46:47.870.27-Aug-2021 4957.82 5166.50 85.93 9.00 182.38 3301.29
   10:46:48.069.27-Aug-2021 4957.82 5166.46 85.93 9.00 182.58 3301.29
   10:46:48.269.27-Aug-2021 4957.82 5166.46 85.93 9.00 182.78 3301.29
   10:46:48.469.27-Aug-2021 4957.82 5166.46 85.93 9.00 182.98 3301.29
   10:46:48.669.27-Aug-2021 4957.82 5166.50 85.93 9.00 183.18 3301.29
   10:46:48.868.27-Aug-2021 4957.82 5166.52 85.93 9.00 183.38 3301.29
   10:46:49.068.27-Aug-2021 4957.82 5166.54 85.93 9.00 183.58 3301.29
