~Version Information
 VERS.                  2.0:   CWLS log ASCII Standard -VERSION 2.0
 WRAP.                   NO:   One line per depth step
~Well Information Block
#MNEM.UNIT     VALUE/NAME     DESCRIPTION
#---------     -----------    ---------------------------
 STRT.S             15:52:10 27-Aug-21: START TIME 15:52:10 27-Aug-21
 STOP.S             15:59:26 27-Aug-21: STOP TIME  15:59:26 27-Aug-21
 STEP.S                   0.00: STEP TIME
 NULL.                 -999.25: NULL VALUE
 DFWT.                        :  DIST FWL TEXT
 DFST.                        :  DIST FSL TEXT
 DMF .             Drill Floor:  DRILL MEAS FROM
 STIM.      20.00.00 17-Aug-21:  START TIME
 DATE.      19.00.00 29-Aug-21:  END TIME
 SPUD.               15-Aug-21:  SPUD DATE
 NREF.                    Grid:  NORTH REFERENCE
 HPTY.       Minimum Curvature:  HOLE POS TYPE
 DMOD.             Drill Model:  DRILL MOD DESC
 SVYD.                  Survey:  SURVEY DESC
 ILTD.               Lithology:  INTERP LTH DESC
 FTOP.          Formation Tops:  FORM TOPS DESC
 RIG .              East Azeri:  RIG NAME
 PDAT.          Mean Sea Level:  PERMANENT DATUM
 FLD .                     ACG:  FIELD NAME
 SON .        AZ-XX-0907180857:  JOB NUMBER
 CTRY.              Azerbaijan:  COUNTRY NAME
 WELL.                    D23x:  WELL NAME
 SRVC.     Turan Drilling and Engineering:  CONTRACTOR
 COMP.     BP Exploration (Caspian Sea) Ltd.:  COMPANY
 UWI .            /AZE00000214:  UNIQUE WELL IDENTIFIER
 API .            /AZE00000214:  API NUMBER
 MDS .        Operator Entered:  MAG DATA SOURCE
 BASE.              Azerbaijan:  LOGGING EQUIPMENT BASE LOCATION
 REGN.                   EESSA:  REGION
 PROV.                    Baku:  PROVINCE
 STAT.                    Baku:  STATE NAME
 MWDS.                    Baku:  MWD SHOP
 DOE .                     N/A:  DOE NUMBER
 DCON.         Sperry Drilling:  DIRECTNL CONTR
 UNIT.                     N/A:  LOGGING EQUIPMENT ID
 WTYP.                Deviated:  WELL TYPE
 CNTY.                        :  COUNTY
 LOC .                        :  LOCATION
 LMF .             Drill Floor:  LOG MEASURED FROM
 TVDS.m                  43.60:  TVDSS CORRECTN
 LATI.deg                40.02:  LATITUDE
 LONG.deg                51.45:  LONGITUDE
 WHNS.m                  -7.04:  WELL HEAD N/S
 WHEW.m                  -0.67:  WELL HEAD E/W
 UTMX.m              538762.90:  UTM X
 UTMY.m             4431871.34:  UTM Y
 DFWL.m                   0.00:  DISTANCE FWL
 DFSL.m                   0.00:  DISTANCE FSL
 SDEP.m                4127.00:  START DEPTH
 TDD .m                5084.50:  TOTAL DEPTH (DRILLER)
 VSDR.deg               140.47:  VERT SEC DIRECT
 GVFD.g                   1.00:  GRAVITY FIELD
 MFLD.nT              50362.00:  MAGNETIC FIELD
 MDIP.deg                59.48:  MAGNETIC DIP
 MDEC.deg                 6.47:  MAGNETIC DECL
 GRDC.deg                 0.31:  GRID CORRECTION
 AZTC.deg                 6.16:  AZM TOTAL CORR
 EPD .m                   0.00:  ELEVATION
 EGL .m                   0.00:  GROUND ELEVATION
 WDMS.m                 151.80:  WD ELEV
 APD .m                  43.60:  DEPTH ABOVE PD
 DEP .m                4092.57:  DEPTH
 AGAP.m                  43.60:  AIR GAP
 VSEW.m                  -0.67:  VERT SEC E/W
 VSNS.m                  -7.04:  VERT SEC N/S
 EKB .m                  43.60:  KB ELEVATION
 EDF .m                  43.60:  DF ELEVATION
 TDL .m                 957.50:  TOTAL DEPTH (LOGGER)
 VSC .                       0:  VS TO CLOSURE
 MAGU.                 1851413:  MAGUTM CHECKSUM
~Parameter Information Block
#MNEM.UNIT       Value        Description
#---------     -----------    ---------------------------
 AV  .mps                 1.50:  Ann Velocity 
 AVMX.mps                 2.00:  Max Ann Veloc 
 AZIF.deg               184.66:  Azm, Final 
 BHAT.        Rotary Steerable:  BHA Type 
 BREV.rev               300.00:  Rev Bit Total 
 BROT.°/30m              -0.50:  Build Rotating 
 BS  .in                  8.50:  Bit Size 
 BSZ .in                  8.50:  Bit Size 
 BTPL.psig              370.00:  Bit Press Loss 
 CABU.                      No:  Customer Abuse 
 CGEO.      Behruz Shahbaliyev:  Customer Geo 
 COMM.                     Ìu:  Run Comments 1 
 TCS .hr                140.08:  Time Ciculation Ended 
 CV  .mps                 3.00:  Crit Velocity 
 CVMX.mps                 3.20:  Max Crit Veloc 
 DD1 .            Musa Ahmadov:  Direct Drillr 1 
 DD2 .           Hamid Ahmadov:  Direct Drillr 2 
 DDSV.               Geo-Pilot:  DD Service 
 DEFF.%                  98.40:  % Det Eff 
 DLRX.°/30m               3.40:  Dogleg Rot Max 
 DLSO.°/30m               1.45:  Dogleg Oriented 
 DLSX.°/30m               3.40:  Dogleg Str Max 
 DRET.      18.40.00 29-Aug-21:  Drill End Time 
 DRST.      21.00.00 20-Aug-21:  Drill Start Tim 
 DTIM.hr                 69.47:  Time Drilling 
 EDEP.m                5084.50:  End Depth 
 ENG1.      Artemiy Matviyanov:  Engineer 1 
 ENG2.         Almaz Almadatov:  Engineer 2 
 ETIM.      18.40.00 29-Aug-21:  End Time 
 FLOI.gpm               500.00:  Flow In 
 FLON.gpm               400.00:  Flow In Min 
 FLOS.cptm                0.00:  Fluid Loss 
 FLOX.gpm               500.00:  Flow In Max 
 DFT .        Mineral Oil Base:  Mud Type 
 HFLO.                      No:  High Flow 
 HPRE.                      No:  High Pressure 
 HTEM.                      No:  High Temp 
 HYDO.m                   1.80:  Hydro Offset 
 IFIN.deg                25.62:  Inc, Final 
 IMAX.deg                48.69:  Inc Max 
 IMIN.deg                24.01:  Inc Min 
 IMND.m                4962.57:  Inc Min Depth 
 IMXD.m                4119.01:  Inc Max Depth 
 JARR.                      No:  Jarring 
 LETM.      18.40.00 29-Aug-21:  Log End Time 
 LOST.hr                     0:  Lost Rig Time 
 LSTM.      21.00.00 20-Aug-21:  Log Start Time 
 MDCL.ppm             41500.00:  Mud Chlorides 
 MDES.     Inversion Oil/Synthetic:  Mud Desc 
 DFD .sg                  1.56:  Mud Density 
 MDMN.sg                  1.56:  Dens Mud Min 
 MDMX.sg                  1.56:  Dens Mud Max 
 MOIL.                      70:  Run Mud Oil % 
 MOWR.                   70:30:  Run Mud OWR 
 MSND.                     0.2:  Run Mud Sand % 
 MSOL.                    23.3:  Run Mud Solids% 
 DFV .spqt               78.00:  Mud Viscosity 
 MWOD.in                  6.75:  MWD Tool OD 
 MWSI.                      No:  Serv Intrp, MWD 
 OTIM.hr                218.30:  Time Operating 
 PCON.           Look Like New:  Pad Condition 
 PMAX.psia            11015.30:  Press Op, Max 
 PV  .cP                 38.00:  Mud PV 
 RUN .                     300:  Run Number 
 ROPA.m/hr               15.00:  ROP Avg 
 ROPN.m/hr                9.00:  ROP Min 
 ROPX.m/hr               17.00:  ROP Max 
 RPMA.rpm               120.00:  RPM Surface Avg 
 RPMN.rpm                90.00:  RPM Surface Min 
 RPMX.rpm               140.00:  RPM Surface Max 
 RRUN.                     300:  Rig Run Number 
 RTIM.hr                 31.53:  Time Reaming 
 SAZI.deg               331.64:  Azm, Start 
 SDEP.m                4127.00:  Start Depth 
 SIDD.                      No:  Serv Intrp, DD 
 SINC.deg                48.43:  Inc, Start 
 SPPA.psig             5830.00:  SPP Avg 
 SPPN.psig             5600.00:  SPP Min 
 SPPX.psig             5900.00:  SPP Max 
 STIM.      21.00.00 20-Aug-21:  Start Time 
 SVCS.                 DD, MWD:  Services 
 SVER.                    9.20:  Sperry Version 
 TDAT.m                 957.50:  Tot Depth Attmp 
 TDDF.                      No:  Trip for DD 
 TDLG.m                 957.50:  Tot Depth Loggd 
 TFF .                      No:  Trip for Fail 
 TQAA.f-kp               15.00:  Torque Abs Avg 
 TQAN.f-kp               12.00:  Torque Abs Min 
 TQAX.f-kp               19.00:  Torque Abs Max 
 TRRT.°/30m              -3.40:  Turn Rotating 
 MRT .                  EWR-M5:  Maximum Recorded Temperature 
 TTMX.degC              100.00:  Max Tool Temp 
 VS01.                90639251:  Virtual Str1 SN 
 VS02.                90634715:  Virtual Str2 SN 
 VS03.                90652479:  Virtual Str3 SN 
 VS04.                90642262:  Virtual Str4 SN 
 WBMN.klb                 0.00:  WOB Min 
 WITN.           Murad Guliyev:  Customer Rep 
 WITN.          Yashar Gaziyev:  Customer Rep 2 
 WOBA.klb                 9.00:  WOB Avg 
 WOBX.klb                12.00:  WOB Max 
 YP  .lhf2               30.00:  Yield Point 
~Curve Information Block
#MNEM.UNIT                 API CODE     Curve Description
#---------               -----------    ---------------------------
 TIME.HHMMSS            00 000 000 000:  GT Time & Date
 GTDEPTH.m              00 000 000 000:  GT Depth
 GTPQH.psia             00 000 000 000:  GT HR Quartz Pressure
 GTTQ.degC              00 000 000 000:  GT Quartz Temperature
 GTTN.NONE              00 000 000 000:  GT Test Number
 GTET.sec               00 000 000 000:  GT Elapsed Test Time
 GTTVD.m                00 000 000 000:  GT True Vertical Depth
#Other Information
#
#WARRANTY: Halliburton will use its best efforts to furnish customers with 
#accurate information and interpretations that are part of, and incident to, the services 
#provided.  However, Halliburton cannot and does not warrant the accuracy 
#or correctness of such information and interpretations.  Under no circumstances should any 
#such information or interpretation be relied upon as the sole basis for any drilling, 
#completion, production, or financial decision or any procedure involving any risk to the 
#safety of any drilling venture, drilling rig or its crew or any other third party.  The 
#Customer has full responsibility for all drilling, completion and production operation.  
#Halliburton makes no representations or warranties, either expressed or 
#implied, including, but not limited to, the implied warranties of merchantability or fitness 
#for a particular purpose, with respect to the services rendered.  In no event will 
#Halliburton be liable for failure to obtain any particular results or for 
#any damages, including, but not limited to, indirect, special or consequential damages, 
#resulting from the use of any information or interpretation provided by Halliburton.
#
~A           TIME           GTDEPTH  GTPQH  GTTQ  GTTN   GTET   GTTVD  
# ...
   15:55:11.859.27-Aug-2021 4817.00 5229.51 83.60 16.00 181.09 3173.43
   15:55:12.059.27-Aug-2021 4817.00 5229.49 83.60 16.00 181.29 3173.43
   15:55:12.260.27-Aug-2021 4817.00 5229.49 83.60 16.00 181.49 3173.43
   15:55:12.460.27-Aug-2021 4817.00 5229.49 83.60 16.00 181.69 3173.43
   15:55:12.660.27-Aug-2021 4817.00 5229.48 83.60 16.00 181.89 3173.43
   15:55:12.860.27-Aug-2021 4817.00 5229.47 83.60 16.00 182.09 3173.43
   15:55:13.061.27-Aug-2021 4817.00 5229.47 83.60 16.00 182.29 3173.43
   15:55:13.261.27-Aug-2021 4817.00 5229.47 83.60 16.00 182.49 3173.43
   15:55:13.461.27-Aug-2021 4817.00 5229.53 83.60 16.00 182.69 3173.43
   15:55:13.662.27-Aug-2021 4817.00 5229.62 83.60 16.00 182.89 3173.43
   15:55:13.862.27-Aug-2021 4817.00 5229.66 83.60 16.00 183.09 3173.43
   15:55:14.062.27-Aug-2021 4817.00 5229.56 83.60 16.00 183.29 3173.43
   15:55:14.263.27-Aug-2021 4817.00 5229.56 83.60 16.00 183.49 3173.43
   15:55:14.463.27-Aug-2021 4817.00 5229.56 83.60 16.00 183.69 3173.43
   15:55:14.663.27-Aug-2021 4817.00 5229.57 83.60 16.00 183.89 3173.43
   15:55:14.864.27-Aug-2021 4817.00 5229.56 83.60 16.00 184.09 3173.43
   15:55:15.064.27-Aug-2021 4817.00 5229.56 83.60 16.00 184.29 3173.43
   15:55:15.264.27-Aug-2021 4817.00 5229.56 83.60 16.00 184.49 3173.43
   15:55:15.465.27-Aug-2021 4817.00 5229.55 83.60 16.00 184.69 3173.43
   15:55:15.665.27-Aug-2021 4817.00 5229.56 83.60 16.00 184.89 3173.43
   15:55:15.865.27-Aug-2021 4817.00 5229.54 83.60 16.00 185.09 3173.43
   15:55:16.066.27-Aug-2021 4817.00 5229.54 83.60 16.00 185.29 3173.43
   15:55:16.266.27-Aug-2021 4817.00 5229.54 83.60 16.00 185.49 3173.43
   15:55:16.466.27-Aug-2021 4817.00 5229.53 83.60 16.00 185.70 3173.43
   15:55:16.667.27-Aug-2021 4817.00 5229.50 83.60 16.00 185.90 3173.43
   15:55:16.867.27-Aug-2021 4817.00 5229.55 83.60 16.00 186.10 3173.43
   15:55:17.067.27-Aug-2021 4817.00 5229.64 83.60 16.00 186.30 3173.43
   15:55:17.267.27-Aug-2021 4817.00 5229.64 83.60 16.00 186.50 3173.43
   15:55:17.468.27-Aug-2021 4817.00 5229.60 83.60 16.00 186.70 3173.43
   15:55:17.668.27-Aug-2021 4817.00 5229.59 83.60 16.00 186.90 3173.43
   15:55:17.868.27-Aug-2021 4817.00 5229.54 83.60 16.00 187.10 3173.43
   15:55:18.069.27-Aug-2021 4817.00 5229.66 83.60 16.00 187.30 3173.43
   15:55:18.269.27-Aug-2021 4817.00 5229.66 83.60 16.00 187.50 3173.43
   15:55:18.469.27-Aug-2021 4817.00 5229.61 83.60 16.00 187.70 3173.43
   15:55:18.670.27-Aug-2021 4817.00 5229.62 83.60 16.00 187.90 3173.43
   15:55:18.870.27-Aug-2021 4817.00 5229.61 83.60 16.00 188.10 3173.43
   15:55:19.070.27-Aug-2021 4817.00 5229.62 83.60 16.00 188.30 3173.43
   15:55:19.271.27-Aug-2021 4817.00 5229.62 83.60 16.00 188.50 3173.43
   15:55:19.471.27-Aug-2021 4817.00 5229.72 83.60 16.00 188.70 3173.43
   15:55:19.671.27-Aug-2021 4817.00 5229.61 83.60 16.00 188.90 3173.43
   15:55:19.872.27-Aug-2021 4817.00 5229.64 83.60 16.00 189.10 3173.43
   15:55:20.072.27-Aug-2021 4817.00 5229.57 83.60 16.00 189.30 3173.43
   15:55:20.272.27-Aug-2021 4817.00 5229.57 83.60 16.00 189.50 3173.43
   15:55:20.473.27-Aug-2021 4817.00 5229.69 83.60 16.00 189.70 3173.43
   15:55:20.673.27-Aug-2021 4817.00 5229.64 83.60 16.00 189.90 3173.43
   15:55:20.873.27-Aug-2021 4817.00 5229.65 83.60 16.00 190.10 3173.43
   15:55:21.074.27-Aug-2021 4817.00 5229.64 83.60 16.00 190.30 3173.43
   15:55:21.274.27-Aug-2021 4817.00 5229.64 83.60 16.00 190.50 3173.43
   15:55:21.474.27-Aug-2021 4817.00 5229.63 83.60 16.00 190.70 3173.43
   15:55:21.674.27-Aug-2021 4817.00 5229.64 83.60 16.00 190.90 3173.43
   15:55:21.875.27-Aug-2021 4817.00 5229.63 83.60 16.00 191.10 3173.43
   15:55:22.075.27-Aug-2021 4817.00 5229.63 83.60 16.00 191.30 3173.43
   15:55:22.275.27-Aug-2021 4817.00 5229.63 83.60 16.00 191.50 3173.43
   15:55:22.476.27-Aug-2021 4817.00 5229.62 83.60 16.00 191.70 3173.43
   15:55:22.676.27-Aug-2021 4817.00 5229.62 83.60 16.00 191.91 3173.43
   15:55:22.876.27-Aug-2021 4817.00 5229.61 83.60 16.00 192.11 3173.43
   15:55:23.077.27-Aug-2021 4817.00 5229.84 83.60 16.00 192.31 3173.43
   15:55:23.277.27-Aug-2021 4817.00 5229.84 83.60 16.00 192.51 3173.43
   15:55:23.477.27-Aug-2021 4817.00 5229.66 83.60 16.00 192.71 3173.43
   15:55:23.678.27-Aug-2021 4817.00 5229.65 83.60 16.00 192.91 3173.43
   15:55:23.878.27-Aug-2021 4817.00 5229.63 83.60 16.00 193.11 3173.43
   15:55:24.078.27-Aug-2021 4817.00 5229.64 83.60 16.00 193.31 3173.43
   15:55:24.279.27-Aug-2021 4817.00 5229.64 83.60 16.00 193.51 3173.43
   15:55:24.479.27-Aug-2021 4817.00 5229.63 83.60 16.00 193.71 3173.43
   15:55:24.679.27-Aug-2021 4817.00 5229.64 83.60 16.00 193.91 3173.43
   15:55:24.880.27-Aug-2021 4817.00 5229.63 83.60 16.00 194.11 3173.43
   15:55:25.080.27-Aug-2021 4817.00 5229.63 83.60 16.00 194.31 3173.43
   15:55:25.280.27-Aug-2021 4817.00 5229.63 83.60 16.00 194.51 3173.43
   15:55:25.481.27-Aug-2021 4817.00 5229.63 83.59 16.00 194.71 3173.43
   15:55:25.681.27-Aug-2021 4817.00 5229.62 83.59 16.00 194.91 3173.43
   15:55:25.881.27-Aug-2021 4817.00 5229.62 83.59 16.00 195.11 3173.43
   15:55:26.081.27-Aug-2021 4817.00 5229.63 83.59 16.00 195.31 3173.43
   15:55:26.282.27-Aug-2021 4817.00 5229.63 83.59 16.00 195.51 3173.43
   15:55:26.482.27-Aug-2021 4817.00 5229.83 83.59 16.00 195.71 3173.43
   15:55:26.682.27-Aug-2021 4817.00 5229.47 83.59 16.00 195.91 3173.43
   15:55:26.883.27-Aug-2021 4817.00 5229.66 83.59 16.00 196.11 3173.43
   15:55:27.083.27-Aug-2021 4817.00 5229.64 83.59 16.00 196.31 3173.43
   15:55:27.283.27-Aug-2021 4817.00 5229.64 83.59 16.00 196.51 3173.43
   15:55:27.484.27-Aug-2021 4817.00 5229.86 83.59 16.00 196.71 3173.43
   15:55:27.684.27-Aug-2021 4817.00 5229.44 83.59 16.00 196.91 3173.43
   15:55:27.884.27-Aug-2021 4817.00 5229.71 83.59 16.00 197.11 3173.43
   15:55:28.085.27-Aug-2021 4817.00 5229.66 83.59 16.00 197.31 3173.43
   15:55:28.285.27-Aug-2021 4817.00 5229.66 83.59 16.00 197.51 3173.43
   15:55:28.485.27-Aug-2021 4817.00 5229.66 83.59 16.00 197.71 3173.43
   15:55:28.686.27-Aug-2021 4817.00 5229.83 83.59 16.00 197.91 3173.43
   15:55:28.886.27-Aug-2021 4817.00 5229.52 83.59 16.00 198.11 3173.43
   15:55:29.086.27-Aug-2021 4817.00 5229.67 83.59 16.00 198.32 3173.43
   15:55:29.287.27-Aug-2021 4817.00 5229.67 83.59 16.00 198.52 3173.43
   15:55:29.487.27-Aug-2021 4817.00 5229.64 83.59 16.00 198.72 3173.43
   15:55:29.687.27-Aug-2021 4817.00 5229.58 83.59 16.00 198.92 3173.43
   15:55:29.888.27-Aug-2021 4817.00 5229.77 83.59 16.00 199.12 3173.43
   15:55:30.088.27-Aug-2021 4817.00 5229.68 83.59 16.00 199.32 3173.43
   15:55:30.288.27-Aug-2021 4817.00 5229.68 83.59 16.00 199.52 3173.43
   15:55:30.488.27-Aug-2021 4817.00 5229.63 83.59 16.00 199.72 3173.43
   15:55:30.689.27-Aug-2021 4817.00 5229.66 83.59 16.00 199.92 3173.43
   15:55:30.889.27-Aug-2021 4817.00 5229.65 83.59 16.00 200.12 3173.43
   15:55:31.089.27-Aug-2021 4817.00 5229.66 83.59 16.00 200.32 3173.43
   15:55:31.290.27-Aug-2021 4817.00 5229.66 83.59 16.00 200.52 3173.43
   15:55:31.490.27-Aug-2021 4817.00 5229.65 83.59 16.00 200.72 3173.43
   15:55:31.690.27-Aug-2021 4817.00 5229.65 83.59 16.00 200.92 3173.43
   15:55:31.891.27-Aug-2021 4817.00 5229.66 83.59 16.00 201.12 3173.43
   15:55:32.091.27-Aug-2021 4817.00 5229.65 83.59 16.00 201.32 3173.43
   15:55:32.291.27-Aug-2021 4817.00 5229.65 83.59 16.00 201.52 3173.43
   15:55:32.492.27-Aug-2021 4817.00 5229.65 83.59 16.00 201.72 3173.43
   15:55:32.692.27-Aug-2021 4817.00 5229.83 83.59 16.00 201.92 3173.43
   15:55:32.892.27-Aug-2021 4817.00 5229.50 83.59 16.00 202.12 3173.43
   15:55:33.093.27-Aug-2021 4817.00 5229.60 83.59 16.00 202.32 3173.43
   15:55:33.293.27-Aug-2021 4817.00 5229.60 83.59 16.00 202.52 3173.43
   15:55:33.493.27-Aug-2021 4817.00 5229.66 83.59 16.00 202.72 3173.43
   15:55:33.694.27-Aug-2021 4817.00 5229.64 83.59 16.00 202.92 3173.43
   15:55:33.894.27-Aug-2021 4817.00 5229.65 83.59 16.00 203.12 3173.43
   15:55:34.094.27-Aug-2021 4817.00 5229.66 83.59 16.00 203.32 3173.43
   15:55:34.295.27-Aug-2021 4817.00 5229.66 83.59 16.00 203.52 3173.43
