~Version Information
 VERS.                  2.0:   CWLS log ASCII Standard -VERSION 2.0
 WRAP.                   NO:   One line per depth step
~Well Information Block
#MNEM.UNIT     VALUE/NAME     DESCRIPTION
#---------     -----------    ---------------------------
 STRT.S             02:31:31 28-Aug-21: START TIME 02:31:31 28-Aug-21
 STOP.S             02:38:23 28-Aug-21: STOP TIME  02:38:23 28-Aug-21
 STEP.S                   0.00: STEP TIME
 NULL.                 -999.25: NULL VALUE
 DFWT.                        :  DIST FWL TEXT
 DFST.                        :  DIST FSL TEXT
 DMF .             Drill Floor:  DRILL MEAS FROM
 STIM.      20.00.00 17-Aug-21:  START TIME
 DATE.      19.00.00 29-Aug-21:  END TIME
 SPUD.               15-Aug-21:  SPUD DATE
 NREF.                    Grid:  NORTH REFERENCE
 HPTY.       Minimum Curvature:  HOLE POS TYPE
 DMOD.             Drill Model:  DRILL MOD DESC
 SVYD.                  Survey:  SURVEY DESC
 ILTD.               Lithology:  INTERP LTH DESC
 FTOP.          Formation Tops:  FORM TOPS DESC
 RIG .              East Azeri:  RIG NAME
 PDAT.          Mean Sea Level:  PERMANENT DATUM
 FLD .                     ACG:  FIELD NAME
 SON .        AZ-XX-0907180857:  JOB NUMBER
 CTRY.              Azerbaijan:  COUNTRY NAME
 WELL.                    D23x:  WELL NAME
 SRVC.     Turan Drilling and Engineering:  CONTRACTOR
 COMP.     BP Exploration (Caspian Sea) Ltd.:  COMPANY
 UWI .            /AZE00000214:  UNIQUE WELL IDENTIFIER
 API .            /AZE00000214:  API NUMBER
 MDS .        Operator Entered:  MAG DATA SOURCE
 BASE.              Azerbaijan:  LOGGING EQUIPMENT BASE LOCATION
 REGN.                   EESSA:  REGION
 PROV.                    Baku:  PROVINCE
 STAT.                    Baku:  STATE NAME
 MWDS.                    Baku:  MWD SHOP
 DOE .                     N/A:  DOE NUMBER
 DCON.         Sperry Drilling:  DIRECTNL CONTR
 UNIT.                     N/A:  LOGGING EQUIPMENT ID
 WTYP.                Deviated:  WELL TYPE
 CNTY.                        :  COUNTY
 LOC .                        :  LOCATION
 LMF .             Drill Floor:  LOG MEASURED FROM
 TVDS.m                  43.60:  TVDSS CORRECTN
 LATI.deg                40.02:  LATITUDE
 LONG.deg                51.45:  LONGITUDE
 WHNS.m                  -7.04:  WELL HEAD N/S
 WHEW.m                  -0.67:  WELL HEAD E/W
 UTMX.m              538762.90:  UTM X
 UTMY.m             4431871.34:  UTM Y
 DFWL.m                   0.00:  DISTANCE FWL
 DFSL.m                   0.00:  DISTANCE FSL
 SDEP.m                4127.00:  START DEPTH
 TDD .m                5084.50:  TOTAL DEPTH (DRILLER)
 VSDR.deg               140.47:  VERT SEC DIRECT
 GVFD.g                   1.00:  GRAVITY FIELD
 MFLD.nT              50362.00:  MAGNETIC FIELD
 MDIP.deg                59.48:  MAGNETIC DIP
 MDEC.deg                 6.47:  MAGNETIC DECL
 GRDC.deg                 0.31:  GRID CORRECTION
 AZTC.deg                 6.16:  AZM TOTAL CORR
 EPD .m                   0.00:  ELEVATION
 EGL .m                   0.00:  GROUND ELEVATION
 WDMS.m                 151.80:  WD ELEV
 APD .m                  43.60:  DEPTH ABOVE PD
 DEP .m                4092.57:  DEPTH
 AGAP.m                  43.60:  AIR GAP
 VSEW.m                  -0.67:  VERT SEC E/W
 VSNS.m                  -7.04:  VERT SEC N/S
 EKB .m                  43.60:  KB ELEVATION
 EDF .m                  43.60:  DF ELEVATION
 TDL .m                 957.50:  TOTAL DEPTH (LOGGER)
 VSC .                       0:  VS TO CLOSURE
 MAGU.                 1851413:  MAGUTM CHECKSUM
~Parameter Information Block
#MNEM.UNIT       Value        Description
#---------     -----------    ---------------------------
 AV  .mps                 1.50:  Ann Velocity 
 AVMX.mps                 2.00:  Max Ann Veloc 
 AZIF.deg               184.66:  Azm, Final 
 BHAT.        Rotary Steerable:  BHA Type 
 BREV.rev               300.00:  Rev Bit Total 
 BROT.°/30m              -0.50:  Build Rotating 
 BS  .in                  8.50:  Bit Size 
 BSZ .in                  8.50:  Bit Size 
 BTPL.psig              370.00:  Bit Press Loss 
 CABU.                      No:  Customer Abuse 
 CGEO.      Behruz Shahbaliyev:  Customer Geo 
 COMM.                     Œjp:  Run Comments 1 
 TCS .hr                140.08:  Time Ciculation Ended 
 CV  .mps                 3.00:  Crit Velocity 
 CVMX.mps                 3.20:  Max Crit Veloc 
 DD1 .            Musa Ahmadov:  Direct Drillr 1 
 DD2 .           Hamid Ahmadov:  Direct Drillr 2 
 DDSV.               Geo-Pilot:  DD Service 
 DEFF.%                  98.40:  % Det Eff 
 DLRX.°/30m               3.40:  Dogleg Rot Max 
 DLSO.°/30m               1.45:  Dogleg Oriented 
 DLSX.°/30m               3.40:  Dogleg Str Max 
 DRET.      18.40.00 29-Aug-21:  Drill End Time 
 DRST.      21.00.00 20-Aug-21:  Drill Start Tim 
 DTIM.hr                 69.47:  Time Drilling 
 EDEP.m                5084.50:  End Depth 
 ENG1.      Artemiy Matviyanov:  Engineer 1 
 ENG2.         Almaz Almadatov:  Engineer 2 
 ETIM.      18.40.00 29-Aug-21:  End Time 
 FLOI.gpm               500.00:  Flow In 
 FLON.gpm               400.00:  Flow In Min 
 FLOS.cptm                0.00:  Fluid Loss 
 FLOX.gpm               500.00:  Flow In Max 
 DFT .        Mineral Oil Base:  Mud Type 
 HFLO.                      No:  High Flow 
 HPRE.                      No:  High Pressure 
 HTEM.                      No:  High Temp 
 HYDO.m                   1.80:  Hydro Offset 
 IFIN.deg                25.62:  Inc, Final 
 IMAX.deg                48.69:  Inc Max 
 IMIN.deg                24.01:  Inc Min 
 IMND.m                4962.57:  Inc Min Depth 
 IMXD.m                4119.01:  Inc Max Depth 
 JARR.                      No:  Jarring 
 LETM.      18.40.00 29-Aug-21:  Log End Time 
 LOST.hr                     0:  Lost Rig Time 
 LSTM.      21.00.00 20-Aug-21:  Log Start Time 
 MDCL.ppm             41500.00:  Mud Chlorides 
 MDES.     Inversion Oil/Synthetic:  Mud Desc 
 DFD .sg                  1.56:  Mud Density 
 MDMN.sg                  1.56:  Dens Mud Min 
 MDMX.sg                  1.56:  Dens Mud Max 
 MOIL.                      70:  Run Mud Oil % 
 MOWR.                   70:30:  Run Mud OWR 
 MSND.                     0.2:  Run Mud Sand % 
 MSOL.                    23.3:  Run Mud Solids% 
 DFV .spqt               78.00:  Mud Viscosity 
 MWOD.in                  6.75:  MWD Tool OD 
 MWSI.                      No:  Serv Intrp, MWD 
 OTIM.hr                218.30:  Time Operating 
 PCON.           Look Like New:  Pad Condition 
 PMAX.psia            11015.30:  Press Op, Max 
 PV  .cP                 38.00:  Mud PV 
 RUN .                     300:  Run Number 
 ROPA.m/hr               15.00:  ROP Avg 
 ROPN.m/hr                9.00:  ROP Min 
 ROPX.m/hr               17.00:  ROP Max 
 RPMA.rpm               120.00:  RPM Surface Avg 
 RPMN.rpm                90.00:  RPM Surface Min 
 RPMX.rpm               140.00:  RPM Surface Max 
 RRUN.                     300:  Rig Run Number 
 RTIM.hr                 31.53:  Time Reaming 
 SAZI.deg               331.64:  Azm, Start 
 SDEP.m                4127.00:  Start Depth 
 SIDD.                      No:  Serv Intrp, DD 
 SINC.deg                48.43:  Inc, Start 
 SPPA.psig             5830.00:  SPP Avg 
 SPPN.psig             5600.00:  SPP Min 
 SPPX.psig             5900.00:  SPP Max 
 STIM.      21.00.00 20-Aug-21:  Start Time 
 SVCS.                 DD, MWD:  Services 
 SVER.                    9.20:  Sperry Version 
 TDAT.m                 957.50:  Tot Depth Attmp 
 TDDF.                      No:  Trip for DD 
 TDLG.m                 957.50:  Tot Depth Loggd 
 TFF .                      No:  Trip for Fail 
 TQAA.f-kp               15.00:  Torque Abs Avg 
 TQAN.f-kp               12.00:  Torque Abs Min 
 TQAX.f-kp               19.00:  Torque Abs Max 
 TRRT.°/30m              -3.40:  Turn Rotating 
 MRT .                  EWR-M5:  Maximum Recorded Temperature 
 TTMX.degC              100.00:  Max Tool Temp 
 VS01.                90639251:  Virtual Str1 SN 
 VS02.                90634715:  Virtual Str2 SN 
 VS03.                90652479:  Virtual Str3 SN 
 VS04.                90642262:  Virtual Str4 SN 
 WBMN.klb                 0.00:  WOB Min 
 WITN.           Murad Guliyev:  Customer Rep 
 WITN.          Yashar Gaziyev:  Customer Rep 2 
 WOBA.klb                 9.00:  WOB Avg 
 WOBX.klb                12.00:  WOB Max 
 YP  .lhf2               30.00:  Yield Point 
~Curve Information Block
#MNEM.UNIT                 API CODE     Curve Description
#---------               -----------    ---------------------------
 TIME.HHMMSS            00 000 000 000:  GT Time & Date
 GTDEPTH.m              00 000 000 000:  GT Depth
 GTPQH.psia             00 000 000 000:  GT HR Quartz Pressure
 GTTQ.degC              00 000 000 000:  GT Quartz Temperature
 GTTN.NONE              00 000 000 000:  GT Test Number
 GTET.sec               00 000 000 000:  GT Elapsed Test Time
 GTTVD.m                00 000 000 000:  GT True Vertical Depth
#Other Information
#
#WARRANTY: Halliburton will use its best efforts to furnish customers with 
#accurate information and interpretations that are part of, and incident to, the services 
#provided.  However, Halliburton cannot and does not warrant the accuracy 
#or correctness of such information and interpretations.  Under no circumstances should any 
#such information or interpretation be relied upon as the sole basis for any drilling, 
#completion, production, or financial decision or any procedure involving any risk to the 
#safety of any drilling venture, drilling rig or its crew or any other third party.  The 
#Customer has full responsibility for all drilling, completion and production operation.  
#Halliburton makes no representations or warranties, either expressed or 
#implied, including, but not limited to, the implied warranties of merchantability or fitness 
#for a particular purpose, with respect to the services rendered.  In no event will 
#Halliburton be liable for failure to obtain any particular results or for 
#any damages, including, but not limited to, indirect, special or consequential damages, 
#resulting from the use of any information or interpretation provided by Halliburton.
#
~A           TIME           GTDEPTH  GTPQH  GTTQ  GTTN   GTET   GTTVD  
# ...
   02:35:40.667.28-Aug-2021 4891.00 7788.78 80.66 28.00 248.68 3240.41
   02:35:40.867.28-Aug-2021 4891.00 7788.73 80.66 28.00 248.88 3240.41
   02:35:41.067.28-Aug-2021 4891.00 7788.52 80.66 28.00 249.08 3240.41
   02:35:41.267.28-Aug-2021 4891.00 7788.52 80.66 28.00 249.28 3240.41
   02:35:41.467.28-Aug-2021 4891.00 7789.48 80.66 28.00 249.48 3240.41
   02:35:41.667.28-Aug-2021 4891.00 7789.50 80.66 28.00 249.68 3240.41
   02:35:41.867.28-Aug-2021 4891.00 7789.73 80.66 28.00 249.88 3240.41
   02:35:42.067.28-Aug-2021 4891.00 7789.61 80.66 28.00 250.08 3240.41
   02:35:42.267.28-Aug-2021 4891.00 7789.61 80.66 28.00 250.28 3240.41
   02:35:42.467.28-Aug-2021 4891.00 7789.43 80.66 28.00 250.48 3240.41
   02:35:42.667.28-Aug-2021 4891.00 7789.23 80.66 28.00 250.68 3240.41
   02:35:42.867.28-Aug-2021 4891.00 7789.18 80.66 28.00 250.88 3240.41
   02:35:43.067.28-Aug-2021 4891.00 7792.98 80.66 28.00 251.08 3240.41
   02:35:43.267.28-Aug-2021 4891.00 7792.98 80.66 28.00 251.28 3240.41
   02:35:43.467.28-Aug-2021 4891.00 7789.91 80.66 28.00 251.48 3240.41
   02:35:43.668.28-Aug-2021 4891.00 7789.04 80.66 28.00 251.68 3240.41
   02:35:43.868.28-Aug-2021 4891.00 7788.68 80.66 28.00 251.88 3240.41
   02:35:44.068.28-Aug-2021 4891.00 7794.53 80.66 28.00 252.08 3240.41
   02:35:44.268.28-Aug-2021 4891.00 7794.53 80.66 28.00 252.28 3240.41
   02:35:44.468.28-Aug-2021 4891.00 7789.62 80.66 28.00 252.48 3240.41
   02:35:44.668.28-Aug-2021 4891.00 7788.94 80.66 28.00 252.68 3240.41
   02:35:44.868.28-Aug-2021 4891.00 7789.11 80.66 28.00 252.88 3240.41
   02:35:45.068.28-Aug-2021 4891.00 7789.06 80.66 28.00 253.08 3240.41
   02:35:45.268.28-Aug-2021 4891.00 7789.06 80.66 28.00 253.28 3240.41
   02:35:45.468.28-Aug-2021 4891.00 7785.60 80.66 28.00 253.48 3240.41
   02:35:45.668.28-Aug-2021 4891.00 7790.40 80.66 28.00 253.68 3240.41
   02:35:45.868.28-Aug-2021 4891.00 7789.13 80.66 28.00 253.88 3240.41
   02:35:46.068.28-Aug-2021 4891.00 7793.21 80.66 28.00 254.08 3240.41
   02:35:46.268.28-Aug-2021 4891.00 7793.21 80.66 28.00 254.28 3240.41
   02:35:46.468.28-Aug-2021 4891.00 7789.88 80.66 28.00 254.48 3240.41
   02:35:46.668.28-Aug-2021 4891.00 7788.65 80.66 28.00 254.68 3240.41
   02:35:46.869.28-Aug-2021 4891.00 7788.61 80.66 28.00 254.88 3240.41
   02:35:47.069.28-Aug-2021 4891.00 7788.50 80.66 28.00 255.08 3240.41
   02:35:47.269.28-Aug-2021 4891.00 7788.50 80.66 28.00 255.28 3240.41
   02:35:47.469.28-Aug-2021 4891.00 7788.44 80.66 28.00 255.48 3240.41
   02:35:47.669.28-Aug-2021 4891.00 7788.86 80.66 28.00 255.68 3240.41
   02:35:47.869.28-Aug-2021 4891.00 7789.22 80.66 28.00 255.88 3240.41
   02:35:48.069.28-Aug-2021 4891.00 7789.13 80.66 28.00 256.08 3240.41
   02:35:48.269.28-Aug-2021 4891.00 7789.13 80.66 28.00 256.28 3240.41
   02:35:48.469.28-Aug-2021 4891.00 7789.31 80.66 28.00 256.48 3240.41
   02:35:48.669.28-Aug-2021 4891.00 7789.25 80.66 28.00 256.68 3240.41
   02:35:48.869.28-Aug-2021 4891.00 7789.02 80.66 28.00 256.88 3240.41
   02:35:49.069.28-Aug-2021 4891.00 7789.05 80.66 28.00 257.08 3240.41
   02:35:49.269.28-Aug-2021 4891.00 7789.05 80.66 28.00 257.28 3240.41
   02:35:49.469.28-Aug-2021 4891.00 7786.12 80.66 28.00 257.48 3240.41
   02:35:49.669.28-Aug-2021 4891.00 7791.26 80.66 28.00 257.68 3240.41
   02:35:49.870.28-Aug-2021 4891.00 7790.62 80.66 28.00 257.88 3240.41
   02:35:50.070.28-Aug-2021 4891.00 7790.21 80.66 28.00 258.08 3240.41
   02:35:50.270.28-Aug-2021 4891.00 7790.21 80.66 28.00 258.28 3240.41
   02:35:50.470.28-Aug-2021 4891.00 7789.73 80.66 28.00 258.48 3240.41
   02:35:50.670.28-Aug-2021 4891.00 7789.74 80.66 28.00 258.68 3240.41
   02:35:50.870.28-Aug-2021 4891.00 7790.06 80.66 28.00 258.88 3240.41
   02:35:51.070.28-Aug-2021 4891.00 7790.33 80.66 28.00 259.08 3240.41
   02:35:51.270.28-Aug-2021 4891.00 7790.33 80.66 28.00 259.28 3240.41
   02:35:51.470.28-Aug-2021 4891.00 7790.83 80.66 28.00 259.48 3240.41
   02:35:51.670.28-Aug-2021 4891.00 7790.87 80.66 28.00 259.68 3240.41
   02:35:51.870.28-Aug-2021 4891.00 7790.70 80.66 28.00 259.88 3240.41
   02:35:52.070.28-Aug-2021 4891.00 7790.72 80.66 28.00 260.08 3240.41
   02:35:52.270.28-Aug-2021 4891.00 7790.72 80.66 28.00 260.28 3240.41
   02:35:52.470.28-Aug-2021 4891.00 7790.51 80.66 28.00 260.48 3240.41
   02:35:52.670.28-Aug-2021 4891.00 7796.15 80.66 28.00 260.68 3240.41
   02:35:52.870.28-Aug-2021 4891.00 7787.39 80.66 28.00 260.88 3240.41
   02:35:53.071.28-Aug-2021 4891.00 7791.66 80.66 28.00 261.08 3240.41
   02:35:53.271.28-Aug-2021 4891.00 7791.66 80.66 28.00 261.28 3240.41
   02:35:53.471.28-Aug-2021 4891.00 7790.21 80.66 28.00 261.48 3240.41
   02:35:53.671.28-Aug-2021 4891.00 7796.01 80.66 28.00 261.68 3240.41
   02:35:53.871.28-Aug-2021 4891.00 7786.82 80.66 28.00 261.88 3240.41
   02:35:54.071.28-Aug-2021 4891.00 7791.11 80.66 28.00 262.08 3240.41
   02:35:54.271.28-Aug-2021 4891.00 7791.11 80.66 28.00 262.28 3240.41
   02:35:54.471.28-Aug-2021 4891.00 7790.10 80.66 28.00 262.48 3240.41
   02:35:54.671.28-Aug-2021 4891.00 7790.28 80.66 28.00 262.68 3240.41
   02:35:54.871.28-Aug-2021 4891.00 7793.29 80.66 28.00 262.88 3240.41
   02:35:55.071.28-Aug-2021 4891.00 7789.78 80.66 28.00 263.08 3240.41
   02:35:55.271.28-Aug-2021 4891.00 7789.78 80.66 28.00 263.28 3240.41
   02:35:55.471.28-Aug-2021 4891.00 7790.90 80.66 28.00 263.48 3240.41
   02:35:55.671.28-Aug-2021 4891.00 7790.71 80.66 28.00 263.68 3240.41
   02:35:55.871.28-Aug-2021 4891.00 7790.59 80.66 28.00 263.88 3240.41
   02:35:56.071.28-Aug-2021 4891.00 7793.07 80.66 28.00 264.08 3240.41
   02:35:56.272.28-Aug-2021 4891.00 7793.07 80.66 28.00 264.28 3240.41
   02:35:56.472.28-Aug-2021 4891.00 7791.11 80.66 28.00 264.48 3240.41
   02:35:56.672.28-Aug-2021 4891.00 7789.90 80.66 28.00 264.68 3240.41
   02:35:56.872.28-Aug-2021 4891.00 7790.20 80.66 28.00 264.88 3240.41
   02:35:57.072.28-Aug-2021 4891.00 7789.97 80.66 28.00 265.08 3240.41
   02:35:57.272.28-Aug-2021 4891.00 7789.97 80.66 28.00 265.28 3240.41
   02:35:57.472.28-Aug-2021 4891.00 7790.03 80.66 28.00 265.48 3240.41
   02:35:57.672.28-Aug-2021 4891.00 7790.45 80.66 28.00 265.68 3240.41
   02:35:57.872.28-Aug-2021 4891.00 7791.08 80.66 28.00 265.88 3240.41
   02:35:58.072.28-Aug-2021 4891.00 7791.01 80.66 28.00 266.08 3240.41
   02:35:58.272.28-Aug-2021 4891.00 7791.01 80.66 28.00 266.28 3240.41
   02:35:58.472.28-Aug-2021 4891.00 7790.96 80.66 28.00 266.48 3240.41
   02:35:58.672.28-Aug-2021 4891.00 7790.92 80.66 28.00 266.68 3240.41
   02:35:58.872.28-Aug-2021 4891.00 7790.63 80.66 28.00 266.88 3240.41
   02:35:59.072.28-Aug-2021 4891.00 7790.64 80.66 28.00 267.08 3240.41
   02:35:59.272.28-Aug-2021 4891.00 7790.64 80.66 28.00 267.28 3240.41
   02:35:59.473.28-Aug-2021 4891.00 7789.72 80.66 28.00 267.48 3240.41
   02:35:59.673.28-Aug-2021 4891.00 7791.62 80.66 28.00 267.68 3240.41
   02:35:59.873.28-Aug-2021 4891.00 7790.93 80.66 28.00 267.88 3240.41
   02:36:00.073.28-Aug-2021 4891.00 7790.36 80.66 28.00 268.08 3240.41
   02:36:00.273.28-Aug-2021 4891.00 7790.36 80.66 28.00 268.28 3240.41
   02:36:00.473.28-Aug-2021 4891.00 7790.22 80.66 28.00 268.48 3240.41
   02:36:00.673.28-Aug-2021 4891.00 7790.06 80.66 28.00 268.68 3240.41
   02:36:00.873.28-Aug-2021 4891.00 7790.38 80.66 28.00 268.88 3240.41
   02:36:01.073.28-Aug-2021 4891.00 7790.85 80.66 28.00 269.08 3240.41
   02:36:01.273.28-Aug-2021 4891.00 7790.85 80.66 28.00 269.28 3240.41
   02:36:01.473.28-Aug-2021 4891.00 7791.08 80.66 28.00 269.48 3240.41
   02:36:01.673.28-Aug-2021 4891.00 7791.01 80.66 28.00 269.68 3240.41
   02:36:01.873.28-Aug-2021 4891.00 7790.82 80.66 28.00 269.88 3240.41
   02:36:02.073.28-Aug-2021 4891.00 7790.80 80.66 28.00 270.09 3240.41
   02:36:02.273.28-Aug-2021 4891.00 7790.80 80.66 28.00 270.29 3240.41
   02:36:02.473.28-Aug-2021 4891.00 7790.56 80.66 28.00 270.49 3240.41
   02:36:02.674.28-Aug-2021 4891.00 7794.30 80.66 28.00 270.69 3240.41
   02:36:02.874.28-Aug-2021 4891.00 7789.55 80.66 28.00 270.89 3240.41
   02:36:03.074.28-Aug-2021 4891.00 7791.54 80.66 28.00 271.09 3240.41
