~Version Information
 VERS.                  2.0:   CWLS log ASCII Standard -VERSION 2.0
 WRAP.                   NO:   One line per depth step
~Well Information Block
#MNEM.UNIT     VALUE/NAME     DESCRIPTION
#---------     -----------    ---------------------------
 STRT.S             23:43:00 27-Aug-21: START TIME 23:43:00 27-Aug-21
 STOP.S             23:50:14 27-Aug-21: STOP TIME  23:50:14 27-Aug-21
 STEP.S                   0.00: STEP TIME
 NULL.                 -999.25: NULL VALUE
 DFWT.                        :  DIST FWL TEXT
 DFST.                        :  DIST FSL TEXT
 DMF .             Drill Floor:  DRILL MEAS FROM
 STIM.      20.00.00 17-Aug-21:  START TIME
 DATE.      19.00.00 29-Aug-21:  END TIME
 SPUD.               15-Aug-21:  SPUD DATE
 NREF.                    Grid:  NORTH REFERENCE
 HPTY.       Minimum Curvature:  HOLE POS TYPE
 DMOD.             Drill Model:  DRILL MOD DESC
 SVYD.                  Survey:  SURVEY DESC
 ILTD.               Lithology:  INTERP LTH DESC
 FTOP.          Formation Tops:  FORM TOPS DESC
 RIG .              East Azeri:  RIG NAME
 PDAT.          Mean Sea Level:  PERMANENT DATUM
 FLD .                     ACG:  FIELD NAME
 SON .        AZ-XX-0907180857:  JOB NUMBER
 CTRY.              Azerbaijan:  COUNTRY NAME
 WELL.                    D23x:  WELL NAME
 SRVC.     Turan Drilling and Engineering:  CONTRACTOR
 COMP.     BP Exploration (Caspian Sea) Ltd.:  COMPANY
 UWI .            /AZE00000214:  UNIQUE WELL IDENTIFIER
 API .            /AZE00000214:  API NUMBER
 MDS .        Operator Entered:  MAG DATA SOURCE
 BASE.              Azerbaijan:  LOGGING EQUIPMENT BASE LOCATION
 REGN.                   EESSA:  REGION
 PROV.                    Baku:  PROVINCE
 STAT.                    Baku:  STATE NAME
 MWDS.                    Baku:  MWD SHOP
 DOE .                     N/A:  DOE NUMBER
 DCON.         Sperry Drilling:  DIRECTNL CONTR
 UNIT.                     N/A:  LOGGING EQUIPMENT ID
 WTYP.                Deviated:  WELL TYPE
 CNTY.                        :  COUNTY
 LOC .                        :  LOCATION
 LMF .             Drill Floor:  LOG MEASURED FROM
 TVDS.m                  43.60:  TVDSS CORRECTN
 LATI.deg                40.02:  LATITUDE
 LONG.deg                51.45:  LONGITUDE
 WHNS.m                  -7.04:  WELL HEAD N/S
 WHEW.m                  -0.67:  WELL HEAD E/W
 UTMX.m              538762.90:  UTM X
 UTMY.m             4431871.34:  UTM Y
 DFWL.m                   0.00:  DISTANCE FWL
 DFSL.m                   0.00:  DISTANCE FSL
 SDEP.m                4127.00:  START DEPTH
 TDD .m                5084.50:  TOTAL DEPTH (DRILLER)
 VSDR.deg               140.47:  VERT SEC DIRECT
 GVFD.g                   1.00:  GRAVITY FIELD
 MFLD.nT              50362.00:  MAGNETIC FIELD
 MDIP.deg                59.48:  MAGNETIC DIP
 MDEC.deg                 6.47:  MAGNETIC DECL
 GRDC.deg                 0.31:  GRID CORRECTION
 AZTC.deg                 6.16:  AZM TOTAL CORR
 EPD .m                   0.00:  ELEVATION
 EGL .m                   0.00:  GROUND ELEVATION
 WDMS.m                 151.80:  WD ELEV
 APD .m                  43.60:  DEPTH ABOVE PD
 DEP .m                4092.57:  DEPTH
 AGAP.m                  43.60:  AIR GAP
 VSEW.m                  -0.67:  VERT SEC E/W
 VSNS.m                  -7.04:  VERT SEC N/S
 EKB .m                  43.60:  KB ELEVATION
 EDF .m                  43.60:  DF ELEVATION
 TDL .m                 957.50:  TOTAL DEPTH (LOGGER)
 VSC .                       0:  VS TO CLOSURE
 MAGU.                 1851413:  MAGUTM CHECKSUM
~Parameter Information Block
#MNEM.UNIT       Value        Description
#---------     -----------    ---------------------------
 AV  .mps                 1.50:  Ann Velocity 
 AVMX.mps                 2.00:  Max Ann Veloc 
 AZIF.deg               184.66:  Azm, Final 
 BHAT.        Rotary Steerable:  BHA Type 
 BREV.rev               300.00:  Rev Bit Total 
 BROT.°/30m              -0.50:  Build Rotating 
 BS  .in                  8.50:  Bit Size 
 BSZ .in                  8.50:  Bit Size 
 BTPL.psig              370.00:  Bit Press Loss 
 CABU.                      No:  Customer Abuse 
 CGEO.      Behruz Shahbaliyev:  Customer Geo 
 COMM.                     Ì™‡:  Run Comments 1 
 TCS .hr                140.08:  Time Ciculation Ended 
 CV  .mps                 3.00:  Crit Velocity 
 CVMX.mps                 3.20:  Max Crit Veloc 
 DD1 .            Musa Ahmadov:  Direct Drillr 1 
 DD2 .           Hamid Ahmadov:  Direct Drillr 2 
 DDSV.               Geo-Pilot:  DD Service 
 DEFF.%                  98.40:  % Det Eff 
 DLRX.°/30m               3.40:  Dogleg Rot Max 
 DLSO.°/30m               1.45:  Dogleg Oriented 
 DLSX.°/30m               3.40:  Dogleg Str Max 
 DRET.      18.40.00 29-Aug-21:  Drill End Time 
 DRST.      21.00.00 20-Aug-21:  Drill Start Tim 
 DTIM.hr                 69.47:  Time Drilling 
 EDEP.m                5084.50:  End Depth 
 ENG1.      Artemiy Matviyanov:  Engineer 1 
 ENG2.         Almaz Almadatov:  Engineer 2 
 ETIM.      18.40.00 29-Aug-21:  End Time 
 FLOI.gpm               500.00:  Flow In 
 FLON.gpm               400.00:  Flow In Min 
 FLOS.cptm                0.00:  Fluid Loss 
 FLOX.gpm               500.00:  Flow In Max 
 DFT .        Mineral Oil Base:  Mud Type 
 HFLO.                      No:  High Flow 
 HPRE.                      No:  High Pressure 
 HTEM.                      No:  High Temp 
 HYDO.m                   1.80:  Hydro Offset 
 IFIN.deg                25.62:  Inc, Final 
 IMAX.deg                48.69:  Inc Max 
 IMIN.deg                24.01:  Inc Min 
 IMND.m                4962.57:  Inc Min Depth 
 IMXD.m                4119.01:  Inc Max Depth 
 JARR.                      No:  Jarring 
 LETM.      18.40.00 29-Aug-21:  Log End Time 
 LOST.hr                     0:  Lost Rig Time 
 LSTM.      21.00.00 20-Aug-21:  Log Start Time 
 MDCL.ppm             41500.00:  Mud Chlorides 
 MDES.     Inversion Oil/Synthetic:  Mud Desc 
 DFD .sg                  1.56:  Mud Density 
 MDMN.sg                  1.56:  Dens Mud Min 
 MDMX.sg                  1.56:  Dens Mud Max 
 MOIL.                      70:  Run Mud Oil % 
 MOWR.                   70:30:  Run Mud OWR 
 MSND.                     0.2:  Run Mud Sand % 
 MSOL.                    23.3:  Run Mud Solids% 
 DFV .spqt               78.00:  Mud Viscosity 
 MWOD.in                  6.75:  MWD Tool OD 
 MWSI.                      No:  Serv Intrp, MWD 
 OTIM.hr                218.30:  Time Operating 
 PCON.           Look Like New:  Pad Condition 
 PMAX.psia            11015.30:  Press Op, Max 
 PV  .cP                 38.00:  Mud PV 
 RUN .                     300:  Run Number 
 ROPA.m/hr               15.00:  ROP Avg 
 ROPN.m/hr                9.00:  ROP Min 
 ROPX.m/hr               17.00:  ROP Max 
 RPMA.rpm               120.00:  RPM Surface Avg 
 RPMN.rpm                90.00:  RPM Surface Min 
 RPMX.rpm               140.00:  RPM Surface Max 
 RRUN.                     300:  Rig Run Number 
 RTIM.hr                 31.53:  Time Reaming 
 SAZI.deg               331.64:  Azm, Start 
 SDEP.m                4127.00:  Start Depth 
 SIDD.                      No:  Serv Intrp, DD 
 SINC.deg                48.43:  Inc, Start 
 SPPA.psig             5830.00:  SPP Avg 
 SPPN.psig             5600.00:  SPP Min 
 SPPX.psig             5900.00:  SPP Max 
 STIM.      21.00.00 20-Aug-21:  Start Time 
 SVCS.                 DD, MWD:  Services 
 SVER.                    9.20:  Sperry Version 
 TDAT.m                 957.50:  Tot Depth Attmp 
 TDDF.                      No:  Trip for DD 
 TDLG.m                 957.50:  Tot Depth Loggd 
 TFF .                      No:  Trip for Fail 
 TQAA.f-kp               15.00:  Torque Abs Avg 
 TQAN.f-kp               12.00:  Torque Abs Min 
 TQAX.f-kp               19.00:  Torque Abs Max 
 TRRT.°/30m              -3.40:  Turn Rotating 
 MRT .                  EWR-M5:  Maximum Recorded Temperature 
 TTMX.degC              100.00:  Max Tool Temp 
 VS01.                90639251:  Virtual Str1 SN 
 VS02.                90634715:  Virtual Str2 SN 
 VS03.                90652479:  Virtual Str3 SN 
 VS04.                90642262:  Virtual Str4 SN 
 WBMN.klb                 0.00:  WOB Min 
 WITN.           Murad Guliyev:  Customer Rep 
 WITN.          Yashar Gaziyev:  Customer Rep 2 
 WOBA.klb                 9.00:  WOB Avg 
 WOBX.klb                12.00:  WOB Max 
 YP  .lhf2               30.00:  Yield Point 
~Curve Information Block
#MNEM.UNIT                 API CODE     Curve Description
#---------               -----------    ---------------------------
 TIME.HHMMSS            00 000 000 000:  GT Time & Date
 GTDEPTH.m              00 000 000 000:  GT Depth
 GTPQH.psia             00 000 000 000:  GT HR Quartz Pressure
 GTTQ.degC              00 000 000 000:  GT Quartz Temperature
 GTTN.NONE              00 000 000 000:  GT Test Number
 GTET.sec               00 000 000 000:  GT Elapsed Test Time
 GTTVD.m                00 000 000 000:  GT True Vertical Depth
#Other Information
#
#WARRANTY: Halliburton will use its best efforts to furnish customers with 
#accurate information and interpretations that are part of, and incident to, the services 
#provided.  However, Halliburton cannot and does not warrant the accuracy 
#or correctness of such information and interpretations.  Under no circumstances should any 
#such information or interpretation be relied upon as the sole basis for any drilling, 
#completion, production, or financial decision or any procedure involving any risk to the 
#safety of any drilling venture, drilling rig or its crew or any other third party.  The 
#Customer has full responsibility for all drilling, completion and production operation.  
#Halliburton makes no representations or warranties, either expressed or 
#implied, including, but not limited to, the implied warranties of merchantability or fitness 
#for a particular purpose, with respect to the services rendered.  In no event will 
#Halliburton be liable for failure to obtain any particular results or for 
#any damages, including, but not limited to, indirect, special or consequential damages, 
#resulting from the use of any information or interpretation provided by Halliburton.
#
~A           TIME           GTDEPTH  GTPQH  GTTQ  GTTN   GTET   GTTVD  
# ...
   23:47:53.964.27-Aug-2021 4669.00 4457.53 82.06 26.00 293.84 3039.49
   23:47:54.164.27-Aug-2021 4669.00 4457.55 82.06 26.00 294.04 3039.49
   23:47:54.364.27-Aug-2021 4669.00 4457.55 82.06 26.00 294.24 3039.49
   23:47:54.564.27-Aug-2021 4669.00 4457.77 82.06 26.00 294.44 3039.49
   23:47:54.764.27-Aug-2021 4669.00 4458.16 82.06 26.00 294.64 3039.49
   23:47:54.964.27-Aug-2021 4669.00 4458.66 82.06 26.00 294.84 3039.49
   23:47:55.164.27-Aug-2021 4669.00 4458.76 82.06 26.00 295.04 3039.49
   23:47:55.364.27-Aug-2021 4669.00 4458.76 82.06 26.00 295.24 3039.49
   23:47:55.564.27-Aug-2021 4669.00 4458.90 82.06 26.00 295.44 3039.49
   23:47:55.764.27-Aug-2021 4669.00 4459.08 82.06 26.00 295.64 3039.49
   23:47:55.964.27-Aug-2021 4669.00 4459.16 82.06 26.00 295.84 3039.49
   23:47:56.165.27-Aug-2021 4669.00 4459.33 82.06 26.00 296.04 3039.49
   23:47:56.365.27-Aug-2021 4669.00 4459.33 82.06 26.00 296.24 3039.49
   23:47:56.565.27-Aug-2021 4669.00 4459.65 82.06 26.00 296.44 3039.49
   23:47:56.765.27-Aug-2021 4669.00 4459.77 82.06 26.00 296.64 3039.49
   23:47:56.965.27-Aug-2021 4669.00 4459.94 82.06 26.00 296.84 3039.49
   23:47:57.165.27-Aug-2021 4669.00 4460.09 82.06 26.00 297.04 3039.49
   23:47:57.365.27-Aug-2021 4669.00 4460.09 82.06 26.00 297.24 3039.49
   23:47:57.565.27-Aug-2021 4669.00 4460.39 82.06 26.00 297.44 3039.49
   23:47:57.765.27-Aug-2021 4669.00 4460.46 82.06 26.00 297.64 3039.49
   23:47:57.965.27-Aug-2021 4669.00 4461.19 82.06 26.00 297.84 3039.49
   23:47:58.165.27-Aug-2021 4669.00 4461.50 82.06 26.00 298.04 3039.49
   23:47:58.365.27-Aug-2021 4669.00 4461.50 82.06 26.00 298.24 3039.49
   23:47:58.565.27-Aug-2021 4669.00 4461.59 82.06 26.00 298.44 3039.49
   23:47:58.765.27-Aug-2021 4669.00 4461.62 82.06 26.00 298.64 3039.49
   23:47:58.965.27-Aug-2021 4669.00 4461.70 82.06 26.00 298.84 3039.49
   23:47:59.165.27-Aug-2021 4669.00 4461.77 82.06 26.00 299.04 3039.49
   23:47:59.365.27-Aug-2021 4669.00 4461.77 82.06 26.00 299.24 3039.49
   23:47:59.565.27-Aug-2021 4669.00 4461.94 82.06 26.00 299.44 3039.49
   23:47:59.765.27-Aug-2021 4669.00 4462.04 82.06 26.00 299.64 3039.49
   23:47:59.965.27-Aug-2021 4669.00 4462.12 82.06 26.00 299.84 3039.49
   23:48:00.165.27-Aug-2021 4669.00 4462.21 82.06 26.00 300.04 3039.49
   23:48:00.365.27-Aug-2021 4669.00 4462.21 82.06 26.00 300.24 3039.49
   23:48:00.565.27-Aug-2021 4669.00 4462.42 82.06 26.00 300.44 3039.49
   23:48:00.765.27-Aug-2021 4669.00 4462.53 82.06 26.00 300.64 3039.49
   23:48:00.965.27-Aug-2021 4669.00 4462.63 82.06 26.00 300.84 3039.49
   23:48:01.165.27-Aug-2021 4669.00 4462.77 82.06 26.00 301.04 3039.49
   23:48:01.365.27-Aug-2021 4669.00 4462.77 82.06 26.00 301.24 3039.49
   23:48:01.565.27-Aug-2021 4669.00 4463.49 82.06 26.00 301.44 3039.49
   23:48:01.765.27-Aug-2021 4669.00 4463.61 82.06 26.00 301.64 3039.49
   23:48:01.965.27-Aug-2021 4669.00 4463.54 82.06 26.00 301.84 3039.49
   23:48:02.165.27-Aug-2021 4669.00 4463.70 82.06 26.00 302.04 3039.49
   23:48:02.365.27-Aug-2021 4669.00 4463.70 82.06 26.00 302.24 3039.49
   23:48:02.565.27-Aug-2021 4669.00 4463.96 82.06 26.00 302.44 3039.49
   23:48:02.765.27-Aug-2021 4669.00 4464.12 82.06 26.00 302.64 3039.49
   23:48:02.965.27-Aug-2021 4669.00 4464.08 82.06 26.00 302.84 3039.49
   23:48:03.165.27-Aug-2021 4669.00 4464.12 82.06 26.00 303.04 3039.49
   23:48:03.365.27-Aug-2021 4669.00 4464.12 82.06 26.00 303.24 3039.49
   23:48:03.565.27-Aug-2021 4669.00 4464.76 82.06 26.00 303.44 3039.49
   23:48:03.765.27-Aug-2021 4669.00 4464.46 82.06 26.00 303.64 3039.49
   23:48:03.965.27-Aug-2021 4669.00 4464.68 82.06 26.00 303.84 3039.49
   23:48:04.166.27-Aug-2021 4669.00 4464.61 82.06 26.00 304.04 3039.49
   23:48:04.366.27-Aug-2021 4669.00 4464.61 82.06 26.00 304.24 3039.49
   23:48:04.566.27-Aug-2021 4669.00 4464.95 82.06 26.00 304.44 3039.49
   23:48:04.766.27-Aug-2021 4669.00 4464.90 82.06 26.00 304.64 3039.49
   23:48:04.966.27-Aug-2021 4669.00 4465.02 82.06 26.00 304.84 3039.49
   23:48:05.166.27-Aug-2021 4669.00 4464.97 82.06 26.00 305.04 3039.49
   23:48:05.366.27-Aug-2021 4669.00 4464.97 82.06 26.00 305.24 3039.49
   23:48:05.566.27-Aug-2021 4669.00 4465.06 82.06 26.00 305.44 3039.49
   23:48:05.766.27-Aug-2021 4669.00 4465.16 82.06 26.00 305.64 3039.49
   23:48:05.966.27-Aug-2021 4669.00 4465.14 82.06 26.00 305.84 3039.49
   23:48:06.166.27-Aug-2021 4669.00 4465.23 82.06 26.00 306.04 3039.49
   23:48:06.366.27-Aug-2021 4669.00 4465.23 82.06 26.00 306.24 3039.49
   23:48:06.566.27-Aug-2021 4669.00 4465.30 82.06 26.00 306.44 3039.49
   23:48:06.766.27-Aug-2021 4669.00 4465.30 82.06 26.00 306.64 3039.49
   23:48:06.966.27-Aug-2021 4669.00 4465.36 82.06 26.00 306.84 3039.49
   23:48:07.166.27-Aug-2021 4669.00 4465.37 82.06 26.00 307.04 3039.49
   23:48:07.366.27-Aug-2021 4669.00 4465.37 82.06 26.00 307.24 3039.49
   23:48:07.566.27-Aug-2021 4669.00 4465.37 82.06 26.00 307.44 3039.49
   23:48:07.766.27-Aug-2021 4669.00 4466.08 82.06 26.00 307.64 3039.49
   23:48:07.966.27-Aug-2021 4669.00 4465.95 82.06 26.00 307.84 3039.49
   23:48:08.166.27-Aug-2021 4669.00 4466.07 82.06 26.00 308.04 3039.49
   23:48:08.366.27-Aug-2021 4669.00 4466.07 82.06 26.00 308.24 3039.49
   23:48:08.566.27-Aug-2021 4669.00 4466.10 82.06 26.00 308.44 3039.49
   23:48:08.766.27-Aug-2021 4669.00 4466.10 82.06 26.00 308.64 3039.49
   23:48:08.966.27-Aug-2021 4669.00 4466.14 82.06 26.00 308.84 3039.49
   23:48:09.166.27-Aug-2021 4669.00 4466.15 82.06 26.00 309.04 3039.49
   23:48:09.366.27-Aug-2021 4669.00 4466.15 82.06 26.00 309.24 3039.49
   23:48:09.566.27-Aug-2021 4669.00 4466.20 82.06 26.00 309.44 3039.49
   23:48:09.766.27-Aug-2021 4669.00 4466.23 82.06 26.00 309.64 3039.49
   23:48:09.966.27-Aug-2021 4669.00 4466.26 82.06 26.00 309.84 3039.49
   23:48:10.166.27-Aug-2021 4669.00 4466.29 82.06 26.00 310.04 3039.49
   23:48:10.366.27-Aug-2021 4669.00 4466.29 82.06 26.00 310.24 3039.49
   23:48:10.566.27-Aug-2021 4669.00 4466.34 82.06 26.00 310.44 3039.49
   23:48:10.766.27-Aug-2021 4669.00 4466.38 82.06 26.00 310.64 3039.49
   23:48:10.966.27-Aug-2021 4669.00 4466.91 82.06 26.00 310.84 3039.49
   23:48:11.166.27-Aug-2021 4669.00 4466.87 82.06 26.00 311.04 3039.49
   23:48:11.366.27-Aug-2021 4669.00 4466.87 82.06 26.00 311.24 3039.49
   23:48:11.566.27-Aug-2021 4669.00 4466.91 82.06 26.00 311.44 3039.49
   23:48:11.766.27-Aug-2021 4669.00 4466.87 82.06 26.00 311.64 3039.49
   23:48:11.966.27-Aug-2021 4669.00 4467.01 82.06 26.00 311.84 3039.49
   23:48:12.167.27-Aug-2021 4669.00 4467.29 82.06 26.00 312.04 3039.49
   23:48:12.367.27-Aug-2021 4669.00 4467.29 82.06 26.00 312.24 3039.49
   23:48:12.567.27-Aug-2021 4669.00 4467.24 82.06 26.00 312.44 3039.49
   23:48:12.767.27-Aug-2021 4669.00 4467.19 82.06 26.00 312.64 3039.49
   23:48:12.967.27-Aug-2021 4669.00 4467.09 82.06 26.00 312.84 3039.49
   23:48:13.167.27-Aug-2021 4669.00 4467.41 82.06 26.00 313.04 3039.49
   23:48:13.367.27-Aug-2021 4669.00 4467.41 82.06 26.00 313.24 3039.49
   23:48:13.567.27-Aug-2021 4669.00 4467.38 82.06 26.00 313.44 3039.49
   23:48:13.767.27-Aug-2021 4669.00 4467.54 82.06 26.00 313.64 3039.49
   23:48:13.967.27-Aug-2021 4669.00 4467.50 82.06 26.00 313.84 3039.49
   23:48:14.167.27-Aug-2021 4669.00 4467.47 82.06 26.00 314.04 3039.49
   23:48:14.367.27-Aug-2021 4669.00 4467.47 82.06 26.00 314.24 3039.49
   23:48:14.567.27-Aug-2021 4669.00 4467.89 82.06 26.00 314.44 3039.49
   23:48:14.767.27-Aug-2021 4669.00 4467.64 82.06 26.00 314.64 3039.49
   23:48:14.967.27-Aug-2021 4669.00 4467.81 82.06 26.00 314.84 3039.49
   23:48:15.167.27-Aug-2021 4669.00 4467.75 82.06 26.00 315.04 3039.49
   23:48:15.367.27-Aug-2021 4669.00 4467.75 82.06 26.00 315.24 3039.49
   23:48:15.567.27-Aug-2021 4669.00 4467.79 82.06 26.00 315.44 3039.49
   23:48:15.767.27-Aug-2021 4669.00 4467.86 82.06 26.00 315.64 3039.49
   23:48:15.967.27-Aug-2021 4669.00 4467.83 82.06 26.00 315.84 3039.49
   23:48:16.167.27-Aug-2021 4669.00 4467.87 82.06 26.00 316.04 3039.49
   23:48:16.367.27-Aug-2021 4669.00 4467.87 82.06 26.00 316.24 3039.49
