~Version Information
 VERS.                  2.0:   CWLS log ASCII Standard -VERSION 2.0
 WRAP.                   NO:   One line per depth step
~Well Information Block
#MNEM.UNIT     VALUE/NAME     DESCRIPTION
#---------     -----------    ---------------------------
 STRT.S             12:21:31 27-Aug-21: START TIME 12:21:31 27-Aug-21
 STOP.S             12:28:48 27-Aug-21: STOP TIME  12:28:48 27-Aug-21
 STEP.S                   0.00: STEP TIME
 NULL.                 -999.25: NULL VALUE
 DFWT.                        :  DIST FWL TEXT
 DFST.                        :  DIST FSL TEXT
 DMF .             Drill Floor:  DRILL MEAS FROM
 STIM.      20.00.00 17-Aug-21:  START TIME
 DATE.      19.00.00 29-Aug-21:  END TIME
 SPUD.               15-Aug-21:  SPUD DATE
 NREF.                    Grid:  NORTH REFERENCE
 HPTY.       Minimum Curvature:  HOLE POS TYPE
 DMOD.             Drill Model:  DRILL MOD DESC
 SVYD.                  Survey:  SURVEY DESC
 ILTD.               Lithology:  INTERP LTH DESC
 FTOP.          Formation Tops:  FORM TOPS DESC
 RIG .              East Azeri:  RIG NAME
 PDAT.          Mean Sea Level:  PERMANENT DATUM
 FLD .                     ACG:  FIELD NAME
 SON .        AZ-XX-0907180857:  JOB NUMBER
 CTRY.              Azerbaijan:  COUNTRY NAME
 WELL.                    D23x:  WELL NAME
 SRVC.     Turan Drilling and Engineering:  CONTRACTOR
 COMP.     BP Exploration (Caspian Sea) Ltd.:  COMPANY
 UWI .            /AZE00000214:  UNIQUE WELL IDENTIFIER
 API .            /AZE00000214:  API NUMBER
 MDS .        Operator Entered:  MAG DATA SOURCE
 BASE.              Azerbaijan:  LOGGING EQUIPMENT BASE LOCATION
 REGN.                   EESSA:  REGION
 PROV.                    Baku:  PROVINCE
 STAT.                    Baku:  STATE NAME
 MWDS.                    Baku:  MWD SHOP
 DOE .                     N/A:  DOE NUMBER
 DCON.         Sperry Drilling:  DIRECTNL CONTR
 UNIT.                     N/A:  LOGGING EQUIPMENT ID
 WTYP.                Deviated:  WELL TYPE
 CNTY.                        :  COUNTY
 LOC .                        :  LOCATION
 LMF .             Drill Floor:  LOG MEASURED FROM
 TVDS.m                  43.60:  TVDSS CORRECTN
 LATI.deg                40.02:  LATITUDE
 LONG.deg                51.45:  LONGITUDE
 WHNS.m                  -7.04:  WELL HEAD N/S
 WHEW.m                  -0.67:  WELL HEAD E/W
 UTMX.m              538762.90:  UTM X
 UTMY.m             4431871.34:  UTM Y
 DFWL.m                   0.00:  DISTANCE FWL
 DFSL.m                   0.00:  DISTANCE FSL
 SDEP.m                4127.00:  START DEPTH
 TDD .m                5084.50:  TOTAL DEPTH (DRILLER)
 VSDR.deg               140.47:  VERT SEC DIRECT
 GVFD.g                   1.00:  GRAVITY FIELD
 MFLD.nT              50362.00:  MAGNETIC FIELD
 MDIP.deg                59.48:  MAGNETIC DIP
 MDEC.deg                 6.47:  MAGNETIC DECL
 GRDC.deg                 0.31:  GRID CORRECTION
 AZTC.deg                 6.16:  AZM TOTAL CORR
 EPD .m                   0.00:  ELEVATION
 EGL .m                   0.00:  GROUND ELEVATION
 WDMS.m                 151.80:  WD ELEV
 APD .m                  43.60:  DEPTH ABOVE PD
 DEP .m                4092.57:  DEPTH
 AGAP.m                  43.60:  AIR GAP
 VSEW.m                  -0.67:  VERT SEC E/W
 VSNS.m                  -7.04:  VERT SEC N/S
 EKB .m                  43.60:  KB ELEVATION
 EDF .m                  43.60:  DF ELEVATION
 TDL .m                 957.50:  TOTAL DEPTH (LOGGER)
 VSC .                       0:  VS TO CLOSURE
 MAGU.                 1851413:  MAGUTM CHECKSUM
~Parameter Information Block
#MNEM.UNIT       Value        Description
#---------     -----------    ---------------------------
 AV  .mps                 1.50:  Ann Velocity 
 AVMX.mps                 2.00:  Max Ann Veloc 
 AZIF.deg               184.66:  Azm, Final 
 BHAT.        Rotary Steerable:  BHA Type 
 BREV.rev               300.00:  Rev Bit Total 
 BROT.°/30m              -0.50:  Build Rotating 
 BS  .in                  8.50:  Bit Size 
 BSZ .in                  8.50:  Bit Size 
 BTPL.psig              370.00:  Bit Press Loss 
 CABU.                      No:  Customer Abuse 
 CGEO.      Behruz Shahbaliyev:  Customer Geo 
 TCS .hr                140.08:  Time Ciculation Ended 
 CV  .mps                 3.00:  Crit Velocity 
 CVMX.mps                 3.20:  Max Crit Veloc 
 DD1 .            Musa Ahmadov:  Direct Drillr 1 
 DD2 .           Hamid Ahmadov:  Direct Drillr 2 
 DDSV.               Geo-Pilot:  DD Service 
 DEFF.%                  98.40:  % Det Eff 
 DLRX.°/30m               3.40:  Dogleg Rot Max 
 DLSO.°/30m               1.45:  Dogleg Oriented 
 DLSX.°/30m               3.40:  Dogleg Str Max 
 DRET.      18.40.00 29-Aug-21:  Drill End Time 
 DRST.      21.00.00 20-Aug-21:  Drill Start Tim 
 DTIM.hr                 69.47:  Time Drilling 
 EDEP.m                5084.50:  End Depth 
 ENG1.      Artemiy Matviyanov:  Engineer 1 
 ENG2.         Almaz Almadatov:  Engineer 2 
 ETIM.      18.40.00 29-Aug-21:  End Time 
 FLOI.gpm               500.00:  Flow In 
 FLON.gpm               400.00:  Flow In Min 
 FLOS.cptm                0.00:  Fluid Loss 
 FLOX.gpm               500.00:  Flow In Max 
 DFT .        Mineral Oil Base:  Mud Type 
 HFLO.                      No:  High Flow 
 HPRE.                      No:  High Pressure 
 HTEM.                      No:  High Temp 
 HYDO.m                   1.80:  Hydro Offset 
 IFIN.deg                25.62:  Inc, Final 
 IMAX.deg                48.69:  Inc Max 
 IMIN.deg                24.01:  Inc Min 
 IMND.m                4962.57:  Inc Min Depth 
 IMXD.m                4119.01:  Inc Max Depth 
 JARR.                      No:  Jarring 
 LETM.      18.40.00 29-Aug-21:  Log End Time 
 LOST.hr                     0:  Lost Rig Time 
 LSTM.      21.00.00 20-Aug-21:  Log Start Time 
 MDCL.ppm             41500.00:  Mud Chlorides 
 MDES.     Inversion Oil/Synthetic:  Mud Desc 
 DFD .sg                  1.56:  Mud Density 
 MDMN.sg                  1.56:  Dens Mud Min 
 MDMX.sg                  1.56:  Dens Mud Max 
 MOIL.                      70:  Run Mud Oil % 
 MOWR.                   70:30:  Run Mud OWR 
 MSND.                     0.2:  Run Mud Sand % 
 MSOL.                    23.3:  Run Mud Solids% 
 DFV .spqt               78.00:  Mud Viscosity 
 MWOD.in                  6.75:  MWD Tool OD 
 MWSI.                      No:  Serv Intrp, MWD 
 OTIM.hr                218.30:  Time Operating 
 PCON.           Look Like New:  Pad Condition 
 PMAX.psia            11015.30:  Press Op, Max 
 PV  .cP                 38.00:  Mud PV 
 RUN .                     300:  Run Number 
 ROPA.m/hr               15.00:  ROP Avg 
 ROPN.m/hr                9.00:  ROP Min 
 ROPX.m/hr               17.00:  ROP Max 
 RPMA.rpm               120.00:  RPM Surface Avg 
 RPMN.rpm                90.00:  RPM Surface Min 
 RPMX.rpm               140.00:  RPM Surface Max 
 RRUN.                     300:  Rig Run Number 
 RTIM.hr                 31.53:  Time Reaming 
 SAZI.deg               331.64:  Azm, Start 
 SDEP.m                4127.00:  Start Depth 
 SIDD.                      No:  Serv Intrp, DD 
 SINC.deg                48.43:  Inc, Start 
 SPPA.psig             5830.00:  SPP Avg 
 SPPN.psig             5600.00:  SPP Min 
 SPPX.psig             5900.00:  SPP Max 
 STIM.      21.00.00 20-Aug-21:  Start Time 
 SVCS.                 DD, MWD:  Services 
 SVER.                    9.20:  Sperry Version 
 TDAT.m                 957.50:  Tot Depth Attmp 
 TDDF.                      No:  Trip for DD 
 TDLG.m                 957.50:  Tot Depth Loggd 
 TFF .                      No:  Trip for Fail 
 TQAA.f-kp               15.00:  Torque Abs Avg 
 TQAN.f-kp               12.00:  Torque Abs Min 
 TQAX.f-kp               19.00:  Torque Abs Max 
 TRRT.°/30m              -3.40:  Turn Rotating 
 MRT .                  EWR-M5:  Maximum Recorded Temperature 
 TTMX.degC              100.00:  Max Tool Temp 
 VS01.                90639251:  Virtual Str1 SN 
 VS02.                90634715:  Virtual Str2 SN 
 VS03.                90652479:  Virtual Str3 SN 
 VS04.                90642262:  Virtual Str4 SN 
 WBMN.klb                 0.00:  WOB Min 
 WITN.           Murad Guliyev:  Customer Rep 
 WITN.          Yashar Gaziyev:  Customer Rep 2 
 WOBA.klb                 9.00:  WOB Avg 
 WOBX.klb                12.00:  WOB Max 
 YP  .lhf2               30.00:  Yield Point 
~Curve Information Block
#MNEM.UNIT                 API CODE     Curve Description
#---------               -----------    ---------------------------
 TIME.HHMMSS            00 000 000 000:  GT Time & Date
 GTDEPTH.m              00 000 000 000:  GT Depth
 GTPQH.psia             00 000 000 000:  GT HR Quartz Pressure
 GTTQ.degC              00 000 000 000:  GT Quartz Temperature
 GTTN.NONE              00 000 000 000:  GT Test Number
 GTET.sec               00 000 000 000:  GT Elapsed Test Time
 GTTVD.m                00 000 000 000:  GT True Vertical Depth
#Other Information
#
#WARRANTY: Halliburton will use its best efforts to furnish customers with 
#accurate information and interpretations that are part of, and incident to, the services 
#provided.  However, Halliburton cannot and does not warrant the accuracy 
#or correctness of such information and interpretations.  Under no circumstances should any 
#such information or interpretation be relied upon as the sole basis for any drilling, 
#completion, production, or financial decision or any procedure involving any risk to the 
#safety of any drilling venture, drilling rig or its crew or any other third party.  The 
#Customer has full responsibility for all drilling, completion and production operation.  
#Halliburton makes no representations or warranties, either expressed or 
#implied, including, but not limited to, the implied warranties of merchantability or fitness 
#for a particular purpose, with respect to the services rendered.  In no event will 
#Halliburton be liable for failure to obtain any particular results or for 
#any damages, including, but not limited to, indirect, special or consequential damages, 
#resulting from the use of any information or interpretation provided by Halliburton.
#
~A           TIME           GTDEPTH  GTPQH  GTTQ  GTTN   GTET   GTTVD  
   12:21:31.342.27-Aug-2021 4914.80 7756.19 85.40 12.00   0.00 3262.04
   12:21:31.542.27-Aug-2021 4914.80 7756.19 85.40 12.00   0.20 3262.04
   12:21:31.742.27-Aug-2021 4914.80 7755.94 85.40 12.00   0.40 3262.04
   12:21:31.942.27-Aug-2021 4914.80 7758.07 85.40 12.00   0.60 3262.04
   12:21:32.142.27-Aug-2021 4914.80 7756.61 85.40 12.00   0.80 3262.04
   12:21:32.342.27-Aug-2021 4914.80 7755.88 85.40 12.00   1.00 3262.04
   12:21:32.542.27-Aug-2021 4914.80 7755.88 85.40 12.00   1.20 3262.04
   12:21:32.742.27-Aug-2021 4914.80 7758.84 85.40 12.00   1.40 3262.04
   12:21:32.943.27-Aug-2021 4914.80 7754.73 85.40 12.00   1.60 3262.04
   12:21:33.143.27-Aug-2021 4914.80 7756.50 85.40 12.00   1.80 3262.04
   12:21:33.343.27-Aug-2021 4914.80 7754.86 85.40 12.00   2.00 3262.04
   12:21:33.543.27-Aug-2021 4914.80 7754.86 85.40 12.00   2.20 3262.04
   12:21:33.743.27-Aug-2021 4914.80 7755.02 85.40 12.00   2.40 3262.04
   12:21:33.943.27-Aug-2021 4914.80 7758.71 85.40 12.00   2.60 3262.04
   12:21:34.143.27-Aug-2021 4914.80 7754.65 85.40 12.00   2.80 3262.04
   12:21:34.343.27-Aug-2021 4914.80 7756.29 85.40 12.00   3.00 3262.04
   12:21:34.543.27-Aug-2021 4914.80 7756.29 85.40 12.00   3.20 3262.04
   12:21:34.743.27-Aug-2021 4914.80 7762.03 85.40 12.00   3.40 3262.04
   12:21:34.943.27-Aug-2021 4914.80 7753.69 85.40 12.00   3.60 3262.04
   12:21:35.143.27-Aug-2021 4914.80 7758.10 85.40 12.00   3.80 3262.04
   12:21:35.343.27-Aug-2021 4914.80 7756.76 85.40 12.00   4.00 3262.04
   12:21:35.543.27-Aug-2021 4914.80 7756.76 85.40 12.00   4.20 3262.04
   12:21:35.744.27-Aug-2021 4914.80 7757.22 85.40 12.00   4.40 3262.04
   12:21:35.944.27-Aug-2021 4914.80 7757.11 85.40 12.00   4.60 3262.04
   12:21:36.144.27-Aug-2021 4914.80 7760.67 85.40 12.00   4.80 3262.04
   12:21:36.344.27-Aug-2021 4914.80 7758.86 85.40 12.00   5.00 3262.04
   12:21:36.544.27-Aug-2021 4914.80 7758.86 85.40 12.00   5.20 3262.04
   12:21:36.744.27-Aug-2021 4914.80 7758.93 85.40 12.00   5.40 3262.04
   12:21:36.944.27-Aug-2021 4914.80 7759.16 85.40 12.00   5.60 3262.04
   12:21:37.144.27-Aug-2021 4914.80 7759.31 85.40 12.00   5.80 3262.04
   12:21:37.344.27-Aug-2021 4914.80 7759.69 85.40 12.00   6.00 3262.04
   12:21:37.544.27-Aug-2021 4914.80 7759.69 85.40 12.00   6.20 3262.04
   12:21:37.744.27-Aug-2021 4914.80 7759.69 85.40 12.00   6.40 3262.04
   12:21:37.944.27-Aug-2021 4914.80 7760.53 85.40 12.00   6.60 3262.04
   12:21:38.144.27-Aug-2021 4914.80 7761.01 85.40 12.00   6.80 3262.04
   12:21:38.344.27-Aug-2021 4914.80 7761.57 85.40 12.00   7.00 3262.04
   12:21:38.545.27-Aug-2021 4914.80 7761.57 85.40 12.00   7.20 3262.04
   12:21:38.745.27-Aug-2021 4914.80 7761.57 85.40 12.00   7.40 3262.04
   12:21:38.945.27-Aug-2021 4914.80 7762.13 85.40 12.00   7.60 3262.04
   12:21:39.145.27-Aug-2021 4914.80 7762.29 85.40 12.00   7.80 3262.04
   12:21:39.345.27-Aug-2021 4914.80 7762.56 85.40 12.00   8.00 3262.04
   12:21:39.545.27-Aug-2021 4914.80 7762.56 85.40 12.00   8.20 3262.04
   12:21:39.745.27-Aug-2021 4914.80 7769.19 85.40 12.00   8.40 3262.04
   12:21:39.945.27-Aug-2021 4914.80 7760.66 85.40 12.00   8.60 3262.04
   12:21:40.145.27-Aug-2021 4914.80 7764.95 85.40 12.00   8.80 3262.04
   12:21:40.345.27-Aug-2021 4914.80 7764.32 85.40 12.00   9.00 3262.04
   12:21:40.545.27-Aug-2021 4914.80 7764.32 85.40 12.00   9.20 3262.04
   12:21:40.745.27-Aug-2021 4914.80 7764.43 85.40 12.00   9.40 3262.04
   12:21:40.945.27-Aug-2021 4914.80 7764.18 85.40 12.00   9.60 3262.04
   12:21:41.145.27-Aug-2021 4914.80 7764.54 85.40 12.00   9.80 3262.04
   12:21:41.345.27-Aug-2021 4914.80 7764.50 85.40 12.00  10.00 3262.04
   12:21:41.546.27-Aug-2021 4914.80 7764.50 85.40 12.00  10.20 3262.04
   12:21:41.746.27-Aug-2021 4914.80 7765.38 85.40 12.00  10.40 3262.04
   12:21:41.946.27-Aug-2021 4914.80 7765.37 85.40 12.00  10.60 3262.04
   12:21:42.146.27-Aug-2021 4914.80 7765.45 85.40 12.00  10.80 3262.04
   12:21:42.346.27-Aug-2021 4914.80 7765.29 85.40 12.00  11.00 3262.04
   12:21:42.546.27-Aug-2021 4914.80 7765.29 85.40 12.00  11.20 3262.04
   12:21:42.746.27-Aug-2021 4914.80 7765.34 85.40 12.00  11.40 3262.04
   12:21:42.946.27-Aug-2021 4914.80 7771.12 85.40 12.00  11.60 3262.04
   12:21:43.146.27-Aug-2021 4914.80 7762.64 85.40 12.00  11.80 3262.04
   12:21:43.346.27-Aug-2021 4914.80 7766.92 85.40 12.00  12.00 3262.04
   12:21:43.546.27-Aug-2021 4914.80 7766.92 85.40 12.00  12.20 3262.04
   12:21:43.746.27-Aug-2021 4914.80 7765.81 85.40 12.00  12.40 3262.04
   12:21:43.946.27-Aug-2021 4914.80 7766.22 85.40 12.00  12.60 3262.04
   12:21:44.146.27-Aug-2021 4914.80 7772.11 85.40 12.00  12.80 3262.04
   12:21:44.347.27-Aug-2021 4914.80 7763.71 85.40 12.00  13.00 3262.04
   12:21:44.547.27-Aug-2021 4914.80 7763.71 85.40 12.00  13.20 3262.04
   12:21:44.747.27-Aug-2021 4914.80 7767.37 85.40 12.00  13.40 3262.04
   12:21:44.947.27-Aug-2021 4914.80 7768.03 85.40 12.00  13.60 3262.04
   12:21:45.147.27-Aug-2021 4914.80 7768.23 85.40 12.00  13.80 3262.04
   12:21:45.347.27-Aug-2021 4914.80 7772.02 85.40 12.00  14.00 3262.04
   12:21:45.547.27-Aug-2021 4914.80 7772.02 85.40 12.00  14.21 3262.04
   12:21:45.747.27-Aug-2021 4914.80 7769.69 85.40 12.00  14.41 3262.04
   12:21:45.947.27-Aug-2021 4914.80 7768.99 85.40 12.00  14.61 3262.04
   12:21:46.147.27-Aug-2021 4914.80 7769.22 85.40 12.00  14.81 3262.04
   12:21:46.347.27-Aug-2021 4914.80 7773.16 85.40 12.00  15.01 3262.04
   12:21:46.547.27-Aug-2021 4914.80 7773.16 85.40 12.00  15.21 3262.04
   12:21:46.747.27-Aug-2021 4914.80 7771.12 85.40 12.00  15.41 3262.04
   12:21:46.947.27-Aug-2021 4914.80 7769.91 85.40 12.00  15.61 3262.04
   12:21:47.148.27-Aug-2021 4914.80 7776.14 85.40 12.00  15.81 3262.04
   12:21:47.348.27-Aug-2021 4914.80 7767.66 85.40 12.00  16.01 3262.04
   12:21:47.548.27-Aug-2021 4914.80 7767.66 85.40 12.00  16.21 3262.04
   12:21:47.748.27-Aug-2021 4914.80 7771.64 85.40 12.00  16.41 3262.04
   12:21:47.948.27-Aug-2021 4914.80 7770.88 85.40 12.00  16.61 3262.04
   12:21:48.148.27-Aug-2021 4914.80 7774.35 85.40 12.00  16.81 3262.04
   12:21:48.348.27-Aug-2021 4914.80 7770.86 85.40 12.00  17.01 3262.04
   12:21:48.548.27-Aug-2021 4914.80 7770.86 85.40 12.00  17.21 3262.04
   12:21:48.748.27-Aug-2021 4914.80 7772.18 85.39 12.00  17.41 3262.04
   12:21:48.948.27-Aug-2021 4914.80 7772.01 85.39 12.00  17.61 3262.04
   12:21:49.148.27-Aug-2021 4914.80 7772.39 85.39 12.00  17.81 3262.04
   12:21:49.348.27-Aug-2021 4914.80 7772.32 85.39 12.00  18.01 3262.04
   12:21:49.548.27-Aug-2021 4914.80 7772.32 85.39 12.00  18.21 3262.04
   12:21:49.748.27-Aug-2021 4914.80 7772.30 85.39 12.00  18.41 3262.04
   12:21:49.949.27-Aug-2021 4914.80 7772.80 85.39 12.00  18.61 3262.04
   12:21:50.149.27-Aug-2021 4914.80 7773.34 85.39 12.00  18.81 3262.04
   12:21:50.349.27-Aug-2021 4914.80 7773.51 85.39 12.00  19.01 3262.04
   12:21:50.549.27-Aug-2021 4914.80 7773.51 85.39 12.00  19.21 3262.04
   12:21:50.749.27-Aug-2021 4914.80 7773.81 85.39 12.00  19.41 3262.04
   12:21:50.949.27-Aug-2021 4914.80 7773.96 85.39 12.00  19.61 3262.04
   12:21:51.149.27-Aug-2021 4914.80 7773.95 85.39 12.00  19.81 3262.04
   12:21:51.349.27-Aug-2021 4914.80 7774.25 85.39 12.00  20.01 3262.04
   12:21:51.549.27-Aug-2021 4914.80 7774.25 85.39 12.00  20.21 3262.04
   12:21:51.749.27-Aug-2021 4914.80 7775.69 85.39 12.00  20.41 3262.04
   12:21:51.949.27-Aug-2021 4914.80 7775.53 85.39 12.00  20.61 3262.04
   12:21:52.149.27-Aug-2021 4914.80 7775.09 85.39 12.00  20.81 3262.04
   12:21:52.349.27-Aug-2021 4914.80 7775.20 85.39 12.00  21.01 3262.04
   12:21:52.549.27-Aug-2021 4914.80 7775.20 85.39 12.00  21.21 3262.04
   12:21:52.750.27-Aug-2021 4914.80 7775.74 85.39 12.00  21.41 3262.04
   12:21:52.950.27-Aug-2021 4914.80 7775.35 85.39 12.00  21.61 3262.04
   12:21:53.150.27-Aug-2021 4914.80 7776.05 85.39 12.00  21.81 3262.04
   12:21:53.350.27-Aug-2021 4914.80 7776.39 85.39 12.00  22.01 3262.04
   12:21:53.550.27-Aug-2021 4914.80 7776.39 85.39 12.00  22.21 3262.04
   12:21:53.750.27-Aug-2021 4914.80 7777.09 85.39 12.00  22.41 3262.04
