~Version Information
 VERS.                  2.0:   CWLS log ASCII Standard -VERSION 2.0
 WRAP.                   NO:   One line per depth step
~Well Information Block
#MNEM.UNIT     VALUE/NAME     DESCRIPTION
#---------     -----------    ---------------------------
 STRT.S             16:35:30 27-Aug-21: START TIME 16:35:30 27-Aug-21
 STOP.S             16:42:43 27-Aug-21: STOP TIME  16:42:43 27-Aug-21
 STEP.S                   0.00: STEP TIME
 NULL.                 -999.25: NULL VALUE
 DFWT.                        :  DIST FWL TEXT
 DFST.                        :  DIST FSL TEXT
 DMF .             Drill Floor:  DRILL MEAS FROM
 STIM.      20.00.00 17-Aug-21:  START TIME
 DATE.      19.00.00 29-Aug-21:  END TIME
 SPUD.               15-Aug-21:  SPUD DATE
 NREF.                    Grid:  NORTH REFERENCE
 HPTY.       Minimum Curvature:  HOLE POS TYPE
 DMOD.             Drill Model:  DRILL MOD DESC
 SVYD.                  Survey:  SURVEY DESC
 ILTD.               Lithology:  INTERP LTH DESC
 FTOP.          Formation Tops:  FORM TOPS DESC
 RIG .              East Azeri:  RIG NAME
 PDAT.          Mean Sea Level:  PERMANENT DATUM
 FLD .                     ACG:  FIELD NAME
 SON .        AZ-XX-0907180857:  JOB NUMBER
 CTRY.              Azerbaijan:  COUNTRY NAME
 WELL.                    D23x:  WELL NAME
 SRVC.     Turan Drilling and Engineering:  CONTRACTOR
 COMP.     BP Exploration (Caspian Sea) Ltd.:  COMPANY
 UWI .            /AZE00000214:  UNIQUE WELL IDENTIFIER
 API .            /AZE00000214:  API NUMBER
 MDS .        Operator Entered:  MAG DATA SOURCE
 BASE.              Azerbaijan:  LOGGING EQUIPMENT BASE LOCATION
 REGN.                   EESSA:  REGION
 PROV.                    Baku:  PROVINCE
 STAT.                    Baku:  STATE NAME
 MWDS.                    Baku:  MWD SHOP
 DOE .                     N/A:  DOE NUMBER
 DCON.         Sperry Drilling:  DIRECTNL CONTR
 UNIT.                     N/A:  LOGGING EQUIPMENT ID
 WTYP.                Deviated:  WELL TYPE
 CNTY.                        :  COUNTY
 LOC .                        :  LOCATION
 LMF .             Drill Floor:  LOG MEASURED FROM
 TVDS.m                  43.60:  TVDSS CORRECTN
 LATI.deg                40.02:  LATITUDE
 LONG.deg                51.45:  LONGITUDE
 WHNS.m                  -7.04:  WELL HEAD N/S
 WHEW.m                  -0.67:  WELL HEAD E/W
 UTMX.m              538762.90:  UTM X
 UTMY.m             4431871.34:  UTM Y
 DFWL.m                   0.00:  DISTANCE FWL
 DFSL.m                   0.00:  DISTANCE FSL
 SDEP.m                4127.00:  START DEPTH
 TDD .m                5084.50:  TOTAL DEPTH (DRILLER)
 VSDR.deg               140.47:  VERT SEC DIRECT
 GVFD.g                   1.00:  GRAVITY FIELD
 MFLD.nT              50362.00:  MAGNETIC FIELD
 MDIP.deg                59.48:  MAGNETIC DIP
 MDEC.deg                 6.47:  MAGNETIC DECL
 GRDC.deg                 0.31:  GRID CORRECTION
 AZTC.deg                 6.16:  AZM TOTAL CORR
 EPD .m                   0.00:  ELEVATION
 EGL .m                   0.00:  GROUND ELEVATION
 WDMS.m                 151.80:  WD ELEV
 APD .m                  43.60:  DEPTH ABOVE PD
 DEP .m                4092.57:  DEPTH
 AGAP.m                  43.60:  AIR GAP
 VSEW.m                  -0.67:  VERT SEC E/W
 VSNS.m                  -7.04:  VERT SEC N/S
 EKB .m                  43.60:  KB ELEVATION
 EDF .m                  43.60:  DF ELEVATION
 TDL .m                 957.50:  TOTAL DEPTH (LOGGER)
 VSC .                       0:  VS TO CLOSURE
 MAGU.                 1851413:  MAGUTM CHECKSUM
~Parameter Information Block
#MNEM.UNIT       Value        Description
#---------     -----------    ---------------------------
 AV  .mps                 1.50:  Ann Velocity 
 AVMX.mps                 2.00:  Max Ann Veloc 
 AZIF.deg               184.66:  Azm, Final 
 BHAT.        Rotary Steerable:  BHA Type 
 BREV.rev               300.00:  Rev Bit Total 
 BROT.°/30m              -0.50:  Build Rotating 
 BS  .in                  8.50:  Bit Size 
 BSZ .in                  8.50:  Bit Size 
 BTPL.psig              370.00:  Bit Press Loss 
 CABU.                      No:  Customer Abuse 
 CGEO.      Behruz Shahbaliyev:  Customer Geo 
 COMM.                     äU:  Run Comments 1 
 TCS .hr                140.08:  Time Ciculation Ended 
 CV  .mps                 3.00:  Crit Velocity 
 CVMX.mps                 3.20:  Max Crit Veloc 
 DD1 .            Musa Ahmadov:  Direct Drillr 1 
 DD2 .           Hamid Ahmadov:  Direct Drillr 2 
 DDSV.               Geo-Pilot:  DD Service 
 DEFF.%                  98.40:  % Det Eff 
 DLRX.°/30m               3.40:  Dogleg Rot Max 
 DLSO.°/30m               1.45:  Dogleg Oriented 
 DLSX.°/30m               3.40:  Dogleg Str Max 
 DRET.      18.40.00 29-Aug-21:  Drill End Time 
 DRST.      21.00.00 20-Aug-21:  Drill Start Tim 
 DTIM.hr                 69.47:  Time Drilling 
 EDEP.m                5084.50:  End Depth 
 ENG1.      Artemiy Matviyanov:  Engineer 1 
 ENG2.         Almaz Almadatov:  Engineer 2 
 ETIM.      18.40.00 29-Aug-21:  End Time 
 FLOI.gpm               500.00:  Flow In 
 FLON.gpm               400.00:  Flow In Min 
 FLOS.cptm                0.00:  Fluid Loss 
 FLOX.gpm               500.00:  Flow In Max 
 DFT .        Mineral Oil Base:  Mud Type 
 HFLO.                      No:  High Flow 
 HPRE.                      No:  High Pressure 
 HTEM.                      No:  High Temp 
 HYDO.m                   1.80:  Hydro Offset 
 IFIN.deg                25.62:  Inc, Final 
 IMAX.deg                48.69:  Inc Max 
 IMIN.deg                24.01:  Inc Min 
 IMND.m                4962.57:  Inc Min Depth 
 IMXD.m                4119.01:  Inc Max Depth 
 JARR.                      No:  Jarring 
 LETM.      18.40.00 29-Aug-21:  Log End Time 
 LOST.hr                     0:  Lost Rig Time 
 LSTM.      21.00.00 20-Aug-21:  Log Start Time 
 MDCL.ppm             41500.00:  Mud Chlorides 
 MDES.     Inversion Oil/Synthetic:  Mud Desc 
 DFD .sg                  1.56:  Mud Density 
 MDMN.sg                  1.56:  Dens Mud Min 
 MDMX.sg                  1.56:  Dens Mud Max 
 MOIL.                      70:  Run Mud Oil % 
 MOWR.                   70:30:  Run Mud OWR 
 MSND.                     0.2:  Run Mud Sand % 
 MSOL.                    23.3:  Run Mud Solids% 
 DFV .spqt               78.00:  Mud Viscosity 
 MWOD.in                  6.75:  MWD Tool OD 
 MWSI.                      No:  Serv Intrp, MWD 
 OTIM.hr                218.30:  Time Operating 
 PCON.           Look Like New:  Pad Condition 
 PMAX.psia            11015.30:  Press Op, Max 
 PV  .cP                 38.00:  Mud PV 
 RUN .                     300:  Run Number 
 ROPA.m/hr               15.00:  ROP Avg 
 ROPN.m/hr                9.00:  ROP Min 
 ROPX.m/hr               17.00:  ROP Max 
 RPMA.rpm               120.00:  RPM Surface Avg 
 RPMN.rpm                90.00:  RPM Surface Min 
 RPMX.rpm               140.00:  RPM Surface Max 
 RRUN.                     300:  Rig Run Number 
 RTIM.hr                 31.53:  Time Reaming 
 SAZI.deg               331.64:  Azm, Start 
 SDEP.m                4127.00:  Start Depth 
 SIDD.                      No:  Serv Intrp, DD 
 SINC.deg                48.43:  Inc, Start 
 SPPA.psig             5830.00:  SPP Avg 
 SPPN.psig             5600.00:  SPP Min 
 SPPX.psig             5900.00:  SPP Max 
 STIM.      21.00.00 20-Aug-21:  Start Time 
 SVCS.                 DD, MWD:  Services 
 SVER.                    9.20:  Sperry Version 
 TDAT.m                 957.50:  Tot Depth Attmp 
 TDDF.                      No:  Trip for DD 
 TDLG.m                 957.50:  Tot Depth Loggd 
 TFF .                      No:  Trip for Fail 
 TQAA.f-kp               15.00:  Torque Abs Avg 
 TQAN.f-kp               12.00:  Torque Abs Min 
 TQAX.f-kp               19.00:  Torque Abs Max 
 TRRT.°/30m              -3.40:  Turn Rotating 
 MRT .                  EWR-M5:  Maximum Recorded Temperature 
 TTMX.degC              100.00:  Max Tool Temp 
 VS01.                90639251:  Virtual Str1 SN 
 VS02.                90634715:  Virtual Str2 SN 
 VS03.                90652479:  Virtual Str3 SN 
 VS04.                90642262:  Virtual Str4 SN 
 WBMN.klb                 0.00:  WOB Min 
 WITN.           Murad Guliyev:  Customer Rep 
 WITN.          Yashar Gaziyev:  Customer Rep 2 
 WOBA.klb                 9.00:  WOB Avg 
 WOBX.klb                12.00:  WOB Max 
 YP  .lhf2               30.00:  Yield Point 
~Curve Information Block
#MNEM.UNIT                 API CODE     Curve Description
#---------               -----------    ---------------------------
 TIME.HHMMSS            00 000 000 000:  GT Time & Date
 GTDEPTH.m              00 000 000 000:  GT Depth
 GTPQH.psia             00 000 000 000:  GT HR Quartz Pressure
 GTTQ.degC              00 000 000 000:  GT Quartz Temperature
 GTTN.NONE              00 000 000 000:  GT Test Number
 GTET.sec               00 000 000 000:  GT Elapsed Test Time
 GTTVD.m                00 000 000 000:  GT True Vertical Depth
#Other Information
#
#WARRANTY: Halliburton will use its best efforts to furnish customers with 
#accurate information and interpretations that are part of, and incident to, the services 
#provided.  However, Halliburton cannot and does not warrant the accuracy 
#or correctness of such information and interpretations.  Under no circumstances should any 
#such information or interpretation be relied upon as the sole basis for any drilling, 
#completion, production, or financial decision or any procedure involving any risk to the 
#safety of any drilling venture, drilling rig or its crew or any other third party.  The 
#Customer has full responsibility for all drilling, completion and production operation.  
#Halliburton makes no representations or warranties, either expressed or 
#implied, including, but not limited to, the implied warranties of merchantability or fitness 
#for a particular purpose, with respect to the services rendered.  In no event will 
#Halliburton be liable for failure to obtain any particular results or for 
#any damages, including, but not limited to, indirect, special or consequential damages, 
#resulting from the use of any information or interpretation provided by Halliburton.
#
~A           TIME           GTDEPTH  GTPQH  GTTQ  GTTN   GTET   GTTVD  
# ...
   16:37:45.897.27-Aug-2021 4788.00 7525.02 83.21 17.00 135.46 3147.22
   16:37:46.097.27-Aug-2021 4788.00 7524.89 83.21 17.00 135.66 3147.22
   16:37:46.296.27-Aug-2021 4788.00 7523.75 83.21 17.00 135.86 3147.22
   16:37:46.496.27-Aug-2021 4788.00 7523.75 83.21 17.00 136.06 3147.22
   16:37:46.696.27-Aug-2021 4788.00 7524.21 83.21 17.00 136.26 3147.22
   16:37:46.896.27-Aug-2021 4788.00 7524.56 83.21 17.00 136.46 3147.22
   16:37:47.096.27-Aug-2021 4788.00 7524.43 83.21 17.00 136.66 3147.22
   16:37:47.295.27-Aug-2021 4788.00 7524.51 83.21 17.00 136.86 3147.22
   16:37:47.495.27-Aug-2021 4788.00 7524.51 83.21 17.00 137.06 3147.22
   16:37:47.695.27-Aug-2021 4788.00 7524.63 83.21 17.00 137.26 3147.22
   16:37:47.895.27-Aug-2021 4788.00 7524.45 83.21 17.00 137.46 3147.22
   16:37:48.095.27-Aug-2021 4788.00 7524.54 83.21 17.00 137.66 3147.22
   16:37:48.294.27-Aug-2021 4788.00 7524.47 83.21 17.00 137.86 3147.22
   16:37:48.494.27-Aug-2021 4788.00 7524.47 83.21 17.00 138.06 3147.22
   16:37:48.694.27-Aug-2021 4788.00 7522.49 83.21 17.00 138.26 3147.22
   16:37:48.894.27-Aug-2021 4788.00 7524.47 83.21 17.00 138.46 3147.22
   16:37:49.094.27-Aug-2021 4788.00 7525.35 83.21 17.00 138.66 3147.22
   16:37:49.293.27-Aug-2021 4788.00 7524.45 83.21 17.00 138.86 3147.22
   16:37:49.493.27-Aug-2021 4788.00 7524.45 83.21 17.00 139.06 3147.22
   16:37:49.693.27-Aug-2021 4788.00 7524.04 83.20 17.00 139.26 3147.22
   16:37:49.893.27-Aug-2021 4788.00 7524.17 83.21 17.00 139.46 3147.22
   16:37:50.093.27-Aug-2021 4788.00 7524.63 83.21 17.00 139.66 3147.22
   16:37:50.292.27-Aug-2021 4788.00 7524.69 83.20 17.00 139.86 3147.22
   16:37:50.492.27-Aug-2021 4788.00 7524.69 83.20 17.00 140.06 3147.22
   16:37:50.692.27-Aug-2021 4788.00 7525.12 83.20 17.00 140.26 3147.22
   16:37:50.892.27-Aug-2021 4788.00 7525.12 83.20 17.00 140.46 3147.22
   16:37:51.092.27-Aug-2021 4788.00 7524.99 83.20 17.00 140.66 3147.22
   16:37:51.291.27-Aug-2021 4788.00 7524.98 83.20 17.00 140.86 3147.22
   16:37:51.491.27-Aug-2021 4788.00 7524.98 83.20 17.00 141.06 3147.22
   16:37:51.691.27-Aug-2021 4788.00 7524.67 83.20 17.00 141.26 3147.22
   16:37:51.891.27-Aug-2021 4788.00 7526.10 83.20 17.00 141.46 3147.22
   16:37:52.091.27-Aug-2021 4788.00 7526.25 83.20 17.00 141.66 3147.22
   16:37:52.290.27-Aug-2021 4788.00 7524.46 83.20 17.00 141.86 3147.22
   16:37:52.490.27-Aug-2021 4788.00 7524.46 83.20 17.00 142.06 3147.22
   16:37:52.690.27-Aug-2021 4788.00 7525.19 83.20 17.00 142.26 3147.22
   16:37:52.890.27-Aug-2021 4788.00 7525.56 83.20 17.00 142.46 3147.22
   16:37:53.090.27-Aug-2021 4788.00 7526.22 83.20 17.00 142.66 3147.22
   16:37:53.289.27-Aug-2021 4788.00 7523.97 83.20 17.00 142.86 3147.22
   16:37:53.489.27-Aug-2021 4788.00 7523.97 83.20 17.00 143.06 3147.22
   16:37:53.689.27-Aug-2021 4788.00 7525.33 83.20 17.00 143.26 3147.22
   16:37:53.889.27-Aug-2021 4788.00 7523.86 83.20 17.00 143.46 3147.22
   16:37:54.089.27-Aug-2021 4788.00 7529.71 83.20 17.00 143.66 3147.22
   16:37:54.288.27-Aug-2021 4788.00 7522.62 83.20 17.00 143.86 3147.22
   16:37:54.488.27-Aug-2021 4788.00 7522.62 83.20 17.00 144.06 3147.22
   16:37:54.688.27-Aug-2021 4788.00 7525.73 83.20 17.00 144.26 3147.22
   16:37:54.888.27-Aug-2021 4788.00 7524.61 83.20 17.00 144.46 3147.22
   16:37:55.088.27-Aug-2021 4788.00 7524.46 83.20 17.00 144.66 3147.22
   16:37:55.287.27-Aug-2021 4788.00 7529.27 83.20 17.00 144.86 3147.22
   16:37:55.487.27-Aug-2021 4788.00 7529.27 83.20 17.00 145.06 3147.22
   16:37:55.687.27-Aug-2021 4788.00 7524.88 83.20 17.00 145.25 3147.22
   16:37:55.887.27-Aug-2021 4788.00 7525.51 83.20 17.00 145.45 3147.22
   16:37:56.087.27-Aug-2021 4788.00 7524.63 83.20 17.00 145.65 3147.22
   16:37:56.286.27-Aug-2021 4788.00 7524.58 83.20 17.00 145.85 3147.22
   16:37:56.486.27-Aug-2021 4788.00 7524.58 83.20 17.00 146.05 3147.22
   16:37:56.686.27-Aug-2021 4788.00 7524.60 83.20 17.00 146.25 3147.22
   16:37:56.886.27-Aug-2021 4788.00 7525.08 83.20 17.00 146.45 3147.22
   16:37:57.086.27-Aug-2021 4788.00 7524.94 83.20 17.00 146.65 3147.22
   16:37:57.285.27-Aug-2021 4788.00 7525.03 83.20 17.00 146.85 3147.22
   16:37:57.485.27-Aug-2021 4788.00 7525.03 83.20 17.00 147.05 3147.22
   16:37:57.685.27-Aug-2021 4788.00 7525.20 83.20 17.00 147.25 3147.22
   16:37:57.885.27-Aug-2021 4788.00 7524.95 83.20 17.00 147.45 3147.22
   16:37:58.085.27-Aug-2021 4788.00 7524.97 83.20 17.00 147.65 3147.22
   16:37:58.284.27-Aug-2021 4788.00 7524.83 83.20 17.00 147.85 3147.22
   16:37:58.484.27-Aug-2021 4788.00 7524.83 83.20 17.00 148.05 3147.22
   16:37:58.684.27-Aug-2021 4788.00 7522.90 83.20 17.00 148.25 3147.22
   16:37:58.884.27-Aug-2021 4788.00 7524.64 83.20 17.00 148.45 3147.22
   16:37:59.084.27-Aug-2021 4788.00 7525.64 83.20 17.00 148.65 3147.22
   16:37:59.283.27-Aug-2021 4788.00 7524.78 83.20 17.00 148.85 3147.22
   16:37:59.483.27-Aug-2021 4788.00 7524.78 83.20 17.00 149.05 3147.22
   16:37:59.683.27-Aug-2021 4788.00 7524.33 83.20 17.00 149.25 3147.22
   16:37:59.883.27-Aug-2021 4788.00 7524.51 83.20 17.00 149.45 3147.22
   16:38:00.083.27-Aug-2021 4788.00 7525.04 83.20 17.00 149.65 3147.22
   16:38:00.282.27-Aug-2021 4788.00 7525.04 83.20 17.00 149.85 3147.22
   16:38:00.482.27-Aug-2021 4788.00 7525.04 83.20 17.00 150.05 3147.22
   16:38:00.682.27-Aug-2021 4788.00 7525.41 83.20 17.00 150.25 3147.22
   16:38:00.882.27-Aug-2021 4788.00 7525.31 83.20 17.00 150.45 3147.22
   16:38:01.082.27-Aug-2021 4788.00 7525.05 83.20 17.00 150.65 3147.22
   16:38:01.281.27-Aug-2021 4788.00 7525.04 83.20 17.00 150.85 3147.22
   16:38:01.481.27-Aug-2021 4788.00 7525.04 83.20 17.00 151.05 3147.22
   16:38:01.681.27-Aug-2021 4788.00 7524.83 83.20 17.00 151.25 3147.22
   16:38:01.881.27-Aug-2021 4788.00 7526.16 83.20 17.00 151.45 3147.22
   16:38:02.081.27-Aug-2021 4788.00 7526.43 83.20 17.00 151.65 3147.22
   16:38:02.280.27-Aug-2021 4788.00 7524.48 83.20 17.00 151.85 3147.22
   16:38:02.480.27-Aug-2021 4788.00 7524.48 83.20 17.00 152.05 3147.22
   16:38:02.680.27-Aug-2021 4788.00 7525.19 83.20 17.00 152.25 3147.22
   16:38:02.880.27-Aug-2021 4788.00 7529.23 83.20 17.00 152.45 3147.22
   16:38:03.080.27-Aug-2021 4788.00 7522.35 83.20 17.00 152.65 3147.22
   16:38:03.279.27-Aug-2021 4788.00 7524.23 83.20 17.00 152.85 3147.22
   16:38:03.479.27-Aug-2021 4788.00 7524.23 83.20 17.00 153.05 3147.22
   16:38:03.679.27-Aug-2021 4788.00 7524.67 83.20 17.00 153.25 3147.22
   16:38:03.879.27-Aug-2021 4788.00 7524.59 83.20 17.00 153.45 3147.22
   16:38:04.079.27-Aug-2021 4788.00 7529.65 83.20 17.00 153.65 3147.22
   16:38:04.278.27-Aug-2021 4788.00 7522.52 83.20 17.00 153.85 3147.22
   16:38:04.478.27-Aug-2021 4788.00 7522.52 83.20 17.00 154.05 3147.22
   16:38:04.678.27-Aug-2021 4788.00 7525.64 83.20 17.00 154.25 3147.22
   16:38:04.878.27-Aug-2021 4788.00 7525.99 83.20 17.00 154.45 3147.22
   16:38:05.078.27-Aug-2021 4788.00 7526.85 83.20 17.00 154.65 3147.22
   16:38:05.277.27-Aug-2021 4788.00 7523.85 83.20 17.00 154.85 3147.22
   16:38:05.477.27-Aug-2021 4788.00 7523.85 83.20 17.00 155.05 3147.22
   16:38:05.677.27-Aug-2021 4788.00 7526.01 83.20 17.00 155.25 3147.22
   16:38:05.877.27-Aug-2021 4788.00 7523.83 83.20 17.00 155.44 3147.22
   16:38:06.077.27-Aug-2021 4788.00 7524.61 83.20 17.00 155.64 3147.22
   16:38:06.276.27-Aug-2021 4788.00 7524.42 83.20 17.00 155.84 3147.22
   16:38:06.476.27-Aug-2021 4788.00 7524.42 83.20 17.00 156.04 3147.22
   16:38:06.676.27-Aug-2021 4788.00 7524.84 83.20 17.00 156.24 3147.22
   16:38:06.876.27-Aug-2021 4788.00 7524.55 83.20 17.00 156.44 3147.22
   16:38:07.076.27-Aug-2021 4788.00 7524.88 83.20 17.00 156.64 3147.22
   16:38:07.275.27-Aug-2021 4788.00 7524.85 83.20 17.00 156.84 3147.22
   16:38:07.475.27-Aug-2021 4788.00 7524.85 83.20 17.00 157.04 3147.22
   16:38:07.675.27-Aug-2021 4788.00 7524.71 83.20 17.00 157.24 3147.22
   16:38:07.875.27-Aug-2021 4788.00 7524.69 83.20 17.00 157.44 3147.22
   16:38:08.075.27-Aug-2021 4788.00 7526.01 83.20 17.00 157.64 3147.22
   16:38:08.274.27-Aug-2021 4788.00 7526.47 83.20 17.00 157.84 3147.22
