~Version Information
 VERS.                  2.0:   CWLS log ASCII Standard -VERSION 2.0
 WRAP.                   NO:   One line per depth step
~Well Information Block
#MNEM.UNIT     VALUE/NAME     DESCRIPTION
#---------     -----------    ---------------------------
 STRT.S             01:57:49 28-Aug-21: START TIME 01:57:49 28-Aug-21
 STOP.S             02:04:41 28-Aug-21: STOP TIME  02:04:41 28-Aug-21
 STEP.S                   0.00: STEP TIME
 NULL.                 -999.25: NULL VALUE
 DFWT.                        :  DIST FWL TEXT
 DFST.                        :  DIST FSL TEXT
 DMF .             Drill Floor:  DRILL MEAS FROM
 STIM.      20.00.00 17-Aug-21:  START TIME
 DATE.      19.00.00 29-Aug-21:  END TIME
 SPUD.               15-Aug-21:  SPUD DATE
 NREF.                    Grid:  NORTH REFERENCE
 HPTY.       Minimum Curvature:  HOLE POS TYPE
 DMOD.             Drill Model:  DRILL MOD DESC
 SVYD.                  Survey:  SURVEY DESC
 ILTD.               Lithology:  INTERP LTH DESC
 FTOP.          Formation Tops:  FORM TOPS DESC
 RIG .              East Azeri:  RIG NAME
 PDAT.          Mean Sea Level:  PERMANENT DATUM
 FLD .                     ACG:  FIELD NAME
 SON .        AZ-XX-0907180857:  JOB NUMBER
 CTRY.              Azerbaijan:  COUNTRY NAME
 WELL.                    D23x:  WELL NAME
 SRVC.     Turan Drilling and Engineering:  CONTRACTOR
 COMP.     BP Exploration (Caspian Sea) Ltd.:  COMPANY
 UWI .            /AZE00000214:  UNIQUE WELL IDENTIFIER
 API .            /AZE00000214:  API NUMBER
 MDS .        Operator Entered:  MAG DATA SOURCE
 BASE.              Azerbaijan:  LOGGING EQUIPMENT BASE LOCATION
 REGN.                   EESSA:  REGION
 PROV.                    Baku:  PROVINCE
 STAT.                    Baku:  STATE NAME
 MWDS.                    Baku:  MWD SHOP
 DOE .                     N/A:  DOE NUMBER
 DCON.         Sperry Drilling:  DIRECTNL CONTR
 UNIT.                     N/A:  LOGGING EQUIPMENT ID
 WTYP.                Deviated:  WELL TYPE
 CNTY.                        :  COUNTY
 LOC .                        :  LOCATION
 LMF .             Drill Floor:  LOG MEASURED FROM
 TVDS.m                  43.60:  TVDSS CORRECTN
 LATI.deg                40.02:  LATITUDE
 LONG.deg                51.45:  LONGITUDE
 WHNS.m                  -7.04:  WELL HEAD N/S
 WHEW.m                  -0.67:  WELL HEAD E/W
 UTMX.m              538762.90:  UTM X
 UTMY.m             4431871.34:  UTM Y
 DFWL.m                   0.00:  DISTANCE FWL
 DFSL.m                   0.00:  DISTANCE FSL
 SDEP.m                4127.00:  START DEPTH
 TDD .m                5084.50:  TOTAL DEPTH (DRILLER)
 VSDR.deg               140.47:  VERT SEC DIRECT
 GVFD.g                   1.00:  GRAVITY FIELD
 MFLD.nT              50362.00:  MAGNETIC FIELD
 MDIP.deg                59.48:  MAGNETIC DIP
 MDEC.deg                 6.47:  MAGNETIC DECL
 GRDC.deg                 0.31:  GRID CORRECTION
 AZTC.deg                 6.16:  AZM TOTAL CORR
 EPD .m                   0.00:  ELEVATION
 EGL .m                   0.00:  GROUND ELEVATION
 WDMS.m                 151.80:  WD ELEV
 APD .m                  43.60:  DEPTH ABOVE PD
 DEP .m                4092.57:  DEPTH
 AGAP.m                  43.60:  AIR GAP
 VSEW.m                  -0.67:  VERT SEC E/W
 VSNS.m                  -7.04:  VERT SEC N/S
 EKB .m                  43.60:  KB ELEVATION
 EDF .m                  43.60:  DF ELEVATION
 TDL .m                 957.50:  TOTAL DEPTH (LOGGER)
 VSC .                       0:  VS TO CLOSURE
 MAGU.                 1851413:  MAGUTM CHECKSUM
~Parameter Information Block
#MNEM.UNIT       Value        Description
#---------     -----------    ---------------------------
 AV  .mps                 1.50:  Ann Velocity 
 AVMX.mps                 2.00:  Max Ann Veloc 
 AZIF.deg               184.66:  Azm, Final 
 BHAT.        Rotary Steerable:  BHA Type 
 BREV.rev               300.00:  Rev Bit Total 
 BROT.°/30m              -0.50:  Build Rotating 
 BS  .in                  8.50:  Bit Size 
 BSZ .in                  8.50:  Bit Size 
 BTPL.psig              370.00:  Bit Press Loss 
 CABU.                      No:  Customer Abuse 
 CGEO.      Behruz Shahbaliyev:  Customer Geo 
 COMM.                     Äi}:  Run Comments 1 
 TCS .hr                140.08:  Time Ciculation Ended 
 CV  .mps                 3.00:  Crit Velocity 
 CVMX.mps                 3.20:  Max Crit Veloc 
 DD1 .            Musa Ahmadov:  Direct Drillr 1 
 DD2 .           Hamid Ahmadov:  Direct Drillr 2 
 DDSV.               Geo-Pilot:  DD Service 
 DEFF.%                  98.40:  % Det Eff 
 DLRX.°/30m               3.40:  Dogleg Rot Max 
 DLSO.°/30m               1.45:  Dogleg Oriented 
 DLSX.°/30m               3.40:  Dogleg Str Max 
 DRET.      18.40.00 29-Aug-21:  Drill End Time 
 DRST.      21.00.00 20-Aug-21:  Drill Start Tim 
 DTIM.hr                 69.47:  Time Drilling 
 EDEP.m                5084.50:  End Depth 
 ENG1.      Artemiy Matviyanov:  Engineer 1 
 ENG2.         Almaz Almadatov:  Engineer 2 
 ETIM.      18.40.00 29-Aug-21:  End Time 
 FLOI.gpm               500.00:  Flow In 
 FLON.gpm               400.00:  Flow In Min 
 FLOS.cptm                0.00:  Fluid Loss 
 FLOX.gpm               500.00:  Flow In Max 
 DFT .        Mineral Oil Base:  Mud Type 
 HFLO.                      No:  High Flow 
 HPRE.                      No:  High Pressure 
 HTEM.                      No:  High Temp 
 HYDO.m                   1.80:  Hydro Offset 
 IFIN.deg                25.62:  Inc, Final 
 IMAX.deg                48.69:  Inc Max 
 IMIN.deg                24.01:  Inc Min 
 IMND.m                4962.57:  Inc Min Depth 
 IMXD.m                4119.01:  Inc Max Depth 
 JARR.                      No:  Jarring 
 LETM.      18.40.00 29-Aug-21:  Log End Time 
 LOST.hr                     0:  Lost Rig Time 
 LSTM.      21.00.00 20-Aug-21:  Log Start Time 
 MDCL.ppm             41500.00:  Mud Chlorides 
 MDES.     Inversion Oil/Synthetic:  Mud Desc 
 DFD .sg                  1.56:  Mud Density 
 MDMN.sg                  1.56:  Dens Mud Min 
 MDMX.sg                  1.56:  Dens Mud Max 
 MOIL.                      70:  Run Mud Oil % 
 MOWR.                   70:30:  Run Mud OWR 
 MSND.                     0.2:  Run Mud Sand % 
 MSOL.                    23.3:  Run Mud Solids% 
 DFV .spqt               78.00:  Mud Viscosity 
 MWOD.in                  6.75:  MWD Tool OD 
 MWSI.                      No:  Serv Intrp, MWD 
 OTIM.hr                218.30:  Time Operating 
 PCON.           Look Like New:  Pad Condition 
 PMAX.psia            11015.30:  Press Op, Max 
 PV  .cP                 38.00:  Mud PV 
 RUN .                     300:  Run Number 
 ROPA.m/hr               15.00:  ROP Avg 
 ROPN.m/hr                9.00:  ROP Min 
 ROPX.m/hr               17.00:  ROP Max 
 RPMA.rpm               120.00:  RPM Surface Avg 
 RPMN.rpm                90.00:  RPM Surface Min 
 RPMX.rpm               140.00:  RPM Surface Max 
 RRUN.                     300:  Rig Run Number 
 RTIM.hr                 31.53:  Time Reaming 
 SAZI.deg               331.64:  Azm, Start 
 SDEP.m                4127.00:  Start Depth 
 SIDD.                      No:  Serv Intrp, DD 
 SINC.deg                48.43:  Inc, Start 
 SPPA.psig             5830.00:  SPP Avg 
 SPPN.psig             5600.00:  SPP Min 
 SPPX.psig             5900.00:  SPP Max 
 STIM.      21.00.00 20-Aug-21:  Start Time 
 SVCS.                 DD, MWD:  Services 
 SVER.                    9.20:  Sperry Version 
 TDAT.m                 957.50:  Tot Depth Attmp 
 TDDF.                      No:  Trip for DD 
 TDLG.m                 957.50:  Tot Depth Loggd 
 TFF .                      No:  Trip for Fail 
 TQAA.f-kp               15.00:  Torque Abs Avg 
 TQAN.f-kp               12.00:  Torque Abs Min 
 TQAX.f-kp               19.00:  Torque Abs Max 
 TRRT.°/30m              -3.40:  Turn Rotating 
 MRT .                  EWR-M5:  Maximum Recorded Temperature 
 TTMX.degC              100.00:  Max Tool Temp 
 VS01.                90639251:  Virtual Str1 SN 
 VS02.                90634715:  Virtual Str2 SN 
 VS03.                90652479:  Virtual Str3 SN 
 VS04.                90642262:  Virtual Str4 SN 
 WBMN.klb                 0.00:  WOB Min 
 WITN.           Murad Guliyev:  Customer Rep 
 WITN.          Yashar Gaziyev:  Customer Rep 2 
 WOBA.klb                 9.00:  WOB Avg 
 WOBX.klb                12.00:  WOB Max 
 YP  .lhf2               30.00:  Yield Point 
~Curve Information Block
#MNEM.UNIT                 API CODE     Curve Description
#---------               -----------    ---------------------------
 TIME.HHMMSS            00 000 000 000:  GT Time & Date
 GTDEPTH.m              00 000 000 000:  GT Depth
 GTPQH.psia             00 000 000 000:  GT HR Quartz Pressure
 GTTQ.degC              00 000 000 000:  GT Quartz Temperature
 GTTN.NONE              00 000 000 000:  GT Test Number
 GTET.sec               00 000 000 000:  GT Elapsed Test Time
 GTTVD.m                00 000 000 000:  GT True Vertical Depth
#Other Information
#
#WARRANTY: Halliburton will use its best efforts to furnish customers with 
#accurate information and interpretations that are part of, and incident to, the services 
#provided.  However, Halliburton cannot and does not warrant the accuracy 
#or correctness of such information and interpretations.  Under no circumstances should any 
#such information or interpretation be relied upon as the sole basis for any drilling, 
#completion, production, or financial decision or any procedure involving any risk to the 
#safety of any drilling venture, drilling rig or its crew or any other third party.  The 
#Customer has full responsibility for all drilling, completion and production operation.  
#Halliburton makes no representations or warranties, either expressed or 
#implied, including, but not limited to, the implied warranties of merchantability or fitness 
#for a particular purpose, with respect to the services rendered.  In no event will 
#Halliburton be liable for failure to obtain any particular results or for 
#any damages, including, but not limited to, indirect, special or consequential damages, 
#resulting from the use of any information or interpretation provided by Halliburton.
#
~A           TIME           GTDEPTH  GTPQH  GTTQ  GTTN   GTET   GTTVD  
# ...
   02:00:27.601.28-Aug-2021 4879.00 7755.49 81.21 27.00 158.25 3229.53
   02:00:27.801.28-Aug-2021 4879.00 7755.36 81.21 27.00 158.45 3229.53
   02:00:28.002.28-Aug-2021 4879.00 7755.19 81.21 27.00 158.65 3229.53
   02:00:28.202.28-Aug-2021 4879.00 7758.92 81.21 27.00 158.85 3229.53
   02:00:28.402.28-Aug-2021 4879.00 7754.09 81.21 27.00 159.05 3229.53
   02:00:28.602.28-Aug-2021 4879.00 7754.09 81.21 27.00 159.25 3229.53
   02:00:28.802.28-Aug-2021 4879.00 7755.51 81.21 27.00 159.45 3229.53
   02:00:29.002.28-Aug-2021 4879.00 7758.89 81.21 27.00 159.65 3229.53
   02:00:29.202.28-Aug-2021 4879.00 7753.79 81.21 27.00 159.85 3229.53
   02:00:29.402.28-Aug-2021 4879.00 7755.29 81.21 27.00 160.05 3229.53
   02:00:29.602.28-Aug-2021 4879.00 7755.29 81.21 27.00 160.25 3229.53
   02:00:29.802.28-Aug-2021 4879.00 7754.81 81.21 27.00 160.45 3229.53
   02:00:30.002.28-Aug-2021 4879.00 7754.62 81.21 27.00 160.65 3229.53
   02:00:30.202.28-Aug-2021 4879.00 7760.51 81.21 27.00 160.85 3229.53
   02:00:30.402.28-Aug-2021 4879.00 7752.02 81.21 27.00 161.05 3229.53
   02:00:30.602.28-Aug-2021 4879.00 7752.02 81.21 27.00 161.25 3229.53
   02:00:30.802.28-Aug-2021 4879.00 7755.55 81.21 27.00 161.45 3229.53
   02:00:31.002.28-Aug-2021 4879.00 7761.37 81.21 27.00 161.65 3229.53
   02:00:31.203.28-Aug-2021 4879.00 7752.81 81.21 27.00 161.85 3229.53
   02:00:31.403.28-Aug-2021 4879.00 7756.61 81.21 27.00 162.05 3229.53
   02:00:31.603.28-Aug-2021 4879.00 7756.61 81.21 27.00 162.25 3229.53
   02:00:31.803.28-Aug-2021 4879.00 7755.25 81.21 27.00 162.45 3229.53
   02:00:32.003.28-Aug-2021 4879.00 7755.25 81.21 27.00 162.65 3229.53
   02:00:32.203.28-Aug-2021 4879.00 7754.71 81.21 27.00 162.85 3229.53
   02:00:32.403.28-Aug-2021 4879.00 7754.74 81.21 27.00 163.05 3229.53
   02:00:32.603.28-Aug-2021 4879.00 7754.74 81.21 27.00 163.25 3229.53
   02:00:32.803.28-Aug-2021 4879.00 7755.10 81.21 27.00 163.45 3229.53
   02:00:33.003.28-Aug-2021 4879.00 7755.18 81.21 27.00 163.65 3229.53
   02:00:33.203.28-Aug-2021 4879.00 7755.49 81.21 27.00 163.85 3229.53
   02:00:33.403.28-Aug-2021 4879.00 7755.60 81.21 27.00 164.05 3229.53
   02:00:33.603.28-Aug-2021 4879.00 7755.60 81.21 27.00 164.25 3229.53
   02:00:33.803.28-Aug-2021 4879.00 7755.52 81.21 27.00 164.45 3229.53
   02:00:34.003.28-Aug-2021 4879.00 7755.32 81.21 27.00 164.65 3229.53
   02:00:34.203.28-Aug-2021 4879.00 7759.02 81.21 27.00 164.85 3229.53
   02:00:34.404.28-Aug-2021 4879.00 7754.29 81.21 27.00 165.05 3229.53
   02:00:34.604.28-Aug-2021 4879.00 7754.29 81.21 27.00 165.25 3229.53
   02:00:34.804.28-Aug-2021 4879.00 7755.86 81.21 27.00 165.45 3229.53
   02:00:35.004.28-Aug-2021 4879.00 7755.31 81.21 27.00 165.65 3229.53
   02:00:35.204.28-Aug-2021 4879.00 7755.05 81.21 27.00 165.85 3229.53
   02:00:35.404.28-Aug-2021 4879.00 7754.86 81.21 27.00 166.05 3229.53
   02:00:35.604.28-Aug-2021 4879.00 7754.86 81.21 27.00 166.25 3229.53
   02:00:35.804.28-Aug-2021 4879.00 7755.16 81.21 27.00 166.45 3229.53
   02:00:36.004.28-Aug-2021 4879.00 7755.38 81.21 27.00 166.65 3229.53
   02:00:36.204.28-Aug-2021 4879.00 7755.71 81.21 27.00 166.85 3229.53
   02:00:36.404.28-Aug-2021 4879.00 7755.94 81.21 27.00 167.05 3229.53
   02:00:36.604.28-Aug-2021 4879.00 7755.94 81.21 27.00 167.25 3229.53
   02:00:36.804.28-Aug-2021 4879.00 7755.99 81.21 27.00 167.45 3229.53
   02:00:37.004.28-Aug-2021 4879.00 7755.80 81.21 27.00 167.65 3229.53
   02:00:37.204.28-Aug-2021 4879.00 7755.74 81.21 27.00 167.85 3229.53
   02:00:37.404.28-Aug-2021 4879.00 7755.50 81.21 27.00 168.05 3229.53
   02:00:37.605.28-Aug-2021 4879.00 7755.50 81.21 27.00 168.25 3229.53
   02:00:37.805.28-Aug-2021 4879.00 7754.67 81.21 27.00 168.45 3229.53
   02:00:38.005.28-Aug-2021 4879.00 7756.00 81.21 27.00 168.65 3229.53
   02:00:38.205.28-Aug-2021 4879.00 7756.12 81.21 27.00 168.85 3229.53
   02:00:38.405.28-Aug-2021 4879.00 7755.57 81.21 27.00 169.05 3229.53
   02:00:38.605.28-Aug-2021 4879.00 7755.57 81.21 27.00 169.25 3229.53
   02:00:38.805.28-Aug-2021 4879.00 7755.10 81.21 27.00 169.45 3229.53
   02:00:39.005.28-Aug-2021 4879.00 7756.15 81.21 27.00 169.65 3229.53
   02:00:39.205.28-Aug-2021 4879.00 7755.33 81.21 27.00 169.85 3229.53
   02:00:39.405.28-Aug-2021 4879.00 7754.93 81.21 27.00 170.05 3229.53
   02:00:39.605.28-Aug-2021 4879.00 7754.93 81.21 27.00 170.25 3229.53
   02:00:39.805.28-Aug-2021 4879.00 7754.52 81.21 27.00 170.45 3229.53
   02:00:40.005.28-Aug-2021 4879.00 7756.10 81.21 27.00 170.65 3229.53
   02:00:40.205.28-Aug-2021 4879.00 7756.05 81.21 27.00 170.85 3229.53
   02:00:40.405.28-Aug-2021 4879.00 7755.86 81.21 27.00 171.05 3229.53
   02:00:40.605.28-Aug-2021 4879.00 7755.86 81.21 27.00 171.25 3229.53
   02:00:40.806.28-Aug-2021 4879.00 7754.62 81.21 27.00 171.45 3229.53
   02:00:41.006.28-Aug-2021 4879.00 7755.75 81.21 27.00 171.65 3229.53
   02:00:41.206.28-Aug-2021 4879.00 7755.95 81.21 27.00 171.85 3229.53
   02:00:41.406.28-Aug-2021 4879.00 7755.22 81.21 27.00 172.05 3229.53
   02:00:41.606.28-Aug-2021 4879.00 7755.22 81.21 27.00 172.25 3229.53
   02:00:41.806.28-Aug-2021 4879.00 7754.92 81.21 27.00 172.45 3229.53
   02:00:42.006.28-Aug-2021 4879.00 7754.89 81.21 27.00 172.65 3229.53
   02:00:42.206.28-Aug-2021 4879.00 7755.00 81.21 27.00 172.85 3229.53
   02:00:42.406.28-Aug-2021 4879.00 7755.15 81.21 27.00 173.05 3229.53
   02:00:42.606.28-Aug-2021 4879.00 7755.15 81.21 27.00 173.25 3229.53
   02:00:42.806.28-Aug-2021 4879.00 7755.62 81.20 27.00 173.45 3229.53
   02:00:43.006.28-Aug-2021 4879.00 7755.79 81.20 27.00 173.65 3229.53
   02:00:43.206.28-Aug-2021 4879.00 7755.69 81.20 27.00 173.85 3229.53
   02:00:43.406.28-Aug-2021 4879.00 7755.83 81.20 27.00 174.05 3229.53
   02:00:43.606.28-Aug-2021 4879.00 7755.83 81.20 27.00 174.25 3229.53
   02:00:43.806.28-Aug-2021 4879.00 7755.74 81.20 27.00 174.45 3229.53
   02:00:44.007.28-Aug-2021 4879.00 7758.49 81.20 27.00 174.65 3229.53
   02:00:44.207.28-Aug-2021 4879.00 7755.84 81.20 27.00 174.86 3229.53
   02:00:44.407.28-Aug-2021 4879.00 7756.48 81.20 27.00 175.06 3229.53
   02:00:44.607.28-Aug-2021 4879.00 7756.48 81.20 27.00 175.26 3229.53
   02:00:44.807.28-Aug-2021 4879.00 7755.28 81.20 27.00 175.46 3229.53
   02:00:45.007.28-Aug-2021 4879.00 7755.07 81.20 27.00 175.66 3229.53
   02:00:45.207.28-Aug-2021 4879.00 7755.22 81.20 27.00 175.86 3229.53
   02:00:45.407.28-Aug-2021 4879.00 7755.23 81.20 27.00 176.06 3229.53
   02:00:45.607.28-Aug-2021 4879.00 7755.23 81.20 27.00 176.26 3229.53
   02:00:45.807.28-Aug-2021 4879.00 7755.92 81.20 27.00 176.46 3229.53
   02:00:46.007.28-Aug-2021 4879.00 7756.02 81.20 27.00 176.66 3229.53
   02:00:46.207.28-Aug-2021 4879.00 7756.15 81.20 27.00 176.86 3229.53
   02:00:46.407.28-Aug-2021 4879.00 7756.19 81.20 27.00 177.06 3229.53
   02:00:46.607.28-Aug-2021 4879.00 7756.19 81.20 27.00 177.26 3229.53
   02:00:46.807.28-Aug-2021 4879.00 7756.09 81.20 27.00 177.46 3229.53
   02:00:47.007.28-Aug-2021 4879.00 7755.95 81.20 27.00 177.66 3229.53
   02:00:47.208.28-Aug-2021 4879.00 7755.88 81.20 27.00 177.86 3229.53
   02:00:47.408.28-Aug-2021 4879.00 7758.89 81.20 27.00 178.06 3229.53
   02:00:47.608.28-Aug-2021 4879.00 7758.89 81.20 27.00 178.26 3229.53
   02:00:47.808.28-Aug-2021 4879.00 7756.84 81.20 27.00 178.46 3229.53
   02:00:48.008.28-Aug-2021 4879.00 7755.81 81.20 27.00 178.66 3229.53
   02:00:48.208.28-Aug-2021 4879.00 7759.33 81.20 27.00 178.86 3229.53
   02:00:48.408.28-Aug-2021 4879.00 7754.39 81.20 27.00 179.06 3229.53
   02:00:48.608.28-Aug-2021 4879.00 7754.39 81.20 27.00 179.26 3229.53
   02:00:48.808.28-Aug-2021 4879.00 7755.50 81.20 27.00 179.46 3229.53
   02:00:49.008.28-Aug-2021 4879.00 7755.44 81.20 27.00 179.66 3229.53
   02:00:49.208.28-Aug-2021 4879.00 7755.55 81.20 27.00 179.86 3229.53
   02:00:49.408.28-Aug-2021 4879.00 7758.70 81.20 27.00 180.06 3229.53
   02:00:49.608.28-Aug-2021 4879.00 7758.70 81.20 27.00 180.26 3229.53
   02:00:49.808.28-Aug-2021 4879.00 7756.77 81.20 27.00 180.46 3229.53
   02:00:50.008.28-Aug-2021 4879.00 7756.25 81.20 27.00 180.66 3229.53
