~Version Information
 VERS.                  2.0:   CWLS log ASCII Standard -VERSION 2.0
 WRAP.                   NO:   One line per depth step
~Well Information Block
#MNEM.UNIT     VALUE/NAME     DESCRIPTION
#---------     -----------    ---------------------------
 STRT.S             09:25:17 27-Aug-21: START TIME 09:25:17 27-Aug-21
 STOP.S             09:32:27 27-Aug-21: STOP TIME  09:32:27 27-Aug-21
 STEP.S                   0.00: STEP TIME
 NULL.                 -999.25: NULL VALUE
 DFWT.                        :  DIST FWL TEXT
 DFST.                        :  DIST FSL TEXT
 DMF .             Drill Floor:  DRILL MEAS FROM
 STIM.      20.00.00 17-Aug-21:  START TIME
 DATE.      19.00.00 29-Aug-21:  END TIME
 SPUD.               15-Aug-21:  SPUD DATE
 NREF.                    Grid:  NORTH REFERENCE
 HPTY.       Minimum Curvature:  HOLE POS TYPE
 DMOD.             Drill Model:  DRILL MOD DESC
 SVYD.                  Survey:  SURVEY DESC
 ILTD.               Lithology:  INTERP LTH DESC
 FTOP.          Formation Tops:  FORM TOPS DESC
 RIG .              East Azeri:  RIG NAME
 PDAT.          Mean Sea Level:  PERMANENT DATUM
 FLD .                     ACG:  FIELD NAME
 SON .        AZ-XX-0907180857:  JOB NUMBER
 CTRY.              Azerbaijan:  COUNTRY NAME
 WELL.                    D23x:  WELL NAME
 SRVC.     Turan Drilling and Engineering:  CONTRACTOR
 COMP.     BP Exploration (Caspian Sea) Ltd.:  COMPANY
 UWI .            /AZE00000214:  UNIQUE WELL IDENTIFIER
 API .            /AZE00000214:  API NUMBER
 MDS .        Operator Entered:  MAG DATA SOURCE
 BASE.              Azerbaijan:  LOGGING EQUIPMENT BASE LOCATION
 REGN.                   EESSA:  REGION
 PROV.                    Baku:  PROVINCE
 STAT.                    Baku:  STATE NAME
 MWDS.                    Baku:  MWD SHOP
 DOE .                     N/A:  DOE NUMBER
 DCON.         Sperry Drilling:  DIRECTNL CONTR
 UNIT.                     N/A:  LOGGING EQUIPMENT ID
 WTYP.                Deviated:  WELL TYPE
 CNTY.                        :  COUNTY
 LOC .                        :  LOCATION
 LMF .             Drill Floor:  LOG MEASURED FROM
 TVDS.m                  43.60:  TVDSS CORRECTN
 LATI.deg                40.02:  LATITUDE
 LONG.deg                51.45:  LONGITUDE
 WHNS.m                  -7.04:  WELL HEAD N/S
 WHEW.m                  -0.67:  WELL HEAD E/W
 UTMX.m              538762.90:  UTM X
 UTMY.m             4431871.34:  UTM Y
 DFWL.m                   0.00:  DISTANCE FWL
 DFSL.m                   0.00:  DISTANCE FSL
 SDEP.m                4127.00:  START DEPTH
 TDD .m                5084.50:  TOTAL DEPTH (DRILLER)
 VSDR.deg               140.47:  VERT SEC DIRECT
 GVFD.g                   1.00:  GRAVITY FIELD
 MFLD.nT              50362.00:  MAGNETIC FIELD
 MDIP.deg                59.48:  MAGNETIC DIP
 MDEC.deg                 6.47:  MAGNETIC DECL
 GRDC.deg                 0.31:  GRID CORRECTION
 AZTC.deg                 6.16:  AZM TOTAL CORR
 EPD .m                   0.00:  ELEVATION
 EGL .m                   0.00:  GROUND ELEVATION
 WDMS.m                 151.80:  WD ELEV
 APD .m                  43.60:  DEPTH ABOVE PD
 DEP .m                4092.57:  DEPTH
 AGAP.m                  43.60:  AIR GAP
 VSEW.m                  -0.67:  VERT SEC E/W
 VSNS.m                  -7.04:  VERT SEC N/S
 EKB .m                  43.60:  KB ELEVATION
 EDF .m                  43.60:  DF ELEVATION
 TDL .m                 957.50:  TOTAL DEPTH (LOGGER)
 VSC .                       0:  VS TO CLOSURE
 MAGU.                 1851413:  MAGUTM CHECKSUM
~Parameter Information Block
#MNEM.UNIT       Value        Description
#---------     -----------    ---------------------------
 AV  .mps                 1.50:  Ann Velocity 
 AVMX.mps                 2.00:  Max Ann Veloc 
 AZIF.deg               184.66:  Azm, Final 
 BHAT.        Rotary Steerable:  BHA Type 
 BREV.rev               300.00:  Rev Bit Total 
 BROT.°/30m              -0.50:  Build Rotating 
 BS  .in                  8.50:  Bit Size 
 BSZ .in                  8.50:  Bit Size 
 BTPL.psig              370.00:  Bit Press Loss 
 CABU.                      No:  Customer Abuse 
 CGEO.      Behruz Shahbaliyev:  Customer Geo 
 COMM.                     TD\:  Run Comments 1 
 TCS .hr                140.08:  Time Ciculation Ended 
 CV  .mps                 3.00:  Crit Velocity 
 CVMX.mps                 3.20:  Max Crit Veloc 
 DD1 .            Musa Ahmadov:  Direct Drillr 1 
 DD2 .           Hamid Ahmadov:  Direct Drillr 2 
 DDSV.               Geo-Pilot:  DD Service 
 DEFF.%                  98.40:  % Det Eff 
 DLRX.°/30m               3.40:  Dogleg Rot Max 
 DLSO.°/30m               1.45:  Dogleg Oriented 
 DLSX.°/30m               3.40:  Dogleg Str Max 
 DRET.      18.40.00 29-Aug-21:  Drill End Time 
 DRST.      21.00.00 20-Aug-21:  Drill Start Tim 
 DTIM.hr                 69.47:  Time Drilling 
 EDEP.m                5084.50:  End Depth 
 ENG1.      Artemiy Matviyanov:  Engineer 1 
 ENG2.         Almaz Almadatov:  Engineer 2 
 ETIM.      18.40.00 29-Aug-21:  End Time 
 FLOI.gpm               500.00:  Flow In 
 FLON.gpm               400.00:  Flow In Min 
 FLOS.cptm                0.00:  Fluid Loss 
 FLOX.gpm               500.00:  Flow In Max 
 DFT .        Mineral Oil Base:  Mud Type 
 HFLO.                      No:  High Flow 
 HPRE.                      No:  High Pressure 
 HTEM.                      No:  High Temp 
 HYDO.m                   1.80:  Hydro Offset 
 IFIN.deg                25.62:  Inc, Final 
 IMAX.deg                48.69:  Inc Max 
 IMIN.deg                24.01:  Inc Min 
 IMND.m                4962.57:  Inc Min Depth 
 IMXD.m                4119.01:  Inc Max Depth 
 JARR.                      No:  Jarring 
 LETM.      18.40.00 29-Aug-21:  Log End Time 
 LOST.hr                     0:  Lost Rig Time 
 LSTM.      21.00.00 20-Aug-21:  Log Start Time 
 MDCL.ppm             41500.00:  Mud Chlorides 
 MDES.     Inversion Oil/Synthetic:  Mud Desc 
 DFD .sg                  1.56:  Mud Density 
 MDMN.sg                  1.56:  Dens Mud Min 
 MDMX.sg                  1.56:  Dens Mud Max 
 MOIL.                      70:  Run Mud Oil % 
 MOWR.                   70:30:  Run Mud OWR 
 MSND.                     0.2:  Run Mud Sand % 
 MSOL.                    23.3:  Run Mud Solids% 
 DFV .spqt               78.00:  Mud Viscosity 
 MWOD.in                  6.75:  MWD Tool OD 
 MWSI.                      No:  Serv Intrp, MWD 
 OTIM.hr                218.30:  Time Operating 
 PCON.           Look Like New:  Pad Condition 
 PMAX.psia            11015.30:  Press Op, Max 
 PV  .cP                 38.00:  Mud PV 
 RUN .                     300:  Run Number 
 ROPA.m/hr               15.00:  ROP Avg 
 ROPN.m/hr                9.00:  ROP Min 
 ROPX.m/hr               17.00:  ROP Max 
 RPMA.rpm               120.00:  RPM Surface Avg 
 RPMN.rpm                90.00:  RPM Surface Min 
 RPMX.rpm               140.00:  RPM Surface Max 
 RRUN.                     300:  Rig Run Number 
 RTIM.hr                 31.53:  Time Reaming 
 SAZI.deg               331.64:  Azm, Start 
 SDEP.m                4127.00:  Start Depth 
 SIDD.                      No:  Serv Intrp, DD 
 SINC.deg                48.43:  Inc, Start 
 SPPA.psig             5830.00:  SPP Avg 
 SPPN.psig             5600.00:  SPP Min 
 SPPX.psig             5900.00:  SPP Max 
 STIM.      21.00.00 20-Aug-21:  Start Time 
 SVCS.                 DD, MWD:  Services 
 SVER.                    9.20:  Sperry Version 
 TDAT.m                 957.50:  Tot Depth Attmp 
 TDDF.                      No:  Trip for DD 
 TDLG.m                 957.50:  Tot Depth Loggd 
 TFF .                      No:  Trip for Fail 
 TQAA.f-kp               15.00:  Torque Abs Avg 
 TQAN.f-kp               12.00:  Torque Abs Min 
 TQAX.f-kp               19.00:  Torque Abs Max 
 TRRT.°/30m              -3.40:  Turn Rotating 
 MRT .                  EWR-M5:  Maximum Recorded Temperature 
 TTMX.degC              100.00:  Max Tool Temp 
 VS01.                90639251:  Virtual Str1 SN 
 VS02.                90634715:  Virtual Str2 SN 
 VS03.                90652479:  Virtual Str3 SN 
 VS04.                90642262:  Virtual Str4 SN 
 WBMN.klb                 0.00:  WOB Min 
 WITN.           Murad Guliyev:  Customer Rep 
 WITN.          Yashar Gaziyev:  Customer Rep 2 
 WOBA.klb                 9.00:  WOB Avg 
 WOBX.klb                12.00:  WOB Max 
 YP  .lhf2               30.00:  Yield Point 
~Curve Information Block
#MNEM.UNIT                 API CODE     Curve Description
#---------               -----------    ---------------------------
 TIME.HHMMSS            00 000 000 000:  GT Time & Date
 GTDEPTH.m              00 000 000 000:  GT Depth
 GTPQH.psia             00 000 000 000:  GT HR Quartz Pressure
 GTTQ.degC              00 000 000 000:  GT Quartz Temperature
 GTTN.NONE              00 000 000 000:  GT Test Number
 GTET.sec               00 000 000 000:  GT Elapsed Test Time
 GTTVD.m                00 000 000 000:  GT True Vertical Depth
#Other Information
#
#WARRANTY: Halliburton will use its best efforts to furnish customers with 
#accurate information and interpretations that are part of, and incident to, the services 
#provided.  However, Halliburton cannot and does not warrant the accuracy 
#or correctness of such information and interpretations.  Under no circumstances should any 
#such information or interpretation be relied upon as the sole basis for any drilling, 
#completion, production, or financial decision or any procedure involving any risk to the 
#safety of any drilling venture, drilling rig or its crew or any other third party.  The 
#Customer has full responsibility for all drilling, completion and production operation.  
#Halliburton makes no representations or warranties, either expressed or 
#implied, including, but not limited to, the implied warranties of merchantability or fitness 
#for a particular purpose, with respect to the services rendered.  In no event will 
#Halliburton be liable for failure to obtain any particular results or for 
#any damages, including, but not limited to, indirect, special or consequential damages, 
#resulting from the use of any information or interpretation provided by Halliburton.
#
~A           TIME           GTDEPTH  GTPQH  GTTQ  GTTN  GTET   GTTVD  
# ...
   09:32:11.438.27-Aug-2021 4964.50 7904.06 86.35 7.00 414.17 3307.39
   09:32:11.638.27-Aug-2021 4964.50 7904.06 86.35 7.00 414.37 3307.39
   09:32:11.838.27-Aug-2021 4964.50 7904.02 86.35 7.00 414.57 3307.39
   09:32:12.038.27-Aug-2021 4964.50 7904.69 86.35 7.00 414.77 3307.39
   09:32:12.238.27-Aug-2021 4964.50 7904.68 86.35 7.00 414.97 3307.39
   09:32:12.438.27-Aug-2021 4964.50 7904.42 86.35 7.00 415.17 3307.39
   09:32:12.638.27-Aug-2021 4964.50 7904.42 86.35 7.00 415.37 3307.39
   09:32:12.838.27-Aug-2021 4964.50 7903.96 86.35 7.00 415.57 3307.39
   09:32:13.038.27-Aug-2021 4964.50 7904.67 86.35 7.00 415.77 3307.39
   09:32:13.238.27-Aug-2021 4964.50 7905.14 86.35 7.00 415.97 3307.39
   09:32:13.439.27-Aug-2021 4964.50 7905.28 86.35 7.00 416.17 3307.39
   09:32:13.639.27-Aug-2021 4964.50 7905.28 86.35 7.00 416.37 3307.39
   09:32:13.839.27-Aug-2021 4964.50 7904.52 86.35 7.00 416.57 3307.39
   09:32:14.039.27-Aug-2021 4964.50 7904.31 86.35 7.00 416.77 3307.39
   09:32:14.239.27-Aug-2021 4964.50 7909.57 86.35 7.00 416.97 3307.39
   09:32:14.439.27-Aug-2021 4964.50 7903.04 86.35 7.00 417.17 3307.39
   09:32:14.639.27-Aug-2021 4964.50 7903.04 86.35 7.00 417.37 3307.39
   09:32:14.839.27-Aug-2021 4964.50 7904.23 86.35 7.00 417.57 3307.39
   09:32:15.039.27-Aug-2021 4964.50 7903.63 86.35 7.00 417.77 3307.39
   09:32:15.239.27-Aug-2021 4964.50 7903.50 86.35 7.00 417.97 3307.39
   09:32:15.439.27-Aug-2021 4964.50 7903.80 86.35 7.00 418.17 3307.39
   09:32:15.639.27-Aug-2021 4964.50 7903.80 86.35 7.00 418.37 3307.39
   09:32:15.840.27-Aug-2021 4964.50 7903.54 86.35 7.00 418.57 3307.39
   09:32:16.040.27-Aug-2021 4964.50 7904.05 86.35 7.00 418.77 3307.39
   09:32:16.240.27-Aug-2021 4964.50 7904.61 86.35 7.00 418.97 3307.39
   09:32:16.440.27-Aug-2021 4964.50 7905.07 86.35 7.00 419.17 3307.39
   09:32:16.640.27-Aug-2021 4964.50 7905.07 86.35 7.00 419.37 3307.39
   09:32:16.840.27-Aug-2021 4964.50 7905.23 86.35 7.00 419.57 3307.39
   09:32:17.040.27-Aug-2021 4964.50 7905.16 86.35 7.00 419.77 3307.39
   09:32:17.240.27-Aug-2021 4964.50 7904.83 86.35 7.00 419.97 3307.39
   09:32:17.440.27-Aug-2021 4964.50 7904.64 86.35 7.00 420.17 3307.39
   09:32:17.640.27-Aug-2021 4964.50 7904.64 86.35 7.00 420.37 3307.39
   09:32:17.840.27-Aug-2021 4964.50 7902.92 86.35 7.00 420.57 3307.39
   09:32:18.040.27-Aug-2021 4964.50 7905.55 86.35 7.00 420.77 3307.39
   09:32:18.241.27-Aug-2021 4964.50 7904.05 86.35 7.00 420.97 3307.39
   09:32:18.441.27-Aug-2021 4964.50 7903.76 86.35 7.00 421.17 3307.39
   09:32:18.641.27-Aug-2021 4964.50 7903.76 86.35 7.00 421.38 3307.39
   09:32:18.841.27-Aug-2021 4964.50 7903.95 86.35 7.00 421.58 3307.39
   09:32:19.041.27-Aug-2021 4964.50 7907.07 86.35 7.00 421.78 3307.39
   09:32:19.241.27-Aug-2021 4964.50 7904.96 86.35 7.00 421.98 3307.39
   09:32:19.441.27-Aug-2021 4964.50 7904.24 86.35 7.00 422.18 3307.39
   09:32:19.641.27-Aug-2021 4964.50 7904.24 86.35 7.00 422.38 3307.39
   09:32:19.841.27-Aug-2021 4964.50 7904.59 86.35 7.00 422.58 3307.39
   09:32:20.041.27-Aug-2021 4964.50 7904.84 86.35 7.00 422.78 3307.39
   09:32:20.241.27-Aug-2021 4964.50 7909.87 86.35 7.00 422.98 3307.39
   09:32:20.441.27-Aug-2021 4964.50 7903.45 86.35 7.00 423.18 3307.39
   09:32:20.642.27-Aug-2021 4964.50 7903.45 86.35 7.00 423.38 3307.39
   09:32:20.842.27-Aug-2021 4964.50 7903.75 86.35 7.00 423.58 3307.39
   09:32:21.042.27-Aug-2021 4964.50 7904.37 86.35 7.00 423.78 3307.39
   09:32:21.242.27-Aug-2021 4964.50 7904.84 86.35 7.00 423.98 3307.39
   09:32:21.442.27-Aug-2021 4964.50 7904.64 86.35 7.00 424.18 3307.39
   09:32:21.642.27-Aug-2021 4964.50 7904.64 86.35 7.00 424.38 3307.39
   09:32:21.842.27-Aug-2021 4964.50 7905.33 86.35 7.00 424.58 3307.39
   09:32:22.042.27-Aug-2021 4964.50 7904.51 86.35 7.00 424.78 3307.39
   09:32:22.242.27-Aug-2021 4964.50 7904.64 86.35 7.00 424.98 3307.39
   09:32:22.442.27-Aug-2021 4964.50 7904.90 86.35 7.00 425.18 3307.39
   09:32:22.642.27-Aug-2021 4964.50 7904.90 86.35 7.00 425.38 3307.39
   09:32:22.842.27-Aug-2021 4964.50 7904.50 86.34 7.00 425.58 3307.39
   09:32:23.043.27-Aug-2021 4964.50 7904.02 86.34 7.00 425.78 3307.39
   09:32:23.243.27-Aug-2021 4964.50 7903.77 86.34 7.00 425.98 3307.39
   09:32:23.443.27-Aug-2021 4964.50 7904.13 86.34 7.00 426.18 3307.39
   09:32:23.643.27-Aug-2021 4964.50 7904.13 86.34 7.00 426.38 3307.39
   09:32:23.843.27-Aug-2021 4964.50 7905.29 86.34 7.00 426.58 3307.39
   09:32:24.043.27-Aug-2021 4964.50 7905.27 86.34 7.00 426.78 3307.39
   09:32:24.243.27-Aug-2021 4964.50 7904.81 86.34 7.00 426.98 3307.39
   09:32:24.443.27-Aug-2021 4964.50 7904.71 86.34 7.00 427.18 3307.39
   09:32:24.643.27-Aug-2021 4964.50 7904.71 86.34 7.00 427.38 3307.39
   09:32:24.843.27-Aug-2021 4964.50 7904.71 86.34 7.00 427.58 3307.39
   09:32:25.043.27-Aug-2021 4964.50 7903.77 86.34 7.00 427.78 3307.39
   09:32:25.243.27-Aug-2021 4964.50 7905.21 86.34 7.00 427.98 3307.39
   09:32:25.444.27-Aug-2021 4964.50 7904.07 86.34 7.00 428.18 3307.39
   09:32:25.644.27-Aug-2021 4964.50 7904.07 86.34 7.00 428.38 3307.39
   09:32:25.844.27-Aug-2021 4964.50 7904.03 86.34 7.00 428.58 3307.39
   09:32:26.044.27-Aug-2021 4964.50 7903.91 86.34 7.00 428.78 3307.39
   09:32:26.244.27-Aug-2021 4964.50 7903.88 86.34 7.00 428.98 3307.39
   09:32:26.444.27-Aug-2021 4964.50 7903.73 86.34 7.00 429.18 3307.39
   09:32:26.644.27-Aug-2021 4964.50 7903.73 86.34 7.00 429.38 3307.39
   09:32:26.844.27-Aug-2021 4964.50 7904.74 86.34 7.00 429.58 3307.39
   09:32:27.044.27-Aug-2021 4964.50 7905.15 86.34 7.00 429.78 3307.39
   09:32:27.244.27-Aug-2021 4964.50 7905.20 86.34 7.00 429.98 3307.39
