~Version Information
 VERS.                  2.0:   CWLS log ASCII Standard -VERSION 2.0
 WRAP.                   NO:   One line per depth step
~Well Information Block
#MNEM.UNIT     VALUE/NAME     DESCRIPTION
#---------     -----------    ---------------------------
 STRT.S             10:06:49 27-Aug-21: START TIME 10:06:49 27-Aug-21
 STOP.S             10:13:57 27-Aug-21: STOP TIME  10:13:57 27-Aug-21
 STEP.S                   0.00: STEP TIME
 NULL.                 -999.25: NULL VALUE
 DFWT.                        :  DIST FWL TEXT
 DFST.                        :  DIST FSL TEXT
 DMF .             Drill Floor:  DRILL MEAS FROM
 STIM.      20.00.00 17-Aug-21:  START TIME
 DATE.      19.00.00 29-Aug-21:  END TIME
 SPUD.               15-Aug-21:  SPUD DATE
 NREF.                    Grid:  NORTH REFERENCE
 HPTY.       Minimum Curvature:  HOLE POS TYPE
 DMOD.             Drill Model:  DRILL MOD DESC
 SVYD.                  Survey:  SURVEY DESC
 ILTD.               Lithology:  INTERP LTH DESC
 FTOP.          Formation Tops:  FORM TOPS DESC
 RIG .              East Azeri:  RIG NAME
 PDAT.          Mean Sea Level:  PERMANENT DATUM
 FLD .                     ACG:  FIELD NAME
 SON .        AZ-XX-0907180857:  JOB NUMBER
 CTRY.              Azerbaijan:  COUNTRY NAME
 WELL.                    D23x:  WELL NAME
 SRVC.     Turan Drilling and Engineering:  CONTRACTOR
 COMP.     BP Exploration (Caspian Sea) Ltd.:  COMPANY
 UWI .            /AZE00000214:  UNIQUE WELL IDENTIFIER
 API .            /AZE00000214:  API NUMBER
 MDS .        Operator Entered:  MAG DATA SOURCE
 BASE.              Azerbaijan:  LOGGING EQUIPMENT BASE LOCATION
 REGN.                   EESSA:  REGION
 PROV.                    Baku:  PROVINCE
 STAT.                    Baku:  STATE NAME
 MWDS.                    Baku:  MWD SHOP
 DOE .                     N/A:  DOE NUMBER
 DCON.         Sperry Drilling:  DIRECTNL CONTR
 UNIT.                     N/A:  LOGGING EQUIPMENT ID
 WTYP.                Deviated:  WELL TYPE
 CNTY.                        :  COUNTY
 LOC .                        :  LOCATION
 LMF .             Drill Floor:  LOG MEASURED FROM
 TVDS.m                  43.60:  TVDSS CORRECTN
 LATI.deg                40.02:  LATITUDE
 LONG.deg                51.45:  LONGITUDE
 WHNS.m                  -7.04:  WELL HEAD N/S
 WHEW.m                  -0.67:  WELL HEAD E/W
 UTMX.m              538762.90:  UTM X
 UTMY.m             4431871.34:  UTM Y
 DFWL.m                   0.00:  DISTANCE FWL
 DFSL.m                   0.00:  DISTANCE FSL
 SDEP.m                4127.00:  START DEPTH
 TDD .m                5084.50:  TOTAL DEPTH (DRILLER)
 VSDR.deg               140.47:  VERT SEC DIRECT
 GVFD.g                   1.00:  GRAVITY FIELD
 MFLD.nT              50362.00:  MAGNETIC FIELD
 MDIP.deg                59.48:  MAGNETIC DIP
 MDEC.deg                 6.47:  MAGNETIC DECL
 GRDC.deg                 0.31:  GRID CORRECTION
 AZTC.deg                 6.16:  AZM TOTAL CORR
 EPD .m                   0.00:  ELEVATION
 EGL .m                   0.00:  GROUND ELEVATION
 WDMS.m                 151.80:  WD ELEV
 APD .m                  43.60:  DEPTH ABOVE PD
 DEP .m                4092.57:  DEPTH
 AGAP.m                  43.60:  AIR GAP
 VSEW.m                  -0.67:  VERT SEC E/W
 VSNS.m                  -7.04:  VERT SEC N/S
 EKB .m                  43.60:  KB ELEVATION
 EDF .m                  43.60:  DF ELEVATION
 TDL .m                 957.50:  TOTAL DEPTH (LOGGER)
 VSC .                       0:  VS TO CLOSURE
 MAGU.                 1851413:  MAGUTM CHECKSUM
~Parameter Information Block
#MNEM.UNIT       Value        Description
#---------     -----------    ---------------------------
 AV  .mps                 1.50:  Ann Velocity 
 AVMX.mps                 2.00:  Max Ann Veloc 
 AZIF.deg               184.66:  Azm, Final 
 BHAT.        Rotary Steerable:  BHA Type 
 BREV.rev               300.00:  Rev Bit Total 
 BROT.°/30m              -0.50:  Build Rotating 
 BS  .in                  8.50:  Bit Size 
 BSZ .in                  8.50:  Bit Size 
 BTPL.psig              370.00:  Bit Press Loss 
 CABU.                      No:  Customer Abuse 
 CGEO.      Behruz Shahbaliyev:  Customer Geo 
 COMM.                     Ììg:  Run Comments 1 
 TCS .hr                140.08:  Time Ciculation Ended 
 CV  .mps                 3.00:  Crit Velocity 
 CVMX.mps                 3.20:  Max Crit Veloc 
 DD1 .            Musa Ahmadov:  Direct Drillr 1 
 DD2 .           Hamid Ahmadov:  Direct Drillr 2 
 DDSV.               Geo-Pilot:  DD Service 
 DEFF.%                  98.40:  % Det Eff 
 DLRX.°/30m               3.40:  Dogleg Rot Max 
 DLSO.°/30m               1.45:  Dogleg Oriented 
 DLSX.°/30m               3.40:  Dogleg Str Max 
 DRET.      18.40.00 29-Aug-21:  Drill End Time 
 DRST.      21.00.00 20-Aug-21:  Drill Start Tim 
 DTIM.hr                 69.47:  Time Drilling 
 EDEP.m                5084.50:  End Depth 
 ENG1.      Artemiy Matviyanov:  Engineer 1 
 ENG2.         Almaz Almadatov:  Engineer 2 
 ETIM.      18.40.00 29-Aug-21:  End Time 
 FLOI.gpm               500.00:  Flow In 
 FLON.gpm               400.00:  Flow In Min 
 FLOS.cptm                0.00:  Fluid Loss 
 FLOX.gpm               500.00:  Flow In Max 
 DFT .        Mineral Oil Base:  Mud Type 
 HFLO.                      No:  High Flow 
 HPRE.                      No:  High Pressure 
 HTEM.                      No:  High Temp 
 HYDO.m                   1.80:  Hydro Offset 
 IFIN.deg                25.62:  Inc, Final 
 IMAX.deg                48.69:  Inc Max 
 IMIN.deg                24.01:  Inc Min 
 IMND.m                4962.57:  Inc Min Depth 
 IMXD.m                4119.01:  Inc Max Depth 
 JARR.                      No:  Jarring 
 LETM.      18.40.00 29-Aug-21:  Log End Time 
 LOST.hr                     0:  Lost Rig Time 
 LSTM.      21.00.00 20-Aug-21:  Log Start Time 
 MDCL.ppm             41500.00:  Mud Chlorides 
 MDES.     Inversion Oil/Synthetic:  Mud Desc 
 DFD .sg                  1.56:  Mud Density 
 MDMN.sg                  1.56:  Dens Mud Min 
 MDMX.sg                  1.56:  Dens Mud Max 
 MOIL.                      70:  Run Mud Oil % 
 MOWR.                   70:30:  Run Mud OWR 
 MSND.                     0.2:  Run Mud Sand % 
 MSOL.                    23.3:  Run Mud Solids% 
 DFV .spqt               78.00:  Mud Viscosity 
 MWOD.in                  6.75:  MWD Tool OD 
 MWSI.                      No:  Serv Intrp, MWD 
 OTIM.hr                218.30:  Time Operating 
 PCON.           Look Like New:  Pad Condition 
 PMAX.psia            11015.30:  Press Op, Max 
 PV  .cP                 38.00:  Mud PV 
 RUN .                     300:  Run Number 
 ROPA.m/hr               15.00:  ROP Avg 
 ROPN.m/hr                9.00:  ROP Min 
 ROPX.m/hr               17.00:  ROP Max 
 RPMA.rpm               120.00:  RPM Surface Avg 
 RPMN.rpm                90.00:  RPM Surface Min 
 RPMX.rpm               140.00:  RPM Surface Max 
 RRUN.                     300:  Rig Run Number 
 RTIM.hr                 31.53:  Time Reaming 
 SAZI.deg               331.64:  Azm, Start 
 SDEP.m                4127.00:  Start Depth 
 SIDD.                      No:  Serv Intrp, DD 
 SINC.deg                48.43:  Inc, Start 
 SPPA.psig             5830.00:  SPP Avg 
 SPPN.psig             5600.00:  SPP Min 
 SPPX.psig             5900.00:  SPP Max 
 STIM.      21.00.00 20-Aug-21:  Start Time 
 SVCS.                 DD, MWD:  Services 
 SVER.                    9.20:  Sperry Version 
 TDAT.m                 957.50:  Tot Depth Attmp 
 TDDF.                      No:  Trip for DD 
 TDLG.m                 957.50:  Tot Depth Loggd 
 TFF .                      No:  Trip for Fail 
 TQAA.f-kp               15.00:  Torque Abs Avg 
 TQAN.f-kp               12.00:  Torque Abs Min 
 TQAX.f-kp               19.00:  Torque Abs Max 
 TRRT.°/30m              -3.40:  Turn Rotating 
 MRT .                  EWR-M5:  Maximum Recorded Temperature 
 TTMX.degC              100.00:  Max Tool Temp 
 VS01.                90639251:  Virtual Str1 SN 
 VS02.                90634715:  Virtual Str2 SN 
 VS03.                90652479:  Virtual Str3 SN 
 VS04.                90642262:  Virtual Str4 SN 
 WBMN.klb                 0.00:  WOB Min 
 WITN.           Murad Guliyev:  Customer Rep 
 WITN.          Yashar Gaziyev:  Customer Rep 2 
 WOBA.klb                 9.00:  WOB Avg 
 WOBX.klb                12.00:  WOB Max 
 YP  .lhf2               30.00:  Yield Point 
~Curve Information Block
#MNEM.UNIT                 API CODE     Curve Description
#---------               -----------    ---------------------------
 TIME.HHMMSS            00 000 000 000:  GT Time & Date
 GTDEPTH.m              00 000 000 000:  GT Depth
 GTPQH.psia             00 000 000 000:  GT HR Quartz Pressure
 GTTQ.degC              00 000 000 000:  GT Quartz Temperature
 GTTN.NONE              00 000 000 000:  GT Test Number
 GTET.sec               00 000 000 000:  GT Elapsed Test Time
 GTTVD.m                00 000 000 000:  GT True Vertical Depth
#Other Information
#
#WARRANTY: Halliburton will use its best efforts to furnish customers with 
#accurate information and interpretations that are part of, and incident to, the services 
#provided.  However, Halliburton cannot and does not warrant the accuracy 
#or correctness of such information and interpretations.  Under no circumstances should any 
#such information or interpretation be relied upon as the sole basis for any drilling, 
#completion, production, or financial decision or any procedure involving any risk to the 
#safety of any drilling venture, drilling rig or its crew or any other third party.  The 
#Customer has full responsibility for all drilling, completion and production operation.  
#Halliburton makes no representations or warranties, either expressed or 
#implied, including, but not limited to, the implied warranties of merchantability or fitness 
#for a particular purpose, with respect to the services rendered.  In no event will 
#Halliburton be liable for failure to obtain any particular results or for 
#any damages, including, but not limited to, indirect, special or consequential damages, 
#resulting from the use of any information or interpretation provided by Halliburton.
#
~A           TIME           GTDEPTH  GTPQH  GTTQ  GTTN  GTET   GTTVD  
# ...
   10:07:12.106.27-Aug-2021 4958.50 7864.97 86.12 8.00  22.97 3301.91
   10:07:12.306.27-Aug-2021 4958.50 7864.97 86.12 8.00  23.17 3301.91
   10:07:12.506.27-Aug-2021 4958.50 7861.41 86.12 8.00  23.37 3301.91
   10:07:12.706.27-Aug-2021 4958.50 7861.55 86.12 8.00  23.57 3301.91
   10:07:12.905.27-Aug-2021 4958.50 7864.84 86.12 8.00  23.77 3301.91
   10:07:13.105.27-Aug-2021 4958.50 7863.31 86.12 8.00  23.97 3301.91
   10:07:13.305.27-Aug-2021 4958.50 7863.31 86.12 8.00  24.17 3301.91
   10:07:13.505.27-Aug-2021 4958.50 7866.58 86.12 8.00  24.37 3301.91
   10:07:13.704.27-Aug-2021 4958.50 7858.93 86.12 8.00  24.57 3301.91
   10:07:13.904.27-Aug-2021 4958.50 7862.51 86.12 8.00  24.77 3301.91
   10:07:14.104.27-Aug-2021 4958.50 7862.23 86.12 8.00  24.97 3301.91
   10:07:14.304.27-Aug-2021 4958.50 7862.23 86.12 8.00  25.17 3301.91
   10:07:14.503.27-Aug-2021 4958.50 7862.25 86.12 8.00  25.37 3301.91
   10:07:14.703.27-Aug-2021 4958.50 7862.16 86.12 8.00  25.57 3301.91
   10:07:14.903.27-Aug-2021 4958.50 7862.69 86.12 8.00  25.77 3301.91
   10:07:15.103.27-Aug-2021 4958.50 7862.39 86.12 8.00  25.97 3301.91
   10:07:15.302.27-Aug-2021 4958.50 7862.39 86.12 8.00  26.17 3301.91
   10:07:15.502.27-Aug-2021 4958.50 7863.70 86.12 8.00  26.37 3301.91
   10:07:15.702.27-Aug-2021 4958.50 7864.01 86.12 8.00  26.57 3301.91
   10:07:15.902.27-Aug-2021 4958.50 7864.18 86.12 8.00  26.77 3301.91
   10:07:16.101.27-Aug-2021 4958.50 7864.10 86.12 8.00  26.97 3301.91
   10:07:16.301.27-Aug-2021 4958.50 7864.10 86.12 8.00  27.17 3301.91
   10:07:16.501.27-Aug-2021 4958.50 7864.17 86.12 8.00  27.37 3301.91
   10:07:16.701.27-Aug-2021 4958.50 7866.34 86.12 8.00  27.57 3301.91
   10:07:16.901.27-Aug-2021 4958.50 7865.39 86.12 8.00  27.77 3301.91
   10:07:17.100.27-Aug-2021 4958.50 7865.69 86.12 8.00  27.97 3301.91
   10:07:17.300.27-Aug-2021 4958.50 7865.69 86.12 8.00  28.17 3301.91
   10:07:17.500.27-Aug-2021 4958.50 7864.87 86.12 8.00  28.37 3301.91
   10:07:17.700.27-Aug-2021 4958.50 7864.61 86.12 8.00  28.57 3301.91
   10:07:17.899.27-Aug-2021 4958.50 7864.75 86.12 8.00  28.77 3301.91
   10:07:18.099.27-Aug-2021 4958.50 7864.88 86.12 8.00  28.97 3301.91
   10:07:18.299.27-Aug-2021 4958.50 7864.88 86.12 8.00  29.17 3301.91
   10:07:18.499.27-Aug-2021 4958.50 7865.06 86.12 8.00  29.36 3301.91
   10:07:18.698.27-Aug-2021 4958.50 7865.60 86.12 8.00  29.56 3301.91
   10:07:18.898.27-Aug-2021 4958.50 7866.36 86.12 8.00  29.76 3301.91
   10:07:19.098.27-Aug-2021 4958.50 7866.71 86.12 8.00  29.96 3301.91
   10:07:19.298.27-Aug-2021 4958.50 7866.71 86.12 8.00  30.16 3301.91
   10:07:19.497.27-Aug-2021 4958.50 7866.80 86.12 8.00  30.36 3301.91
   10:07:19.697.27-Aug-2021 4958.50 7866.67 86.12 8.00  30.56 3301.91
   10:07:19.897.27-Aug-2021 4958.50 7866.72 86.12 8.00  30.76 3301.91
   10:07:20.097.27-Aug-2021 4958.50 7868.81 86.12 8.00  30.96 3301.91
   10:07:20.296.27-Aug-2021 4958.50 7868.81 86.12 8.00  31.16 3301.91
   10:07:20.496.27-Aug-2021 4958.50 7868.03 86.12 8.00  31.36 3301.91
   10:07:20.696.27-Aug-2021 4958.50 7867.19 86.12 8.00  31.56 3301.91
   10:07:20.896.27-Aug-2021 4958.50 7866.83 86.12 8.00  31.76 3301.91
   10:07:21.096.27-Aug-2021 4958.50 7866.74 86.12 8.00  31.96 3301.91
   10:07:21.295.27-Aug-2021 4958.50 7866.74 86.12 8.00  32.16 3301.91
   10:07:21.495.27-Aug-2021 4958.50 7872.47 86.12 8.00  32.36 3301.91
   10:07:21.695.27-Aug-2021 4958.50 7864.70 86.12 8.00  32.56 3301.91
   10:07:21.895.27-Aug-2021 4958.50 7868.49 86.12 8.00  32.76 3301.91
   10:07:22.094.27-Aug-2021 4958.50 7868.01 86.12 8.00  32.96 3301.91
   10:07:22.294.27-Aug-2021 4958.50 7868.01 86.12 8.00  33.16 3301.91
   10:07:22.494.27-Aug-2021 4958.50 7873.64 86.12 8.00  33.36 3301.91
   10:07:22.694.27-Aug-2021 4958.50 7868.02 86.12 8.00  33.56 3301.91
   10:07:22.893.27-Aug-2021 4958.50 7869.07 86.12 8.00  33.76 3301.91
   10:07:23.093.27-Aug-2021 4958.50 7867.69 86.12 8.00  33.96 3301.91
   10:07:23.293.27-Aug-2021 4958.50 7867.69 86.12 8.00  34.16 3301.91
   10:07:23.493.27-Aug-2021 4958.50 7869.85 86.12 8.00  34.36 3301.91
   10:07:23.692.27-Aug-2021 4958.50 7870.07 86.12 8.00  34.56 3301.91
   10:07:23.892.27-Aug-2021 4958.50 7869.08 86.11 8.00  34.76 3301.91
   10:07:24.092.27-Aug-2021 4958.50 7868.26 86.11 8.00  34.96 3301.91
   10:07:24.292.27-Aug-2021 4958.50 7868.26 86.11 8.00  35.16 3301.91
   10:07:24.491.27-Aug-2021 4958.50 7869.20 86.11 8.00  35.36 3301.91
   10:07:24.691.27-Aug-2021 4958.50 7869.62 86.11 8.00  35.56 3301.91
   10:07:24.891.27-Aug-2021 4958.50 7869.64 86.11 8.00  35.76 3301.91
   10:07:25.091.27-Aug-2021 4958.50 7869.83 86.11 8.00  35.96 3301.91
   10:07:25.290.27-Aug-2021 4958.50 7869.83 86.11 8.00  36.16 3301.91
   10:07:25.490.27-Aug-2021 4958.50 7870.58 86.11 8.00  36.36 3301.91
   10:07:25.690.27-Aug-2021 4958.50 7871.12 86.11 8.00  36.56 3301.91
   10:07:25.890.27-Aug-2021 4958.50 7871.17 86.11 8.00  36.76 3301.91
   10:07:26.090.27-Aug-2021 4958.50 7871.19 86.11 8.00  36.96 3301.91
   10:07:26.289.27-Aug-2021 4958.50 7871.19 86.11 8.00  37.16 3301.91
   10:07:26.489.27-Aug-2021 4958.50 7870.95 86.11 8.00  37.36 3301.91
   10:07:26.689.27-Aug-2021 4958.50 7871.12 86.11 8.00  37.56 3301.91
   10:07:26.889.27-Aug-2021 4958.50 7871.24 86.11 8.00  37.75 3301.91
   10:07:27.088.27-Aug-2021 4958.50 7876.42 86.11 8.00  37.95 3301.91
   10:07:27.288.27-Aug-2021 4958.50 7876.42 86.11 8.00  38.15 3301.91
   10:07:27.488.27-Aug-2021 4958.50 7872.28 86.11 8.00  38.35 3301.91
   10:07:27.688.27-Aug-2021 4958.50 7871.59 86.11 8.00  38.55 3301.91
   10:07:27.887.27-Aug-2021 4958.50 7871.71 86.11 8.00  38.75 3301.91
   10:07:28.087.27-Aug-2021 4958.50 7872.05 86.11 8.00  38.95 3301.91
   10:07:28.287.27-Aug-2021 4958.50 7872.05 86.11 8.00  39.15 3301.91
   10:07:28.487.27-Aug-2021 4958.50 7872.09 86.11 8.00  39.35 3301.91
   10:07:28.686.27-Aug-2021 4958.50 7871.82 86.11 8.00  39.55 3301.91
   10:07:28.886.27-Aug-2021 4958.50 7872.42 86.11 8.00  39.75 3301.91
   10:07:29.086.27-Aug-2021 4958.50 7872.98 86.11 8.00  39.95 3301.91
   10:07:29.286.27-Aug-2021 4958.50 7872.98 86.11 8.00  40.15 3301.91
   10:07:29.485.27-Aug-2021 4958.50 7873.76 86.11 8.00  40.35 3301.91
   10:07:29.685.27-Aug-2021 4958.50 7873.57 86.11 8.00  40.55 3301.91
   10:07:29.885.27-Aug-2021 4958.50 7873.37 86.11 8.00  40.75 3301.91
   10:07:30.085.27-Aug-2021 4958.50 7873.35 86.11 8.00  40.95 3301.91
   10:07:30.285.27-Aug-2021 4958.50 7873.35 86.11 8.00  41.15 3301.91
   10:07:30.484.27-Aug-2021 4958.50 7872.75 86.11 8.00  41.35 3301.91
   10:07:30.684.27-Aug-2021 4958.50 7874.33 86.11 8.00  41.55 3301.91
   10:07:30.884.27-Aug-2021 4958.50 7873.39 86.11 8.00  41.75 3301.91
   10:07:31.084.27-Aug-2021 4958.50 7873.38 86.11 8.00  41.95 3301.91
   10:07:31.283.27-Aug-2021 4958.50 7873.38 86.11 8.00  42.15 3301.91
   10:07:31.483.27-Aug-2021 4958.50 7878.43 86.11 8.00  42.35 3301.91
   10:07:31.683.27-Aug-2021 4958.50 7872.99 86.11 8.00  42.55 3301.91
   10:07:31.883.27-Aug-2021 4958.50 7874.46 86.11 8.00  42.75 3301.91
   10:07:32.082.27-Aug-2021 4958.50 7873.88 86.11 8.00  42.95 3301.91
   10:07:32.282.27-Aug-2021 4958.50 7873.88 86.11 8.00  43.15 3301.91
   10:07:32.482.27-Aug-2021 4958.50 7875.07 86.11 8.00  43.35 3301.91
   10:07:32.682.27-Aug-2021 4958.50 7878.23 86.11 8.00  43.55 3301.91
   10:07:32.881.27-Aug-2021 4958.50 7876.00 86.11 8.00  43.75 3301.91
   10:07:33.081.27-Aug-2021 4958.50 7874.68 86.11 8.00  43.95 3301.91
   10:07:33.281.27-Aug-2021 4958.50 7874.68 86.11 8.00  44.15 3301.91
   10:07:33.481.27-Aug-2021 4958.50 7874.79 86.11 8.00  44.35 3301.91
   10:07:33.680.27-Aug-2021 4958.50 7880.42 86.11 8.00  44.55 3301.91
   10:07:33.880.27-Aug-2021 4958.50 7872.99 86.11 8.00  44.75 3301.91
   10:07:34.080.27-Aug-2021 4958.50 7875.72 86.11 8.00  44.95 3301.91
   10:07:34.280.27-Aug-2021 4958.50 7875.72 86.11 8.00  45.15 3301.91
   10:07:34.480.27-Aug-2021 4958.50 7879.60 86.11 8.00  45.35 3301.91
   10:07:34.679.27-Aug-2021 4958.50 7874.58 86.11 8.00  45.55 3301.91
   10:07:34.879.27-Aug-2021 4958.50 7876.61 86.11 8.00  45.75 3301.91
