~Version Information
 VERS.                  2.0:   CWLS log ASCII Standard -VERSION 2.0
 WRAP.                   NO:   One line per depth step
~Well Information Block
#MNEM.UNIT     VALUE/NAME     DESCRIPTION
#---------     -----------    ---------------------------
 STRT.S             10:43:45 27-Aug-21: START TIME 10:43:45 27-Aug-21
 STOP.S             10:50:54 27-Aug-21: STOP TIME  10:50:54 27-Aug-21
 STEP.S                   0.00: STEP TIME
 NULL.                 -999.25: NULL VALUE
 DFWT.                        :  DIST FWL TEXT
 DFST.                        :  DIST FSL TEXT
 DMF .             Drill Floor:  DRILL MEAS FROM
 STIM.      20.00.00 17-Aug-21:  START TIME
 DATE.      19.00.00 29-Aug-21:  END TIME
 SPUD.               15-Aug-21:  SPUD DATE
 NREF.                    Grid:  NORTH REFERENCE
 HPTY.       Minimum Curvature:  HOLE POS TYPE
 DMOD.             Drill Model:  DRILL MOD DESC
 SVYD.                  Survey:  SURVEY DESC
 ILTD.               Lithology:  INTERP LTH DESC
 FTOP.          Formation Tops:  FORM TOPS DESC
 RIG .              East Azeri:  RIG NAME
 PDAT.          Mean Sea Level:  PERMANENT DATUM
 FLD .                     ACG:  FIELD NAME
 SON .        AZ-XX-0907180857:  JOB NUMBER
 CTRY.              Azerbaijan:  COUNTRY NAME
 WELL.                    D23x:  WELL NAME
 SRVC.     Turan Drilling and Engineering:  CONTRACTOR
 COMP.     BP Exploration (Caspian Sea) Ltd.:  COMPANY
 UWI .            /AZE00000214:  UNIQUE WELL IDENTIFIER
 API .            /AZE00000214:  API NUMBER
 MDS .        Operator Entered:  MAG DATA SOURCE
 BASE.              Azerbaijan:  LOGGING EQUIPMENT BASE LOCATION
 REGN.                   EESSA:  REGION
 PROV.                    Baku:  PROVINCE
 STAT.                    Baku:  STATE NAME
 MWDS.                    Baku:  MWD SHOP
 DOE .                     N/A:  DOE NUMBER
 DCON.         Sperry Drilling:  DIRECTNL CONTR
 UNIT.                     N/A:  LOGGING EQUIPMENT ID
 WTYP.                Deviated:  WELL TYPE
 CNTY.                        :  COUNTY
 LOC .                        :  LOCATION
 LMF .             Drill Floor:  LOG MEASURED FROM
 TVDS.m                  43.60:  TVDSS CORRECTN
 LATI.deg                40.02:  LATITUDE
 LONG.deg                51.45:  LONGITUDE
 WHNS.m                  -7.04:  WELL HEAD N/S
 WHEW.m                  -0.67:  WELL HEAD E/W
 UTMX.m              538762.90:  UTM X
 UTMY.m             4431871.34:  UTM Y
 DFWL.m                   0.00:  DISTANCE FWL
 DFSL.m                   0.00:  DISTANCE FSL
 SDEP.m                4127.00:  START DEPTH
 TDD .m                5084.50:  TOTAL DEPTH (DRILLER)
 VSDR.deg               140.47:  VERT SEC DIRECT
 GVFD.g                   1.00:  GRAVITY FIELD
 MFLD.nT              50362.00:  MAGNETIC FIELD
 MDIP.deg                59.48:  MAGNETIC DIP
 MDEC.deg                 6.47:  MAGNETIC DECL
 GRDC.deg                 0.31:  GRID CORRECTION
 AZTC.deg                 6.16:  AZM TOTAL CORR
 EPD .m                   0.00:  ELEVATION
 EGL .m                   0.00:  GROUND ELEVATION
 WDMS.m                 151.80:  WD ELEV
 APD .m                  43.60:  DEPTH ABOVE PD
 DEP .m                4092.57:  DEPTH
 AGAP.m                  43.60:  AIR GAP
 VSEW.m                  -0.67:  VERT SEC E/W
 VSNS.m                  -7.04:  VERT SEC N/S
 EKB .m                  43.60:  KB ELEVATION
 EDF .m                  43.60:  DF ELEVATION
 TDL .m                 957.50:  TOTAL DEPTH (LOGGER)
 VSC .                       0:  VS TO CLOSURE
 MAGU.                 1851413:  MAGUTM CHECKSUM
~Parameter Information Block
#MNEM.UNIT       Value        Description
#---------     -----------    ---------------------------
 AV  .mps                 1.50:  Ann Velocity 
 AVMX.mps                 2.00:  Max Ann Veloc 
 AZIF.deg               184.66:  Azm, Final 
 BHAT.        Rotary Steerable:  BHA Type 
 BREV.rev               300.00:  Rev Bit Total 
 BROT.°/30m              -0.50:  Build Rotating 
 BS  .in                  8.50:  Bit Size 
 BSZ .in                  8.50:  Bit Size 
 BTPL.psig              370.00:  Bit Press Loss 
 CABU.                      No:  Customer Abuse 
 CGEO.      Behruz Shahbaliyev:  Customer Geo 
 COMM.                     $K:  Run Comments 1 
 TCS .hr                140.08:  Time Ciculation Ended 
 CV  .mps                 3.00:  Crit Velocity 
 CVMX.mps                 3.20:  Max Crit Veloc 
 DD1 .            Musa Ahmadov:  Direct Drillr 1 
 DD2 .           Hamid Ahmadov:  Direct Drillr 2 
 DDSV.               Geo-Pilot:  DD Service 
 DEFF.%                  98.40:  % Det Eff 
 DLRX.°/30m               3.40:  Dogleg Rot Max 
 DLSO.°/30m               1.45:  Dogleg Oriented 
 DLSX.°/30m               3.40:  Dogleg Str Max 
 DRET.      18.40.00 29-Aug-21:  Drill End Time 
 DRST.      21.00.00 20-Aug-21:  Drill Start Tim 
 DTIM.hr                 69.47:  Time Drilling 
 EDEP.m                5084.50:  End Depth 
 ENG1.      Artemiy Matviyanov:  Engineer 1 
 ENG2.         Almaz Almadatov:  Engineer 2 
 ETIM.      18.40.00 29-Aug-21:  End Time 
 FLOI.gpm               500.00:  Flow In 
 FLON.gpm               400.00:  Flow In Min 
 FLOS.cptm                0.00:  Fluid Loss 
 FLOX.gpm               500.00:  Flow In Max 
 DFT .        Mineral Oil Base:  Mud Type 
 HFLO.                      No:  High Flow 
 HPRE.                      No:  High Pressure 
 HTEM.                      No:  High Temp 
 HYDO.m                   1.80:  Hydro Offset 
 IFIN.deg                25.62:  Inc, Final 
 IMAX.deg                48.69:  Inc Max 
 IMIN.deg                24.01:  Inc Min 
 IMND.m                4962.57:  Inc Min Depth 
 IMXD.m                4119.01:  Inc Max Depth 
 JARR.                      No:  Jarring 
 LETM.      18.40.00 29-Aug-21:  Log End Time 
 LOST.hr                     0:  Lost Rig Time 
 LSTM.      21.00.00 20-Aug-21:  Log Start Time 
 MDCL.ppm             41500.00:  Mud Chlorides 
 MDES.     Inversion Oil/Synthetic:  Mud Desc 
 DFD .sg                  1.56:  Mud Density 
 MDMN.sg                  1.56:  Dens Mud Min 
 MDMX.sg                  1.56:  Dens Mud Max 
 MOIL.                      70:  Run Mud Oil % 
 MOWR.                   70:30:  Run Mud OWR 
 MSND.                     0.2:  Run Mud Sand % 
 MSOL.                    23.3:  Run Mud Solids% 
 DFV .spqt               78.00:  Mud Viscosity 
 MWOD.in                  6.75:  MWD Tool OD 
 MWSI.                      No:  Serv Intrp, MWD 
 OTIM.hr                218.30:  Time Operating 
 PCON.           Look Like New:  Pad Condition 
 PMAX.psia            11015.30:  Press Op, Max 
 PV  .cP                 38.00:  Mud PV 
 RUN .                     300:  Run Number 
 ROPA.m/hr               15.00:  ROP Avg 
 ROPN.m/hr                9.00:  ROP Min 
 ROPX.m/hr               17.00:  ROP Max 
 RPMA.rpm               120.00:  RPM Surface Avg 
 RPMN.rpm                90.00:  RPM Surface Min 
 RPMX.rpm               140.00:  RPM Surface Max 
 RRUN.                     300:  Rig Run Number 
 RTIM.hr                 31.53:  Time Reaming 
 SAZI.deg               331.64:  Azm, Start 
 SDEP.m                4127.00:  Start Depth 
 SIDD.                      No:  Serv Intrp, DD 
 SINC.deg                48.43:  Inc, Start 
 SPPA.psig             5830.00:  SPP Avg 
 SPPN.psig             5600.00:  SPP Min 
 SPPX.psig             5900.00:  SPP Max 
 STIM.      21.00.00 20-Aug-21:  Start Time 
 SVCS.                 DD, MWD:  Services 
 SVER.                    9.20:  Sperry Version 
 TDAT.m                 957.50:  Tot Depth Attmp 
 TDDF.                      No:  Trip for DD 
 TDLG.m                 957.50:  Tot Depth Loggd 
 TFF .                      No:  Trip for Fail 
 TQAA.f-kp               15.00:  Torque Abs Avg 
 TQAN.f-kp               12.00:  Torque Abs Min 
 TQAX.f-kp               19.00:  Torque Abs Max 
 TRRT.°/30m              -3.40:  Turn Rotating 
 MRT .                  EWR-M5:  Maximum Recorded Temperature 
 TTMX.degC              100.00:  Max Tool Temp 
 VS01.                90639251:  Virtual Str1 SN 
 VS02.                90634715:  Virtual Str2 SN 
 VS03.                90652479:  Virtual Str3 SN 
 VS04.                90642262:  Virtual Str4 SN 
 WBMN.klb                 0.00:  WOB Min 
 WITN.           Murad Guliyev:  Customer Rep 
 WITN.          Yashar Gaziyev:  Customer Rep 2 
 WOBA.klb                 9.00:  WOB Avg 
 WOBX.klb                12.00:  WOB Max 
 YP  .lhf2               30.00:  Yield Point 
~Curve Information Block
#MNEM.UNIT                 API CODE     Curve Description
#---------               -----------    ---------------------------
 TIME.HHMMSS            00 000 000 000:  GT Time & Date
 GTDEPTH.m              00 000 000 000:  GT Depth
 GTPQH.psia             00 000 000 000:  GT HR Quartz Pressure
 GTTQ.degC              00 000 000 000:  GT Quartz Temperature
 GTTN.NONE              00 000 000 000:  GT Test Number
 GTET.sec               00 000 000 000:  GT Elapsed Test Time
 GTTVD.m                00 000 000 000:  GT True Vertical Depth
#Other Information
#
#WARRANTY: Halliburton will use its best efforts to furnish customers with 
#accurate information and interpretations that are part of, and incident to, the services 
#provided.  However, Halliburton cannot and does not warrant the accuracy 
#or correctness of such information and interpretations.  Under no circumstances should any 
#such information or interpretation be relied upon as the sole basis for any drilling, 
#completion, production, or financial decision or any procedure involving any risk to the 
#safety of any drilling venture, drilling rig or its crew or any other third party.  The 
#Customer has full responsibility for all drilling, completion and production operation.  
#Halliburton makes no representations or warranties, either expressed or 
#implied, including, but not limited to, the implied warranties of merchantability or fitness 
#for a particular purpose, with respect to the services rendered.  In no event will 
#Halliburton be liable for failure to obtain any particular results or for 
#any damages, including, but not limited to, indirect, special or consequential damages, 
#resulting from the use of any information or interpretation provided by Halliburton.
#
~A           TIME           GTDEPTH  GTPQH  GTTQ  GTTN  GTET   GTTVD  
# ...
   10:49:53.048.27-Aug-2021 4957.82 5167.63 85.90 9.00 367.56 3301.29
   10:49:53.248.27-Aug-2021 4957.82 5167.63 85.90 9.00 367.76 3301.29
   10:49:53.448.27-Aug-2021 4957.82 5167.62 85.90 9.00 367.96 3301.29
   10:49:53.648.27-Aug-2021 4957.82 5167.62 85.90 9.00 368.16 3301.29
   10:49:53.847.27-Aug-2021 4957.82 5167.61 85.90 9.00 368.36 3301.29
   10:49:54.047.27-Aug-2021 4957.82 5167.62 85.90 9.00 368.56 3301.29
   10:49:54.247.27-Aug-2021 4957.82 5167.62 85.90 9.00 368.76 3301.29
   10:49:54.447.27-Aug-2021 4957.82 5167.65 85.90 9.00 368.96 3301.29
   10:49:54.646.27-Aug-2021 4957.82 5167.63 85.90 9.00 369.16 3301.29
   10:49:54.846.27-Aug-2021 4957.82 5167.62 85.90 9.00 369.36 3301.29
   10:49:55.046.27-Aug-2021 4957.82 5167.63 85.90 9.00 369.56 3301.29
   10:49:55.246.27-Aug-2021 4957.82 5167.63 85.90 9.00 369.76 3301.29
   10:49:55.446.27-Aug-2021 4957.82 5167.62 85.90 9.00 369.96 3301.29
   10:49:55.645.27-Aug-2021 4957.82 5167.62 85.90 9.00 370.16 3301.29
   10:49:55.845.27-Aug-2021 4957.82 5167.65 85.90 9.00 370.36 3301.29
   10:49:56.045.27-Aug-2021 4957.82 5167.66 85.90 9.00 370.56 3301.29
   10:49:56.245.27-Aug-2021 4957.82 5167.66 85.90 9.00 370.76 3301.29
   10:49:56.444.27-Aug-2021 4957.82 5167.63 85.90 9.00 370.96 3301.29
   10:49:56.644.27-Aug-2021 4957.82 5167.60 85.90 9.00 371.16 3301.29
   10:49:56.844.27-Aug-2021 4957.82 5167.71 85.90 9.00 371.36 3301.29
   10:49:57.044.27-Aug-2021 4957.82 5167.63 85.90 9.00 371.56 3301.29
   10:49:57.243.27-Aug-2021 4957.82 5167.63 85.90 9.00 371.76 3301.29
   10:49:57.443.27-Aug-2021 4957.82 5167.61 85.90 9.00 371.96 3301.29
   10:49:57.643.27-Aug-2021 4957.82 5167.71 85.90 9.00 372.16 3301.29
   10:49:57.843.27-Aug-2021 4957.82 5167.67 85.90 9.00 372.36 3301.29
   10:49:58.042.27-Aug-2021 4957.82 5167.63 85.90 9.00 372.56 3301.29
   10:49:58.242.27-Aug-2021 4957.82 5167.63 85.90 9.00 372.75 3301.29
   10:49:58.442.27-Aug-2021 4957.82 5168.38 85.90 9.00 372.95 3301.29
   10:49:58.642.27-Aug-2021 4957.82 5171.38 85.90 9.00 373.15 3301.29
   10:49:58.841.27-Aug-2021 4957.82 5189.41 85.90 9.00 373.35 3301.29
   10:49:59.041.27-Aug-2021 4957.82 6191.50 85.90 9.00 373.55 3301.29
   10:49:59.241.27-Aug-2021 4957.82 6191.50 85.90 9.00 373.75 3301.29
   10:49:59.441.27-Aug-2021 4957.82 7888.20 85.90 9.00 373.95 3301.29
   10:49:59.641.27-Aug-2021 4957.82 7888.72 85.90 9.00 374.15 3301.29
   10:49:59.840.27-Aug-2021 4957.82 7888.67 85.90 9.00 374.35 3301.29
   10:50:00.040.27-Aug-2021 4957.82 7888.94 85.91 9.00 374.55 3301.29
   10:50:00.240.27-Aug-2021 4957.82 7888.94 85.91 9.00 374.75 3301.29
   10:50:00.440.27-Aug-2021 4957.82 7890.33 85.91 9.00 374.95 3301.29
   10:50:00.639.27-Aug-2021 4957.82 7890.87 85.91 9.00 375.15 3301.29
   10:50:00.839.27-Aug-2021 4957.82 7891.25 85.91 9.00 375.35 3301.29
   10:50:01.039.27-Aug-2021 4957.82 7891.47 85.91 9.00 375.55 3301.29
   10:50:01.239.27-Aug-2021 4957.82 7891.47 85.91 9.00 375.75 3301.29
   10:50:01.438.27-Aug-2021 4957.82 7898.91 85.92 9.00 375.95 3301.29
   10:50:01.638.27-Aug-2021 4957.82 7891.40 85.92 9.00 376.15 3301.29
   10:50:01.838.27-Aug-2021 4957.82 7894.68 85.92 9.00 376.35 3301.29
   10:50:02.038.27-Aug-2021 4957.82 7893.79 85.92 9.00 376.55 3301.29
   10:50:02.237.27-Aug-2021 4957.82 7893.79 85.92 9.00 376.75 3301.29
   10:50:02.437.27-Aug-2021 4957.82 7893.81 85.93 9.00 376.95 3301.29
   10:50:02.637.27-Aug-2021 4957.82 7893.99 85.93 9.00 377.15 3301.29
   10:50:02.837.27-Aug-2021 4957.82 7893.88 85.93 9.00 377.35 3301.29
   10:50:03.036.27-Aug-2021 4957.82 7893.64 85.93 9.00 377.55 3301.29
   10:50:03.236.27-Aug-2021 4957.82 7893.64 85.93 9.00 377.75 3301.29
   10:50:03.436.27-Aug-2021 4957.82 7894.96 85.94 9.00 377.95 3301.29
   10:50:03.636.27-Aug-2021 4957.82 7895.43 85.94 9.00 378.15 3301.29
   10:50:03.836.27-Aug-2021 4957.82 7895.71 85.94 9.00 378.35 3301.29
   10:50:04.035.27-Aug-2021 4957.82 7895.45 85.94 9.00 378.55 3301.29
   10:50:04.235.27-Aug-2021 4957.82 7895.45 85.94 9.00 378.75 3301.29
   10:50:04.435.27-Aug-2021 4957.82 7895.32 85.95 9.00 378.95 3301.29
   10:50:04.635.27-Aug-2021 4957.82 7895.34 85.95 9.00 379.15 3301.29
   10:50:04.834.27-Aug-2021 4957.82 7902.00 85.95 9.00 379.35 3301.29
   10:50:05.034.27-Aug-2021 4957.82 7894.01 85.95 9.00 379.55 3301.29
   10:50:05.234.27-Aug-2021 4957.82 7894.01 85.95 9.00 379.75 3301.29
   10:50:05.434.27-Aug-2021 4957.82 7895.73 85.95 9.00 379.95 3301.29
   10:50:05.633.27-Aug-2021 4957.82 7895.67 85.95 9.00 380.15 3301.29
   10:50:05.833.27-Aug-2021 4957.82 7899.52 85.96 9.00 380.35 3301.29
   10:50:06.033.27-Aug-2021 4957.82 7895.23 85.96 9.00 380.55 3301.29
   10:50:06.233.27-Aug-2021 4957.82 7895.23 85.96 9.00 380.75 3301.29
   10:50:06.432.27-Aug-2021 4957.82 7895.40 85.96 9.00 380.95 3301.29
   10:50:06.632.27-Aug-2021 4957.82 7895.54 85.96 9.00 381.14 3301.29
   10:50:06.832.27-Aug-2021 4957.82 7899.49 85.96 9.00 381.34 3301.29
   10:50:07.032.27-Aug-2021 4957.82 7897.81 85.96 9.00 381.54 3301.29
   10:50:07.231.27-Aug-2021 4957.82 7897.81 85.96 9.00 381.74 3301.29
   10:50:07.431.27-Aug-2021 4957.82 7898.99 85.96 9.00 381.94 3301.29
   10:50:07.631.27-Aug-2021 4957.82 7894.67 85.97 9.00 382.14 3301.29
   10:50:07.831.27-Aug-2021 4957.82 7897.25 85.97 9.00 382.34 3301.29
   10:50:08.031.27-Aug-2021 4957.82 7896.27 85.97 9.00 382.54 3301.29
   10:50:08.230.27-Aug-2021 4957.82 7896.27 85.97 9.00 382.74 3301.29
   10:50:08.430.27-Aug-2021 4957.82 7895.46 85.97 9.00 382.94 3301.29
   10:50:08.630.27-Aug-2021 4957.82 7895.46 85.97 9.00 383.14 3301.29
   10:50:08.830.27-Aug-2021 4957.82 7895.60 85.97 9.00 383.34 3301.29
   10:50:09.029.27-Aug-2021 4957.82 7895.37 85.97 9.00 383.54 3301.29
   10:50:09.229.27-Aug-2021 4957.82 7895.37 85.97 9.00 383.74 3301.29
   10:50:09.429.27-Aug-2021 4957.82 7896.17 85.97 9.00 383.94 3301.29
   10:50:09.629.27-Aug-2021 4957.82 7896.30 85.97 9.00 384.14 3301.29
   10:50:09.828.27-Aug-2021 4957.82 7896.48 85.97 9.00 384.34 3301.29
   10:50:10.028.27-Aug-2021 4957.82 7896.22 85.97 9.00 384.54 3301.29
   10:50:10.228.27-Aug-2021 4957.82 7896.22 85.97 9.00 384.74 3301.29
   10:50:10.428.27-Aug-2021 4957.82 7896.08 85.97 9.00 384.94 3301.29
   10:50:10.627.27-Aug-2021 4957.82 7895.91 85.97 9.00 385.14 3301.29
   10:50:10.827.27-Aug-2021 4957.82 7899.69 85.97 9.00 385.34 3301.29
   10:50:11.027.27-Aug-2021 4957.82 7897.59 85.97 9.00 385.54 3301.29
   10:50:11.227.27-Aug-2021 4957.82 7897.59 85.97 9.00 385.74 3301.29
   10:50:11.426.27-Aug-2021 4957.82 7896.08 85.97 9.00 385.94 3301.29
   10:50:11.626.27-Aug-2021 4957.82 7896.14 85.97 9.00 386.14 3301.29
   10:50:11.826.27-Aug-2021 4957.82 7896.14 85.97 9.00 386.34 3301.29
   10:50:12.026.27-Aug-2021 4957.82 7896.18 85.97 9.00 386.54 3301.29
   10:50:12.225.27-Aug-2021 4957.82 7896.18 85.97 9.00 386.74 3301.29
   10:50:12.425.27-Aug-2021 4957.82 7895.90 85.97 9.00 386.94 3301.29
   10:50:12.625.27-Aug-2021 4957.82 7896.31 85.97 9.00 387.14 3301.29
   10:50:12.825.27-Aug-2021 4957.82 7896.89 85.97 9.00 387.34 3301.29
   10:50:13.025.27-Aug-2021 4957.82 7897.29 85.97 9.00 387.54 3301.29
   10:50:13.224.27-Aug-2021 4957.82 7897.29 85.97 9.00 387.74 3301.29
   10:50:13.424.27-Aug-2021 4957.82 7896.94 85.97 9.00 387.94 3301.29
   10:50:13.624.27-Aug-2021 4957.82 7896.67 85.97 9.00 388.14 3301.29
   10:50:13.824.27-Aug-2021 4957.82 7896.52 85.97 9.00 388.34 3301.29
   10:50:14.023.27-Aug-2021 4957.82 7896.42 85.97 9.00 388.54 3301.29
   10:50:14.223.27-Aug-2021 4957.82 7896.42 85.97 9.00 388.74 3301.29
   10:50:14.423.27-Aug-2021 4957.82 7898.03 85.97 9.00 388.94 3301.29
   10:50:14.623.27-Aug-2021 4957.82 7896.70 85.97 9.00 389.14 3301.29
   10:50:14.822.27-Aug-2021 4957.82 7896.37 85.97 9.00 389.34 3301.29
   10:50:15.022.27-Aug-2021 4957.82 7896.20 85.97 9.00 389.53 3301.29
   10:50:15.222.27-Aug-2021 4957.82 7896.20 85.97 9.00 389.73 3301.29
   10:50:15.422.27-Aug-2021 4957.82 7895.86 85.97 9.00 389.93 3301.29
   10:50:15.621.27-Aug-2021 4957.82 7897.21 85.97 9.00 390.13 3301.29
   10:50:15.821.27-Aug-2021 4957.82 7896.60 85.97 9.00 390.33 3301.29
