~Version Information
 VERS.                  2.0:   CWLS log ASCII Standard -VERSION 2.0
 WRAP.                   NO:   One line per depth step
~Well Information Block
#MNEM.UNIT     VALUE/NAME     DESCRIPTION
#---------     -----------    ---------------------------
 STRT.S             01:57:49 28-Aug-21: START TIME 01:57:49 28-Aug-21
 STOP.S             02:04:41 28-Aug-21: STOP TIME  02:04:41 28-Aug-21
 STEP.S                   0.00: STEP TIME
 NULL.                 -999.25: NULL VALUE
 DFWT.                        :  DIST FWL TEXT
 DFST.                        :  DIST FSL TEXT
 DMF .             Drill Floor:  DRILL MEAS FROM
 STIM.      20.00.00 17-Aug-21:  START TIME
 DATE.      19.00.00 29-Aug-21:  END TIME
 SPUD.               15-Aug-21:  SPUD DATE
 NREF.                    Grid:  NORTH REFERENCE
 HPTY.       Minimum Curvature:  HOLE POS TYPE
 DMOD.             Drill Model:  DRILL MOD DESC
 SVYD.                  Survey:  SURVEY DESC
 ILTD.               Lithology:  INTERP LTH DESC
 FTOP.          Formation Tops:  FORM TOPS DESC
 RIG .              East Azeri:  RIG NAME
 PDAT.          Mean Sea Level:  PERMANENT DATUM
 FLD .                     ACG:  FIELD NAME
 SON .        AZ-XX-0907180857:  JOB NUMBER
 CTRY.              Azerbaijan:  COUNTRY NAME
 WELL.                    D23x:  WELL NAME
 SRVC.     Turan Drilling and Engineering:  CONTRACTOR
 COMP.     BP Exploration (Caspian Sea) Ltd.:  COMPANY
 UWI .            /AZE00000214:  UNIQUE WELL IDENTIFIER
 API .            /AZE00000214:  API NUMBER
 MDS .        Operator Entered:  MAG DATA SOURCE
 BASE.              Azerbaijan:  LOGGING EQUIPMENT BASE LOCATION
 REGN.                   EESSA:  REGION
 PROV.                    Baku:  PROVINCE
 STAT.                    Baku:  STATE NAME
 MWDS.                    Baku:  MWD SHOP
 DOE .                     N/A:  DOE NUMBER
 DCON.         Sperry Drilling:  DIRECTNL CONTR
 UNIT.                     N/A:  LOGGING EQUIPMENT ID
 WTYP.                Deviated:  WELL TYPE
 CNTY.                        :  COUNTY
 LOC .                        :  LOCATION
 LMF .             Drill Floor:  LOG MEASURED FROM
 TVDS.m                  43.60:  TVDSS CORRECTN
 LATI.deg                40.02:  LATITUDE
 LONG.deg                51.45:  LONGITUDE
 WHNS.m                  -7.04:  WELL HEAD N/S
 WHEW.m                  -0.67:  WELL HEAD E/W
 UTMX.m              538762.90:  UTM X
 UTMY.m             4431871.34:  UTM Y
 DFWL.m                   0.00:  DISTANCE FWL
 DFSL.m                   0.00:  DISTANCE FSL
 SDEP.m                4127.00:  START DEPTH
 TDD .m                5084.50:  TOTAL DEPTH (DRILLER)
 VSDR.deg               140.47:  VERT SEC DIRECT
 GVFD.g                   1.00:  GRAVITY FIELD
 MFLD.nT              50362.00:  MAGNETIC FIELD
 MDIP.deg                59.48:  MAGNETIC DIP
 MDEC.deg                 6.47:  MAGNETIC DECL
 GRDC.deg                 0.31:  GRID CORRECTION
 AZTC.deg                 6.16:  AZM TOTAL CORR
 EPD .m                   0.00:  ELEVATION
 EGL .m                   0.00:  GROUND ELEVATION
 WDMS.m                 151.80:  WD ELEV
 APD .m                  43.60:  DEPTH ABOVE PD
 DEP .m                4092.57:  DEPTH
 AGAP.m                  43.60:  AIR GAP
 VSEW.m                  -0.67:  VERT SEC E/W
 VSNS.m                  -7.04:  VERT SEC N/S
 EKB .m                  43.60:  KB ELEVATION
 EDF .m                  43.60:  DF ELEVATION
 TDL .m                 957.50:  TOTAL DEPTH (LOGGER)
 VSC .                       0:  VS TO CLOSURE
 MAGU.                 1851413:  MAGUTM CHECKSUM
~Parameter Information Block
#MNEM.UNIT       Value        Description
#---------     -----------    ---------------------------
 AV  .mps                 1.50:  Ann Velocity 
 AVMX.mps                 2.00:  Max Ann Veloc 
 AZIF.deg               184.66:  Azm, Final 
 BHAT.        Rotary Steerable:  BHA Type 
 BREV.rev               300.00:  Rev Bit Total 
 BROT.°/30m              -0.50:  Build Rotating 
 BS  .in                  8.50:  Bit Size 
 BSZ .in                  8.50:  Bit Size 
 BTPL.psig              370.00:  Bit Press Loss 
 CABU.                      No:  Customer Abuse 
 CGEO.      Behruz Shahbaliyev:  Customer Geo 
 COMM.                     Äi}:  Run Comments 1 
 TCS .hr                140.08:  Time Ciculation Ended 
 CV  .mps                 3.00:  Crit Velocity 
 CVMX.mps                 3.20:  Max Crit Veloc 
 DD1 .            Musa Ahmadov:  Direct Drillr 1 
 DD2 .           Hamid Ahmadov:  Direct Drillr 2 
 DDSV.               Geo-Pilot:  DD Service 
 DEFF.%                  98.40:  % Det Eff 
 DLRX.°/30m               3.40:  Dogleg Rot Max 
 DLSO.°/30m               1.45:  Dogleg Oriented 
 DLSX.°/30m               3.40:  Dogleg Str Max 
 DRET.      18.40.00 29-Aug-21:  Drill End Time 
 DRST.      21.00.00 20-Aug-21:  Drill Start Tim 
 DTIM.hr                 69.47:  Time Drilling 
 EDEP.m                5084.50:  End Depth 
 ENG1.      Artemiy Matviyanov:  Engineer 1 
 ENG2.         Almaz Almadatov:  Engineer 2 
 ETIM.      18.40.00 29-Aug-21:  End Time 
 FLOI.gpm               500.00:  Flow In 
 FLON.gpm               400.00:  Flow In Min 
 FLOS.cptm                0.00:  Fluid Loss 
 FLOX.gpm               500.00:  Flow In Max 
 DFT .        Mineral Oil Base:  Mud Type 
 HFLO.                      No:  High Flow 
 HPRE.                      No:  High Pressure 
 HTEM.                      No:  High Temp 
 HYDO.m                   1.80:  Hydro Offset 
 IFIN.deg                25.62:  Inc, Final 
 IMAX.deg                48.69:  Inc Max 
 IMIN.deg                24.01:  Inc Min 
 IMND.m                4962.57:  Inc Min Depth 
 IMXD.m                4119.01:  Inc Max Depth 
 JARR.                      No:  Jarring 
 LETM.      18.40.00 29-Aug-21:  Log End Time 
 LOST.hr                     0:  Lost Rig Time 
 LSTM.      21.00.00 20-Aug-21:  Log Start Time 
 MDCL.ppm             41500.00:  Mud Chlorides 
 MDES.     Inversion Oil/Synthetic:  Mud Desc 
 DFD .sg                  1.56:  Mud Density 
 MDMN.sg                  1.56:  Dens Mud Min 
 MDMX.sg                  1.56:  Dens Mud Max 
 MOIL.                      70:  Run Mud Oil % 
 MOWR.                   70:30:  Run Mud OWR 
 MSND.                     0.2:  Run Mud Sand % 
 MSOL.                    23.3:  Run Mud Solids% 
 DFV .spqt               78.00:  Mud Viscosity 
 MWOD.in                  6.75:  MWD Tool OD 
 MWSI.                      No:  Serv Intrp, MWD 
 OTIM.hr                218.30:  Time Operating 
 PCON.           Look Like New:  Pad Condition 
 PMAX.psia            11015.30:  Press Op, Max 
 PV  .cP                 38.00:  Mud PV 
 RUN .                     300:  Run Number 
 ROPA.m/hr               15.00:  ROP Avg 
 ROPN.m/hr                9.00:  ROP Min 
 ROPX.m/hr               17.00:  ROP Max 
 RPMA.rpm               120.00:  RPM Surface Avg 
 RPMN.rpm                90.00:  RPM Surface Min 
 RPMX.rpm               140.00:  RPM Surface Max 
 RRUN.                     300:  Rig Run Number 
 RTIM.hr                 31.53:  Time Reaming 
 SAZI.deg               331.64:  Azm, Start 
 SDEP.m                4127.00:  Start Depth 
 SIDD.                      No:  Serv Intrp, DD 
 SINC.deg                48.43:  Inc, Start 
 SPPA.psig             5830.00:  SPP Avg 
 SPPN.psig             5600.00:  SPP Min 
 SPPX.psig             5900.00:  SPP Max 
 STIM.      21.00.00 20-Aug-21:  Start Time 
 SVCS.                 DD, MWD:  Services 
 SVER.                    9.20:  Sperry Version 
 TDAT.m                 957.50:  Tot Depth Attmp 
 TDDF.                      No:  Trip for DD 
 TDLG.m                 957.50:  Tot Depth Loggd 
 TFF .                      No:  Trip for Fail 
 TQAA.f-kp               15.00:  Torque Abs Avg 
 TQAN.f-kp               12.00:  Torque Abs Min 
 TQAX.f-kp               19.00:  Torque Abs Max 
 TRRT.°/30m              -3.40:  Turn Rotating 
 MRT .                  EWR-M5:  Maximum Recorded Temperature 
 TTMX.degC              100.00:  Max Tool Temp 
 VS01.                90639251:  Virtual Str1 SN 
 VS02.                90634715:  Virtual Str2 SN 
 VS03.                90652479:  Virtual Str3 SN 
 VS04.                90642262:  Virtual Str4 SN 
 WBMN.klb                 0.00:  WOB Min 
 WITN.           Murad Guliyev:  Customer Rep 
 WITN.          Yashar Gaziyev:  Customer Rep 2 
 WOBA.klb                 9.00:  WOB Avg 
 WOBX.klb                12.00:  WOB Max 
 YP  .lhf2               30.00:  Yield Point 
~Curve Information Block
#MNEM.UNIT                 API CODE     Curve Description
#---------               -----------    ---------------------------
 TIME.HHMMSS            00 000 000 000:  GT Time & Date
 GTDEPTH.m              00 000 000 000:  GT Depth
 GTPQH.psia             00 000 000 000:  GT HR Quartz Pressure
 GTTQ.degC              00 000 000 000:  GT Quartz Temperature
 GTTN.NONE              00 000 000 000:  GT Test Number
 GTET.sec               00 000 000 000:  GT Elapsed Test Time
 GTTVD.m                00 000 000 000:  GT True Vertical Depth
#Other Information
#
#WARRANTY: Halliburton will use its best efforts to furnish customers with 
#accurate information and interpretations that are part of, and incident to, the services 
#provided.  However, Halliburton cannot and does not warrant the accuracy 
#or correctness of such information and interpretations.  Under no circumstances should any 
#such information or interpretation be relied upon as the sole basis for any drilling, 
#completion, production, or financial decision or any procedure involving any risk to the 
#safety of any drilling venture, drilling rig or its crew or any other third party.  The 
#Customer has full responsibility for all drilling, completion and production operation.  
#Halliburton makes no representations or warranties, either expressed or 
#implied, including, but not limited to, the implied warranties of merchantability or fitness 
#for a particular purpose, with respect to the services rendered.  In no event will 
#Halliburton be liable for failure to obtain any particular results or for 
#any damages, including, but not limited to, indirect, special or consequential damages, 
#resulting from the use of any information or interpretation provided by Halliburton.
#
~A           TIME           GTDEPTH  GTPQH  GTTQ  GTTN   GTET   GTTVD  
# ...
   02:00:50.209.28-Aug-2021 4879.00 7755.56 81.20 27.00 180.86 3229.53
   02:00:50.409.28-Aug-2021 4879.00 7758.92 81.20 27.00 181.06 3229.53
   02:00:50.609.28-Aug-2021 4879.00 7758.92 81.20 27.00 181.26 3229.53
   02:00:50.809.28-Aug-2021 4879.00 7756.72 81.20 27.00 181.46 3229.53
   02:00:51.009.28-Aug-2021 4879.00 7755.61 81.20 27.00 181.66 3229.53
   02:00:51.209.28-Aug-2021 4879.00 7755.54 81.20 27.00 181.86 3229.53
   02:00:51.409.28-Aug-2021 4879.00 7755.13 81.20 27.00 182.06 3229.53
   02:00:51.609.28-Aug-2021 4879.00 7755.13 81.20 27.00 182.26 3229.53
   02:00:51.809.28-Aug-2021 4879.00 7755.25 81.20 27.00 182.46 3229.53
   02:00:52.009.28-Aug-2021 4879.00 7755.57 81.20 27.00 182.66 3229.53
   02:00:52.209.28-Aug-2021 4879.00 7755.96 81.20 27.00 182.86 3229.53
   02:00:52.409.28-Aug-2021 4879.00 7755.96 81.20 27.00 183.06 3229.53
   02:00:52.609.28-Aug-2021 4879.00 7755.96 81.20 27.00 183.26 3229.53
   02:00:52.809.28-Aug-2021 4879.00 7756.14 81.20 27.00 183.46 3229.53
   02:00:53.009.28-Aug-2021 4879.00 7756.21 81.20 27.00 183.66 3229.53
   02:00:53.209.28-Aug-2021 4879.00 7756.03 81.20 27.00 183.86 3229.53
   02:00:53.410.28-Aug-2021 4879.00 7756.03 81.20 27.00 184.06 3229.53
   02:00:53.610.28-Aug-2021 4879.00 7756.03 81.20 27.00 184.26 3229.53
   02:00:53.810.28-Aug-2021 4879.00 7755.07 81.20 27.00 184.46 3229.53
   02:00:54.010.28-Aug-2021 4879.00 7756.98 81.20 27.00 184.66 3229.53
   02:00:54.210.28-Aug-2021 4879.00 7755.95 81.20 27.00 184.86 3229.53
   02:00:54.410.28-Aug-2021 4879.00 7755.60 81.20 27.00 185.06 3229.53
   02:00:54.610.28-Aug-2021 4879.00 7755.60 81.20 27.00 185.26 3229.53
   02:00:54.810.28-Aug-2021 4879.00 7755.54 81.20 27.00 185.46 3229.53
   02:00:55.010.28-Aug-2021 4879.00 7755.51 81.20 27.00 185.66 3229.53
   02:00:55.210.28-Aug-2021 4879.00 7755.86 81.20 27.00 185.86 3229.53
   02:00:55.410.28-Aug-2021 4879.00 7756.29 81.20 27.00 186.06 3229.53
   02:00:55.610.28-Aug-2021 4879.00 7756.29 81.20 27.00 186.26 3229.53
   02:00:55.810.28-Aug-2021 4879.00 7756.63 81.20 27.00 186.46 3229.53
   02:00:56.010.28-Aug-2021 4879.00 7756.65 81.20 27.00 186.66 3229.53
   02:00:56.210.28-Aug-2021 4879.00 7756.55 81.20 27.00 186.86 3229.53
   02:00:56.410.28-Aug-2021 4879.00 7756.55 81.20 27.00 187.06 3229.53
   02:00:56.611.28-Aug-2021 4879.00 7756.55 81.20 27.00 187.26 3229.53
   02:00:56.811.28-Aug-2021 4879.00 7756.36 81.20 27.00 187.46 3229.53
   02:00:57.011.28-Aug-2021 4879.00 7760.04 81.20 27.00 187.66 3229.53
   02:00:57.211.28-Aug-2021 4879.00 7755.28 81.20 27.00 187.86 3229.53
   02:00:57.411.28-Aug-2021 4879.00 7757.23 81.20 27.00 188.06 3229.53
   02:00:57.611.28-Aug-2021 4879.00 7757.23 81.20 27.00 188.26 3229.53
   02:00:57.811.28-Aug-2021 4879.00 7761.93 81.20 27.00 188.46 3229.53
   02:00:58.011.28-Aug-2021 4879.00 7752.45 81.20 27.00 188.66 3229.53
   02:00:58.211.28-Aug-2021 4879.00 7757.11 81.19 27.00 188.86 3229.53
   02:00:58.411.28-Aug-2021 4879.00 7755.69 81.19 27.00 189.06 3229.53
   02:00:58.611.28-Aug-2021 4879.00 7755.69 81.19 27.00 189.26 3229.53
   02:00:58.811.28-Aug-2021 4879.00 7755.85 81.19 27.00 189.46 3229.53
   02:00:59.011.28-Aug-2021 4879.00 7761.59 81.19 27.00 189.66 3229.53
   02:00:59.211.28-Aug-2021 4879.00 7752.35 81.19 27.00 189.86 3229.53
   02:00:59.411.28-Aug-2021 4879.00 7757.31 81.19 27.00 190.06 3229.53
   02:00:59.611.28-Aug-2021 4879.00 7757.31 81.19 27.00 190.26 3229.53
   02:00:59.812.28-Aug-2021 4879.00 7759.31 81.19 27.00 190.46 3229.53
   02:01:00.012.28-Aug-2021 4879.00 7756.40 81.19 27.00 190.66 3229.53
   02:01:00.212.28-Aug-2021 4879.00 7756.79 81.19 27.00 190.86 3229.53
   02:01:00.412.28-Aug-2021 4879.00 7755.72 81.19 27.00 191.06 3229.53
   02:01:00.612.28-Aug-2021 4879.00 7755.72 81.19 27.00 191.26 3229.53
   02:01:00.812.28-Aug-2021 4879.00 7755.53 81.19 27.00 191.46 3229.53
   02:01:01.012.28-Aug-2021 4879.00 7755.43 81.19 27.00 191.66 3229.53
   02:01:01.212.28-Aug-2021 4879.00 7755.74 81.19 27.00 191.86 3229.53
   02:01:01.412.28-Aug-2021 4879.00 7755.65 81.19 27.00 192.06 3229.53
   02:01:01.612.28-Aug-2021 4879.00 7755.65 81.19 27.00 192.26 3229.53
   02:01:01.812.28-Aug-2021 4879.00 7756.01 81.19 27.00 192.46 3229.53
   02:01:02.012.28-Aug-2021 4879.00 7756.50 81.19 27.00 192.66 3229.53
   02:01:02.212.28-Aug-2021 4879.00 7756.30 81.19 27.00 192.86 3229.53
   02:01:02.412.28-Aug-2021 4879.00 7756.34 81.19 27.00 193.06 3229.53
   02:01:02.612.28-Aug-2021 4879.00 7756.34 81.19 27.00 193.26 3229.53
   02:01:02.812.28-Aug-2021 4879.00 7756.12 81.19 27.00 193.46 3229.53
   02:01:03.013.28-Aug-2021 4879.00 7759.86 81.19 27.00 193.66 3229.53
   02:01:03.213.28-Aug-2021 4879.00 7754.94 81.19 27.00 193.86 3229.53
   02:01:03.413.28-Aug-2021 4879.00 7757.23 81.19 27.00 194.06 3229.53
   02:01:03.613.28-Aug-2021 4879.00 7757.23 81.19 27.00 194.26 3229.53
   02:01:03.813.28-Aug-2021 4879.00 7756.04 81.19 27.00 194.46 3229.53
   02:01:04.013.28-Aug-2021 4879.00 7755.73 81.19 27.00 194.66 3229.53
   02:01:04.213.28-Aug-2021 4879.00 7755.92 81.19 27.00 194.86 3229.53
   02:01:04.413.28-Aug-2021 4879.00 7755.54 81.19 27.00 195.06 3229.53
   02:01:04.613.28-Aug-2021 4879.00 7755.54 81.19 27.00 195.26 3229.53
   02:01:04.813.28-Aug-2021 4879.00 7756.43 81.19 27.00 195.46 3229.53
   02:01:05.013.28-Aug-2021 4879.00 7756.52 81.19 27.00 195.66 3229.53
   02:01:05.213.28-Aug-2021 4879.00 7756.86 81.19 27.00 195.86 3229.53
   02:01:05.413.28-Aug-2021 4879.00 7756.71 81.19 27.00 196.06 3229.53
   02:01:05.613.28-Aug-2021 4879.00 7756.71 81.19 27.00 196.26 3229.53
   02:01:05.813.28-Aug-2021 4879.00 7756.45 81.19 27.00 196.46 3229.53
   02:01:06.013.28-Aug-2021 4879.00 7756.42 81.19 27.00 196.66 3229.53
   02:01:06.214.28-Aug-2021 4879.00 7756.14 81.19 27.00 196.86 3229.53
   02:01:06.414.28-Aug-2021 4879.00 7760.09 81.19 27.00 197.06 3229.53
   02:01:06.614.28-Aug-2021 4879.00 7760.09 81.19 27.00 197.26 3229.53
   02:01:06.814.28-Aug-2021 4879.00 7757.38 81.19 27.00 197.46 3229.53
   02:01:07.014.28-Aug-2021 4879.00 7756.08 81.19 27.00 197.66 3229.53
   02:01:07.214.28-Aug-2021 4879.00 7759.92 81.19 27.00 197.86 3229.53
   02:01:07.414.28-Aug-2021 4879.00 7754.78 81.19 27.00 198.06 3229.53
   02:01:07.614.28-Aug-2021 4879.00 7754.78 81.19 27.00 198.26 3229.53
   02:01:07.814.28-Aug-2021 4879.00 7755.69 81.19 27.00 198.46 3229.53
   02:01:08.014.28-Aug-2021 4879.00 7755.62 81.19 27.00 198.66 3229.53
   02:01:08.214.28-Aug-2021 4879.00 7755.77 81.19 27.00 198.86 3229.53
   02:01:08.414.28-Aug-2021 4879.00 7759.40 81.19 27.00 199.06 3229.53
   02:01:08.614.28-Aug-2021 4879.00 7759.40 81.19 27.00 199.26 3229.53
   02:01:08.814.28-Aug-2021 4879.00 7757.01 81.19 27.00 199.46 3229.53
   02:01:09.014.28-Aug-2021 4879.00 7756.39 81.19 27.00 199.66 3229.53
   02:01:09.214.28-Aug-2021 4879.00 7759.40 81.19 27.00 199.86 3229.53
   02:01:09.415.28-Aug-2021 4879.00 7755.79 81.19 27.00 200.06 3229.53
   02:01:09.615.28-Aug-2021 4879.00 7755.79 81.19 27.00 200.26 3229.53
   02:01:09.815.28-Aug-2021 4879.00 7756.47 81.19 27.00 200.46 3229.53
   02:01:10.015.28-Aug-2021 4879.00 7755.95 81.19 27.00 200.66 3229.53
   02:01:10.215.28-Aug-2021 4879.00 7755.79 81.19 27.00 200.86 3229.53
   02:01:10.415.28-Aug-2021 4879.00 7755.44 81.19 27.00 201.06 3229.53
   02:01:10.615.28-Aug-2021 4879.00 7755.44 81.19 27.00 201.26 3229.53
   02:01:10.815.28-Aug-2021 4879.00 7755.80 81.19 27.00 201.46 3229.53
   02:01:11.015.28-Aug-2021 4879.00 7755.88 81.19 27.00 201.66 3229.53
   02:01:11.215.28-Aug-2021 4879.00 7756.27 81.19 27.00 201.86 3229.53
   02:01:11.415.28-Aug-2021 4879.00 7756.36 81.19 27.00 202.06 3229.53
   02:01:11.615.28-Aug-2021 4879.00 7756.36 81.19 27.00 202.26 3229.53
   02:01:11.815.28-Aug-2021 4879.00 7756.41 81.19 27.00 202.46 3229.53
   02:01:12.015.28-Aug-2021 4879.00 7756.59 81.19 27.00 202.66 3229.53
   02:01:12.215.28-Aug-2021 4879.00 7756.41 81.19 27.00 202.86 3229.53
   02:01:12.415.28-Aug-2021 4879.00 7756.29 81.19 27.00 203.06 3229.53
   02:01:12.616.28-Aug-2021 4879.00 7756.29 81.19 27.00 203.26 3229.53
