~Version Information
 VERS.                  2.0:   CWLS log ASCII Standard -VERSION 2.0
 WRAP.                   NO:   One line per depth step
~Well Information Block
#MNEM.UNIT     VALUE/NAME     DESCRIPTION
#---------     -----------    ---------------------------
 STRT.S             06:14:43 27-Aug-21: START TIME 06:14:43 27-Aug-21
 STOP.S             06:21:54 27-Aug-21: STOP TIME  06:21:54 27-Aug-21
 STEP.S                   0.00: STEP TIME
 NULL.                 -999.25: NULL VALUE
 DFWT.                        :  DIST FWL TEXT
 DFST.                        :  DIST FSL TEXT
 DMF .             Drill Floor:  DRILL MEAS FROM
 STIM.      20.00.00 17-Aug-21:  START TIME
 DATE.      19.00.00 29-Aug-21:  END TIME
 SPUD.               15-Aug-21:  SPUD DATE
 NREF.                    Grid:  NORTH REFERENCE
 HPTY.       Minimum Curvature:  HOLE POS TYPE
 DMOD.             Drill Model:  DRILL MOD DESC
 SVYD.                  Survey:  SURVEY DESC
 ILTD.               Lithology:  INTERP LTH DESC
 FTOP.          Formation Tops:  FORM TOPS DESC
 RIG .              East Azeri:  RIG NAME
 PDAT.          Mean Sea Level:  PERMANENT DATUM
 FLD .                     ACG:  FIELD NAME
 SON .        AZ-XX-0907180857:  JOB NUMBER
 CTRY.              Azerbaijan:  COUNTRY NAME
 WELL.                    D23x:  WELL NAME
 SRVC.     Turan Drilling and Engineering:  CONTRACTOR
 COMP.     BP Exploration (Caspian Sea) Ltd.:  COMPANY
 UWI .            /AZE00000214:  UNIQUE WELL IDENTIFIER
 API .            /AZE00000214:  API NUMBER
 MDS .        Operator Entered:  MAG DATA SOURCE
 BASE.              Azerbaijan:  LOGGING EQUIPMENT BASE LOCATION
 REGN.                   EESSA:  REGION
 PROV.                    Baku:  PROVINCE
 STAT.                    Baku:  STATE NAME
 MWDS.                    Baku:  MWD SHOP
 DOE .                     N/A:  DOE NUMBER
 DCON.         Sperry Drilling:  DIRECTNL CONTR
 UNIT.                     N/A:  LOGGING EQUIPMENT ID
 WTYP.                Deviated:  WELL TYPE
 CNTY.                        :  COUNTY
 LOC .                        :  LOCATION
 LMF .             Drill Floor:  LOG MEASURED FROM
 TVDS.m                  43.60:  TVDSS CORRECTN
 LATI.deg                40.02:  LATITUDE
 LONG.deg                51.45:  LONGITUDE
 WHNS.m                  -7.04:  WELL HEAD N/S
 WHEW.m                  -0.67:  WELL HEAD E/W
 UTMX.m              538762.90:  UTM X
 UTMY.m             4431871.34:  UTM Y
 DFWL.m                   0.00:  DISTANCE FWL
 DFSL.m                   0.00:  DISTANCE FSL
 SDEP.m                4127.00:  START DEPTH
 TDD .m                5084.50:  TOTAL DEPTH (DRILLER)
 VSDR.deg               140.47:  VERT SEC DIRECT
 GVFD.g                   1.00:  GRAVITY FIELD
 MFLD.nT              50362.00:  MAGNETIC FIELD
 MDIP.deg                59.48:  MAGNETIC DIP
 MDEC.deg                 6.47:  MAGNETIC DECL
 GRDC.deg                 0.31:  GRID CORRECTION
 AZTC.deg                 6.16:  AZM TOTAL CORR
 EPD .m                   0.00:  ELEVATION
 EGL .m                   0.00:  GROUND ELEVATION
 WDMS.m                 151.80:  WD ELEV
 APD .m                  43.60:  DEPTH ABOVE PD
 DEP .m                4092.57:  DEPTH
 AGAP.m                  43.60:  AIR GAP
 VSEW.m                  -0.67:  VERT SEC E/W
 VSNS.m                  -7.04:  VERT SEC N/S
 EKB .m                  43.60:  KB ELEVATION
 EDF .m                  43.60:  DF ELEVATION
 TDL .m                 957.50:  TOTAL DEPTH (LOGGER)
 VSC .                       0:  VS TO CLOSURE
 MAGU.                 1851413:  MAGUTM CHECKSUM
~Parameter Information Block
#MNEM.UNIT       Value        Description
#---------     -----------    ---------------------------
 AV  .mps                 1.50:  Ann Velocity 
 AVMX.mps                 2.00:  Max Ann Veloc 
 AZIF.deg               184.66:  Azm, Final 
 BHAT.        Rotary Steerable:  BHA Type 
 BREV.rev               300.00:  Rev Bit Total 
 BROT.°/30m              -0.50:  Build Rotating 
 BS  .in                  8.50:  Bit Size 
 BSZ .in                  8.50:  Bit Size 
 BTPL.psig              370.00:  Bit Press Loss 
 CABU.                      No:  Customer Abuse 
 CGEO.      Behruz Shahbaliyev:  Customer Geo 
 COMM.                     4V:  Run Comments 1 
 TCS .hr                140.08:  Time Ciculation Ended 
 CV  .mps                 3.00:  Crit Velocity 
 CVMX.mps                 3.20:  Max Crit Veloc 
 DD1 .            Musa Ahmadov:  Direct Drillr 1 
 DD2 .           Hamid Ahmadov:  Direct Drillr 2 
 DDSV.               Geo-Pilot:  DD Service 
 DEFF.%                  98.40:  % Det Eff 
 DLRX.°/30m               3.40:  Dogleg Rot Max 
 DLSO.°/30m               1.45:  Dogleg Oriented 
 DLSX.°/30m               3.40:  Dogleg Str Max 
 DRET.      18.40.00 29-Aug-21:  Drill End Time 
 DRST.      21.00.00 20-Aug-21:  Drill Start Tim 
 DTIM.hr                 69.47:  Time Drilling 
 EDEP.m                5084.50:  End Depth 
 ENG1.      Artemiy Matviyanov:  Engineer 1 
 ENG2.         Almaz Almadatov:  Engineer 2 
 ETIM.      18.40.00 29-Aug-21:  End Time 
 FLOI.gpm               500.00:  Flow In 
 FLON.gpm               400.00:  Flow In Min 
 FLOS.cptm                0.00:  Fluid Loss 
 FLOX.gpm               500.00:  Flow In Max 
 DFT .        Mineral Oil Base:  Mud Type 
 HFLO.                      No:  High Flow 
 HPRE.                      No:  High Pressure 
 HTEM.                      No:  High Temp 
 HYDO.m                   1.80:  Hydro Offset 
 IFIN.deg                25.62:  Inc, Final 
 IMAX.deg                48.69:  Inc Max 
 IMIN.deg                24.01:  Inc Min 
 IMND.m                4962.57:  Inc Min Depth 
 IMXD.m                4119.01:  Inc Max Depth 
 JARR.                      No:  Jarring 
 LETM.      18.40.00 29-Aug-21:  Log End Time 
 LOST.hr                     0:  Lost Rig Time 
 LSTM.      21.00.00 20-Aug-21:  Log Start Time 
 MDCL.ppm             41500.00:  Mud Chlorides 
 MDES.     Inversion Oil/Synthetic:  Mud Desc 
 DFD .sg                  1.56:  Mud Density 
 MDMN.sg                  1.56:  Dens Mud Min 
 MDMX.sg                  1.56:  Dens Mud Max 
 MOIL.                      70:  Run Mud Oil % 
 MOWR.                   70:30:  Run Mud OWR 
 MSND.                     0.2:  Run Mud Sand % 
 MSOL.                    23.3:  Run Mud Solids% 
 DFV .spqt               78.00:  Mud Viscosity 
 MWOD.in                  6.75:  MWD Tool OD 
 MWSI.                      No:  Serv Intrp, MWD 
 OTIM.hr                218.30:  Time Operating 
 PCON.           Look Like New:  Pad Condition 
 PMAX.psia            11015.30:  Press Op, Max 
 PV  .cP                 38.00:  Mud PV 
 RUN .                     300:  Run Number 
 ROPA.m/hr               15.00:  ROP Avg 
 ROPN.m/hr                9.00:  ROP Min 
 ROPX.m/hr               17.00:  ROP Max 
 RPMA.rpm               120.00:  RPM Surface Avg 
 RPMN.rpm                90.00:  RPM Surface Min 
 RPMX.rpm               140.00:  RPM Surface Max 
 RRUN.                     300:  Rig Run Number 
 RTIM.hr                 31.53:  Time Reaming 
 SAZI.deg               331.64:  Azm, Start 
 SDEP.m                4127.00:  Start Depth 
 SIDD.                      No:  Serv Intrp, DD 
 SINC.deg                48.43:  Inc, Start 
 SPPA.psig             5830.00:  SPP Avg 
 SPPN.psig             5600.00:  SPP Min 
 SPPX.psig             5900.00:  SPP Max 
 STIM.      21.00.00 20-Aug-21:  Start Time 
 SVCS.                 DD, MWD:  Services 
 SVER.                    9.20:  Sperry Version 
 TDAT.m                 957.50:  Tot Depth Attmp 
 TDDF.                      No:  Trip for DD 
 TDLG.m                 957.50:  Tot Depth Loggd 
 TFF .                      No:  Trip for Fail 
 TQAA.f-kp               15.00:  Torque Abs Avg 
 TQAN.f-kp               12.00:  Torque Abs Min 
 TQAX.f-kp               19.00:  Torque Abs Max 
 TRRT.°/30m              -3.40:  Turn Rotating 
 MRT .                  EWR-M5:  Maximum Recorded Temperature 
 TTMX.degC              100.00:  Max Tool Temp 
 VS01.                90639251:  Virtual Str1 SN 
 VS02.                90634715:  Virtual Str2 SN 
 VS03.                90652479:  Virtual Str3 SN 
 VS04.                90642262:  Virtual Str4 SN 
 WBMN.klb                 0.00:  WOB Min 
 WITN.           Murad Guliyev:  Customer Rep 
 WITN.          Yashar Gaziyev:  Customer Rep 2 
 WOBA.klb                 9.00:  WOB Avg 
 WOBX.klb                12.00:  WOB Max 
 YP  .lhf2               30.00:  Yield Point 
~Curve Information Block
#MNEM.UNIT                 API CODE     Curve Description
#---------               -----------    ---------------------------
 TIME.HHMMSS            00 000 000 000:  GT Time & Date
 GTDEPTH.m              00 000 000 000:  GT Depth
 GTPQH.psia             00 000 000 000:  GT HR Quartz Pressure
 GTTQ.degC              00 000 000 000:  GT Quartz Temperature
 GTTN.NONE              00 000 000 000:  GT Test Number
 GTET.sec               00 000 000 000:  GT Elapsed Test Time
 GTTVD.m                00 000 000 000:  GT True Vertical Depth
#Other Information
#
#WARRANTY: Halliburton will use its best efforts to furnish customers with 
#accurate information and interpretations that are part of, and incident to, the services 
#provided.  However, Halliburton cannot and does not warrant the accuracy 
#or correctness of such information and interpretations.  Under no circumstances should any 
#such information or interpretation be relied upon as the sole basis for any drilling, 
#completion, production, or financial decision or any procedure involving any risk to the 
#safety of any drilling venture, drilling rig or its crew or any other third party.  The 
#Customer has full responsibility for all drilling, completion and production operation.  
#Halliburton makes no representations or warranties, either expressed or 
#implied, including, but not limited to, the implied warranties of merchantability or fitness 
#for a particular purpose, with respect to the services rendered.  In no event will 
#Halliburton be liable for failure to obtain any particular results or for 
#any damages, including, but not limited to, indirect, special or consequential damages, 
#resulting from the use of any information or interpretation provided by Halliburton.
#
~A           TIME           GTDEPTH  GTPQH  GTTQ  GTTN  GTET   GTTVD  
# ...
   06:20:51.683.27-Aug-2021 5020.50 8000.54 88.13 2.00 368.06 3358.11
   06:20:51.883.27-Aug-2021 5020.50 8000.54 88.13 2.00 368.26 3358.11
   06:20:52.083.27-Aug-2021 5020.50 8002.31 88.13 2.00 368.46 3358.11
   06:20:52.283.27-Aug-2021 5020.50 8002.88 88.13 2.00 368.66 3358.11
   06:20:52.483.27-Aug-2021 5020.50 8002.42 88.13 2.00 368.86 3358.11
   06:20:52.683.27-Aug-2021 5020.50 8002.06 88.13 2.00 369.06 3358.11
   06:20:52.883.27-Aug-2021 5020.50 8002.06 88.13 2.00 369.26 3358.11
   06:20:53.083.27-Aug-2021 5020.50 8001.42 88.13 2.00 369.46 3358.11
   06:20:53.283.27-Aug-2021 5020.50 8003.95 88.13 2.00 369.66 3358.11
   06:20:53.483.27-Aug-2021 5020.50 8003.61 88.13 2.00 369.86 3358.11
   06:20:53.683.27-Aug-2021 5020.50 8002.30 88.13 2.00 370.06 3358.11
   06:20:53.883.27-Aug-2021 5020.50 8002.30 88.13 2.00 370.26 3358.11
   06:20:54.083.27-Aug-2021 5020.50 8000.52 88.13 2.00 370.46 3358.11
   06:20:54.283.27-Aug-2021 5020.50 7999.54 88.13 2.00 370.66 3358.11
   06:20:54.483.27-Aug-2021 5020.50 8001.37 88.13 2.00 370.86 3358.11
   06:20:54.683.27-Aug-2021 5020.50 8000.56 88.13 2.00 371.06 3358.11
   06:20:54.883.27-Aug-2021 5020.50 8000.56 88.13 2.00 371.26 3358.11
   06:20:55.083.27-Aug-2021 5020.50 8000.27 88.13 2.00 371.46 3358.11
   06:20:55.283.27-Aug-2021 5020.50 8003.05 88.13 2.00 371.66 3358.11
   06:20:55.483.27-Aug-2021 5020.50 8003.43 88.13 2.00 371.86 3358.11
   06:20:55.683.27-Aug-2021 5020.50 8002.84 88.13 2.00 372.06 3358.11
   06:20:55.884.27-Aug-2021 5020.50 8002.84 88.13 2.00 372.26 3358.11
   06:20:56.084.27-Aug-2021 5020.50 8003.95 88.13 2.00 372.46 3358.11
   06:20:56.284.27-Aug-2021 5020.50 8003.99 88.13 2.00 372.66 3358.11
   06:20:56.484.27-Aug-2021 5020.50 8003.61 88.13 2.00 372.86 3358.11
   06:20:56.684.27-Aug-2021 5020.50 8000.53 88.13 2.00 373.06 3358.11
   06:20:56.884.27-Aug-2021 5020.50 8000.53 88.13 2.00 373.26 3358.11
   06:20:57.084.27-Aug-2021 5020.50 8001.76 88.13 2.00 373.46 3358.11
   06:20:57.284.27-Aug-2021 5020.50 8000.92 88.13 2.00 373.66 3358.11
   06:20:57.484.27-Aug-2021 5020.50 8000.90 88.13 2.00 373.86 3358.11
   06:20:57.684.27-Aug-2021 5020.50 8001.53 88.13 2.00 374.06 3358.11
   06:20:57.884.27-Aug-2021 5020.50 8001.53 88.13 2.00 374.26 3358.11
   06:20:58.084.27-Aug-2021 5020.50 8001.29 88.13 2.00 374.46 3358.11
   06:20:58.284.27-Aug-2021 5020.50 8002.54 88.13 2.00 374.66 3358.11
   06:20:58.484.27-Aug-2021 5020.50 8002.54 88.13 2.00 374.86 3358.11
   06:20:58.684.27-Aug-2021 5020.50 8002.74 88.13 2.00 375.06 3358.11
   06:20:58.884.27-Aug-2021 5020.50 8002.74 88.13 2.00 375.26 3358.11
   06:20:59.084.27-Aug-2021 5020.50 8001.94 88.13 2.00 375.46 3358.11
   06:20:59.284.27-Aug-2021 5020.50 8001.85 88.13 2.00 375.66 3358.11
   06:20:59.484.27-Aug-2021 5020.50 8005.31 88.13 2.00 375.86 3358.11
   06:20:59.684.27-Aug-2021 5020.50 8003.69 88.13 2.00 376.06 3358.11
   06:20:59.884.27-Aug-2021 5020.50 8003.69 88.13 2.00 376.26 3358.11
   06:21:00.084.27-Aug-2021 5020.50 8001.52 88.13 2.00 376.46 3358.11
   06:21:00.284.27-Aug-2021 5020.50 8000.79 88.13 2.00 376.66 3358.11
   06:21:00.484.27-Aug-2021 5020.50 8001.48 88.13 2.00 376.86 3358.11
   06:21:00.684.27-Aug-2021 5020.50 8000.56 88.13 2.00 377.06 3358.11
   06:21:00.884.27-Aug-2021 5020.50 8000.56 88.13 2.00 377.26 3358.11
   06:21:01.084.27-Aug-2021 5020.50 8000.72 88.13 2.00 377.46 3358.11
   06:21:01.284.27-Aug-2021 5020.50 8000.74 88.13 2.00 377.66 3358.11
   06:21:01.484.27-Aug-2021 5020.50 8002.06 88.13 2.00 377.86 3358.11
   06:21:01.684.27-Aug-2021 5020.50 8002.42 88.13 2.00 378.06 3358.11
   06:21:01.884.27-Aug-2021 5020.50 8002.42 88.13 2.00 378.26 3358.11
   06:21:02.085.27-Aug-2021 5020.50 8002.29 88.13 2.00 378.46 3358.11
   06:21:02.285.27-Aug-2021 5020.50 8002.06 88.13 2.00 378.66 3358.11
   06:21:02.485.27-Aug-2021 5020.50 8001.94 88.13 2.00 378.86 3358.11
   06:21:02.685.27-Aug-2021 5020.50 8001.75 88.13 2.00 379.06 3358.11
   06:21:02.885.27-Aug-2021 5020.50 8001.75 88.13 2.00 379.26 3358.11
   06:21:03.085.27-Aug-2021 5020.50 8000.22 88.13 2.00 379.46 3358.11
   06:21:03.285.27-Aug-2021 5020.50 8001.09 88.13 2.00 379.66 3358.11
   06:21:03.485.27-Aug-2021 5020.50 8000.81 88.12 2.00 379.86 3358.11
   06:21:03.685.27-Aug-2021 5020.50 8004.86 88.12 2.00 380.06 3358.11
   06:21:03.885.27-Aug-2021 5020.50 8004.86 88.12 2.00 380.26 3358.11
   06:21:04.085.27-Aug-2021 5020.50 8000.32 88.13 2.00 380.46 3358.11
   06:21:04.285.27-Aug-2021 5020.50 8000.32 88.12 2.00 380.66 3358.11
   06:21:04.485.27-Aug-2021 5020.50 7999.85 88.12 2.00 380.86 3358.11
   06:21:04.685.27-Aug-2021 5020.50 8007.67 88.12 2.00 381.06 3358.11
   06:21:04.885.27-Aug-2021 5020.50 8007.67 88.12 2.00 381.26 3358.11
   06:21:05.085.27-Aug-2021 5020.50 8001.67 88.12 2.00 381.46 3358.11
   06:21:05.285.27-Aug-2021 5020.50 8000.86 88.12 2.00 381.66 3358.11
   06:21:05.485.27-Aug-2021 5020.50 8001.38 88.12 2.00 381.86 3358.11
   06:21:05.685.27-Aug-2021 5020.50 8005.60 88.12 2.00 382.06 3358.11
   06:21:05.885.27-Aug-2021 5020.50 8005.60 88.12 2.00 382.26 3358.11
   06:21:06.085.27-Aug-2021 5020.50 8000.91 88.12 2.00 382.46 3358.11
   06:21:06.285.27-Aug-2021 5020.50 8001.00 88.12 2.00 382.66 3358.11
   06:21:06.485.27-Aug-2021 5020.50 8000.77 88.12 2.00 382.86 3358.11
   06:21:06.685.27-Aug-2021 5020.50 8001.08 88.12 2.00 383.06 3358.11
   06:21:06.885.27-Aug-2021 5020.50 8001.08 88.12 2.00 383.26 3358.11
   06:21:07.085.27-Aug-2021 5020.50 8001.07 88.12 2.00 383.46 3358.11
   06:21:07.285.27-Aug-2021 5020.50 8000.99 88.12 2.00 383.66 3358.11
   06:21:07.485.27-Aug-2021 5020.50 8001.15 88.12 2.00 383.86 3358.11
   06:21:07.685.27-Aug-2021 5020.50 8001.88 88.12 2.00 384.06 3358.11
   06:21:07.885.27-Aug-2021 5020.50 8001.88 88.12 2.00 384.26 3358.11
   06:21:08.086.27-Aug-2021 5020.50 8002.51 88.12 2.00 384.46 3358.11
   06:21:08.286.27-Aug-2021 5020.50 8002.79 88.12 2.00 384.66 3358.11
   06:21:08.486.27-Aug-2021 5020.50 8001.83 88.12 2.00 384.86 3358.11
   06:21:08.686.27-Aug-2021 5020.50 8002.00 88.12 2.00 385.06 3358.11
   06:21:08.886.27-Aug-2021 5020.50 8002.00 88.12 2.00 385.26 3358.11
   06:21:09.086.27-Aug-2021 5020.50 8000.35 88.12 2.00 385.46 3358.11
   06:21:09.286.27-Aug-2021 5020.50 8001.17 88.12 2.00 385.66 3358.11
   06:21:09.486.27-Aug-2021 5020.50 8001.00 88.12 2.00 385.86 3358.11
   06:21:09.686.27-Aug-2021 5020.50 8001.05 88.12 2.00 386.06 3358.11
   06:21:09.886.27-Aug-2021 5020.50 8001.05 88.12 2.00 386.26 3358.11
   06:21:10.086.27-Aug-2021 5020.50 8001.23 88.12 2.00 386.46 3358.11
   06:21:10.286.27-Aug-2021 5020.50 8000.57 88.12 2.00 386.66 3358.11
   06:21:10.486.27-Aug-2021 5020.50 8001.08 88.12 2.00 386.86 3358.11
   06:21:10.686.27-Aug-2021 5020.50 8000.95 88.12 2.00 387.06 3358.11
   06:21:10.886.27-Aug-2021 5020.50 8000.95 88.12 2.00 387.26 3358.11
   06:21:11.086.27-Aug-2021 5020.50 8002.81 88.12 2.00 387.46 3358.11
   06:21:11.286.27-Aug-2021 5020.50 8002.53 88.12 2.00 387.66 3358.11
   06:21:11.486.27-Aug-2021 5020.50 8002.60 88.12 2.00 387.86 3358.11
   06:21:11.686.27-Aug-2021 5020.50 8001.99 88.12 2.00 388.06 3358.11
   06:21:11.886.27-Aug-2021 5020.50 8001.99 88.12 2.00 388.26 3358.11
   06:21:12.086.27-Aug-2021 5020.50 8001.66 88.12 2.00 388.46 3358.11
   06:21:12.286.27-Aug-2021 5020.50 8008.62 88.12 2.00 388.66 3358.11
   06:21:12.486.27-Aug-2021 5020.50 8000.31 88.12 2.00 388.86 3358.11
   06:21:12.686.27-Aug-2021 5020.50 8001.20 88.12 2.00 389.06 3358.11
   06:21:12.886.27-Aug-2021 5020.50 8001.20 88.12 2.00 389.26 3358.11
   06:21:13.086.27-Aug-2021 5020.50 8004.71 88.12 2.00 389.46 3358.11
   06:21:13.286.27-Aug-2021 5020.50 8002.75 88.12 2.00 389.66 3358.11
   06:21:13.486.27-Aug-2021 5020.50 8000.75 88.12 2.00 389.86 3358.11
   06:21:13.686.27-Aug-2021 5020.50 8000.53 88.12 2.00 390.06 3358.11
   06:21:13.886.27-Aug-2021 5020.50 8000.53 88.12 2.00 390.26 3358.11
   06:21:14.086.27-Aug-2021 5020.50 8002.69 88.12 2.00 390.46 3358.11
   06:21:14.287.27-Aug-2021 5020.50 8002.87 88.12 2.00 390.66 3358.11
   06:21:14.487.27-Aug-2021 5020.50 8002.45 88.12 2.00 390.86 3358.11
