~Version Information
 VERS.                  2.0:   CWLS log ASCII Standard -VERSION 2.0
 WRAP.                   NO:   One line per depth step
~Well Information Block
#MNEM.UNIT     VALUE/NAME     DESCRIPTION
#---------     -----------    ---------------------------
 STRT.S             21:02:56 27-Aug-21: START TIME 21:02:56 27-Aug-21
 STOP.S             21:10:06 27-Aug-21: STOP TIME  21:10:06 27-Aug-21
 STEP.S                   0.00: STEP TIME
 NULL.                 -999.25: NULL VALUE
 DFWT.                        :  DIST FWL TEXT
 DFST.                        :  DIST FSL TEXT
 DMF .             Drill Floor:  DRILL MEAS FROM
 STIM.      20.00.00 17-Aug-21:  START TIME
 DATE.      19.00.00 29-Aug-21:  END TIME
 SPUD.               15-Aug-21:  SPUD DATE
 NREF.                    Grid:  NORTH REFERENCE
 HPTY.       Minimum Curvature:  HOLE POS TYPE
 DMOD.             Drill Model:  DRILL MOD DESC
 SVYD.                  Survey:  SURVEY DESC
 ILTD.               Lithology:  INTERP LTH DESC
 FTOP.          Formation Tops:  FORM TOPS DESC
 RIG .              East Azeri:  RIG NAME
 PDAT.          Mean Sea Level:  PERMANENT DATUM
 FLD .                     ACG:  FIELD NAME
 SON .        AZ-XX-0907180857:  JOB NUMBER
 CTRY.              Azerbaijan:  COUNTRY NAME
 WELL.                    D23x:  WELL NAME
 SRVC.     Turan Drilling and Engineering:  CONTRACTOR
 COMP.     BP Exploration (Caspian Sea) Ltd.:  COMPANY
 UWI .            /AZE00000214:  UNIQUE WELL IDENTIFIER
 API .            /AZE00000214:  API NUMBER
 MDS .        Operator Entered:  MAG DATA SOURCE
 BASE.              Azerbaijan:  LOGGING EQUIPMENT BASE LOCATION
 REGN.                   EESSA:  REGION
 PROV.                    Baku:  PROVINCE
 STAT.                    Baku:  STATE NAME
 MWDS.                    Baku:  MWD SHOP
 DOE .                     N/A:  DOE NUMBER
 DCON.         Sperry Drilling:  DIRECTNL CONTR
 UNIT.                     N/A:  LOGGING EQUIPMENT ID
 WTYP.                Deviated:  WELL TYPE
 CNTY.                        :  COUNTY
 LOC .                        :  LOCATION
 LMF .             Drill Floor:  LOG MEASURED FROM
 TVDS.m                  43.60:  TVDSS CORRECTN
 LATI.deg                40.02:  LATITUDE
 LONG.deg                51.45:  LONGITUDE
 WHNS.m                  -7.04:  WELL HEAD N/S
 WHEW.m                  -0.67:  WELL HEAD E/W
 UTMX.m              538762.90:  UTM X
 UTMY.m             4431871.34:  UTM Y
 DFWL.m                   0.00:  DISTANCE FWL
 DFSL.m                   0.00:  DISTANCE FSL
 SDEP.m                4127.00:  START DEPTH
 TDD .m                5084.50:  TOTAL DEPTH (DRILLER)
 VSDR.deg               140.47:  VERT SEC DIRECT
 GVFD.g                   1.00:  GRAVITY FIELD
 MFLD.nT              50362.00:  MAGNETIC FIELD
 MDIP.deg                59.48:  MAGNETIC DIP
 MDEC.deg                 6.47:  MAGNETIC DECL
 GRDC.deg                 0.31:  GRID CORRECTION
 AZTC.deg                 6.16:  AZM TOTAL CORR
 EPD .m                   0.00:  ELEVATION
 EGL .m                   0.00:  GROUND ELEVATION
 WDMS.m                 151.80:  WD ELEV
 APD .m                  43.60:  DEPTH ABOVE PD
 DEP .m                4092.57:  DEPTH
 AGAP.m                  43.60:  AIR GAP
 VSEW.m                  -0.67:  VERT SEC E/W
 VSNS.m                  -7.04:  VERT SEC N/S
 EKB .m                  43.60:  KB ELEVATION
 EDF .m                  43.60:  DF ELEVATION
 TDL .m                 957.50:  TOTAL DEPTH (LOGGER)
 VSC .                       0:  VS TO CLOSURE
 MAGU.                 1851413:  MAGUTM CHECKSUM
~Parameter Information Block
#MNEM.UNIT       Value        Description
#---------     -----------    ---------------------------
 AV  .mps                 1.50:  Ann Velocity 
 AVMX.mps                 2.00:  Max Ann Veloc 
 AZIF.deg               184.66:  Azm, Final 
 BHAT.        Rotary Steerable:  BHA Type 
 BREV.rev               300.00:  Rev Bit Total 
 BROT.°/30m              -0.50:  Build Rotating 
 BS  .in                  8.50:  Bit Size 
 BSZ .in                  8.50:  Bit Size 
 BTPL.psig              370.00:  Bit Press Loss 
 CABU.                      No:  Customer Abuse 
 CGEO.      Behruz Shahbaliyev:  Customer Geo 
 COMM.                     <]h:  Run Comments 1 
 TCS .hr                140.08:  Time Ciculation Ended 
 CV  .mps                 3.00:  Crit Velocity 
 CVMX.mps                 3.20:  Max Crit Veloc 
 DD1 .            Musa Ahmadov:  Direct Drillr 1 
 DD2 .           Hamid Ahmadov:  Direct Drillr 2 
 DDSV.               Geo-Pilot:  DD Service 
 DEFF.%                  98.40:  % Det Eff 
 DLRX.°/30m               3.40:  Dogleg Rot Max 
 DLSO.°/30m               1.45:  Dogleg Oriented 
 DLSX.°/30m               3.40:  Dogleg Str Max 
 DRET.      18.40.00 29-Aug-21:  Drill End Time 
 DRST.      21.00.00 20-Aug-21:  Drill Start Tim 
 DTIM.hr                 69.47:  Time Drilling 
 EDEP.m                5084.50:  End Depth 
 ENG1.      Artemiy Matviyanov:  Engineer 1 
 ENG2.         Almaz Almadatov:  Engineer 2 
 ETIM.      18.40.00 29-Aug-21:  End Time 
 FLOI.gpm               500.00:  Flow In 
 FLON.gpm               400.00:  Flow In Min 
 FLOS.cptm                0.00:  Fluid Loss 
 FLOX.gpm               500.00:  Flow In Max 
 DFT .        Mineral Oil Base:  Mud Type 
 HFLO.                      No:  High Flow 
 HPRE.                      No:  High Pressure 
 HTEM.                      No:  High Temp 
 HYDO.m                   1.80:  Hydro Offset 
 IFIN.deg                25.62:  Inc, Final 
 IMAX.deg                48.69:  Inc Max 
 IMIN.deg                24.01:  Inc Min 
 IMND.m                4962.57:  Inc Min Depth 
 IMXD.m                4119.01:  Inc Max Depth 
 JARR.                      No:  Jarring 
 LETM.      18.40.00 29-Aug-21:  Log End Time 
 LOST.hr                     0:  Lost Rig Time 
 LSTM.      21.00.00 20-Aug-21:  Log Start Time 
 MDCL.ppm             41500.00:  Mud Chlorides 
 MDES.     Inversion Oil/Synthetic:  Mud Desc 
 DFD .sg                  1.56:  Mud Density 
 MDMN.sg                  1.56:  Dens Mud Min 
 MDMX.sg                  1.56:  Dens Mud Max 
 MOIL.                      70:  Run Mud Oil % 
 MOWR.                   70:30:  Run Mud OWR 
 MSND.                     0.2:  Run Mud Sand % 
 MSOL.                    23.3:  Run Mud Solids% 
 DFV .spqt               78.00:  Mud Viscosity 
 MWOD.in                  6.75:  MWD Tool OD 
 MWSI.                      No:  Serv Intrp, MWD 
 OTIM.hr                218.30:  Time Operating 
 PCON.           Look Like New:  Pad Condition 
 PMAX.psia            11015.30:  Press Op, Max 
 PV  .cP                 38.00:  Mud PV 
 RUN .                     300:  Run Number 
 ROPA.m/hr               15.00:  ROP Avg 
 ROPN.m/hr                9.00:  ROP Min 
 ROPX.m/hr               17.00:  ROP Max 
 RPMA.rpm               120.00:  RPM Surface Avg 
 RPMN.rpm                90.00:  RPM Surface Min 
 RPMX.rpm               140.00:  RPM Surface Max 
 RRUN.                     300:  Rig Run Number 
 RTIM.hr                 31.53:  Time Reaming 
 SAZI.deg               331.64:  Azm, Start 
 SDEP.m                4127.00:  Start Depth 
 SIDD.                      No:  Serv Intrp, DD 
 SINC.deg                48.43:  Inc, Start 
 SPPA.psig             5830.00:  SPP Avg 
 SPPN.psig             5600.00:  SPP Min 
 SPPX.psig             5900.00:  SPP Max 
 STIM.      21.00.00 20-Aug-21:  Start Time 
 SVCS.                 DD, MWD:  Services 
 SVER.                    9.20:  Sperry Version 
 TDAT.m                 957.50:  Tot Depth Attmp 
 TDDF.                      No:  Trip for DD 
 TDLG.m                 957.50:  Tot Depth Loggd 
 TFF .                      No:  Trip for Fail 
 TQAA.f-kp               15.00:  Torque Abs Avg 
 TQAN.f-kp               12.00:  Torque Abs Min 
 TQAX.f-kp               19.00:  Torque Abs Max 
 TRRT.°/30m              -3.40:  Turn Rotating 
 MRT .                  EWR-M5:  Maximum Recorded Temperature 
 TTMX.degC              100.00:  Max Tool Temp 
 VS01.                90639251:  Virtual Str1 SN 
 VS02.                90634715:  Virtual Str2 SN 
 VS03.                90652479:  Virtual Str3 SN 
 VS04.                90642262:  Virtual Str4 SN 
 WBMN.klb                 0.00:  WOB Min 
 WITN.           Murad Guliyev:  Customer Rep 
 WITN.          Yashar Gaziyev:  Customer Rep 2 
 WOBA.klb                 9.00:  WOB Avg 
 WOBX.klb                12.00:  WOB Max 
 YP  .lhf2               30.00:  Yield Point 
~Curve Information Block
#MNEM.UNIT                 API CODE     Curve Description
#---------               -----------    ---------------------------
 TIME.HHMMSS            00 000 000 000:  GT Time & Date
 GTDEPTH.m              00 000 000 000:  GT Depth
 GTPQH.psia             00 000 000 000:  GT HR Quartz Pressure
 GTTQ.degC              00 000 000 000:  GT Quartz Temperature
 GTTN.NONE              00 000 000 000:  GT Test Number
 GTET.sec               00 000 000 000:  GT Elapsed Test Time
 GTTVD.m                00 000 000 000:  GT True Vertical Depth
#Other Information
#
#WARRANTY: Halliburton will use its best efforts to furnish customers with 
#accurate information and interpretations that are part of, and incident to, the services 
#provided.  However, Halliburton cannot and does not warrant the accuracy 
#or correctness of such information and interpretations.  Under no circumstances should any 
#such information or interpretation be relied upon as the sole basis for any drilling, 
#completion, production, or financial decision or any procedure involving any risk to the 
#safety of any drilling venture, drilling rig or its crew or any other third party.  The 
#Customer has full responsibility for all drilling, completion and production operation.  
#Halliburton makes no representations or warranties, either expressed or 
#implied, including, but not limited to, the implied warranties of merchantability or fitness 
#for a particular purpose, with respect to the services rendered.  In no event will 
#Halliburton be liable for failure to obtain any particular results or for 
#any damages, including, but not limited to, indirect, special or consequential damages, 
#resulting from the use of any information or interpretation provided by Halliburton.
#
~A           TIME           GTDEPTH  GTPQH  GTTQ  GTTN   GTET   GTTVD  
# ...
   21:04:49.134.27-Aug-2021 4647.50 4518.24 82.37 22.00 113.01 3019.99
   21:04:49.334.27-Aug-2021 4647.50 4518.24 82.37 22.00 113.21 3019.99
   21:04:49.534.27-Aug-2021 4647.50 4518.27 82.37 22.00 113.41 3019.99
   21:04:49.734.27-Aug-2021 4647.50 4518.30 82.37 22.00 113.61 3019.99
   21:04:49.934.27-Aug-2021 4647.50 4518.23 82.37 22.00 113.81 3019.99
   21:04:50.134.27-Aug-2021 4647.50 4518.19 82.37 22.00 114.01 3019.99
   21:04:50.334.27-Aug-2021 4647.50 4518.19 82.37 22.00 114.21 3019.99
   21:04:50.534.27-Aug-2021 4647.50 4518.18 82.37 22.00 114.41 3019.99
   21:04:50.734.27-Aug-2021 4647.50 4518.24 82.37 22.00 114.61 3019.99
   21:04:50.934.27-Aug-2021 4647.50 4518.16 82.37 22.00 114.81 3019.99
   21:04:51.134.27-Aug-2021 4647.50 4517.91 82.37 22.00 115.01 3019.99
   21:04:51.334.27-Aug-2021 4647.50 4517.91 82.37 22.00 115.21 3019.99
   21:04:51.534.27-Aug-2021 4647.50 4518.21 82.37 22.00 115.41 3019.99
   21:04:51.734.27-Aug-2021 4647.50 4518.14 82.37 22.00 115.61 3019.99
   21:04:51.934.27-Aug-2021 4647.50 4518.17 82.37 22.00 115.81 3019.99
   21:04:52.134.27-Aug-2021 4647.50 4518.19 82.37 22.00 116.01 3019.99
   21:04:52.334.27-Aug-2021 4647.50 4518.19 82.37 22.00 116.21 3019.99
   21:04:52.534.27-Aug-2021 4647.50 4518.23 82.37 22.00 116.41 3019.99
   21:04:52.734.27-Aug-2021 4647.50 4518.22 82.37 22.00 116.61 3019.99
   21:04:52.934.27-Aug-2021 4647.50 4518.22 82.37 22.00 116.81 3019.99
   21:04:53.134.27-Aug-2021 4647.50 4518.24 82.37 22.00 117.01 3019.99
   21:04:53.334.27-Aug-2021 4647.50 4518.24 82.37 22.00 117.21 3019.99
   21:04:53.534.27-Aug-2021 4647.50 4518.29 82.37 22.00 117.41 3019.99
   21:04:53.734.27-Aug-2021 4647.50 4518.28 82.37 22.00 117.61 3019.99
   21:04:53.934.27-Aug-2021 4647.50 4518.30 82.37 22.00 117.81 3019.99
   21:04:54.134.27-Aug-2021 4647.50 4518.31 82.37 22.00 118.01 3019.99
   21:04:54.334.27-Aug-2021 4647.50 4518.31 82.37 22.00 118.21 3019.99
   21:04:54.534.27-Aug-2021 4647.50 4518.23 82.37 22.00 118.41 3019.99
   21:04:54.734.27-Aug-2021 4647.50 4518.20 82.37 22.00 118.61 3019.99
   21:04:54.934.27-Aug-2021 4647.50 4518.18 82.37 22.00 118.81 3019.99
   21:04:55.134.27-Aug-2021 4647.50 4518.20 82.37 22.00 119.01 3019.99
   21:04:55.334.27-Aug-2021 4647.50 4518.20 82.37 22.00 119.21 3019.99
   21:04:55.534.27-Aug-2021 4647.50 4518.24 82.37 22.00 119.41 3019.99
   21:04:55.735.27-Aug-2021 4647.50 4518.24 82.37 22.00 119.61 3019.99
   21:04:55.935.27-Aug-2021 4647.50 4518.27 82.37 22.00 119.81 3019.99
   21:04:56.135.27-Aug-2021 4647.50 4518.26 82.37 22.00 120.01 3019.99
   21:04:56.335.27-Aug-2021 4647.50 4518.26 82.37 22.00 120.21 3019.99
   21:04:56.535.27-Aug-2021 4647.50 4518.32 82.37 22.00 120.41 3019.99
   21:04:56.735.27-Aug-2021 4647.50 4518.31 82.37 22.00 120.61 3019.99
   21:04:56.935.27-Aug-2021 4647.50 4518.32 82.37 22.00 120.81 3019.99
   21:04:57.135.27-Aug-2021 4647.50 4518.34 82.37 22.00 121.01 3019.99
   21:04:57.335.27-Aug-2021 4647.50 4518.34 82.37 22.00 121.21 3019.99
   21:04:57.535.27-Aug-2021 4647.50 4518.26 82.37 22.00 121.41 3019.99
   21:04:57.735.27-Aug-2021 4647.50 4518.33 82.37 22.00 121.61 3019.99
   21:04:57.935.27-Aug-2021 4647.50 4518.27 82.37 22.00 121.81 3019.99
   21:04:58.135.27-Aug-2021 4647.50 4518.22 82.37 22.00 122.01 3019.99
   21:04:58.335.27-Aug-2021 4647.50 4518.22 82.37 22.00 122.21 3019.99
   21:04:58.535.27-Aug-2021 4647.50 4518.23 82.37 22.00 122.41 3019.99
   21:04:58.735.27-Aug-2021 4647.50 4518.26 82.37 22.00 122.61 3019.99
   21:04:58.935.27-Aug-2021 4647.50 4518.02 82.37 22.00 122.81 3019.99
   21:04:59.135.27-Aug-2021 4647.50 4518.45 82.37 22.00 123.01 3019.99
   21:04:59.335.27-Aug-2021 4647.50 4518.45 82.37 22.00 123.21 3019.99
   21:04:59.535.27-Aug-2021 4647.50 4518.23 82.37 22.00 123.41 3019.99
   21:04:59.735.27-Aug-2021 4647.50 4517.96 82.37 22.00 123.61 3019.99
   21:04:59.935.27-Aug-2021 4647.50 4518.49 82.37 22.00 123.81 3019.99
   21:05:00.135.27-Aug-2021 4647.50 4518.16 82.37 22.00 124.01 3019.99
   21:05:00.335.27-Aug-2021 4647.50 4518.16 82.37 22.00 124.21 3019.99
   21:05:00.535.27-Aug-2021 4647.50 4518.24 82.37 22.00 124.41 3019.99
   21:05:00.735.27-Aug-2021 4647.50 4518.21 82.37 22.00 124.61 3019.99
   21:05:00.935.27-Aug-2021 4647.50 4518.17 82.37 22.00 124.81 3019.99
   21:05:01.135.27-Aug-2021 4647.50 4518.20 82.37 22.00 125.01 3019.99
   21:05:01.335.27-Aug-2021 4647.50 4518.20 82.37 22.00 125.21 3019.99
   21:05:01.535.27-Aug-2021 4647.50 4518.21 82.37 22.00 125.41 3019.99
   21:05:01.735.27-Aug-2021 4647.50 4518.22 82.37 22.00 125.61 3019.99
   21:05:01.935.27-Aug-2021 4647.50 4518.25 82.37 22.00 125.81 3019.99
   21:05:02.135.27-Aug-2021 4647.50 4518.25 82.37 22.00 126.01 3019.99
   21:05:02.335.27-Aug-2021 4647.50 4518.25 82.37 22.00 126.21 3019.99
   21:05:02.535.27-Aug-2021 4647.50 4518.27 82.37 22.00 126.41 3019.99
   21:05:02.735.27-Aug-2021 4647.50 4518.29 82.37 22.00 126.61 3019.99
   21:05:02.935.27-Aug-2021 4647.50 4518.30 82.37 22.00 126.81 3019.99
   21:05:03.135.27-Aug-2021 4647.50 4518.32 82.37 22.00 127.01 3019.99
   21:05:03.335.27-Aug-2021 4647.50 4518.32 82.37 22.00 127.21 3019.99
   21:05:03.535.27-Aug-2021 4647.50 4518.06 82.37 22.00 127.41 3019.99
   21:05:03.735.27-Aug-2021 4647.50 4518.52 82.37 22.00 127.61 3019.99
   21:05:03.935.27-Aug-2021 4647.50 4518.24 82.37 22.00 127.81 3019.99
   21:05:04.135.27-Aug-2021 4647.50 4518.25 82.37 22.00 128.01 3019.99
   21:05:04.335.27-Aug-2021 4647.50 4518.25 82.37 22.00 128.21 3019.99
   21:05:04.535.27-Aug-2021 4647.50 4518.25 82.37 22.00 128.41 3019.99
   21:05:04.735.27-Aug-2021 4647.50 4518.25 82.37 22.00 128.61 3019.99
   21:05:04.935.27-Aug-2021 4647.50 4518.29 82.37 22.00 128.81 3019.99
   21:05:05.135.27-Aug-2021 4647.50 4518.30 82.37 22.00 129.01 3019.99
   21:05:05.335.27-Aug-2021 4647.50 4518.30 82.37 22.00 129.21 3019.99
   21:05:05.536.27-Aug-2021 4647.50 4518.30 82.37 22.00 129.41 3019.99
   21:05:05.736.27-Aug-2021 4647.50 4518.33 82.37 22.00 129.61 3019.99
   21:05:05.936.27-Aug-2021 4647.50 4518.35 82.37 22.00 129.81 3019.99
   21:05:06.136.27-Aug-2021 4647.50 4518.34 82.37 22.00 130.01 3019.99
   21:05:06.336.27-Aug-2021 4647.50 4518.34 82.37 22.00 130.21 3019.99
   21:05:06.536.27-Aug-2021 4647.50 4518.35 82.37 22.00 130.41 3019.99
   21:05:06.736.27-Aug-2021 4647.50 4518.38 82.37 22.00 130.61 3019.99
   21:05:06.936.27-Aug-2021 4647.50 4518.18 82.37 22.00 130.81 3019.99
   21:05:07.136.27-Aug-2021 4647.50 4518.44 82.37 22.00 131.01 3019.99
   21:05:07.336.27-Aug-2021 4647.50 4518.44 82.37 22.00 131.21 3019.99
   21:05:07.536.27-Aug-2021 4647.50 4518.25 82.37 22.00 131.41 3019.99
   21:05:07.736.27-Aug-2021 4647.50 4518.30 82.37 22.00 131.61 3019.99
   21:05:07.936.27-Aug-2021 4647.50 4518.30 82.37 22.00 131.81 3019.99
   21:05:08.136.27-Aug-2021 4647.50 4518.26 82.37 22.00 132.01 3019.99
   21:05:08.336.27-Aug-2021 4647.50 4518.26 82.37 22.00 132.21 3019.99
   21:05:08.536.27-Aug-2021 4647.50 4518.28 82.37 22.00 132.41 3019.99
   21:05:08.736.27-Aug-2021 4647.50 4518.29 82.37 22.00 132.61 3019.99
   21:05:08.936.27-Aug-2021 4647.50 4518.27 82.37 22.00 132.81 3019.99
   21:05:09.136.27-Aug-2021 4647.50 4518.23 82.37 22.00 133.01 3019.99
   21:05:09.336.27-Aug-2021 4647.50 4518.23 82.37 22.00 133.21 3019.99
   21:05:09.536.27-Aug-2021 4647.50 4518.25 82.37 22.00 133.41 3019.99
   21:05:09.736.27-Aug-2021 4647.50 4518.02 82.37 22.00 133.61 3019.99
   21:05:09.936.27-Aug-2021 4647.50 4518.46 82.37 22.00 133.81 3019.99
   21:05:10.136.27-Aug-2021 4647.50 4518.27 82.37 22.00 134.01 3019.99
   21:05:10.336.27-Aug-2021 4647.50 4518.27 82.37 22.00 134.21 3019.99
   21:05:10.536.27-Aug-2021 4647.50 4518.27 82.37 22.00 134.41 3019.99
   21:05:10.736.27-Aug-2021 4647.50 4518.26 82.37 22.00 134.61 3019.99
   21:05:10.936.27-Aug-2021 4647.50 4518.21 82.37 22.00 134.81 3019.99
   21:05:11.136.27-Aug-2021 4647.50 4518.28 82.37 22.00 135.01 3019.99
   21:05:11.336.27-Aug-2021 4647.50 4518.28 82.37 22.00 135.21 3019.99
   21:05:11.536.27-Aug-2021 4647.50 4518.26 82.37 22.00 135.41 3019.99
