~Version Information
 VERS.                  2.0:   CWLS log ASCII Standard -VERSION 2.0
 WRAP.                   NO:   One line per depth step
~Well Information Block
#MNEM.UNIT     VALUE/NAME     DESCRIPTION
#---------     -----------    ---------------------------
 STRT.S             08:51:30 27-Aug-21: START TIME 08:51:30 27-Aug-21
 STOP.S             08:58:20 27-Aug-21: STOP TIME  08:58:20 27-Aug-21
 STEP.S                   0.00: STEP TIME
 NULL.                 -999.25: NULL VALUE
 DFWT.                        :  DIST FWL TEXT
 DFST.                        :  DIST FSL TEXT
 DMF .             Drill Floor:  DRILL MEAS FROM
 STIM.      20.00.00 17-Aug-21:  START TIME
 DATE.      19.00.00 29-Aug-21:  END TIME
 SPUD.               15-Aug-21:  SPUD DATE
 NREF.                    Grid:  NORTH REFERENCE
 HPTY.       Minimum Curvature:  HOLE POS TYPE
 DMOD.             Drill Model:  DRILL MOD DESC
 SVYD.                  Survey:  SURVEY DESC
 ILTD.               Lithology:  INTERP LTH DESC
 FTOP.          Formation Tops:  FORM TOPS DESC
 RIG .              East Azeri:  RIG NAME
 PDAT.          Mean Sea Level:  PERMANENT DATUM
 FLD .                     ACG:  FIELD NAME
 SON .        AZ-XX-0907180857:  JOB NUMBER
 CTRY.              Azerbaijan:  COUNTRY NAME
 WELL.                    D23x:  WELL NAME
 SRVC.     Turan Drilling and Engineering:  CONTRACTOR
 COMP.     BP Exploration (Caspian Sea) Ltd.:  COMPANY
 UWI .            /AZE00000214:  UNIQUE WELL IDENTIFIER
 API .            /AZE00000214:  API NUMBER
 MDS .        Operator Entered:  MAG DATA SOURCE
 BASE.              Azerbaijan:  LOGGING EQUIPMENT BASE LOCATION
 REGN.                   EESSA:  REGION
 PROV.                    Baku:  PROVINCE
 STAT.                    Baku:  STATE NAME
 MWDS.                    Baku:  MWD SHOP
 DOE .                     N/A:  DOE NUMBER
 DCON.         Sperry Drilling:  DIRECTNL CONTR
 UNIT.                     N/A:  LOGGING EQUIPMENT ID
 WTYP.                Deviated:  WELL TYPE
 CNTY.                        :  COUNTY
 LOC .                        :  LOCATION
 LMF .             Drill Floor:  LOG MEASURED FROM
 TVDS.m                  43.60:  TVDSS CORRECTN
 LATI.deg                40.02:  LATITUDE
 LONG.deg                51.45:  LONGITUDE
 WHNS.m                  -7.04:  WELL HEAD N/S
 WHEW.m                  -0.67:  WELL HEAD E/W
 UTMX.m              538762.90:  UTM X
 UTMY.m             4431871.34:  UTM Y
 DFWL.m                   0.00:  DISTANCE FWL
 DFSL.m                   0.00:  DISTANCE FSL
 SDEP.m                4127.00:  START DEPTH
 TDD .m                5084.50:  TOTAL DEPTH (DRILLER)
 VSDR.deg               140.47:  VERT SEC DIRECT
 GVFD.g                   1.00:  GRAVITY FIELD
 MFLD.nT              50362.00:  MAGNETIC FIELD
 MDIP.deg                59.48:  MAGNETIC DIP
 MDEC.deg                 6.47:  MAGNETIC DECL
 GRDC.deg                 0.31:  GRID CORRECTION
 AZTC.deg                 6.16:  AZM TOTAL CORR
 EPD .m                   0.00:  ELEVATION
 EGL .m                   0.00:  GROUND ELEVATION
 WDMS.m                 151.80:  WD ELEV
 APD .m                  43.60:  DEPTH ABOVE PD
 DEP .m                4092.57:  DEPTH
 AGAP.m                  43.60:  AIR GAP
 VSEW.m                  -0.67:  VERT SEC E/W
 VSNS.m                  -7.04:  VERT SEC N/S
 EKB .m                  43.60:  KB ELEVATION
 EDF .m                  43.60:  DF ELEVATION
 TDL .m                 957.50:  TOTAL DEPTH (LOGGER)
 VSC .                       0:  VS TO CLOSURE
 MAGU.                 1851413:  MAGUTM CHECKSUM
~Parameter Information Block
#MNEM.UNIT       Value        Description
#---------     -----------    ---------------------------
 AV  .mps                 1.50:  Ann Velocity 
 AVMX.mps                 2.00:  Max Ann Veloc 
 AZIF.deg               184.66:  Azm, Final 
 BHAT.        Rotary Steerable:  BHA Type 
 BREV.rev               300.00:  Rev Bit Total 
 BROT.°/30m              -0.50:  Build Rotating 
 BS  .in                  8.50:  Bit Size 
 BSZ .in                  8.50:  Bit Size 
 BTPL.psig              370.00:  Bit Press Loss 
 CABU.                      No:  Customer Abuse 
 CGEO.      Behruz Shahbaliyev:  Customer Geo 
 COMM.                     <w:  Run Comments 1 
 TCS .hr                140.08:  Time Ciculation Ended 
 CV  .mps                 3.00:  Crit Velocity 
 CVMX.mps                 3.20:  Max Crit Veloc 
 DD1 .            Musa Ahmadov:  Direct Drillr 1 
 DD2 .           Hamid Ahmadov:  Direct Drillr 2 
 DDSV.               Geo-Pilot:  DD Service 
 DEFF.%                  98.40:  % Det Eff 
 DLRX.°/30m               3.40:  Dogleg Rot Max 
 DLSO.°/30m               1.45:  Dogleg Oriented 
 DLSX.°/30m               3.40:  Dogleg Str Max 
 DRET.      18.40.00 29-Aug-21:  Drill End Time 
 DRST.      21.00.00 20-Aug-21:  Drill Start Tim 
 DTIM.hr                 69.47:  Time Drilling 
 EDEP.m                5084.50:  End Depth 
 ENG1.      Artemiy Matviyanov:  Engineer 1 
 ENG2.         Almaz Almadatov:  Engineer 2 
 ETIM.      18.40.00 29-Aug-21:  End Time 
 FLOI.gpm               500.00:  Flow In 
 FLON.gpm               400.00:  Flow In Min 
 FLOS.cptm                0.00:  Fluid Loss 
 FLOX.gpm               500.00:  Flow In Max 
 DFT .        Mineral Oil Base:  Mud Type 
 HFLO.                      No:  High Flow 
 HPRE.                      No:  High Pressure 
 HTEM.                      No:  High Temp 
 HYDO.m                   1.80:  Hydro Offset 
 IFIN.deg                25.62:  Inc, Final 
 IMAX.deg                48.69:  Inc Max 
 IMIN.deg                24.01:  Inc Min 
 IMND.m                4962.57:  Inc Min Depth 
 IMXD.m                4119.01:  Inc Max Depth 
 JARR.                      No:  Jarring 
 LETM.      18.40.00 29-Aug-21:  Log End Time 
 LOST.hr                     0:  Lost Rig Time 
 LSTM.      21.00.00 20-Aug-21:  Log Start Time 
 MDCL.ppm             41500.00:  Mud Chlorides 
 MDES.     Inversion Oil/Synthetic:  Mud Desc 
 DFD .sg                  1.56:  Mud Density 
 MDMN.sg                  1.56:  Dens Mud Min 
 MDMX.sg                  1.56:  Dens Mud Max 
 MOIL.                      70:  Run Mud Oil % 
 MOWR.                   70:30:  Run Mud OWR 
 MSND.                     0.2:  Run Mud Sand % 
 MSOL.                    23.3:  Run Mud Solids% 
 DFV .spqt               78.00:  Mud Viscosity 
 MWOD.in                  6.75:  MWD Tool OD 
 MWSI.                      No:  Serv Intrp, MWD 
 OTIM.hr                218.30:  Time Operating 
 PCON.           Look Like New:  Pad Condition 
 PMAX.psia            11015.30:  Press Op, Max 
 PV  .cP                 38.00:  Mud PV 
 RUN .                     300:  Run Number 
 ROPA.m/hr               15.00:  ROP Avg 
 ROPN.m/hr                9.00:  ROP Min 
 ROPX.m/hr               17.00:  ROP Max 
 RPMA.rpm               120.00:  RPM Surface Avg 
 RPMN.rpm                90.00:  RPM Surface Min 
 RPMX.rpm               140.00:  RPM Surface Max 
 RRUN.                     300:  Rig Run Number 
 RTIM.hr                 31.53:  Time Reaming 
 SAZI.deg               331.64:  Azm, Start 
 SDEP.m                4127.00:  Start Depth 
 SIDD.                      No:  Serv Intrp, DD 
 SINC.deg                48.43:  Inc, Start 
 SPPA.psig             5830.00:  SPP Avg 
 SPPN.psig             5600.00:  SPP Min 
 SPPX.psig             5900.00:  SPP Max 
 STIM.      21.00.00 20-Aug-21:  Start Time 
 SVCS.                 DD, MWD:  Services 
 SVER.                    9.20:  Sperry Version 
 TDAT.m                 957.50:  Tot Depth Attmp 
 TDDF.                      No:  Trip for DD 
 TDLG.m                 957.50:  Tot Depth Loggd 
 TFF .                      No:  Trip for Fail 
 TQAA.f-kp               15.00:  Torque Abs Avg 
 TQAN.f-kp               12.00:  Torque Abs Min 
 TQAX.f-kp               19.00:  Torque Abs Max 
 TRRT.°/30m              -3.40:  Turn Rotating 
 MRT .                  EWR-M5:  Maximum Recorded Temperature 
 TTMX.degC              100.00:  Max Tool Temp 
 VS01.                90639251:  Virtual Str1 SN 
 VS02.                90634715:  Virtual Str2 SN 
 VS03.                90652479:  Virtual Str3 SN 
 VS04.                90642262:  Virtual Str4 SN 
 WBMN.klb                 0.00:  WOB Min 
 WITN.           Murad Guliyev:  Customer Rep 
 WITN.          Yashar Gaziyev:  Customer Rep 2 
 WOBA.klb                 9.00:  WOB Avg 
 WOBX.klb                12.00:  WOB Max 
 YP  .lhf2               30.00:  Yield Point 
~Curve Information Block
#MNEM.UNIT                 API CODE     Curve Description
#---------               -----------    ---------------------------
 TIME.HHMMSS            00 000 000 000:  GT Time & Date
 GTDEPTH.m              00 000 000 000:  GT Depth
 GTPQH.psia             00 000 000 000:  GT HR Quartz Pressure
 GTTQ.degC              00 000 000 000:  GT Quartz Temperature
 GTTN.NONE              00 000 000 000:  GT Test Number
 GTET.sec               00 000 000 000:  GT Elapsed Test Time
 GTTVD.m                00 000 000 000:  GT True Vertical Depth
#Other Information
#
#WARRANTY: Halliburton will use its best efforts to furnish customers with 
#accurate information and interpretations that are part of, and incident to, the services 
#provided.  However, Halliburton cannot and does not warrant the accuracy 
#or correctness of such information and interpretations.  Under no circumstances should any 
#such information or interpretation be relied upon as the sole basis for any drilling, 
#completion, production, or financial decision or any procedure involving any risk to the 
#safety of any drilling venture, drilling rig or its crew or any other third party.  The 
#Customer has full responsibility for all drilling, completion and production operation.  
#Halliburton makes no representations or warranties, either expressed or 
#implied, including, but not limited to, the implied warranties of merchantability or fitness 
#for a particular purpose, with respect to the services rendered.  In no event will 
#Halliburton be liable for failure to obtain any particular results or for 
#any damages, including, but not limited to, indirect, special or consequential damages, 
#resulting from the use of any information or interpretation provided by Halliburton.
#
~A           TIME           GTDEPTH  GTPQH  GTTQ  GTTN  GTET   GTTVD  
# ...
   08:52:16.443.27-Aug-2021 4965.00 7111.62 86.75 6.00  46.02 3307.85
   08:52:16.643.27-Aug-2021 4965.00 7111.62 86.75 6.00  46.22 3307.85
   08:52:16.843.27-Aug-2021 4965.00 6801.64 86.75 6.00  46.42 3307.85
   08:52:17.043.27-Aug-2021 4965.00 6634.22 86.75 6.00  46.62 3307.85
   08:52:17.243.27-Aug-2021 4965.00 6458.06 86.75 6.00  46.82 3307.85
   08:52:17.443.27-Aug-2021 4965.00 6276.26 86.75 6.00  47.02 3307.85
   08:52:17.643.27-Aug-2021 4965.00 6276.26 86.75 6.00  47.22 3307.85
   08:52:17.843.27-Aug-2021 4965.00 5903.00 86.75 6.00  47.42 3307.85
   08:52:18.044.27-Aug-2021 4965.00 5717.17 86.75 6.00  47.62 3307.85
   08:52:18.244.27-Aug-2021 4965.00 5532.46 86.75 6.00  47.82 3307.85
   08:52:18.444.27-Aug-2021 4965.00 5352.69 86.75 6.00  48.02 3307.85
   08:52:18.644.27-Aug-2021 4965.00 5352.69 86.75 6.00  48.22 3307.85
   08:52:18.844.27-Aug-2021 4965.00 4987.44 86.74 6.00  48.42 3307.85
   08:52:19.044.27-Aug-2021 4965.00 4805.41 86.74 6.00  48.62 3307.85
   08:52:19.244.27-Aug-2021 4965.00 4630.80 86.74 6.00  48.82 3307.85
   08:52:19.444.27-Aug-2021 4965.00 4453.55 86.74 6.00  49.02 3307.85
   08:52:19.644.27-Aug-2021 4965.00 4453.55 86.74 6.00  49.22 3307.85
   08:52:19.844.27-Aug-2021 4965.00 4101.10 86.73 6.00  49.42 3307.85
   08:52:20.044.27-Aug-2021 4965.00 3928.45 86.73 6.00  49.62 3307.85
   08:52:20.244.27-Aug-2021 4965.00 3760.83 86.73 6.00  49.82 3307.85
   08:52:20.445.27-Aug-2021 4965.00 3596.14 86.73 6.00  50.02 3307.85
   08:52:20.645.27-Aug-2021 4965.00 3596.14 86.73 6.00  50.22 3307.85
   08:52:20.845.27-Aug-2021 4965.00 3274.22 86.72 6.00  50.42 3307.85
   08:52:21.045.27-Aug-2021 4965.00 3186.71 86.72 6.00  50.62 3307.85
   08:52:21.245.27-Aug-2021 4965.00 3187.09 86.71 6.00  50.82 3307.85
   08:52:21.445.27-Aug-2021 4965.00 3161.69 86.71 6.00  51.02 3307.85
   08:52:21.645.27-Aug-2021 4965.00 3161.69 86.71 6.00  51.22 3307.85
   08:52:21.845.27-Aug-2021 4965.00 2957.25 86.71 6.00  51.42 3307.85
   08:52:22.045.27-Aug-2021 4965.00 2883.71 86.70 6.00  51.62 3307.85
   08:52:22.245.27-Aug-2021 4965.00 2844.56 86.70 6.00  51.82 3307.85
   08:52:22.445.27-Aug-2021 4965.00 2823.87 86.70 6.00  52.02 3307.85
   08:52:22.645.27-Aug-2021 4965.00 2823.87 86.70 6.00  52.22 3307.85
   08:52:22.846.27-Aug-2021 4965.00 2775.95 86.69 6.00  52.42 3307.85
   08:52:23.046.27-Aug-2021 4965.00 2758.39 86.69 6.00  52.62 3307.85
   08:52:23.246.27-Aug-2021 4965.00 2750.30 86.68 6.00  52.82 3307.85
   08:52:23.446.27-Aug-2021 4965.00 2745.93 86.68 6.00  53.02 3307.85
   08:52:23.646.27-Aug-2021 4965.00 2745.93 86.68 6.00  53.22 3307.85
   08:52:23.846.27-Aug-2021 4965.00 2742.88 86.67 6.00  53.42 3307.85
   08:52:24.046.27-Aug-2021 4965.00 2742.03 86.67 6.00  53.62 3307.85
   08:52:24.246.27-Aug-2021 4965.00 2737.74 86.67 6.00  53.82 3307.85
   08:52:24.446.27-Aug-2021 4965.00 2737.22 86.66 6.00  54.02 3307.85
   08:52:24.646.27-Aug-2021 4965.00 2737.22 86.66 6.00  54.22 3307.85
   08:52:24.846.27-Aug-2021 4965.00 2738.21 86.66 6.00  54.42 3307.85
   08:52:25.046.27-Aug-2021 4965.00 2738.80 86.66 6.00  54.62 3307.85
   08:52:25.247.27-Aug-2021 4965.00 2740.97 86.65 6.00  54.82 3307.85
   08:52:25.447.27-Aug-2021 4965.00 2744.11 86.65 6.00  55.02 3307.85
   08:52:25.647.27-Aug-2021 4965.00 2744.11 86.65 6.00  55.22 3307.85
   08:52:25.847.27-Aug-2021 4965.00 2745.66 86.64 6.00  55.42 3307.85
   08:52:26.047.27-Aug-2021 4965.00 2748.68 86.64 6.00  55.62 3307.85
   08:52:26.247.27-Aug-2021 4965.00 2747.97 86.64 6.00  55.82 3307.85
   08:52:26.447.27-Aug-2021 4965.00 2725.68 86.64 6.00  56.02 3307.85
   08:52:26.647.27-Aug-2021 4965.00 2725.68 86.64 6.00  56.22 3307.85
   08:52:26.847.27-Aug-2021 4965.00 1994.72 86.63 6.00  56.42 3307.85
   08:52:27.047.27-Aug-2021 4965.00 1845.42 86.63 6.00  56.62 3307.85
   08:52:27.247.27-Aug-2021 4965.00 1817.06 86.63 6.00  56.82 3307.85
   08:52:27.447.27-Aug-2021 4965.00 1808.98 86.63 6.00  57.02 3307.85
   08:52:27.648.27-Aug-2021 4965.00 1808.98 86.63 6.00  57.22 3307.85
   08:52:27.848.27-Aug-2021 4965.00 1806.71 86.62 6.00  57.42 3307.85
   08:52:28.048.27-Aug-2021 4965.00 1800.88 86.62 6.00  57.62 3307.85
   08:52:28.248.27-Aug-2021 4965.00 1799.15 86.62 6.00  57.82 3307.85
   08:52:28.448.27-Aug-2021 4965.00 1795.46 86.62 6.00  58.02 3307.85
   08:52:28.648.27-Aug-2021 4965.00 1795.46 86.62 6.00  58.22 3307.85
   08:52:28.848.27-Aug-2021 4965.00 1789.33 86.62 6.00  58.42 3307.85
   08:52:29.048.27-Aug-2021 4965.00 1789.58 86.61 6.00  58.62 3307.85
   08:52:29.248.27-Aug-2021 4965.00 1792.63 86.61 6.00  58.82 3307.85
   08:52:29.448.27-Aug-2021 4965.00 1795.26 86.61 6.00  59.02 3307.85
   08:52:29.648.27-Aug-2021 4965.00 1795.26 86.61 6.00  59.22 3307.85
   08:52:29.848.27-Aug-2021 4965.00 1793.43 86.61 6.00  59.42 3307.85
   08:52:30.049.27-Aug-2021 4965.00 1786.64 86.60 6.00  59.62 3307.85
   08:52:30.249.27-Aug-2021 4965.00 1781.62 86.60 6.00  59.82 3307.85
   08:52:30.449.27-Aug-2021 4965.00 1779.45 86.60 6.00  60.02 3307.85
   08:52:30.649.27-Aug-2021 4965.00 1779.45 86.60 6.00  60.23 3307.85
   08:52:30.849.27-Aug-2021 4965.00 1775.27 86.60 6.00  60.43 3307.85
   08:52:31.049.27-Aug-2021 4965.00 1776.30 86.60 6.00  60.63 3307.85
   08:52:31.249.27-Aug-2021 4965.00 1777.49 86.60 6.00  60.83 3307.85
   08:52:31.449.27-Aug-2021 4965.00 1776.12 86.59 6.00  61.03 3307.85
   08:52:31.649.27-Aug-2021 4965.00 1776.12 86.59 6.00  61.23 3307.85
   08:52:31.849.27-Aug-2021 4965.00 1769.87 86.59 6.00  61.43 3307.85
   08:52:32.049.27-Aug-2021 4965.00 1764.34 86.59 6.00  61.63 3307.85
   08:52:32.249.27-Aug-2021 4965.00 1764.13 86.59 6.00  61.83 3307.85
   08:52:32.450.27-Aug-2021 4965.00 1767.49 86.59 6.00  62.03 3307.85
   08:52:32.650.27-Aug-2021 4965.00 1767.49 86.59 6.00  62.23 3307.85
   08:52:32.850.27-Aug-2021 4965.00 1773.73 86.59 6.00  62.43 3307.85
   08:52:33.050.27-Aug-2021 4965.00 1776.11 86.59 6.00  62.63 3307.85
   08:52:33.250.27-Aug-2021 4965.00 1777.77 86.59 6.00  62.83 3307.85
   08:52:33.450.27-Aug-2021 4965.00 1778.30 86.59 6.00  63.03 3307.85
   08:52:33.650.27-Aug-2021 4965.00 1778.30 86.59 6.00  63.23 3307.85
   08:52:33.850.27-Aug-2021 4965.00 1779.82 86.58 6.00  63.43 3307.85
   08:52:34.050.27-Aug-2021 4965.00 1781.43 86.58 6.00  63.63 3307.85
   08:52:34.250.27-Aug-2021 4965.00 1782.10 86.58 6.00  63.83 3307.85
   08:52:34.450.27-Aug-2021 4965.00 1780.39 86.58 6.00  64.03 3307.85
   08:52:34.650.27-Aug-2021 4965.00 1780.39 86.58 6.00  64.23 3307.85
   08:52:34.851.27-Aug-2021 4965.00 1769.76 86.58 6.00  64.43 3307.85
   08:52:35.051.27-Aug-2021 4965.00 1771.78 86.58 6.00  64.63 3307.85
   08:52:35.251.27-Aug-2021 4965.00 1774.37 86.58 6.00  64.83 3307.85
   08:52:35.451.27-Aug-2021 4965.00 1776.95 86.58 6.00  65.03 3307.85
   08:52:35.651.27-Aug-2021 4965.00 1776.95 86.58 6.00  65.23 3307.85
   08:52:35.851.27-Aug-2021 4965.00 1778.62 86.58 6.00  65.43 3307.85
   08:52:36.051.27-Aug-2021 4965.00 1778.66 86.58 6.00  65.63 3307.85
   08:52:36.251.27-Aug-2021 4965.00 1780.71 86.58 6.00  65.83 3307.85
   08:52:36.451.27-Aug-2021 4965.00 1781.47 86.58 6.00  66.03 3307.85
   08:52:36.651.27-Aug-2021 4965.00 1781.47 86.58 6.00  66.23 3307.85
   08:52:36.851.27-Aug-2021 4965.00 1783.32 86.58 6.00  66.43 3307.85
   08:52:37.051.27-Aug-2021 4965.00 1795.42 86.58 6.00  66.63 3307.85
   08:52:37.252.27-Aug-2021 4965.00 1797.28 86.58 6.00  66.83 3307.85
   08:52:37.452.27-Aug-2021 4965.00 1799.46 86.58 6.00  67.03 3307.85
   08:52:37.652.27-Aug-2021 4965.00 1799.46 86.58 6.00  67.23 3307.85
   08:52:37.852.27-Aug-2021 4965.00 1803.15 86.58 6.00  67.43 3307.85
   08:52:38.052.27-Aug-2021 4965.00 1805.13 86.58 6.00  67.63 3307.85
   08:52:38.252.27-Aug-2021 4965.00 1806.90 86.58 6.00  67.83 3307.85
   08:52:38.452.27-Aug-2021 4965.00 1808.49 86.58 6.00  68.03 3307.85
   08:52:38.652.27-Aug-2021 4965.00 1808.49 86.58 6.00  68.23 3307.85
   08:52:38.852.27-Aug-2021 4965.00 1811.45 86.58 6.00  68.43 3307.85
   08:52:39.052.27-Aug-2021 4965.00 1811.99 86.58 6.00  68.63 3307.85
   08:52:39.252.27-Aug-2021 4965.00 1813.28 86.58 6.00  68.83 3307.85
