~Version Information
 VERS.                  2.0:   CWLS log ASCII Standard -VERSION 2.0
 WRAP.                   NO:   One line per depth step
~Well Information Block
#MNEM.UNIT     VALUE/NAME     DESCRIPTION
#---------     -----------    ---------------------------
 STRT.S             14:18:21 27-Aug-21: START TIME 14:18:21 27-Aug-21
 STOP.S             14:25:11 27-Aug-21: STOP TIME  14:25:11 27-Aug-21
 STEP.S                   0.00: STEP TIME
 NULL.                 -999.25: NULL VALUE
 DFWT.                        :  DIST FWL TEXT
 DFST.                        :  DIST FSL TEXT
 DMF .             Drill Floor:  DRILL MEAS FROM
 STIM.      20.00.00 17-Aug-21:  START TIME
 DATE.      19.00.00 29-Aug-21:  END TIME
 SPUD.               15-Aug-21:  SPUD DATE
 NREF.                    Grid:  NORTH REFERENCE
 HPTY.       Minimum Curvature:  HOLE POS TYPE
 DMOD.             Drill Model:  DRILL MOD DESC
 SVYD.                  Survey:  SURVEY DESC
 ILTD.               Lithology:  INTERP LTH DESC
 FTOP.          Formation Tops:  FORM TOPS DESC
 RIG .              East Azeri:  RIG NAME
 PDAT.          Mean Sea Level:  PERMANENT DATUM
 FLD .                     ACG:  FIELD NAME
 SON .        AZ-XX-0907180857:  JOB NUMBER
 CTRY.              Azerbaijan:  COUNTRY NAME
 WELL.                    D23x:  WELL NAME
 SRVC.     Turan Drilling and Engineering:  CONTRACTOR
 COMP.     BP Exploration (Caspian Sea) Ltd.:  COMPANY
 UWI .            /AZE00000214:  UNIQUE WELL IDENTIFIER
 API .            /AZE00000214:  API NUMBER
 MDS .        Operator Entered:  MAG DATA SOURCE
 BASE.              Azerbaijan:  LOGGING EQUIPMENT BASE LOCATION
 REGN.                   EESSA:  REGION
 PROV.                    Baku:  PROVINCE
 STAT.                    Baku:  STATE NAME
 MWDS.                    Baku:  MWD SHOP
 DOE .                     N/A:  DOE NUMBER
 DCON.         Sperry Drilling:  DIRECTNL CONTR
 UNIT.                     N/A:  LOGGING EQUIPMENT ID
 WTYP.                Deviated:  WELL TYPE
 CNTY.                        :  COUNTY
 LOC .                        :  LOCATION
 LMF .             Drill Floor:  LOG MEASURED FROM
 TVDS.m                  43.60:  TVDSS CORRECTN
 LATI.deg                40.02:  LATITUDE
 LONG.deg                51.45:  LONGITUDE
 WHNS.m                  -7.04:  WELL HEAD N/S
 WHEW.m                  -0.67:  WELL HEAD E/W
 UTMX.m              538762.90:  UTM X
 UTMY.m             4431871.34:  UTM Y
 DFWL.m                   0.00:  DISTANCE FWL
 DFSL.m                   0.00:  DISTANCE FSL
 SDEP.m                4127.00:  START DEPTH
 TDD .m                5084.50:  TOTAL DEPTH (DRILLER)
 VSDR.deg               140.47:  VERT SEC DIRECT
 GVFD.g                   1.00:  GRAVITY FIELD
 MFLD.nT              50362.00:  MAGNETIC FIELD
 MDIP.deg                59.48:  MAGNETIC DIP
 MDEC.deg                 6.47:  MAGNETIC DECL
 GRDC.deg                 0.31:  GRID CORRECTION
 AZTC.deg                 6.16:  AZM TOTAL CORR
 EPD .m                   0.00:  ELEVATION
 EGL .m                   0.00:  GROUND ELEVATION
 WDMS.m                 151.80:  WD ELEV
 APD .m                  43.60:  DEPTH ABOVE PD
 DEP .m                4092.57:  DEPTH
 AGAP.m                  43.60:  AIR GAP
 VSEW.m                  -0.67:  VERT SEC E/W
 VSNS.m                  -7.04:  VERT SEC N/S
 EKB .m                  43.60:  KB ELEVATION
 EDF .m                  43.60:  DF ELEVATION
 TDL .m                 957.50:  TOTAL DEPTH (LOGGER)
 VSC .                       0:  VS TO CLOSURE
 MAGU.                 1851413:  MAGUTM CHECKSUM
~Parameter Information Block
#MNEM.UNIT       Value        Description
#---------     -----------    ---------------------------
 AV  .mps                 1.50:  Ann Velocity 
 AVMX.mps                 2.00:  Max Ann Veloc 
 AZIF.deg               184.66:  Azm, Final 
 BHAT.        Rotary Steerable:  BHA Type 
 BREV.rev               300.00:  Rev Bit Total 
 BROT.°/30m              -0.50:  Build Rotating 
 BS  .in                  8.50:  Bit Size 
 BSZ .in                  8.50:  Bit Size 
 BTPL.psig              370.00:  Bit Press Loss 
 CABU.                      No:  Customer Abuse 
 CGEO.      Behruz Shahbaliyev:  Customer Geo 
 COMM.                     LAp:  Run Comments 1 
 TCS .hr                140.08:  Time Ciculation Ended 
 CV  .mps                 3.00:  Crit Velocity 
 CVMX.mps                 3.20:  Max Crit Veloc 
 DD1 .            Musa Ahmadov:  Direct Drillr 1 
 DD2 .           Hamid Ahmadov:  Direct Drillr 2 
 DDSV.               Geo-Pilot:  DD Service 
 DEFF.%                  98.40:  % Det Eff 
 DLRX.°/30m               3.40:  Dogleg Rot Max 
 DLSO.°/30m               1.45:  Dogleg Oriented 
 DLSX.°/30m               3.40:  Dogleg Str Max 
 DRET.      18.40.00 29-Aug-21:  Drill End Time 
 DRST.      21.00.00 20-Aug-21:  Drill Start Tim 
 DTIM.hr                 69.47:  Time Drilling 
 EDEP.m                5084.50:  End Depth 
 ENG1.      Artemiy Matviyanov:  Engineer 1 
 ENG2.         Almaz Almadatov:  Engineer 2 
 ETIM.      18.40.00 29-Aug-21:  End Time 
 FLOI.gpm               500.00:  Flow In 
 FLON.gpm               400.00:  Flow In Min 
 FLOS.cptm                0.00:  Fluid Loss 
 FLOX.gpm               500.00:  Flow In Max 
 DFT .        Mineral Oil Base:  Mud Type 
 HFLO.                      No:  High Flow 
 HPRE.                      No:  High Pressure 
 HTEM.                      No:  High Temp 
 HYDO.m                   1.80:  Hydro Offset 
 IFIN.deg                25.62:  Inc, Final 
 IMAX.deg                48.69:  Inc Max 
 IMIN.deg                24.01:  Inc Min 
 IMND.m                4962.57:  Inc Min Depth 
 IMXD.m                4119.01:  Inc Max Depth 
 JARR.                      No:  Jarring 
 LETM.      18.40.00 29-Aug-21:  Log End Time 
 LOST.hr                     0:  Lost Rig Time 
 LSTM.      21.00.00 20-Aug-21:  Log Start Time 
 MDCL.ppm             41500.00:  Mud Chlorides 
 MDES.     Inversion Oil/Synthetic:  Mud Desc 
 DFD .sg                  1.56:  Mud Density 
 MDMN.sg                  1.56:  Dens Mud Min 
 MDMX.sg                  1.56:  Dens Mud Max 
 MOIL.                      70:  Run Mud Oil % 
 MOWR.                   70:30:  Run Mud OWR 
 MSND.                     0.2:  Run Mud Sand % 
 MSOL.                    23.3:  Run Mud Solids% 
 DFV .spqt               78.00:  Mud Viscosity 
 MWOD.in                  6.75:  MWD Tool OD 
 MWSI.                      No:  Serv Intrp, MWD 
 OTIM.hr                218.30:  Time Operating 
 PCON.           Look Like New:  Pad Condition 
 PMAX.psia            11015.30:  Press Op, Max 
 PV  .cP                 38.00:  Mud PV 
 RUN .                     300:  Run Number 
 ROPA.m/hr               15.00:  ROP Avg 
 ROPN.m/hr                9.00:  ROP Min 
 ROPX.m/hr               17.00:  ROP Max 
 RPMA.rpm               120.00:  RPM Surface Avg 
 RPMN.rpm                90.00:  RPM Surface Min 
 RPMX.rpm               140.00:  RPM Surface Max 
 RRUN.                     300:  Rig Run Number 
 RTIM.hr                 31.53:  Time Reaming 
 SAZI.deg               331.64:  Azm, Start 
 SDEP.m                4127.00:  Start Depth 
 SIDD.                      No:  Serv Intrp, DD 
 SINC.deg                48.43:  Inc, Start 
 SPPA.psig             5830.00:  SPP Avg 
 SPPN.psig             5600.00:  SPP Min 
 SPPX.psig             5900.00:  SPP Max 
 STIM.      21.00.00 20-Aug-21:  Start Time 
 SVCS.                 DD, MWD:  Services 
 SVER.                    9.20:  Sperry Version 
 TDAT.m                 957.50:  Tot Depth Attmp 
 TDDF.                      No:  Trip for DD 
 TDLG.m                 957.50:  Tot Depth Loggd 
 TFF .                      No:  Trip for Fail 
 TQAA.f-kp               15.00:  Torque Abs Avg 
 TQAN.f-kp               12.00:  Torque Abs Min 
 TQAX.f-kp               19.00:  Torque Abs Max 
 TRRT.°/30m              -3.40:  Turn Rotating 
 MRT .                  EWR-M5:  Maximum Recorded Temperature 
 TTMX.degC              100.00:  Max Tool Temp 
 VS01.                90639251:  Virtual Str1 SN 
 VS02.                90634715:  Virtual Str2 SN 
 VS03.                90652479:  Virtual Str3 SN 
 VS04.                90642262:  Virtual Str4 SN 
 WBMN.klb                 0.00:  WOB Min 
 WITN.           Murad Guliyev:  Customer Rep 
 WITN.          Yashar Gaziyev:  Customer Rep 2 
 WOBA.klb                 9.00:  WOB Avg 
 WOBX.klb                12.00:  WOB Max 
 YP  .lhf2               30.00:  Yield Point 
~Curve Information Block
#MNEM.UNIT                 API CODE     Curve Description
#---------               -----------    ---------------------------
 TIME.HHMMSS            00 000 000 000:  GT Time & Date
 GTDEPTH.m              00 000 000 000:  GT Depth
 GTPQH.psia             00 000 000 000:  GT HR Quartz Pressure
 GTTQ.degC              00 000 000 000:  GT Quartz Temperature
 GTTN.NONE              00 000 000 000:  GT Test Number
 GTET.sec               00 000 000 000:  GT Elapsed Test Time
 GTTVD.m                00 000 000 000:  GT True Vertical Depth
#Other Information
#
#WARRANTY: Halliburton will use its best efforts to furnish customers with 
#accurate information and interpretations that are part of, and incident to, the services 
#provided.  However, Halliburton cannot and does not warrant the accuracy 
#or correctness of such information and interpretations.  Under no circumstances should any 
#such information or interpretation be relied upon as the sole basis for any drilling, 
#completion, production, or financial decision or any procedure involving any risk to the 
#safety of any drilling venture, drilling rig or its crew or any other third party.  The 
#Customer has full responsibility for all drilling, completion and production operation.  
#Halliburton makes no representations or warranties, either expressed or 
#implied, including, but not limited to, the implied warranties of merchantability or fitness 
#for a particular purpose, with respect to the services rendered.  In no event will 
#Halliburton be liable for failure to obtain any particular results or for 
#any damages, including, but not limited to, indirect, special or consequential damages, 
#resulting from the use of any information or interpretation provided by Halliburton.
#
~A           TIME           GTDEPTH  GTPQH  GTTQ  GTTN   GTET   GTTVD  
# ...
   14:18:43.600.27-Aug-2021 4859.50 7670.06 84.46 15.00  22.60 3211.87
   14:18:43.800.27-Aug-2021 4859.50 7670.17 84.46 15.00  22.80 3211.87
   14:18:44.000.27-Aug-2021 4859.50 7670.15 84.46 15.00  23.00 3211.87
   14:18:44.200.27-Aug-2021 4859.50 7670.15 84.46 15.00  23.20 3211.87
   14:18:44.400.27-Aug-2021 4859.50 7670.23 84.46 15.00  23.40 3211.87
   14:18:44.600.27-Aug-2021 4859.50 7667.83 84.46 15.00  23.60 3211.87
   14:18:44.800.27-Aug-2021 4859.50 7671.98 84.46 15.00  23.80 3211.87
   14:18:45.000.27-Aug-2021 4859.50 7671.77 84.46 15.00  24.00 3211.87
   14:18:45.200.27-Aug-2021 4859.50 7671.77 84.46 15.00  24.20 3211.87
   14:18:45.400.27-Aug-2021 4859.50 7671.39 84.46 15.00  24.40 3211.87
   14:18:45.600.27-Aug-2021 4859.50 7675.22 84.46 15.00  24.60 3211.87
   14:18:45.800.27-Aug-2021 4859.50 7670.68 84.46 15.00  24.80 3211.87
   14:18:46.000.27-Aug-2021 4859.50 7672.59 84.46 15.00  25.00 3211.87
   14:18:46.200.27-Aug-2021 4859.50 7672.59 84.46 15.00  25.20 3211.87
   14:18:46.400.27-Aug-2021 4859.50 7672.08 84.46 15.00  25.40 3211.87
   14:18:46.600.27-Aug-2021 4859.50 7672.15 84.46 15.00  25.60 3211.87
   14:18:46.800.27-Aug-2021 4859.50 7676.26 84.46 15.00  25.80 3211.87
   14:18:47.000.27-Aug-2021 4859.50 7671.41 84.46 15.00  26.00 3211.87
   14:18:47.200.27-Aug-2021 4859.50 7671.41 84.46 15.00  26.20 3211.87
   14:18:47.400.27-Aug-2021 4859.50 7674.06 84.46 15.00  26.40 3211.87
   14:18:47.600.27-Aug-2021 4859.50 7673.74 84.46 15.00  26.60 3211.87
   14:18:47.800.27-Aug-2021 4859.50 7673.61 84.46 15.00  26.80 3211.87
   14:18:48.000.27-Aug-2021 4859.50 7673.84 84.46 15.00  27.00 3211.87
   14:18:48.200.27-Aug-2021 4859.50 7673.84 84.46 15.00  27.20 3211.87
   14:18:48.400.27-Aug-2021 4859.50 7674.08 84.46 15.00  27.40 3211.87
   14:18:48.600.27-Aug-2021 4859.50 7674.43 84.46 15.00  27.60 3211.87
   14:18:48.800.27-Aug-2021 4859.50 7674.66 84.46 15.00  27.80 3211.87
   14:18:49.000.27-Aug-2021 4859.50 7675.03 84.46 15.00  28.00 3211.87
   14:18:49.200.27-Aug-2021 4859.50 7675.03 84.46 15.00  28.20 3211.87
   14:18:49.400.27-Aug-2021 4859.50 7675.37 84.46 15.00  28.40 3211.87
   14:18:49.600.27-Aug-2021 4859.50 7675.38 84.46 15.00  28.60 3211.87
   14:18:49.800.27-Aug-2021 4859.50 7675.49 84.46 15.00  28.80 3211.87
   14:18:50.000.27-Aug-2021 4859.50 7679.41 84.46 15.00  29.00 3211.87
   14:18:50.200.27-Aug-2021 4859.50 7679.41 84.46 15.00  29.20 3211.87
   14:18:50.400.27-Aug-2021 4859.50 7676.18 84.46 15.00  29.40 3211.87
   14:18:50.600.27-Aug-2021 4859.50 7676.54 84.46 15.00  29.60 3211.87
   14:18:50.800.27-Aug-2021 4859.50 7676.16 84.46 15.00  29.80 3211.87
   14:18:51.000.27-Aug-2021 4859.50 7675.72 84.46 15.00  30.00 3211.87
   14:18:51.200.27-Aug-2021 4859.50 7675.72 84.46 15.00  30.20 3211.87
   14:18:51.400.27-Aug-2021 4859.50 7675.84 84.46 15.00  30.40 3211.87
   14:18:51.600.27-Aug-2021 4859.50 7676.55 84.46 15.00  30.60 3211.87
   14:18:51.800.27-Aug-2021 4859.50 7676.90 84.46 15.00  30.80 3211.87
   14:18:52.000.27-Aug-2021 4859.50 7677.16 84.46 15.00  31.00 3211.87
   14:18:52.200.27-Aug-2021 4859.50 7677.16 84.46 15.00  31.20 3211.87
   14:18:52.400.27-Aug-2021 4859.50 7677.51 84.46 15.00  31.40 3211.87
   14:18:52.600.27-Aug-2021 4859.50 7677.85 84.46 15.00  31.60 3211.87
   14:18:52.800.27-Aug-2021 4859.50 7677.82 84.46 15.00  31.80 3211.87
   14:18:53.000.27-Aug-2021 4859.50 7677.90 84.46 15.00  32.00 3211.87
   14:18:53.200.27-Aug-2021 4859.50 7677.90 84.46 15.00  32.20 3211.87
   14:18:53.400.27-Aug-2021 4859.50 7678.10 84.46 15.00  32.40 3211.87
   14:18:53.600.27-Aug-2021 4859.50 7680.56 84.46 15.00  32.60 3211.87
   14:18:53.800.27-Aug-2021 4859.50 7678.09 84.46 15.00  32.80 3211.87
   14:18:54.000.27-Aug-2021 4859.50 7678.94 84.46 15.00  33.00 3211.87
   14:18:54.200.27-Aug-2021 4859.50 7678.94 84.46 15.00  33.20 3211.87
   14:18:54.400.27-Aug-2021 4859.50 7678.10 84.46 15.00  33.40 3211.87
   14:18:54.600.27-Aug-2021 4859.50 7678.15 84.46 15.00  33.60 3211.87
   14:18:54.800.27-Aug-2021 4859.50 7681.92 84.46 15.00  33.80 3211.87
   14:18:55.000.27-Aug-2021 4859.50 7677.55 84.46 15.00  34.00 3211.87
   14:18:55.200.27-Aug-2021 4859.50 7677.55 84.46 15.00  34.20 3211.87
   14:18:55.400.27-Aug-2021 4859.50 7680.00 84.46 15.00  34.40 3211.87
   14:18:55.600.27-Aug-2021 4859.50 7679.44 84.46 15.00  34.60 3211.87
   14:18:55.800.27-Aug-2021 4859.50 7679.31 84.46 15.00  34.80 3211.87
   14:18:56.000.27-Aug-2021 4859.50 7679.24 84.46 15.00  35.00 3211.87
   14:18:56.200.27-Aug-2021 4859.50 7679.24 84.46 15.00  35.20 3211.87
   14:18:56.400.27-Aug-2021 4859.50 7682.72 84.46 15.00  35.40 3211.87
   14:18:56.600.27-Aug-2021 4859.50 7680.06 84.46 15.00  35.60 3211.87
   14:18:56.800.27-Aug-2021 4859.50 7680.60 84.46 15.00  35.80 3211.87
   14:18:57.000.27-Aug-2021 4859.50 7680.14 84.46 15.00  36.00 3211.87
   14:18:57.200.27-Aug-2021 4859.50 7680.14 84.46 15.00  36.20 3211.87
   14:18:57.400.27-Aug-2021 4859.50 7683.67 84.46 15.00  36.40 3211.87
   14:18:57.600.27-Aug-2021 4859.50 7681.20 84.46 15.00  36.60 3211.87
   14:18:57.800.27-Aug-2021 4859.50 7685.80 84.46 15.00  36.80 3211.87
   14:18:58.000.27-Aug-2021 4859.50 7688.92 84.46 15.00  37.00 3211.87
   14:18:58.200.27-Aug-2021 4859.50 7688.92 84.46 15.00  37.20 3211.87
   14:18:58.400.27-Aug-2021 4859.50 7709.30 84.46 15.00  37.40 3211.87
   14:18:58.600.27-Aug-2021 4859.50 7737.94 84.46 15.00  37.60 3211.87
   14:18:58.800.27-Aug-2021 4859.50 7743.14 84.46 15.00  37.80 3211.87
   14:18:59.000.27-Aug-2021 4859.50 7697.02 84.46 15.00  38.00 3211.87
   14:18:59.200.27-Aug-2021 4859.50 7697.02 84.46 15.00  38.20 3211.87
   14:18:59.400.27-Aug-2021 4859.50 7681.92 84.46 15.00  38.40 3211.87
   14:18:59.600.27-Aug-2021 4859.50 7681.81 84.46 15.00  38.60 3211.87
   14:18:59.800.27-Aug-2021 4859.50 7681.78 84.46 15.00  38.80 3211.87
   14:19:00.000.27-Aug-2021 4859.50 7676.81 84.46 15.00  39.00 3211.87
   14:19:00.200.27-Aug-2021 4859.50 7676.81 84.46 15.00  39.20 3211.87
   14:19:00.400.27-Aug-2021 4859.50 7662.48 84.46 15.00  39.40 3211.87
   14:19:00.600.27-Aug-2021 4859.50 7636.21 84.46 15.00  39.60 3211.87
   14:19:00.800.27-Aug-2021 4859.50 7624.23 84.46 15.00  39.80 3211.87
   14:19:01.000.27-Aug-2021 4859.50 7617.25 84.46 15.00  40.00 3211.87
   14:19:01.200.27-Aug-2021 4859.50 7617.25 84.46 15.00  40.20 3211.87
   14:19:01.400.27-Aug-2021 4859.50 7604.01 84.46 15.00  40.40 3211.87
   14:19:01.600.27-Aug-2021 4859.50 7599.74 84.45 15.00  40.60 3211.87
   14:19:01.800.27-Aug-2021 4859.50 7599.73 84.46 15.00  40.80 3211.87
   14:19:02.000.27-Aug-2021 4859.50 7603.08 84.45 15.00  41.00 3211.87
   14:19:02.200.27-Aug-2021 4859.50 7603.08 84.45 15.00  41.20 3211.87
   14:19:02.400.27-Aug-2021 4859.50 7614.58 84.45 15.00  41.40 3211.87
   14:19:02.600.27-Aug-2021 4859.50 7619.30 84.45 15.00  41.60 3211.87
   14:19:02.800.27-Aug-2021 4859.50 7623.75 84.45 15.00  41.80 3211.87
   14:19:03.000.27-Aug-2021 4859.50 7627.78 84.45 15.00  42.00 3211.87
   14:19:03.200.27-Aug-2021 4859.50 7627.78 84.45 15.00  42.20 3211.87
   14:19:03.400.27-Aug-2021 4859.50 7633.14 84.45 15.00  42.40 3211.87
   14:19:03.600.27-Aug-2021 4859.50 7633.27 84.45 15.00  42.60 3211.87
   14:19:03.800.27-Aug-2021 4859.50 7630.95 84.45 15.00  42.80 3211.87
   14:19:04.000.27-Aug-2021 4859.50 7627.10 84.45 15.00  43.00 3211.87
   14:19:04.200.27-Aug-2021 4859.50 7627.10 84.45 15.00  43.20 3211.87
   14:19:04.400.27-Aug-2021 4859.50 7622.33 84.45 15.00  43.40 3211.87
   14:19:04.600.27-Aug-2021 4859.50 7611.98 84.45 15.00  43.60 3211.87
   14:19:04.800.27-Aug-2021 4859.50 7612.73 84.45 15.00  43.80 3211.87
   14:19:05.000.27-Aug-2021 4859.50 7611.53 84.45 15.00  44.00 3211.87
   14:19:05.200.27-Aug-2021 4859.50 7611.53 84.45 15.00  44.20 3211.87
   14:19:05.400.27-Aug-2021 4859.50 7518.83 84.45 15.00  44.40 3211.87
   14:19:05.600.27-Aug-2021 4859.50 7501.24 84.45 15.00  44.60 3211.87
   14:19:05.800.27-Aug-2021 4859.50 7443.02 84.45 15.00  44.80 3211.87
   14:19:06.000.27-Aug-2021 4859.50 7371.73 84.45 15.00  45.00 3211.87
