~Version Information
 VERS.                  2.0:   CWLS log ASCII Standard -VERSION 2.0
 WRAP.                   NO:   One line per depth step
~Well Information Block
#MNEM.UNIT     VALUE/NAME     DESCRIPTION
#---------     -----------    ---------------------------
 STRT.S             16:35:30 27-Aug-21: START TIME 16:35:30 27-Aug-21
 STOP.S             16:42:43 27-Aug-21: STOP TIME  16:42:43 27-Aug-21
 STEP.S                   0.00: STEP TIME
 NULL.                 -999.25: NULL VALUE
 DFWT.                        :  DIST FWL TEXT
 DFST.                        :  DIST FSL TEXT
 DMF .             Drill Floor:  DRILL MEAS FROM
 STIM.      20.00.00 17-Aug-21:  START TIME
 DATE.      19.00.00 29-Aug-21:  END TIME
 SPUD.               15-Aug-21:  SPUD DATE
 NREF.                    Grid:  NORTH REFERENCE
 HPTY.       Minimum Curvature:  HOLE POS TYPE
 DMOD.             Drill Model:  DRILL MOD DESC
 SVYD.                  Survey:  SURVEY DESC
 ILTD.               Lithology:  INTERP LTH DESC
 FTOP.          Formation Tops:  FORM TOPS DESC
 RIG .              East Azeri:  RIG NAME
 PDAT.          Mean Sea Level:  PERMANENT DATUM
 FLD .                     ACG:  FIELD NAME
 SON .        AZ-XX-0907180857:  JOB NUMBER
 CTRY.              Azerbaijan:  COUNTRY NAME
 WELL.                    D23x:  WELL NAME
 SRVC.     Turan Drilling and Engineering:  CONTRACTOR
 COMP.     BP Exploration (Caspian Sea) Ltd.:  COMPANY
 UWI .            /AZE00000214:  UNIQUE WELL IDENTIFIER
 API .            /AZE00000214:  API NUMBER
 MDS .        Operator Entered:  MAG DATA SOURCE
 BASE.              Azerbaijan:  LOGGING EQUIPMENT BASE LOCATION
 REGN.                   EESSA:  REGION
 PROV.                    Baku:  PROVINCE
 STAT.                    Baku:  STATE NAME
 MWDS.                    Baku:  MWD SHOP
 DOE .                     N/A:  DOE NUMBER
 DCON.         Sperry Drilling:  DIRECTNL CONTR
 UNIT.                     N/A:  LOGGING EQUIPMENT ID
 WTYP.                Deviated:  WELL TYPE
 CNTY.                        :  COUNTY
 LOC .                        :  LOCATION
 LMF .             Drill Floor:  LOG MEASURED FROM
 TVDS.m                  43.60:  TVDSS CORRECTN
 LATI.deg                40.02:  LATITUDE
 LONG.deg                51.45:  LONGITUDE
 WHNS.m                  -7.04:  WELL HEAD N/S
 WHEW.m                  -0.67:  WELL HEAD E/W
 UTMX.m              538762.90:  UTM X
 UTMY.m             4431871.34:  UTM Y
 DFWL.m                   0.00:  DISTANCE FWL
 DFSL.m                   0.00:  DISTANCE FSL
 SDEP.m                4127.00:  START DEPTH
 TDD .m                5084.50:  TOTAL DEPTH (DRILLER)
 VSDR.deg               140.47:  VERT SEC DIRECT
 GVFD.g                   1.00:  GRAVITY FIELD
 MFLD.nT              50362.00:  MAGNETIC FIELD
 MDIP.deg                59.48:  MAGNETIC DIP
 MDEC.deg                 6.47:  MAGNETIC DECL
 GRDC.deg                 0.31:  GRID CORRECTION
 AZTC.deg                 6.16:  AZM TOTAL CORR
 EPD .m                   0.00:  ELEVATION
 EGL .m                   0.00:  GROUND ELEVATION
 WDMS.m                 151.80:  WD ELEV
 APD .m                  43.60:  DEPTH ABOVE PD
 DEP .m                4092.57:  DEPTH
 AGAP.m                  43.60:  AIR GAP
 VSEW.m                  -0.67:  VERT SEC E/W
 VSNS.m                  -7.04:  VERT SEC N/S
 EKB .m                  43.60:  KB ELEVATION
 EDF .m                  43.60:  DF ELEVATION
 TDL .m                 957.50:  TOTAL DEPTH (LOGGER)
 VSC .                       0:  VS TO CLOSURE
 MAGU.                 1851413:  MAGUTM CHECKSUM
~Parameter Information Block
#MNEM.UNIT       Value        Description
#---------     -----------    ---------------------------
 AV  .mps                 1.50:  Ann Velocity 
 AVMX.mps                 2.00:  Max Ann Veloc 
 AZIF.deg               184.66:  Azm, Final 
 BHAT.        Rotary Steerable:  BHA Type 
 BREV.rev               300.00:  Rev Bit Total 
 BROT.°/30m              -0.50:  Build Rotating 
 BS  .in                  8.50:  Bit Size 
 BSZ .in                  8.50:  Bit Size 
 BTPL.psig              370.00:  Bit Press Loss 
 CABU.                      No:  Customer Abuse 
 CGEO.      Behruz Shahbaliyev:  Customer Geo 
 COMM.                     äU:  Run Comments 1 
 TCS .hr                140.08:  Time Ciculation Ended 
 CV  .mps                 3.00:  Crit Velocity 
 CVMX.mps                 3.20:  Max Crit Veloc 
 DD1 .            Musa Ahmadov:  Direct Drillr 1 
 DD2 .           Hamid Ahmadov:  Direct Drillr 2 
 DDSV.               Geo-Pilot:  DD Service 
 DEFF.%                  98.40:  % Det Eff 
 DLRX.°/30m               3.40:  Dogleg Rot Max 
 DLSO.°/30m               1.45:  Dogleg Oriented 
 DLSX.°/30m               3.40:  Dogleg Str Max 
 DRET.      18.40.00 29-Aug-21:  Drill End Time 
 DRST.      21.00.00 20-Aug-21:  Drill Start Tim 
 DTIM.hr                 69.47:  Time Drilling 
 EDEP.m                5084.50:  End Depth 
 ENG1.      Artemiy Matviyanov:  Engineer 1 
 ENG2.         Almaz Almadatov:  Engineer 2 
 ETIM.      18.40.00 29-Aug-21:  End Time 
 FLOI.gpm               500.00:  Flow In 
 FLON.gpm               400.00:  Flow In Min 
 FLOS.cptm                0.00:  Fluid Loss 
 FLOX.gpm               500.00:  Flow In Max 
 DFT .        Mineral Oil Base:  Mud Type 
 HFLO.                      No:  High Flow 
 HPRE.                      No:  High Pressure 
 HTEM.                      No:  High Temp 
 HYDO.m                   1.80:  Hydro Offset 
 IFIN.deg                25.62:  Inc, Final 
 IMAX.deg                48.69:  Inc Max 
 IMIN.deg                24.01:  Inc Min 
 IMND.m                4962.57:  Inc Min Depth 
 IMXD.m                4119.01:  Inc Max Depth 
 JARR.                      No:  Jarring 
 LETM.      18.40.00 29-Aug-21:  Log End Time 
 LOST.hr                     0:  Lost Rig Time 
 LSTM.      21.00.00 20-Aug-21:  Log Start Time 
 MDCL.ppm             41500.00:  Mud Chlorides 
 MDES.     Inversion Oil/Synthetic:  Mud Desc 
 DFD .sg                  1.56:  Mud Density 
 MDMN.sg                  1.56:  Dens Mud Min 
 MDMX.sg                  1.56:  Dens Mud Max 
 MOIL.                      70:  Run Mud Oil % 
 MOWR.                   70:30:  Run Mud OWR 
 MSND.                     0.2:  Run Mud Sand % 
 MSOL.                    23.3:  Run Mud Solids% 
 DFV .spqt               78.00:  Mud Viscosity 
 MWOD.in                  6.75:  MWD Tool OD 
 MWSI.                      No:  Serv Intrp, MWD 
 OTIM.hr                218.30:  Time Operating 
 PCON.           Look Like New:  Pad Condition 
 PMAX.psia            11015.30:  Press Op, Max 
 PV  .cP                 38.00:  Mud PV 
 RUN .                     300:  Run Number 
 ROPA.m/hr               15.00:  ROP Avg 
 ROPN.m/hr                9.00:  ROP Min 
 ROPX.m/hr               17.00:  ROP Max 
 RPMA.rpm               120.00:  RPM Surface Avg 
 RPMN.rpm                90.00:  RPM Surface Min 
 RPMX.rpm               140.00:  RPM Surface Max 
 RRUN.                     300:  Rig Run Number 
 RTIM.hr                 31.53:  Time Reaming 
 SAZI.deg               331.64:  Azm, Start 
 SDEP.m                4127.00:  Start Depth 
 SIDD.                      No:  Serv Intrp, DD 
 SINC.deg                48.43:  Inc, Start 
 SPPA.psig             5830.00:  SPP Avg 
 SPPN.psig             5600.00:  SPP Min 
 SPPX.psig             5900.00:  SPP Max 
 STIM.      21.00.00 20-Aug-21:  Start Time 
 SVCS.                 DD, MWD:  Services 
 SVER.                    9.20:  Sperry Version 
 TDAT.m                 957.50:  Tot Depth Attmp 
 TDDF.                      No:  Trip for DD 
 TDLG.m                 957.50:  Tot Depth Loggd 
 TFF .                      No:  Trip for Fail 
 TQAA.f-kp               15.00:  Torque Abs Avg 
 TQAN.f-kp               12.00:  Torque Abs Min 
 TQAX.f-kp               19.00:  Torque Abs Max 
 TRRT.°/30m              -3.40:  Turn Rotating 
 MRT .                  EWR-M5:  Maximum Recorded Temperature 
 TTMX.degC              100.00:  Max Tool Temp 
 VS01.                90639251:  Virtual Str1 SN 
 VS02.                90634715:  Virtual Str2 SN 
 VS03.                90652479:  Virtual Str3 SN 
 VS04.                90642262:  Virtual Str4 SN 
 WBMN.klb                 0.00:  WOB Min 
 WITN.           Murad Guliyev:  Customer Rep 
 WITN.          Yashar Gaziyev:  Customer Rep 2 
 WOBA.klb                 9.00:  WOB Avg 
 WOBX.klb                12.00:  WOB Max 
 YP  .lhf2               30.00:  Yield Point 
~Curve Information Block
#MNEM.UNIT                 API CODE     Curve Description
#---------               -----------    ---------------------------
 TIME.HHMMSS            00 000 000 000:  GT Time & Date
 GTDEPTH.m              00 000 000 000:  GT Depth
 GTPQH.psia             00 000 000 000:  GT HR Quartz Pressure
 GTTQ.degC              00 000 000 000:  GT Quartz Temperature
 GTTN.NONE              00 000 000 000:  GT Test Number
 GTET.sec               00 000 000 000:  GT Elapsed Test Time
 GTTVD.m                00 000 000 000:  GT True Vertical Depth
#Other Information
#
#WARRANTY: Halliburton will use its best efforts to furnish customers with 
#accurate information and interpretations that are part of, and incident to, the services 
#provided.  However, Halliburton cannot and does not warrant the accuracy 
#or correctness of such information and interpretations.  Under no circumstances should any 
#such information or interpretation be relied upon as the sole basis for any drilling, 
#completion, production, or financial decision or any procedure involving any risk to the 
#safety of any drilling venture, drilling rig or its crew or any other third party.  The 
#Customer has full responsibility for all drilling, completion and production operation.  
#Halliburton makes no representations or warranties, either expressed or 
#implied, including, but not limited to, the implied warranties of merchantability or fitness 
#for a particular purpose, with respect to the services rendered.  In no event will 
#Halliburton be liable for failure to obtain any particular results or for 
#any damages, including, but not limited to, indirect, special or consequential damages, 
#resulting from the use of any information or interpretation provided by Halliburton.
#
~A           TIME           GTDEPTH  GTPQH  GTTQ  GTTN   GTET   GTTVD  
# ...
   16:35:53.010.27-Aug-2021 4788.00 7496.94 83.25 17.00  22.58 3147.22
   16:35:53.209.27-Aug-2021 4788.00 7501.70 83.25 17.00  22.78 3147.22
   16:35:53.409.27-Aug-2021 4788.00 7495.96 83.25 17.00  22.98 3147.22
   16:35:53.609.27-Aug-2021 4788.00 7495.96 83.25 17.00  23.18 3147.22
   16:35:53.809.27-Aug-2021 4788.00 7498.27 83.25 17.00  23.38 3147.22
   16:35:54.009.27-Aug-2021 4788.00 7497.31 83.25 17.00  23.58 3147.22
   16:35:54.208.27-Aug-2021 4788.00 7503.33 83.25 17.00  23.78 3147.22
   16:35:54.408.27-Aug-2021 4788.00 7494.64 83.25 17.00  23.98 3147.22
   16:35:54.608.27-Aug-2021 4788.00 7494.64 83.25 17.00  24.18 3147.22
   16:35:54.808.27-Aug-2021 4788.00 7499.40 83.25 17.00  24.38 3147.22
   16:35:55.008.27-Aug-2021 4788.00 7498.23 83.25 17.00  24.58 3147.22
   16:35:55.207.27-Aug-2021 4788.00 7504.08 83.25 17.00  24.78 3147.22
   16:35:55.407.27-Aug-2021 4788.00 7495.68 83.25 17.00  24.98 3147.22
   16:35:55.607.27-Aug-2021 4788.00 7495.68 83.25 17.00  25.17 3147.22
   16:35:55.807.27-Aug-2021 4788.00 7500.03 83.25 17.00  25.37 3147.22
   16:35:56.007.27-Aug-2021 4788.00 7503.38 83.25 17.00  25.57 3147.22
   16:35:56.206.27-Aug-2021 4788.00 7497.61 83.25 17.00  25.77 3147.22
   16:35:56.406.27-Aug-2021 4788.00 7499.19 83.25 17.00  25.97 3147.22
   16:35:56.606.27-Aug-2021 4788.00 7499.19 83.25 17.00  26.17 3147.22
   16:35:56.806.27-Aug-2021 4788.00 7499.62 83.25 17.00  26.37 3147.22
   16:35:57.006.27-Aug-2021 4788.00 7499.72 83.25 17.00  26.57 3147.22
   16:35:57.205.27-Aug-2021 4788.00 7499.25 83.25 17.00  26.77 3147.22
   16:35:57.405.27-Aug-2021 4788.00 7500.14 83.25 17.00  26.97 3147.22
   16:35:57.605.27-Aug-2021 4788.00 7500.14 83.25 17.00  27.17 3147.22
   16:35:57.805.27-Aug-2021 4788.00 7500.14 83.25 17.00  27.37 3147.22
   16:35:58.005.27-Aug-2021 4788.00 7501.07 83.25 17.00  27.57 3147.22
   16:35:58.204.27-Aug-2021 4788.00 7501.19 83.25 17.00  27.77 3147.22
   16:35:58.404.27-Aug-2021 4788.00 7501.10 83.25 17.00  27.97 3147.22
   16:35:58.604.27-Aug-2021 4788.00 7501.10 83.25 17.00  28.17 3147.22
   16:35:58.804.27-Aug-2021 4788.00 7501.23 83.25 17.00  28.37 3147.22
   16:35:59.004.27-Aug-2021 4788.00 7501.37 83.25 17.00  28.57 3147.22
   16:35:59.203.27-Aug-2021 4788.00 7505.96 83.25 17.00  28.77 3147.22
   16:35:59.403.27-Aug-2021 4788.00 7500.26 83.25 17.00  28.97 3147.22
   16:35:59.603.27-Aug-2021 4788.00 7500.26 83.25 17.00  29.17 3147.22
   16:35:59.803.27-Aug-2021 4788.00 7502.74 83.25 17.00  29.37 3147.22
   16:36:00.003.27-Aug-2021 4788.00 7501.87 83.25 17.00  29.57 3147.22
   16:36:00.202.27-Aug-2021 4788.00 7502.33 83.25 17.00  29.77 3147.22
   16:36:00.402.27-Aug-2021 4788.00 7501.81 83.25 17.00  29.97 3147.22
   16:36:00.602.27-Aug-2021 4788.00 7501.81 83.25 17.00  30.17 3147.22
   16:36:00.802.27-Aug-2021 4788.00 7503.29 83.25 17.00  30.37 3147.22
   16:36:01.002.27-Aug-2021 4788.00 7503.09 83.25 17.00  30.57 3147.22
   16:36:01.201.27-Aug-2021 4788.00 7503.42 83.25 17.00  30.77 3147.22
   16:36:01.401.27-Aug-2021 4788.00 7503.57 83.25 17.00  30.97 3147.22
   16:36:01.601.27-Aug-2021 4788.00 7503.57 83.25 17.00  31.17 3147.22
   16:36:01.801.27-Aug-2021 4788.00 7503.68 83.25 17.00  31.37 3147.22
   16:36:02.001.27-Aug-2021 4788.00 7503.74 83.24 17.00  31.57 3147.22
   16:36:02.200.27-Aug-2021 4788.00 7503.71 83.24 17.00  31.77 3147.22
   16:36:02.400.27-Aug-2021 4788.00 7503.77 83.24 17.00  31.97 3147.22
   16:36:02.600.27-Aug-2021 4788.00 7503.77 83.24 17.00  32.17 3147.22
   16:36:02.800.27-Aug-2021 4788.00 7501.53 83.24 17.00  32.37 3147.22
   16:36:03.000.27-Aug-2021 4788.00 7504.34 83.24 17.00  32.57 3147.22
   16:36:03.199.27-Aug-2021 4788.00 7504.97 83.24 17.00  32.77 3147.22
   16:36:03.399.27-Aug-2021 4788.00 7509.90 83.24 17.00  32.97 3147.22
   16:36:03.599.27-Aug-2021 4788.00 7509.90 83.24 17.00  33.17 3147.22
   16:36:03.799.27-Aug-2021 4788.00 7504.32 83.24 17.00  33.37 3147.22
   16:36:03.999.27-Aug-2021 4788.00 7505.37 83.24 17.00  33.57 3147.22
   16:36:04.198.27-Aug-2021 4788.00 7504.99 83.24 17.00  33.77 3147.22
   16:36:04.398.27-Aug-2021 4788.00 7504.68 83.24 17.00  33.97 3147.22
   16:36:04.598.27-Aug-2021 4788.00 7504.68 83.24 17.00  34.17 3147.22
   16:36:04.798.27-Aug-2021 4788.00 7505.22 83.24 17.00  34.37 3147.22
   16:36:04.998.27-Aug-2021 4788.00 7505.93 83.24 17.00  34.57 3147.22
   16:36:05.197.27-Aug-2021 4788.00 7506.20 83.24 17.00  34.77 3147.22
   16:36:05.397.27-Aug-2021 4788.00 7505.19 83.24 17.00  34.97 3147.22
   16:36:05.597.27-Aug-2021 4788.00 7505.19 83.24 17.00  35.16 3147.22
   16:36:05.797.27-Aug-2021 4788.00 7506.26 83.24 17.00  35.36 3147.22
   16:36:05.997.27-Aug-2021 4788.00 7505.89 83.24 17.00  35.56 3147.22
   16:36:06.196.27-Aug-2021 4788.00 7507.08 83.24 17.00  35.76 3147.22
   16:36:06.396.27-Aug-2021 4788.00 7506.54 83.24 17.00  35.96 3147.22
   16:36:06.596.27-Aug-2021 4788.00 7506.54 83.24 17.00  36.16 3147.22
   16:36:06.796.27-Aug-2021 4788.00 7506.58 83.24 17.00  36.36 3147.22
   16:36:06.996.27-Aug-2021 4788.00 7506.46 83.24 17.00  36.56 3147.22
   16:36:07.195.27-Aug-2021 4788.00 7506.95 83.24 17.00  36.76 3147.22
   16:36:07.395.27-Aug-2021 4788.00 7507.32 83.24 17.00  36.96 3147.22
   16:36:07.595.27-Aug-2021 4788.00 7507.32 83.24 17.00  37.16 3147.22
   16:36:07.795.27-Aug-2021 4788.00 7507.71 83.24 17.00  37.36 3147.22
   16:36:07.995.27-Aug-2021 4788.00 7507.65 83.24 17.00  37.56 3147.22
   16:36:08.194.27-Aug-2021 4788.00 7507.72 83.24 17.00  37.76 3147.22
   16:36:08.394.27-Aug-2021 4788.00 7507.61 83.24 17.00  37.96 3147.22
   16:36:08.594.27-Aug-2021 4788.00 7507.61 83.24 17.00  38.16 3147.22
   16:36:08.794.27-Aug-2021 4788.00 7507.17 83.24 17.00  38.36 3147.22
   16:36:08.994.27-Aug-2021 4788.00 7507.45 83.24 17.00  38.56 3147.22
   16:36:09.193.27-Aug-2021 4788.00 7507.61 83.24 17.00  38.76 3147.22
   16:36:09.393.27-Aug-2021 4788.00 7512.60 83.24 17.00  38.96 3147.22
   16:36:09.593.27-Aug-2021 4788.00 7512.60 83.24 17.00  39.16 3147.22
   16:36:09.793.27-Aug-2021 4788.00 7508.34 83.24 17.00  39.36 3147.22
   16:36:09.993.27-Aug-2021 4788.00 7509.12 83.24 17.00  39.56 3147.22
   16:36:10.192.27-Aug-2021 4788.00 7508.25 83.24 17.00  39.76 3147.22
   16:36:10.392.27-Aug-2021 4788.00 7508.58 83.24 17.00  39.96 3147.22
   16:36:10.592.27-Aug-2021 4788.00 7508.58 83.24 17.00  40.16 3147.22
   16:36:10.792.27-Aug-2021 4788.00 7508.63 83.24 17.00  40.36 3147.22
   16:36:10.992.27-Aug-2021 4788.00 7509.46 83.24 17.00  40.56 3147.22
   16:36:11.191.27-Aug-2021 4788.00 7509.25 83.24 17.00  40.76 3147.22
   16:36:11.391.27-Aug-2021 4788.00 7509.52 83.24 17.00  40.96 3147.22
   16:36:11.591.27-Aug-2021 4788.00 7509.52 83.24 17.00  41.16 3147.22
   16:36:11.791.27-Aug-2021 4788.00 7509.51 83.24 17.00  41.36 3147.22
   16:36:11.991.27-Aug-2021 4788.00 7509.51 83.24 17.00  41.56 3147.22
   16:36:12.190.27-Aug-2021 4788.00 7509.47 83.24 17.00  41.76 3147.22
   16:36:12.390.27-Aug-2021 4788.00 7509.51 83.24 17.00  41.96 3147.22
   16:36:12.590.27-Aug-2021 4788.00 7509.51 83.24 17.00  42.16 3147.22
   16:36:12.790.27-Aug-2021 4788.00 7507.96 83.24 17.00  42.36 3147.22
   16:36:12.990.27-Aug-2021 4788.00 7509.74 83.24 17.00  42.56 3147.22
   16:36:13.189.27-Aug-2021 4788.00 7510.38 83.24 17.00  42.76 3147.22
   16:36:13.389.27-Aug-2021 4788.00 7509.44 83.24 17.00  42.96 3147.22
   16:36:13.589.27-Aug-2021 4788.00 7509.44 83.24 17.00  43.16 3147.22
   16:36:13.789.27-Aug-2021 4788.00 7513.85 83.24 17.00  43.36 3147.22
   16:36:13.989.27-Aug-2021 4788.00 7508.34 83.24 17.00  43.56 3147.22
   16:36:14.188.27-Aug-2021 4788.00 7510.87 83.24 17.00  43.76 3147.22
   16:36:14.388.27-Aug-2021 4788.00 7510.99 83.24 17.00  43.96 3147.22
   16:36:14.588.27-Aug-2021 4788.00 7510.99 83.24 17.00  44.16 3147.22
   16:36:14.788.27-Aug-2021 4788.00 7510.75 83.24 17.00  44.36 3147.22
   16:36:14.988.27-Aug-2021 4788.00 7513.23 83.24 17.00  44.56 3147.22
   16:36:15.187.27-Aug-2021 4788.00 7510.53 83.24 17.00  44.76 3147.22
   16:36:15.387.27-Aug-2021 4788.00 7511.45 83.24 17.00  44.96 3147.22
