~Version Information
 VERS.                  2.0:   CWLS log ASCII Standard -VERSION 2.0
 WRAP.                   NO:   One line per depth step
~Well Information Block
#MNEM.UNIT     VALUE/NAME     DESCRIPTION
#---------     -----------    ---------------------------
 STRT.S             21:24:04 27-Aug-21: START TIME 21:24:04 27-Aug-21
 STOP.S             21:30:54 27-Aug-21: STOP TIME  21:30:54 27-Aug-21
 STEP.S                   0.00: STEP TIME
 NULL.                 -999.25: NULL VALUE
 DFWT.                        :  DIST FWL TEXT
 DFST.                        :  DIST FSL TEXT
 DMF .             Drill Floor:  DRILL MEAS FROM
 STIM.      20.00.00 17-Aug-21:  START TIME
 DATE.      19.00.00 29-Aug-21:  END TIME
 SPUD.               15-Aug-21:  SPUD DATE
 NREF.                    Grid:  NORTH REFERENCE
 HPTY.       Minimum Curvature:  HOLE POS TYPE
 DMOD.             Drill Model:  DRILL MOD DESC
 SVYD.                  Survey:  SURVEY DESC
 ILTD.               Lithology:  INTERP LTH DESC
 FTOP.          Formation Tops:  FORM TOPS DESC
 RIG .              East Azeri:  RIG NAME
 PDAT.          Mean Sea Level:  PERMANENT DATUM
 FLD .                     ACG:  FIELD NAME
 SON .        AZ-XX-0907180857:  JOB NUMBER
 CTRY.              Azerbaijan:  COUNTRY NAME
 WELL.                    D23x:  WELL NAME
 SRVC.     Turan Drilling and Engineering:  CONTRACTOR
 COMP.     BP Exploration (Caspian Sea) Ltd.:  COMPANY
 UWI .            /AZE00000214:  UNIQUE WELL IDENTIFIER
 API .            /AZE00000214:  API NUMBER
 MDS .        Operator Entered:  MAG DATA SOURCE
 BASE.              Azerbaijan:  LOGGING EQUIPMENT BASE LOCATION
 REGN.                   EESSA:  REGION
 PROV.                    Baku:  PROVINCE
 STAT.                    Baku:  STATE NAME
 MWDS.                    Baku:  MWD SHOP
 DOE .                     N/A:  DOE NUMBER
 DCON.         Sperry Drilling:  DIRECTNL CONTR
 UNIT.                     N/A:  LOGGING EQUIPMENT ID
 WTYP.                Deviated:  WELL TYPE
 CNTY.                        :  COUNTY
 LOC .                        :  LOCATION
 LMF .             Drill Floor:  LOG MEASURED FROM
 TVDS.m                  43.60:  TVDSS CORRECTN
 LATI.deg                40.02:  LATITUDE
 LONG.deg                51.45:  LONGITUDE
 WHNS.m                  -7.04:  WELL HEAD N/S
 WHEW.m                  -0.67:  WELL HEAD E/W
 UTMX.m              538762.90:  UTM X
 UTMY.m             4431871.34:  UTM Y
 DFWL.m                   0.00:  DISTANCE FWL
 DFSL.m                   0.00:  DISTANCE FSL
 SDEP.m                4127.00:  START DEPTH
 TDD .m                5084.50:  TOTAL DEPTH (DRILLER)
 VSDR.deg               140.47:  VERT SEC DIRECT
 GVFD.g                   1.00:  GRAVITY FIELD
 MFLD.nT              50362.00:  MAGNETIC FIELD
 MDIP.deg                59.48:  MAGNETIC DIP
 MDEC.deg                 6.47:  MAGNETIC DECL
 GRDC.deg                 0.31:  GRID CORRECTION
 AZTC.deg                 6.16:  AZM TOTAL CORR
 EPD .m                   0.00:  ELEVATION
 EGL .m                   0.00:  GROUND ELEVATION
 WDMS.m                 151.80:  WD ELEV
 APD .m                  43.60:  DEPTH ABOVE PD
 DEP .m                4092.57:  DEPTH
 AGAP.m                  43.60:  AIR GAP
 VSEW.m                  -0.67:  VERT SEC E/W
 VSNS.m                  -7.04:  VERT SEC N/S
 EKB .m                  43.60:  KB ELEVATION
 EDF .m                  43.60:  DF ELEVATION
 TDL .m                 957.50:  TOTAL DEPTH (LOGGER)
 VSC .                       0:  VS TO CLOSURE
 MAGU.                 1851413:  MAGUTM CHECKSUM
~Parameter Information Block
#MNEM.UNIT       Value        Description
#---------     -----------    ---------------------------
 AV  .mps                 1.50:  Ann Velocity 
 AVMX.mps                 2.00:  Max Ann Veloc 
 AZIF.deg               184.66:  Azm, Final 
 BHAT.        Rotary Steerable:  BHA Type 
 BREV.rev               300.00:  Rev Bit Total 
 BROT.°/30m              -0.50:  Build Rotating 
 BS  .in                  8.50:  Bit Size 
 BSZ .in                  8.50:  Bit Size 
 BTPL.psig              370.00:  Bit Press Loss 
 CABU.                      No:  Customer Abuse 
 CGEO.      Behruz Shahbaliyev:  Customer Geo 
 COMM.                     tºv:  Run Comments 1 
 TCS .hr                140.08:  Time Ciculation Ended 
 CV  .mps                 3.00:  Crit Velocity 
 CVMX.mps                 3.20:  Max Crit Veloc 
 DD1 .            Musa Ahmadov:  Direct Drillr 1 
 DD2 .           Hamid Ahmadov:  Direct Drillr 2 
 DDSV.               Geo-Pilot:  DD Service 
 DEFF.%                  98.40:  % Det Eff 
 DLRX.°/30m               3.40:  Dogleg Rot Max 
 DLSO.°/30m               1.45:  Dogleg Oriented 
 DLSX.°/30m               3.40:  Dogleg Str Max 
 DRET.      18.40.00 29-Aug-21:  Drill End Time 
 DRST.      21.00.00 20-Aug-21:  Drill Start Tim 
 DTIM.hr                 69.47:  Time Drilling 
 EDEP.m                5084.50:  End Depth 
 ENG1.      Artemiy Matviyanov:  Engineer 1 
 ENG2.         Almaz Almadatov:  Engineer 2 
 ETIM.      18.40.00 29-Aug-21:  End Time 
 FLOI.gpm               500.00:  Flow In 
 FLON.gpm               400.00:  Flow In Min 
 FLOS.cptm                0.00:  Fluid Loss 
 FLOX.gpm               500.00:  Flow In Max 
 DFT .        Mineral Oil Base:  Mud Type 
 HFLO.                      No:  High Flow 
 HPRE.                      No:  High Pressure 
 HTEM.                      No:  High Temp 
 HYDO.m                   1.80:  Hydro Offset 
 IFIN.deg                25.62:  Inc, Final 
 IMAX.deg                48.69:  Inc Max 
 IMIN.deg                24.01:  Inc Min 
 IMND.m                4962.57:  Inc Min Depth 
 IMXD.m                4119.01:  Inc Max Depth 
 JARR.                      No:  Jarring 
 LETM.      18.40.00 29-Aug-21:  Log End Time 
 LOST.hr                     0:  Lost Rig Time 
 LSTM.      21.00.00 20-Aug-21:  Log Start Time 
 MDCL.ppm             41500.00:  Mud Chlorides 
 MDES.     Inversion Oil/Synthetic:  Mud Desc 
 DFD .sg                  1.56:  Mud Density 
 MDMN.sg                  1.56:  Dens Mud Min 
 MDMX.sg                  1.56:  Dens Mud Max 
 MOIL.                      70:  Run Mud Oil % 
 MOWR.                   70:30:  Run Mud OWR 
 MSND.                     0.2:  Run Mud Sand % 
 MSOL.                    23.3:  Run Mud Solids% 
 DFV .spqt               78.00:  Mud Viscosity 
 MWOD.in                  6.75:  MWD Tool OD 
 MWSI.                      No:  Serv Intrp, MWD 
 OTIM.hr                218.30:  Time Operating 
 PCON.           Look Like New:  Pad Condition 
 PMAX.psia            11015.30:  Press Op, Max 
 PV  .cP                 38.00:  Mud PV 
 RUN .                     300:  Run Number 
 ROPA.m/hr               15.00:  ROP Avg 
 ROPN.m/hr                9.00:  ROP Min 
 ROPX.m/hr               17.00:  ROP Max 
 RPMA.rpm               120.00:  RPM Surface Avg 
 RPMN.rpm                90.00:  RPM Surface Min 
 RPMX.rpm               140.00:  RPM Surface Max 
 RRUN.                     300:  Rig Run Number 
 RTIM.hr                 31.53:  Time Reaming 
 SAZI.deg               331.64:  Azm, Start 
 SDEP.m                4127.00:  Start Depth 
 SIDD.                      No:  Serv Intrp, DD 
 SINC.deg                48.43:  Inc, Start 
 SPPA.psig             5830.00:  SPP Avg 
 SPPN.psig             5600.00:  SPP Min 
 SPPX.psig             5900.00:  SPP Max 
 STIM.      21.00.00 20-Aug-21:  Start Time 
 SVCS.                 DD, MWD:  Services 
 SVER.                    9.20:  Sperry Version 
 TDAT.m                 957.50:  Tot Depth Attmp 
 TDDF.                      No:  Trip for DD 
 TDLG.m                 957.50:  Tot Depth Loggd 
 TFF .                      No:  Trip for Fail 
 TQAA.f-kp               15.00:  Torque Abs Avg 
 TQAN.f-kp               12.00:  Torque Abs Min 
 TQAX.f-kp               19.00:  Torque Abs Max 
 TRRT.°/30m              -3.40:  Turn Rotating 
 MRT .                  EWR-M5:  Maximum Recorded Temperature 
 TTMX.degC              100.00:  Max Tool Temp 
 VS01.                90639251:  Virtual Str1 SN 
 VS02.                90634715:  Virtual Str2 SN 
 VS03.                90652479:  Virtual Str3 SN 
 VS04.                90642262:  Virtual Str4 SN 
 WBMN.klb                 0.00:  WOB Min 
 WITN.           Murad Guliyev:  Customer Rep 
 WITN.          Yashar Gaziyev:  Customer Rep 2 
 WOBA.klb                 9.00:  WOB Avg 
 WOBX.klb                12.00:  WOB Max 
 YP  .lhf2               30.00:  Yield Point 
~Curve Information Block
#MNEM.UNIT                 API CODE     Curve Description
#---------               -----------    ---------------------------
 TIME.HHMMSS            00 000 000 000:  GT Time & Date
 GTDEPTH.m              00 000 000 000:  GT Depth
 GTPQH.psia             00 000 000 000:  GT HR Quartz Pressure
 GTTQ.degC              00 000 000 000:  GT Quartz Temperature
 GTTN.NONE              00 000 000 000:  GT Test Number
 GTET.sec               00 000 000 000:  GT Elapsed Test Time
 GTTVD.m                00 000 000 000:  GT True Vertical Depth
#Other Information
#
#WARRANTY: Halliburton will use its best efforts to furnish customers with 
#accurate information and interpretations that are part of, and incident to, the services 
#provided.  However, Halliburton cannot and does not warrant the accuracy 
#or correctness of such information and interpretations.  Under no circumstances should any 
#such information or interpretation be relied upon as the sole basis for any drilling, 
#completion, production, or financial decision or any procedure involving any risk to the 
#safety of any drilling venture, drilling rig or its crew or any other third party.  The 
#Customer has full responsibility for all drilling, completion and production operation.  
#Halliburton makes no representations or warranties, either expressed or 
#implied, including, but not limited to, the implied warranties of merchantability or fitness 
#for a particular purpose, with respect to the services rendered.  In no event will 
#Halliburton be liable for failure to obtain any particular results or for 
#any damages, including, but not limited to, indirect, special or consequential damages, 
#resulting from the use of any information or interpretation provided by Halliburton.
#
~A           TIME           GTDEPTH  GTPQH  GTTQ  GTTN   GTET   GTTVD  
# ...
   21:24:49.457.27-Aug-2021 4641.00 7342.36 82.47 23.00  45.20 3014.10
   21:24:49.657.27-Aug-2021 4641.00 7320.12 82.47 23.00  45.40 3014.10
   21:24:49.857.27-Aug-2021 4641.00 7301.05 82.47 23.00  45.60 3014.10
   21:24:50.057.27-Aug-2021 4641.00 7281.63 82.47 23.00  45.80 3014.10
   21:24:50.257.27-Aug-2021 4641.00 7259.60 82.47 23.00  46.00 3014.10
   21:24:50.457.27-Aug-2021 4641.00 7259.60 82.47 23.00  46.20 3014.10
   21:24:50.657.27-Aug-2021 4641.00 7203.08 82.47 23.00  46.40 3014.10
   21:24:50.857.27-Aug-2021 4641.00 7164.73 82.47 23.00  46.60 3014.10
   21:24:51.057.27-Aug-2021 4641.00 7117.40 82.47 23.00  46.80 3014.10
   21:24:51.257.27-Aug-2021 4641.00 7063.19 82.47 23.00  47.00 3014.10
   21:24:51.457.27-Aug-2021 4641.00 7063.19 82.47 23.00  47.20 3014.10
   21:24:51.657.27-Aug-2021 4641.00 6939.98 82.47 23.00  47.40 3014.10
   21:24:51.857.27-Aug-2021 4641.00 6878.55 82.47 23.00  47.60 3014.10
   21:24:52.057.27-Aug-2021 4641.00 6833.55 82.47 23.00  47.80 3014.10
   21:24:52.257.27-Aug-2021 4641.00 6810.37 82.47 23.00  48.00 3014.10
   21:24:52.457.27-Aug-2021 4641.00 6810.37 82.47 23.00  48.20 3014.10
   21:24:52.657.27-Aug-2021 4641.00 6746.72 82.47 23.00  48.40 3014.10
   21:24:52.857.27-Aug-2021 4641.00 6711.64 82.47 23.00  48.60 3014.10
   21:24:53.057.27-Aug-2021 4641.00 6651.33 82.46 23.00  48.80 3014.10
   21:24:53.257.27-Aug-2021 4641.00 6558.89 82.46 23.00  49.01 3014.10
   21:24:53.457.27-Aug-2021 4641.00 6558.89 82.46 23.00  49.21 3014.10
   21:24:53.657.27-Aug-2021 4641.00 6358.35 82.46 23.00  49.41 3014.10
   21:24:53.857.27-Aug-2021 4641.00 6251.55 82.46 23.00  49.61 3014.10
   21:24:54.057.27-Aug-2021 4641.00 6143.01 82.46 23.00  49.81 3014.10
   21:24:54.257.27-Aug-2021 4641.00 6037.71 82.46 23.00  50.01 3014.10
   21:24:54.457.27-Aug-2021 4641.00 6037.71 82.46 23.00  50.21 3014.10
   21:24:54.657.27-Aug-2021 4641.00 5906.69 82.46 23.00  50.41 3014.10
   21:24:54.857.27-Aug-2021 4641.00 5870.15 82.46 23.00  50.61 3014.10
   21:24:55.057.27-Aug-2021 4641.00 5844.68 82.46 23.00  50.81 3014.10
   21:24:55.257.27-Aug-2021 4641.00 5824.08 82.46 23.00  51.01 3014.10
   21:24:55.457.27-Aug-2021 4641.00 5824.08 82.46 23.00  51.21 3014.10
   21:24:55.657.27-Aug-2021 4641.00 5800.75 82.46 23.00  51.41 3014.10
   21:24:55.857.27-Aug-2021 4641.00 5794.42 82.45 23.00  51.61 3014.10
   21:24:56.057.27-Aug-2021 4641.00 5789.48 82.45 23.00  51.81 3014.10
   21:24:56.257.27-Aug-2021 4641.00 5786.40 82.45 23.00  52.01 3014.10
   21:24:56.457.27-Aug-2021 4641.00 5786.40 82.45 23.00  52.21 3014.10
   21:24:56.657.27-Aug-2021 4641.00 5782.81 82.45 23.00  52.41 3014.10
   21:24:56.857.27-Aug-2021 4641.00 5782.07 82.45 23.00  52.61 3014.10
   21:24:57.057.27-Aug-2021 4641.00 5781.61 82.45 23.00  52.81 3014.10
   21:24:57.257.27-Aug-2021 4641.00 5781.38 82.45 23.00  53.01 3014.10
   21:24:57.457.27-Aug-2021 4641.00 5781.38 82.45 23.00  53.21 3014.10
   21:24:57.657.27-Aug-2021 4641.00 5779.23 82.45 23.00  53.41 3014.10
   21:24:57.857.27-Aug-2021 4641.00 5777.69 82.44 23.00  53.61 3014.10
   21:24:58.057.27-Aug-2021 4641.00 5775.13 82.44 23.00  53.81 3014.10
   21:24:58.257.27-Aug-2021 4641.00 5666.19 82.44 23.00  54.01 3014.10
   21:24:58.457.27-Aug-2021 4641.00 5666.19 82.44 23.00  54.21 3014.10
   21:24:58.657.27-Aug-2021 4641.00 3848.26 82.44 23.00  54.41 3014.10
   21:24:58.858.27-Aug-2021 4641.00 2886.30 82.44 23.00  54.61 3014.10
   21:24:59.058.27-Aug-2021 4641.00 2041.32 82.44 23.00  54.81 3014.10
   21:24:59.258.27-Aug-2021 4641.00 1398.83 82.44 23.00  55.01 3014.10
   21:24:59.458.27-Aug-2021 4641.00 1398.83 82.44 23.00  55.21 3014.10
   21:24:59.658.27-Aug-2021 4641.00 1216.50 82.43 23.00  55.41 3014.10
   21:24:59.858.27-Aug-2021 4641.00 1212.04 82.43 23.00  55.61 3014.10
   21:25:00.058.27-Aug-2021 4641.00 1210.40 82.43 23.00  55.81 3014.10
   21:25:00.258.27-Aug-2021 4641.00 1206.30 82.42 23.00  56.01 3014.10
   21:25:00.458.27-Aug-2021 4641.00 1206.30 82.42 23.00  56.21 3014.10
   21:25:00.658.27-Aug-2021 4641.00 1210.11 82.42 23.00  56.41 3014.10
   21:25:00.858.27-Aug-2021 4641.00 1208.59 82.41 23.00  56.61 3014.10
   21:25:01.058.27-Aug-2021 4641.00 1205.62 82.41 23.00  56.81 3014.10
   21:25:01.258.27-Aug-2021 4641.00 1202.87 82.40 23.00  57.01 3014.10
   21:25:01.458.27-Aug-2021 4641.00 1202.87 82.40 23.00  57.21 3014.10
   21:25:01.658.27-Aug-2021 4641.00 1199.13 82.40 23.00  57.41 3014.10
   21:25:01.858.27-Aug-2021 4641.00 1198.19 82.39 23.00  57.61 3014.10
   21:25:02.058.27-Aug-2021 4641.00 1199.10 82.39 23.00  57.81 3014.10
   21:25:02.258.27-Aug-2021 4641.00 1199.04 82.38 23.00  58.01 3014.10
   21:25:02.458.27-Aug-2021 4641.00 1199.04 82.38 23.00  58.21 3014.10
   21:25:02.658.27-Aug-2021 4641.00 1198.37 82.38 23.00  58.41 3014.10
   21:25:02.858.27-Aug-2021 4641.00 1195.53 82.37 23.00  58.61 3014.10
   21:25:03.058.27-Aug-2021 4641.00 1192.27 82.37 23.00  58.81 3014.10
   21:25:03.258.27-Aug-2021 4641.00 1194.44 82.37 23.00  59.01 3014.10
   21:25:03.458.27-Aug-2021 4641.00 1194.44 82.37 23.00  59.21 3014.10
   21:25:03.658.27-Aug-2021 4641.00 1198.94 82.36 23.00  59.41 3014.10
   21:25:03.858.27-Aug-2021 4641.00 1197.34 82.36 23.00  59.61 3014.10
   21:25:04.058.27-Aug-2021 4641.00 1196.22 82.35 23.00  59.81 3014.10
   21:25:04.258.27-Aug-2021 4641.00 1196.58 82.35 23.00  60.01 3014.10
   21:25:04.458.27-Aug-2021 4641.00 1196.58 82.35 23.00  60.21 3014.10
   21:25:04.658.27-Aug-2021 4641.00 1194.68 82.34 23.00  60.41 3014.10
   21:25:04.858.27-Aug-2021 4641.00 1193.57 82.34 23.00  60.61 3014.10
   21:25:05.058.27-Aug-2021 4641.00 1194.89 82.34 23.00  60.81 3014.10
   21:25:05.258.27-Aug-2021 4641.00 1193.74 82.33 23.00  61.01 3014.10
   21:25:05.458.27-Aug-2021 4641.00 1193.74 82.33 23.00  61.21 3014.10
   21:25:05.658.27-Aug-2021 4641.00 1195.02 82.33 23.00  61.41 3014.10
   21:25:05.858.27-Aug-2021 4641.00 1197.18 82.33 23.00  61.61 3014.10
   21:25:06.058.27-Aug-2021 4641.00 1199.64 82.33 23.00  61.81 3014.10
   21:25:06.258.27-Aug-2021 4641.00 1201.92 82.32 23.00  62.01 3014.10
   21:25:06.458.27-Aug-2021 4641.00 1201.92 82.32 23.00  62.21 3014.10
   21:25:06.658.27-Aug-2021 4641.00 1204.22 82.32 23.00  62.41 3014.10
   21:25:06.858.27-Aug-2021 4641.00 1204.48 82.32 23.00  62.61 3014.10
   21:25:07.058.27-Aug-2021 4641.00 1205.64 82.32 23.00  62.81 3014.10
   21:25:07.258.27-Aug-2021 4641.00 1200.98 82.31 23.00  63.01 3014.10
   21:25:07.458.27-Aug-2021 4641.00 1200.98 82.31 23.00  63.21 3014.10
   21:25:07.658.27-Aug-2021 4641.00 1193.19 82.31 23.00  63.41 3014.10
   21:25:07.858.27-Aug-2021 4641.00 1192.98 82.31 23.00  63.61 3014.10
   21:25:08.058.27-Aug-2021 4641.00 1192.20 82.31 23.00  63.81 3014.10
   21:25:08.258.27-Aug-2021 4641.00 1192.16 82.31 23.00  64.01 3014.10
   21:25:08.458.27-Aug-2021 4641.00 1192.16 82.31 23.00  64.21 3014.10
   21:25:08.659.27-Aug-2021 4641.00 1203.73 82.30 23.00  64.41 3014.10
   21:25:08.859.27-Aug-2021 4641.00 1206.06 82.30 23.00  64.61 3014.10
   21:25:09.059.27-Aug-2021 4641.00 1208.39 82.30 23.00  64.81 3014.10
   21:25:09.259.27-Aug-2021 4641.00 1210.65 82.30 23.00  65.01 3014.10
   21:25:09.459.27-Aug-2021 4641.00 1210.65 82.30 23.00  65.21 3014.10
   21:25:09.659.27-Aug-2021 4641.00 1214.99 82.30 23.00  65.41 3014.10
   21:25:09.859.27-Aug-2021 4641.00 1217.06 82.30 23.00  65.61 3014.10
   21:25:10.059.27-Aug-2021 4641.00 1219.08 82.30 23.00  65.81 3014.10
   21:25:10.259.27-Aug-2021 4641.00 1221.06 82.30 23.00  66.01 3014.10
   21:25:10.459.27-Aug-2021 4641.00 1221.06 82.30 23.00  66.21 3014.10
   21:25:10.659.27-Aug-2021 4641.00 1224.95 82.30 23.00  66.41 3014.10
   21:25:10.859.27-Aug-2021 4641.00 1226.91 82.30 23.00  66.61 3014.10
   21:25:11.059.27-Aug-2021 4641.00 1228.86 82.30 23.00  66.81 3014.10
   21:25:11.259.27-Aug-2021 4641.00 1230.74 82.30 23.00  67.01 3014.10
   21:25:11.459.27-Aug-2021 4641.00 1230.74 82.30 23.00  67.21 3014.10
   21:25:11.659.27-Aug-2021 4641.00 1234.90 82.29 23.00  67.41 3014.10
   21:25:11.859.27-Aug-2021 4641.00 1236.45 82.29 23.00  67.61 3014.10
