~Version Information
 VERS.                  2.0:   CWLS log ASCII Standard -VERSION 2.0
 WRAP.                   NO:   One line per depth step
~Well Information Block
#MNEM.UNIT     VALUE/NAME     DESCRIPTION
#---------     -----------    ---------------------------
 STRT.S             11:48:55 27-Aug-21: START TIME 11:48:55 27-Aug-21
 STOP.S             11:56:03 27-Aug-21: STOP TIME  11:56:03 27-Aug-21
 STEP.S                   0.00: STEP TIME
 NULL.                 -999.25: NULL VALUE
 DFWT.                        :  DIST FWL TEXT
 DFST.                        :  DIST FSL TEXT
 DMF .             Drill Floor:  DRILL MEAS FROM
 STIM.      20.00.00 17-Aug-21:  START TIME
 DATE.      19.00.00 29-Aug-21:  END TIME
 SPUD.               15-Aug-21:  SPUD DATE
 NREF.                    Grid:  NORTH REFERENCE
 HPTY.       Minimum Curvature:  HOLE POS TYPE
 DMOD.             Drill Model:  DRILL MOD DESC
 SVYD.                  Survey:  SURVEY DESC
 ILTD.               Lithology:  INTERP LTH DESC
 FTOP.          Formation Tops:  FORM TOPS DESC
 RIG .              East Azeri:  RIG NAME
 PDAT.          Mean Sea Level:  PERMANENT DATUM
 FLD .                     ACG:  FIELD NAME
 SON .        AZ-XX-0907180857:  JOB NUMBER
 CTRY.              Azerbaijan:  COUNTRY NAME
 WELL.                    D23x:  WELL NAME
 SRVC.     Turan Drilling and Engineering:  CONTRACTOR
 COMP.     BP Exploration (Caspian Sea) Ltd.:  COMPANY
 UWI .            /AZE00000214:  UNIQUE WELL IDENTIFIER
 API .            /AZE00000214:  API NUMBER
 MDS .        Operator Entered:  MAG DATA SOURCE
 BASE.              Azerbaijan:  LOGGING EQUIPMENT BASE LOCATION
 REGN.                   EESSA:  REGION
 PROV.                    Baku:  PROVINCE
 STAT.                    Baku:  STATE NAME
 MWDS.                    Baku:  MWD SHOP
 DOE .                     N/A:  DOE NUMBER
 DCON.         Sperry Drilling:  DIRECTNL CONTR
 UNIT.                     N/A:  LOGGING EQUIPMENT ID
 WTYP.                Deviated:  WELL TYPE
 CNTY.                        :  COUNTY
 LOC .                        :  LOCATION
 LMF .             Drill Floor:  LOG MEASURED FROM
 TVDS.m                  43.60:  TVDSS CORRECTN
 LATI.deg                40.02:  LATITUDE
 LONG.deg                51.45:  LONGITUDE
 WHNS.m                  -7.04:  WELL HEAD N/S
 WHEW.m                  -0.67:  WELL HEAD E/W
 UTMX.m              538762.90:  UTM X
 UTMY.m             4431871.34:  UTM Y
 DFWL.m                   0.00:  DISTANCE FWL
 DFSL.m                   0.00:  DISTANCE FSL
 SDEP.m                4127.00:  START DEPTH
 TDD .m                5084.50:  TOTAL DEPTH (DRILLER)
 VSDR.deg               140.47:  VERT SEC DIRECT
 GVFD.g                   1.00:  GRAVITY FIELD
 MFLD.nT              50362.00:  MAGNETIC FIELD
 MDIP.deg                59.48:  MAGNETIC DIP
 MDEC.deg                 6.47:  MAGNETIC DECL
 GRDC.deg                 0.31:  GRID CORRECTION
 AZTC.deg                 6.16:  AZM TOTAL CORR
 EPD .m                   0.00:  ELEVATION
 EGL .m                   0.00:  GROUND ELEVATION
 WDMS.m                 151.80:  WD ELEV
 APD .m                  43.60:  DEPTH ABOVE PD
 DEP .m                4092.57:  DEPTH
 AGAP.m                  43.60:  AIR GAP
 VSEW.m                  -0.67:  VERT SEC E/W
 VSNS.m                  -7.04:  VERT SEC N/S
 EKB .m                  43.60:  KB ELEVATION
 EDF .m                  43.60:  DF ELEVATION
 TDL .m                 957.50:  TOTAL DEPTH (LOGGER)
 VSC .                       0:  VS TO CLOSURE
 MAGU.                 1851413:  MAGUTM CHECKSUM
~Parameter Information Block
#MNEM.UNIT       Value        Description
#---------     -----------    ---------------------------
 AV  .mps                 1.50:  Ann Velocity 
 AVMX.mps                 2.00:  Max Ann Veloc 
 AZIF.deg               184.66:  Azm, Final 
 BHAT.        Rotary Steerable:  BHA Type 
 BREV.rev               300.00:  Rev Bit Total 
 BROT.°/30m              -0.50:  Build Rotating 
 BS  .in                  8.50:  Bit Size 
 BSZ .in                  8.50:  Bit Size 
 BTPL.psig              370.00:  Bit Press Loss 
 CABU.                      No:  Customer Abuse 
 CGEO.      Behruz Shahbaliyev:  Customer Geo 
 COMM.                     L*e:  Run Comments 1 
 TCS .hr                140.08:  Time Ciculation Ended 
 CV  .mps                 3.00:  Crit Velocity 
 CVMX.mps                 3.20:  Max Crit Veloc 
 DD1 .            Musa Ahmadov:  Direct Drillr 1 
 DD2 .           Hamid Ahmadov:  Direct Drillr 2 
 DDSV.               Geo-Pilot:  DD Service 
 DEFF.%                  98.40:  % Det Eff 
 DLRX.°/30m               3.40:  Dogleg Rot Max 
 DLSO.°/30m               1.45:  Dogleg Oriented 
 DLSX.°/30m               3.40:  Dogleg Str Max 
 DRET.      18.40.00 29-Aug-21:  Drill End Time 
 DRST.      21.00.00 20-Aug-21:  Drill Start Tim 
 DTIM.hr                 69.47:  Time Drilling 
 EDEP.m                5084.50:  End Depth 
 ENG1.      Artemiy Matviyanov:  Engineer 1 
 ENG2.         Almaz Almadatov:  Engineer 2 
 ETIM.      18.40.00 29-Aug-21:  End Time 
 FLOI.gpm               500.00:  Flow In 
 FLON.gpm               400.00:  Flow In Min 
 FLOS.cptm                0.00:  Fluid Loss 
 FLOX.gpm               500.00:  Flow In Max 
 DFT .        Mineral Oil Base:  Mud Type 
 HFLO.                      No:  High Flow 
 HPRE.                      No:  High Pressure 
 HTEM.                      No:  High Temp 
 HYDO.m                   1.80:  Hydro Offset 
 IFIN.deg                25.62:  Inc, Final 
 IMAX.deg                48.69:  Inc Max 
 IMIN.deg                24.01:  Inc Min 
 IMND.m                4962.57:  Inc Min Depth 
 IMXD.m                4119.01:  Inc Max Depth 
 JARR.                      No:  Jarring 
 LETM.      18.40.00 29-Aug-21:  Log End Time 
 LOST.hr                     0:  Lost Rig Time 
 LSTM.      21.00.00 20-Aug-21:  Log Start Time 
 MDCL.ppm             41500.00:  Mud Chlorides 
 MDES.     Inversion Oil/Synthetic:  Mud Desc 
 DFD .sg                  1.56:  Mud Density 
 MDMN.sg                  1.56:  Dens Mud Min 
 MDMX.sg                  1.56:  Dens Mud Max 
 MOIL.                      70:  Run Mud Oil % 
 MOWR.                   70:30:  Run Mud OWR 
 MSND.                     0.2:  Run Mud Sand % 
 MSOL.                    23.3:  Run Mud Solids% 
 DFV .spqt               78.00:  Mud Viscosity 
 MWOD.in                  6.75:  MWD Tool OD 
 MWSI.                      No:  Serv Intrp, MWD 
 OTIM.hr                218.30:  Time Operating 
 PCON.           Look Like New:  Pad Condition 
 PMAX.psia            11015.30:  Press Op, Max 
 PV  .cP                 38.00:  Mud PV 
 RUN .                     300:  Run Number 
 ROPA.m/hr               15.00:  ROP Avg 
 ROPN.m/hr                9.00:  ROP Min 
 ROPX.m/hr               17.00:  ROP Max 
 RPMA.rpm               120.00:  RPM Surface Avg 
 RPMN.rpm                90.00:  RPM Surface Min 
 RPMX.rpm               140.00:  RPM Surface Max 
 RRUN.                     300:  Rig Run Number 
 RTIM.hr                 31.53:  Time Reaming 
 SAZI.deg               331.64:  Azm, Start 
 SDEP.m                4127.00:  Start Depth 
 SIDD.                      No:  Serv Intrp, DD 
 SINC.deg                48.43:  Inc, Start 
 SPPA.psig             5830.00:  SPP Avg 
 SPPN.psig             5600.00:  SPP Min 
 SPPX.psig             5900.00:  SPP Max 
 STIM.      21.00.00 20-Aug-21:  Start Time 
 SVCS.                 DD, MWD:  Services 
 SVER.                    9.20:  Sperry Version 
 TDAT.m                 957.50:  Tot Depth Attmp 
 TDDF.                      No:  Trip for DD 
 TDLG.m                 957.50:  Tot Depth Loggd 
 TFF .                      No:  Trip for Fail 
 TQAA.f-kp               15.00:  Torque Abs Avg 
 TQAN.f-kp               12.00:  Torque Abs Min 
 TQAX.f-kp               19.00:  Torque Abs Max 
 TRRT.°/30m              -3.40:  Turn Rotating 
 MRT .                  EWR-M5:  Maximum Recorded Temperature 
 TTMX.degC              100.00:  Max Tool Temp 
 VS01.                90639251:  Virtual Str1 SN 
 VS02.                90634715:  Virtual Str2 SN 
 VS03.                90652479:  Virtual Str3 SN 
 VS04.                90642262:  Virtual Str4 SN 
 WBMN.klb                 0.00:  WOB Min 
 WITN.           Murad Guliyev:  Customer Rep 
 WITN.          Yashar Gaziyev:  Customer Rep 2 
 WOBA.klb                 9.00:  WOB Avg 
 WOBX.klb                12.00:  WOB Max 
 YP  .lhf2               30.00:  Yield Point 
~Curve Information Block
#MNEM.UNIT                 API CODE     Curve Description
#---------               -----------    ---------------------------
 TIME.HHMMSS            00 000 000 000:  GT Time & Date
 GTDEPTH.m              00 000 000 000:  GT Depth
 GTPQH.psia             00 000 000 000:  GT HR Quartz Pressure
 GTTQ.degC              00 000 000 000:  GT Quartz Temperature
 GTTN.NONE              00 000 000 000:  GT Test Number
 GTET.sec               00 000 000 000:  GT Elapsed Test Time
 GTTVD.m                00 000 000 000:  GT True Vertical Depth
#Other Information
#
#WARRANTY: Halliburton will use its best efforts to furnish customers with 
#accurate information and interpretations that are part of, and incident to, the services 
#provided.  However, Halliburton cannot and does not warrant the accuracy 
#or correctness of such information and interpretations.  Under no circumstances should any 
#such information or interpretation be relied upon as the sole basis for any drilling, 
#completion, production, or financial decision or any procedure involving any risk to the 
#safety of any drilling venture, drilling rig or its crew or any other third party.  The 
#Customer has full responsibility for all drilling, completion and production operation.  
#Halliburton makes no representations or warranties, either expressed or 
#implied, including, but not limited to, the implied warranties of merchantability or fitness 
#for a particular purpose, with respect to the services rendered.  In no event will 
#Halliburton be liable for failure to obtain any particular results or for 
#any damages, including, but not limited to, indirect, special or consequential damages, 
#resulting from the use of any information or interpretation provided by Halliburton.
#
~A           TIME           GTDEPTH  GTPQH  GTTQ  GTTN   GTET   GTTVD  
# ...
   11:51:56.512.27-Aug-2021 4914.00 7811.90 85.28 11.00 180.86 3261.31
   11:51:56.712.27-Aug-2021 4914.00 7810.13 85.28 11.00 181.06 3261.31
   11:51:56.912.27-Aug-2021 4914.00 7810.13 85.28 11.00 181.26 3261.31
   11:51:57.112.27-Aug-2021 4914.00 7808.94 85.28 11.00 181.46 3261.31
   11:51:57.312.27-Aug-2021 4914.00 7808.67 85.28 11.00 181.66 3261.31
   11:51:57.512.27-Aug-2021 4914.00 7814.61 85.28 11.00 181.86 3261.31
   11:51:57.712.27-Aug-2021 4914.00 7806.16 85.28 11.00 182.06 3261.31
   11:51:57.913.27-Aug-2021 4914.00 7806.16 85.28 11.00 182.26 3261.31
   11:51:58.113.27-Aug-2021 4914.00 7809.00 85.28 11.00 182.46 3261.31
   11:51:58.313.27-Aug-2021 4914.00 7813.03 85.28 11.00 182.66 3261.31
   11:51:58.513.27-Aug-2021 4914.00 7809.32 85.28 11.00 182.86 3261.31
   11:51:58.713.27-Aug-2021 4914.00 7810.49 85.28 11.00 183.06 3261.31
   11:51:58.913.27-Aug-2021 4914.00 7810.49 85.28 11.00 183.27 3261.31
   11:51:59.113.27-Aug-2021 4914.00 7808.98 85.28 11.00 183.47 3261.31
   11:51:59.313.27-Aug-2021 4914.00 7809.63 85.28 11.00 183.67 3261.31
   11:51:59.513.27-Aug-2021 4914.00 7811.68 85.28 11.00 183.87 3261.31
   11:51:59.713.27-Aug-2021 4914.00 7810.01 85.28 11.00 184.07 3261.31
   11:51:59.913.27-Aug-2021 4914.00 7810.01 85.28 11.00 184.27 3261.31
   11:52:00.113.27-Aug-2021 4914.00 7809.51 85.28 11.00 184.47 3261.31
   11:52:00.313.27-Aug-2021 4914.00 7809.34 85.28 11.00 184.67 3261.31
   11:52:00.513.27-Aug-2021 4914.00 7809.34 85.28 11.00 184.87 3261.31
   11:52:00.714.27-Aug-2021 4914.00 7809.55 85.28 11.00 185.07 3261.31
   11:52:00.914.27-Aug-2021 4914.00 7809.55 85.28 11.00 185.27 3261.31
   11:52:01.114.27-Aug-2021 4914.00 7809.27 85.28 11.00 185.47 3261.31
   11:52:01.314.27-Aug-2021 4914.00 7809.70 85.28 11.00 185.67 3261.31
   11:52:01.514.27-Aug-2021 4914.00 7809.71 85.28 11.00 185.87 3261.31
   11:52:01.714.27-Aug-2021 4914.00 7809.99 85.28 11.00 186.07 3261.31
   11:52:01.914.27-Aug-2021 4914.00 7809.99 85.28 11.00 186.27 3261.31
   11:52:02.114.27-Aug-2021 4914.00 7809.87 85.28 11.00 186.47 3261.31
   11:52:02.314.27-Aug-2021 4914.00 7809.57 85.28 11.00 186.67 3261.31
   11:52:02.514.27-Aug-2021 4914.00 7809.68 85.28 11.00 186.87 3261.31
   11:52:02.714.27-Aug-2021 4914.00 7813.16 85.28 11.00 187.07 3261.31
   11:52:02.914.27-Aug-2021 4914.00 7813.16 85.28 11.00 187.27 3261.31
   11:52:03.114.27-Aug-2021 4914.00 7813.16 85.28 11.00 187.47 3261.31
   11:52:03.314.27-Aug-2021 4914.00 7809.21 85.28 11.00 187.67 3261.31
   11:52:03.515.27-Aug-2021 4914.00 7808.99 85.28 11.00 187.87 3261.31
   11:52:03.715.27-Aug-2021 4914.00 7808.87 85.28 11.00 188.07 3261.31
   11:52:03.915.27-Aug-2021 4914.00 7808.87 85.28 11.00 188.27 3261.31
   11:52:04.115.27-Aug-2021 4914.00 7808.51 85.28 11.00 188.47 3261.31
   11:52:04.315.27-Aug-2021 4914.00 7809.01 85.28 11.00 188.67 3261.31
   11:52:04.515.27-Aug-2021 4914.00 7809.27 85.28 11.00 188.87 3261.31
   11:52:04.715.27-Aug-2021 4914.00 7809.75 85.28 11.00 189.07 3261.31
   11:52:04.915.27-Aug-2021 4914.00 7809.75 85.28 11.00 189.27 3261.31
   11:52:05.115.27-Aug-2021 4914.00 7809.90 85.28 11.00 189.47 3261.31
   11:52:05.315.27-Aug-2021 4914.00 7809.84 85.28 11.00 189.67 3261.31
   11:52:05.515.27-Aug-2021 4914.00 7809.56 85.28 11.00 189.87 3261.31
   11:52:05.715.27-Aug-2021 4914.00 7809.47 85.28 11.00 190.07 3261.31
   11:52:05.915.27-Aug-2021 4914.00 7809.47 85.28 11.00 190.27 3261.31
   11:52:06.115.27-Aug-2021 4914.00 7812.93 85.28 11.00 190.47 3261.31
   11:52:06.315.27-Aug-2021 4914.00 7808.63 85.28 11.00 190.67 3261.31
   11:52:06.516.27-Aug-2021 4914.00 7810.07 85.28 11.00 190.87 3261.31
   11:52:06.716.27-Aug-2021 4914.00 7808.92 85.28 11.00 191.07 3261.31
   11:52:06.916.27-Aug-2021 4914.00 7808.92 85.28 11.00 191.27 3261.31
   11:52:07.116.27-Aug-2021 4914.00 7809.30 85.28 11.00 191.47 3261.31
   11:52:07.316.27-Aug-2021 4914.00 7811.08 85.28 11.00 191.67 3261.31
   11:52:07.516.27-Aug-2021 4914.00 7809.31 85.28 11.00 191.87 3261.31
   11:52:07.716.27-Aug-2021 4914.00 7809.26 85.28 11.00 192.07 3261.31
   11:52:07.916.27-Aug-2021 4914.00 7809.26 85.28 11.00 192.27 3261.31
   11:52:08.116.27-Aug-2021 4914.00 7806.24 85.28 11.00 192.47 3261.31
   11:52:08.316.27-Aug-2021 4914.00 7810.54 85.28 11.00 192.67 3261.31
   11:52:08.516.27-Aug-2021 4914.00 7809.84 85.28 11.00 192.87 3261.31
   11:52:08.716.27-Aug-2021 4914.00 7808.31 85.28 11.00 193.07 3261.31
   11:52:08.916.27-Aug-2021 4914.00 7808.31 85.28 11.00 193.27 3261.31
   11:52:09.116.27-Aug-2021 4914.00 7808.61 85.28 11.00 193.47 3261.31
   11:52:09.317.27-Aug-2021 4914.00 7813.30 85.28 11.00 193.67 3261.31
   11:52:09.517.27-Aug-2021 4914.00 7807.95 85.28 11.00 193.87 3261.31
   11:52:09.717.27-Aug-2021 4914.00 7810.72 85.28 11.00 194.07 3261.31
   11:52:09.917.27-Aug-2021 4914.00 7810.72 85.28 11.00 194.27 3261.31
   11:52:10.117.27-Aug-2021 4914.00 7809.34 85.28 11.00 194.47 3261.31
   11:52:10.317.27-Aug-2021 4914.00 7809.27 85.28 11.00 194.67 3261.31
   11:52:10.517.27-Aug-2021 4914.00 7808.79 85.28 11.00 194.87 3261.31
   11:52:10.717.27-Aug-2021 4914.00 7809.01 85.28 11.00 195.07 3261.31
   11:52:10.917.27-Aug-2021 4914.00 7809.01 85.28 11.00 195.27 3261.31
   11:52:11.117.27-Aug-2021 4914.00 7808.63 85.28 11.00 195.47 3261.31
   11:52:11.317.27-Aug-2021 4914.00 7809.17 85.28 11.00 195.67 3261.31
   11:52:11.517.27-Aug-2021 4914.00 7809.29 85.28 11.00 195.87 3261.31
   11:52:11.717.27-Aug-2021 4914.00 7809.58 85.28 11.00 196.07 3261.31
   11:52:11.917.27-Aug-2021 4914.00 7809.58 85.28 11.00 196.27 3261.31
   11:52:12.118.27-Aug-2021 4914.00 7809.47 85.28 11.00 196.47 3261.31
   11:52:12.318.27-Aug-2021 4914.00 7809.20 85.28 11.00 196.67 3261.31
   11:52:12.518.27-Aug-2021 4914.00 7809.81 85.28 11.00 196.87 3261.31
   11:52:12.718.27-Aug-2021 4914.00 7811.76 85.28 11.00 197.07 3261.31
   11:52:12.918.27-Aug-2021 4914.00 7811.76 85.28 11.00 197.27 3261.31
   11:52:13.118.27-Aug-2021 4914.00 7809.48 85.28 11.00 197.47 3261.31
   11:52:13.318.27-Aug-2021 4914.00 7808.60 85.28 11.00 197.67 3261.31
   11:52:13.518.27-Aug-2021 4914.00 7808.45 85.28 11.00 197.87 3261.31
   11:52:13.718.27-Aug-2021 4914.00 7808.29 85.28 11.00 198.07 3261.31
   11:52:13.918.27-Aug-2021 4914.00 7808.29 85.28 11.00 198.27 3261.31
   11:52:14.118.27-Aug-2021 4914.00 7807.90 85.28 11.00 198.47 3261.31
   11:52:14.318.27-Aug-2021 4914.00 7808.53 85.28 11.00 198.67 3261.31
   11:52:14.518.27-Aug-2021 4914.00 7808.94 85.28 11.00 198.87 3261.31
   11:52:14.718.27-Aug-2021 4914.00 7809.32 85.28 11.00 199.07 3261.31
   11:52:14.919.27-Aug-2021 4914.00 7809.32 85.28 11.00 199.27 3261.31
   11:52:15.119.27-Aug-2021 4914.00 7809.44 85.28 11.00 199.47 3261.31
   11:52:15.319.27-Aug-2021 4914.00 7809.46 85.28 11.00 199.67 3261.31
   11:52:15.519.27-Aug-2021 4914.00 7808.97 85.28 11.00 199.87 3261.31
   11:52:15.719.27-Aug-2021 4914.00 7809.06 85.28 11.00 200.07 3261.31
   11:52:15.919.27-Aug-2021 4914.00 7809.06 85.28 11.00 200.27 3261.31
   11:52:16.119.27-Aug-2021 4914.00 7811.48 85.28 11.00 200.47 3261.31
   11:52:16.319.27-Aug-2021 4914.00 7809.56 85.28 11.00 200.67 3261.31
   11:52:16.519.27-Aug-2021 4914.00 7809.11 85.28 11.00 200.87 3261.31
   11:52:16.719.27-Aug-2021 4914.00 7808.45 85.28 11.00 201.07 3261.31
   11:52:16.919.27-Aug-2021 4914.00 7808.45 85.28 11.00 201.27 3261.31
   11:52:17.119.27-Aug-2021 4914.00 7814.42 85.28 11.00 201.47 3261.31
   11:52:17.319.27-Aug-2021 4914.00 7805.65 85.28 11.00 201.67 3261.31
   11:52:17.519.27-Aug-2021 4914.00 7809.42 85.28 11.00 201.87 3261.31
   11:52:17.720.27-Aug-2021 4914.00 7809.24 85.28 11.00 202.07 3261.31
   11:52:17.920.27-Aug-2021 4914.00 7809.24 85.28 11.00 202.27 3261.31
   11:52:18.120.27-Aug-2021 4914.00 7810.09 85.28 11.00 202.47 3261.31
   11:52:18.320.27-Aug-2021 4914.00 7809.41 85.28 11.00 202.67 3261.31
   11:52:18.520.27-Aug-2021 4914.00 7808.79 85.28 11.00 202.87 3261.31
   11:52:18.720.27-Aug-2021 4914.00 7808.41 85.28 11.00 203.07 3261.31
   11:52:18.920.27-Aug-2021 4914.00 7808.41 85.28 11.00 203.27 3261.31
