~Version Information
 VERS.                  2.0:   CWLS log ASCII Standard -VERSION 2.0
 WRAP.                   NO:   One line per depth step
~Well Information Block
#MNEM.UNIT     VALUE/NAME     DESCRIPTION
#---------     -----------    ---------------------------
 STRT.S             08:51:30 27-Aug-21: START TIME 08:51:30 27-Aug-21
 STOP.S             08:58:20 27-Aug-21: STOP TIME  08:58:20 27-Aug-21
 STEP.S                   0.00: STEP TIME
 NULL.                 -999.25: NULL VALUE
 DFWT.                        :  DIST FWL TEXT
 DFST.                        :  DIST FSL TEXT
 DMF .             Drill Floor:  DRILL MEAS FROM
 STIM.      20.00.00 17-Aug-21:  START TIME
 DATE.      19.00.00 29-Aug-21:  END TIME
 SPUD.               15-Aug-21:  SPUD DATE
 NREF.                    Grid:  NORTH REFERENCE
 HPTY.       Minimum Curvature:  HOLE POS TYPE
 DMOD.             Drill Model:  DRILL MOD DESC
 SVYD.                  Survey:  SURVEY DESC
 ILTD.               Lithology:  INTERP LTH DESC
 FTOP.          Formation Tops:  FORM TOPS DESC
 RIG .              East Azeri:  RIG NAME
 PDAT.          Mean Sea Level:  PERMANENT DATUM
 FLD .                     ACG:  FIELD NAME
 SON .        AZ-XX-0907180857:  JOB NUMBER
 CTRY.              Azerbaijan:  COUNTRY NAME
 WELL.                    D23x:  WELL NAME
 SRVC.     Turan Drilling and Engineering:  CONTRACTOR
 COMP.     BP Exploration (Caspian Sea) Ltd.:  COMPANY
 UWI .            /AZE00000214:  UNIQUE WELL IDENTIFIER
 API .            /AZE00000214:  API NUMBER
 MDS .        Operator Entered:  MAG DATA SOURCE
 BASE.              Azerbaijan:  LOGGING EQUIPMENT BASE LOCATION
 REGN.                   EESSA:  REGION
 PROV.                    Baku:  PROVINCE
 STAT.                    Baku:  STATE NAME
 MWDS.                    Baku:  MWD SHOP
 DOE .                     N/A:  DOE NUMBER
 DCON.         Sperry Drilling:  DIRECTNL CONTR
 UNIT.                     N/A:  LOGGING EQUIPMENT ID
 WTYP.                Deviated:  WELL TYPE
 CNTY.                        :  COUNTY
 LOC .                        :  LOCATION
 LMF .             Drill Floor:  LOG MEASURED FROM
 TVDS.m                  43.60:  TVDSS CORRECTN
 LATI.deg                40.02:  LATITUDE
 LONG.deg                51.45:  LONGITUDE
 WHNS.m                  -7.04:  WELL HEAD N/S
 WHEW.m                  -0.67:  WELL HEAD E/W
 UTMX.m              538762.90:  UTM X
 UTMY.m             4431871.34:  UTM Y
 DFWL.m                   0.00:  DISTANCE FWL
 DFSL.m                   0.00:  DISTANCE FSL
 SDEP.m                4127.00:  START DEPTH
 TDD .m                5084.50:  TOTAL DEPTH (DRILLER)
 VSDR.deg               140.47:  VERT SEC DIRECT
 GVFD.g                   1.00:  GRAVITY FIELD
 MFLD.nT              50362.00:  MAGNETIC FIELD
 MDIP.deg                59.48:  MAGNETIC DIP
 MDEC.deg                 6.47:  MAGNETIC DECL
 GRDC.deg                 0.31:  GRID CORRECTION
 AZTC.deg                 6.16:  AZM TOTAL CORR
 EPD .m                   0.00:  ELEVATION
 EGL .m                   0.00:  GROUND ELEVATION
 WDMS.m                 151.80:  WD ELEV
 APD .m                  43.60:  DEPTH ABOVE PD
 DEP .m                4092.57:  DEPTH
 AGAP.m                  43.60:  AIR GAP
 VSEW.m                  -0.67:  VERT SEC E/W
 VSNS.m                  -7.04:  VERT SEC N/S
 EKB .m                  43.60:  KB ELEVATION
 EDF .m                  43.60:  DF ELEVATION
 TDL .m                 957.50:  TOTAL DEPTH (LOGGER)
 VSC .                       0:  VS TO CLOSURE
 MAGU.                 1851413:  MAGUTM CHECKSUM
~Parameter Information Block
#MNEM.UNIT       Value        Description
#---------     -----------    ---------------------------
 AV  .mps                 1.50:  Ann Velocity 
 AVMX.mps                 2.00:  Max Ann Veloc 
 AZIF.deg               184.66:  Azm, Final 
 BHAT.        Rotary Steerable:  BHA Type 
 BREV.rev               300.00:  Rev Bit Total 
 BROT.°/30m              -0.50:  Build Rotating 
 BS  .in                  8.50:  Bit Size 
 BSZ .in                  8.50:  Bit Size 
 BTPL.psig              370.00:  Bit Press Loss 
 CABU.                      No:  Customer Abuse 
 CGEO.      Behruz Shahbaliyev:  Customer Geo 
 COMM.                     <w:  Run Comments 1 
 TCS .hr                140.08:  Time Ciculation Ended 
 CV  .mps                 3.00:  Crit Velocity 
 CVMX.mps                 3.20:  Max Crit Veloc 
 DD1 .            Musa Ahmadov:  Direct Drillr 1 
 DD2 .           Hamid Ahmadov:  Direct Drillr 2 
 DDSV.               Geo-Pilot:  DD Service 
 DEFF.%                  98.40:  % Det Eff 
 DLRX.°/30m               3.40:  Dogleg Rot Max 
 DLSO.°/30m               1.45:  Dogleg Oriented 
 DLSX.°/30m               3.40:  Dogleg Str Max 
 DRET.      18.40.00 29-Aug-21:  Drill End Time 
 DRST.      21.00.00 20-Aug-21:  Drill Start Tim 
 DTIM.hr                 69.47:  Time Drilling 
 EDEP.m                5084.50:  End Depth 
 ENG1.      Artemiy Matviyanov:  Engineer 1 
 ENG2.         Almaz Almadatov:  Engineer 2 
 ETIM.      18.40.00 29-Aug-21:  End Time 
 FLOI.gpm               500.00:  Flow In 
 FLON.gpm               400.00:  Flow In Min 
 FLOS.cptm                0.00:  Fluid Loss 
 FLOX.gpm               500.00:  Flow In Max 
 DFT .        Mineral Oil Base:  Mud Type 
 HFLO.                      No:  High Flow 
 HPRE.                      No:  High Pressure 
 HTEM.                      No:  High Temp 
 HYDO.m                   1.80:  Hydro Offset 
 IFIN.deg                25.62:  Inc, Final 
 IMAX.deg                48.69:  Inc Max 
 IMIN.deg                24.01:  Inc Min 
 IMND.m                4962.57:  Inc Min Depth 
 IMXD.m                4119.01:  Inc Max Depth 
 JARR.                      No:  Jarring 
 LETM.      18.40.00 29-Aug-21:  Log End Time 
 LOST.hr                     0:  Lost Rig Time 
 LSTM.      21.00.00 20-Aug-21:  Log Start Time 
 MDCL.ppm             41500.00:  Mud Chlorides 
 MDES.     Inversion Oil/Synthetic:  Mud Desc 
 DFD .sg                  1.56:  Mud Density 
 MDMN.sg                  1.56:  Dens Mud Min 
 MDMX.sg                  1.56:  Dens Mud Max 
 MOIL.                      70:  Run Mud Oil % 
 MOWR.                   70:30:  Run Mud OWR 
 MSND.                     0.2:  Run Mud Sand % 
 MSOL.                    23.3:  Run Mud Solids% 
 DFV .spqt               78.00:  Mud Viscosity 
 MWOD.in                  6.75:  MWD Tool OD 
 MWSI.                      No:  Serv Intrp, MWD 
 OTIM.hr                218.30:  Time Operating 
 PCON.           Look Like New:  Pad Condition 
 PMAX.psia            11015.30:  Press Op, Max 
 PV  .cP                 38.00:  Mud PV 
 RUN .                     300:  Run Number 
 ROPA.m/hr               15.00:  ROP Avg 
 ROPN.m/hr                9.00:  ROP Min 
 ROPX.m/hr               17.00:  ROP Max 
 RPMA.rpm               120.00:  RPM Surface Avg 
 RPMN.rpm                90.00:  RPM Surface Min 
 RPMX.rpm               140.00:  RPM Surface Max 
 RRUN.                     300:  Rig Run Number 
 RTIM.hr                 31.53:  Time Reaming 
 SAZI.deg               331.64:  Azm, Start 
 SDEP.m                4127.00:  Start Depth 
 SIDD.                      No:  Serv Intrp, DD 
 SINC.deg                48.43:  Inc, Start 
 SPPA.psig             5830.00:  SPP Avg 
 SPPN.psig             5600.00:  SPP Min 
 SPPX.psig             5900.00:  SPP Max 
 STIM.      21.00.00 20-Aug-21:  Start Time 
 SVCS.                 DD, MWD:  Services 
 SVER.                    9.20:  Sperry Version 
 TDAT.m                 957.50:  Tot Depth Attmp 
 TDDF.                      No:  Trip for DD 
 TDLG.m                 957.50:  Tot Depth Loggd 
 TFF .                      No:  Trip for Fail 
 TQAA.f-kp               15.00:  Torque Abs Avg 
 TQAN.f-kp               12.00:  Torque Abs Min 
 TQAX.f-kp               19.00:  Torque Abs Max 
 TRRT.°/30m              -3.40:  Turn Rotating 
 MRT .                  EWR-M5:  Maximum Recorded Temperature 
 TTMX.degC              100.00:  Max Tool Temp 
 VS01.                90639251:  Virtual Str1 SN 
 VS02.                90634715:  Virtual Str2 SN 
 VS03.                90652479:  Virtual Str3 SN 
 VS04.                90642262:  Virtual Str4 SN 
 WBMN.klb                 0.00:  WOB Min 
 WITN.           Murad Guliyev:  Customer Rep 
 WITN.          Yashar Gaziyev:  Customer Rep 2 
 WOBA.klb                 9.00:  WOB Avg 
 WOBX.klb                12.00:  WOB Max 
 YP  .lhf2               30.00:  Yield Point 
~Curve Information Block
#MNEM.UNIT                 API CODE     Curve Description
#---------               -----------    ---------------------------
 TIME.HHMMSS            00 000 000 000:  GT Time & Date
 GTDEPTH.m              00 000 000 000:  GT Depth
 GTPQH.psia             00 000 000 000:  GT HR Quartz Pressure
 GTTQ.degC              00 000 000 000:  GT Quartz Temperature
 GTTN.NONE              00 000 000 000:  GT Test Number
 GTET.sec               00 000 000 000:  GT Elapsed Test Time
 GTTVD.m                00 000 000 000:  GT True Vertical Depth
#Other Information
#
#WARRANTY: Halliburton will use its best efforts to furnish customers with 
#accurate information and interpretations that are part of, and incident to, the services 
#provided.  However, Halliburton cannot and does not warrant the accuracy 
#or correctness of such information and interpretations.  Under no circumstances should any 
#such information or interpretation be relied upon as the sole basis for any drilling, 
#completion, production, or financial decision or any procedure involving any risk to the 
#safety of any drilling venture, drilling rig or its crew or any other third party.  The 
#Customer has full responsibility for all drilling, completion and production operation.  
#Halliburton makes no representations or warranties, either expressed or 
#implied, including, but not limited to, the implied warranties of merchantability or fitness 
#for a particular purpose, with respect to the services rendered.  In no event will 
#Halliburton be liable for failure to obtain any particular results or for 
#any damages, including, but not limited to, indirect, special or consequential damages, 
#resulting from the use of any information or interpretation provided by Halliburton.
#
~A           TIME           GTDEPTH  GTPQH  GTTQ  GTTN  GTET   GTTVD  
# ...
   08:56:52.558.27-Aug-2021 4965.00 1820.74 86.60 6.00 322.13 3307.85
   08:56:52.758.27-Aug-2021 4965.00 1820.74 86.60 6.00 322.33 3307.85
   08:56:52.958.27-Aug-2021 4965.00 1820.82 86.60 6.00 322.53 3307.85
   08:56:53.158.27-Aug-2021 4965.00 1820.86 86.60 6.00 322.73 3307.85
   08:56:53.358.27-Aug-2021 4965.00 1820.90 86.60 6.00 322.93 3307.85
   08:56:53.558.27-Aug-2021 4965.00 1820.98 86.60 6.00 323.13 3307.85
   08:56:53.758.27-Aug-2021 4965.00 1820.98 86.60 6.00 323.33 3307.85
   08:56:53.958.27-Aug-2021 4965.00 1821.12 86.60 6.00 323.53 3307.85
   08:56:54.158.27-Aug-2021 4965.00 1821.19 86.60 6.00 323.73 3307.85
   08:56:54.358.27-Aug-2021 4965.00 1821.24 86.60 6.00 323.93 3307.85
   08:56:54.558.27-Aug-2021 4965.00 1821.30 86.60 6.00 324.13 3307.85
   08:56:54.758.27-Aug-2021 4965.00 1821.30 86.60 6.00 324.33 3307.85
   08:56:54.959.27-Aug-2021 4965.00 1821.41 86.60 6.00 324.53 3307.85
   08:56:55.159.27-Aug-2021 4965.00 1821.91 86.60 6.00 324.73 3307.85
   08:56:55.359.27-Aug-2021 4965.00 1821.88 86.60 6.00 324.93 3307.85
   08:56:55.559.27-Aug-2021 4965.00 1821.69 86.60 6.00 325.14 3307.85
   08:56:55.759.27-Aug-2021 4965.00 1821.69 86.60 6.00 325.34 3307.85
   08:56:55.959.27-Aug-2021 4965.00 1822.20 86.60 6.00 325.54 3307.85
   08:56:56.159.27-Aug-2021 4965.00 1822.17 86.60 6.00 325.74 3307.85
   08:56:56.359.27-Aug-2021 4965.00 1822.17 86.60 6.00 325.94 3307.85
   08:56:56.559.27-Aug-2021 4965.00 1821.87 86.60 6.00 326.14 3307.85
   08:56:56.759.27-Aug-2021 4965.00 1821.87 86.60 6.00 326.34 3307.85
   08:56:56.959.27-Aug-2021 4965.00 1822.60 86.60 6.00 326.54 3307.85
   08:56:57.159.27-Aug-2021 4965.00 1822.56 86.60 6.00 326.74 3307.85
   08:56:57.360.27-Aug-2021 4965.00 1822.43 86.60 6.00 326.94 3307.85
   08:56:57.560.27-Aug-2021 4965.00 1822.50 86.60 6.00 327.14 3307.85
   08:56:57.760.27-Aug-2021 4965.00 1822.50 86.60 6.00 327.34 3307.85
   08:56:57.960.27-Aug-2021 4965.00 1823.01 86.60 6.00 327.54 3307.85
   08:56:58.160.27-Aug-2021 4965.00 1823.00 86.60 6.00 327.74 3307.85
   08:56:58.360.27-Aug-2021 4965.00 1823.06 86.60 6.00 327.94 3307.85
   08:56:58.560.27-Aug-2021 4965.00 1823.10 86.60 6.00 328.14 3307.85
   08:56:58.760.27-Aug-2021 4965.00 1823.10 86.60 6.00 328.34 3307.85
   08:56:58.960.27-Aug-2021 4965.00 1823.17 86.60 6.00 328.54 3307.85
   08:56:59.160.27-Aug-2021 4965.00 1823.23 86.60 6.00 328.74 3307.85
   08:56:59.360.27-Aug-2021 4965.00 1823.28 86.60 6.00 328.94 3307.85
   08:56:59.560.27-Aug-2021 4965.00 1823.34 86.60 6.00 329.14 3307.85
   08:56:59.761.27-Aug-2021 4965.00 1823.34 86.60 6.00 329.34 3307.85
   08:56:59.961.27-Aug-2021 4965.00 1823.46 86.60 6.00 329.54 3307.85
   08:57:00.161.27-Aug-2021 4965.00 1823.53 86.60 6.00 329.74 3307.85
   08:57:00.361.27-Aug-2021 4965.00 1823.58 86.60 6.00 329.94 3307.85
   08:57:00.561.27-Aug-2021 4965.00 1823.31 86.60 6.00 330.14 3307.85
   08:57:00.761.27-Aug-2021 4965.00 1823.31 86.60 6.00 330.34 3307.85
   08:57:00.961.27-Aug-2021 4965.00 1824.16 86.60 6.00 330.54 3307.85
   08:57:01.161.27-Aug-2021 4965.00 1824.12 86.60 6.00 330.74 3307.85
   08:57:01.361.27-Aug-2021 4965.00 1824.16 86.60 6.00 330.94 3307.85
   08:57:01.561.27-Aug-2021 4965.00 1824.22 86.60 6.00 331.14 3307.85
   08:57:01.761.27-Aug-2021 4965.00 1824.22 86.60 6.00 331.34 3307.85
   08:57:01.961.27-Aug-2021 4965.00 1824.28 86.60 6.00 331.54 3307.85
   08:57:02.162.27-Aug-2021 4965.00 1824.32 86.60 6.00 331.74 3307.85
   08:57:02.362.27-Aug-2021 4965.00 1824.38 86.60 6.00 331.94 3307.85
   08:57:02.562.27-Aug-2021 4965.00 1824.44 86.60 6.00 332.14 3307.85
   08:57:02.762.27-Aug-2021 4965.00 1824.44 86.60 6.00 332.34 3307.85
   08:57:02.962.27-Aug-2021 4965.00 1824.58 86.60 6.00 332.54 3307.85
   08:57:03.162.27-Aug-2021 4965.00 1824.64 86.60 6.00 332.74 3307.85
   08:57:03.362.27-Aug-2021 4965.00 1824.70 86.60 6.00 332.94 3307.85
   08:57:03.562.27-Aug-2021 4965.00 1824.77 86.60 6.00 333.14 3307.85
   08:57:03.762.27-Aug-2021 4965.00 1824.77 86.60 6.00 333.34 3307.85
   08:57:03.962.27-Aug-2021 4965.00 1824.89 86.60 6.00 333.54 3307.85
   08:57:04.162.27-Aug-2021 4965.00 1825.40 86.60 6.00 333.74 3307.85
   08:57:04.362.27-Aug-2021 4965.00 1825.38 86.59 6.00 333.94 3307.85
   08:57:04.563.27-Aug-2021 4965.00 1825.19 86.60 6.00 334.14 3307.85
   08:57:04.763.27-Aug-2021 4965.00 1825.19 86.60 6.00 334.34 3307.85
   08:57:04.963.27-Aug-2021 4965.00 1825.73 86.59 6.00 334.54 3307.85
   08:57:05.163.27-Aug-2021 4965.00 1825.71 86.59 6.00 334.74 3307.85
   08:57:05.363.27-Aug-2021 4965.00 1825.70 86.59 6.00 334.94 3307.85
   08:57:05.563.27-Aug-2021 4965.00 1825.60 86.59 6.00 335.14 3307.85
   08:57:05.763.27-Aug-2021 4965.00 1825.60 86.59 6.00 335.34 3307.85
   08:57:05.963.27-Aug-2021 4965.00 1826.10 86.59 6.00 335.54 3307.85
   08:57:06.163.27-Aug-2021 4965.00 1826.09 86.59 6.00 335.74 3307.85
   08:57:06.363.27-Aug-2021 4965.00 1826.09 86.59 6.00 335.94 3307.85
   08:57:06.563.27-Aug-2021 4965.00 1825.77 86.59 6.00 336.14 3307.85
   08:57:06.763.27-Aug-2021 4965.00 1825.77 86.59 6.00 336.34 3307.85
   08:57:06.964.27-Aug-2021 4965.00 1826.49 86.59 6.00 336.54 3307.85
   08:57:07.164.27-Aug-2021 4965.00 1826.44 86.59 6.00 336.74 3307.85
   08:57:07.364.27-Aug-2021 4965.00 1826.48 86.59 6.00 336.94 3307.85
   08:57:07.564.27-Aug-2021 4965.00 1826.54 86.59 6.00 337.14 3307.85
   08:57:07.764.27-Aug-2021 4965.00 1826.54 86.59 6.00 337.34 3307.85
   08:57:07.964.27-Aug-2021 4965.00 1826.59 86.59 6.00 337.54 3307.85
   08:57:08.164.27-Aug-2021 4965.00 1826.64 86.59 6.00 337.74 3307.85
   08:57:08.364.27-Aug-2021 4965.00 1826.68 86.59 6.00 337.94 3307.85
   08:57:08.564.27-Aug-2021 4965.00 1826.71 86.59 6.00 338.14 3307.85
   08:57:08.764.27-Aug-2021 4965.00 1826.71 86.59 6.00 338.34 3307.85
   08:57:08.964.27-Aug-2021 4965.00 1826.84 86.59 6.00 338.54 3307.85
   08:57:09.164.27-Aug-2021 4965.00 1826.90 86.59 6.00 338.74 3307.85
   08:57:09.365.27-Aug-2021 4965.00 1826.94 86.59 6.00 338.94 3307.85
   08:57:09.565.27-Aug-2021 4965.00 1826.99 86.59 6.00 339.14 3307.85
   08:57:09.765.27-Aug-2021 4965.00 1826.99 86.59 6.00 339.34 3307.85
   08:57:09.965.27-Aug-2021 4965.00 1827.39 86.59 6.00 339.54 3307.85
   08:57:10.165.27-Aug-2021 4965.00 1827.53 86.59 6.00 339.74 3307.85
   08:57:10.365.27-Aug-2021 4965.00 1827.47 86.59 6.00 339.94 3307.85
   08:57:10.565.27-Aug-2021 4965.00 1827.53 86.59 6.00 340.14 3307.85
   08:57:10.765.27-Aug-2021 4965.00 1827.53 86.59 6.00 340.34 3307.85
   08:57:10.965.27-Aug-2021 4965.00 1827.60 86.59 6.00 340.54 3307.85
   08:57:11.165.27-Aug-2021 4965.00 1827.62 86.59 6.00 340.74 3307.85
   08:57:11.365.27-Aug-2021 4965.00 1827.67 86.59 6.00 340.94 3307.85
   08:57:11.565.27-Aug-2021 4965.00 1827.71 86.59 6.00 341.14 3307.85
   08:57:11.766.27-Aug-2021 4965.00 1827.71 86.59 6.00 341.34 3307.85
   08:57:11.966.27-Aug-2021 4965.00 1827.84 86.59 6.00 341.54 3307.85
   08:57:12.166.27-Aug-2021 4965.00 1827.90 86.59 6.00 341.74 3307.85
   08:57:12.366.27-Aug-2021 4965.00 1827.95 86.59 6.00 341.94 3307.85
   08:57:12.566.27-Aug-2021 4965.00 1828.00 86.59 6.00 342.14 3307.85
   08:57:12.766.27-Aug-2021 4965.00 1828.00 86.59 6.00 342.34 3307.85
   08:57:12.966.27-Aug-2021 4965.00 1827.80 86.59 6.00 342.54 3307.85
   08:57:13.166.27-Aug-2021 4965.00 1828.40 86.59 6.00 342.74 3307.85
   08:57:13.366.27-Aug-2021 4965.00 1828.62 86.59 6.00 342.94 3307.85
   08:57:13.566.27-Aug-2021 4965.00 1828.56 86.59 6.00 343.14 3307.85
   08:57:13.766.27-Aug-2021 4965.00 1828.56 86.59 6.00 343.34 3307.85
   08:57:13.966.27-Aug-2021 4965.00 1828.26 86.59 6.00 343.54 3307.85
   08:57:14.167.27-Aug-2021 4965.00 1828.80 86.59 6.00 343.74 3307.85
   08:57:14.367.27-Aug-2021 4965.00 1828.83 86.59 6.00 343.94 3307.85
   08:57:14.567.27-Aug-2021 4965.00 1828.41 86.59 6.00 344.14 3307.85
   08:57:14.767.27-Aug-2021 4965.00 1828.41 86.59 6.00 344.34 3307.85
   08:57:14.967.27-Aug-2021 4965.00 1828.88 86.59 6.00 344.54 3307.85
   08:57:15.167.27-Aug-2021 4965.00 1829.09 86.59 6.00 344.74 3307.85
   08:57:15.367.27-Aug-2021 4965.00 1828.64 86.59 6.00 344.94 3307.85
