~Version Information
 VERS.                  2.0:   CWLS log ASCII Standard -VERSION 2.0
 WRAP.                   NO:   One line per depth step
~Well Information Block
#MNEM.UNIT     VALUE/NAME     DESCRIPTION
#---------     -----------    ---------------------------
 STRT.S             11:29:40 27-Aug-21: START TIME 11:29:40 27-Aug-21
 STOP.S             11:36:51 27-Aug-21: STOP TIME  11:36:51 27-Aug-21
 STEP.S                   0.00: STEP TIME
 NULL.                 -999.25: NULL VALUE
 DFWT.                        :  DIST FWL TEXT
 DFST.                        :  DIST FSL TEXT
 DMF .             Drill Floor:  DRILL MEAS FROM
 STIM.      20.00.00 17-Aug-21:  START TIME
 DATE.      19.00.00 29-Aug-21:  END TIME
 SPUD.               15-Aug-21:  SPUD DATE
 NREF.                    Grid:  NORTH REFERENCE
 HPTY.       Minimum Curvature:  HOLE POS TYPE
 DMOD.             Drill Model:  DRILL MOD DESC
 SVYD.                  Survey:  SURVEY DESC
 ILTD.               Lithology:  INTERP LTH DESC
 FTOP.          Formation Tops:  FORM TOPS DESC
 RIG .              East Azeri:  RIG NAME
 PDAT.          Mean Sea Level:  PERMANENT DATUM
 FLD .                     ACG:  FIELD NAME
 SON .        AZ-XX-0907180857:  JOB NUMBER
 CTRY.              Azerbaijan:  COUNTRY NAME
 WELL.                    D23x:  WELL NAME
 SRVC.     Turan Drilling and Engineering:  CONTRACTOR
 COMP.     BP Exploration (Caspian Sea) Ltd.:  COMPANY
 UWI .            /AZE00000214:  UNIQUE WELL IDENTIFIER
 API .            /AZE00000214:  API NUMBER
 MDS .        Operator Entered:  MAG DATA SOURCE
 BASE.              Azerbaijan:  LOGGING EQUIPMENT BASE LOCATION
 REGN.                   EESSA:  REGION
 PROV.                    Baku:  PROVINCE
 STAT.                    Baku:  STATE NAME
 MWDS.                    Baku:  MWD SHOP
 DOE .                     N/A:  DOE NUMBER
 DCON.         Sperry Drilling:  DIRECTNL CONTR
 UNIT.                     N/A:  LOGGING EQUIPMENT ID
 WTYP.                Deviated:  WELL TYPE
 CNTY.                        :  COUNTY
 LOC .                        :  LOCATION
 LMF .             Drill Floor:  LOG MEASURED FROM
 TVDS.m                  43.60:  TVDSS CORRECTN
 LATI.deg                40.02:  LATITUDE
 LONG.deg                51.45:  LONGITUDE
 WHNS.m                  -7.04:  WELL HEAD N/S
 WHEW.m                  -0.67:  WELL HEAD E/W
 UTMX.m              538762.90:  UTM X
 UTMY.m             4431871.34:  UTM Y
 DFWL.m                   0.00:  DISTANCE FWL
 DFSL.m                   0.00:  DISTANCE FSL
 SDEP.m                4127.00:  START DEPTH
 TDD .m                5084.50:  TOTAL DEPTH (DRILLER)
 VSDR.deg               140.47:  VERT SEC DIRECT
 GVFD.g                   1.00:  GRAVITY FIELD
 MFLD.nT              50362.00:  MAGNETIC FIELD
 MDIP.deg                59.48:  MAGNETIC DIP
 MDEC.deg                 6.47:  MAGNETIC DECL
 GRDC.deg                 0.31:  GRID CORRECTION
 AZTC.deg                 6.16:  AZM TOTAL CORR
 EPD .m                   0.00:  ELEVATION
 EGL .m                   0.00:  GROUND ELEVATION
 WDMS.m                 151.80:  WD ELEV
 APD .m                  43.60:  DEPTH ABOVE PD
 DEP .m                4092.57:  DEPTH
 AGAP.m                  43.60:  AIR GAP
 VSEW.m                  -0.67:  VERT SEC E/W
 VSNS.m                  -7.04:  VERT SEC N/S
 EKB .m                  43.60:  KB ELEVATION
 EDF .m                  43.60:  DF ELEVATION
 TDL .m                 957.50:  TOTAL DEPTH (LOGGER)
 VSC .                       0:  VS TO CLOSURE
 MAGU.                 1851413:  MAGUTM CHECKSUM
~Parameter Information Block
#MNEM.UNIT       Value        Description
#---------     -----------    ---------------------------
 AV  .mps                 1.50:  Ann Velocity 
 AVMX.mps                 2.00:  Max Ann Veloc 
 AZIF.deg               184.66:  Azm, Final 
 BHAT.        Rotary Steerable:  BHA Type 
 BREV.rev               300.00:  Rev Bit Total 
 BROT.°/30m              -0.50:  Build Rotating 
 BS  .in                  8.50:  Bit Size 
 BSZ .in                  8.50:  Bit Size 
 BTPL.psig              370.00:  Bit Press Loss 
 CABU.                      No:  Customer Abuse 
 CGEO.      Behruz Shahbaliyev:  Customer Geo 
 COMM.                     ,A[:  Run Comments 1 
 TCS .hr                140.08:  Time Ciculation Ended 
 CV  .mps                 3.00:  Crit Velocity 
 CVMX.mps                 3.20:  Max Crit Veloc 
 DD1 .            Musa Ahmadov:  Direct Drillr 1 
 DD2 .           Hamid Ahmadov:  Direct Drillr 2 
 DDSV.               Geo-Pilot:  DD Service 
 DEFF.%                  98.40:  % Det Eff 
 DLRX.°/30m               3.40:  Dogleg Rot Max 
 DLSO.°/30m               1.45:  Dogleg Oriented 
 DLSX.°/30m               3.40:  Dogleg Str Max 
 DRET.      18.40.00 29-Aug-21:  Drill End Time 
 DRST.      21.00.00 20-Aug-21:  Drill Start Tim 
 DTIM.hr                 69.47:  Time Drilling 
 EDEP.m                5084.50:  End Depth 
 ENG1.      Artemiy Matviyanov:  Engineer 1 
 ENG2.         Almaz Almadatov:  Engineer 2 
 ETIM.      18.40.00 29-Aug-21:  End Time 
 FLOI.gpm               500.00:  Flow In 
 FLON.gpm               400.00:  Flow In Min 
 FLOS.cptm                0.00:  Fluid Loss 
 FLOX.gpm               500.00:  Flow In Max 
 DFT .        Mineral Oil Base:  Mud Type 
 HFLO.                      No:  High Flow 
 HPRE.                      No:  High Pressure 
 HTEM.                      No:  High Temp 
 HYDO.m                   1.80:  Hydro Offset 
 IFIN.deg                25.62:  Inc, Final 
 IMAX.deg                48.69:  Inc Max 
 IMIN.deg                24.01:  Inc Min 
 IMND.m                4962.57:  Inc Min Depth 
 IMXD.m                4119.01:  Inc Max Depth 
 JARR.                      No:  Jarring 
 LETM.      18.40.00 29-Aug-21:  Log End Time 
 LOST.hr                     0:  Lost Rig Time 
 LSTM.      21.00.00 20-Aug-21:  Log Start Time 
 MDCL.ppm             41500.00:  Mud Chlorides 
 MDES.     Inversion Oil/Synthetic:  Mud Desc 
 DFD .sg                  1.56:  Mud Density 
 MDMN.sg                  1.56:  Dens Mud Min 
 MDMX.sg                  1.56:  Dens Mud Max 
 MOIL.                      70:  Run Mud Oil % 
 MOWR.                   70:30:  Run Mud OWR 
 MSND.                     0.2:  Run Mud Sand % 
 MSOL.                    23.3:  Run Mud Solids% 
 DFV .spqt               78.00:  Mud Viscosity 
 MWOD.in                  6.75:  MWD Tool OD 
 MWSI.                      No:  Serv Intrp, MWD 
 OTIM.hr                218.30:  Time Operating 
 PCON.           Look Like New:  Pad Condition 
 PMAX.psia            11015.30:  Press Op, Max 
 PV  .cP                 38.00:  Mud PV 
 RUN .                     300:  Run Number 
 ROPA.m/hr               15.00:  ROP Avg 
 ROPN.m/hr                9.00:  ROP Min 
 ROPX.m/hr               17.00:  ROP Max 
 RPMA.rpm               120.00:  RPM Surface Avg 
 RPMN.rpm                90.00:  RPM Surface Min 
 RPMX.rpm               140.00:  RPM Surface Max 
 RRUN.                     300:  Rig Run Number 
 RTIM.hr                 31.53:  Time Reaming 
 SAZI.deg               331.64:  Azm, Start 
 SDEP.m                4127.00:  Start Depth 
 SIDD.                      No:  Serv Intrp, DD 
 SINC.deg                48.43:  Inc, Start 
 SPPA.psig             5830.00:  SPP Avg 
 SPPN.psig             5600.00:  SPP Min 
 SPPX.psig             5900.00:  SPP Max 
 STIM.      21.00.00 20-Aug-21:  Start Time 
 SVCS.                 DD, MWD:  Services 
 SVER.                    9.20:  Sperry Version 
 TDAT.m                 957.50:  Tot Depth Attmp 
 TDDF.                      No:  Trip for DD 
 TDLG.m                 957.50:  Tot Depth Loggd 
 TFF .                      No:  Trip for Fail 
 TQAA.f-kp               15.00:  Torque Abs Avg 
 TQAN.f-kp               12.00:  Torque Abs Min 
 TQAX.f-kp               19.00:  Torque Abs Max 
 TRRT.°/30m              -3.40:  Turn Rotating 
 MRT .                  EWR-M5:  Maximum Recorded Temperature 
 TTMX.degC              100.00:  Max Tool Temp 
 VS01.                90639251:  Virtual Str1 SN 
 VS02.                90634715:  Virtual Str2 SN 
 VS03.                90652479:  Virtual Str3 SN 
 VS04.                90642262:  Virtual Str4 SN 
 WBMN.klb                 0.00:  WOB Min 
 WITN.           Murad Guliyev:  Customer Rep 
 WITN.          Yashar Gaziyev:  Customer Rep 2 
 WOBA.klb                 9.00:  WOB Avg 
 WOBX.klb                12.00:  WOB Max 
 YP  .lhf2               30.00:  Yield Point 
~Curve Information Block
#MNEM.UNIT                 API CODE     Curve Description
#---------               -----------    ---------------------------
 TIME.HHMMSS            00 000 000 000:  GT Time & Date
 GTDEPTH.m              00 000 000 000:  GT Depth
 GTPQH.psia             00 000 000 000:  GT HR Quartz Pressure
 GTTQ.degC              00 000 000 000:  GT Quartz Temperature
 GTTN.NONE              00 000 000 000:  GT Test Number
 GTET.sec               00 000 000 000:  GT Elapsed Test Time
 GTTVD.m                00 000 000 000:  GT True Vertical Depth
#Other Information
#
#WARRANTY: Halliburton will use its best efforts to furnish customers with 
#accurate information and interpretations that are part of, and incident to, the services 
#provided.  However, Halliburton cannot and does not warrant the accuracy 
#or correctness of such information and interpretations.  Under no circumstances should any 
#such information or interpretation be relied upon as the sole basis for any drilling, 
#completion, production, or financial decision or any procedure involving any risk to the 
#safety of any drilling venture, drilling rig or its crew or any other third party.  The 
#Customer has full responsibility for all drilling, completion and production operation.  
#Halliburton makes no representations or warranties, either expressed or 
#implied, including, but not limited to, the implied warranties of merchantability or fitness 
#for a particular purpose, with respect to the services rendered.  In no event will 
#Halliburton be liable for failure to obtain any particular results or for 
#any damages, including, but not limited to, indirect, special or consequential damages, 
#resulting from the use of any information or interpretation provided by Halliburton.
#
~A           TIME           GTDEPTH  GTPQH  GTTQ  GTTN   GTET   GTTVD  
   11:29:40.238.27-Aug-2021 4925.00 7777.23 85.66 10.00   0.00 3271.33
   11:29:40.438.27-Aug-2021 4925.00 7777.23 85.66 10.00   0.20 3271.33
   11:29:40.638.27-Aug-2021 4925.00 7779.58 85.66 10.00   0.40 3271.33
   11:29:40.838.27-Aug-2021 4925.00 7778.90 85.66 10.00   0.60 3271.33
   11:29:41.038.27-Aug-2021 4925.00 7778.62 85.66 10.00   0.80 3271.33
   11:29:41.238.27-Aug-2021 4925.00 7778.45 85.66 10.00   1.00 3271.33
   11:29:41.438.27-Aug-2021 4925.00 7778.45 85.66 10.00   1.20 3271.33
   11:29:41.638.27-Aug-2021 4925.00 7777.97 85.66 10.00   1.40 3271.33
   11:29:41.838.27-Aug-2021 4925.00 7777.07 85.66 10.00   1.60 3271.33
   11:29:42.038.27-Aug-2021 4925.00 7777.26 85.66 10.00   1.80 3271.33
   11:29:42.238.27-Aug-2021 4925.00 7777.26 85.66 10.00   2.00 3271.33
   11:29:42.439.27-Aug-2021 4925.00 7777.26 85.66 10.00   2.20 3271.33
   11:29:42.639.27-Aug-2021 4925.00 7777.50 85.66 10.00   2.40 3271.33
   11:29:42.839.27-Aug-2021 4925.00 7777.27 85.66 10.00   2.60 3271.33
   11:29:43.039.27-Aug-2021 4925.00 7777.23 85.66 10.00   2.80 3271.33
   11:29:43.239.27-Aug-2021 4925.00 7777.27 85.66 10.00   3.00 3271.33
   11:29:43.439.27-Aug-2021 4925.00 7777.27 85.66 10.00   3.20 3271.33
   11:29:43.639.27-Aug-2021 4925.00 7778.23 85.66 10.00   3.40 3271.33
   11:29:43.839.27-Aug-2021 4925.00 7780.41 85.66 10.00   3.60 3271.33
   11:29:44.039.27-Aug-2021 4925.00 7779.51 85.66 10.00   3.80 3271.33
   11:29:44.239.27-Aug-2021 4925.00 7778.58 85.66 10.00   4.00 3271.33
   11:29:44.439.27-Aug-2021 4925.00 7778.58 85.66 10.00   4.20 3271.33
   11:29:44.639.27-Aug-2021 4925.00 7779.14 85.66 10.00   4.40 3271.33
   11:29:44.839.27-Aug-2021 4925.00 7781.29 85.66 10.00   4.60 3271.33
   11:29:45.039.27-Aug-2021 4925.00 7780.59 85.66 10.00   4.80 3271.33
   11:29:45.240.27-Aug-2021 4925.00 7778.84 85.66 10.00   5.00 3271.33
   11:29:45.440.27-Aug-2021 4925.00 7778.84 85.66 10.00   5.20 3271.33
   11:29:45.640.27-Aug-2021 4925.00 7781.96 85.66 10.00   5.40 3271.33
   11:29:45.840.27-Aug-2021 4925.00 7781.50 85.66 10.00   5.60 3271.33
   11:29:46.040.27-Aug-2021 4925.00 7780.97 85.66 10.00   5.80 3271.33
   11:29:46.240.27-Aug-2021 4925.00 7780.09 85.66 10.00   6.00 3271.33
   11:29:46.440.27-Aug-2021 4925.00 7780.09 85.66 10.00   6.20 3271.33
   11:29:46.640.27-Aug-2021 4925.00 7780.09 85.66 10.00   6.40 3271.33
   11:29:46.840.27-Aug-2021 4925.00 7785.61 85.66 10.00   6.60 3271.33
   11:29:47.040.27-Aug-2021 4925.00 7781.08 85.66 10.00   6.80 3271.33
   11:29:47.240.27-Aug-2021 4925.00 7783.77 85.66 10.00   7.00 3271.33
   11:29:47.440.27-Aug-2021 4925.00 7783.77 85.66 10.00   7.20 3271.33
   11:29:47.640.27-Aug-2021 4925.00 7783.77 85.66 10.00   7.40 3271.33
   11:29:47.840.27-Aug-2021 4925.00 7783.95 85.66 10.00   7.60 3271.33
   11:29:48.041.27-Aug-2021 4925.00 7785.69 85.66 10.00   7.80 3271.33
   11:29:48.241.27-Aug-2021 4925.00 7785.20 85.66 10.00   8.00 3271.33
   11:29:48.441.27-Aug-2021 4925.00 7785.20 85.66 10.00   8.20 3271.33
   11:29:48.641.27-Aug-2021 4925.00 7783.72 85.66 10.00   8.40 3271.33
   11:29:48.841.27-Aug-2021 4925.00 7788.15 85.66 10.00   8.60 3271.33
   11:29:49.041.27-Aug-2021 4925.00 7784.98 85.66 10.00   8.80 3271.33
   11:29:49.241.27-Aug-2021 4925.00 7786.57 85.66 10.00   9.00 3271.33
   11:29:49.441.27-Aug-2021 4925.00 7786.57 85.66 10.00   9.20 3271.33
   11:29:49.641.27-Aug-2021 4925.00 7790.91 85.66 10.00   9.40 3271.33
   11:29:49.841.27-Aug-2021 4925.00 7783.56 85.66 10.00   9.60 3271.33
   11:29:50.041.27-Aug-2021 4925.00 7787.56 85.66 10.00   9.80 3271.33
   11:29:50.241.27-Aug-2021 4925.00 7786.35 85.65 10.00  10.00 3271.33
   11:29:50.441.27-Aug-2021 4925.00 7786.35 85.65 10.00  10.20 3271.33
   11:29:50.641.27-Aug-2021 4925.00 7786.58 85.65 10.00  10.40 3271.33
   11:29:50.842.27-Aug-2021 4925.00 7786.28 85.65 10.00  10.60 3271.33
   11:29:51.042.27-Aug-2021 4925.00 7786.73 85.65 10.00  10.80 3271.33
   11:29:51.242.27-Aug-2021 4925.00 7786.49 85.65 10.00  11.00 3271.33
   11:29:51.442.27-Aug-2021 4925.00 7786.49 85.65 10.00  11.20 3271.33
   11:29:51.642.27-Aug-2021 4925.00 7787.06 85.65 10.00  11.40 3271.33
   11:29:51.842.27-Aug-2021 4925.00 7787.20 85.65 10.00  11.60 3271.33
   11:29:52.042.27-Aug-2021 4925.00 7787.50 85.65 10.00  11.80 3271.33
   11:29:52.242.27-Aug-2021 4925.00 7787.56 85.65 10.00  12.00 3271.33
   11:29:52.442.27-Aug-2021 4925.00 7787.56 85.65 10.00  12.20 3271.33
   11:29:52.642.27-Aug-2021 4925.00 7788.03 85.65 10.00  12.40 3271.33
   11:29:52.842.27-Aug-2021 4925.00 7788.18 85.65 10.00  12.60 3271.33
   11:29:53.042.27-Aug-2021 4925.00 7788.51 85.65 10.00  12.80 3271.33
   11:29:53.242.27-Aug-2021 4925.00 7789.15 85.65 10.00  13.00 3271.33
   11:29:53.442.27-Aug-2021 4925.00 7789.15 85.65 10.00  13.20 3271.33
   11:29:53.642.27-Aug-2021 4925.00 7790.77 85.65 10.00  13.40 3271.33
   11:29:53.843.27-Aug-2021 4925.00 7790.03 85.65 10.00  13.60 3271.33
   11:29:54.043.27-Aug-2021 4925.00 7789.91 85.65 10.00  13.80 3271.33
   11:29:54.243.27-Aug-2021 4925.00 7789.98 85.65 10.00  14.00 3271.33
   11:29:54.443.27-Aug-2021 4925.00 7789.98 85.65 10.00  14.21 3271.33
   11:29:54.643.27-Aug-2021 4925.00 7790.44 85.65 10.00  14.41 3271.33
   11:29:54.843.27-Aug-2021 4925.00 7790.00 85.65 10.00  14.61 3271.33
   11:29:55.043.27-Aug-2021 4925.00 7790.65 85.65 10.00  14.81 3271.33
   11:29:55.243.27-Aug-2021 4925.00 7791.24 85.65 10.00  15.01 3271.33
   11:29:55.443.27-Aug-2021 4925.00 7791.24 85.65 10.00  15.21 3271.33
   11:29:55.643.27-Aug-2021 4925.00 7792.11 85.65 10.00  15.41 3271.33
   11:29:55.843.27-Aug-2021 4925.00 7792.27 85.65 10.00  15.61 3271.33
   11:29:56.043.27-Aug-2021 4925.00 7792.32 85.65 10.00  15.81 3271.33
   11:29:56.243.27-Aug-2021 4925.00 7792.39 85.65 10.00  16.01 3271.33
   11:29:56.443.27-Aug-2021 4925.00 7792.39 85.65 10.00  16.21 3271.33
   11:29:56.644.27-Aug-2021 4925.00 7795.48 85.65 10.00  16.41 3271.33
   11:29:56.844.27-Aug-2021 4925.00 7794.45 85.65 10.00  16.61 3271.33
   11:29:57.044.27-Aug-2021 4925.00 7793.68 85.65 10.00  16.81 3271.33
   11:29:57.244.27-Aug-2021 4925.00 7793.35 85.65 10.00  17.01 3271.33
   11:29:57.444.27-Aug-2021 4925.00 7793.35 85.65 10.00  17.21 3271.33
   11:29:57.644.27-Aug-2021 4925.00 7794.15 85.65 10.00  17.41 3271.33
   11:29:57.844.27-Aug-2021 4925.00 7796.57 85.65 10.00  17.61 3271.33
   11:29:58.044.27-Aug-2021 4925.00 7795.07 85.65 10.00  17.81 3271.33
   11:29:58.244.27-Aug-2021 4925.00 7794.67 85.65 10.00  18.01 3271.33
   11:29:58.444.27-Aug-2021 4925.00 7794.67 85.65 10.00  18.21 3271.33
   11:29:58.644.27-Aug-2021 4925.00 7795.05 85.65 10.00  18.41 3271.33
   11:29:58.844.27-Aug-2021 4925.00 7799.31 85.65 10.00  18.61 3271.33
   11:29:59.044.27-Aug-2021 4925.00 7794.79 85.65 10.00  18.81 3271.33
   11:29:59.244.27-Aug-2021 4925.00 7796.18 85.65 10.00  19.01 3271.33
   11:29:59.445.27-Aug-2021 4925.00 7796.18 85.65 10.00  19.21 3271.33
   11:29:59.645.27-Aug-2021 4925.00 7795.70 85.65 10.00  19.41 3271.33
   11:29:59.845.27-Aug-2021 4925.00 7796.02 85.65 10.00  19.61 3271.33
   11:30:00.045.27-Aug-2021 4925.00 7799.75 85.65 10.00  19.81 3271.33
   11:30:00.245.27-Aug-2021 4925.00 7796.25 85.65 10.00  20.01 3271.33
   11:30:00.445.27-Aug-2021 4925.00 7796.25 85.65 10.00  20.21 3271.33
   11:30:00.645.27-Aug-2021 4925.00 7796.49 85.65 10.00  20.41 3271.33
   11:30:00.845.27-Aug-2021 4925.00 7799.42 85.65 10.00  20.61 3271.33
   11:30:01.045.27-Aug-2021 4925.00 7798.77 85.65 10.00  20.81 3271.33
   11:30:01.245.27-Aug-2021 4925.00 7797.80 85.65 10.00  21.01 3271.33
   11:30:01.445.27-Aug-2021 4925.00 7797.80 85.65 10.00  21.21 3271.33
   11:30:01.645.27-Aug-2021 4925.00 7797.26 85.65 10.00  21.41 3271.33
   11:30:01.845.27-Aug-2021 4925.00 7801.37 85.65 10.00  21.61 3271.33
   11:30:02.045.27-Aug-2021 4925.00 7798.13 85.65 10.00  21.81 3271.33
   11:30:02.246.27-Aug-2021 4925.00 7799.16 85.65 10.00  22.01 3271.33
   11:30:02.446.27-Aug-2021 4925.00 7799.16 85.65 10.00  22.21 3271.33
   11:30:02.646.27-Aug-2021 4925.00 7798.96 85.65 10.00  22.41 3271.33
