~Version Information
 VERS.                  2.0:   CWLS log ASCII Standard -VERSION 2.0
 WRAP.                   NO:   One line per depth step
~Well Information Block
#MNEM.UNIT     VALUE/NAME     DESCRIPTION
#---------     -----------    ---------------------------
 STRT.S             16:35:30 27-Aug-21: START TIME 16:35:30 27-Aug-21
 STOP.S             16:42:43 27-Aug-21: STOP TIME  16:42:43 27-Aug-21
 STEP.S                   0.00: STEP TIME
 NULL.                 -999.25: NULL VALUE
 DFWT.                        :  DIST FWL TEXT
 DFST.                        :  DIST FSL TEXT
 DMF .             Drill Floor:  DRILL MEAS FROM
 STIM.      20.00.00 17-Aug-21:  START TIME
 DATE.      19.00.00 29-Aug-21:  END TIME
 SPUD.               15-Aug-21:  SPUD DATE
 NREF.                    Grid:  NORTH REFERENCE
 HPTY.       Minimum Curvature:  HOLE POS TYPE
 DMOD.             Drill Model:  DRILL MOD DESC
 SVYD.                  Survey:  SURVEY DESC
 ILTD.               Lithology:  INTERP LTH DESC
 FTOP.          Formation Tops:  FORM TOPS DESC
 RIG .              East Azeri:  RIG NAME
 PDAT.          Mean Sea Level:  PERMANENT DATUM
 FLD .                     ACG:  FIELD NAME
 SON .        AZ-XX-0907180857:  JOB NUMBER
 CTRY.              Azerbaijan:  COUNTRY NAME
 WELL.                    D23x:  WELL NAME
 SRVC.     Turan Drilling and Engineering:  CONTRACTOR
 COMP.     BP Exploration (Caspian Sea) Ltd.:  COMPANY
 UWI .            /AZE00000214:  UNIQUE WELL IDENTIFIER
 API .            /AZE00000214:  API NUMBER
 MDS .        Operator Entered:  MAG DATA SOURCE
 BASE.              Azerbaijan:  LOGGING EQUIPMENT BASE LOCATION
 REGN.                   EESSA:  REGION
 PROV.                    Baku:  PROVINCE
 STAT.                    Baku:  STATE NAME
 MWDS.                    Baku:  MWD SHOP
 DOE .                     N/A:  DOE NUMBER
 DCON.         Sperry Drilling:  DIRECTNL CONTR
 UNIT.                     N/A:  LOGGING EQUIPMENT ID
 WTYP.                Deviated:  WELL TYPE
 CNTY.                        :  COUNTY
 LOC .                        :  LOCATION
 LMF .             Drill Floor:  LOG MEASURED FROM
 TVDS.m                  43.60:  TVDSS CORRECTN
 LATI.deg                40.02:  LATITUDE
 LONG.deg                51.45:  LONGITUDE
 WHNS.m                  -7.04:  WELL HEAD N/S
 WHEW.m                  -0.67:  WELL HEAD E/W
 UTMX.m              538762.90:  UTM X
 UTMY.m             4431871.34:  UTM Y
 DFWL.m                   0.00:  DISTANCE FWL
 DFSL.m                   0.00:  DISTANCE FSL
 SDEP.m                4127.00:  START DEPTH
 TDD .m                5084.50:  TOTAL DEPTH (DRILLER)
 VSDR.deg               140.47:  VERT SEC DIRECT
 GVFD.g                   1.00:  GRAVITY FIELD
 MFLD.nT              50362.00:  MAGNETIC FIELD
 MDIP.deg                59.48:  MAGNETIC DIP
 MDEC.deg                 6.47:  MAGNETIC DECL
 GRDC.deg                 0.31:  GRID CORRECTION
 AZTC.deg                 6.16:  AZM TOTAL CORR
 EPD .m                   0.00:  ELEVATION
 EGL .m                   0.00:  GROUND ELEVATION
 WDMS.m                 151.80:  WD ELEV
 APD .m                  43.60:  DEPTH ABOVE PD
 DEP .m                4092.57:  DEPTH
 AGAP.m                  43.60:  AIR GAP
 VSEW.m                  -0.67:  VERT SEC E/W
 VSNS.m                  -7.04:  VERT SEC N/S
 EKB .m                  43.60:  KB ELEVATION
 EDF .m                  43.60:  DF ELEVATION
 TDL .m                 957.50:  TOTAL DEPTH (LOGGER)
 VSC .                       0:  VS TO CLOSURE
 MAGU.                 1851413:  MAGUTM CHECKSUM
~Parameter Information Block
#MNEM.UNIT       Value        Description
#---------     -----------    ---------------------------
 AV  .mps                 1.50:  Ann Velocity 
 AVMX.mps                 2.00:  Max Ann Veloc 
 AZIF.deg               184.66:  Azm, Final 
 BHAT.        Rotary Steerable:  BHA Type 
 BREV.rev               300.00:  Rev Bit Total 
 BROT.°/30m              -0.50:  Build Rotating 
 BS  .in                  8.50:  Bit Size 
 BSZ .in                  8.50:  Bit Size 
 BTPL.psig              370.00:  Bit Press Loss 
 CABU.                      No:  Customer Abuse 
 CGEO.      Behruz Shahbaliyev:  Customer Geo 
 COMM.                     äU:  Run Comments 1 
 TCS .hr                140.08:  Time Ciculation Ended 
 CV  .mps                 3.00:  Crit Velocity 
 CVMX.mps                 3.20:  Max Crit Veloc 
 DD1 .            Musa Ahmadov:  Direct Drillr 1 
 DD2 .           Hamid Ahmadov:  Direct Drillr 2 
 DDSV.               Geo-Pilot:  DD Service 
 DEFF.%                  98.40:  % Det Eff 
 DLRX.°/30m               3.40:  Dogleg Rot Max 
 DLSO.°/30m               1.45:  Dogleg Oriented 
 DLSX.°/30m               3.40:  Dogleg Str Max 
 DRET.      18.40.00 29-Aug-21:  Drill End Time 
 DRST.      21.00.00 20-Aug-21:  Drill Start Tim 
 DTIM.hr                 69.47:  Time Drilling 
 EDEP.m                5084.50:  End Depth 
 ENG1.      Artemiy Matviyanov:  Engineer 1 
 ENG2.         Almaz Almadatov:  Engineer 2 
 ETIM.      18.40.00 29-Aug-21:  End Time 
 FLOI.gpm               500.00:  Flow In 
 FLON.gpm               400.00:  Flow In Min 
 FLOS.cptm                0.00:  Fluid Loss 
 FLOX.gpm               500.00:  Flow In Max 
 DFT .        Mineral Oil Base:  Mud Type 
 HFLO.                      No:  High Flow 
 HPRE.                      No:  High Pressure 
 HTEM.                      No:  High Temp 
 HYDO.m                   1.80:  Hydro Offset 
 IFIN.deg                25.62:  Inc, Final 
 IMAX.deg                48.69:  Inc Max 
 IMIN.deg                24.01:  Inc Min 
 IMND.m                4962.57:  Inc Min Depth 
 IMXD.m                4119.01:  Inc Max Depth 
 JARR.                      No:  Jarring 
 LETM.      18.40.00 29-Aug-21:  Log End Time 
 LOST.hr                     0:  Lost Rig Time 
 LSTM.      21.00.00 20-Aug-21:  Log Start Time 
 MDCL.ppm             41500.00:  Mud Chlorides 
 MDES.     Inversion Oil/Synthetic:  Mud Desc 
 DFD .sg                  1.56:  Mud Density 
 MDMN.sg                  1.56:  Dens Mud Min 
 MDMX.sg                  1.56:  Dens Mud Max 
 MOIL.                      70:  Run Mud Oil % 
 MOWR.                   70:30:  Run Mud OWR 
 MSND.                     0.2:  Run Mud Sand % 
 MSOL.                    23.3:  Run Mud Solids% 
 DFV .spqt               78.00:  Mud Viscosity 
 MWOD.in                  6.75:  MWD Tool OD 
 MWSI.                      No:  Serv Intrp, MWD 
 OTIM.hr                218.30:  Time Operating 
 PCON.           Look Like New:  Pad Condition 
 PMAX.psia            11015.30:  Press Op, Max 
 PV  .cP                 38.00:  Mud PV 
 RUN .                     300:  Run Number 
 ROPA.m/hr               15.00:  ROP Avg 
 ROPN.m/hr                9.00:  ROP Min 
 ROPX.m/hr               17.00:  ROP Max 
 RPMA.rpm               120.00:  RPM Surface Avg 
 RPMN.rpm                90.00:  RPM Surface Min 
 RPMX.rpm               140.00:  RPM Surface Max 
 RRUN.                     300:  Rig Run Number 
 RTIM.hr                 31.53:  Time Reaming 
 SAZI.deg               331.64:  Azm, Start 
 SDEP.m                4127.00:  Start Depth 
 SIDD.                      No:  Serv Intrp, DD 
 SINC.deg                48.43:  Inc, Start 
 SPPA.psig             5830.00:  SPP Avg 
 SPPN.psig             5600.00:  SPP Min 
 SPPX.psig             5900.00:  SPP Max 
 STIM.      21.00.00 20-Aug-21:  Start Time 
 SVCS.                 DD, MWD:  Services 
 SVER.                    9.20:  Sperry Version 
 TDAT.m                 957.50:  Tot Depth Attmp 
 TDDF.                      No:  Trip for DD 
 TDLG.m                 957.50:  Tot Depth Loggd 
 TFF .                      No:  Trip for Fail 
 TQAA.f-kp               15.00:  Torque Abs Avg 
 TQAN.f-kp               12.00:  Torque Abs Min 
 TQAX.f-kp               19.00:  Torque Abs Max 
 TRRT.°/30m              -3.40:  Turn Rotating 
 MRT .                  EWR-M5:  Maximum Recorded Temperature 
 TTMX.degC              100.00:  Max Tool Temp 
 VS01.                90639251:  Virtual Str1 SN 
 VS02.                90634715:  Virtual Str2 SN 
 VS03.                90652479:  Virtual Str3 SN 
 VS04.                90642262:  Virtual Str4 SN 
 WBMN.klb                 0.00:  WOB Min 
 WITN.           Murad Guliyev:  Customer Rep 
 WITN.          Yashar Gaziyev:  Customer Rep 2 
 WOBA.klb                 9.00:  WOB Avg 
 WOBX.klb                12.00:  WOB Max 
 YP  .lhf2               30.00:  Yield Point 
~Curve Information Block
#MNEM.UNIT                 API CODE     Curve Description
#---------               -----------    ---------------------------
 TIME.HHMMSS            00 000 000 000:  GT Time & Date
 GTDEPTH.m              00 000 000 000:  GT Depth
 GTPQH.psia             00 000 000 000:  GT HR Quartz Pressure
 GTTQ.degC              00 000 000 000:  GT Quartz Temperature
 GTTN.NONE              00 000 000 000:  GT Test Number
 GTET.sec               00 000 000 000:  GT Elapsed Test Time
 GTTVD.m                00 000 000 000:  GT True Vertical Depth
#Other Information
#
#WARRANTY: Halliburton will use its best efforts to furnish customers with 
#accurate information and interpretations that are part of, and incident to, the services 
#provided.  However, Halliburton cannot and does not warrant the accuracy 
#or correctness of such information and interpretations.  Under no circumstances should any 
#such information or interpretation be relied upon as the sole basis for any drilling, 
#completion, production, or financial decision or any procedure involving any risk to the 
#safety of any drilling venture, drilling rig or its crew or any other third party.  The 
#Customer has full responsibility for all drilling, completion and production operation.  
#Halliburton makes no representations or warranties, either expressed or 
#implied, including, but not limited to, the implied warranties of merchantability or fitness 
#for a particular purpose, with respect to the services rendered.  In no event will 
#Halliburton be liable for failure to obtain any particular results or for 
#any damages, including, but not limited to, indirect, special or consequential damages, 
#resulting from the use of any information or interpretation provided by Halliburton.
#
~A           TIME           GTDEPTH  GTPQH  GTTQ  GTTN   GTET   GTTVD  
# ...
   16:42:16.826.27-Aug-2021 4788.00 7525.23 83.18 17.00 406.39 3147.22
   16:42:17.026.27-Aug-2021 4788.00 7522.90 83.18 17.00 406.59 3147.22
   16:42:17.226.27-Aug-2021 4788.00 7522.90 83.18 17.00 406.79 3147.22
   16:42:17.426.27-Aug-2021 4788.00 7524.45 83.18 17.00 406.99 3147.22
   16:42:17.626.27-Aug-2021 4788.00 7524.38 83.18 17.00 407.19 3147.22
   16:42:17.825.27-Aug-2021 4788.00 7525.08 83.18 17.00 407.39 3147.22
   16:42:18.025.27-Aug-2021 4788.00 7524.48 83.18 17.00 407.59 3147.22
   16:42:18.225.27-Aug-2021 4788.00 7524.48 83.18 17.00 407.79 3147.22
   16:42:18.425.27-Aug-2021 4788.00 7524.71 83.18 17.00 407.99 3147.22
   16:42:18.625.27-Aug-2021 4788.00 7524.46 83.18 17.00 408.19 3147.22
   16:42:18.824.27-Aug-2021 4788.00 7524.64 83.18 17.00 408.39 3147.22
   16:42:19.024.27-Aug-2021 4788.00 7524.55 83.18 17.00 408.59 3147.22
   16:42:19.224.27-Aug-2021 4788.00 7524.55 83.18 17.00 408.79 3147.22
   16:42:19.424.27-Aug-2021 4788.00 7527.77 83.18 17.00 408.99 3147.22
   16:42:19.624.27-Aug-2021 4788.00 7524.25 83.18 17.00 409.19 3147.22
   16:42:19.823.27-Aug-2021 4788.00 7524.58 83.18 17.00 409.39 3147.22
   16:42:20.023.27-Aug-2021 4788.00 7525.40 83.18 17.00 409.59 3147.22
   16:42:20.223.27-Aug-2021 4788.00 7525.40 83.18 17.00 409.79 3147.22
   16:42:20.423.27-Aug-2021 4788.00 7524.52 83.18 17.00 409.99 3147.22
   16:42:20.623.27-Aug-2021 4788.00 7523.81 83.18 17.00 410.19 3147.22
   16:42:20.822.27-Aug-2021 4788.00 7524.42 83.18 17.00 410.39 3147.22
   16:42:21.022.27-Aug-2021 4788.00 7525.04 83.18 17.00 410.59 3147.22
   16:42:21.222.27-Aug-2021 4788.00 7525.04 83.18 17.00 410.79 3147.22
   16:42:21.422.27-Aug-2021 4788.00 7525.19 83.18 17.00 410.99 3147.22
   16:42:21.622.27-Aug-2021 4788.00 7525.34 83.18 17.00 411.19 3147.22
   16:42:21.821.27-Aug-2021 4788.00 7525.10 83.18 17.00 411.39 3147.22
   16:42:22.021.27-Aug-2021 4788.00 7525.18 83.18 17.00 411.59 3147.22
   16:42:22.221.27-Aug-2021 4788.00 7525.18 83.18 17.00 411.79 3147.22
   16:42:22.421.27-Aug-2021 4788.00 7524.93 83.18 17.00 411.99 3147.22
   16:42:22.621.27-Aug-2021 4788.00 7524.86 83.18 17.00 412.19 3147.22
   16:42:22.820.27-Aug-2021 4788.00 7529.67 83.18 17.00 412.39 3147.22
   16:42:23.020.27-Aug-2021 4788.00 7523.04 83.18 17.00 412.59 3147.22
   16:42:23.220.27-Aug-2021 4788.00 7523.04 83.18 17.00 412.79 3147.22
   16:42:23.420.27-Aug-2021 4788.00 7525.71 83.18 17.00 412.99 3147.22
   16:42:23.620.27-Aug-2021 4788.00 7524.42 83.18 17.00 413.19 3147.22
   16:42:23.819.27-Aug-2021 4788.00 7528.26 83.18 17.00 413.39 3147.22
   16:42:24.019.27-Aug-2021 4788.00 7523.72 83.18 17.00 413.59 3147.22
   16:42:24.219.27-Aug-2021 4788.00 7523.72 83.18 17.00 413.79 3147.22
   16:42:24.419.27-Aug-2021 4788.00 7526.36 83.18 17.00 413.99 3147.22
   16:42:24.619.27-Aug-2021 4788.00 7524.09 83.18 17.00 414.19 3147.22
   16:42:24.818.27-Aug-2021 4788.00 7527.55 83.18 17.00 414.39 3147.22
   16:42:25.018.27-Aug-2021 4788.00 7525.69 83.18 17.00 414.59 3147.22
   16:42:25.218.27-Aug-2021 4788.00 7525.69 83.18 17.00 414.79 3147.22
   16:42:25.418.27-Aug-2021 4788.00 7525.99 83.18 17.00 414.99 3147.22
   16:42:25.618.27-Aug-2021 4788.00 7525.29 83.18 17.00 415.19 3147.22
   16:42:25.817.27-Aug-2021 4788.00 7526.96 83.18 17.00 415.39 3147.22
   16:42:26.017.27-Aug-2021 4788.00 7526.05 83.18 17.00 415.59 3147.22
   16:42:26.217.27-Aug-2021 4788.00 7526.05 83.18 17.00 415.78 3147.22
   16:42:26.417.27-Aug-2021 4788.00 7525.79 83.18 17.00 415.98 3147.22
   16:42:26.617.27-Aug-2021 4788.00 7525.62 83.18 17.00 416.18 3147.22
   16:42:26.816.27-Aug-2021 4788.00 7524.41 83.18 17.00 416.38 3147.22
   16:42:27.016.27-Aug-2021 4788.00 7525.11 83.18 17.00 416.58 3147.22
   16:42:27.216.27-Aug-2021 4788.00 7525.11 83.18 17.00 416.78 3147.22
   16:42:27.416.27-Aug-2021 4788.00 7525.17 83.18 17.00 416.98 3147.22
   16:42:27.616.27-Aug-2021 4788.00 7525.25 83.18 17.00 417.18 3147.22
   16:42:27.815.27-Aug-2021 4788.00 7525.14 83.18 17.00 417.38 3147.22
   16:42:28.015.27-Aug-2021 4788.00 7525.42 83.18 17.00 417.58 3147.22
   16:42:28.215.27-Aug-2021 4788.00 7525.42 83.18 17.00 417.78 3147.22
   16:42:28.415.27-Aug-2021 4788.00 7525.28 83.18 17.00 417.98 3147.22
   16:42:28.615.27-Aug-2021 4788.00 7525.36 83.18 17.00 418.18 3147.22
   16:42:28.814.27-Aug-2021 4788.00 7525.26 83.18 17.00 418.38 3147.22
   16:42:29.014.27-Aug-2021 4788.00 7527.32 83.18 17.00 418.58 3147.22
   16:42:29.214.27-Aug-2021 4788.00 7527.32 83.18 17.00 418.78 3147.22
   16:42:29.414.27-Aug-2021 4788.00 7524.93 83.18 17.00 418.98 3147.22
   16:42:29.614.27-Aug-2021 4788.00 7525.65 83.18 17.00 419.18 3147.22
   16:42:29.813.27-Aug-2021 4788.00 7525.50 83.18 17.00 419.38 3147.22
   16:42:30.013.27-Aug-2021 4788.00 7524.43 83.18 17.00 419.58 3147.22
   16:42:30.213.27-Aug-2021 4788.00 7524.43 83.18 17.00 419.78 3147.22
   16:42:30.413.27-Aug-2021 4788.00 7524.86 83.18 17.00 419.98 3147.22
   16:42:30.613.27-Aug-2021 4788.00 7525.26 83.18 17.00 420.18 3147.22
   16:42:30.812.27-Aug-2021 4788.00 7525.54 83.18 17.00 420.38 3147.22
   16:42:31.012.27-Aug-2021 4788.00 7525.48 83.18 17.00 420.58 3147.22
   16:42:31.212.27-Aug-2021 4788.00 7525.48 83.18 17.00 420.78 3147.22
   16:42:31.412.27-Aug-2021 4788.00 7525.80 83.18 17.00 420.98 3147.22
   16:42:31.612.27-Aug-2021 4788.00 7525.70 83.18 17.00 421.18 3147.22
   16:42:31.811.27-Aug-2021 4788.00 7525.72 83.18 17.00 421.38 3147.22
   16:42:32.011.27-Aug-2021 4788.00 7525.53 83.18 17.00 421.58 3147.22
   16:42:32.211.27-Aug-2021 4788.00 7525.53 83.18 17.00 421.78 3147.22
   16:42:32.411.27-Aug-2021 4788.00 7525.56 83.18 17.00 421.98 3147.22
   16:42:32.611.27-Aug-2021 4788.00 7528.61 83.18 17.00 422.18 3147.22
   16:42:32.810.27-Aug-2021 4788.00 7525.07 83.18 17.00 422.38 3147.22
   16:42:33.010.27-Aug-2021 4788.00 7525.26 83.18 17.00 422.58 3147.22
   16:42:33.210.27-Aug-2021 4788.00 7525.26 83.18 17.00 422.78 3147.22
   16:42:33.410.27-Aug-2021 4788.00 7526.94 83.18 17.00 422.98 3147.22
   16:42:33.610.27-Aug-2021 4788.00 7526.55 83.18 17.00 423.18 3147.22
   16:42:33.809.27-Aug-2021 4788.00 7524.41 83.18 17.00 423.38 3147.22
   16:42:34.009.27-Aug-2021 4788.00 7525.65 83.18 17.00 423.58 3147.22
   16:42:34.209.27-Aug-2021 4788.00 7525.65 83.18 17.00 423.78 3147.22
   16:42:34.409.27-Aug-2021 4788.00 7524.69 83.18 17.00 423.98 3147.22
   16:42:34.609.27-Aug-2021 4788.00 7531.09 83.18 17.00 424.18 3147.22
   16:42:34.808.27-Aug-2021 4788.00 7523.03 83.18 17.00 424.38 3147.22
   16:42:35.008.27-Aug-2021 4788.00 7525.59 83.18 17.00 424.58 3147.22
   16:42:35.208.27-Aug-2021 4788.00 7525.59 83.18 17.00 424.78 3147.22
   16:42:35.408.27-Aug-2021 4788.00 7525.21 83.18 17.00 424.98 3147.22
   16:42:35.608.27-Aug-2021 4788.00 7530.98 83.18 17.00 425.18 3147.22
   16:42:35.807.27-Aug-2021 4788.00 7522.38 83.18 17.00 425.38 3147.22
   16:42:36.007.27-Aug-2021 4788.00 7525.10 83.18 17.00 425.58 3147.22
   16:42:36.207.27-Aug-2021 4788.00 7525.10 83.18 17.00 425.77 3147.22
   16:42:36.407.27-Aug-2021 4788.00 7525.15 83.18 17.00 425.97 3147.22
   16:42:36.607.27-Aug-2021 4788.00 7525.19 83.18 17.00 426.17 3147.22
   16:42:36.806.27-Aug-2021 4788.00 7525.13 83.18 17.00 426.37 3147.22
   16:42:37.006.27-Aug-2021 4788.00 7525.57 83.18 17.00 426.57 3147.22
   16:42:37.206.27-Aug-2021 4788.00 7525.57 83.18 17.00 426.77 3147.22
   16:42:37.406.27-Aug-2021 4788.00 7527.88 83.18 17.00 426.97 3147.22
   16:42:37.606.27-Aug-2021 4788.00 7529.67 83.18 17.00 427.17 3147.22
   16:42:37.805.27-Aug-2021 4788.00 7533.40 83.18 17.00 427.37 3147.22
   16:42:38.005.27-Aug-2021 4788.00 7527.37 83.18 17.00 427.57 3147.22
   16:42:38.205.27-Aug-2021 4788.00 7527.37 83.18 17.00 427.77 3147.22
   16:42:38.405.27-Aug-2021 4788.00 7644.88 83.18 17.00 427.97 3147.22
   16:42:38.605.27-Aug-2021 4788.00 7546.29 83.18 17.00 428.17 3147.22
   16:42:38.804.27-Aug-2021 4788.00 7574.71 83.18 17.00 428.37 3147.22
   16:42:39.004.27-Aug-2021 4788.00 7532.29 83.18 17.00 428.57 3147.22
   16:42:39.204.27-Aug-2021 4788.00 7532.29 83.18 17.00 428.77 3147.22
