~Version Information
 VERS.                  2.0:   CWLS log ASCII Standard -VERSION 2.0
 WRAP.                   NO:   One line per depth step
~Well Information Block
#MNEM.UNIT     VALUE/NAME     DESCRIPTION
#---------     -----------    ---------------------------
 STRT.S             01:57:49 28-Aug-21: START TIME 01:57:49 28-Aug-21
 STOP.S             02:04:41 28-Aug-21: STOP TIME  02:04:41 28-Aug-21
 STEP.S                   0.00: STEP TIME
 NULL.                 -999.25: NULL VALUE
 DFWT.                        :  DIST FWL TEXT
 DFST.                        :  DIST FSL TEXT
 DMF .             Drill Floor:  DRILL MEAS FROM
 STIM.      20.00.00 17-Aug-21:  START TIME
 DATE.      19.00.00 29-Aug-21:  END TIME
 SPUD.               15-Aug-21:  SPUD DATE
 NREF.                    Grid:  NORTH REFERENCE
 HPTY.       Minimum Curvature:  HOLE POS TYPE
 DMOD.             Drill Model:  DRILL MOD DESC
 SVYD.                  Survey:  SURVEY DESC
 ILTD.               Lithology:  INTERP LTH DESC
 FTOP.          Formation Tops:  FORM TOPS DESC
 RIG .              East Azeri:  RIG NAME
 PDAT.          Mean Sea Level:  PERMANENT DATUM
 FLD .                     ACG:  FIELD NAME
 SON .        AZ-XX-0907180857:  JOB NUMBER
 CTRY.              Azerbaijan:  COUNTRY NAME
 WELL.                    D23x:  WELL NAME
 SRVC.     Turan Drilling and Engineering:  CONTRACTOR
 COMP.     BP Exploration (Caspian Sea) Ltd.:  COMPANY
 UWI .            /AZE00000214:  UNIQUE WELL IDENTIFIER
 API .            /AZE00000214:  API NUMBER
 MDS .        Operator Entered:  MAG DATA SOURCE
 BASE.              Azerbaijan:  LOGGING EQUIPMENT BASE LOCATION
 REGN.                   EESSA:  REGION
 PROV.                    Baku:  PROVINCE
 STAT.                    Baku:  STATE NAME
 MWDS.                    Baku:  MWD SHOP
 DOE .                     N/A:  DOE NUMBER
 DCON.         Sperry Drilling:  DIRECTNL CONTR
 UNIT.                     N/A:  LOGGING EQUIPMENT ID
 WTYP.                Deviated:  WELL TYPE
 CNTY.                        :  COUNTY
 LOC .                        :  LOCATION
 LMF .             Drill Floor:  LOG MEASURED FROM
 TVDS.m                  43.60:  TVDSS CORRECTN
 LATI.deg                40.02:  LATITUDE
 LONG.deg                51.45:  LONGITUDE
 WHNS.m                  -7.04:  WELL HEAD N/S
 WHEW.m                  -0.67:  WELL HEAD E/W
 UTMX.m              538762.90:  UTM X
 UTMY.m             4431871.34:  UTM Y
 DFWL.m                   0.00:  DISTANCE FWL
 DFSL.m                   0.00:  DISTANCE FSL
 SDEP.m                4127.00:  START DEPTH
 TDD .m                5084.50:  TOTAL DEPTH (DRILLER)
 VSDR.deg               140.47:  VERT SEC DIRECT
 GVFD.g                   1.00:  GRAVITY FIELD
 MFLD.nT              50362.00:  MAGNETIC FIELD
 MDIP.deg                59.48:  MAGNETIC DIP
 MDEC.deg                 6.47:  MAGNETIC DECL
 GRDC.deg                 0.31:  GRID CORRECTION
 AZTC.deg                 6.16:  AZM TOTAL CORR
 EPD .m                   0.00:  ELEVATION
 EGL .m                   0.00:  GROUND ELEVATION
 WDMS.m                 151.80:  WD ELEV
 APD .m                  43.60:  DEPTH ABOVE PD
 DEP .m                4092.57:  DEPTH
 AGAP.m                  43.60:  AIR GAP
 VSEW.m                  -0.67:  VERT SEC E/W
 VSNS.m                  -7.04:  VERT SEC N/S
 EKB .m                  43.60:  KB ELEVATION
 EDF .m                  43.60:  DF ELEVATION
 TDL .m                 957.50:  TOTAL DEPTH (LOGGER)
 VSC .                       0:  VS TO CLOSURE
 MAGU.                 1851413:  MAGUTM CHECKSUM
~Parameter Information Block
#MNEM.UNIT       Value        Description
#---------     -----------    ---------------------------
 AV  .mps                 1.50:  Ann Velocity 
 AVMX.mps                 2.00:  Max Ann Veloc 
 AZIF.deg               184.66:  Azm, Final 
 BHAT.        Rotary Steerable:  BHA Type 
 BREV.rev               300.00:  Rev Bit Total 
 BROT.°/30m              -0.50:  Build Rotating 
 BS  .in                  8.50:  Bit Size 
 BSZ .in                  8.50:  Bit Size 
 BTPL.psig              370.00:  Bit Press Loss 
 CABU.                      No:  Customer Abuse 
 CGEO.      Behruz Shahbaliyev:  Customer Geo 
 COMM.                     Äi}:  Run Comments 1 
 TCS .hr                140.08:  Time Ciculation Ended 
 CV  .mps                 3.00:  Crit Velocity 
 CVMX.mps                 3.20:  Max Crit Veloc 
 DD1 .            Musa Ahmadov:  Direct Drillr 1 
 DD2 .           Hamid Ahmadov:  Direct Drillr 2 
 DDSV.               Geo-Pilot:  DD Service 
 DEFF.%                  98.40:  % Det Eff 
 DLRX.°/30m               3.40:  Dogleg Rot Max 
 DLSO.°/30m               1.45:  Dogleg Oriented 
 DLSX.°/30m               3.40:  Dogleg Str Max 
 DRET.      18.40.00 29-Aug-21:  Drill End Time 
 DRST.      21.00.00 20-Aug-21:  Drill Start Tim 
 DTIM.hr                 69.47:  Time Drilling 
 EDEP.m                5084.50:  End Depth 
 ENG1.      Artemiy Matviyanov:  Engineer 1 
 ENG2.         Almaz Almadatov:  Engineer 2 
 ETIM.      18.40.00 29-Aug-21:  End Time 
 FLOI.gpm               500.00:  Flow In 
 FLON.gpm               400.00:  Flow In Min 
 FLOS.cptm                0.00:  Fluid Loss 
 FLOX.gpm               500.00:  Flow In Max 
 DFT .        Mineral Oil Base:  Mud Type 
 HFLO.                      No:  High Flow 
 HPRE.                      No:  High Pressure 
 HTEM.                      No:  High Temp 
 HYDO.m                   1.80:  Hydro Offset 
 IFIN.deg                25.62:  Inc, Final 
 IMAX.deg                48.69:  Inc Max 
 IMIN.deg                24.01:  Inc Min 
 IMND.m                4962.57:  Inc Min Depth 
 IMXD.m                4119.01:  Inc Max Depth 
 JARR.                      No:  Jarring 
 LETM.      18.40.00 29-Aug-21:  Log End Time 
 LOST.hr                     0:  Lost Rig Time 
 LSTM.      21.00.00 20-Aug-21:  Log Start Time 
 MDCL.ppm             41500.00:  Mud Chlorides 
 MDES.     Inversion Oil/Synthetic:  Mud Desc 
 DFD .sg                  1.56:  Mud Density 
 MDMN.sg                  1.56:  Dens Mud Min 
 MDMX.sg                  1.56:  Dens Mud Max 
 MOIL.                      70:  Run Mud Oil % 
 MOWR.                   70:30:  Run Mud OWR 
 MSND.                     0.2:  Run Mud Sand % 
 MSOL.                    23.3:  Run Mud Solids% 
 DFV .spqt               78.00:  Mud Viscosity 
 MWOD.in                  6.75:  MWD Tool OD 
 MWSI.                      No:  Serv Intrp, MWD 
 OTIM.hr                218.30:  Time Operating 
 PCON.           Look Like New:  Pad Condition 
 PMAX.psia            11015.30:  Press Op, Max 
 PV  .cP                 38.00:  Mud PV 
 RUN .                     300:  Run Number 
 ROPA.m/hr               15.00:  ROP Avg 
 ROPN.m/hr                9.00:  ROP Min 
 ROPX.m/hr               17.00:  ROP Max 
 RPMA.rpm               120.00:  RPM Surface Avg 
 RPMN.rpm                90.00:  RPM Surface Min 
 RPMX.rpm               140.00:  RPM Surface Max 
 RRUN.                     300:  Rig Run Number 
 RTIM.hr                 31.53:  Time Reaming 
 SAZI.deg               331.64:  Azm, Start 
 SDEP.m                4127.00:  Start Depth 
 SIDD.                      No:  Serv Intrp, DD 
 SINC.deg                48.43:  Inc, Start 
 SPPA.psig             5830.00:  SPP Avg 
 SPPN.psig             5600.00:  SPP Min 
 SPPX.psig             5900.00:  SPP Max 
 STIM.      21.00.00 20-Aug-21:  Start Time 
 SVCS.                 DD, MWD:  Services 
 SVER.                    9.20:  Sperry Version 
 TDAT.m                 957.50:  Tot Depth Attmp 
 TDDF.                      No:  Trip for DD 
 TDLG.m                 957.50:  Tot Depth Loggd 
 TFF .                      No:  Trip for Fail 
 TQAA.f-kp               15.00:  Torque Abs Avg 
 TQAN.f-kp               12.00:  Torque Abs Min 
 TQAX.f-kp               19.00:  Torque Abs Max 
 TRRT.°/30m              -3.40:  Turn Rotating 
 MRT .                  EWR-M5:  Maximum Recorded Temperature 
 TTMX.degC              100.00:  Max Tool Temp 
 VS01.                90639251:  Virtual Str1 SN 
 VS02.                90634715:  Virtual Str2 SN 
 VS03.                90652479:  Virtual Str3 SN 
 VS04.                90642262:  Virtual Str4 SN 
 WBMN.klb                 0.00:  WOB Min 
 WITN.           Murad Guliyev:  Customer Rep 
 WITN.          Yashar Gaziyev:  Customer Rep 2 
 WOBA.klb                 9.00:  WOB Avg 
 WOBX.klb                12.00:  WOB Max 
 YP  .lhf2               30.00:  Yield Point 
~Curve Information Block
#MNEM.UNIT                 API CODE     Curve Description
#---------               -----------    ---------------------------
 TIME.HHMMSS            00 000 000 000:  GT Time & Date
 GTDEPTH.m              00 000 000 000:  GT Depth
 GTPQH.psia             00 000 000 000:  GT HR Quartz Pressure
 GTTQ.degC              00 000 000 000:  GT Quartz Temperature
 GTTN.NONE              00 000 000 000:  GT Test Number
 GTET.sec               00 000 000 000:  GT Elapsed Test Time
 GTTVD.m                00 000 000 000:  GT True Vertical Depth
#Other Information
#
#WARRANTY: Halliburton will use its best efforts to furnish customers with 
#accurate information and interpretations that are part of, and incident to, the services 
#provided.  However, Halliburton cannot and does not warrant the accuracy 
#or correctness of such information and interpretations.  Under no circumstances should any 
#such information or interpretation be relied upon as the sole basis for any drilling, 
#completion, production, or financial decision or any procedure involving any risk to the 
#safety of any drilling venture, drilling rig or its crew or any other third party.  The 
#Customer has full responsibility for all drilling, completion and production operation.  
#Halliburton makes no representations or warranties, either expressed or 
#implied, including, but not limited to, the implied warranties of merchantability or fitness 
#for a particular purpose, with respect to the services rendered.  In no event will 
#Halliburton be liable for failure to obtain any particular results or for 
#any damages, including, but not limited to, indirect, special or consequential damages, 
#resulting from the use of any information or interpretation provided by Halliburton.
#
~A           TIME           GTDEPTH  GTPQH  GTTQ  GTTN   GTET   GTTVD  
# ...
   01:58:57.173.28-Aug-2021 4879.00 7744.45 81.28 27.00  67.82 3229.53
   01:58:57.373.28-Aug-2021 4879.00 7744.62 81.28 27.00  68.02 3229.53
   01:58:57.573.28-Aug-2021 4879.00 7744.62 81.28 27.00  68.22 3229.53
   01:58:57.773.28-Aug-2021 4879.00 7745.12 81.28 27.00  68.42 3229.53
   01:58:57.973.28-Aug-2021 4879.00 7745.44 81.28 27.00  68.62 3229.53
   01:58:58.173.28-Aug-2021 4879.00 7745.40 81.28 27.00  68.82 3229.53
   01:58:58.373.28-Aug-2021 4879.00 7745.47 81.28 27.00  69.02 3229.53
   01:58:58.573.28-Aug-2021 4879.00 7745.47 81.28 27.00  69.22 3229.53
   01:58:58.773.28-Aug-2021 4879.00 7745.43 81.28 27.00  69.42 3229.53
   01:58:58.973.28-Aug-2021 4879.00 7748.75 81.28 27.00  69.62 3229.53
   01:58:59.174.28-Aug-2021 4879.00 7745.34 81.28 27.00  69.82 3229.53
   01:58:59.374.28-Aug-2021 4879.00 7746.61 81.28 27.00  70.02 3229.53
   01:58:59.574.28-Aug-2021 4879.00 7746.61 81.28 27.00  70.22 3229.53
   01:58:59.774.28-Aug-2021 4879.00 7745.48 81.28 27.00  70.42 3229.53
   01:58:59.974.28-Aug-2021 4879.00 7745.31 81.28 27.00  70.62 3229.53
   01:59:00.174.28-Aug-2021 4879.00 7745.43 81.28 27.00  70.82 3229.53
   01:59:00.374.28-Aug-2021 4879.00 7745.59 81.28 27.00  71.02 3229.53
   01:59:00.574.28-Aug-2021 4879.00 7745.59 81.28 27.00  71.22 3229.53
   01:59:00.774.28-Aug-2021 4879.00 7746.43 81.28 27.00  71.42 3229.53
   01:59:00.974.28-Aug-2021 4879.00 7746.40 81.28 27.00  71.62 3229.53
   01:59:01.174.28-Aug-2021 4879.00 7746.83 81.28 27.00  71.82 3229.53
   01:59:01.374.28-Aug-2021 4879.00 7746.59 81.28 27.00  72.02 3229.53
   01:59:01.574.28-Aug-2021 4879.00 7746.59 81.28 27.00  72.22 3229.53
   01:59:01.774.28-Aug-2021 4879.00 7746.55 81.28 27.00  72.42 3229.53
   01:59:01.974.28-Aug-2021 4879.00 7746.58 81.28 27.00  72.62 3229.53
   01:59:02.174.28-Aug-2021 4879.00 7746.44 81.28 27.00  72.82 3229.53
   01:59:02.375.28-Aug-2021 4879.00 7749.69 81.28 27.00  73.02 3229.53
   01:59:02.575.28-Aug-2021 4879.00 7749.69 81.28 27.00  73.22 3229.53
   01:59:02.775.28-Aug-2021 4879.00 7747.42 81.28 27.00  73.42 3229.53
   01:59:02.975.28-Aug-2021 4879.00 7746.61 81.28 27.00  73.62 3229.53
   01:59:03.175.28-Aug-2021 4879.00 7746.24 81.28 27.00  73.82 3229.53
   01:59:03.375.28-Aug-2021 4879.00 7749.44 81.28 27.00  74.02 3229.53
   01:59:03.575.28-Aug-2021 4879.00 7749.44 81.28 27.00  74.22 3229.53
   01:59:03.775.28-Aug-2021 4879.00 7747.26 81.28 27.00  74.42 3229.53
   01:59:03.975.28-Aug-2021 4879.00 7746.49 81.28 27.00  74.62 3229.53
   01:59:04.175.28-Aug-2021 4879.00 7746.67 81.28 27.00  74.82 3229.53
   01:59:04.375.28-Aug-2021 4879.00 7751.43 81.28 27.00  75.02 3229.53
   01:59:04.575.28-Aug-2021 4879.00 7751.43 81.28 27.00  75.22 3229.53
   01:59:04.775.28-Aug-2021 4879.00 7747.82 81.28 27.00  75.42 3229.53
   01:59:04.975.28-Aug-2021 4879.00 7746.90 81.28 27.00  75.62 3229.53
   01:59:05.175.28-Aug-2021 4879.00 7747.05 81.28 27.00  75.82 3229.53
   01:59:05.376.28-Aug-2021 4879.00 7746.79 81.28 27.00  76.02 3229.53
   01:59:05.576.28-Aug-2021 4879.00 7746.79 81.28 27.00  76.22 3229.53
   01:59:05.776.28-Aug-2021 4879.00 7751.56 81.28 27.00  76.42 3229.53
   01:59:05.976.28-Aug-2021 4879.00 7744.85 81.27 27.00  76.62 3229.53
   01:59:06.176.28-Aug-2021 4879.00 7748.35 81.27 27.00  76.82 3229.53
   01:59:06.376.28-Aug-2021 4879.00 7747.45 81.27 27.00  77.02 3229.53
   01:59:06.576.28-Aug-2021 4879.00 7747.45 81.27 27.00  77.22 3229.53
   01:59:06.776.28-Aug-2021 4879.00 7747.30 81.27 27.00  77.42 3229.53
   01:59:06.976.28-Aug-2021 4879.00 7746.95 81.27 27.00  77.62 3229.53
   01:59:07.176.28-Aug-2021 4879.00 7746.93 81.27 27.00  77.82 3229.53
   01:59:07.376.28-Aug-2021 4879.00 7747.09 81.27 27.00  78.02 3229.53
   01:59:07.576.28-Aug-2021 4879.00 7747.09 81.27 27.00  78.22 3229.53
   01:59:07.776.28-Aug-2021 4879.00 7747.41 81.27 27.00  78.42 3229.53
   01:59:07.976.28-Aug-2021 4879.00 7747.71 81.27 27.00  78.62 3229.53
   01:59:08.176.28-Aug-2021 4879.00 7747.71 81.27 27.00  78.82 3229.53
   01:59:08.376.28-Aug-2021 4879.00 7747.60 81.27 27.00  79.02 3229.53
   01:59:08.577.28-Aug-2021 4879.00 7747.60 81.27 27.00  79.22 3229.53
   01:59:08.777.28-Aug-2021 4879.00 7747.64 81.27 27.00  79.43 3229.53
   01:59:08.977.28-Aug-2021 4879.00 7752.40 81.27 27.00  79.63 3229.53
   01:59:09.177.28-Aug-2021 4879.00 7745.98 81.27 27.00  79.83 3229.53
   01:59:09.377.28-Aug-2021 4879.00 7748.55 81.27 27.00  80.03 3229.53
   01:59:09.577.28-Aug-2021 4879.00 7748.55 81.27 27.00  80.23 3229.53
   01:59:09.777.28-Aug-2021 4879.00 7747.74 81.27 27.00  80.43 3229.53
   01:59:09.977.28-Aug-2021 4879.00 7747.56 81.27 27.00  80.63 3229.53
   01:59:10.177.28-Aug-2021 4879.00 7747.37 81.27 27.00  80.83 3229.53
   01:59:10.377.28-Aug-2021 4879.00 7747.49 81.27 27.00  81.03 3229.53
   01:59:10.577.28-Aug-2021 4879.00 7747.49 81.27 27.00  81.23 3229.53
   01:59:10.777.28-Aug-2021 4879.00 7748.21 81.27 27.00  81.43 3229.53
   01:59:10.977.28-Aug-2021 4879.00 7748.59 81.27 27.00  81.63 3229.53
   01:59:11.177.28-Aug-2021 4879.00 7748.88 81.27 27.00  81.83 3229.53
   01:59:11.377.28-Aug-2021 4879.00 7748.94 81.27 27.00  82.03 3229.53
   01:59:11.577.28-Aug-2021 4879.00 7748.94 81.27 27.00  82.23 3229.53
   01:59:11.778.28-Aug-2021 4879.00 7748.84 81.27 27.00  82.43 3229.53
   01:59:11.978.28-Aug-2021 4879.00 7748.79 81.27 27.00  82.63 3229.53
   01:59:12.178.28-Aug-2021 4879.00 7748.68 81.27 27.00  82.83 3229.53
   01:59:12.378.28-Aug-2021 4879.00 7753.17 81.27 27.00  83.03 3229.53
   01:59:12.578.28-Aug-2021 4879.00 7753.17 81.27 27.00  83.23 3229.53
   01:59:12.778.28-Aug-2021 4879.00 7749.23 81.27 27.00  83.43 3229.53
   01:59:12.978.28-Aug-2021 4879.00 7749.01 81.27 27.00  83.63 3229.53
   01:59:13.178.28-Aug-2021 4879.00 7751.80 81.27 27.00  83.83 3229.53
   01:59:13.378.28-Aug-2021 4879.00 7748.36 81.27 27.00  84.03 3229.53
   01:59:13.578.28-Aug-2021 4879.00 7748.36 81.27 27.00  84.23 3229.53
   01:59:13.778.28-Aug-2021 4879.00 7748.34 81.27 27.00  84.43 3229.53
   01:59:13.978.28-Aug-2021 4879.00 7748.23 81.27 27.00  84.63 3229.53
   01:59:14.178.28-Aug-2021 4879.00 7748.23 81.27 27.00  84.83 3229.53
   01:59:14.378.28-Aug-2021 4879.00 7753.53 81.27 27.00  85.03 3229.53
   01:59:14.578.28-Aug-2021 4879.00 7753.53 81.27 27.00  85.23 3229.53
   01:59:14.778.28-Aug-2021 4879.00 7749.99 81.27 27.00  85.43 3229.53
   01:59:14.979.28-Aug-2021 4879.00 7749.22 81.27 27.00  85.63 3229.53
   01:59:15.179.28-Aug-2021 4879.00 7748.96 81.27 27.00  85.83 3229.53
   01:59:15.379.28-Aug-2021 4879.00 7749.16 81.27 27.00  86.03 3229.53
   01:59:15.579.28-Aug-2021 4879.00 7749.16 81.27 27.00  86.23 3229.53
   01:59:15.779.28-Aug-2021 4879.00 7753.47 81.27 27.00  86.43 3229.53
   01:59:15.979.28-Aug-2021 4879.00 7746.49 81.27 27.00  86.63 3229.53
   01:59:16.179.28-Aug-2021 4879.00 7750.08 81.27 27.00  86.83 3229.53
   01:59:16.379.28-Aug-2021 4879.00 7749.04 81.27 27.00  87.03 3229.53
   01:59:16.579.28-Aug-2021 4879.00 7749.04 81.27 27.00  87.23 3229.53
   01:59:16.779.28-Aug-2021 4879.00 7748.90 81.27 27.00  87.43 3229.53
   01:59:16.979.28-Aug-2021 4879.00 7748.68 81.27 27.00  87.63 3229.53
   01:59:17.179.28-Aug-2021 4879.00 7748.61 81.27 27.00  87.83 3229.53
   01:59:17.379.28-Aug-2021 4879.00 7748.97 81.27 27.00  88.03 3229.53
   01:59:17.579.28-Aug-2021 4879.00 7748.97 81.27 27.00  88.23 3229.53
   01:59:17.779.28-Aug-2021 4879.00 7749.42 81.27 27.00  88.43 3229.53
   01:59:17.979.28-Aug-2021 4879.00 7749.67 81.27 27.00  88.63 3229.53
   01:59:18.180.28-Aug-2021 4879.00 7749.69 81.26 27.00  88.83 3229.53
   01:59:18.380.28-Aug-2021 4879.00 7749.47 81.26 27.00  89.03 3229.53
   01:59:18.580.28-Aug-2021 4879.00 7749.47 81.26 27.00  89.23 3229.53
   01:59:18.780.28-Aug-2021 4879.00 7749.51 81.26 27.00  89.43 3229.53
   01:59:18.980.28-Aug-2021 4879.00 7754.21 81.26 27.00  89.63 3229.53
   01:59:19.180.28-Aug-2021 4879.00 7748.05 81.26 27.00  89.83 3229.53
   01:59:19.380.28-Aug-2021 4879.00 7750.51 81.26 27.00  90.03 3229.53
   01:59:19.580.28-Aug-2021 4879.00 7750.51 81.26 27.00  90.23 3229.53
