~Version Information
 VERS.                  2.0:   CWLS log ASCII Standard -VERSION 2.0
 WRAP.                   NO:   One line per depth step
~Well Information Block
#MNEM.UNIT     VALUE/NAME     DESCRIPTION
#---------     -----------    ---------------------------
 STRT.S             22:11:58 27-Aug-21: START TIME 22:11:58 27-Aug-21
 STOP.S             22:18:52 27-Aug-21: STOP TIME  22:18:52 27-Aug-21
 STEP.S                   0.00: STEP TIME
 NULL.                 -999.25: NULL VALUE
 DFWT.                        :  DIST FWL TEXT
 DFST.                        :  DIST FSL TEXT
 DMF .             Drill Floor:  DRILL MEAS FROM
 STIM.      20.00.00 17-Aug-21:  START TIME
 DATE.      19.00.00 29-Aug-21:  END TIME
 SPUD.               15-Aug-21:  SPUD DATE
 NREF.                    Grid:  NORTH REFERENCE
 HPTY.       Minimum Curvature:  HOLE POS TYPE
 DMOD.             Drill Model:  DRILL MOD DESC
 SVYD.                  Survey:  SURVEY DESC
 ILTD.               Lithology:  INTERP LTH DESC
 FTOP.          Formation Tops:  FORM TOPS DESC
 RIG .              East Azeri:  RIG NAME
 PDAT.          Mean Sea Level:  PERMANENT DATUM
 FLD .                     ACG:  FIELD NAME
 SON .        AZ-XX-0907180857:  JOB NUMBER
 CTRY.              Azerbaijan:  COUNTRY NAME
 WELL.                    D23x:  WELL NAME
 SRVC.     Turan Drilling and Engineering:  CONTRACTOR
 COMP.     BP Exploration (Caspian Sea) Ltd.:  COMPANY
 UWI .            /AZE00000214:  UNIQUE WELL IDENTIFIER
 API .            /AZE00000214:  API NUMBER
 MDS .        Operator Entered:  MAG DATA SOURCE
 BASE.              Azerbaijan:  LOGGING EQUIPMENT BASE LOCATION
 REGN.                   EESSA:  REGION
 PROV.                    Baku:  PROVINCE
 STAT.                    Baku:  STATE NAME
 MWDS.                    Baku:  MWD SHOP
 DOE .                     N/A:  DOE NUMBER
 DCON.         Sperry Drilling:  DIRECTNL CONTR
 UNIT.                     N/A:  LOGGING EQUIPMENT ID
 WTYP.                Deviated:  WELL TYPE
 CNTY.                        :  COUNTY
 LOC .                        :  LOCATION
 LMF .             Drill Floor:  LOG MEASURED FROM
 TVDS.m                  43.60:  TVDSS CORRECTN
 LATI.deg                40.02:  LATITUDE
 LONG.deg                51.45:  LONGITUDE
 WHNS.m                  -7.04:  WELL HEAD N/S
 WHEW.m                  -0.67:  WELL HEAD E/W
 UTMX.m              538762.90:  UTM X
 UTMY.m             4431871.34:  UTM Y
 DFWL.m                   0.00:  DISTANCE FWL
 DFSL.m                   0.00:  DISTANCE FSL
 SDEP.m                4127.00:  START DEPTH
 TDD .m                5084.50:  TOTAL DEPTH (DRILLER)
 VSDR.deg               140.47:  VERT SEC DIRECT
 GVFD.g                   1.00:  GRAVITY FIELD
 MFLD.nT              50362.00:  MAGNETIC FIELD
 MDIP.deg                59.48:  MAGNETIC DIP
 MDEC.deg                 6.47:  MAGNETIC DECL
 GRDC.deg                 0.31:  GRID CORRECTION
 AZTC.deg                 6.16:  AZM TOTAL CORR
 EPD .m                   0.00:  ELEVATION
 EGL .m                   0.00:  GROUND ELEVATION
 WDMS.m                 151.80:  WD ELEV
 APD .m                  43.60:  DEPTH ABOVE PD
 DEP .m                4092.57:  DEPTH
 AGAP.m                  43.60:  AIR GAP
 VSEW.m                  -0.67:  VERT SEC E/W
 VSNS.m                  -7.04:  VERT SEC N/S
 EKB .m                  43.60:  KB ELEVATION
 EDF .m                  43.60:  DF ELEVATION
 TDL .m                 957.50:  TOTAL DEPTH (LOGGER)
 VSC .                       0:  VS TO CLOSURE
 MAGU.                 1851413:  MAGUTM CHECKSUM
~Parameter Information Block
#MNEM.UNIT       Value        Description
#---------     -----------    ---------------------------
 AV  .mps                 1.50:  Ann Velocity 
 AVMX.mps                 2.00:  Max Ann Veloc 
 AZIF.deg               184.66:  Azm, Final 
 BHAT.        Rotary Steerable:  BHA Type 
 BREV.rev               300.00:  Rev Bit Total 
 BROT.°/30m              -0.50:  Build Rotating 
 BS  .in                  8.50:  Bit Size 
 BSZ .in                  8.50:  Bit Size 
 BTPL.psig              370.00:  Bit Press Loss 
 CABU.                      No:  Customer Abuse 
 CGEO.      Behruz Shahbaliyev:  Customer Geo 
 COMM.                     Tªl:  Run Comments 1 
 TCS .hr                140.08:  Time Ciculation Ended 
 CV  .mps                 3.00:  Crit Velocity 
 CVMX.mps                 3.20:  Max Crit Veloc 
 DD1 .            Musa Ahmadov:  Direct Drillr 1 
 DD2 .           Hamid Ahmadov:  Direct Drillr 2 
 DDSV.               Geo-Pilot:  DD Service 
 DEFF.%                  98.40:  % Det Eff 
 DLRX.°/30m               3.40:  Dogleg Rot Max 
 DLSO.°/30m               1.45:  Dogleg Oriented 
 DLSX.°/30m               3.40:  Dogleg Str Max 
 DRET.      18.40.00 29-Aug-21:  Drill End Time 
 DRST.      21.00.00 20-Aug-21:  Drill Start Tim 
 DTIM.hr                 69.47:  Time Drilling 
 EDEP.m                5084.50:  End Depth 
 ENG1.      Artemiy Matviyanov:  Engineer 1 
 ENG2.         Almaz Almadatov:  Engineer 2 
 ETIM.      18.40.00 29-Aug-21:  End Time 
 FLOI.gpm               500.00:  Flow In 
 FLON.gpm               400.00:  Flow In Min 
 FLOS.cptm                0.00:  Fluid Loss 
 FLOX.gpm               500.00:  Flow In Max 
 DFT .        Mineral Oil Base:  Mud Type 
 HFLO.                      No:  High Flow 
 HPRE.                      No:  High Pressure 
 HTEM.                      No:  High Temp 
 HYDO.m                   1.80:  Hydro Offset 
 IFIN.deg                25.62:  Inc, Final 
 IMAX.deg                48.69:  Inc Max 
 IMIN.deg                24.01:  Inc Min 
 IMND.m                4962.57:  Inc Min Depth 
 IMXD.m                4119.01:  Inc Max Depth 
 JARR.                      No:  Jarring 
 LETM.      18.40.00 29-Aug-21:  Log End Time 
 LOST.hr                     0:  Lost Rig Time 
 LSTM.      21.00.00 20-Aug-21:  Log Start Time 
 MDCL.ppm             41500.00:  Mud Chlorides 
 MDES.     Inversion Oil/Synthetic:  Mud Desc 
 DFD .sg                  1.56:  Mud Density 
 MDMN.sg                  1.56:  Dens Mud Min 
 MDMX.sg                  1.56:  Dens Mud Max 
 MOIL.                      70:  Run Mud Oil % 
 MOWR.                   70:30:  Run Mud OWR 
 MSND.                     0.2:  Run Mud Sand % 
 MSOL.                    23.3:  Run Mud Solids% 
 DFV .spqt               78.00:  Mud Viscosity 
 MWOD.in                  6.75:  MWD Tool OD 
 MWSI.                      No:  Serv Intrp, MWD 
 OTIM.hr                218.30:  Time Operating 
 PCON.           Look Like New:  Pad Condition 
 PMAX.psia            11015.30:  Press Op, Max 
 PV  .cP                 38.00:  Mud PV 
 RUN .                     300:  Run Number 
 ROPA.m/hr               15.00:  ROP Avg 
 ROPN.m/hr                9.00:  ROP Min 
 ROPX.m/hr               17.00:  ROP Max 
 RPMA.rpm               120.00:  RPM Surface Avg 
 RPMN.rpm                90.00:  RPM Surface Min 
 RPMX.rpm               140.00:  RPM Surface Max 
 RRUN.                     300:  Rig Run Number 
 RTIM.hr                 31.53:  Time Reaming 
 SAZI.deg               331.64:  Azm, Start 
 SDEP.m                4127.00:  Start Depth 
 SIDD.                      No:  Serv Intrp, DD 
 SINC.deg                48.43:  Inc, Start 
 SPPA.psig             5830.00:  SPP Avg 
 SPPN.psig             5600.00:  SPP Min 
 SPPX.psig             5900.00:  SPP Max 
 STIM.      21.00.00 20-Aug-21:  Start Time 
 SVCS.                 DD, MWD:  Services 
 SVER.                    9.20:  Sperry Version 
 TDAT.m                 957.50:  Tot Depth Attmp 
 TDDF.                      No:  Trip for DD 
 TDLG.m                 957.50:  Tot Depth Loggd 
 TFF .                      No:  Trip for Fail 
 TQAA.f-kp               15.00:  Torque Abs Avg 
 TQAN.f-kp               12.00:  Torque Abs Min 
 TQAX.f-kp               19.00:  Torque Abs Max 
 TRRT.°/30m              -3.40:  Turn Rotating 
 MRT .                  EWR-M5:  Maximum Recorded Temperature 
 TTMX.degC              100.00:  Max Tool Temp 
 VS01.                90639251:  Virtual Str1 SN 
 VS02.                90634715:  Virtual Str2 SN 
 VS03.                90652479:  Virtual Str3 SN 
 VS04.                90642262:  Virtual Str4 SN 
 WBMN.klb                 0.00:  WOB Min 
 WITN.           Murad Guliyev:  Customer Rep 
 WITN.          Yashar Gaziyev:  Customer Rep 2 
 WOBA.klb                 9.00:  WOB Avg 
 WOBX.klb                12.00:  WOB Max 
 YP  .lhf2               30.00:  Yield Point 
~Curve Information Block
#MNEM.UNIT                 API CODE     Curve Description
#---------               -----------    ---------------------------
 TIME.HHMMSS            00 000 000 000:  GT Time & Date
 GTDEPTH.m              00 000 000 000:  GT Depth
 GTPQH.psia             00 000 000 000:  GT HR Quartz Pressure
 GTTQ.degC              00 000 000 000:  GT Quartz Temperature
 GTTN.NONE              00 000 000 000:  GT Test Number
 GTET.sec               00 000 000 000:  GT Elapsed Test Time
 GTTVD.m                00 000 000 000:  GT True Vertical Depth
#Other Information
#
#WARRANTY: Halliburton will use its best efforts to furnish customers with 
#accurate information and interpretations that are part of, and incident to, the services 
#provided.  However, Halliburton cannot and does not warrant the accuracy 
#or correctness of such information and interpretations.  Under no circumstances should any 
#such information or interpretation be relied upon as the sole basis for any drilling, 
#completion, production, or financial decision or any procedure involving any risk to the 
#safety of any drilling venture, drilling rig or its crew or any other third party.  The 
#Customer has full responsibility for all drilling, completion and production operation.  
#Halliburton makes no representations or warranties, either expressed or 
#implied, including, but not limited to, the implied warranties of merchantability or fitness 
#for a particular purpose, with respect to the services rendered.  In no event will 
#Halliburton be liable for failure to obtain any particular results or for 
#any damages, including, but not limited to, indirect, special or consequential damages, 
#resulting from the use of any information or interpretation provided by Halliburton.
#
~A           TIME           GTDEPTH  GTPQH  GTTQ  GTTN   GTET   GTTVD  
# ...
   22:16:29.773.27-Aug-2021 4635.80 1730.37 82.40 24.00 271.23 3009.39
   22:16:29.974.27-Aug-2021 4635.80 1156.76 82.40 24.00 271.43 3009.39
   22:16:30.174.27-Aug-2021 4635.80 1146.40 82.40 24.00 271.63 3009.39
   22:16:30.374.27-Aug-2021 4635.80 1143.53 82.40 24.00 271.83 3009.39
   22:16:30.574.27-Aug-2021 4635.80 1144.40 82.40 24.00 272.03 3009.39
   22:16:30.774.27-Aug-2021 4635.80 1144.40 82.40 24.00 272.23 3009.39
   22:16:30.974.27-Aug-2021 4635.80 1141.49 82.40 24.00 272.43 3009.39
   22:16:31.174.27-Aug-2021 4635.80 1143.92 82.39 24.00 272.63 3009.39
   22:16:31.374.27-Aug-2021 4635.80 1142.31 82.39 24.00 272.83 3009.39
   22:16:31.574.27-Aug-2021 4635.80 1140.65 82.39 24.00 273.03 3009.39
   22:16:31.774.27-Aug-2021 4635.80 1140.65 82.39 24.00 273.23 3009.39
   22:16:31.974.27-Aug-2021 4635.80 1138.28 82.38 24.00 273.43 3009.39
   22:16:32.174.27-Aug-2021 4635.80 1134.27 82.38 24.00 273.63 3009.39
   22:16:32.374.27-Aug-2021 4635.80 1135.34 82.38 24.00 273.83 3009.39
   22:16:32.574.27-Aug-2021 4635.80 1136.60 82.37 24.00 274.03 3009.39
   22:16:32.774.27-Aug-2021 4635.80 1136.60 82.37 24.00 274.23 3009.39
   22:16:32.974.27-Aug-2021 4635.80 1134.73 82.37 24.00 274.43 3009.39
   22:16:33.174.27-Aug-2021 4635.80 1133.45 82.37 24.00 274.63 3009.39
   22:16:33.374.27-Aug-2021 4635.80 1130.32 82.36 24.00 274.83 3009.39
   22:16:33.574.27-Aug-2021 4635.80 1130.21 82.36 24.00 275.03 3009.39
   22:16:33.774.27-Aug-2021 4635.80 1130.21 82.36 24.00 275.23 3009.39
   22:16:33.974.27-Aug-2021 4635.80 1130.45 82.36 24.00 275.43 3009.39
   22:16:34.174.27-Aug-2021 4635.80 1130.82 82.35 24.00 275.63 3009.39
   22:16:34.374.27-Aug-2021 4635.80 1131.18 82.35 24.00 275.83 3009.39
   22:16:34.574.27-Aug-2021 4635.80 1129.37 82.35 24.00 276.03 3009.39
   22:16:34.774.27-Aug-2021 4635.80 1129.37 82.35 24.00 276.23 3009.39
   22:16:34.974.27-Aug-2021 4635.80 1127.92 82.35 24.00 276.43 3009.39
   22:16:35.174.27-Aug-2021 4635.80 1129.69 82.34 24.00 276.63 3009.39
   22:16:35.374.27-Aug-2021 4635.80 1126.28 82.34 24.00 276.83 3009.39
   22:16:35.574.27-Aug-2021 4635.80 1122.02 82.34 24.00 277.03 3009.39
   22:16:35.774.27-Aug-2021 4635.80 1122.02 82.34 24.00 277.23 3009.39
   22:16:35.974.27-Aug-2021 4635.80 1127.84 82.33 24.00 277.43 3009.39
   22:16:36.174.27-Aug-2021 4635.80 1132.14 82.33 24.00 277.63 3009.39
   22:16:36.374.27-Aug-2021 4635.80 1134.23 82.33 24.00 277.83 3009.39
   22:16:36.574.27-Aug-2021 4635.80 1135.94 82.33 24.00 278.03 3009.39
   22:16:36.774.27-Aug-2021 4635.80 1135.94 82.33 24.00 278.23 3009.39
   22:16:36.974.27-Aug-2021 4635.80 1134.13 82.33 24.00 278.43 3009.39
   22:16:37.174.27-Aug-2021 4635.80 1134.15 82.33 24.00 278.63 3009.39
   22:16:37.374.27-Aug-2021 4635.80 1131.98 82.32 24.00 278.83 3009.39
   22:16:37.574.27-Aug-2021 4635.80 1134.58 82.32 24.00 279.03 3009.39
   22:16:37.774.27-Aug-2021 4635.80 1134.58 82.32 24.00 279.23 3009.39
   22:16:37.974.27-Aug-2021 4635.80 1135.13 82.32 24.00 279.43 3009.39
   22:16:38.174.27-Aug-2021 4635.80 1135.82 82.32 24.00 279.63 3009.39
   22:16:38.374.27-Aug-2021 4635.80 1137.66 82.32 24.00 279.83 3009.39
   22:16:38.574.27-Aug-2021 4635.80 1139.74 82.32 24.00 280.03 3009.39
   22:16:38.774.27-Aug-2021 4635.80 1139.74 82.32 24.00 280.23 3009.39
   22:16:38.974.27-Aug-2021 4635.80 1139.21 82.31 24.00 280.43 3009.39
   22:16:39.174.27-Aug-2021 4635.80 1143.25 82.31 24.00 280.63 3009.39
   22:16:39.374.27-Aug-2021 4635.80 1164.13 82.31 24.00 280.83 3009.39
   22:16:39.574.27-Aug-2021 4635.80 1191.40 82.31 24.00 281.03 3009.39
   22:16:39.775.27-Aug-2021 4635.80 1191.40 82.31 24.00 281.23 3009.39
   22:16:39.975.27-Aug-2021 4635.80 1234.96 82.31 24.00 281.43 3009.39
   22:16:40.175.27-Aug-2021 4635.80 1256.36 82.31 24.00 281.63 3009.39
   22:16:40.375.27-Aug-2021 4635.80 1277.55 82.31 24.00 281.83 3009.39
   22:16:40.575.27-Aug-2021 4635.80 1298.49 82.31 24.00 282.03 3009.39
   22:16:40.775.27-Aug-2021 4635.80 1298.49 82.31 24.00 282.23 3009.39
   22:16:40.975.27-Aug-2021 4635.80 1338.64 82.31 24.00 282.43 3009.39
   22:16:41.175.27-Aug-2021 4635.80 1358.42 82.31 24.00 282.63 3009.39
   22:16:41.375.27-Aug-2021 4635.80 1377.92 82.31 24.00 282.83 3009.39
   22:16:41.575.27-Aug-2021 4635.80 1396.76 82.31 24.00 283.03 3009.39
   22:16:41.775.27-Aug-2021 4635.80 1396.76 82.31 24.00 283.23 3009.39
   22:16:41.975.27-Aug-2021 4635.80 1435.36 82.31 24.00 283.43 3009.39
   22:16:42.175.27-Aug-2021 4635.80 1454.24 82.31 24.00 283.63 3009.39
   22:16:42.375.27-Aug-2021 4635.80 1473.01 82.31 24.00 283.83 3009.39
   22:16:42.575.27-Aug-2021 4635.80 1491.63 82.31 24.00 284.03 3009.39
   22:16:42.775.27-Aug-2021 4635.80 1491.63 82.31 24.00 284.23 3009.39
   22:16:42.975.27-Aug-2021 4635.80 1509.99 82.31 24.00 284.43 3009.39
   22:16:43.175.27-Aug-2021 4635.80 1546.45 82.31 24.00 284.63 3009.39
   22:16:43.375.27-Aug-2021 4635.80 1564.53 82.31 24.00 284.83 3009.39
   22:16:43.575.27-Aug-2021 4635.80 1582.37 82.31 24.00 285.03 3009.39
   22:16:43.775.27-Aug-2021 4635.80 1582.37 82.31 24.00 285.23 3009.39
   22:16:43.975.27-Aug-2021 4635.80 1617.76 82.31 24.00 285.43 3009.39
   22:16:44.175.27-Aug-2021 4635.80 1635.28 82.31 24.00 285.63 3009.39
   22:16:44.375.27-Aug-2021 4635.80 1652.60 82.31 24.00 285.83 3009.39
   22:16:44.575.27-Aug-2021 4635.80 1669.84 82.31 24.00 286.03 3009.39
   22:16:44.775.27-Aug-2021 4635.80 1669.84 82.31 24.00 286.23 3009.39
   22:16:44.975.27-Aug-2021 4635.80 1703.54 82.31 24.00 286.43 3009.39
   22:16:45.175.27-Aug-2021 4635.80 1720.32 82.31 24.00 286.63 3009.39
   22:16:45.375.27-Aug-2021 4635.80 1737.17 82.31 24.00 286.83 3009.39
   22:16:45.575.27-Aug-2021 4635.80 1753.86 82.31 24.00 287.03 3009.39
   22:16:45.775.27-Aug-2021 4635.80 1753.86 82.31 24.00 287.23 3009.39
   22:16:45.975.27-Aug-2021 4635.80 1753.86 82.31 24.00 287.43 3009.39
   22:16:46.175.27-Aug-2021 4635.80 1802.72 82.31 24.00 287.63 3009.39
   22:16:46.375.27-Aug-2021 4635.80 1818.95 82.31 24.00 287.83 3009.39
   22:16:46.575.27-Aug-2021 4635.80 1835.06 82.31 24.00 288.03 3009.39
   22:16:46.775.27-Aug-2021 4635.80 1835.06 82.31 24.00 288.23 3009.39
   22:16:46.975.27-Aug-2021 4635.80 1866.36 82.31 24.00 288.43 3009.39
   22:16:47.175.27-Aug-2021 4635.80 1882.33 82.31 24.00 288.63 3009.39
   22:16:47.375.27-Aug-2021 4635.80 1897.99 82.31 24.00 288.83 3009.39
   22:16:47.575.27-Aug-2021 4635.80 1913.59 82.31 24.00 289.03 3009.39
   22:16:47.775.27-Aug-2021 4635.80 1913.59 82.31 24.00 289.23 3009.39
   22:16:47.975.27-Aug-2021 4635.80 1944.28 82.31 24.00 289.43 3009.39
   22:16:48.175.27-Aug-2021 4635.80 1959.15 82.31 24.00 289.63 3009.39
   22:16:48.375.27-Aug-2021 4635.80 1974.37 82.31 24.00 289.83 3009.39
   22:16:48.575.27-Aug-2021 4635.80 1989.61 82.31 24.00 290.03 3009.39
   22:16:48.775.27-Aug-2021 4635.80 1989.61 82.31 24.00 290.23 3009.39
   22:16:48.975.27-Aug-2021 4635.80 2019.56 82.32 24.00 290.43 3009.39
   22:16:49.175.27-Aug-2021 4635.80 2034.36 82.32 24.00 290.63 3009.39
   22:16:49.375.27-Aug-2021 4635.80 2049.04 82.32 24.00 290.83 3009.39
   22:16:49.576.27-Aug-2021 4635.80 2063.73 82.32 24.00 291.03 3009.39
   22:16:49.776.27-Aug-2021 4635.80 2063.73 82.32 24.00 291.23 3009.39
   22:16:49.976.27-Aug-2021 4635.80 2092.65 82.32 24.00 291.43 3009.39
   22:16:50.176.27-Aug-2021 4635.80 2107.01 82.32 24.00 291.63 3009.39
   22:16:50.376.27-Aug-2021 4635.80 2121.16 82.32 24.00 291.83 3009.39
   22:16:50.576.27-Aug-2021 4635.80 2135.37 82.32 24.00 292.03 3009.39
   22:16:50.776.27-Aug-2021 4635.80 2135.37 82.32 24.00 292.23 3009.39
   22:16:50.976.27-Aug-2021 4635.80 2163.40 82.32 24.00 292.43 3009.39
   22:16:51.176.27-Aug-2021 4635.80 2176.60 82.32 24.00 292.63 3009.39
   22:16:51.376.27-Aug-2021 4635.80 2190.41 82.32 24.00 292.83 3009.39
   22:16:51.576.27-Aug-2021 4635.80 2203.91 82.32 24.00 293.03 3009.39
   22:16:51.776.27-Aug-2021 4635.80 2203.91 82.32 24.00 293.23 3009.39
   22:16:51.976.27-Aug-2021 4635.80 2231.25 82.32 24.00 293.43 3009.39
   22:16:52.176.27-Aug-2021 4635.80 2244.84 82.32 24.00 293.63 3009.39
