~Version Information
 VERS.                  2.0:   CWLS log ASCII Standard -VERSION 2.0
 WRAP.                   NO:   One line per depth step
~Well Information Block
#MNEM.UNIT     VALUE/NAME     DESCRIPTION
#---------     -----------    ---------------------------
 STRT.S             16:35:30 27-Aug-21: START TIME 16:35:30 27-Aug-21
 STOP.S             16:42:43 27-Aug-21: STOP TIME  16:42:43 27-Aug-21
 STEP.S                   0.00: STEP TIME
 NULL.                 -999.25: NULL VALUE
 DFWT.                        :  DIST FWL TEXT
 DFST.                        :  DIST FSL TEXT
 DMF .             Drill Floor:  DRILL MEAS FROM
 STIM.      20.00.00 17-Aug-21:  START TIME
 DATE.      19.00.00 29-Aug-21:  END TIME
 SPUD.               15-Aug-21:  SPUD DATE
 NREF.                    Grid:  NORTH REFERENCE
 HPTY.       Minimum Curvature:  HOLE POS TYPE
 DMOD.             Drill Model:  DRILL MOD DESC
 SVYD.                  Survey:  SURVEY DESC
 ILTD.               Lithology:  INTERP LTH DESC
 FTOP.          Formation Tops:  FORM TOPS DESC
 RIG .              East Azeri:  RIG NAME
 PDAT.          Mean Sea Level:  PERMANENT DATUM
 FLD .                     ACG:  FIELD NAME
 SON .        AZ-XX-0907180857:  JOB NUMBER
 CTRY.              Azerbaijan:  COUNTRY NAME
 WELL.                    D23x:  WELL NAME
 SRVC.     Turan Drilling and Engineering:  CONTRACTOR
 COMP.     BP Exploration (Caspian Sea) Ltd.:  COMPANY
 UWI .            /AZE00000214:  UNIQUE WELL IDENTIFIER
 API .            /AZE00000214:  API NUMBER
 MDS .        Operator Entered:  MAG DATA SOURCE
 BASE.              Azerbaijan:  LOGGING EQUIPMENT BASE LOCATION
 REGN.                   EESSA:  REGION
 PROV.                    Baku:  PROVINCE
 STAT.                    Baku:  STATE NAME
 MWDS.                    Baku:  MWD SHOP
 DOE .                     N/A:  DOE NUMBER
 DCON.         Sperry Drilling:  DIRECTNL CONTR
 UNIT.                     N/A:  LOGGING EQUIPMENT ID
 WTYP.                Deviated:  WELL TYPE
 CNTY.                        :  COUNTY
 LOC .                        :  LOCATION
 LMF .             Drill Floor:  LOG MEASURED FROM
 TVDS.m                  43.60:  TVDSS CORRECTN
 LATI.deg                40.02:  LATITUDE
 LONG.deg                51.45:  LONGITUDE
 WHNS.m                  -7.04:  WELL HEAD N/S
 WHEW.m                  -0.67:  WELL HEAD E/W
 UTMX.m              538762.90:  UTM X
 UTMY.m             4431871.34:  UTM Y
 DFWL.m                   0.00:  DISTANCE FWL
 DFSL.m                   0.00:  DISTANCE FSL
 SDEP.m                4127.00:  START DEPTH
 TDD .m                5084.50:  TOTAL DEPTH (DRILLER)
 VSDR.deg               140.47:  VERT SEC DIRECT
 GVFD.g                   1.00:  GRAVITY FIELD
 MFLD.nT              50362.00:  MAGNETIC FIELD
 MDIP.deg                59.48:  MAGNETIC DIP
 MDEC.deg                 6.47:  MAGNETIC DECL
 GRDC.deg                 0.31:  GRID CORRECTION
 AZTC.deg                 6.16:  AZM TOTAL CORR
 EPD .m                   0.00:  ELEVATION
 EGL .m                   0.00:  GROUND ELEVATION
 WDMS.m                 151.80:  WD ELEV
 APD .m                  43.60:  DEPTH ABOVE PD
 DEP .m                4092.57:  DEPTH
 AGAP.m                  43.60:  AIR GAP
 VSEW.m                  -0.67:  VERT SEC E/W
 VSNS.m                  -7.04:  VERT SEC N/S
 EKB .m                  43.60:  KB ELEVATION
 EDF .m                  43.60:  DF ELEVATION
 TDL .m                 957.50:  TOTAL DEPTH (LOGGER)
 VSC .                       0:  VS TO CLOSURE
 MAGU.                 1851413:  MAGUTM CHECKSUM
~Parameter Information Block
#MNEM.UNIT       Value        Description
#---------     -----------    ---------------------------
 AV  .mps                 1.50:  Ann Velocity 
 AVMX.mps                 2.00:  Max Ann Veloc 
 AZIF.deg               184.66:  Azm, Final 
 BHAT.        Rotary Steerable:  BHA Type 
 BREV.rev               300.00:  Rev Bit Total 
 BROT.°/30m              -0.50:  Build Rotating 
 BS  .in                  8.50:  Bit Size 
 BSZ .in                  8.50:  Bit Size 
 BTPL.psig              370.00:  Bit Press Loss 
 CABU.                      No:  Customer Abuse 
 CGEO.      Behruz Shahbaliyev:  Customer Geo 
 COMM.                     äU:  Run Comments 1 
 TCS .hr                140.08:  Time Ciculation Ended 
 CV  .mps                 3.00:  Crit Velocity 
 CVMX.mps                 3.20:  Max Crit Veloc 
 DD1 .            Musa Ahmadov:  Direct Drillr 1 
 DD2 .           Hamid Ahmadov:  Direct Drillr 2 
 DDSV.               Geo-Pilot:  DD Service 
 DEFF.%                  98.40:  % Det Eff 
 DLRX.°/30m               3.40:  Dogleg Rot Max 
 DLSO.°/30m               1.45:  Dogleg Oriented 
 DLSX.°/30m               3.40:  Dogleg Str Max 
 DRET.      18.40.00 29-Aug-21:  Drill End Time 
 DRST.      21.00.00 20-Aug-21:  Drill Start Tim 
 DTIM.hr                 69.47:  Time Drilling 
 EDEP.m                5084.50:  End Depth 
 ENG1.      Artemiy Matviyanov:  Engineer 1 
 ENG2.         Almaz Almadatov:  Engineer 2 
 ETIM.      18.40.00 29-Aug-21:  End Time 
 FLOI.gpm               500.00:  Flow In 
 FLON.gpm               400.00:  Flow In Min 
 FLOS.cptm                0.00:  Fluid Loss 
 FLOX.gpm               500.00:  Flow In Max 
 DFT .        Mineral Oil Base:  Mud Type 
 HFLO.                      No:  High Flow 
 HPRE.                      No:  High Pressure 
 HTEM.                      No:  High Temp 
 HYDO.m                   1.80:  Hydro Offset 
 IFIN.deg                25.62:  Inc, Final 
 IMAX.deg                48.69:  Inc Max 
 IMIN.deg                24.01:  Inc Min 
 IMND.m                4962.57:  Inc Min Depth 
 IMXD.m                4119.01:  Inc Max Depth 
 JARR.                      No:  Jarring 
 LETM.      18.40.00 29-Aug-21:  Log End Time 
 LOST.hr                     0:  Lost Rig Time 
 LSTM.      21.00.00 20-Aug-21:  Log Start Time 
 MDCL.ppm             41500.00:  Mud Chlorides 
 MDES.     Inversion Oil/Synthetic:  Mud Desc 
 DFD .sg                  1.56:  Mud Density 
 MDMN.sg                  1.56:  Dens Mud Min 
 MDMX.sg                  1.56:  Dens Mud Max 
 MOIL.                      70:  Run Mud Oil % 
 MOWR.                   70:30:  Run Mud OWR 
 MSND.                     0.2:  Run Mud Sand % 
 MSOL.                    23.3:  Run Mud Solids% 
 DFV .spqt               78.00:  Mud Viscosity 
 MWOD.in                  6.75:  MWD Tool OD 
 MWSI.                      No:  Serv Intrp, MWD 
 OTIM.hr                218.30:  Time Operating 
 PCON.           Look Like New:  Pad Condition 
 PMAX.psia            11015.30:  Press Op, Max 
 PV  .cP                 38.00:  Mud PV 
 RUN .                     300:  Run Number 
 ROPA.m/hr               15.00:  ROP Avg 
 ROPN.m/hr                9.00:  ROP Min 
 ROPX.m/hr               17.00:  ROP Max 
 RPMA.rpm               120.00:  RPM Surface Avg 
 RPMN.rpm                90.00:  RPM Surface Min 
 RPMX.rpm               140.00:  RPM Surface Max 
 RRUN.                     300:  Rig Run Number 
 RTIM.hr                 31.53:  Time Reaming 
 SAZI.deg               331.64:  Azm, Start 
 SDEP.m                4127.00:  Start Depth 
 SIDD.                      No:  Serv Intrp, DD 
 SINC.deg                48.43:  Inc, Start 
 SPPA.psig             5830.00:  SPP Avg 
 SPPN.psig             5600.00:  SPP Min 
 SPPX.psig             5900.00:  SPP Max 
 STIM.      21.00.00 20-Aug-21:  Start Time 
 SVCS.                 DD, MWD:  Services 
 SVER.                    9.20:  Sperry Version 
 TDAT.m                 957.50:  Tot Depth Attmp 
 TDDF.                      No:  Trip for DD 
 TDLG.m                 957.50:  Tot Depth Loggd 
 TFF .                      No:  Trip for Fail 
 TQAA.f-kp               15.00:  Torque Abs Avg 
 TQAN.f-kp               12.00:  Torque Abs Min 
 TQAX.f-kp               19.00:  Torque Abs Max 
 TRRT.°/30m              -3.40:  Turn Rotating 
 MRT .                  EWR-M5:  Maximum Recorded Temperature 
 TTMX.degC              100.00:  Max Tool Temp 
 VS01.                90639251:  Virtual Str1 SN 
 VS02.                90634715:  Virtual Str2 SN 
 VS03.                90652479:  Virtual Str3 SN 
 VS04.                90642262:  Virtual Str4 SN 
 WBMN.klb                 0.00:  WOB Min 
 WITN.           Murad Guliyev:  Customer Rep 
 WITN.          Yashar Gaziyev:  Customer Rep 2 
 WOBA.klb                 9.00:  WOB Avg 
 WOBX.klb                12.00:  WOB Max 
 YP  .lhf2               30.00:  Yield Point 
~Curve Information Block
#MNEM.UNIT                 API CODE     Curve Description
#---------               -----------    ---------------------------
 TIME.HHMMSS            00 000 000 000:  GT Time & Date
 GTDEPTH.m              00 000 000 000:  GT Depth
 GTPQH.psia             00 000 000 000:  GT HR Quartz Pressure
 GTTQ.degC              00 000 000 000:  GT Quartz Temperature
 GTTN.NONE              00 000 000 000:  GT Test Number
 GTET.sec               00 000 000 000:  GT Elapsed Test Time
 GTTVD.m                00 000 000 000:  GT True Vertical Depth
#Other Information
#
#WARRANTY: Halliburton will use its best efforts to furnish customers with 
#accurate information and interpretations that are part of, and incident to, the services 
#provided.  However, Halliburton cannot and does not warrant the accuracy 
#or correctness of such information and interpretations.  Under no circumstances should any 
#such information or interpretation be relied upon as the sole basis for any drilling, 
#completion, production, or financial decision or any procedure involving any risk to the 
#safety of any drilling venture, drilling rig or its crew or any other third party.  The 
#Customer has full responsibility for all drilling, completion and production operation.  
#Halliburton makes no representations or warranties, either expressed or 
#implied, including, but not limited to, the implied warranties of merchantability or fitness 
#for a particular purpose, with respect to the services rendered.  In no event will 
#Halliburton be liable for failure to obtain any particular results or for 
#any damages, including, but not limited to, indirect, special or consequential damages, 
#resulting from the use of any information or interpretation provided by Halliburton.
#
~A           TIME           GTDEPTH  GTPQH  GTTQ  GTTN   GTET   GTTVD  
# ...
   16:36:15.587.27-Aug-2021 4788.00 7511.45 83.24 17.00  45.15 3147.22
   16:36:15.787.27-Aug-2021 4788.00 7510.39 83.24 17.00  45.35 3147.22
   16:36:15.987.27-Aug-2021 4788.00 7516.77 83.24 17.00  45.55 3147.22
   16:36:16.186.27-Aug-2021 4788.00 7508.18 83.24 17.00  45.75 3147.22
   16:36:16.386.27-Aug-2021 4788.00 7511.39 83.24 17.00  45.95 3147.22
   16:36:16.586.27-Aug-2021 4788.00 7511.39 83.24 17.00  46.15 3147.22
   16:36:16.786.27-Aug-2021 4788.00 7515.94 83.24 17.00  46.35 3147.22
   16:36:16.986.27-Aug-2021 4788.00 7510.19 83.24 17.00  46.55 3147.22
   16:36:17.185.27-Aug-2021 4788.00 7511.64 83.24 17.00  46.75 3147.22
   16:36:17.385.27-Aug-2021 4788.00 7512.72 83.24 17.00  46.95 3147.22
   16:36:17.585.27-Aug-2021 4788.00 7512.72 83.24 17.00  47.15 3147.22
   16:36:17.785.27-Aug-2021 4788.00 7512.72 83.24 17.00  47.35 3147.22
   16:36:17.985.27-Aug-2021 4788.00 7509.37 83.24 17.00  47.55 3147.22
   16:36:18.184.27-Aug-2021 4788.00 7512.61 83.24 17.00  47.75 3147.22
   16:36:18.384.27-Aug-2021 4788.00 7513.90 83.24 17.00  47.95 3147.22
   16:36:18.584.27-Aug-2021 4788.00 7513.90 83.24 17.00  48.15 3147.22
   16:36:18.784.27-Aug-2021 4788.00 7512.71 83.24 17.00  48.35 3147.22
   16:36:18.984.27-Aug-2021 4788.00 7512.66 83.24 17.00  48.55 3147.22
   16:36:19.183.27-Aug-2021 4788.00 7512.78 83.24 17.00  48.75 3147.22
   16:36:19.383.27-Aug-2021 4788.00 7513.21 83.24 17.00  48.95 3147.22
   16:36:19.583.27-Aug-2021 4788.00 7513.21 83.24 17.00  49.15 3147.22
   16:36:19.783.27-Aug-2021 4788.00 7513.14 83.24 17.00  49.35 3147.22
   16:36:19.983.27-Aug-2021 4788.00 7513.20 83.24 17.00  49.55 3147.22
   16:36:20.182.27-Aug-2021 4788.00 7513.12 83.24 17.00  49.75 3147.22
   16:36:20.382.27-Aug-2021 4788.00 7513.17 83.24 17.00  49.95 3147.22
   16:36:20.582.27-Aug-2021 4788.00 7513.17 83.24 17.00  50.15 3147.22
   16:36:20.782.27-Aug-2021 4788.00 7513.28 83.24 17.00  50.35 3147.22
   16:36:20.982.27-Aug-2021 4788.00 7518.88 83.24 17.00  50.55 3147.22
   16:36:21.181.27-Aug-2021 4788.00 7510.85 83.23 17.00  50.75 3147.22
   16:36:21.381.27-Aug-2021 4788.00 7513.58 83.23 17.00  50.95 3147.22
   16:36:21.581.27-Aug-2021 4788.00 7513.58 83.23 17.00  51.15 3147.22
   16:36:21.781.27-Aug-2021 4788.00 7513.45 83.23 17.00  51.35 3147.22
   16:36:21.981.27-Aug-2021 4788.00 7513.42 83.23 17.00  51.55 3147.22
   16:36:22.180.27-Aug-2021 4788.00 7513.28 83.23 17.00  51.75 3147.22
   16:36:22.380.27-Aug-2021 4788.00 7513.66 83.23 17.00  51.95 3147.22
   16:36:22.580.27-Aug-2021 4788.00 7513.66 83.23 17.00  52.15 3147.22
   16:36:22.780.27-Aug-2021 4788.00 7514.07 83.23 17.00  52.35 3147.22
   16:36:22.980.27-Aug-2021 4788.00 7514.14 83.23 17.00  52.55 3147.22
   16:36:23.179.27-Aug-2021 4788.00 7514.38 83.23 17.00  52.75 3147.22
   16:36:23.379.27-Aug-2021 4788.00 7514.36 83.23 17.00  52.95 3147.22
   16:36:23.579.27-Aug-2021 4788.00 7514.36 83.23 17.00  53.15 3147.22
   16:36:23.779.27-Aug-2021 4788.00 7514.38 83.23 17.00  53.35 3147.22
   16:36:23.979.27-Aug-2021 4788.00 7514.29 83.23 17.00  53.55 3147.22
   16:36:24.178.27-Aug-2021 4788.00 7514.25 83.23 17.00  53.75 3147.22
   16:36:24.378.27-Aug-2021 4788.00 7516.69 83.23 17.00  53.95 3147.22
   16:36:24.578.27-Aug-2021 4788.00 7516.69 83.23 17.00  54.15 3147.22
   16:36:24.778.27-Aug-2021 4788.00 7514.54 83.23 17.00  54.35 3147.22
   16:36:24.978.27-Aug-2021 4788.00 7515.06 83.23 17.00  54.55 3147.22
   16:36:25.177.27-Aug-2021 4788.00 7519.76 83.23 17.00  54.75 3147.22
   16:36:25.377.27-Aug-2021 4788.00 7512.67 83.23 17.00  54.95 3147.22
   16:36:25.577.27-Aug-2021 4788.00 7512.67 83.23 17.00  55.14 3147.22
   16:36:25.777.27-Aug-2021 4788.00 7513.72 83.23 17.00  55.34 3147.22
   16:36:25.977.27-Aug-2021 4788.00 7513.55 83.23 17.00  55.54 3147.22
   16:36:26.176.27-Aug-2021 4788.00 7514.00 83.23 17.00  55.74 3147.22
   16:36:26.376.27-Aug-2021 4788.00 7513.02 83.23 17.00  55.94 3147.22
   16:36:26.576.27-Aug-2021 4788.00 7513.02 83.23 17.00  56.14 3147.22
   16:36:26.776.27-Aug-2021 4788.00 7512.08 83.23 17.00  56.34 3147.22
   16:36:26.976.27-Aug-2021 4788.00 7514.05 83.23 17.00  56.54 3147.22
   16:36:27.175.27-Aug-2021 4788.00 7515.00 83.23 17.00  56.74 3147.22
   16:36:27.375.27-Aug-2021 4788.00 7514.25 83.23 17.00  56.94 3147.22
   16:36:27.575.27-Aug-2021 4788.00 7514.25 83.23 17.00  57.14 3147.22
   16:36:27.775.27-Aug-2021 4788.00 7513.49 83.23 17.00  57.34 3147.22
   16:36:27.975.27-Aug-2021 4788.00 7516.15 83.23 17.00  57.54 3147.22
   16:36:28.174.27-Aug-2021 4788.00 7515.15 83.23 17.00  57.74 3147.22
   16:36:28.374.27-Aug-2021 4788.00 7513.92 83.23 17.00  57.94 3147.22
   16:36:28.574.27-Aug-2021 4788.00 7513.92 83.23 17.00  58.14 3147.22
   16:36:28.774.27-Aug-2021 4788.00 7515.06 83.23 17.00  58.34 3147.22
   16:36:28.974.27-Aug-2021 4788.00 7513.97 83.23 17.00  58.54 3147.22
   16:36:29.173.27-Aug-2021 4788.00 7514.34 83.23 17.00  58.74 3147.22
   16:36:29.373.27-Aug-2021 4788.00 7514.24 83.23 17.00  58.94 3147.22
   16:36:29.573.27-Aug-2021 4788.00 7514.24 83.23 17.00  59.14 3147.22
   16:36:29.773.27-Aug-2021 4788.00 7514.71 83.23 17.00  59.34 3147.22
   16:36:29.973.27-Aug-2021 4788.00 7514.56 83.23 17.00  59.54 3147.22
   16:36:30.172.27-Aug-2021 4788.00 7514.74 83.23 17.00  59.74 3147.22
   16:36:30.372.27-Aug-2021 4788.00 7512.86 83.23 17.00  59.94 3147.22
   16:36:30.572.27-Aug-2021 4788.00 7512.86 83.23 17.00  60.14 3147.22
   16:36:30.772.27-Aug-2021 4788.00 7483.09 83.23 17.00  60.34 3147.22
   16:36:30.972.27-Aug-2021 4788.00 7507.68 83.23 17.00  60.54 3147.22
   16:36:31.171.27-Aug-2021 4788.00 7437.11 83.23 17.00  60.74 3147.22
   16:36:31.371.27-Aug-2021 4788.00 7053.02 83.23 17.00  60.94 3147.22
   16:36:31.571.27-Aug-2021 4788.00 7053.02 83.23 17.00  61.14 3147.22
   16:36:31.771.27-Aug-2021 4788.00 6920.95 83.23 17.00  61.34 3147.22
   16:36:31.971.27-Aug-2021 4788.00 7474.70 83.23 17.00  61.54 3147.22
   16:36:32.170.27-Aug-2021 4788.00 7508.80 83.23 17.00  61.74 3147.22
   16:36:32.370.27-Aug-2021 4788.00 7506.47 83.23 17.00  61.94 3147.22
   16:36:32.570.27-Aug-2021 4788.00 7506.47 83.23 17.00  62.14 3147.22
   16:36:32.770.27-Aug-2021 4788.00 7507.82 83.23 17.00  62.34 3147.22
   16:36:32.970.27-Aug-2021 4788.00 7511.28 83.23 17.00  62.54 3147.22
   16:36:33.169.27-Aug-2021 4788.00 7511.15 83.23 17.00  62.74 3147.22
   16:36:33.369.27-Aug-2021 4788.00 7509.42 83.23 17.00  62.94 3147.22
   16:36:33.569.27-Aug-2021 4788.00 7509.42 83.23 17.00  63.14 3147.22
   16:36:33.769.27-Aug-2021 4788.00 7511.84 83.23 17.00  63.34 3147.22
   16:36:33.969.27-Aug-2021 4788.00 7512.48 83.23 17.00  63.54 3147.22
   16:36:34.168.27-Aug-2021 4788.00 7512.42 83.23 17.00  63.74 3147.22
   16:36:34.368.27-Aug-2021 4788.00 7512.23 83.23 17.00  63.94 3147.22
   16:36:34.568.27-Aug-2021 4788.00 7512.23 83.23 17.00  64.14 3147.22
   16:36:34.768.27-Aug-2021 4788.00 7515.69 83.23 17.00  64.34 3147.22
   16:36:34.968.27-Aug-2021 4788.00 7512.24 83.23 17.00  64.54 3147.22
   16:36:35.167.27-Aug-2021 4788.00 7511.57 83.23 17.00  64.74 3147.22
   16:36:35.367.27-Aug-2021 4788.00 7516.47 83.23 17.00  64.94 3147.22
   16:36:35.567.27-Aug-2021 4788.00 7516.47 83.23 17.00  65.13 3147.22
   16:36:35.767.27-Aug-2021 4788.00 7517.55 83.23 17.00  65.33 3147.22
   16:36:35.967.27-Aug-2021 4788.00 7517.22 83.23 17.00  65.53 3147.22
   16:36:36.166.27-Aug-2021 4788.00 7518.14 83.23 17.00  65.73 3147.22
   16:36:36.366.27-Aug-2021 4788.00 7517.59 83.23 17.00  65.93 3147.22
   16:36:36.566.27-Aug-2021 4788.00 7517.59 83.23 17.00  66.13 3147.22
   16:36:36.766.27-Aug-2021 4788.00 7517.49 83.23 17.00  66.33 3147.22
   16:36:36.966.27-Aug-2021 4788.00 7521.18 83.23 17.00  66.53 3147.22
   16:36:37.165.27-Aug-2021 4788.00 7518.43 83.23 17.00  66.73 3147.22
   16:36:37.365.27-Aug-2021 4788.00 7518.34 83.23 17.00  66.93 3147.22
   16:36:37.565.27-Aug-2021 4788.00 7518.34 83.23 17.00  67.13 3147.22
   16:36:37.765.27-Aug-2021 4788.00 7518.34 83.23 17.00  67.33 3147.22
   16:36:37.965.27-Aug-2021 4788.00 7519.48 83.23 17.00  67.53 3147.22
