~Version Information
 VERS.                  2.0:   CWLS log ASCII Standard -VERSION 2.0
 WRAP.                   NO:   One line per depth step
~Well Information Block
#MNEM.UNIT     VALUE/NAME     DESCRIPTION
#---------     -----------    ---------------------------
 STRT.S             08:06:40 27-Aug-21: START TIME 08:06:40 27-Aug-21
 STOP.S             08:13:50 27-Aug-21: STOP TIME  08:13:50 27-Aug-21
 STEP.S                   0.00: STEP TIME
 NULL.                 -999.25: NULL VALUE
 DFWT.                        :  DIST FWL TEXT
 DFST.                        :  DIST FSL TEXT
 DMF .             Drill Floor:  DRILL MEAS FROM
 STIM.      20.00.00 17-Aug-21:  START TIME
 DATE.      19.00.00 29-Aug-21:  END TIME
 SPUD.               15-Aug-21:  SPUD DATE
 NREF.                    Grid:  NORTH REFERENCE
 HPTY.       Minimum Curvature:  HOLE POS TYPE
 DMOD.             Drill Model:  DRILL MOD DESC
 SVYD.                  Survey:  SURVEY DESC
 ILTD.               Lithology:  INTERP LTH DESC
 FTOP.          Formation Tops:  FORM TOPS DESC
 RIG .              East Azeri:  RIG NAME
 PDAT.          Mean Sea Level:  PERMANENT DATUM
 FLD .                     ACG:  FIELD NAME
 SON .        AZ-XX-0907180857:  JOB NUMBER
 CTRY.              Azerbaijan:  COUNTRY NAME
 WELL.                    D23x:  WELL NAME
 SRVC.     Turan Drilling and Engineering:  CONTRACTOR
 COMP.     BP Exploration (Caspian Sea) Ltd.:  COMPANY
 UWI .            /AZE00000214:  UNIQUE WELL IDENTIFIER
 API .            /AZE00000214:  API NUMBER
 MDS .        Operator Entered:  MAG DATA SOURCE
 BASE.              Azerbaijan:  LOGGING EQUIPMENT BASE LOCATION
 REGN.                   EESSA:  REGION
 PROV.                    Baku:  PROVINCE
 STAT.                    Baku:  STATE NAME
 MWDS.                    Baku:  MWD SHOP
 DOE .                     N/A:  DOE NUMBER
 DCON.         Sperry Drilling:  DIRECTNL CONTR
 UNIT.                     N/A:  LOGGING EQUIPMENT ID
 WTYP.                Deviated:  WELL TYPE
 CNTY.                        :  COUNTY
 LOC .                        :  LOCATION
 LMF .             Drill Floor:  LOG MEASURED FROM
 TVDS.m                  43.60:  TVDSS CORRECTN
 LATI.deg                40.02:  LATITUDE
 LONG.deg                51.45:  LONGITUDE
 WHNS.m                  -7.04:  WELL HEAD N/S
 WHEW.m                  -0.67:  WELL HEAD E/W
 UTMX.m              538762.90:  UTM X
 UTMY.m             4431871.34:  UTM Y
 DFWL.m                   0.00:  DISTANCE FWL
 DFSL.m                   0.00:  DISTANCE FSL
 SDEP.m                4127.00:  START DEPTH
 TDD .m                5084.50:  TOTAL DEPTH (DRILLER)
 VSDR.deg               140.47:  VERT SEC DIRECT
 GVFD.g                   1.00:  GRAVITY FIELD
 MFLD.nT              50362.00:  MAGNETIC FIELD
 MDIP.deg                59.48:  MAGNETIC DIP
 MDEC.deg                 6.47:  MAGNETIC DECL
 GRDC.deg                 0.31:  GRID CORRECTION
 AZTC.deg                 6.16:  AZM TOTAL CORR
 EPD .m                   0.00:  ELEVATION
 EGL .m                   0.00:  GROUND ELEVATION
 WDMS.m                 151.80:  WD ELEV
 APD .m                  43.60:  DEPTH ABOVE PD
 DEP .m                4092.57:  DEPTH
 AGAP.m                  43.60:  AIR GAP
 VSEW.m                  -0.67:  VERT SEC E/W
 VSNS.m                  -7.04:  VERT SEC N/S
 EKB .m                  43.60:  KB ELEVATION
 EDF .m                  43.60:  DF ELEVATION
 TDL .m                 957.50:  TOTAL DEPTH (LOGGER)
 VSC .                       0:  VS TO CLOSURE
 MAGU.                 1851413:  MAGUTM CHECKSUM
~Parameter Information Block
#MNEM.UNIT       Value        Description
#---------     -----------    ---------------------------
 AV  .mps                 1.50:  Ann Velocity 
 AVMX.mps                 2.00:  Max Ann Veloc 
 AZIF.deg               184.66:  Azm, Final 
 BHAT.        Rotary Steerable:  BHA Type 
 BREV.rev               300.00:  Rev Bit Total 
 BROT.°/30m              -0.50:  Build Rotating 
 BS  .in                  8.50:  Bit Size 
 BSZ .in                  8.50:  Bit Size 
 BTPL.psig              370.00:  Bit Press Loss 
 CABU.                      No:  Customer Abuse 
 CGEO.      Behruz Shahbaliyev:  Customer Geo 
 COMM.                     ü;x:  Run Comments 1 
 TCS .hr                140.08:  Time Ciculation Ended 
 CV  .mps                 3.00:  Crit Velocity 
 CVMX.mps                 3.20:  Max Crit Veloc 
 DD1 .            Musa Ahmadov:  Direct Drillr 1 
 DD2 .           Hamid Ahmadov:  Direct Drillr 2 
 DDSV.               Geo-Pilot:  DD Service 
 DEFF.%                  98.40:  % Det Eff 
 DLRX.°/30m               3.40:  Dogleg Rot Max 
 DLSO.°/30m               1.45:  Dogleg Oriented 
 DLSX.°/30m               3.40:  Dogleg Str Max 
 DRET.      18.40.00 29-Aug-21:  Drill End Time 
 DRST.      21.00.00 20-Aug-21:  Drill Start Tim 
 DTIM.hr                 69.47:  Time Drilling 
 EDEP.m                5084.50:  End Depth 
 ENG1.      Artemiy Matviyanov:  Engineer 1 
 ENG2.         Almaz Almadatov:  Engineer 2 
 ETIM.      18.40.00 29-Aug-21:  End Time 
 FLOI.gpm               500.00:  Flow In 
 FLON.gpm               400.00:  Flow In Min 
 FLOS.cptm                0.00:  Fluid Loss 
 FLOX.gpm               500.00:  Flow In Max 
 DFT .        Mineral Oil Base:  Mud Type 
 HFLO.                      No:  High Flow 
 HPRE.                      No:  High Pressure 
 HTEM.                      No:  High Temp 
 HYDO.m                   1.80:  Hydro Offset 
 IFIN.deg                25.62:  Inc, Final 
 IMAX.deg                48.69:  Inc Max 
 IMIN.deg                24.01:  Inc Min 
 IMND.m                4962.57:  Inc Min Depth 
 IMXD.m                4119.01:  Inc Max Depth 
 JARR.                      No:  Jarring 
 LETM.      18.40.00 29-Aug-21:  Log End Time 
 LOST.hr                     0:  Lost Rig Time 
 LSTM.      21.00.00 20-Aug-21:  Log Start Time 
 MDCL.ppm             41500.00:  Mud Chlorides 
 MDES.     Inversion Oil/Synthetic:  Mud Desc 
 DFD .sg                  1.56:  Mud Density 
 MDMN.sg                  1.56:  Dens Mud Min 
 MDMX.sg                  1.56:  Dens Mud Max 
 MOIL.                      70:  Run Mud Oil % 
 MOWR.                   70:30:  Run Mud OWR 
 MSND.                     0.2:  Run Mud Sand % 
 MSOL.                    23.3:  Run Mud Solids% 
 DFV .spqt               78.00:  Mud Viscosity 
 MWOD.in                  6.75:  MWD Tool OD 
 MWSI.                      No:  Serv Intrp, MWD 
 OTIM.hr                218.30:  Time Operating 
 PCON.           Look Like New:  Pad Condition 
 PMAX.psia            11015.30:  Press Op, Max 
 PV  .cP                 38.00:  Mud PV 
 RUN .                     300:  Run Number 
 ROPA.m/hr               15.00:  ROP Avg 
 ROPN.m/hr                9.00:  ROP Min 
 ROPX.m/hr               17.00:  ROP Max 
 RPMA.rpm               120.00:  RPM Surface Avg 
 RPMN.rpm                90.00:  RPM Surface Min 
 RPMX.rpm               140.00:  RPM Surface Max 
 RRUN.                     300:  Rig Run Number 
 RTIM.hr                 31.53:  Time Reaming 
 SAZI.deg               331.64:  Azm, Start 
 SDEP.m                4127.00:  Start Depth 
 SIDD.                      No:  Serv Intrp, DD 
 SINC.deg                48.43:  Inc, Start 
 SPPA.psig             5830.00:  SPP Avg 
 SPPN.psig             5600.00:  SPP Min 
 SPPX.psig             5900.00:  SPP Max 
 STIM.      21.00.00 20-Aug-21:  Start Time 
 SVCS.                 DD, MWD:  Services 
 SVER.                    9.20:  Sperry Version 
 TDAT.m                 957.50:  Tot Depth Attmp 
 TDDF.                      No:  Trip for DD 
 TDLG.m                 957.50:  Tot Depth Loggd 
 TFF .                      No:  Trip for Fail 
 TQAA.f-kp               15.00:  Torque Abs Avg 
 TQAN.f-kp               12.00:  Torque Abs Min 
 TQAX.f-kp               19.00:  Torque Abs Max 
 TRRT.°/30m              -3.40:  Turn Rotating 
 MRT .                  EWR-M5:  Maximum Recorded Temperature 
 TTMX.degC              100.00:  Max Tool Temp 
 VS01.                90639251:  Virtual Str1 SN 
 VS02.                90634715:  Virtual Str2 SN 
 VS03.                90652479:  Virtual Str3 SN 
 VS04.                90642262:  Virtual Str4 SN 
 WBMN.klb                 0.00:  WOB Min 
 WITN.           Murad Guliyev:  Customer Rep 
 WITN.          Yashar Gaziyev:  Customer Rep 2 
 WOBA.klb                 9.00:  WOB Avg 
 WOBX.klb                12.00:  WOB Max 
 YP  .lhf2               30.00:  Yield Point 
~Curve Information Block
#MNEM.UNIT                 API CODE     Curve Description
#---------               -----------    ---------------------------
 TIME.HHMMSS            00 000 000 000:  GT Time & Date
 GTDEPTH.m              00 000 000 000:  GT Depth
 GTPQH.psia             00 000 000 000:  GT HR Quartz Pressure
 GTTQ.degC              00 000 000 000:  GT Quartz Temperature
 GTTN.NONE              00 000 000 000:  GT Test Number
 GTET.sec               00 000 000 000:  GT Elapsed Test Time
 GTTVD.m                00 000 000 000:  GT True Vertical Depth
#Other Information
#
#WARRANTY: Halliburton will use its best efforts to furnish customers with 
#accurate information and interpretations that are part of, and incident to, the services 
#provided.  However, Halliburton cannot and does not warrant the accuracy 
#or correctness of such information and interpretations.  Under no circumstances should any 
#such information or interpretation be relied upon as the sole basis for any drilling, 
#completion, production, or financial decision or any procedure involving any risk to the 
#safety of any drilling venture, drilling rig or its crew or any other third party.  The 
#Customer has full responsibility for all drilling, completion and production operation.  
#Halliburton makes no representations or warranties, either expressed or 
#implied, including, but not limited to, the implied warranties of merchantability or fitness 
#for a particular purpose, with respect to the services rendered.  In no event will 
#Halliburton be liable for failure to obtain any particular results or for 
#any damages, including, but not limited to, indirect, special or consequential damages, 
#resulting from the use of any information or interpretation provided by Halliburton.
#
~A           TIME           GTDEPTH  GTPQH  GTTQ  GTTN  GTET   GTTVD  
# ...
   08:07:03.729.27-Aug-2021 4992.50 7949.15 87.01 5.00  23.00 3332.84
   08:07:03.929.27-Aug-2021 4992.50 7949.15 87.01 5.00  23.20 3332.84
   08:07:04.129.27-Aug-2021 4992.50 7949.56 87.01 5.00  23.40 3332.84
   08:07:04.329.27-Aug-2021 4992.50 7950.02 87.01 5.00  23.60 3332.84
   08:07:04.529.27-Aug-2021 4992.50 7951.25 87.01 5.00  23.80 3332.84
   08:07:04.729.27-Aug-2021 4992.50 7951.66 87.01 5.00  24.00 3332.84
   08:07:04.929.27-Aug-2021 4992.50 7951.66 87.01 5.00  24.20 3332.84
   08:07:05.130.27-Aug-2021 4992.50 7951.18 87.01 5.00  24.40 3332.84
   08:07:05.330.27-Aug-2021 4992.50 7951.08 87.01 5.00  24.60 3332.84
   08:07:05.530.27-Aug-2021 4992.50 7951.30 87.01 5.00  24.80 3332.84
   08:07:05.730.27-Aug-2021 4992.50 7951.33 87.01 5.00  25.00 3332.84
   08:07:05.930.27-Aug-2021 4992.50 7951.33 87.01 5.00  25.20 3332.84
   08:07:06.130.27-Aug-2021 4992.50 7952.27 87.01 5.00  25.40 3332.84
   08:07:06.330.27-Aug-2021 4992.50 7951.30 87.01 5.00  25.60 3332.84
   08:07:06.530.27-Aug-2021 4992.50 7955.51 87.01 5.00  25.80 3332.84
   08:07:06.730.27-Aug-2021 4992.50 7952.27 87.01 5.00  26.00 3332.84
   08:07:06.930.27-Aug-2021 4992.50 7952.27 87.01 5.00  26.20 3332.84
   08:07:07.130.27-Aug-2021 4992.50 7952.49 87.01 5.00  26.40 3332.84
   08:07:07.330.27-Aug-2021 4992.50 7955.50 87.01 5.00  26.60 3332.84
   08:07:07.530.27-Aug-2021 4992.50 7952.12 87.01 5.00  26.80 3332.84
   08:07:07.730.27-Aug-2021 4992.50 7952.70 87.01 5.00  27.00 3332.84
   08:07:07.930.27-Aug-2021 4992.50 7952.70 87.01 5.00  27.20 3332.84
   08:07:08.130.27-Aug-2021 4992.50 7953.37 87.01 5.00  27.40 3332.84
   08:07:08.330.27-Aug-2021 4992.50 7959.10 87.01 5.00  27.60 3332.84
   08:07:08.530.27-Aug-2021 4992.50 7952.83 87.01 5.00  27.80 3332.84
   08:07:08.730.27-Aug-2021 4992.50 7953.76 87.01 5.00  28.00 3332.84
   08:07:08.930.27-Aug-2021 4992.50 7953.76 87.01 5.00  28.20 3332.84
   08:07:09.130.27-Aug-2021 4992.50 7953.93 87.01 5.00  28.40 3332.84
   08:07:09.330.27-Aug-2021 4992.50 7954.27 87.01 5.00  28.60 3332.84
   08:07:09.530.27-Aug-2021 4992.50 7955.01 87.01 5.00  28.80 3332.84
   08:07:09.730.27-Aug-2021 4992.50 7954.52 87.01 5.00  29.00 3332.84
   08:07:09.930.27-Aug-2021 4992.50 7954.52 87.01 5.00  29.20 3332.84
   08:07:10.130.27-Aug-2021 4992.50 7954.07 87.01 5.00  29.40 3332.84
   08:07:10.330.27-Aug-2021 4992.50 7954.97 87.01 5.00  29.60 3332.84
   08:07:10.530.27-Aug-2021 4992.50 7955.91 87.01 5.00  29.80 3332.84
   08:07:10.730.27-Aug-2021 4992.50 7955.90 87.01 5.00  30.00 3332.84
   08:07:10.930.27-Aug-2021 4992.50 7955.90 87.01 5.00  30.20 3332.84
   08:07:11.131.27-Aug-2021 4992.50 7955.50 87.01 5.00  30.40 3332.84
   08:07:11.331.27-Aug-2021 4992.50 7955.54 87.01 5.00  30.61 3332.84
   08:07:11.531.27-Aug-2021 4992.50 7959.63 87.01 5.00  30.81 3332.84
   08:07:11.731.27-Aug-2021 4992.50 7956.49 87.01 5.00  31.01 3332.84
   08:07:11.931.27-Aug-2021 4992.50 7956.49 87.01 5.00  31.21 3332.84
   08:07:12.131.27-Aug-2021 4992.50 7955.58 87.01 5.00  31.41 3332.84
   08:07:12.331.27-Aug-2021 4992.50 7956.00 87.01 5.00  31.61 3332.84
   08:07:12.531.27-Aug-2021 4992.50 7956.09 87.01 5.00  31.81 3332.84
   08:07:12.731.27-Aug-2021 4992.50 7956.82 87.01 5.00  32.01 3332.84
   08:07:12.931.27-Aug-2021 4992.50 7956.82 87.01 5.00  32.21 3332.84
   08:07:13.131.27-Aug-2021 4992.50 7956.36 87.01 5.00  32.41 3332.84
   08:07:13.331.27-Aug-2021 4992.50 7956.71 87.01 5.00  32.61 3332.84
   08:07:13.531.27-Aug-2021 4992.50 7957.31 87.01 5.00  32.81 3332.84
   08:07:13.731.27-Aug-2021 4992.50 7958.66 87.01 5.00  33.01 3332.84
   08:07:13.931.27-Aug-2021 4992.50 7958.66 87.01 5.00  33.21 3332.84
   08:07:14.131.27-Aug-2021 4992.50 7958.58 87.01 5.00  33.41 3332.84
   08:07:14.331.27-Aug-2021 4992.50 7958.34 87.01 5.00  33.61 3332.84
   08:07:14.531.27-Aug-2021 4992.50 7958.37 87.01 5.00  33.81 3332.84
   08:07:14.731.27-Aug-2021 4992.50 7958.60 87.01 5.00  34.01 3332.84
   08:07:14.931.27-Aug-2021 4992.50 7958.60 87.01 5.00  34.21 3332.84
   08:07:15.131.27-Aug-2021 4992.50 7962.26 87.01 5.00  34.41 3332.84
   08:07:15.331.27-Aug-2021 4992.50 7959.89 87.01 5.00  34.61 3332.84
   08:07:15.531.27-Aug-2021 4992.50 7958.23 87.01 5.00  34.81 3332.84
   08:07:15.731.27-Aug-2021 4992.50 7958.49 87.01 5.00  35.01 3332.84
   08:07:15.931.27-Aug-2021 4992.50 7958.49 87.01 5.00  35.21 3332.84
   08:07:16.131.27-Aug-2021 4992.50 7960.41 87.01 5.00  35.41 3332.84
   08:07:16.331.27-Aug-2021 4992.50 7958.75 87.01 5.00  35.61 3332.84
   08:07:16.531.27-Aug-2021 4992.50 7958.71 87.01 5.00  35.81 3332.84
   08:07:16.731.27-Aug-2021 4992.50 7964.54 87.01 5.00  36.01 3332.84
   08:07:16.931.27-Aug-2021 4992.50 7964.54 87.01 5.00  36.21 3332.84
   08:07:17.131.27-Aug-2021 4992.50 7960.00 87.01 5.00  36.41 3332.84
   08:07:17.332.27-Aug-2021 4992.50 7959.89 87.01 5.00  36.61 3332.84
   08:07:17.532.27-Aug-2021 4992.50 7959.40 87.01 5.00  36.81 3332.84
   08:07:17.732.27-Aug-2021 4992.50 7959.41 87.01 5.00  37.01 3332.84
   08:07:17.932.27-Aug-2021 4992.50 7959.41 87.01 5.00  37.21 3332.84
   08:07:18.132.27-Aug-2021 4992.50 7961.33 87.01 5.00  37.41 3332.84
   08:07:18.332.27-Aug-2021 4992.50 7960.66 87.01 5.00  37.61 3332.84
   08:07:18.532.27-Aug-2021 4992.50 7959.88 87.01 5.00  37.81 3332.84
   08:07:18.732.27-Aug-2021 4992.50 7961.14 87.01 5.00  38.01 3332.84
   08:07:18.932.27-Aug-2021 4992.50 7961.14 87.01 5.00  38.21 3332.84
   08:07:19.132.27-Aug-2021 4992.50 7961.58 87.01 5.00  38.41 3332.84
   08:07:19.332.27-Aug-2021 4992.50 7960.42 87.01 5.00  38.61 3332.84
   08:07:19.532.27-Aug-2021 4992.50 7960.40 87.01 5.00  38.81 3332.84
   08:07:19.732.27-Aug-2021 4992.50 7960.73 87.01 5.00  39.01 3332.84
   08:07:19.932.27-Aug-2021 4992.50 7960.73 87.01 5.00  39.21 3332.84
   08:07:20.132.27-Aug-2021 4992.50 7962.58 87.01 5.00  39.41 3332.84
   08:07:20.332.27-Aug-2021 4992.50 7962.80 87.01 5.00  39.61 3332.84
   08:07:20.532.27-Aug-2021 4992.50 7962.47 87.01 5.00  39.81 3332.84
   08:07:20.732.27-Aug-2021 4992.50 7962.19 87.01 5.00  40.01 3332.84
   08:07:20.932.27-Aug-2021 4992.50 7962.19 87.01 5.00  40.21 3332.84
   08:07:21.132.27-Aug-2021 4992.50 7962.66 87.01 5.00  40.41 3332.84
   08:07:21.332.27-Aug-2021 4992.50 7962.83 87.01 5.00  40.61 3332.84
   08:07:21.532.27-Aug-2021 4992.50 7962.86 87.01 5.00  40.81 3332.84
   08:07:21.732.27-Aug-2021 4992.50 7966.61 87.01 5.00  41.01 3332.84
   08:07:21.932.27-Aug-2021 4992.50 7966.61 87.01 5.00  41.21 3332.84
   08:07:22.132.27-Aug-2021 4992.50 7962.80 87.00 5.00  41.41 3332.84
   08:07:22.332.27-Aug-2021 4992.50 7963.13 87.01 5.00  41.61 3332.84
   08:07:22.532.27-Aug-2021 4992.50 7963.28 87.00 5.00  41.81 3332.84
   08:07:22.732.27-Aug-2021 4992.50 7963.55 87.00 5.00  42.01 3332.84
   08:07:22.932.27-Aug-2021 4992.50 7963.55 87.00 5.00  42.21 3332.84
   08:07:23.132.27-Aug-2021 4992.50 7967.03 87.00 5.00  42.41 3332.84
   08:07:23.333.27-Aug-2021 4992.50 7966.84 87.00 5.00  42.61 3332.84
   08:07:23.533.27-Aug-2021 4992.50 7964.36 87.00 5.00  42.81 3332.84
   08:07:23.733.27-Aug-2021 4992.50 7962.32 87.00 5.00  43.01 3332.84
   08:07:23.933.27-Aug-2021 4992.50 7962.32 87.00 5.00  43.21 3332.84
   08:07:24.133.27-Aug-2021 4992.50 7954.44 87.00 5.00  43.41 3332.84
   08:07:24.333.27-Aug-2021 4992.50 7949.54 87.00 5.00  43.61 3332.84
   08:07:24.533.27-Aug-2021 4992.50 7945.08 87.00 5.00  43.81 3332.84
   08:07:24.733.27-Aug-2021 4992.50 7939.86 87.00 5.00  44.01 3332.84
   08:07:24.933.27-Aug-2021 4992.50 7939.86 87.00 5.00  44.21 3332.84
   08:07:25.133.27-Aug-2021 4992.50 7926.59 87.00 5.00  44.41 3332.84
   08:07:25.333.27-Aug-2021 4992.50 7916.60 87.00 5.00  44.61 3332.84
   08:07:25.533.27-Aug-2021 4992.50 7905.81 87.00 5.00  44.81 3332.84
   08:07:25.733.27-Aug-2021 4992.50 7891.65 87.00 5.00  45.01 3332.84
   08:07:25.933.27-Aug-2021 4992.50 7891.65 87.00 5.00  45.21 3332.84
   08:07:26.133.27-Aug-2021 4992.50 7843.73 87.00 5.00  45.41 3332.84
   08:07:26.333.27-Aug-2021 4992.50 7808.68 87.00 5.00  45.61 3332.84
   08:07:26.533.27-Aug-2021 4992.50 7774.38 87.00 5.00  45.81 3332.84
