~Version Information
 VERS.                  2.0:   CWLS log ASCII Standard -VERSION 2.0
 WRAP.                   NO:   One line per depth step
~Well Information Block
#MNEM.UNIT     VALUE/NAME     DESCRIPTION
#---------     -----------    ---------------------------
 STRT.S             10:06:49 27-Aug-21: START TIME 10:06:49 27-Aug-21
 STOP.S             10:13:57 27-Aug-21: STOP TIME  10:13:57 27-Aug-21
 STEP.S                   0.00: STEP TIME
 NULL.                 -999.25: NULL VALUE
 DFWT.                        :  DIST FWL TEXT
 DFST.                        :  DIST FSL TEXT
 DMF .             Drill Floor:  DRILL MEAS FROM
 STIM.      20.00.00 17-Aug-21:  START TIME
 DATE.      19.00.00 29-Aug-21:  END TIME
 SPUD.               15-Aug-21:  SPUD DATE
 NREF.                    Grid:  NORTH REFERENCE
 HPTY.       Minimum Curvature:  HOLE POS TYPE
 DMOD.             Drill Model:  DRILL MOD DESC
 SVYD.                  Survey:  SURVEY DESC
 ILTD.               Lithology:  INTERP LTH DESC
 FTOP.          Formation Tops:  FORM TOPS DESC
 RIG .              East Azeri:  RIG NAME
 PDAT.          Mean Sea Level:  PERMANENT DATUM
 FLD .                     ACG:  FIELD NAME
 SON .        AZ-XX-0907180857:  JOB NUMBER
 CTRY.              Azerbaijan:  COUNTRY NAME
 WELL.                    D23x:  WELL NAME
 SRVC.     Turan Drilling and Engineering:  CONTRACTOR
 COMP.     BP Exploration (Caspian Sea) Ltd.:  COMPANY
 UWI .            /AZE00000214:  UNIQUE WELL IDENTIFIER
 API .            /AZE00000214:  API NUMBER
 MDS .        Operator Entered:  MAG DATA SOURCE
 BASE.              Azerbaijan:  LOGGING EQUIPMENT BASE LOCATION
 REGN.                   EESSA:  REGION
 PROV.                    Baku:  PROVINCE
 STAT.                    Baku:  STATE NAME
 MWDS.                    Baku:  MWD SHOP
 DOE .                     N/A:  DOE NUMBER
 DCON.         Sperry Drilling:  DIRECTNL CONTR
 UNIT.                     N/A:  LOGGING EQUIPMENT ID
 WTYP.                Deviated:  WELL TYPE
 CNTY.                        :  COUNTY
 LOC .                        :  LOCATION
 LMF .             Drill Floor:  LOG MEASURED FROM
 TVDS.m                  43.60:  TVDSS CORRECTN
 LATI.deg                40.02:  LATITUDE
 LONG.deg                51.45:  LONGITUDE
 WHNS.m                  -7.04:  WELL HEAD N/S
 WHEW.m                  -0.67:  WELL HEAD E/W
 UTMX.m              538762.90:  UTM X
 UTMY.m             4431871.34:  UTM Y
 DFWL.m                   0.00:  DISTANCE FWL
 DFSL.m                   0.00:  DISTANCE FSL
 SDEP.m                4127.00:  START DEPTH
 TDD .m                5084.50:  TOTAL DEPTH (DRILLER)
 VSDR.deg               140.47:  VERT SEC DIRECT
 GVFD.g                   1.00:  GRAVITY FIELD
 MFLD.nT              50362.00:  MAGNETIC FIELD
 MDIP.deg                59.48:  MAGNETIC DIP
 MDEC.deg                 6.47:  MAGNETIC DECL
 GRDC.deg                 0.31:  GRID CORRECTION
 AZTC.deg                 6.16:  AZM TOTAL CORR
 EPD .m                   0.00:  ELEVATION
 EGL .m                   0.00:  GROUND ELEVATION
 WDMS.m                 151.80:  WD ELEV
 APD .m                  43.60:  DEPTH ABOVE PD
 DEP .m                4092.57:  DEPTH
 AGAP.m                  43.60:  AIR GAP
 VSEW.m                  -0.67:  VERT SEC E/W
 VSNS.m                  -7.04:  VERT SEC N/S
 EKB .m                  43.60:  KB ELEVATION
 EDF .m                  43.60:  DF ELEVATION
 TDL .m                 957.50:  TOTAL DEPTH (LOGGER)
 VSC .                       0:  VS TO CLOSURE
 MAGU.                 1851413:  MAGUTM CHECKSUM
~Parameter Information Block
#MNEM.UNIT       Value        Description
#---------     -----------    ---------------------------
 AV  .mps                 1.50:  Ann Velocity 
 AVMX.mps                 2.00:  Max Ann Veloc 
 AZIF.deg               184.66:  Azm, Final 
 BHAT.        Rotary Steerable:  BHA Type 
 BREV.rev               300.00:  Rev Bit Total 
 BROT.°/30m              -0.50:  Build Rotating 
 BS  .in                  8.50:  Bit Size 
 BSZ .in                  8.50:  Bit Size 
 BTPL.psig              370.00:  Bit Press Loss 
 CABU.                      No:  Customer Abuse 
 CGEO.      Behruz Shahbaliyev:  Customer Geo 
 COMM.                     Ììg:  Run Comments 1 
 TCS .hr                140.08:  Time Ciculation Ended 
 CV  .mps                 3.00:  Crit Velocity 
 CVMX.mps                 3.20:  Max Crit Veloc 
 DD1 .            Musa Ahmadov:  Direct Drillr 1 
 DD2 .           Hamid Ahmadov:  Direct Drillr 2 
 DDSV.               Geo-Pilot:  DD Service 
 DEFF.%                  98.40:  % Det Eff 
 DLRX.°/30m               3.40:  Dogleg Rot Max 
 DLSO.°/30m               1.45:  Dogleg Oriented 
 DLSX.°/30m               3.40:  Dogleg Str Max 
 DRET.      18.40.00 29-Aug-21:  Drill End Time 
 DRST.      21.00.00 20-Aug-21:  Drill Start Tim 
 DTIM.hr                 69.47:  Time Drilling 
 EDEP.m                5084.50:  End Depth 
 ENG1.      Artemiy Matviyanov:  Engineer 1 
 ENG2.         Almaz Almadatov:  Engineer 2 
 ETIM.      18.40.00 29-Aug-21:  End Time 
 FLOI.gpm               500.00:  Flow In 
 FLON.gpm               400.00:  Flow In Min 
 FLOS.cptm                0.00:  Fluid Loss 
 FLOX.gpm               500.00:  Flow In Max 
 DFT .        Mineral Oil Base:  Mud Type 
 HFLO.                      No:  High Flow 
 HPRE.                      No:  High Pressure 
 HTEM.                      No:  High Temp 
 HYDO.m                   1.80:  Hydro Offset 
 IFIN.deg                25.62:  Inc, Final 
 IMAX.deg                48.69:  Inc Max 
 IMIN.deg                24.01:  Inc Min 
 IMND.m                4962.57:  Inc Min Depth 
 IMXD.m                4119.01:  Inc Max Depth 
 JARR.                      No:  Jarring 
 LETM.      18.40.00 29-Aug-21:  Log End Time 
 LOST.hr                     0:  Lost Rig Time 
 LSTM.      21.00.00 20-Aug-21:  Log Start Time 
 MDCL.ppm             41500.00:  Mud Chlorides 
 MDES.     Inversion Oil/Synthetic:  Mud Desc 
 DFD .sg                  1.56:  Mud Density 
 MDMN.sg                  1.56:  Dens Mud Min 
 MDMX.sg                  1.56:  Dens Mud Max 
 MOIL.                      70:  Run Mud Oil % 
 MOWR.                   70:30:  Run Mud OWR 
 MSND.                     0.2:  Run Mud Sand % 
 MSOL.                    23.3:  Run Mud Solids% 
 DFV .spqt               78.00:  Mud Viscosity 
 MWOD.in                  6.75:  MWD Tool OD 
 MWSI.                      No:  Serv Intrp, MWD 
 OTIM.hr                218.30:  Time Operating 
 PCON.           Look Like New:  Pad Condition 
 PMAX.psia            11015.30:  Press Op, Max 
 PV  .cP                 38.00:  Mud PV 
 RUN .                     300:  Run Number 
 ROPA.m/hr               15.00:  ROP Avg 
 ROPN.m/hr                9.00:  ROP Min 
 ROPX.m/hr               17.00:  ROP Max 
 RPMA.rpm               120.00:  RPM Surface Avg 
 RPMN.rpm                90.00:  RPM Surface Min 
 RPMX.rpm               140.00:  RPM Surface Max 
 RRUN.                     300:  Rig Run Number 
 RTIM.hr                 31.53:  Time Reaming 
 SAZI.deg               331.64:  Azm, Start 
 SDEP.m                4127.00:  Start Depth 
 SIDD.                      No:  Serv Intrp, DD 
 SINC.deg                48.43:  Inc, Start 
 SPPA.psig             5830.00:  SPP Avg 
 SPPN.psig             5600.00:  SPP Min 
 SPPX.psig             5900.00:  SPP Max 
 STIM.      21.00.00 20-Aug-21:  Start Time 
 SVCS.                 DD, MWD:  Services 
 SVER.                    9.20:  Sperry Version 
 TDAT.m                 957.50:  Tot Depth Attmp 
 TDDF.                      No:  Trip for DD 
 TDLG.m                 957.50:  Tot Depth Loggd 
 TFF .                      No:  Trip for Fail 
 TQAA.f-kp               15.00:  Torque Abs Avg 
 TQAN.f-kp               12.00:  Torque Abs Min 
 TQAX.f-kp               19.00:  Torque Abs Max 
 TRRT.°/30m              -3.40:  Turn Rotating 
 MRT .                  EWR-M5:  Maximum Recorded Temperature 
 TTMX.degC              100.00:  Max Tool Temp 
 VS01.                90639251:  Virtual Str1 SN 
 VS02.                90634715:  Virtual Str2 SN 
 VS03.                90652479:  Virtual Str3 SN 
 VS04.                90642262:  Virtual Str4 SN 
 WBMN.klb                 0.00:  WOB Min 
 WITN.           Murad Guliyev:  Customer Rep 
 WITN.          Yashar Gaziyev:  Customer Rep 2 
 WOBA.klb                 9.00:  WOB Avg 
 WOBX.klb                12.00:  WOB Max 
 YP  .lhf2               30.00:  Yield Point 
~Curve Information Block
#MNEM.UNIT                 API CODE     Curve Description
#---------               -----------    ---------------------------
 TIME.HHMMSS            00 000 000 000:  GT Time & Date
 GTDEPTH.m              00 000 000 000:  GT Depth
 GTPQH.psia             00 000 000 000:  GT HR Quartz Pressure
 GTTQ.degC              00 000 000 000:  GT Quartz Temperature
 GTTN.NONE              00 000 000 000:  GT Test Number
 GTET.sec               00 000 000 000:  GT Elapsed Test Time
 GTTVD.m                00 000 000 000:  GT True Vertical Depth
#Other Information
#
#WARRANTY: Halliburton will use its best efforts to furnish customers with 
#accurate information and interpretations that are part of, and incident to, the services 
#provided.  However, Halliburton cannot and does not warrant the accuracy 
#or correctness of such information and interpretations.  Under no circumstances should any 
#such information or interpretation be relied upon as the sole basis for any drilling, 
#completion, production, or financial decision or any procedure involving any risk to the 
#safety of any drilling venture, drilling rig or its crew or any other third party.  The 
#Customer has full responsibility for all drilling, completion and production operation.  
#Halliburton makes no representations or warranties, either expressed or 
#implied, including, but not limited to, the implied warranties of merchantability or fitness 
#for a particular purpose, with respect to the services rendered.  In no event will 
#Halliburton be liable for failure to obtain any particular results or for 
#any damages, including, but not limited to, indirect, special or consequential damages, 
#resulting from the use of any information or interpretation provided by Halliburton.
#
~A           TIME           GTDEPTH  GTPQH  GTTQ  GTTN  GTET   GTTVD  
# ...
   10:09:52.914.27-Aug-2021 4958.50 7890.25 86.06 8.00 183.78 3301.91
   10:09:53.114.27-Aug-2021 4958.50 7890.25 86.06 8.00 183.98 3301.91
   10:09:53.314.27-Aug-2021 4958.50 7890.84 86.06 8.00 184.18 3301.91
   10:09:53.514.27-Aug-2021 4958.50 7890.96 86.06 8.00 184.38 3301.91
   10:09:53.713.27-Aug-2021 4958.50 7896.93 86.06 8.00 184.58 3301.91
   10:09:53.913.27-Aug-2021 4958.50 7888.35 86.06 8.00 184.78 3301.91
   10:09:54.113.27-Aug-2021 4958.50 7888.35 86.06 8.00 184.98 3301.91
   10:09:54.313.27-Aug-2021 4958.50 7891.27 86.06 8.00 185.18 3301.91
   10:09:54.512.27-Aug-2021 4958.50 7893.77 86.06 8.00 185.38 3301.91
   10:09:54.712.27-Aug-2021 4958.50 7892.31 86.06 8.00 185.58 3301.91
   10:09:54.912.27-Aug-2021 4958.50 7890.86 86.06 8.00 185.78 3301.91
   10:09:55.112.27-Aug-2021 4958.50 7890.86 86.06 8.00 185.98 3301.91
   10:09:55.311.27-Aug-2021 4958.50 7889.11 86.06 8.00 186.18 3301.91
   10:09:55.511.27-Aug-2021 4958.50 7889.34 86.06 8.00 186.38 3301.91
   10:09:55.711.27-Aug-2021 4958.50 7890.32 86.06 8.00 186.58 3301.91
   10:09:55.911.27-Aug-2021 4958.50 7890.35 86.06 8.00 186.78 3301.91
   10:09:56.110.27-Aug-2021 4958.50 7890.35 86.06 8.00 186.98 3301.91
   10:09:56.310.27-Aug-2021 4958.50 7890.87 86.06 8.00 187.18 3301.91
   10:09:56.510.27-Aug-2021 4958.50 7891.57 86.06 8.00 187.38 3301.91
   10:09:56.710.27-Aug-2021 4958.50 7891.68 86.06 8.00 187.58 3301.91
   10:09:56.909.27-Aug-2021 4958.50 7891.70 86.06 8.00 187.78 3301.91
   10:09:57.109.27-Aug-2021 4958.50 7891.70 86.06 8.00 187.98 3301.91
   10:09:57.309.27-Aug-2021 4958.50 7891.10 86.06 8.00 188.18 3301.91
   10:09:57.509.27-Aug-2021 4958.50 7890.80 86.06 8.00 188.38 3301.91
   10:09:57.709.27-Aug-2021 4958.50 7894.35 86.06 8.00 188.57 3301.91
   10:09:57.908.27-Aug-2021 4958.50 7891.31 86.06 8.00 188.77 3301.91
   10:09:58.108.27-Aug-2021 4958.50 7891.31 86.06 8.00 188.97 3301.91
   10:09:58.308.27-Aug-2021 4958.50 7890.19 86.06 8.00 189.17 3301.91
   10:09:58.508.27-Aug-2021 4958.50 7890.17 86.06 8.00 189.37 3301.91
   10:09:58.707.27-Aug-2021 4958.50 7890.41 86.06 8.00 189.57 3301.91
   10:09:58.907.27-Aug-2021 4958.50 7890.27 86.06 8.00 189.77 3301.91
   10:09:59.107.27-Aug-2021 4958.50 7890.27 86.06 8.00 189.97 3301.91
   10:09:59.307.27-Aug-2021 4958.50 7890.24 86.06 8.00 190.17 3301.91
   10:09:59.506.27-Aug-2021 4958.50 7890.46 86.06 8.00 190.37 3301.91
   10:09:59.706.27-Aug-2021 4958.50 7891.29 86.06 8.00 190.57 3301.91
   10:09:59.906.27-Aug-2021 4958.50 7891.69 86.06 8.00 190.77 3301.91
   10:10:00.106.27-Aug-2021 4958.50 7891.69 86.06 8.00 190.97 3301.91
   10:10:00.305.27-Aug-2021 4958.50 7891.41 86.06 8.00 191.17 3301.91
   10:10:00.505.27-Aug-2021 4958.50 7891.17 86.06 8.00 191.37 3301.91
   10:10:00.705.27-Aug-2021 4958.50 7890.99 86.06 8.00 191.57 3301.91
   10:10:00.905.27-Aug-2021 4958.50 7890.89 86.06 8.00 191.77 3301.91
   10:10:01.104.27-Aug-2021 4958.50 7890.89 86.06 8.00 191.97 3301.91
   10:10:01.304.27-Aug-2021 4958.50 7891.24 86.06 8.00 192.17 3301.91
   10:10:01.504.27-Aug-2021 4958.50 7890.80 86.06 8.00 192.37 3301.91
   10:10:01.704.27-Aug-2021 4958.50 7889.92 86.06 8.00 192.57 3301.91
   10:10:01.903.27-Aug-2021 4958.50 7889.78 86.06 8.00 192.77 3301.91
   10:10:02.103.27-Aug-2021 4958.50 7889.78 86.06 8.00 192.97 3301.91
   10:10:02.303.27-Aug-2021 4958.50 7892.98 86.06 8.00 193.17 3301.91
   10:10:02.503.27-Aug-2021 4958.50 7891.05 86.06 8.00 193.37 3301.91
   10:10:02.703.27-Aug-2021 4958.50 7890.08 86.06 8.00 193.57 3301.91
   10:10:02.902.27-Aug-2021 4958.50 7889.90 86.06 8.00 193.77 3301.91
   10:10:03.102.27-Aug-2021 4958.50 7889.90 86.06 8.00 193.97 3301.91
   10:10:03.302.27-Aug-2021 4958.50 7890.89 86.06 8.00 194.17 3301.91
   10:10:03.502.27-Aug-2021 4958.50 7896.71 86.06 8.00 194.37 3301.91
   10:10:03.701.27-Aug-2021 4958.50 7888.06 86.06 8.00 194.57 3301.91
   10:10:03.901.27-Aug-2021 4958.50 7891.19 86.06 8.00 194.77 3301.91
   10:10:04.101.27-Aug-2021 4958.50 7891.19 86.06 8.00 194.97 3301.91
   10:10:04.301.27-Aug-2021 4958.50 7890.61 86.06 8.00 195.17 3301.91
   10:10:04.500.27-Aug-2021 4958.50 7896.70 86.06 8.00 195.37 3301.91
   10:10:04.700.27-Aug-2021 4958.50 7888.19 86.06 8.00 195.57 3301.91
   10:10:04.900.27-Aug-2021 4958.50 7890.84 86.06 8.00 195.77 3301.91
   10:10:05.100.27-Aug-2021 4958.50 7890.84 86.06 8.00 195.97 3301.91
   10:10:05.299.27-Aug-2021 4958.50 7889.24 86.06 8.00 196.17 3301.91
   10:10:05.499.27-Aug-2021 4958.50 7890.11 86.06 8.00 196.37 3301.91
   10:10:05.699.27-Aug-2021 4958.50 7890.46 86.06 8.00 196.57 3301.91
   10:10:05.899.27-Aug-2021 4958.50 7890.47 86.06 8.00 196.77 3301.91
   10:10:06.098.27-Aug-2021 4958.50 7890.47 86.06 8.00 196.96 3301.91
   10:10:06.298.27-Aug-2021 4958.50 7890.25 86.06 8.00 197.16 3301.91
   10:10:06.498.27-Aug-2021 4958.50 7891.00 86.06 8.00 197.36 3301.91
   10:10:06.698.27-Aug-2021 4958.50 7891.32 86.06 8.00 197.56 3301.91
   10:10:06.898.27-Aug-2021 4958.50 7891.53 86.06 8.00 197.76 3301.91
   10:10:07.097.27-Aug-2021 4958.50 7891.53 86.06 8.00 197.96 3301.91
   10:10:07.297.27-Aug-2021 4958.50 7890.88 86.06 8.00 198.16 3301.91
   10:10:07.497.27-Aug-2021 4958.50 7890.34 86.06 8.00 198.36 3301.91
   10:10:07.697.27-Aug-2021 4958.50 7894.23 86.06 8.00 198.56 3301.91
   10:10:07.896.27-Aug-2021 4958.50 7889.89 86.06 8.00 198.76 3301.91
   10:10:08.096.27-Aug-2021 4958.50 7889.89 86.06 8.00 198.96 3301.91
   10:10:08.296.27-Aug-2021 4958.50 7890.54 86.06 8.00 199.16 3301.91
   10:10:08.496.27-Aug-2021 4958.50 7889.94 86.06 8.00 199.36 3301.91
   10:10:08.695.27-Aug-2021 4958.50 7889.77 86.06 8.00 199.56 3301.91
   10:10:08.895.27-Aug-2021 4958.50 7890.02 86.06 8.00 199.76 3301.91
   10:10:09.095.27-Aug-2021 4958.50 7890.02 86.06 8.00 199.96 3301.91
   10:10:09.295.27-Aug-2021 4958.50 7889.83 86.06 8.00 200.16 3301.91
   10:10:09.494.27-Aug-2021 4958.50 7890.29 86.06 8.00 200.36 3301.91
   10:10:09.694.27-Aug-2021 4958.50 7890.73 86.06 8.00 200.56 3301.91
   10:10:09.894.27-Aug-2021 4958.50 7891.06 86.06 8.00 200.76 3301.91
   10:10:10.094.27-Aug-2021 4958.50 7891.06 86.06 8.00 200.96 3301.91
   10:10:10.293.27-Aug-2021 4958.50 7890.99 86.06 8.00 201.16 3301.91
   10:10:10.493.27-Aug-2021 4958.50 7890.74 86.06 8.00 201.36 3301.91
   10:10:10.693.27-Aug-2021 4958.50 7890.50 86.06 8.00 201.56 3301.91
   10:10:10.893.27-Aug-2021 4958.50 7890.27 86.06 8.00 201.76 3301.91
   10:10:11.093.27-Aug-2021 4958.50 7890.27 86.06 8.00 201.96 3301.91
   10:10:11.292.27-Aug-2021 4958.50 7889.39 86.06 8.00 202.16 3301.91
   10:10:11.492.27-Aug-2021 4958.50 7891.55 86.06 8.00 202.36 3301.91
   10:10:11.692.27-Aug-2021 4958.50 7889.93 86.06 8.00 202.56 3301.91
   10:10:11.892.27-Aug-2021 4958.50 7889.43 86.06 8.00 202.76 3301.91
   10:10:12.091.27-Aug-2021 4958.50 7889.43 86.06 8.00 202.96 3301.91
   10:10:12.291.27-Aug-2021 4958.50 7895.75 86.06 8.00 203.16 3301.91
   10:10:12.491.27-Aug-2021 4958.50 7887.54 86.06 8.00 203.36 3301.91
   10:10:12.691.27-Aug-2021 4958.50 7890.02 86.06 8.00 203.56 3301.91
   10:10:12.890.27-Aug-2021 4958.50 7889.42 86.06 8.00 203.76 3301.91
   10:10:13.090.27-Aug-2021 4958.50 7889.42 86.06 8.00 203.96 3301.91
   10:10:13.290.27-Aug-2021 4958.50 7890.31 86.06 8.00 204.16 3301.91
   10:10:13.490.27-Aug-2021 4958.50 7890.81 86.06 8.00 204.36 3301.91
   10:10:13.689.27-Aug-2021 4958.50 7893.36 86.06 8.00 204.56 3301.91
   10:10:13.889.27-Aug-2021 4958.50 7891.00 86.06 8.00 204.76 3301.91
   10:10:14.089.27-Aug-2021 4958.50 7891.00 86.06 8.00 204.96 3301.91
   10:10:14.289.27-Aug-2021 4958.50 7890.28 86.06 8.00 205.16 3301.91
   10:10:14.488.27-Aug-2021 4958.50 7890.62 86.06 8.00 205.35 3301.91
   10:10:14.688.27-Aug-2021 4958.50 7893.57 86.06 8.00 205.55 3301.91
   10:10:14.888.27-Aug-2021 4958.50 7891.36 86.06 8.00 205.75 3301.91
   10:10:15.088.27-Aug-2021 4958.50 7891.36 86.06 8.00 205.95 3301.91
   10:10:15.288.27-Aug-2021 4958.50 7889.18 86.06 8.00 206.15 3301.91
   10:10:15.487.27-Aug-2021 4958.50 7889.14 86.06 8.00 206.35 3301.91
   10:10:15.687.27-Aug-2021 4958.50 7889.96 86.06 8.00 206.55 3301.91
