~Version Information
 VERS.                  2.0:   CWLS log ASCII Standard -VERSION 2.0
 WRAP.                   NO:   One line per depth step
~Well Information Block
#MNEM.UNIT     VALUE/NAME     DESCRIPTION
#---------     -----------    ---------------------------
 STRT.S             07:19:48 27-Aug-21: START TIME 07:19:48 27-Aug-21
 STOP.S             07:26:57 27-Aug-21: STOP TIME  07:26:57 27-Aug-21
 STEP.S                   0.00: STEP TIME
 NULL.                 -999.25: NULL VALUE
 DFWT.                        :  DIST FWL TEXT
 DFST.                        :  DIST FSL TEXT
 DMF .             Drill Floor:  DRILL MEAS FROM
 STIM.      20.00.00 17-Aug-21:  START TIME
 DATE.      19.00.00 29-Aug-21:  END TIME
 SPUD.               15-Aug-21:  SPUD DATE
 NREF.                    Grid:  NORTH REFERENCE
 HPTY.       Minimum Curvature:  HOLE POS TYPE
 DMOD.             Drill Model:  DRILL MOD DESC
 SVYD.                  Survey:  SURVEY DESC
 ILTD.               Lithology:  INTERP LTH DESC
 FTOP.          Formation Tops:  FORM TOPS DESC
 RIG .              East Azeri:  RIG NAME
 PDAT.          Mean Sea Level:  PERMANENT DATUM
 FLD .                     ACG:  FIELD NAME
 SON .        AZ-XX-0907180857:  JOB NUMBER
 CTRY.              Azerbaijan:  COUNTRY NAME
 WELL.                    D23x:  WELL NAME
 SRVC.     Turan Drilling and Engineering:  CONTRACTOR
 COMP.     BP Exploration (Caspian Sea) Ltd.:  COMPANY
 UWI .            /AZE00000214:  UNIQUE WELL IDENTIFIER
 API .            /AZE00000214:  API NUMBER
 MDS .        Operator Entered:  MAG DATA SOURCE
 BASE.              Azerbaijan:  LOGGING EQUIPMENT BASE LOCATION
 REGN.                   EESSA:  REGION
 PROV.                    Baku:  PROVINCE
 STAT.                    Baku:  STATE NAME
 MWDS.                    Baku:  MWD SHOP
 DOE .                     N/A:  DOE NUMBER
 DCON.         Sperry Drilling:  DIRECTNL CONTR
 UNIT.                     N/A:  LOGGING EQUIPMENT ID
 WTYP.                Deviated:  WELL TYPE
 CNTY.                        :  COUNTY
 LOC .                        :  LOCATION
 LMF .             Drill Floor:  LOG MEASURED FROM
 TVDS.m                  43.60:  TVDSS CORRECTN
 LATI.deg                40.02:  LATITUDE
 LONG.deg                51.45:  LONGITUDE
 WHNS.m                  -7.04:  WELL HEAD N/S
 WHEW.m                  -0.67:  WELL HEAD E/W
 UTMX.m              538762.90:  UTM X
 UTMY.m             4431871.34:  UTM Y
 DFWL.m                   0.00:  DISTANCE FWL
 DFSL.m                   0.00:  DISTANCE FSL
 SDEP.m                4127.00:  START DEPTH
 TDD .m                5084.50:  TOTAL DEPTH (DRILLER)
 VSDR.deg               140.47:  VERT SEC DIRECT
 GVFD.g                   1.00:  GRAVITY FIELD
 MFLD.nT              50362.00:  MAGNETIC FIELD
 MDIP.deg                59.48:  MAGNETIC DIP
 MDEC.deg                 6.47:  MAGNETIC DECL
 GRDC.deg                 0.31:  GRID CORRECTION
 AZTC.deg                 6.16:  AZM TOTAL CORR
 EPD .m                   0.00:  ELEVATION
 EGL .m                   0.00:  GROUND ELEVATION
 WDMS.m                 151.80:  WD ELEV
 APD .m                  43.60:  DEPTH ABOVE PD
 DEP .m                4092.57:  DEPTH
 AGAP.m                  43.60:  AIR GAP
 VSEW.m                  -0.67:  VERT SEC E/W
 VSNS.m                  -7.04:  VERT SEC N/S
 EKB .m                  43.60:  KB ELEVATION
 EDF .m                  43.60:  DF ELEVATION
 TDL .m                 957.50:  TOTAL DEPTH (LOGGER)
 VSC .                       0:  VS TO CLOSURE
 MAGU.                 1851413:  MAGUTM CHECKSUM
~Parameter Information Block
#MNEM.UNIT       Value        Description
#---------     -----------    ---------------------------
 AV  .mps                 1.50:  Ann Velocity 
 AVMX.mps                 2.00:  Max Ann Veloc 
 AZIF.deg               184.66:  Azm, Final 
 BHAT.        Rotary Steerable:  BHA Type 
 BREV.rev               300.00:  Rev Bit Total 
 BROT.°/30m              -0.50:  Build Rotating 
 BS  .in                  8.50:  Bit Size 
 BSZ .in                  8.50:  Bit Size 
 BTPL.psig              370.00:  Bit Press Loss 
 CABU.                      No:  Customer Abuse 
 CGEO.      Behruz Shahbaliyev:  Customer Geo 
 COMM.                     Ô‘[:  Run Comments 1 
 TCS .hr                140.08:  Time Ciculation Ended 
 CV  .mps                 3.00:  Crit Velocity 
 CVMX.mps                 3.20:  Max Crit Veloc 
 DD1 .            Musa Ahmadov:  Direct Drillr 1 
 DD2 .           Hamid Ahmadov:  Direct Drillr 2 
 DDSV.               Geo-Pilot:  DD Service 
 DEFF.%                  98.40:  % Det Eff 
 DLRX.°/30m               3.40:  Dogleg Rot Max 
 DLSO.°/30m               1.45:  Dogleg Oriented 
 DLSX.°/30m               3.40:  Dogleg Str Max 
 DRET.      18.40.00 29-Aug-21:  Drill End Time 
 DRST.      21.00.00 20-Aug-21:  Drill Start Tim 
 DTIM.hr                 69.47:  Time Drilling 
 EDEP.m                5084.50:  End Depth 
 ENG1.      Artemiy Matviyanov:  Engineer 1 
 ENG2.         Almaz Almadatov:  Engineer 2 
 ETIM.      18.40.00 29-Aug-21:  End Time 
 FLOI.gpm               500.00:  Flow In 
 FLON.gpm               400.00:  Flow In Min 
 FLOS.cptm                0.00:  Fluid Loss 
 FLOX.gpm               500.00:  Flow In Max 
 DFT .        Mineral Oil Base:  Mud Type 
 HFLO.                      No:  High Flow 
 HPRE.                      No:  High Pressure 
 HTEM.                      No:  High Temp 
 HYDO.m                   1.80:  Hydro Offset 
 IFIN.deg                25.62:  Inc, Final 
 IMAX.deg                48.69:  Inc Max 
 IMIN.deg                24.01:  Inc Min 
 IMND.m                4962.57:  Inc Min Depth 
 IMXD.m                4119.01:  Inc Max Depth 
 JARR.                      No:  Jarring 
 LETM.      18.40.00 29-Aug-21:  Log End Time 
 LOST.hr                     0:  Lost Rig Time 
 LSTM.      21.00.00 20-Aug-21:  Log Start Time 
 MDCL.ppm             41500.00:  Mud Chlorides 
 MDES.     Inversion Oil/Synthetic:  Mud Desc 
 DFD .sg                  1.56:  Mud Density 
 MDMN.sg                  1.56:  Dens Mud Min 
 MDMX.sg                  1.56:  Dens Mud Max 
 MOIL.                      70:  Run Mud Oil % 
 MOWR.                   70:30:  Run Mud OWR 
 MSND.                     0.2:  Run Mud Sand % 
 MSOL.                    23.3:  Run Mud Solids% 
 DFV .spqt               78.00:  Mud Viscosity 
 MWOD.in                  6.75:  MWD Tool OD 
 MWSI.                      No:  Serv Intrp, MWD 
 OTIM.hr                218.30:  Time Operating 
 PCON.           Look Like New:  Pad Condition 
 PMAX.psia            11015.30:  Press Op, Max 
 PV  .cP                 38.00:  Mud PV 
 RUN .                     300:  Run Number 
 ROPA.m/hr               15.00:  ROP Avg 
 ROPN.m/hr                9.00:  ROP Min 
 ROPX.m/hr               17.00:  ROP Max 
 RPMA.rpm               120.00:  RPM Surface Avg 
 RPMN.rpm                90.00:  RPM Surface Min 
 RPMX.rpm               140.00:  RPM Surface Max 
 RRUN.                     300:  Rig Run Number 
 RTIM.hr                 31.53:  Time Reaming 
 SAZI.deg               331.64:  Azm, Start 
 SDEP.m                4127.00:  Start Depth 
 SIDD.                      No:  Serv Intrp, DD 
 SINC.deg                48.43:  Inc, Start 
 SPPA.psig             5830.00:  SPP Avg 
 SPPN.psig             5600.00:  SPP Min 
 SPPX.psig             5900.00:  SPP Max 
 STIM.      21.00.00 20-Aug-21:  Start Time 
 SVCS.                 DD, MWD:  Services 
 SVER.                    9.20:  Sperry Version 
 TDAT.m                 957.50:  Tot Depth Attmp 
 TDDF.                      No:  Trip for DD 
 TDLG.m                 957.50:  Tot Depth Loggd 
 TFF .                      No:  Trip for Fail 
 TQAA.f-kp               15.00:  Torque Abs Avg 
 TQAN.f-kp               12.00:  Torque Abs Min 
 TQAX.f-kp               19.00:  Torque Abs Max 
 TRRT.°/30m              -3.40:  Turn Rotating 
 MRT .                  EWR-M5:  Maximum Recorded Temperature 
 TTMX.degC              100.00:  Max Tool Temp 
 VS01.                90639251:  Virtual Str1 SN 
 VS02.                90634715:  Virtual Str2 SN 
 VS03.                90652479:  Virtual Str3 SN 
 VS04.                90642262:  Virtual Str4 SN 
 WBMN.klb                 0.00:  WOB Min 
 WITN.           Murad Guliyev:  Customer Rep 
 WITN.          Yashar Gaziyev:  Customer Rep 2 
 WOBA.klb                 9.00:  WOB Avg 
 WOBX.klb                12.00:  WOB Max 
 YP  .lhf2               30.00:  Yield Point 
~Curve Information Block
#MNEM.UNIT                 API CODE     Curve Description
#---------               -----------    ---------------------------
 TIME.HHMMSS            00 000 000 000:  GT Time & Date
 GTDEPTH.m              00 000 000 000:  GT Depth
 GTPQH.psia             00 000 000 000:  GT HR Quartz Pressure
 GTTQ.degC              00 000 000 000:  GT Quartz Temperature
 GTTN.NONE              00 000 000 000:  GT Test Number
 GTET.sec               00 000 000 000:  GT Elapsed Test Time
 GTTVD.m                00 000 000 000:  GT True Vertical Depth
#Other Information
#
#WARRANTY: Halliburton will use its best efforts to furnish customers with 
#accurate information and interpretations that are part of, and incident to, the services 
#provided.  However, Halliburton cannot and does not warrant the accuracy 
#or correctness of such information and interpretations.  Under no circumstances should any 
#such information or interpretation be relied upon as the sole basis for any drilling, 
#completion, production, or financial decision or any procedure involving any risk to the 
#safety of any drilling venture, drilling rig or its crew or any other third party.  The 
#Customer has full responsibility for all drilling, completion and production operation.  
#Halliburton makes no representations or warranties, either expressed or 
#implied, including, but not limited to, the implied warranties of merchantability or fitness 
#for a particular purpose, with respect to the services rendered.  In no event will 
#Halliburton be liable for failure to obtain any particular results or for 
#any damages, including, but not limited to, indirect, special or consequential damages, 
#resulting from the use of any information or interpretation provided by Halliburton.
#
~A           TIME           GTDEPTH  GTPQH  GTTQ  GTTN  GTET   GTTVD  
# ...
   07:25:56.324.27-Aug-2021 5010.50 4281.19 87.46 3.00 368.06 3349.10
   07:25:56.524.27-Aug-2021 5010.50 4281.19 87.46 3.00 368.26 3349.10
   07:25:56.724.27-Aug-2021 5010.50 4281.17 87.46 3.00 368.46 3349.10
   07:25:56.924.27-Aug-2021 5010.50 4281.21 87.46 3.00 368.66 3349.10
   07:25:57.124.27-Aug-2021 5010.50 4281.21 87.46 3.00 368.86 3349.10
   07:25:57.324.27-Aug-2021 5010.50 4281.21 87.46 3.00 369.06 3349.10
   07:25:57.524.27-Aug-2021 5010.50 4281.21 87.46 3.00 369.26 3349.10
   07:25:57.724.27-Aug-2021 5010.50 4281.20 87.46 3.00 369.46 3349.10
   07:25:57.924.27-Aug-2021 5010.50 4281.23 87.46 3.00 369.66 3349.10
   07:25:58.124.27-Aug-2021 5010.50 4281.22 87.46 3.00 369.86 3349.10
   07:25:58.324.27-Aug-2021 5010.50 4281.21 87.46 3.00 370.06 3349.10
   07:25:58.524.27-Aug-2021 5010.50 4281.21 87.46 3.00 370.26 3349.10
   07:25:58.724.27-Aug-2021 5010.50 4281.21 87.46 3.00 370.46 3349.10
   07:25:58.925.27-Aug-2021 5010.50 4281.21 87.45 3.00 370.66 3349.10
   07:25:59.125.27-Aug-2021 5010.50 4281.25 87.45 3.00 370.86 3349.10
   07:25:59.325.27-Aug-2021 5010.50 4281.23 87.45 3.00 371.06 3349.10
   07:25:59.525.27-Aug-2021 5010.50 4281.23 87.45 3.00 371.26 3349.10
   07:25:59.725.27-Aug-2021 5010.50 4281.22 87.45 3.00 371.46 3349.10
   07:25:59.925.27-Aug-2021 5010.50 4281.21 87.45 3.00 371.66 3349.10
   07:26:00.125.27-Aug-2021 5010.50 4281.21 87.45 3.00 371.86 3349.10
   07:26:00.325.27-Aug-2021 5010.50 4281.20 87.45 3.00 372.06 3349.10
   07:26:00.525.27-Aug-2021 5010.50 4281.20 87.45 3.00 372.26 3349.10
   07:26:00.725.27-Aug-2021 5010.50 4281.18 87.45 3.00 372.46 3349.10
   07:26:00.925.27-Aug-2021 5010.50 4281.18 87.45 3.00 372.66 3349.10
   07:26:01.125.27-Aug-2021 5010.50 4281.64 87.45 3.00 372.86 3349.10
   07:26:01.325.27-Aug-2021 5010.50 4284.29 87.45 3.00 373.06 3349.10
   07:26:01.525.27-Aug-2021 5010.50 4284.29 87.45 3.00 373.26 3349.10
   07:26:01.725.27-Aug-2021 5010.50 8030.92 87.45 3.00 373.46 3349.10
   07:26:01.925.27-Aug-2021 5010.50 8037.26 87.45 3.00 373.66 3349.10
   07:26:02.125.27-Aug-2021 5010.50 8030.64 87.45 3.00 373.86 3349.10
   07:26:02.325.27-Aug-2021 5010.50 8030.37 87.46 3.00 374.06 3349.10
   07:26:02.525.27-Aug-2021 5010.50 8030.37 87.46 3.00 374.26 3349.10
   07:26:02.725.27-Aug-2021 5010.50 8028.62 87.46 3.00 374.46 3349.10
   07:26:02.925.27-Aug-2021 5010.50 8028.87 87.46 3.00 374.66 3349.10
   07:26:03.125.27-Aug-2021 5010.50 8029.56 87.46 3.00 374.86 3349.10
   07:26:03.325.27-Aug-2021 5010.50 8029.61 87.46 3.00 375.06 3349.10
   07:26:03.525.27-Aug-2021 5010.50 8029.61 87.46 3.00 375.26 3349.10
   07:26:03.725.27-Aug-2021 5010.50 8031.52 87.47 3.00 375.46 3349.10
   07:26:03.925.27-Aug-2021 5010.50 8033.09 87.47 3.00 375.66 3349.10
   07:26:04.125.27-Aug-2021 5010.50 8034.32 87.47 3.00 375.86 3349.10
   07:26:04.325.27-Aug-2021 5010.50 8035.01 87.48 3.00 376.06 3349.10
   07:26:04.525.27-Aug-2021 5010.50 8035.01 87.48 3.00 376.26 3349.10
   07:26:04.725.27-Aug-2021 5010.50 8034.92 87.48 3.00 376.46 3349.10
   07:26:04.925.27-Aug-2021 5010.50 8034.65 87.49 3.00 376.66 3349.10
   07:26:05.126.27-Aug-2021 5010.50 8036.39 87.49 3.00 376.86 3349.10
   07:26:05.326.27-Aug-2021 5010.50 8041.51 87.49 3.00 377.06 3349.10
   07:26:05.526.27-Aug-2021 5010.50 8041.51 87.49 3.00 377.26 3349.10
   07:26:05.726.27-Aug-2021 5010.50 8039.18 87.50 3.00 377.46 3349.10
   07:26:05.926.27-Aug-2021 5010.50 8039.16 87.50 3.00 377.66 3349.10
   07:26:06.126.27-Aug-2021 5010.50 8039.01 87.50 3.00 377.86 3349.10
   07:26:06.326.27-Aug-2021 5010.50 8039.43 87.50 3.00 378.06 3349.10
   07:26:06.526.27-Aug-2021 5010.50 8039.43 87.50 3.00 378.26 3349.10
   07:26:06.726.27-Aug-2021 5010.50 8042.10 87.51 3.00 378.46 3349.10
   07:26:06.926.27-Aug-2021 5010.50 8041.29 87.51 3.00 378.66 3349.10
   07:26:07.126.27-Aug-2021 5010.50 8040.30 87.51 3.00 378.86 3349.10
   07:26:07.326.27-Aug-2021 5010.50 8041.37 87.52 3.00 379.06 3349.10
   07:26:07.526.27-Aug-2021 5010.50 8041.37 87.52 3.00 379.26 3349.10
   07:26:07.726.27-Aug-2021 5010.50 8041.16 87.52 3.00 379.46 3349.10
   07:26:07.926.27-Aug-2021 5010.50 8040.25 87.52 3.00 379.66 3349.10
   07:26:08.126.27-Aug-2021 5010.50 8039.89 87.52 3.00 379.86 3349.10
   07:26:08.326.27-Aug-2021 5010.50 8039.76 87.52 3.00 380.06 3349.10
   07:26:08.526.27-Aug-2021 5010.50 8039.76 87.52 3.00 380.26 3349.10
   07:26:08.726.27-Aug-2021 5010.50 8046.46 87.53 3.00 380.46 3349.10
   07:26:08.926.27-Aug-2021 5010.50 8040.84 87.53 3.00 380.66 3349.10
   07:26:09.126.27-Aug-2021 5010.50 8040.55 87.53 3.00 380.86 3349.10
   07:26:09.326.27-Aug-2021 5010.50 8040.41 87.53 3.00 381.06 3349.10
   07:26:09.526.27-Aug-2021 5010.50 8040.41 87.53 3.00 381.26 3349.10
   07:26:09.726.27-Aug-2021 5010.50 8042.10 87.53 3.00 381.46 3349.10
   07:26:09.926.27-Aug-2021 5010.50 8042.30 87.54 3.00 381.66 3349.10
   07:26:10.126.27-Aug-2021 5010.50 8040.88 87.54 3.00 381.86 3349.10
   07:26:10.326.27-Aug-2021 5010.50 8040.74 87.54 3.00 382.06 3349.10
   07:26:10.526.27-Aug-2021 5010.50 8040.74 87.54 3.00 382.26 3349.10
   07:26:10.726.27-Aug-2021 5010.50 8041.01 87.54 3.00 382.46 3349.10
   07:26:10.926.27-Aug-2021 5010.50 8041.67 87.54 3.00 382.66 3349.10
   07:26:11.127.27-Aug-2021 5010.50 8041.94 87.54 3.00 382.86 3349.10
   07:26:11.327.27-Aug-2021 5010.50 8041.17 87.54 3.00 383.06 3349.10
   07:26:11.527.27-Aug-2021 5010.50 8041.17 87.54 3.00 383.26 3349.10
   07:26:11.727.27-Aug-2021 5010.50 8040.59 87.54 3.00 383.46 3349.10
   07:26:11.927.27-Aug-2021 5010.50 8042.06 87.54 3.00 383.66 3349.10
   07:26:12.127.27-Aug-2021 5010.50 8044.59 87.54 3.00 383.86 3349.10
   07:26:12.327.27-Aug-2021 5010.50 8043.37 87.55 3.00 384.06 3349.10
   07:26:12.527.27-Aug-2021 5010.50 8043.37 87.55 3.00 384.26 3349.10
   07:26:12.727.27-Aug-2021 5010.50 8041.52 87.55 3.00 384.46 3349.10
   07:26:12.927.27-Aug-2021 5010.50 8041.33 87.55 3.00 384.66 3349.10
   07:26:13.127.27-Aug-2021 5010.50 8041.91 87.55 3.00 384.86 3349.10
   07:26:13.327.27-Aug-2021 5010.50 8041.32 87.55 3.00 385.06 3349.10
   07:26:13.527.27-Aug-2021 5010.50 8041.32 87.55 3.00 385.26 3349.10
   07:26:13.727.27-Aug-2021 5010.50 8041.08 87.55 3.00 385.46 3349.10
   07:26:13.927.27-Aug-2021 5010.50 8041.71 87.55 3.00 385.66 3349.10
   07:26:14.127.27-Aug-2021 5010.50 8042.47 87.55 3.00 385.86 3349.10
   07:26:14.327.27-Aug-2021 5010.50 8043.05 87.55 3.00 386.06 3349.10
   07:26:14.527.27-Aug-2021 5010.50 8043.05 87.55 3.00 386.26 3349.10
   07:26:14.727.27-Aug-2021 5010.50 8042.04 87.55 3.00 386.46 3349.10
   07:26:14.927.27-Aug-2021 5010.50 8041.55 87.55 3.00 386.66 3349.10
   07:26:15.127.27-Aug-2021 5010.50 8041.35 87.55 3.00 386.86 3349.10
   07:26:15.327.27-Aug-2021 5010.50 8041.17 87.55 3.00 387.06 3349.10
   07:26:15.527.27-Aug-2021 5010.50 8041.17 87.55 3.00 387.26 3349.10
   07:26:15.727.27-Aug-2021 5010.50 8045.53 87.55 3.00 387.46 3349.10
   07:26:15.927.27-Aug-2021 5010.50 8040.82 87.55 3.00 387.66 3349.10
   07:26:16.127.27-Aug-2021 5010.50 8041.20 87.55 3.00 387.86 3349.10
   07:26:16.327.27-Aug-2021 5010.50 8041.13 87.55 3.00 388.06 3349.10
   07:26:16.527.27-Aug-2021 5010.50 8041.13 87.55 3.00 388.26 3349.10
   07:26:16.727.27-Aug-2021 5010.50 8042.10 87.55 3.00 388.46 3349.10
   07:26:16.927.27-Aug-2021 5010.50 8040.74 87.55 3.00 388.66 3349.10
   07:26:17.127.27-Aug-2021 5010.50 8041.11 87.55 3.00 388.86 3349.10
   07:26:17.328.27-Aug-2021 5010.50 8041.00 87.55 3.00 389.06 3349.10
   07:26:17.528.27-Aug-2021 5010.50 8041.00 87.55 3.00 389.26 3349.10
   07:26:17.728.27-Aug-2021 5010.50 8044.54 87.55 3.00 389.46 3349.10
   07:26:17.928.27-Aug-2021 5010.50 8042.73 87.55 3.00 389.66 3349.10
   07:26:18.128.27-Aug-2021 5010.50 8040.25 87.55 3.00 389.86 3349.10
   07:26:18.328.27-Aug-2021 5010.50 8040.75 87.55 3.00 390.06 3349.10
   07:26:18.528.27-Aug-2021 5010.50 8040.75 87.55 3.00 390.26 3349.10
   07:26:18.728.27-Aug-2021 5010.50 8042.24 87.55 3.00 390.46 3349.10
   07:26:18.928.27-Aug-2021 5010.50 8045.38 87.55 3.00 390.66 3349.10
   07:26:19.128.27-Aug-2021 5010.50 8041.66 87.55 3.00 390.86 3349.10
