~Version Information
 VERS.                  2.0:   CWLS log ASCII Standard -VERSION 2.0
 WRAP.                   NO:   One line per depth step
~Well Information Block
#MNEM.UNIT     VALUE/NAME     DESCRIPTION
#---------     -----------    ---------------------------
 STRT.S             13:52:51 27-Aug-21: START TIME 13:52:51 27-Aug-21
 STOP.S             13:59:42 27-Aug-21: STOP TIME  13:59:42 27-Aug-21
 STEP.S                   0.00: STEP TIME
 NULL.                 -999.25: NULL VALUE
 DFWT.                        :  DIST FWL TEXT
 DFST.                        :  DIST FSL TEXT
 DMF .             Drill Floor:  DRILL MEAS FROM
 STIM.      20.00.00 17-Aug-21:  START TIME
 DATE.      19.00.00 29-Aug-21:  END TIME
 SPUD.               15-Aug-21:  SPUD DATE
 NREF.                    Grid:  NORTH REFERENCE
 HPTY.       Minimum Curvature:  HOLE POS TYPE
 DMOD.             Drill Model:  DRILL MOD DESC
 SVYD.                  Survey:  SURVEY DESC
 ILTD.               Lithology:  INTERP LTH DESC
 FTOP.          Formation Tops:  FORM TOPS DESC
 RIG .              East Azeri:  RIG NAME
 PDAT.          Mean Sea Level:  PERMANENT DATUM
 FLD .                     ACG:  FIELD NAME
 SON .        AZ-XX-0907180857:  JOB NUMBER
 CTRY.              Azerbaijan:  COUNTRY NAME
 WELL.                    D23x:  WELL NAME
 SRVC.     Turan Drilling and Engineering:  CONTRACTOR
 COMP.     BP Exploration (Caspian Sea) Ltd.:  COMPANY
 UWI .            /AZE00000214:  UNIQUE WELL IDENTIFIER
 API .            /AZE00000214:  API NUMBER
 MDS .        Operator Entered:  MAG DATA SOURCE
 BASE.              Azerbaijan:  LOGGING EQUIPMENT BASE LOCATION
 REGN.                   EESSA:  REGION
 PROV.                    Baku:  PROVINCE
 STAT.                    Baku:  STATE NAME
 MWDS.                    Baku:  MWD SHOP
 DOE .                     N/A:  DOE NUMBER
 DCON.         Sperry Drilling:  DIRECTNL CONTR
 UNIT.                     N/A:  LOGGING EQUIPMENT ID
 WTYP.                Deviated:  WELL TYPE
 CNTY.                        :  COUNTY
 LOC .                        :  LOCATION
 LMF .             Drill Floor:  LOG MEASURED FROM
 TVDS.m                  43.60:  TVDSS CORRECTN
 LATI.deg                40.02:  LATITUDE
 LONG.deg                51.45:  LONGITUDE
 WHNS.m                  -7.04:  WELL HEAD N/S
 WHEW.m                  -0.67:  WELL HEAD E/W
 UTMX.m              538762.90:  UTM X
 UTMY.m             4431871.34:  UTM Y
 DFWL.m                   0.00:  DISTANCE FWL
 DFSL.m                   0.00:  DISTANCE FSL
 SDEP.m                4127.00:  START DEPTH
 TDD .m                5084.50:  TOTAL DEPTH (DRILLER)
 VSDR.deg               140.47:  VERT SEC DIRECT
 GVFD.g                   1.00:  GRAVITY FIELD
 MFLD.nT              50362.00:  MAGNETIC FIELD
 MDIP.deg                59.48:  MAGNETIC DIP
 MDEC.deg                 6.47:  MAGNETIC DECL
 GRDC.deg                 0.31:  GRID CORRECTION
 AZTC.deg                 6.16:  AZM TOTAL CORR
 EPD .m                   0.00:  ELEVATION
 EGL .m                   0.00:  GROUND ELEVATION
 WDMS.m                 151.80:  WD ELEV
 APD .m                  43.60:  DEPTH ABOVE PD
 DEP .m                4092.57:  DEPTH
 AGAP.m                  43.60:  AIR GAP
 VSEW.m                  -0.67:  VERT SEC E/W
 VSNS.m                  -7.04:  VERT SEC N/S
 EKB .m                  43.60:  KB ELEVATION
 EDF .m                  43.60:  DF ELEVATION
 TDL .m                 957.50:  TOTAL DEPTH (LOGGER)
 VSC .                       0:  VS TO CLOSURE
 MAGU.                 1851413:  MAGUTM CHECKSUM
~Parameter Information Block
#MNEM.UNIT       Value        Description
#---------     -----------    ---------------------------
 AV  .mps                 1.50:  Ann Velocity 
 AVMX.mps                 2.00:  Max Ann Veloc 
 AZIF.deg               184.66:  Azm, Final 
 BHAT.        Rotary Steerable:  BHA Type 
 BREV.rev               300.00:  Rev Bit Total 
 BROT.°/30m              -0.50:  Build Rotating 
 BS  .in                  8.50:  Bit Size 
 BSZ .in                  8.50:  Bit Size 
 BTPL.psig              370.00:  Bit Press Loss 
 CABU.                      No:  Customer Abuse 
 CGEO.      Behruz Shahbaliyev:  Customer Geo 
 COMM.                     ÄÆy:  Run Comments 1 
 TCS .hr                140.08:  Time Ciculation Ended 
 CV  .mps                 3.00:  Crit Velocity 
 CVMX.mps                 3.20:  Max Crit Veloc 
 DD1 .            Musa Ahmadov:  Direct Drillr 1 
 DD2 .           Hamid Ahmadov:  Direct Drillr 2 
 DDSV.               Geo-Pilot:  DD Service 
 DEFF.%                  98.40:  % Det Eff 
 DLRX.°/30m               3.40:  Dogleg Rot Max 
 DLSO.°/30m               1.45:  Dogleg Oriented 
 DLSX.°/30m               3.40:  Dogleg Str Max 
 DRET.      18.40.00 29-Aug-21:  Drill End Time 
 DRST.      21.00.00 20-Aug-21:  Drill Start Tim 
 DTIM.hr                 69.47:  Time Drilling 
 EDEP.m                5084.50:  End Depth 
 ENG1.      Artemiy Matviyanov:  Engineer 1 
 ENG2.         Almaz Almadatov:  Engineer 2 
 ETIM.      18.40.00 29-Aug-21:  End Time 
 FLOI.gpm               500.00:  Flow In 
 FLON.gpm               400.00:  Flow In Min 
 FLOS.cptm                0.00:  Fluid Loss 
 FLOX.gpm               500.00:  Flow In Max 
 DFT .        Mineral Oil Base:  Mud Type 
 HFLO.                      No:  High Flow 
 HPRE.                      No:  High Pressure 
 HTEM.                      No:  High Temp 
 HYDO.m                   1.80:  Hydro Offset 
 IFIN.deg                25.62:  Inc, Final 
 IMAX.deg                48.69:  Inc Max 
 IMIN.deg                24.01:  Inc Min 
 IMND.m                4962.57:  Inc Min Depth 
 IMXD.m                4119.01:  Inc Max Depth 
 JARR.                      No:  Jarring 
 LETM.      18.40.00 29-Aug-21:  Log End Time 
 LOST.hr                     0:  Lost Rig Time 
 LSTM.      21.00.00 20-Aug-21:  Log Start Time 
 MDCL.ppm             41500.00:  Mud Chlorides 
 MDES.     Inversion Oil/Synthetic:  Mud Desc 
 DFD .sg                  1.56:  Mud Density 
 MDMN.sg                  1.56:  Dens Mud Min 
 MDMX.sg                  1.56:  Dens Mud Max 
 MOIL.                      70:  Run Mud Oil % 
 MOWR.                   70:30:  Run Mud OWR 
 MSND.                     0.2:  Run Mud Sand % 
 MSOL.                    23.3:  Run Mud Solids% 
 DFV .spqt               78.00:  Mud Viscosity 
 MWOD.in                  6.75:  MWD Tool OD 
 MWSI.                      No:  Serv Intrp, MWD 
 OTIM.hr                218.30:  Time Operating 
 PCON.           Look Like New:  Pad Condition 
 PMAX.psia            11015.30:  Press Op, Max 
 PV  .cP                 38.00:  Mud PV 
 RUN .                     300:  Run Number 
 ROPA.m/hr               15.00:  ROP Avg 
 ROPN.m/hr                9.00:  ROP Min 
 ROPX.m/hr               17.00:  ROP Max 
 RPMA.rpm               120.00:  RPM Surface Avg 
 RPMN.rpm                90.00:  RPM Surface Min 
 RPMX.rpm               140.00:  RPM Surface Max 
 RRUN.                     300:  Rig Run Number 
 RTIM.hr                 31.53:  Time Reaming 
 SAZI.deg               331.64:  Azm, Start 
 SDEP.m                4127.00:  Start Depth 
 SIDD.                      No:  Serv Intrp, DD 
 SINC.deg                48.43:  Inc, Start 
 SPPA.psig             5830.00:  SPP Avg 
 SPPN.psig             5600.00:  SPP Min 
 SPPX.psig             5900.00:  SPP Max 
 STIM.      21.00.00 20-Aug-21:  Start Time 
 SVCS.                 DD, MWD:  Services 
 SVER.                    9.20:  Sperry Version 
 TDAT.m                 957.50:  Tot Depth Attmp 
 TDDF.                      No:  Trip for DD 
 TDLG.m                 957.50:  Tot Depth Loggd 
 TFF .                      No:  Trip for Fail 
 TQAA.f-kp               15.00:  Torque Abs Avg 
 TQAN.f-kp               12.00:  Torque Abs Min 
 TQAX.f-kp               19.00:  Torque Abs Max 
 TRRT.°/30m              -3.40:  Turn Rotating 
 MRT .                  EWR-M5:  Maximum Recorded Temperature 
 TTMX.degC              100.00:  Max Tool Temp 
 VS01.                90639251:  Virtual Str1 SN 
 VS02.                90634715:  Virtual Str2 SN 
 VS03.                90652479:  Virtual Str3 SN 
 VS04.                90642262:  Virtual Str4 SN 
 WBMN.klb                 0.00:  WOB Min 
 WITN.           Murad Guliyev:  Customer Rep 
 WITN.          Yashar Gaziyev:  Customer Rep 2 
 WOBA.klb                 9.00:  WOB Avg 
 WOBX.klb                12.00:  WOB Max 
 YP  .lhf2               30.00:  Yield Point 
~Curve Information Block
#MNEM.UNIT                 API CODE     Curve Description
#---------               -----------    ---------------------------
 TIME.HHMMSS            00 000 000 000:  GT Time & Date
 GTDEPTH.m              00 000 000 000:  GT Depth
 GTPQH.psia             00 000 000 000:  GT HR Quartz Pressure
 GTTQ.degC              00 000 000 000:  GT Quartz Temperature
 GTTN.NONE              00 000 000 000:  GT Test Number
 GTET.sec               00 000 000 000:  GT Elapsed Test Time
 GTTVD.m                00 000 000 000:  GT True Vertical Depth
#Other Information
#
#WARRANTY: Halliburton will use its best efforts to furnish customers with 
#accurate information and interpretations that are part of, and incident to, the services 
#provided.  However, Halliburton cannot and does not warrant the accuracy 
#or correctness of such information and interpretations.  Under no circumstances should any 
#such information or interpretation be relied upon as the sole basis for any drilling, 
#completion, production, or financial decision or any procedure involving any risk to the 
#safety of any drilling venture, drilling rig or its crew or any other third party.  The 
#Customer has full responsibility for all drilling, completion and production operation.  
#Halliburton makes no representations or warranties, either expressed or 
#implied, including, but not limited to, the implied warranties of merchantability or fitness 
#for a particular purpose, with respect to the services rendered.  In no event will 
#Halliburton be liable for failure to obtain any particular results or for 
#any damages, including, but not limited to, indirect, special or consequential damages, 
#resulting from the use of any information or interpretation provided by Halliburton.
#
~A           TIME           GTDEPTH  GTPQH  GTTQ  GTTN   GTET   GTTVD  
# ...
   13:53:58.800.27-Aug-2021 4859.00 1761.91 84.41 14.00  67.80 3211.42
   13:53:59.000.27-Aug-2021 4859.00 1800.95 84.41 14.00  68.00 3211.42
   13:53:59.200.27-Aug-2021 4859.00 1800.95 84.41 14.00  68.20 3211.42
   13:53:59.400.27-Aug-2021 4859.00 1873.81 84.41 14.00  68.40 3211.42
   13:53:59.600.27-Aug-2021 4859.00 1909.93 84.41 14.00  68.60 3211.42
   13:53:59.800.27-Aug-2021 4859.00 1944.71 84.41 14.00  68.80 3211.42
   13:54:00.000.27-Aug-2021 4859.00 1979.53 84.41 14.00  69.00 3211.42
   13:54:00.200.27-Aug-2021 4859.00 1979.53 84.41 14.00  69.20 3211.42
   13:54:00.400.27-Aug-2021 4859.00 2047.12 84.41 14.00  69.40 3211.42
   13:54:00.600.27-Aug-2021 4859.00 2080.43 84.41 14.00  69.60 3211.42
   13:54:00.800.27-Aug-2021 4859.00 2113.02 84.41 14.00  69.80 3211.42
   13:54:01.000.27-Aug-2021 4859.00 2145.35 84.41 14.00  70.00 3211.42
   13:54:01.200.27-Aug-2021 4859.00 2145.35 84.41 14.00  70.20 3211.42
   13:54:01.400.27-Aug-2021 4859.00 2208.48 84.42 14.00  70.40 3211.42
   13:54:01.600.27-Aug-2021 4859.00 2239.51 84.42 14.00  70.60 3211.42
   13:54:01.800.27-Aug-2021 4859.00 2269.95 84.42 14.00  70.80 3211.42
   13:54:02.000.27-Aug-2021 4859.00 2299.57 84.42 14.00  71.00 3211.42
   13:54:02.200.27-Aug-2021 4859.00 2299.57 84.42 14.00  71.20 3211.42
   13:54:02.400.27-Aug-2021 4859.00 2358.56 84.42 14.00  71.40 3211.42
   13:54:02.600.27-Aug-2021 4859.00 2387.42 84.42 14.00  71.60 3211.42
   13:54:02.800.27-Aug-2021 4859.00 2416.30 84.42 14.00  71.80 3211.42
   13:54:03.000.27-Aug-2021 4859.00 2443.81 84.42 14.00  72.00 3211.42
   13:54:03.200.27-Aug-2021 4859.00 2443.81 84.42 14.00  72.20 3211.42
   13:54:03.400.27-Aug-2021 4859.00 2499.96 84.42 14.00  72.40 3211.42
   13:54:03.600.27-Aug-2021 4859.00 2527.44 84.42 14.00  72.60 3211.42
   13:54:03.800.27-Aug-2021 4859.00 2554.21 84.42 14.00  72.80 3211.42
   13:54:04.000.27-Aug-2021 4859.00 2581.02 84.42 14.00  73.00 3211.42
   13:54:04.200.27-Aug-2021 4859.00 2581.02 84.42 14.00  73.20 3211.42
   13:54:04.400.27-Aug-2021 4859.00 2632.39 84.43 14.00  73.40 3211.42
   13:54:04.600.27-Aug-2021 4859.00 2656.35 84.43 14.00  73.60 3211.42
   13:54:04.800.27-Aug-2021 4859.00 2682.11 84.43 14.00  73.80 3211.42
   13:54:05.000.27-Aug-2021 4859.00 2706.91 84.43 14.00  74.00 3211.42
   13:54:05.200.27-Aug-2021 4859.00 2706.91 84.43 14.00  74.20 3211.42
   13:54:05.400.27-Aug-2021 4859.00 2756.36 84.43 14.00  74.40 3211.42
   13:54:05.600.27-Aug-2021 4859.00 2779.22 84.43 14.00  74.60 3211.42
   13:54:05.800.27-Aug-2021 4859.00 2802.77 84.43 14.00  74.80 3211.42
   13:54:06.000.27-Aug-2021 4859.00 2827.14 84.43 14.00  75.00 3211.42
   13:54:06.200.27-Aug-2021 4859.00 2827.14 84.43 14.00  75.20 3211.42
   13:54:06.400.27-Aug-2021 4859.00 2873.27 84.43 14.00  75.40 3211.42
   13:54:06.600.27-Aug-2021 4859.00 2896.27 84.44 14.00  75.60 3211.42
   13:54:06.800.27-Aug-2021 4859.00 2918.58 84.44 14.00  75.80 3211.42
   13:54:07.000.27-Aug-2021 4859.00 2941.10 84.44 14.00  76.00 3211.42
   13:54:07.200.27-Aug-2021 4859.00 2941.10 84.44 14.00  76.20 3211.42
   13:54:07.400.27-Aug-2021 4859.00 2984.75 84.44 14.00  76.40 3211.42
   13:54:07.600.27-Aug-2021 4859.00 3006.42 84.44 14.00  76.60 3211.42
   13:54:07.800.27-Aug-2021 4859.00 3027.56 84.44 14.00  76.80 3211.42
   13:54:08.000.27-Aug-2021 4859.00 3048.68 84.44 14.00  77.00 3211.42
   13:54:08.200.27-Aug-2021 4859.00 3048.68 84.44 14.00  77.20 3211.42
   13:54:08.400.27-Aug-2021 4859.00 3090.00 84.45 14.00  77.40 3211.42
   13:54:08.600.27-Aug-2021 4859.00 3110.37 84.45 14.00  77.60 3211.42
   13:54:08.800.27-Aug-2021 4859.00 3129.06 84.45 14.00  77.80 3211.42
   13:54:09.000.27-Aug-2021 4859.00 3146.20 84.45 14.00  78.00 3211.42
   13:54:09.200.27-Aug-2021 4859.00 3146.20 84.45 14.00  78.20 3211.42
   13:54:09.400.27-Aug-2021 4859.00 3185.36 84.45 14.00  78.40 3211.42
   13:54:09.600.27-Aug-2021 4859.00 3204.83 84.45 14.00  78.60 3211.42
   13:54:09.800.27-Aug-2021 4859.00 3224.32 84.45 14.00  78.80 3211.42
   13:54:10.000.27-Aug-2021 4859.00 3242.99 84.45 14.00  79.00 3211.42
   13:54:10.200.27-Aug-2021 4859.00 3242.99 84.45 14.00  79.20 3211.42
   13:54:10.400.27-Aug-2021 4859.00 3280.46 84.46 14.00  79.40 3211.42
   13:54:10.600.27-Aug-2021 4859.00 3298.87 84.46 14.00  79.60 3211.42
   13:54:10.800.27-Aug-2021 4859.00 3317.11 84.46 14.00  79.80 3211.42
   13:54:11.000.27-Aug-2021 4859.00 3335.01 84.46 14.00  80.00 3211.42
   13:54:11.200.27-Aug-2021 4859.00 3335.01 84.46 14.00  80.20 3211.42
   13:54:11.400.27-Aug-2021 4859.00 3370.46 84.46 14.00  80.40 3211.42
   13:54:11.600.27-Aug-2021 4859.00 3387.79 84.46 14.00  80.60 3211.42
   13:54:11.800.27-Aug-2021 4859.00 3404.22 84.46 14.00  80.80 3211.42
   13:54:12.000.27-Aug-2021 4859.00 3420.24 84.46 14.00  81.00 3211.42
   13:54:12.200.27-Aug-2021 4859.00 3420.24 84.46 14.00  81.20 3211.42
   13:54:12.400.27-Aug-2021 4859.00 3451.68 84.47 14.00  81.40 3211.42
   13:54:12.600.27-Aug-2021 4859.00 3468.63 84.47 14.00  81.60 3211.42
   13:54:12.800.27-Aug-2021 4859.00 3484.86 84.47 14.00  81.80 3211.42
   13:54:13.000.27-Aug-2021 4859.00 3501.39 84.47 14.00  82.00 3211.42
   13:54:13.200.27-Aug-2021 4859.00 3501.39 84.47 14.00  82.20 3211.42
   13:54:13.400.27-Aug-2021 4859.00 3532.21 84.47 14.00  82.40 3211.42
   13:54:13.600.27-Aug-2021 4859.00 3547.07 84.47 14.00  82.60 3211.42
   13:54:13.800.27-Aug-2021 4859.00 3563.11 84.47 14.00  82.80 3211.42
   13:54:14.000.27-Aug-2021 4859.00 3579.01 84.47 14.00  83.00 3211.42
   13:54:14.200.27-Aug-2021 4859.00 3579.01 84.47 14.00  83.20 3211.42
   13:54:14.400.27-Aug-2021 4859.00 3609.85 84.48 14.00  83.40 3211.42
   13:54:14.600.27-Aug-2021 4859.00 3623.78 84.48 14.00  83.60 3211.42
   13:54:14.800.27-Aug-2021 4859.00 3638.33 84.48 14.00  83.80 3211.42
   13:54:15.000.27-Aug-2021 4859.00 3651.91 84.48 14.00  84.00 3211.42
   13:54:15.200.27-Aug-2021 4859.00 3651.91 84.48 14.00  84.20 3211.42
   13:54:15.400.27-Aug-2021 4859.00 3681.53 84.48 14.00  84.40 3211.42
   13:54:15.600.27-Aug-2021 4859.00 3695.58 84.48 14.00  84.60 3211.42
   13:54:15.800.27-Aug-2021 4859.00 3709.93 84.48 14.00  84.80 3211.42
   13:54:16.000.27-Aug-2021 4859.00 3723.91 84.48 14.00  85.00 3211.42
   13:54:16.200.27-Aug-2021 4859.00 3723.91 84.48 14.00  85.20 3211.42
   13:54:16.400.27-Aug-2021 4859.00 3749.86 84.48 14.00  85.40 3211.42
   13:54:16.600.27-Aug-2021 4859.00 3763.91 84.49 14.00  85.60 3211.42
   13:54:16.800.27-Aug-2021 4859.00 3778.03 84.49 14.00  85.80 3211.42
   13:54:17.000.27-Aug-2021 4859.00 3791.44 84.49 14.00  86.00 3211.42
   13:54:17.200.27-Aug-2021 4859.00 3791.44 84.49 14.00  86.20 3211.42
   13:54:17.400.27-Aug-2021 4859.00 3818.20 84.49 14.00  86.40 3211.42
   13:54:17.600.27-Aug-2021 4859.00 3831.21 84.49 14.00  86.60 3211.42
   13:54:17.800.27-Aug-2021 4859.00 3844.24 84.49 14.00  86.80 3211.42
   13:54:18.000.27-Aug-2021 4859.00 3857.14 84.49 14.00  87.00 3211.42
   13:54:18.200.27-Aug-2021 4859.00 3857.14 84.49 14.00  87.20 3211.42
   13:54:18.400.27-Aug-2021 4859.00 3882.41 84.49 14.00  87.40 3211.42
   13:54:18.600.27-Aug-2021 4859.00 3894.88 84.49 14.00  87.60 3211.42
   13:54:18.800.27-Aug-2021 4859.00 3907.10 84.49 14.00  87.80 3211.42
   13:54:19.000.27-Aug-2021 4859.00 3919.40 84.49 14.00  88.00 3211.42
   13:54:19.200.27-Aug-2021 4859.00 3919.40 84.49 14.00  88.20 3211.42
   13:54:19.400.27-Aug-2021 4859.00 3941.91 84.50 14.00  88.40 3211.42
   13:54:19.600.27-Aug-2021 4859.00 3952.78 84.50 14.00  88.60 3211.42
   13:54:19.800.27-Aug-2021 4859.00 3964.86 84.50 14.00  88.80 3211.42
   13:54:20.000.27-Aug-2021 4859.00 3976.83 84.50 14.00  89.00 3211.42
   13:54:20.200.27-Aug-2021 4859.00 3976.83 84.50 14.00  89.20 3211.42
   13:54:20.400.27-Aug-2021 4859.00 4000.00 84.50 14.00  89.40 3211.42
   13:54:20.600.27-Aug-2021 4859.00 4011.23 84.50 14.00  89.60 3211.42
   13:54:20.800.27-Aug-2021 4859.00 4022.52 84.50 14.00  89.80 3211.42
   13:54:21.000.27-Aug-2021 4859.00 4033.72 84.50 14.00  90.00 3211.42
   13:54:21.200.27-Aug-2021 4859.00 4033.72 84.50 14.00  90.20 3211.42
