~Version Information
 VERS.                  2.0:   CWLS log ASCII Standard -VERSION 2.0
 WRAP.                   NO:   One line per depth step
~Well Information Block
#MNEM.UNIT     VALUE/NAME     DESCRIPTION
#---------     -----------    ---------------------------
 STRT.S             18:53:24 27-Aug-21: START TIME 18:53:24 27-Aug-21
 STOP.S             19:00:39 27-Aug-21: STOP TIME  19:00:39 27-Aug-21
 STEP.S                   0.00: STEP TIME
 NULL.                 -999.25: NULL VALUE
 DFWT.                        :  DIST FWL TEXT
 DFST.                        :  DIST FSL TEXT
 DMF .             Drill Floor:  DRILL MEAS FROM
 STIM.      20.00.00 17-Aug-21:  START TIME
 DATE.      19.00.00 29-Aug-21:  END TIME
 SPUD.               15-Aug-21:  SPUD DATE
 NREF.                    Grid:  NORTH REFERENCE
 HPTY.       Minimum Curvature:  HOLE POS TYPE
 DMOD.             Drill Model:  DRILL MOD DESC
 SVYD.                  Survey:  SURVEY DESC
 ILTD.               Lithology:  INTERP LTH DESC
 FTOP.          Formation Tops:  FORM TOPS DESC
 RIG .              East Azeri:  RIG NAME
 PDAT.          Mean Sea Level:  PERMANENT DATUM
 FLD .                     ACG:  FIELD NAME
 SON .        AZ-XX-0907180857:  JOB NUMBER
 CTRY.              Azerbaijan:  COUNTRY NAME
 WELL.                    D23x:  WELL NAME
 SRVC.     Turan Drilling and Engineering:  CONTRACTOR
 COMP.     BP Exploration (Caspian Sea) Ltd.:  COMPANY
 UWI .            /AZE00000214:  UNIQUE WELL IDENTIFIER
 API .            /AZE00000214:  API NUMBER
 MDS .        Operator Entered:  MAG DATA SOURCE
 BASE.              Azerbaijan:  LOGGING EQUIPMENT BASE LOCATION
 REGN.                   EESSA:  REGION
 PROV.                    Baku:  PROVINCE
 STAT.                    Baku:  STATE NAME
 MWDS.                    Baku:  MWD SHOP
 DOE .                     N/A:  DOE NUMBER
 DCON.         Sperry Drilling:  DIRECTNL CONTR
 UNIT.                     N/A:  LOGGING EQUIPMENT ID
 WTYP.                Deviated:  WELL TYPE
 CNTY.                        :  COUNTY
 LOC .                        :  LOCATION
 LMF .             Drill Floor:  LOG MEASURED FROM
 TVDS.m                  43.60:  TVDSS CORRECTN
 LATI.deg                40.02:  LATITUDE
 LONG.deg                51.45:  LONGITUDE
 WHNS.m                  -7.04:  WELL HEAD N/S
 WHEW.m                  -0.67:  WELL HEAD E/W
 UTMX.m              538762.90:  UTM X
 UTMY.m             4431871.34:  UTM Y
 DFWL.m                   0.00:  DISTANCE FWL
 DFSL.m                   0.00:  DISTANCE FSL
 SDEP.m                4127.00:  START DEPTH
 TDD .m                5084.50:  TOTAL DEPTH (DRILLER)
 VSDR.deg               140.47:  VERT SEC DIRECT
 GVFD.g                   1.00:  GRAVITY FIELD
 MFLD.nT              50362.00:  MAGNETIC FIELD
 MDIP.deg                59.48:  MAGNETIC DIP
 MDEC.deg                 6.47:  MAGNETIC DECL
 GRDC.deg                 0.31:  GRID CORRECTION
 AZTC.deg                 6.16:  AZM TOTAL CORR
 EPD .m                   0.00:  ELEVATION
 EGL .m                   0.00:  GROUND ELEVATION
 WDMS.m                 151.80:  WD ELEV
 APD .m                  43.60:  DEPTH ABOVE PD
 DEP .m                4092.57:  DEPTH
 AGAP.m                  43.60:  AIR GAP
 VSEW.m                  -0.67:  VERT SEC E/W
 VSNS.m                  -7.04:  VERT SEC N/S
 EKB .m                  43.60:  KB ELEVATION
 EDF .m                  43.60:  DF ELEVATION
 TDL .m                 957.50:  TOTAL DEPTH (LOGGER)
 VSC .                       0:  VS TO CLOSURE
 MAGU.                 1851413:  MAGUTM CHECKSUM
~Parameter Information Block
#MNEM.UNIT       Value        Description
#---------     -----------    ---------------------------
 AV  .mps                 1.50:  Ann Velocity 
 AVMX.mps                 2.00:  Max Ann Veloc 
 AZIF.deg               184.66:  Azm, Final 
 BHAT.        Rotary Steerable:  BHA Type 
 BREV.rev               300.00:  Rev Bit Total 
 BROT.°/30m              -0.50:  Build Rotating 
 BS  .in                  8.50:  Bit Size 
 BSZ .in                  8.50:  Bit Size 
 BTPL.psig              370.00:  Bit Press Loss 
 CABU.                      No:  Customer Abuse 
 CGEO.      Behruz Shahbaliyev:  Customer Geo 
 COMM.                     |?d:  Run Comments 1 
 TCS .hr                140.08:  Time Ciculation Ended 
 CV  .mps                 3.00:  Crit Velocity 
 CVMX.mps                 3.20:  Max Crit Veloc 
 DD1 .            Musa Ahmadov:  Direct Drillr 1 
 DD2 .           Hamid Ahmadov:  Direct Drillr 2 
 DDSV.               Geo-Pilot:  DD Service 
 DEFF.%                  98.40:  % Det Eff 
 DLRX.°/30m               3.40:  Dogleg Rot Max 
 DLSO.°/30m               1.45:  Dogleg Oriented 
 DLSX.°/30m               3.40:  Dogleg Str Max 
 DRET.      18.40.00 29-Aug-21:  Drill End Time 
 DRST.      21.00.00 20-Aug-21:  Drill Start Tim 
 DTIM.hr                 69.47:  Time Drilling 
 EDEP.m                5084.50:  End Depth 
 ENG1.      Artemiy Matviyanov:  Engineer 1 
 ENG2.         Almaz Almadatov:  Engineer 2 
 ETIM.      18.40.00 29-Aug-21:  End Time 
 FLOI.gpm               500.00:  Flow In 
 FLON.gpm               400.00:  Flow In Min 
 FLOS.cptm                0.00:  Fluid Loss 
 FLOX.gpm               500.00:  Flow In Max 
 DFT .        Mineral Oil Base:  Mud Type 
 HFLO.                      No:  High Flow 
 HPRE.                      No:  High Pressure 
 HTEM.                      No:  High Temp 
 HYDO.m                   1.80:  Hydro Offset 
 IFIN.deg                25.62:  Inc, Final 
 IMAX.deg                48.69:  Inc Max 
 IMIN.deg                24.01:  Inc Min 
 IMND.m                4962.57:  Inc Min Depth 
 IMXD.m                4119.01:  Inc Max Depth 
 JARR.                      No:  Jarring 
 LETM.      18.40.00 29-Aug-21:  Log End Time 
 LOST.hr                     0:  Lost Rig Time 
 LSTM.      21.00.00 20-Aug-21:  Log Start Time 
 MDCL.ppm             41500.00:  Mud Chlorides 
 MDES.     Inversion Oil/Synthetic:  Mud Desc 
 DFD .sg                  1.56:  Mud Density 
 MDMN.sg                  1.56:  Dens Mud Min 
 MDMX.sg                  1.56:  Dens Mud Max 
 MOIL.                      70:  Run Mud Oil % 
 MOWR.                   70:30:  Run Mud OWR 
 MSND.                     0.2:  Run Mud Sand % 
 MSOL.                    23.3:  Run Mud Solids% 
 DFV .spqt               78.00:  Mud Viscosity 
 MWOD.in                  6.75:  MWD Tool OD 
 MWSI.                      No:  Serv Intrp, MWD 
 OTIM.hr                218.30:  Time Operating 
 PCON.           Look Like New:  Pad Condition 
 PMAX.psia            11015.30:  Press Op, Max 
 PV  .cP                 38.00:  Mud PV 
 RUN .                     300:  Run Number 
 ROPA.m/hr               15.00:  ROP Avg 
 ROPN.m/hr                9.00:  ROP Min 
 ROPX.m/hr               17.00:  ROP Max 
 RPMA.rpm               120.00:  RPM Surface Avg 
 RPMN.rpm                90.00:  RPM Surface Min 
 RPMX.rpm               140.00:  RPM Surface Max 
 RRUN.                     300:  Rig Run Number 
 RTIM.hr                 31.53:  Time Reaming 
 SAZI.deg               331.64:  Azm, Start 
 SDEP.m                4127.00:  Start Depth 
 SIDD.                      No:  Serv Intrp, DD 
 SINC.deg                48.43:  Inc, Start 
 SPPA.psig             5830.00:  SPP Avg 
 SPPN.psig             5600.00:  SPP Min 
 SPPX.psig             5900.00:  SPP Max 
 STIM.      21.00.00 20-Aug-21:  Start Time 
 SVCS.                 DD, MWD:  Services 
 SVER.                    9.20:  Sperry Version 
 TDAT.m                 957.50:  Tot Depth Attmp 
 TDDF.                      No:  Trip for DD 
 TDLG.m                 957.50:  Tot Depth Loggd 
 TFF .                      No:  Trip for Fail 
 TQAA.f-kp               15.00:  Torque Abs Avg 
 TQAN.f-kp               12.00:  Torque Abs Min 
 TQAX.f-kp               19.00:  Torque Abs Max 
 TRRT.°/30m              -3.40:  Turn Rotating 
 MRT .                  EWR-M5:  Maximum Recorded Temperature 
 TTMX.degC              100.00:  Max Tool Temp 
 VS01.                90639251:  Virtual Str1 SN 
 VS02.                90634715:  Virtual Str2 SN 
 VS03.                90652479:  Virtual Str3 SN 
 VS04.                90642262:  Virtual Str4 SN 
 WBMN.klb                 0.00:  WOB Min 
 WITN.           Murad Guliyev:  Customer Rep 
 WITN.          Yashar Gaziyev:  Customer Rep 2 
 WOBA.klb                 9.00:  WOB Avg 
 WOBX.klb                12.00:  WOB Max 
 YP  .lhf2               30.00:  Yield Point 
~Curve Information Block
#MNEM.UNIT                 API CODE     Curve Description
#---------               -----------    ---------------------------
 TIME.HHMMSS            00 000 000 000:  GT Time & Date
 GTDEPTH.m              00 000 000 000:  GT Depth
 GTPQH.psia             00 000 000 000:  GT HR Quartz Pressure
 GTTQ.degC              00 000 000 000:  GT Quartz Temperature
 GTTN.NONE              00 000 000 000:  GT Test Number
 GTET.sec               00 000 000 000:  GT Elapsed Test Time
 GTTVD.m                00 000 000 000:  GT True Vertical Depth
#Other Information
#
#WARRANTY: Halliburton will use its best efforts to furnish customers with 
#accurate information and interpretations that are part of, and incident to, the services 
#provided.  However, Halliburton cannot and does not warrant the accuracy 
#or correctness of such information and interpretations.  Under no circumstances should any 
#such information or interpretation be relied upon as the sole basis for any drilling, 
#completion, production, or financial decision or any procedure involving any risk to the 
#safety of any drilling venture, drilling rig or its crew or any other third party.  The 
#Customer has full responsibility for all drilling, completion and production operation.  
#Halliburton makes no representations or warranties, either expressed or 
#implied, including, but not limited to, the implied warranties of merchantability or fitness 
#for a particular purpose, with respect to the services rendered.  In no event will 
#Halliburton be liable for failure to obtain any particular results or for 
#any damages, including, but not limited to, indirect, special or consequential damages, 
#resulting from the use of any information or interpretation provided by Halliburton.
#
~A           TIME           GTDEPTH  GTPQH  GTTQ  GTTN   GTET   GTTVD  
# ...
   19:00:10.800.27-Aug-2021 4697.00 7385.72 82.34 19.00 406.80 3064.88
   19:00:11.000.27-Aug-2021 4697.00 7385.77 82.34 19.00 407.00 3064.88
   19:00:11.200.27-Aug-2021 4697.00 7385.77 82.34 19.00 407.20 3064.88
   19:00:11.400.27-Aug-2021 4697.00 7384.39 82.34 19.00 407.40 3064.88
   19:00:11.600.27-Aug-2021 4697.00 7384.68 82.34 19.00 407.60 3064.88
   19:00:11.800.27-Aug-2021 4697.00 7384.37 82.34 19.00 407.80 3064.88
   19:00:12.000.27-Aug-2021 4697.00 7384.15 82.34 19.00 408.00 3064.88
   19:00:12.200.27-Aug-2021 4697.00 7384.15 82.34 19.00 408.20 3064.88
   19:00:12.400.27-Aug-2021 4697.00 7384.28 82.34 19.00 408.40 3064.88
   19:00:12.600.27-Aug-2021 4697.00 7383.92 82.34 19.00 408.60 3064.88
   19:00:12.800.27-Aug-2021 4697.00 7384.05 82.34 19.00 408.80 3064.88
   19:00:13.000.27-Aug-2021 4697.00 7383.98 82.34 19.00 409.00 3064.88
   19:00:13.200.27-Aug-2021 4697.00 7383.98 82.34 19.00 409.20 3064.88
   19:00:13.400.27-Aug-2021 4697.00 7383.78 82.34 19.00 409.40 3064.88
   19:00:13.600.27-Aug-2021 4697.00 7383.61 82.34 19.00 409.60 3064.88
   19:00:13.800.27-Aug-2021 4697.00 7383.46 82.34 19.00 409.80 3064.88
   19:00:14.000.27-Aug-2021 4697.00 7384.62 82.34 19.00 410.00 3064.88
   19:00:14.200.27-Aug-2021 4697.00 7384.62 82.34 19.00 410.20 3064.88
   19:00:14.400.27-Aug-2021 4697.00 7383.22 82.34 19.00 410.40 3064.88
   19:00:14.600.27-Aug-2021 4697.00 7384.28 82.34 19.00 410.60 3064.88
   19:00:14.800.27-Aug-2021 4697.00 7384.51 82.34 19.00 410.80 3064.88
   19:00:15.000.27-Aug-2021 4697.00 7383.89 82.34 19.00 411.00 3064.88
   19:00:15.200.27-Aug-2021 4697.00 7383.89 82.34 19.00 411.20 3064.88
   19:00:15.400.27-Aug-2021 4697.00 7383.28 82.34 19.00 411.40 3064.88
   19:00:15.600.27-Aug-2021 4697.00 7383.90 82.34 19.00 411.60 3064.88
   19:00:15.800.27-Aug-2021 4697.00 7383.66 82.34 19.00 411.80 3064.88
   19:00:16.000.27-Aug-2021 4697.00 7383.94 82.33 19.00 412.00 3064.88
   19:00:16.200.27-Aug-2021 4697.00 7383.94 82.33 19.00 412.20 3064.88
   19:00:16.400.27-Aug-2021 4697.00 7383.94 82.33 19.00 412.40 3064.88
   19:00:16.600.27-Aug-2021 4697.00 7383.94 82.33 19.00 412.60 3064.88
   19:00:16.800.27-Aug-2021 4697.00 7383.71 82.33 19.00 412.80 3064.88
   19:00:17.000.27-Aug-2021 4697.00 7383.58 82.33 19.00 413.00 3064.88
   19:00:17.200.27-Aug-2021 4697.00 7383.58 82.33 19.00 413.20 3064.88
   19:00:17.400.27-Aug-2021 4697.00 7384.31 82.33 19.00 413.40 3064.88
   19:00:17.600.27-Aug-2021 4697.00 7385.04 82.33 19.00 413.60 3064.88
   19:00:17.800.27-Aug-2021 4697.00 7383.11 82.33 19.00 413.80 3064.88
   19:00:18.000.27-Aug-2021 4697.00 7383.51 82.33 19.00 414.00 3064.88
   19:00:18.200.27-Aug-2021 4697.00 7383.51 82.33 19.00 414.20 3064.88
   19:00:18.400.27-Aug-2021 4697.00 7383.12 82.33 19.00 414.40 3064.88
   19:00:18.600.27-Aug-2021 4697.00 7384.38 82.33 19.00 414.60 3064.88
   19:00:18.800.27-Aug-2021 4697.00 7384.73 82.33 19.00 414.80 3064.88
   19:00:19.000.27-Aug-2021 4697.00 7383.20 82.33 19.00 415.00 3064.88
   19:00:19.200.27-Aug-2021 4697.00 7383.20 82.33 19.00 415.20 3064.88
   19:00:19.400.27-Aug-2021 4697.00 7383.53 82.33 19.00 415.40 3064.88
   19:00:19.600.27-Aug-2021 4697.00 7383.25 82.33 19.00 415.60 3064.88
   19:00:19.800.27-Aug-2021 4697.00 7383.35 82.33 19.00 415.80 3064.88
   19:00:20.000.27-Aug-2021 4697.00 7388.39 82.33 19.00 416.00 3064.88
   19:00:20.200.27-Aug-2021 4697.00 7388.39 82.33 19.00 416.20 3064.88
   19:00:20.400.27-Aug-2021 4697.00 7383.49 82.33 19.00 416.40 3064.88
   19:00:20.600.27-Aug-2021 4697.00 7383.88 82.33 19.00 416.60 3064.88
   19:00:20.800.27-Aug-2021 4697.00 7384.24 82.33 19.00 416.80 3064.88
   19:00:21.000.27-Aug-2021 4697.00 7382.74 82.33 19.00 417.00 3064.88
   19:00:21.200.27-Aug-2021 4697.00 7382.74 82.33 19.00 417.20 3064.88
   19:00:21.400.27-Aug-2021 4697.00 7381.59 82.33 19.00 417.40 3064.88
   19:00:21.600.27-Aug-2021 4697.00 7383.33 82.33 19.00 417.60 3064.88
   19:00:21.800.27-Aug-2021 4697.00 7383.27 82.33 19.00 417.80 3064.88
   19:00:22.000.27-Aug-2021 4697.00 7383.94 82.33 19.00 418.00 3064.88
   19:00:22.200.27-Aug-2021 4697.00 7383.94 82.33 19.00 418.20 3064.88
   19:00:22.400.27-Aug-2021 4697.00 7383.45 82.33 19.00 418.40 3064.88
   19:00:22.600.27-Aug-2021 4697.00 7383.06 82.33 19.00 418.60 3064.88
   19:00:22.800.27-Aug-2021 4697.00 7383.30 82.33 19.00 418.80 3064.88
   19:00:23.000.27-Aug-2021 4697.00 7382.97 82.32 19.00 419.00 3064.88
   19:00:23.200.27-Aug-2021 4697.00 7382.97 82.32 19.00 419.20 3064.88
   19:00:23.400.27-Aug-2021 4697.00 7383.01 82.32 19.00 419.40 3064.88
   19:00:23.600.27-Aug-2021 4697.00 7382.94 82.32 19.00 419.60 3064.88
   19:00:23.800.27-Aug-2021 4697.00 7382.85 82.32 19.00 419.80 3064.88
   19:00:24.000.27-Aug-2021 4697.00 7382.54 82.32 19.00 420.00 3064.88
   19:00:24.200.27-Aug-2021 4697.00 7382.54 82.32 19.00 420.20 3064.88
   19:00:24.400.27-Aug-2021 4697.00 7387.10 82.32 19.00 420.40 3064.88
   19:00:24.600.27-Aug-2021 4697.00 7380.63 82.32 19.00 420.60 3064.88
   19:00:24.800.27-Aug-2021 4697.00 7382.69 82.32 19.00 420.80 3064.88
   19:00:25.000.27-Aug-2021 4697.00 7382.85 82.32 19.00 421.00 3064.88
   19:00:25.200.27-Aug-2021 4697.00 7382.85 82.32 19.00 421.20 3064.88
   19:00:25.400.27-Aug-2021 4697.00 7382.01 82.32 19.00 421.40 3064.88
   19:00:25.600.27-Aug-2021 4697.00 7383.16 82.32 19.00 421.60 3064.88
   19:00:25.800.27-Aug-2021 4697.00 7382.63 82.32 19.00 421.80 3064.88
   19:00:26.000.27-Aug-2021 4697.00 7382.98 82.32 19.00 422.00 3064.88
   19:00:26.200.27-Aug-2021 4697.00 7382.98 82.32 19.00 422.20 3064.88
   19:00:26.400.27-Aug-2021 4697.00 7382.95 82.32 19.00 422.40 3064.88
   19:00:26.600.27-Aug-2021 4697.00 7382.66 82.32 19.00 422.60 3064.88
   19:00:26.800.27-Aug-2021 4697.00 7382.59 82.32 19.00 422.80 3064.88
   19:00:27.000.27-Aug-2021 4697.00 7382.58 82.32 19.00 423.00 3064.88
   19:00:27.200.27-Aug-2021 4697.00 7382.58 82.32 19.00 423.20 3064.88
   19:00:27.400.27-Aug-2021 4697.00 7382.48 82.32 19.00 423.40 3064.88
   19:00:27.600.27-Aug-2021 4697.00 7382.32 82.32 19.00 423.60 3064.88
   19:00:27.800.27-Aug-2021 4697.00 7387.11 82.32 19.00 423.80 3064.88
   19:00:28.000.27-Aug-2021 4697.00 7380.73 82.32 19.00 424.00 3064.88
   19:00:28.200.27-Aug-2021 4697.00 7380.73 82.32 19.00 424.20 3064.88
   19:00:28.400.27-Aug-2021 4697.00 7382.46 82.32 19.00 424.40 3064.88
   19:00:28.600.27-Aug-2021 4697.00 7382.79 82.32 19.00 424.60 3064.88
   19:00:28.800.27-Aug-2021 4697.00 7381.43 82.32 19.00 424.80 3064.88
   19:00:29.000.27-Aug-2021 4697.00 7388.06 82.32 19.00 425.00 3064.88
   19:00:29.200.27-Aug-2021 4697.00 7388.06 82.32 19.00 425.20 3064.88
   19:00:29.400.27-Aug-2021 4697.00 7382.92 82.32 19.00 425.40 3064.88
   19:00:29.600.27-Aug-2021 4697.00 7382.34 82.32 19.00 425.60 3064.88
   19:00:29.800.27-Aug-2021 4697.00 7383.19 82.32 19.00 425.80 3064.88
   19:00:30.000.27-Aug-2021 4697.00 7381.49 82.32 19.00 426.00 3064.88
   19:00:30.200.27-Aug-2021 4697.00 7381.49 82.32 19.00 426.20 3064.88
   19:00:30.400.27-Aug-2021 4697.00 7387.01 82.32 19.00 426.40 3064.88
   19:00:30.600.27-Aug-2021 4697.00 7380.56 82.32 19.00 426.60 3064.88
   19:00:30.800.27-Aug-2021 4697.00 7382.09 82.32 19.00 426.80 3064.88
   19:00:31.000.27-Aug-2021 4697.00 7382.29 82.32 19.00 427.00 3064.88
   19:00:31.200.27-Aug-2021 4697.00 7382.29 82.32 19.00 427.20 3064.88
   19:00:31.400.27-Aug-2021 4697.00 7378.34 82.31 19.00 427.40 3064.88
   19:00:31.600.27-Aug-2021 4697.00 7382.35 82.31 19.00 427.60 3064.88
   19:00:31.800.27-Aug-2021 4697.00 7381.98 82.31 19.00 427.80 3064.88
   19:00:32.000.27-Aug-2021 4697.00 7382.72 82.31 19.00 428.00 3064.88
   19:00:32.200.27-Aug-2021 4697.00 7382.72 82.31 19.00 428.20 3064.88
   19:00:32.400.27-Aug-2021 4697.00 7382.26 82.31 19.00 428.40 3064.88
   19:00:32.600.27-Aug-2021 4697.00 7382.34 82.31 19.00 428.60 3064.88
   19:00:32.800.27-Aug-2021 4697.00 7382.12 82.31 19.00 428.80 3064.88
   19:00:33.000.27-Aug-2021 4697.00 7381.94 82.31 19.00 429.00 3064.88
   19:00:33.200.27-Aug-2021 4697.00 7381.94 82.31 19.00 429.20 3064.88
