~Version Information
 VERS.                  2.0:   CWLS log ASCII Standard -VERSION 2.0
 WRAP.                   NO:   One line per depth step
~Well Information Block
#MNEM.UNIT     VALUE/NAME     DESCRIPTION
#---------     -----------    ---------------------------
 STRT.S             02:31:31 28-Aug-21: START TIME 02:31:31 28-Aug-21
 STOP.S             02:38:23 28-Aug-21: STOP TIME  02:38:23 28-Aug-21
 STEP.S                   0.00: STEP TIME
 NULL.                 -999.25: NULL VALUE
 DFWT.                        :  DIST FWL TEXT
 DFST.                        :  DIST FSL TEXT
 DMF .             Drill Floor:  DRILL MEAS FROM
 STIM.      20.00.00 17-Aug-21:  START TIME
 DATE.      19.00.00 29-Aug-21:  END TIME
 SPUD.               15-Aug-21:  SPUD DATE
 NREF.                    Grid:  NORTH REFERENCE
 HPTY.       Minimum Curvature:  HOLE POS TYPE
 DMOD.             Drill Model:  DRILL MOD DESC
 SVYD.                  Survey:  SURVEY DESC
 ILTD.               Lithology:  INTERP LTH DESC
 FTOP.          Formation Tops:  FORM TOPS DESC
 RIG .              East Azeri:  RIG NAME
 PDAT.          Mean Sea Level:  PERMANENT DATUM
 FLD .                     ACG:  FIELD NAME
 SON .        AZ-XX-0907180857:  JOB NUMBER
 CTRY.              Azerbaijan:  COUNTRY NAME
 WELL.                    D23x:  WELL NAME
 SRVC.     Turan Drilling and Engineering:  CONTRACTOR
 COMP.     BP Exploration (Caspian Sea) Ltd.:  COMPANY
 UWI .            /AZE00000214:  UNIQUE WELL IDENTIFIER
 API .            /AZE00000214:  API NUMBER
 MDS .        Operator Entered:  MAG DATA SOURCE
 BASE.              Azerbaijan:  LOGGING EQUIPMENT BASE LOCATION
 REGN.                   EESSA:  REGION
 PROV.                    Baku:  PROVINCE
 STAT.                    Baku:  STATE NAME
 MWDS.                    Baku:  MWD SHOP
 DOE .                     N/A:  DOE NUMBER
 DCON.         Sperry Drilling:  DIRECTNL CONTR
 UNIT.                     N/A:  LOGGING EQUIPMENT ID
 WTYP.                Deviated:  WELL TYPE
 CNTY.                        :  COUNTY
 LOC .                        :  LOCATION
 LMF .             Drill Floor:  LOG MEASURED FROM
 TVDS.m                  43.60:  TVDSS CORRECTN
 LATI.deg                40.02:  LATITUDE
 LONG.deg                51.45:  LONGITUDE
 WHNS.m                  -7.04:  WELL HEAD N/S
 WHEW.m                  -0.67:  WELL HEAD E/W
 UTMX.m              538762.90:  UTM X
 UTMY.m             4431871.34:  UTM Y
 DFWL.m                   0.00:  DISTANCE FWL
 DFSL.m                   0.00:  DISTANCE FSL
 SDEP.m                4127.00:  START DEPTH
 TDD .m                5084.50:  TOTAL DEPTH (DRILLER)
 VSDR.deg               140.47:  VERT SEC DIRECT
 GVFD.g                   1.00:  GRAVITY FIELD
 MFLD.nT              50362.00:  MAGNETIC FIELD
 MDIP.deg                59.48:  MAGNETIC DIP
 MDEC.deg                 6.47:  MAGNETIC DECL
 GRDC.deg                 0.31:  GRID CORRECTION
 AZTC.deg                 6.16:  AZM TOTAL CORR
 EPD .m                   0.00:  ELEVATION
 EGL .m                   0.00:  GROUND ELEVATION
 WDMS.m                 151.80:  WD ELEV
 APD .m                  43.60:  DEPTH ABOVE PD
 DEP .m                4092.57:  DEPTH
 AGAP.m                  43.60:  AIR GAP
 VSEW.m                  -0.67:  VERT SEC E/W
 VSNS.m                  -7.04:  VERT SEC N/S
 EKB .m                  43.60:  KB ELEVATION
 EDF .m                  43.60:  DF ELEVATION
 TDL .m                 957.50:  TOTAL DEPTH (LOGGER)
 VSC .                       0:  VS TO CLOSURE
 MAGU.                 1851413:  MAGUTM CHECKSUM
~Parameter Information Block
#MNEM.UNIT       Value        Description
#---------     -----------    ---------------------------
 AV  .mps                 1.50:  Ann Velocity 
 AVMX.mps                 2.00:  Max Ann Veloc 
 AZIF.deg               184.66:  Azm, Final 
 BHAT.        Rotary Steerable:  BHA Type 
 BREV.rev               300.00:  Rev Bit Total 
 BROT.°/30m              -0.50:  Build Rotating 
 BS  .in                  8.50:  Bit Size 
 BSZ .in                  8.50:  Bit Size 
 BTPL.psig              370.00:  Bit Press Loss 
 CABU.                      No:  Customer Abuse 
 CGEO.      Behruz Shahbaliyev:  Customer Geo 
 COMM.                     Œjp:  Run Comments 1 
 TCS .hr                140.08:  Time Ciculation Ended 
 CV  .mps                 3.00:  Crit Velocity 
 CVMX.mps                 3.20:  Max Crit Veloc 
 DD1 .            Musa Ahmadov:  Direct Drillr 1 
 DD2 .           Hamid Ahmadov:  Direct Drillr 2 
 DDSV.               Geo-Pilot:  DD Service 
 DEFF.%                  98.40:  % Det Eff 
 DLRX.°/30m               3.40:  Dogleg Rot Max 
 DLSO.°/30m               1.45:  Dogleg Oriented 
 DLSX.°/30m               3.40:  Dogleg Str Max 
 DRET.      18.40.00 29-Aug-21:  Drill End Time 
 DRST.      21.00.00 20-Aug-21:  Drill Start Tim 
 DTIM.hr                 69.47:  Time Drilling 
 EDEP.m                5084.50:  End Depth 
 ENG1.      Artemiy Matviyanov:  Engineer 1 
 ENG2.         Almaz Almadatov:  Engineer 2 
 ETIM.      18.40.00 29-Aug-21:  End Time 
 FLOI.gpm               500.00:  Flow In 
 FLON.gpm               400.00:  Flow In Min 
 FLOS.cptm                0.00:  Fluid Loss 
 FLOX.gpm               500.00:  Flow In Max 
 DFT .        Mineral Oil Base:  Mud Type 
 HFLO.                      No:  High Flow 
 HPRE.                      No:  High Pressure 
 HTEM.                      No:  High Temp 
 HYDO.m                   1.80:  Hydro Offset 
 IFIN.deg                25.62:  Inc, Final 
 IMAX.deg                48.69:  Inc Max 
 IMIN.deg                24.01:  Inc Min 
 IMND.m                4962.57:  Inc Min Depth 
 IMXD.m                4119.01:  Inc Max Depth 
 JARR.                      No:  Jarring 
 LETM.      18.40.00 29-Aug-21:  Log End Time 
 LOST.hr                     0:  Lost Rig Time 
 LSTM.      21.00.00 20-Aug-21:  Log Start Time 
 MDCL.ppm             41500.00:  Mud Chlorides 
 MDES.     Inversion Oil/Synthetic:  Mud Desc 
 DFD .sg                  1.56:  Mud Density 
 MDMN.sg                  1.56:  Dens Mud Min 
 MDMX.sg                  1.56:  Dens Mud Max 
 MOIL.                      70:  Run Mud Oil % 
 MOWR.                   70:30:  Run Mud OWR 
 MSND.                     0.2:  Run Mud Sand % 
 MSOL.                    23.3:  Run Mud Solids% 
 DFV .spqt               78.00:  Mud Viscosity 
 MWOD.in                  6.75:  MWD Tool OD 
 MWSI.                      No:  Serv Intrp, MWD 
 OTIM.hr                218.30:  Time Operating 
 PCON.           Look Like New:  Pad Condition 
 PMAX.psia            11015.30:  Press Op, Max 
 PV  .cP                 38.00:  Mud PV 
 RUN .                     300:  Run Number 
 ROPA.m/hr               15.00:  ROP Avg 
 ROPN.m/hr                9.00:  ROP Min 
 ROPX.m/hr               17.00:  ROP Max 
 RPMA.rpm               120.00:  RPM Surface Avg 
 RPMN.rpm                90.00:  RPM Surface Min 
 RPMX.rpm               140.00:  RPM Surface Max 
 RRUN.                     300:  Rig Run Number 
 RTIM.hr                 31.53:  Time Reaming 
 SAZI.deg               331.64:  Azm, Start 
 SDEP.m                4127.00:  Start Depth 
 SIDD.                      No:  Serv Intrp, DD 
 SINC.deg                48.43:  Inc, Start 
 SPPA.psig             5830.00:  SPP Avg 
 SPPN.psig             5600.00:  SPP Min 
 SPPX.psig             5900.00:  SPP Max 
 STIM.      21.00.00 20-Aug-21:  Start Time 
 SVCS.                 DD, MWD:  Services 
 SVER.                    9.20:  Sperry Version 
 TDAT.m                 957.50:  Tot Depth Attmp 
 TDDF.                      No:  Trip for DD 
 TDLG.m                 957.50:  Tot Depth Loggd 
 TFF .                      No:  Trip for Fail 
 TQAA.f-kp               15.00:  Torque Abs Avg 
 TQAN.f-kp               12.00:  Torque Abs Min 
 TQAX.f-kp               19.00:  Torque Abs Max 
 TRRT.°/30m              -3.40:  Turn Rotating 
 MRT .                  EWR-M5:  Maximum Recorded Temperature 
 TTMX.degC              100.00:  Max Tool Temp 
 VS01.                90639251:  Virtual Str1 SN 
 VS02.                90634715:  Virtual Str2 SN 
 VS03.                90652479:  Virtual Str3 SN 
 VS04.                90642262:  Virtual Str4 SN 
 WBMN.klb                 0.00:  WOB Min 
 WITN.           Murad Guliyev:  Customer Rep 
 WITN.          Yashar Gaziyev:  Customer Rep 2 
 WOBA.klb                 9.00:  WOB Avg 
 WOBX.klb                12.00:  WOB Max 
 YP  .lhf2               30.00:  Yield Point 
~Curve Information Block
#MNEM.UNIT                 API CODE     Curve Description
#---------               -----------    ---------------------------
 TIME.HHMMSS            00 000 000 000:  GT Time & Date
 GTDEPTH.m              00 000 000 000:  GT Depth
 GTPQH.psia             00 000 000 000:  GT HR Quartz Pressure
 GTTQ.degC              00 000 000 000:  GT Quartz Temperature
 GTTN.NONE              00 000 000 000:  GT Test Number
 GTET.sec               00 000 000 000:  GT Elapsed Test Time
 GTTVD.m                00 000 000 000:  GT True Vertical Depth
#Other Information
#
#WARRANTY: Halliburton will use its best efforts to furnish customers with 
#accurate information and interpretations that are part of, and incident to, the services 
#provided.  However, Halliburton cannot and does not warrant the accuracy 
#or correctness of such information and interpretations.  Under no circumstances should any 
#such information or interpretation be relied upon as the sole basis for any drilling, 
#completion, production, or financial decision or any procedure involving any risk to the 
#safety of any drilling venture, drilling rig or its crew or any other third party.  The 
#Customer has full responsibility for all drilling, completion and production operation.  
#Halliburton makes no representations or warranties, either expressed or 
#implied, including, but not limited to, the implied warranties of merchantability or fitness 
#for a particular purpose, with respect to the services rendered.  In no event will 
#Halliburton be liable for failure to obtain any particular results or for 
#any damages, including, but not limited to, indirect, special or consequential damages, 
#resulting from the use of any information or interpretation provided by Halliburton.
#
~A           TIME           GTDEPTH  GTPQH  GTTQ  GTTN   GTET   GTTVD  
# ...
   02:31:54.595.28-Aug-2021 4891.00 7756.71 80.70 28.00  22.61 3240.41
   02:31:54.796.28-Aug-2021 4891.00 7756.84 80.70 28.00  22.81 3240.41
   02:31:54.996.28-Aug-2021 4891.00 7756.98 80.70 28.00  23.01 3240.41
   02:31:55.196.28-Aug-2021 4891.00 7756.98 80.70 28.00  23.21 3240.41
   02:31:55.396.28-Aug-2021 4891.00 7762.02 80.70 28.00  23.41 3240.41
   02:31:55.596.28-Aug-2021 4891.00 7754.63 80.70 28.00  23.61 3240.41
   02:31:55.796.28-Aug-2021 4891.00 7758.35 80.70 28.00  23.81 3240.41
   02:31:55.996.28-Aug-2021 4891.00 7757.45 80.70 28.00  24.01 3240.41
   02:31:56.196.28-Aug-2021 4891.00 7757.45 80.70 28.00  24.21 3240.41
   02:31:56.396.28-Aug-2021 4891.00 7756.15 80.70 28.00  24.41 3240.41
   02:31:56.596.28-Aug-2021 4891.00 7758.58 80.70 28.00  24.61 3240.41
   02:31:56.796.28-Aug-2021 4891.00 7757.91 80.70 28.00  24.81 3240.41
   02:31:56.996.28-Aug-2021 4891.00 7757.91 80.70 28.00  25.01 3240.41
   02:31:57.196.28-Aug-2021 4891.00 7757.91 80.70 28.00  25.21 3240.41
   02:31:57.396.28-Aug-2021 4891.00 7759.48 80.70 28.00  25.41 3240.41
   02:31:57.596.28-Aug-2021 4891.00 7759.23 80.70 28.00  25.61 3240.41
   02:31:57.796.28-Aug-2021 4891.00 7759.56 80.70 28.00  25.81 3240.41
   02:31:57.997.28-Aug-2021 4891.00 7759.51 80.70 28.00  26.01 3240.41
   02:31:58.197.28-Aug-2021 4891.00 7759.51 80.70 28.00  26.21 3240.41
   02:31:58.397.28-Aug-2021 4891.00 7759.36 80.70 28.00  26.41 3240.41
   02:31:58.597.28-Aug-2021 4891.00 7763.90 80.70 28.00  26.61 3240.41
   02:31:58.797.28-Aug-2021 4891.00 7757.82 80.70 28.00  26.81 3240.41
   02:31:58.997.28-Aug-2021 4891.00 7760.92 80.70 28.00  27.01 3240.41
   02:31:59.197.28-Aug-2021 4891.00 7760.92 80.70 28.00  27.21 3240.41
   02:31:59.397.28-Aug-2021 4891.00 7760.44 80.70 28.00  27.41 3240.41
   02:31:59.597.28-Aug-2021 4891.00 7760.69 80.70 28.00  27.61 3240.41
   02:31:59.797.28-Aug-2021 4891.00 7760.51 80.70 28.00  27.81 3240.41
   02:31:59.997.28-Aug-2021 4891.00 7760.45 80.70 28.00  28.01 3240.41
   02:32:00.197.28-Aug-2021 4891.00 7760.45 80.70 28.00  28.21 3240.41
   02:32:00.397.28-Aug-2021 4891.00 7761.39 80.70 28.00  28.41 3240.41
   02:32:00.597.28-Aug-2021 4891.00 7761.53 80.70 28.00  28.61 3240.41
   02:32:00.797.28-Aug-2021 4891.00 7761.95 80.70 28.00  28.81 3240.41
   02:32:00.997.28-Aug-2021 4891.00 7761.92 80.70 28.00  29.01 3240.41
   02:32:01.198.28-Aug-2021 4891.00 7761.92 80.70 28.00  29.21 3240.41
   02:32:01.398.28-Aug-2021 4891.00 7762.04 80.70 28.00  29.41 3240.41
   02:32:01.598.28-Aug-2021 4891.00 7762.23 80.70 28.00  29.61 3240.41
   02:32:01.798.28-Aug-2021 4891.00 7767.54 80.70 28.00  29.81 3240.41
   02:32:01.998.28-Aug-2021 4891.00 7760.36 80.70 28.00  30.01 3240.41
   02:32:02.198.28-Aug-2021 4891.00 7760.36 80.70 28.00  30.21 3240.41
   02:32:02.398.28-Aug-2021 4891.00 7763.91 80.70 28.00  30.41 3240.41
   02:32:02.598.28-Aug-2021 4891.00 7762.88 80.70 28.00  30.61 3240.41
   02:32:02.798.28-Aug-2021 4891.00 7762.97 80.70 28.00  30.81 3240.41
   02:32:02.998.28-Aug-2021 4891.00 7762.66 80.70 28.00  31.01 3240.41
   02:32:03.198.28-Aug-2021 4891.00 7762.66 80.70 28.00  31.21 3240.41
   02:32:03.398.28-Aug-2021 4891.00 7763.16 80.70 28.00  31.41 3240.41
   02:32:03.598.28-Aug-2021 4891.00 7763.40 80.70 28.00  31.61 3240.41
   02:32:03.798.28-Aug-2021 4891.00 7763.98 80.70 28.00  31.81 3240.41
   02:32:03.998.28-Aug-2021 4891.00 7764.17 80.70 28.00  32.01 3240.41
   02:32:04.198.28-Aug-2021 4891.00 7764.17 80.70 28.00  32.21 3240.41
   02:32:04.399.28-Aug-2021 4891.00 7764.39 80.70 28.00  32.41 3240.41
   02:32:04.599.28-Aug-2021 4891.00 7764.64 80.70 28.00  32.61 3240.41
   02:32:04.799.28-Aug-2021 4891.00 7764.59 80.70 28.00  32.81 3240.41
   02:32:04.999.28-Aug-2021 4891.00 7764.72 80.70 28.00  33.01 3240.41
   02:32:05.199.28-Aug-2021 4891.00 7764.72 80.70 28.00  33.21 3240.41
   02:32:05.399.28-Aug-2021 4891.00 7762.55 80.70 28.00  33.41 3240.41
   02:32:05.599.28-Aug-2021 4891.00 7766.42 80.70 28.00  33.61 3240.41
   02:32:05.799.28-Aug-2021 4891.00 7765.40 80.69 28.00  33.81 3240.41
   02:32:05.999.28-Aug-2021 4891.00 7769.38 80.69 28.00  34.01 3240.41
   02:32:06.199.28-Aug-2021 4891.00 7769.38 80.69 28.00  34.21 3240.41
   02:32:06.399.28-Aug-2021 4891.00 7761.46 80.69 28.00  34.41 3240.41
   02:32:06.599.28-Aug-2021 4891.00 7763.82 80.69 28.00  34.61 3240.41
   02:32:06.799.28-Aug-2021 4891.00 7764.36 80.69 28.00  34.81 3240.41
   02:32:06.999.28-Aug-2021 4891.00 7764.30 80.69 28.00  35.01 3240.41
   02:32:07.199.28-Aug-2021 4891.00 7764.30 80.69 28.00  35.21 3240.41
   02:32:07.399.28-Aug-2021 4891.00 7762.31 80.69 28.00  35.41 3240.41
   02:32:07.600.28-Aug-2021 4891.00 7766.53 80.69 28.00  35.61 3240.41
   02:32:07.800.28-Aug-2021 4891.00 7765.38 80.69 28.00  35.81 3240.41
   02:32:08.000.28-Aug-2021 4891.00 7765.83 80.69 28.00  36.01 3240.41
   02:32:08.200.28-Aug-2021 4891.00 7765.83 80.69 28.00  36.21 3240.41
   02:32:08.400.28-Aug-2021 4891.00 7765.68 80.69 28.00  36.41 3240.41
   02:32:08.600.28-Aug-2021 4891.00 7766.66 80.69 28.00  36.61 3240.41
   02:32:08.800.28-Aug-2021 4891.00 7766.11 80.69 28.00  36.81 3240.41
   02:32:09.000.28-Aug-2021 4891.00 7765.93 80.69 28.00  37.01 3240.41
   02:32:09.200.28-Aug-2021 4891.00 7765.93 80.69 28.00  37.21 3240.41
   02:32:09.400.28-Aug-2021 4891.00 7766.35 80.69 28.00  37.41 3240.41
   02:32:09.600.28-Aug-2021 4891.00 7765.89 80.69 28.00  37.61 3240.41
   02:32:09.800.28-Aug-2021 4891.00 7766.50 80.69 28.00  37.81 3240.41
   02:32:10.000.28-Aug-2021 4891.00 7766.87 80.69 28.00  38.01 3240.41
   02:32:10.200.28-Aug-2021 4891.00 7766.87 80.69 28.00  38.21 3240.41
   02:32:10.400.28-Aug-2021 4891.00 7767.03 80.69 28.00  38.41 3240.41
   02:32:10.600.28-Aug-2021 4891.00 7767.23 80.69 28.00  38.61 3240.41
   02:32:10.801.28-Aug-2021 4891.00 7767.32 80.69 28.00  38.81 3240.41
   02:32:11.001.28-Aug-2021 4891.00 7767.29 80.69 28.00  39.01 3240.41
   02:32:11.201.28-Aug-2021 4891.00 7767.29 80.69 28.00  39.21 3240.41
   02:32:11.401.28-Aug-2021 4891.00 7767.21 80.69 28.00  39.41 3240.41
   02:32:11.601.28-Aug-2021 4891.00 7767.37 80.69 28.00  39.61 3240.41
   02:32:11.801.28-Aug-2021 4891.00 7772.54 80.69 28.00  39.81 3240.41
   02:32:12.001.28-Aug-2021 4891.00 7765.28 80.69 28.00  40.01 3240.41
   02:32:12.201.28-Aug-2021 4891.00 7765.28 80.69 28.00  40.21 3240.41
   02:32:12.401.28-Aug-2021 4891.00 7767.86 80.69 28.00  40.41 3240.41
   02:32:12.601.28-Aug-2021 4891.00 7767.66 80.69 28.00  40.61 3240.41
   02:32:12.801.28-Aug-2021 4891.00 7767.72 80.69 28.00  40.81 3240.41
   02:32:13.001.28-Aug-2021 4891.00 7767.40 80.69 28.00  41.01 3240.41
   02:32:13.201.28-Aug-2021 4891.00 7767.40 80.69 28.00  41.21 3240.41
   02:32:13.401.28-Aug-2021 4891.00 7767.96 80.69 28.00  41.41 3240.41
   02:32:13.601.28-Aug-2021 4891.00 7768.23 80.69 28.00  41.61 3240.41
   02:32:13.801.28-Aug-2021 4891.00 7768.79 80.69 28.00  41.81 3240.41
   02:32:14.002.28-Aug-2021 4891.00 7769.00 80.69 28.00  42.01 3240.41
   02:32:14.202.28-Aug-2021 4891.00 7769.00 80.69 28.00  42.21 3240.41
   02:32:14.402.28-Aug-2021 4891.00 7769.15 80.69 28.00  42.41 3240.41
   02:32:14.602.28-Aug-2021 4891.00 7769.34 80.69 28.00  42.61 3240.41
   02:32:14.802.28-Aug-2021 4891.00 7769.21 80.69 28.00  42.81 3240.41
   02:32:15.002.28-Aug-2021 4891.00 7774.58 80.69 28.00  43.01 3240.41
   02:32:15.202.28-Aug-2021 4891.00 7774.58 80.69 28.00  43.21 3240.41
   02:32:15.402.28-Aug-2021 4891.00 7770.62 80.69 28.00  43.41 3240.41
   02:32:15.602.28-Aug-2021 4891.00 7770.57 80.69 28.00  43.61 3240.41
   02:32:15.802.28-Aug-2021 4891.00 7770.74 80.69 28.00  43.81 3240.41
   02:32:16.002.28-Aug-2021 4891.00 7770.79 80.69 28.00  44.01 3240.41
   02:32:16.202.28-Aug-2021 4891.00 7770.79 80.69 28.00  44.21 3240.41
   02:32:16.402.28-Aug-2021 4891.00 7768.28 80.69 28.00  44.41 3240.41
   02:32:16.602.28-Aug-2021 4891.00 7772.44 80.69 28.00  44.61 3240.41
   02:32:16.802.28-Aug-2021 4891.00 7771.55 80.69 28.00  44.81 3240.41
   02:32:17.002.28-Aug-2021 4891.00 7771.88 80.69 28.00  45.01 3240.41
