~Version Information
 VERS.                  2.0:   CWLS log ASCII Standard -VERSION 2.0
 WRAP.                   NO:   One line per depth step
~Well Information Block
#MNEM.UNIT     VALUE/NAME     DESCRIPTION
#---------     -----------    ---------------------------
 STRT.S             22:57:07 27-Aug-21: START TIME 22:57:07 27-Aug-21
 STOP.S             23:04:14 27-Aug-21: STOP TIME  23:04:14 27-Aug-21
 STEP.S                   0.00: STEP TIME
 NULL.                 -999.25: NULL VALUE
 DFWT.                        :  DIST FWL TEXT
 DFST.                        :  DIST FSL TEXT
 DMF .             Drill Floor:  DRILL MEAS FROM
 STIM.      20.00.00 17-Aug-21:  START TIME
 DATE.      19.00.00 29-Aug-21:  END TIME
 SPUD.               15-Aug-21:  SPUD DATE
 NREF.                    Grid:  NORTH REFERENCE
 HPTY.       Minimum Curvature:  HOLE POS TYPE
 DMOD.             Drill Model:  DRILL MOD DESC
 SVYD.                  Survey:  SURVEY DESC
 ILTD.               Lithology:  INTERP LTH DESC
 FTOP.          Formation Tops:  FORM TOPS DESC
 RIG .              East Azeri:  RIG NAME
 PDAT.          Mean Sea Level:  PERMANENT DATUM
 FLD .                     ACG:  FIELD NAME
 SON .        AZ-XX-0907180857:  JOB NUMBER
 CTRY.              Azerbaijan:  COUNTRY NAME
 WELL.                    D23x:  WELL NAME
 SRVC.     Turan Drilling and Engineering:  CONTRACTOR
 COMP.     BP Exploration (Caspian Sea) Ltd.:  COMPANY
 UWI .            /AZE00000214:  UNIQUE WELL IDENTIFIER
 API .            /AZE00000214:  API NUMBER
 MDS .        Operator Entered:  MAG DATA SOURCE
 BASE.              Azerbaijan:  LOGGING EQUIPMENT BASE LOCATION
 REGN.                   EESSA:  REGION
 PROV.                    Baku:  PROVINCE
 STAT.                    Baku:  STATE NAME
 MWDS.                    Baku:  MWD SHOP
 DOE .                     N/A:  DOE NUMBER
 DCON.         Sperry Drilling:  DIRECTNL CONTR
 UNIT.                     N/A:  LOGGING EQUIPMENT ID
 WTYP.                Deviated:  WELL TYPE
 CNTY.                        :  COUNTY
 LOC .                        :  LOCATION
 LMF .             Drill Floor:  LOG MEASURED FROM
 TVDS.m                  43.60:  TVDSS CORRECTN
 LATI.deg                40.02:  LATITUDE
 LONG.deg                51.45:  LONGITUDE
 WHNS.m                  -7.04:  WELL HEAD N/S
 WHEW.m                  -0.67:  WELL HEAD E/W
 UTMX.m              538762.90:  UTM X
 UTMY.m             4431871.34:  UTM Y
 DFWL.m                   0.00:  DISTANCE FWL
 DFSL.m                   0.00:  DISTANCE FSL
 SDEP.m                4127.00:  START DEPTH
 TDD .m                5084.50:  TOTAL DEPTH (DRILLER)
 VSDR.deg               140.47:  VERT SEC DIRECT
 GVFD.g                   1.00:  GRAVITY FIELD
 MFLD.nT              50362.00:  MAGNETIC FIELD
 MDIP.deg                59.48:  MAGNETIC DIP
 MDEC.deg                 6.47:  MAGNETIC DECL
 GRDC.deg                 0.31:  GRID CORRECTION
 AZTC.deg                 6.16:  AZM TOTAL CORR
 EPD .m                   0.00:  ELEVATION
 EGL .m                   0.00:  GROUND ELEVATION
 WDMS.m                 151.80:  WD ELEV
 APD .m                  43.60:  DEPTH ABOVE PD
 DEP .m                4092.57:  DEPTH
 AGAP.m                  43.60:  AIR GAP
 VSEW.m                  -0.67:  VERT SEC E/W
 VSNS.m                  -7.04:  VERT SEC N/S
 EKB .m                  43.60:  KB ELEVATION
 EDF .m                  43.60:  DF ELEVATION
 TDL .m                 957.50:  TOTAL DEPTH (LOGGER)
 VSC .                       0:  VS TO CLOSURE
 MAGU.                 1851413:  MAGUTM CHECKSUM
~Parameter Information Block
#MNEM.UNIT       Value        Description
#---------     -----------    ---------------------------
 AV  .mps                 1.50:  Ann Velocity 
 AVMX.mps                 2.00:  Max Ann Veloc 
 AZIF.deg               184.66:  Azm, Final 
 BHAT.        Rotary Steerable:  BHA Type 
 BREV.rev               300.00:  Rev Bit Total 
 BROT.°/30m              -0.50:  Build Rotating 
 BS  .in                  8.50:  Bit Size 
 BSZ .in                  8.50:  Bit Size 
 BTPL.psig              370.00:  Bit Press Loss 
 CABU.                      No:  Customer Abuse 
 CGEO.      Behruz Shahbaliyev:  Customer Geo 
 TCS .hr                140.08:  Time Ciculation Ended 
 CV  .mps                 3.00:  Crit Velocity 
 CVMX.mps                 3.20:  Max Crit Veloc 
 DD1 .            Musa Ahmadov:  Direct Drillr 1 
 DD2 .           Hamid Ahmadov:  Direct Drillr 2 
 DDSV.               Geo-Pilot:  DD Service 
 DEFF.%                  98.40:  % Det Eff 
 DLRX.°/30m               3.40:  Dogleg Rot Max 
 DLSO.°/30m               1.45:  Dogleg Oriented 
 DLSX.°/30m               3.40:  Dogleg Str Max 
 DRET.      18.40.00 29-Aug-21:  Drill End Time 
 DRST.      21.00.00 20-Aug-21:  Drill Start Tim 
 DTIM.hr                 69.47:  Time Drilling 
 EDEP.m                5084.50:  End Depth 
 ENG1.      Artemiy Matviyanov:  Engineer 1 
 ENG2.         Almaz Almadatov:  Engineer 2 
 ETIM.      18.40.00 29-Aug-21:  End Time 
 FLOI.gpm               500.00:  Flow In 
 FLON.gpm               400.00:  Flow In Min 
 FLOS.cptm                0.00:  Fluid Loss 
 FLOX.gpm               500.00:  Flow In Max 
 DFT .        Mineral Oil Base:  Mud Type 
 HFLO.                      No:  High Flow 
 HPRE.                      No:  High Pressure 
 HTEM.                      No:  High Temp 
 HYDO.m                   1.80:  Hydro Offset 
 IFIN.deg                25.62:  Inc, Final 
 IMAX.deg                48.69:  Inc Max 
 IMIN.deg                24.01:  Inc Min 
 IMND.m                4962.57:  Inc Min Depth 
 IMXD.m                4119.01:  Inc Max Depth 
 JARR.                      No:  Jarring 
 LETM.      18.40.00 29-Aug-21:  Log End Time 
 LOST.hr                     0:  Lost Rig Time 
 LSTM.      21.00.00 20-Aug-21:  Log Start Time 
 MDCL.ppm             41500.00:  Mud Chlorides 
 MDES.     Inversion Oil/Synthetic:  Mud Desc 
 DFD .sg                  1.56:  Mud Density 
 MDMN.sg                  1.56:  Dens Mud Min 
 MDMX.sg                  1.56:  Dens Mud Max 
 MOIL.                      70:  Run Mud Oil % 
 MOWR.                   70:30:  Run Mud OWR 
 MSND.                     0.2:  Run Mud Sand % 
 MSOL.                    23.3:  Run Mud Solids% 
 DFV .spqt               78.00:  Mud Viscosity 
 MWOD.in                  6.75:  MWD Tool OD 
 MWSI.                      No:  Serv Intrp, MWD 
 OTIM.hr                218.30:  Time Operating 
 PCON.           Look Like New:  Pad Condition 
 PMAX.psia            11015.30:  Press Op, Max 
 PV  .cP                 38.00:  Mud PV 
 RUN .                     300:  Run Number 
 ROPA.m/hr               15.00:  ROP Avg 
 ROPN.m/hr                9.00:  ROP Min 
 ROPX.m/hr               17.00:  ROP Max 
 RPMA.rpm               120.00:  RPM Surface Avg 
 RPMN.rpm                90.00:  RPM Surface Min 
 RPMX.rpm               140.00:  RPM Surface Max 
 RRUN.                     300:  Rig Run Number 
 RTIM.hr                 31.53:  Time Reaming 
 SAZI.deg               331.64:  Azm, Start 
 SDEP.m                4127.00:  Start Depth 
 SIDD.                      No:  Serv Intrp, DD 
 SINC.deg                48.43:  Inc, Start 
 SPPA.psig             5830.00:  SPP Avg 
 SPPN.psig             5600.00:  SPP Min 
 SPPX.psig             5900.00:  SPP Max 
 STIM.      21.00.00 20-Aug-21:  Start Time 
 SVCS.                 DD, MWD:  Services 
 SVER.                    9.20:  Sperry Version 
 TDAT.m                 957.50:  Tot Depth Attmp 
 TDDF.                      No:  Trip for DD 
 TDLG.m                 957.50:  Tot Depth Loggd 
 TFF .                      No:  Trip for Fail 
 TQAA.f-kp               15.00:  Torque Abs Avg 
 TQAN.f-kp               12.00:  Torque Abs Min 
 TQAX.f-kp               19.00:  Torque Abs Max 
 TRRT.°/30m              -3.40:  Turn Rotating 
 MRT .                  EWR-M5:  Maximum Recorded Temperature 
 TTMX.degC              100.00:  Max Tool Temp 
 VS01.                90639251:  Virtual Str1 SN 
 VS02.                90634715:  Virtual Str2 SN 
 VS03.                90652479:  Virtual Str3 SN 
 VS04.                90642262:  Virtual Str4 SN 
 WBMN.klb                 0.00:  WOB Min 
 WITN.           Murad Guliyev:  Customer Rep 
 WITN.          Yashar Gaziyev:  Customer Rep 2 
 WOBA.klb                 9.00:  WOB Avg 
 WOBX.klb                12.00:  WOB Max 
 YP  .lhf2               30.00:  Yield Point 
~Curve Information Block
#MNEM.UNIT                 API CODE     Curve Description
#---------               -----------    ---------------------------
 TIME.HHMMSS            00 000 000 000:  GT Time & Date
 GTDEPTH.m              00 000 000 000:  GT Depth
 GTPQH.psia             00 000 000 000:  GT HR Quartz Pressure
 GTTQ.degC              00 000 000 000:  GT Quartz Temperature
 GTTN.NONE              00 000 000 000:  GT Test Number
 GTET.sec               00 000 000 000:  GT Elapsed Test Time
 GTTVD.m                00 000 000 000:  GT True Vertical Depth
#Other Information
#
#WARRANTY: Halliburton will use its best efforts to furnish customers with 
#accurate information and interpretations that are part of, and incident to, the services 
#provided.  However, Halliburton cannot and does not warrant the accuracy 
#or correctness of such information and interpretations.  Under no circumstances should any 
#such information or interpretation be relied upon as the sole basis for any drilling, 
#completion, production, or financial decision or any procedure involving any risk to the 
#safety of any drilling venture, drilling rig or its crew or any other third party.  The 
#Customer has full responsibility for all drilling, completion and production operation.  
#Halliburton makes no representations or warranties, either expressed or 
#implied, including, but not limited to, the implied warranties of merchantability or fitness 
#for a particular purpose, with respect to the services rendered.  In no event will 
#Halliburton be liable for failure to obtain any particular results or for 
#any damages, including, but not limited to, indirect, special or consequential damages, 
#resulting from the use of any information or interpretation provided by Halliburton.
#
~A           TIME           GTDEPTH  GTPQH  GTTQ  GTTN   GTET   GTTVD  
# ...
   23:01:39.050.27-Aug-2021 4636.60 3886.37 82.21 25.00 271.23 3010.11
   23:01:39.250.27-Aug-2021 4636.60 3875.98 82.21 25.00 271.43 3010.11
   23:01:39.450.27-Aug-2021 4636.60 3871.45 82.21 25.00 271.63 3010.11
   23:01:39.651.27-Aug-2021 4636.60 3866.09 82.21 25.00 271.83 3010.11
   23:01:39.851.27-Aug-2021 4636.60 3860.68 82.21 25.00 272.03 3010.11
   23:01:40.051.27-Aug-2021 4636.60 3860.68 82.21 25.00 272.23 3010.11
   23:01:40.251.27-Aug-2021 4636.60 3856.51 82.21 25.00 272.43 3010.11
   23:01:40.451.27-Aug-2021 4636.60 3852.35 82.21 25.00 272.63 3010.11
   23:01:40.651.27-Aug-2021 4636.60 3847.70 82.21 25.00 272.83 3010.11
   23:01:40.851.27-Aug-2021 4636.60 3844.64 82.21 25.00 273.03 3010.11
   23:01:41.051.27-Aug-2021 4636.60 3844.64 82.21 25.00 273.23 3010.11
   23:01:41.251.27-Aug-2021 4636.60 3840.10 82.21 25.00 273.43 3010.11
   23:01:41.451.27-Aug-2021 4636.60 3957.70 82.21 25.00 273.63 3010.11
   23:01:41.651.27-Aug-2021 4636.60 4213.59 82.21 25.00 273.83 3010.11
   23:01:41.851.27-Aug-2021 4636.60 4350.38 82.21 25.00 274.03 3010.11
   23:01:42.051.27-Aug-2021 4636.60 4350.38 82.21 25.00 274.23 3010.11
   23:01:42.251.27-Aug-2021 4636.60 4453.48 82.21 25.00 274.43 3010.11
   23:01:42.451.27-Aug-2021 4636.60 4471.23 82.21 25.00 274.63 3010.11
   23:01:42.651.27-Aug-2021 4636.60 4481.02 82.21 25.00 274.83 3010.11
   23:01:42.851.27-Aug-2021 4636.60 4486.70 82.21 25.00 275.03 3010.11
   23:01:43.051.27-Aug-2021 4636.60 4486.70 82.21 25.00 275.23 3010.11
   23:01:43.251.27-Aug-2021 4636.60 4492.32 82.21 25.00 275.43 3010.11
   23:01:43.451.27-Aug-2021 4636.60 4493.76 82.21 25.00 275.63 3010.11
   23:01:43.651.27-Aug-2021 4636.60 4494.72 82.21 25.00 275.83 3010.11
   23:01:43.851.27-Aug-2021 4636.60 4495.44 82.21 25.00 276.03 3010.11
   23:01:44.051.27-Aug-2021 4636.60 4495.44 82.21 25.00 276.23 3010.11
   23:01:44.251.27-Aug-2021 4636.60 4496.38 82.21 25.00 276.43 3010.11
   23:01:44.451.27-Aug-2021 4636.60 4496.66 82.21 25.00 276.63 3010.11
   23:01:44.651.27-Aug-2021 4636.60 4498.03 82.21 25.00 276.83 3010.11
   23:01:44.851.27-Aug-2021 4636.60 4497.91 82.21 25.00 277.03 3010.11
   23:01:45.051.27-Aug-2021 4636.60 4497.91 82.21 25.00 277.23 3010.11
   23:01:45.251.27-Aug-2021 4636.60 4497.89 82.21 25.00 277.43 3010.11
   23:01:45.451.27-Aug-2021 4636.60 4497.97 82.21 25.00 277.63 3010.11
   23:01:45.651.27-Aug-2021 4636.60 4498.00 82.21 25.00 277.83 3010.11
   23:01:45.851.27-Aug-2021 4636.60 4499.15 82.22 25.00 278.03 3010.11
   23:01:46.051.27-Aug-2021 4636.60 4499.15 82.22 25.00 278.23 3010.11
   23:01:46.251.27-Aug-2021 4636.60 4498.87 82.22 25.00 278.43 3010.11
   23:01:46.451.27-Aug-2021 4636.60 4498.79 82.22 25.00 278.63 3010.11
   23:01:46.651.27-Aug-2021 4636.60 4498.76 82.22 25.00 278.83 3010.11
   23:01:46.851.27-Aug-2021 4636.60 4498.60 82.22 25.00 279.03 3010.11
   23:01:47.051.27-Aug-2021 4636.60 4498.60 82.22 25.00 279.23 3010.11
   23:01:47.251.27-Aug-2021 4636.60 4499.58 82.22 25.00 279.43 3010.11
   23:01:47.451.27-Aug-2021 4636.60 4499.44 82.22 25.00 279.63 3010.11
   23:01:47.651.27-Aug-2021 4636.60 4499.35 82.22 25.00 279.83 3010.11
   23:01:47.851.27-Aug-2021 4636.60 4499.29 82.22 25.00 280.03 3010.11
   23:01:48.051.27-Aug-2021 4636.60 4499.29 82.22 25.00 280.23 3010.11
   23:01:48.251.27-Aug-2021 4636.60 4499.93 82.22 25.00 280.43 3010.11
   23:01:48.451.27-Aug-2021 4636.60 4499.79 82.22 25.00 280.63 3010.11
   23:01:48.651.27-Aug-2021 4636.60 4499.71 82.22 25.00 280.83 3010.11
   23:01:48.851.27-Aug-2021 4636.60 4499.61 82.22 25.00 281.03 3010.11
   23:01:49.051.27-Aug-2021 4636.60 4499.61 82.22 25.00 281.23 3010.11
   23:01:49.251.27-Aug-2021 4636.60 4499.50 82.22 25.00 281.43 3010.11
   23:01:49.452.27-Aug-2021 4636.60 4499.46 82.22 25.00 281.63 3010.11
   23:01:49.652.27-Aug-2021 4636.60 4499.42 82.22 25.00 281.83 3010.11
   23:01:49.852.27-Aug-2021 4636.60 4499.39 82.22 25.00 282.03 3010.11
   23:01:50.052.27-Aug-2021 4636.60 4499.39 82.22 25.00 282.23 3010.11
   23:01:50.252.27-Aug-2021 4636.60 4499.35 82.22 25.00 282.43 3010.11
   23:01:50.452.27-Aug-2021 4636.60 4499.34 82.22 25.00 282.63 3010.11
   23:01:50.652.27-Aug-2021 4636.60 4499.33 82.22 25.00 282.83 3010.11
   23:01:50.852.27-Aug-2021 4636.60 4499.33 82.22 25.00 283.03 3010.11
   23:01:51.052.27-Aug-2021 4636.60 4499.33 82.22 25.00 283.23 3010.11
   23:01:51.252.27-Aug-2021 4636.60 4499.97 82.22 25.00 283.43 3010.11
   23:01:51.452.27-Aug-2021 4636.60 4500.29 82.22 25.00 283.63 3010.11
   23:01:51.652.27-Aug-2021 4636.60 4500.19 82.22 25.00 283.83 3010.11
   23:01:51.852.27-Aug-2021 4636.60 4500.10 82.22 25.00 284.03 3010.11
   23:01:52.052.27-Aug-2021 4636.60 4500.10 82.22 25.00 284.23 3010.11
   23:01:52.252.27-Aug-2021 4636.60 4499.99 82.22 25.00 284.43 3010.11
   23:01:52.452.27-Aug-2021 4636.60 4499.93 82.22 25.00 284.63 3010.11
   23:01:52.652.27-Aug-2021 4636.60 4499.88 82.22 25.00 284.83 3010.11
   23:01:52.852.27-Aug-2021 4636.60 4499.85 82.22 25.00 285.03 3010.11
   23:01:53.052.27-Aug-2021 4636.60 4499.85 82.22 25.00 285.23 3010.11
   23:01:53.252.27-Aug-2021 4636.60 4499.79 82.22 25.00 285.43 3010.11
   23:01:53.452.27-Aug-2021 4636.60 4499.77 82.22 25.00 285.63 3010.11
   23:01:53.652.27-Aug-2021 4636.60 4499.74 82.22 25.00 285.83 3010.11
   23:01:53.852.27-Aug-2021 4636.60 4499.73 82.22 25.00 286.03 3010.11
   23:01:54.052.27-Aug-2021 4636.60 4499.73 82.22 25.00 286.23 3010.11
   23:01:54.252.27-Aug-2021 4636.60 4499.71 82.23 25.00 286.43 3010.11
   23:01:54.452.27-Aug-2021 4636.60 4499.44 82.22 25.00 286.63 3010.11
   23:01:54.652.27-Aug-2021 4636.60 4500.59 82.22 25.00 286.83 3010.11
   23:01:54.852.27-Aug-2021 4636.60 4500.52 82.23 25.00 287.03 3010.11
   23:01:55.052.27-Aug-2021 4636.60 4500.52 82.23 25.00 287.23 3010.11
   23:01:55.252.27-Aug-2021 4636.60 4500.38 82.23 25.00 287.43 3010.11
   23:01:55.452.27-Aug-2021 4636.60 4500.32 82.23 25.00 287.63 3010.11
   23:01:55.652.27-Aug-2021 4636.60 4500.21 82.23 25.00 287.83 3010.11
   23:01:55.852.27-Aug-2021 4636.60 4500.69 82.23 25.00 288.03 3010.11
   23:01:56.052.27-Aug-2021 4636.60 4500.69 82.23 25.00 288.23 3010.11
   23:01:56.252.27-Aug-2021 4636.60 4500.54 82.23 25.00 288.43 3010.11
   23:01:56.452.27-Aug-2021 4636.60 4500.31 82.23 25.00 288.63 3010.11
   23:01:56.652.27-Aug-2021 4636.60 4500.63 82.23 25.00 288.83 3010.11
   23:01:56.852.27-Aug-2021 4636.60 4500.76 82.23 25.00 289.03 3010.11
   23:01:57.052.27-Aug-2021 4636.60 4500.76 82.23 25.00 289.23 3010.11
   23:01:57.252.27-Aug-2021 4636.60 4500.63 82.23 25.00 289.43 3010.11
   23:01:57.452.27-Aug-2021 4636.60 4500.59 82.23 25.00 289.63 3010.11
   23:01:57.652.27-Aug-2021 4636.60 4500.55 82.23 25.00 289.83 3010.11
   23:01:57.852.27-Aug-2021 4636.60 4500.38 82.23 25.00 290.03 3010.11
   23:01:58.052.27-Aug-2021 4636.60 4500.38 82.23 25.00 290.23 3010.11
   23:01:58.252.27-Aug-2021 4636.60 4500.74 82.23 25.00 290.43 3010.11
   23:01:58.452.27-Aug-2021 4636.60 4500.70 82.23 25.00 290.63 3010.11
   23:01:58.652.27-Aug-2021 4636.60 4500.66 82.23 25.00 290.83 3010.11
   23:01:58.852.27-Aug-2021 4636.60 4500.63 82.23 25.00 291.03 3010.11
   23:01:59.053.27-Aug-2021 4636.60 4500.63 82.23 25.00 291.23 3010.11
   23:01:59.253.27-Aug-2021 4636.60 4500.55 82.23 25.00 291.43 3010.11
   23:01:59.453.27-Aug-2021 4636.60 4500.53 82.23 25.00 291.63 3010.11
   23:01:59.653.27-Aug-2021 4636.60 4500.50 82.23 25.00 291.83 3010.11
   23:01:59.853.27-Aug-2021 4636.60 4500.49 82.23 25.00 292.03 3010.11
   23:02:00.053.27-Aug-2021 4636.60 4500.49 82.23 25.00 292.23 3010.11
   23:02:00.253.27-Aug-2021 4636.60 4500.44 82.23 25.00 292.43 3010.11
   23:02:00.453.27-Aug-2021 4636.60 4500.42 82.23 25.00 292.63 3010.11
   23:02:00.653.27-Aug-2021 4636.60 4500.40 82.23 25.00 292.83 3010.11
   23:02:00.853.27-Aug-2021 4636.60 4500.08 82.23 25.00 293.03 3010.11
   23:02:01.053.27-Aug-2021 4636.60 4500.08 82.23 25.00 293.23 3010.11
   23:02:01.253.27-Aug-2021 4636.60 4500.85 82.23 25.00 293.43 3010.11
   23:02:01.453.27-Aug-2021 4636.60 4500.77 82.23 25.00 293.63 3010.11
