~Version Information
 VERS.                  2.0:   CWLS log ASCII Standard -VERSION 2.0
 WRAP.                   NO:   One line per depth step
~Well Information Block
#MNEM.UNIT     VALUE/NAME     DESCRIPTION
#---------     -----------    ---------------------------
 STRT.S             21:02:56 27-Aug-21: START TIME 21:02:56 27-Aug-21
 STOP.S             21:10:06 27-Aug-21: STOP TIME  21:10:06 27-Aug-21
 STEP.S                   0.00: STEP TIME
 NULL.                 -999.25: NULL VALUE
 DFWT.                        :  DIST FWL TEXT
 DFST.                        :  DIST FSL TEXT
 DMF .             Drill Floor:  DRILL MEAS FROM
 STIM.      20.00.00 17-Aug-21:  START TIME
 DATE.      19.00.00 29-Aug-21:  END TIME
 SPUD.               15-Aug-21:  SPUD DATE
 NREF.                    Grid:  NORTH REFERENCE
 HPTY.       Minimum Curvature:  HOLE POS TYPE
 DMOD.             Drill Model:  DRILL MOD DESC
 SVYD.                  Survey:  SURVEY DESC
 ILTD.               Lithology:  INTERP LTH DESC
 FTOP.          Formation Tops:  FORM TOPS DESC
 RIG .              East Azeri:  RIG NAME
 PDAT.          Mean Sea Level:  PERMANENT DATUM
 FLD .                     ACG:  FIELD NAME
 SON .        AZ-XX-0907180857:  JOB NUMBER
 CTRY.              Azerbaijan:  COUNTRY NAME
 WELL.                    D23x:  WELL NAME
 SRVC.     Turan Drilling and Engineering:  CONTRACTOR
 COMP.     BP Exploration (Caspian Sea) Ltd.:  COMPANY
 UWI .            /AZE00000214:  UNIQUE WELL IDENTIFIER
 API .            /AZE00000214:  API NUMBER
 MDS .        Operator Entered:  MAG DATA SOURCE
 BASE.              Azerbaijan:  LOGGING EQUIPMENT BASE LOCATION
 REGN.                   EESSA:  REGION
 PROV.                    Baku:  PROVINCE
 STAT.                    Baku:  STATE NAME
 MWDS.                    Baku:  MWD SHOP
 DOE .                     N/A:  DOE NUMBER
 DCON.         Sperry Drilling:  DIRECTNL CONTR
 UNIT.                     N/A:  LOGGING EQUIPMENT ID
 WTYP.                Deviated:  WELL TYPE
 CNTY.                        :  COUNTY
 LOC .                        :  LOCATION
 LMF .             Drill Floor:  LOG MEASURED FROM
 TVDS.m                  43.60:  TVDSS CORRECTN
 LATI.deg                40.02:  LATITUDE
 LONG.deg                51.45:  LONGITUDE
 WHNS.m                  -7.04:  WELL HEAD N/S
 WHEW.m                  -0.67:  WELL HEAD E/W
 UTMX.m              538762.90:  UTM X
 UTMY.m             4431871.34:  UTM Y
 DFWL.m                   0.00:  DISTANCE FWL
 DFSL.m                   0.00:  DISTANCE FSL
 SDEP.m                4127.00:  START DEPTH
 TDD .m                5084.50:  TOTAL DEPTH (DRILLER)
 VSDR.deg               140.47:  VERT SEC DIRECT
 GVFD.g                   1.00:  GRAVITY FIELD
 MFLD.nT              50362.00:  MAGNETIC FIELD
 MDIP.deg                59.48:  MAGNETIC DIP
 MDEC.deg                 6.47:  MAGNETIC DECL
 GRDC.deg                 0.31:  GRID CORRECTION
 AZTC.deg                 6.16:  AZM TOTAL CORR
 EPD .m                   0.00:  ELEVATION
 EGL .m                   0.00:  GROUND ELEVATION
 WDMS.m                 151.80:  WD ELEV
 APD .m                  43.60:  DEPTH ABOVE PD
 DEP .m                4092.57:  DEPTH
 AGAP.m                  43.60:  AIR GAP
 VSEW.m                  -0.67:  VERT SEC E/W
 VSNS.m                  -7.04:  VERT SEC N/S
 EKB .m                  43.60:  KB ELEVATION
 EDF .m                  43.60:  DF ELEVATION
 TDL .m                 957.50:  TOTAL DEPTH (LOGGER)
 VSC .                       0:  VS TO CLOSURE
 MAGU.                 1851413:  MAGUTM CHECKSUM
~Parameter Information Block
#MNEM.UNIT       Value        Description
#---------     -----------    ---------------------------
 AV  .mps                 1.50:  Ann Velocity 
 AVMX.mps                 2.00:  Max Ann Veloc 
 AZIF.deg               184.66:  Azm, Final 
 BHAT.        Rotary Steerable:  BHA Type 
 BREV.rev               300.00:  Rev Bit Total 
 BROT.°/30m              -0.50:  Build Rotating 
 BS  .in                  8.50:  Bit Size 
 BSZ .in                  8.50:  Bit Size 
 BTPL.psig              370.00:  Bit Press Loss 
 CABU.                      No:  Customer Abuse 
 CGEO.      Behruz Shahbaliyev:  Customer Geo 
 COMM.                     <]h:  Run Comments 1 
 TCS .hr                140.08:  Time Ciculation Ended 
 CV  .mps                 3.00:  Crit Velocity 
 CVMX.mps                 3.20:  Max Crit Veloc 
 DD1 .            Musa Ahmadov:  Direct Drillr 1 
 DD2 .           Hamid Ahmadov:  Direct Drillr 2 
 DDSV.               Geo-Pilot:  DD Service 
 DEFF.%                  98.40:  % Det Eff 
 DLRX.°/30m               3.40:  Dogleg Rot Max 
 DLSO.°/30m               1.45:  Dogleg Oriented 
 DLSX.°/30m               3.40:  Dogleg Str Max 
 DRET.      18.40.00 29-Aug-21:  Drill End Time 
 DRST.      21.00.00 20-Aug-21:  Drill Start Tim 
 DTIM.hr                 69.47:  Time Drilling 
 EDEP.m                5084.50:  End Depth 
 ENG1.      Artemiy Matviyanov:  Engineer 1 
 ENG2.         Almaz Almadatov:  Engineer 2 
 ETIM.      18.40.00 29-Aug-21:  End Time 
 FLOI.gpm               500.00:  Flow In 
 FLON.gpm               400.00:  Flow In Min 
 FLOS.cptm                0.00:  Fluid Loss 
 FLOX.gpm               500.00:  Flow In Max 
 DFT .        Mineral Oil Base:  Mud Type 
 HFLO.                      No:  High Flow 
 HPRE.                      No:  High Pressure 
 HTEM.                      No:  High Temp 
 HYDO.m                   1.80:  Hydro Offset 
 IFIN.deg                25.62:  Inc, Final 
 IMAX.deg                48.69:  Inc Max 
 IMIN.deg                24.01:  Inc Min 
 IMND.m                4962.57:  Inc Min Depth 
 IMXD.m                4119.01:  Inc Max Depth 
 JARR.                      No:  Jarring 
 LETM.      18.40.00 29-Aug-21:  Log End Time 
 LOST.hr                     0:  Lost Rig Time 
 LSTM.      21.00.00 20-Aug-21:  Log Start Time 
 MDCL.ppm             41500.00:  Mud Chlorides 
 MDES.     Inversion Oil/Synthetic:  Mud Desc 
 DFD .sg                  1.56:  Mud Density 
 MDMN.sg                  1.56:  Dens Mud Min 
 MDMX.sg                  1.56:  Dens Mud Max 
 MOIL.                      70:  Run Mud Oil % 
 MOWR.                   70:30:  Run Mud OWR 
 MSND.                     0.2:  Run Mud Sand % 
 MSOL.                    23.3:  Run Mud Solids% 
 DFV .spqt               78.00:  Mud Viscosity 
 MWOD.in                  6.75:  MWD Tool OD 
 MWSI.                      No:  Serv Intrp, MWD 
 OTIM.hr                218.30:  Time Operating 
 PCON.           Look Like New:  Pad Condition 
 PMAX.psia            11015.30:  Press Op, Max 
 PV  .cP                 38.00:  Mud PV 
 RUN .                     300:  Run Number 
 ROPA.m/hr               15.00:  ROP Avg 
 ROPN.m/hr                9.00:  ROP Min 
 ROPX.m/hr               17.00:  ROP Max 
 RPMA.rpm               120.00:  RPM Surface Avg 
 RPMN.rpm                90.00:  RPM Surface Min 
 RPMX.rpm               140.00:  RPM Surface Max 
 RRUN.                     300:  Rig Run Number 
 RTIM.hr                 31.53:  Time Reaming 
 SAZI.deg               331.64:  Azm, Start 
 SDEP.m                4127.00:  Start Depth 
 SIDD.                      No:  Serv Intrp, DD 
 SINC.deg                48.43:  Inc, Start 
 SPPA.psig             5830.00:  SPP Avg 
 SPPN.psig             5600.00:  SPP Min 
 SPPX.psig             5900.00:  SPP Max 
 STIM.      21.00.00 20-Aug-21:  Start Time 
 SVCS.                 DD, MWD:  Services 
 SVER.                    9.20:  Sperry Version 
 TDAT.m                 957.50:  Tot Depth Attmp 
 TDDF.                      No:  Trip for DD 
 TDLG.m                 957.50:  Tot Depth Loggd 
 TFF .                      No:  Trip for Fail 
 TQAA.f-kp               15.00:  Torque Abs Avg 
 TQAN.f-kp               12.00:  Torque Abs Min 
 TQAX.f-kp               19.00:  Torque Abs Max 
 TRRT.°/30m              -3.40:  Turn Rotating 
 MRT .                  EWR-M5:  Maximum Recorded Temperature 
 TTMX.degC              100.00:  Max Tool Temp 
 VS01.                90639251:  Virtual Str1 SN 
 VS02.                90634715:  Virtual Str2 SN 
 VS03.                90652479:  Virtual Str3 SN 
 VS04.                90642262:  Virtual Str4 SN 
 WBMN.klb                 0.00:  WOB Min 
 WITN.           Murad Guliyev:  Customer Rep 
 WITN.          Yashar Gaziyev:  Customer Rep 2 
 WOBA.klb                 9.00:  WOB Avg 
 WOBX.klb                12.00:  WOB Max 
 YP  .lhf2               30.00:  Yield Point 
~Curve Information Block
#MNEM.UNIT                 API CODE     Curve Description
#---------               -----------    ---------------------------
 TIME.HHMMSS            00 000 000 000:  GT Time & Date
 GTDEPTH.m              00 000 000 000:  GT Depth
 GTPQH.psia             00 000 000 000:  GT HR Quartz Pressure
 GTTQ.degC              00 000 000 000:  GT Quartz Temperature
 GTTN.NONE              00 000 000 000:  GT Test Number
 GTET.sec               00 000 000 000:  GT Elapsed Test Time
 GTTVD.m                00 000 000 000:  GT True Vertical Depth
#Other Information
#
#WARRANTY: Halliburton will use its best efforts to furnish customers with 
#accurate information and interpretations that are part of, and incident to, the services 
#provided.  However, Halliburton cannot and does not warrant the accuracy 
#or correctness of such information and interpretations.  Under no circumstances should any 
#such information or interpretation be relied upon as the sole basis for any drilling, 
#completion, production, or financial decision or any procedure involving any risk to the 
#safety of any drilling venture, drilling rig or its crew or any other third party.  The 
#Customer has full responsibility for all drilling, completion and production operation.  
#Halliburton makes no representations or warranties, either expressed or 
#implied, including, but not limited to, the implied warranties of merchantability or fitness 
#for a particular purpose, with respect to the services rendered.  In no event will 
#Halliburton be liable for failure to obtain any particular results or for 
#any damages, including, but not limited to, indirect, special or consequential damages, 
#resulting from the use of any information or interpretation provided by Halliburton.
#
~A           TIME           GTDEPTH  GTPQH  GTTQ  GTTN   GTET   GTTVD  
# ...
   21:07:27.350.27-Aug-2021 4647.50 4201.47 82.36 22.00 271.23 3019.99
   21:07:27.550.27-Aug-2021 4647.50 4201.78 82.36 22.00 271.43 3019.99
   21:07:27.750.27-Aug-2021 4647.50 4201.77 82.36 22.00 271.63 3019.99
   21:07:27.950.27-Aug-2021 4647.50 4201.55 82.36 22.00 271.83 3019.99
   21:07:28.150.27-Aug-2021 4647.50 4200.61 82.36 22.00 272.03 3019.99
   21:07:28.350.27-Aug-2021 4647.50 4200.61 82.36 22.00 272.23 3019.99
   21:07:28.550.27-Aug-2021 4647.50 4202.17 82.36 22.00 272.43 3019.99
   21:07:28.750.27-Aug-2021 4647.50 4203.08 82.36 22.00 272.63 3019.99
   21:07:28.950.27-Aug-2021 4647.50 4201.74 82.36 22.00 272.83 3019.99
   21:07:29.150.27-Aug-2021 4647.50 4200.97 82.36 22.00 273.03 3019.99
   21:07:29.350.27-Aug-2021 4647.50 4200.97 82.36 22.00 273.23 3019.99
   21:07:29.550.27-Aug-2021 4647.50 4202.60 82.36 22.00 273.43 3019.99
   21:07:29.750.27-Aug-2021 4647.50 4199.62 82.35 22.00 273.63 3019.99
   21:07:29.950.27-Aug-2021 4647.50 4203.42 82.35 22.00 273.83 3019.99
   21:07:30.150.27-Aug-2021 4647.50 4200.95 82.35 22.00 274.03 3019.99
   21:07:30.350.27-Aug-2021 4647.50 4200.95 82.35 22.00 274.23 3019.99
   21:07:30.550.27-Aug-2021 4647.50 4199.84 82.35 22.00 274.43 3019.99
   21:07:30.750.27-Aug-2021 4647.50 4200.58 82.35 22.00 274.63 3019.99
   21:07:30.950.27-Aug-2021 4647.50 4200.56 82.35 22.00 274.83 3019.99
   21:07:31.150.27-Aug-2021 4647.50 4200.36 82.35 22.00 275.03 3019.99
   21:07:31.350.27-Aug-2021 4647.50 4200.36 82.35 22.00 275.23 3019.99
   21:07:31.550.27-Aug-2021 4647.50 4201.99 82.35 22.00 275.43 3019.99
   21:07:31.750.27-Aug-2021 4647.50 4199.31 82.35 22.00 275.63 3019.99
   21:07:31.950.27-Aug-2021 4647.50 4196.84 82.35 22.00 275.83 3019.99
   21:07:32.151.27-Aug-2021 4647.50 4199.56 82.35 22.00 276.03 3019.99
   21:07:32.351.27-Aug-2021 4647.50 4199.56 82.35 22.00 276.23 3019.99
   21:07:32.551.27-Aug-2021 4647.50 4198.32 82.35 22.00 276.43 3019.99
   21:07:32.751.27-Aug-2021 4647.50 4198.89 82.35 22.00 276.63 3019.99
   21:07:32.951.27-Aug-2021 4647.50 4196.33 82.35 22.00 276.83 3019.99
   21:07:33.151.27-Aug-2021 4647.50 4211.81 82.35 22.00 277.03 3019.99
   21:07:33.351.27-Aug-2021 4647.50 4211.81 82.35 22.00 277.23 3019.99
   21:07:33.551.27-Aug-2021 4647.50 4475.10 82.35 22.00 277.43 3019.99
   21:07:33.751.27-Aug-2021 4647.50 4499.57 82.35 22.00 277.63 3019.99
   21:07:33.951.27-Aug-2021 4647.50 4506.81 82.35 22.00 277.83 3019.99
   21:07:34.151.27-Aug-2021 4647.50 4509.69 82.35 22.00 278.03 3019.99
   21:07:34.351.27-Aug-2021 4647.50 4509.69 82.35 22.00 278.23 3019.99
   21:07:34.551.27-Aug-2021 4647.50 4512.07 82.35 22.00 278.43 3019.99
   21:07:34.751.27-Aug-2021 4647.50 4512.67 82.35 22.00 278.63 3019.99
   21:07:34.951.27-Aug-2021 4647.50 4513.11 82.35 22.00 278.83 3019.99
   21:07:35.151.27-Aug-2021 4647.50 4513.46 82.35 22.00 279.03 3019.99
   21:07:35.351.27-Aug-2021 4647.50 4513.46 82.35 22.00 279.23 3019.99
   21:07:35.551.27-Aug-2021 4647.50 4513.94 82.35 22.00 279.43 3019.99
   21:07:35.751.27-Aug-2021 4647.50 4514.07 82.35 22.00 279.63 3019.99
   21:07:35.951.27-Aug-2021 4647.50 4514.90 82.35 22.00 279.83 3019.99
   21:07:36.151.27-Aug-2021 4647.50 4515.09 82.35 22.00 280.03 3019.99
   21:07:36.351.27-Aug-2021 4647.50 4515.09 82.35 22.00 280.23 3019.99
   21:07:36.551.27-Aug-2021 4647.50 4515.13 82.35 22.00 280.43 3019.99
   21:07:36.751.27-Aug-2021 4647.50 4515.18 82.35 22.00 280.63 3019.99
   21:07:36.951.27-Aug-2021 4647.50 4515.24 82.36 22.00 280.83 3019.99
   21:07:37.151.27-Aug-2021 4647.50 4515.28 82.36 22.00 281.03 3019.99
   21:07:37.351.27-Aug-2021 4647.50 4515.28 82.36 22.00 281.23 3019.99
   21:07:37.551.27-Aug-2021 4647.50 4515.35 82.36 22.00 281.43 3019.99
   21:07:37.751.27-Aug-2021 4647.50 4515.42 82.36 22.00 281.63 3019.99
   21:07:37.951.27-Aug-2021 4647.50 4515.47 82.36 22.00 281.83 3019.99
   21:07:38.151.27-Aug-2021 4647.50 4515.52 82.36 22.00 282.03 3019.99
   21:07:38.351.27-Aug-2021 4647.50 4515.52 82.36 22.00 282.23 3019.99
   21:07:38.551.27-Aug-2021 4647.50 4515.60 82.36 22.00 282.43 3019.99
   21:07:38.751.27-Aug-2021 4647.50 4515.63 82.36 22.00 282.63 3019.99
   21:07:38.951.27-Aug-2021 4647.50 4515.67 82.36 22.00 282.83 3019.99
   21:07:39.151.27-Aug-2021 4647.50 4515.77 82.36 22.00 283.03 3019.99
   21:07:39.351.27-Aug-2021 4647.50 4515.77 82.36 22.00 283.23 3019.99
   21:07:39.551.27-Aug-2021 4647.50 4516.38 82.36 22.00 283.43 3019.99
   21:07:39.751.27-Aug-2021 4647.50 4516.32 82.36 22.00 283.63 3019.99
   21:07:39.951.27-Aug-2021 4647.50 4516.33 82.36 22.00 283.83 3019.99
   21:07:40.151.27-Aug-2021 4647.50 4516.27 82.36 22.00 284.03 3019.99
   21:07:40.351.27-Aug-2021 4647.50 4516.27 82.36 22.00 284.23 3019.99
   21:07:40.551.27-Aug-2021 4647.50 4516.58 82.36 22.00 284.43 3019.99
   21:07:40.751.27-Aug-2021 4647.50 4516.54 82.36 22.00 284.63 3019.99
   21:07:40.951.27-Aug-2021 4647.50 4516.56 82.36 22.00 284.83 3019.99
   21:07:41.151.27-Aug-2021 4647.50 4516.53 82.36 22.00 285.03 3019.99
   21:07:41.351.27-Aug-2021 4647.50 4516.53 82.36 22.00 285.23 3019.99
   21:07:41.551.27-Aug-2021 4647.50 4516.74 82.36 22.00 285.43 3019.99
   21:07:41.751.27-Aug-2021 4647.50 4516.71 82.36 22.00 285.63 3019.99
   21:07:41.952.27-Aug-2021 4647.50 4516.60 82.36 22.00 285.83 3019.99
   21:07:42.152.27-Aug-2021 4647.50 4516.87 82.36 22.00 286.03 3019.99
   21:07:42.352.27-Aug-2021 4647.50 4516.87 82.36 22.00 286.23 3019.99
   21:07:42.552.27-Aug-2021 4647.50 4516.80 82.36 22.00 286.43 3019.99
   21:07:42.752.27-Aug-2021 4647.50 4516.79 82.36 22.00 286.63 3019.99
   21:07:42.952.27-Aug-2021 4647.50 4516.80 82.36 22.00 286.83 3019.99
   21:07:43.152.27-Aug-2021 4647.50 4516.80 82.36 22.00 287.03 3019.99
   21:07:43.352.27-Aug-2021 4647.50 4516.80 82.36 22.00 287.23 3019.99
   21:07:43.552.27-Aug-2021 4647.50 4516.76 82.36 22.00 287.43 3019.99
   21:07:43.752.27-Aug-2021 4647.50 4516.74 82.36 22.00 287.63 3019.99
   21:07:43.952.27-Aug-2021 4647.50 4516.75 82.36 22.00 287.83 3019.99
   21:07:44.152.27-Aug-2021 4647.50 4516.74 82.36 22.00 288.03 3019.99
   21:07:44.352.27-Aug-2021 4647.50 4516.74 82.36 22.00 288.23 3019.99
   21:07:44.552.27-Aug-2021 4647.50 4516.72 82.36 22.00 288.43 3019.99
   21:07:44.752.27-Aug-2021 4647.50 4516.72 82.36 22.00 288.63 3019.99
   21:07:44.952.27-Aug-2021 4647.50 4516.71 82.36 22.00 288.83 3019.99
   21:07:45.152.27-Aug-2021 4647.50 4516.68 82.36 22.00 289.03 3019.99
   21:07:45.352.27-Aug-2021 4647.50 4516.68 82.36 22.00 289.23 3019.99
   21:07:45.552.27-Aug-2021 4647.50 4517.00 82.36 22.00 289.43 3019.99
   21:07:45.752.27-Aug-2021 4647.50 4516.98 82.36 22.00 289.63 3019.99
   21:07:45.952.27-Aug-2021 4647.50 4516.97 82.36 22.00 289.83 3019.99
   21:07:46.152.27-Aug-2021 4647.50 4516.98 82.36 22.00 290.03 3019.99
   21:07:46.352.27-Aug-2021 4647.50 4516.98 82.36 22.00 290.23 3019.99
   21:07:46.552.27-Aug-2021 4647.50 4516.92 82.36 22.00 290.43 3019.99
   21:07:46.752.27-Aug-2021 4647.50 4516.92 82.36 22.00 290.63 3019.99
   21:07:46.952.27-Aug-2021 4647.50 4516.92 82.36 22.00 290.83 3019.99
   21:07:47.152.27-Aug-2021 4647.50 4516.94 82.36 22.00 291.03 3019.99
   21:07:47.352.27-Aug-2021 4647.50 4516.94 82.36 22.00 291.23 3019.99
   21:07:47.552.27-Aug-2021 4647.50 4516.89 82.36 22.00 291.43 3019.99
   21:07:47.752.27-Aug-2021 4647.50 4516.90 82.36 22.00 291.63 3019.99
   21:07:47.952.27-Aug-2021 4647.50 4516.89 82.36 22.00 291.83 3019.99
   21:07:48.152.27-Aug-2021 4647.50 4516.89 82.36 22.00 292.03 3019.99
   21:07:48.352.27-Aug-2021 4647.50 4516.89 82.36 22.00 292.23 3019.99
   21:07:48.552.27-Aug-2021 4647.50 4516.92 82.36 22.00 292.43 3019.99
   21:07:48.752.27-Aug-2021 4647.50 4517.16 82.36 22.00 292.63 3019.99
   21:07:48.952.27-Aug-2021 4647.50 4517.13 82.36 22.00 292.83 3019.99
   21:07:49.152.27-Aug-2021 4647.50 4517.12 82.36 22.00 293.03 3019.99
   21:07:49.352.27-Aug-2021 4647.50 4517.12 82.36 22.00 293.23 3019.99
   21:07:49.552.27-Aug-2021 4647.50 4517.12 82.36 22.00 293.43 3019.99
   21:07:49.752.27-Aug-2021 4647.50 4516.95 82.36 22.00 293.63 3019.99
