~Version Information
 VERS.                  2.0:   CWLS log ASCII Standard -VERSION 2.0
 WRAP.                   NO:   One line per depth step
~Well Information Block
#MNEM.UNIT     VALUE/NAME     DESCRIPTION
#---------     -----------    ---------------------------
 STRT.S             09:25:17 27-Aug-21: START TIME 09:25:17 27-Aug-21
 STOP.S             09:32:27 27-Aug-21: STOP TIME  09:32:27 27-Aug-21
 STEP.S                   0.00: STEP TIME
 NULL.                 -999.25: NULL VALUE
 DFWT.                        :  DIST FWL TEXT
 DFST.                        :  DIST FSL TEXT
 DMF .             Drill Floor:  DRILL MEAS FROM
 STIM.      20.00.00 17-Aug-21:  START TIME
 DATE.      19.00.00 29-Aug-21:  END TIME
 SPUD.               15-Aug-21:  SPUD DATE
 NREF.                    Grid:  NORTH REFERENCE
 HPTY.       Minimum Curvature:  HOLE POS TYPE
 DMOD.             Drill Model:  DRILL MOD DESC
 SVYD.                  Survey:  SURVEY DESC
 ILTD.               Lithology:  INTERP LTH DESC
 FTOP.          Formation Tops:  FORM TOPS DESC
 RIG .              East Azeri:  RIG NAME
 PDAT.          Mean Sea Level:  PERMANENT DATUM
 FLD .                     ACG:  FIELD NAME
 SON .        AZ-XX-0907180857:  JOB NUMBER
 CTRY.              Azerbaijan:  COUNTRY NAME
 WELL.                    D23x:  WELL NAME
 SRVC.     Turan Drilling and Engineering:  CONTRACTOR
 COMP.     BP Exploration (Caspian Sea) Ltd.:  COMPANY
 UWI .            /AZE00000214:  UNIQUE WELL IDENTIFIER
 API .            /AZE00000214:  API NUMBER
 MDS .        Operator Entered:  MAG DATA SOURCE
 BASE.              Azerbaijan:  LOGGING EQUIPMENT BASE LOCATION
 REGN.                   EESSA:  REGION
 PROV.                    Baku:  PROVINCE
 STAT.                    Baku:  STATE NAME
 MWDS.                    Baku:  MWD SHOP
 DOE .                     N/A:  DOE NUMBER
 DCON.         Sperry Drilling:  DIRECTNL CONTR
 UNIT.                     N/A:  LOGGING EQUIPMENT ID
 WTYP.                Deviated:  WELL TYPE
 CNTY.                        :  COUNTY
 LOC .                        :  LOCATION
 LMF .             Drill Floor:  LOG MEASURED FROM
 TVDS.m                  43.60:  TVDSS CORRECTN
 LATI.deg                40.02:  LATITUDE
 LONG.deg                51.45:  LONGITUDE
 WHNS.m                  -7.04:  WELL HEAD N/S
 WHEW.m                  -0.67:  WELL HEAD E/W
 UTMX.m              538762.90:  UTM X
 UTMY.m             4431871.34:  UTM Y
 DFWL.m                   0.00:  DISTANCE FWL
 DFSL.m                   0.00:  DISTANCE FSL
 SDEP.m                4127.00:  START DEPTH
 TDD .m                5084.50:  TOTAL DEPTH (DRILLER)
 VSDR.deg               140.47:  VERT SEC DIRECT
 GVFD.g                   1.00:  GRAVITY FIELD
 MFLD.nT              50362.00:  MAGNETIC FIELD
 MDIP.deg                59.48:  MAGNETIC DIP
 MDEC.deg                 6.47:  MAGNETIC DECL
 GRDC.deg                 0.31:  GRID CORRECTION
 AZTC.deg                 6.16:  AZM TOTAL CORR
 EPD .m                   0.00:  ELEVATION
 EGL .m                   0.00:  GROUND ELEVATION
 WDMS.m                 151.80:  WD ELEV
 APD .m                  43.60:  DEPTH ABOVE PD
 DEP .m                4092.57:  DEPTH
 AGAP.m                  43.60:  AIR GAP
 VSEW.m                  -0.67:  VERT SEC E/W
 VSNS.m                  -7.04:  VERT SEC N/S
 EKB .m                  43.60:  KB ELEVATION
 EDF .m                  43.60:  DF ELEVATION
 TDL .m                 957.50:  TOTAL DEPTH (LOGGER)
 VSC .                       0:  VS TO CLOSURE
 MAGU.                 1851413:  MAGUTM CHECKSUM
~Parameter Information Block
#MNEM.UNIT       Value        Description
#---------     -----------    ---------------------------
 AV  .mps                 1.50:  Ann Velocity 
 AVMX.mps                 2.00:  Max Ann Veloc 
 AZIF.deg               184.66:  Azm, Final 
 BHAT.        Rotary Steerable:  BHA Type 
 BREV.rev               300.00:  Rev Bit Total 
 BROT.°/30m              -0.50:  Build Rotating 
 BS  .in                  8.50:  Bit Size 
 BSZ .in                  8.50:  Bit Size 
 BTPL.psig              370.00:  Bit Press Loss 
 CABU.                      No:  Customer Abuse 
 CGEO.      Behruz Shahbaliyev:  Customer Geo 
 COMM.                     TD\:  Run Comments 1 
 TCS .hr                140.08:  Time Ciculation Ended 
 CV  .mps                 3.00:  Crit Velocity 
 CVMX.mps                 3.20:  Max Crit Veloc 
 DD1 .            Musa Ahmadov:  Direct Drillr 1 
 DD2 .           Hamid Ahmadov:  Direct Drillr 2 
 DDSV.               Geo-Pilot:  DD Service 
 DEFF.%                  98.40:  % Det Eff 
 DLRX.°/30m               3.40:  Dogleg Rot Max 
 DLSO.°/30m               1.45:  Dogleg Oriented 
 DLSX.°/30m               3.40:  Dogleg Str Max 
 DRET.      18.40.00 29-Aug-21:  Drill End Time 
 DRST.      21.00.00 20-Aug-21:  Drill Start Tim 
 DTIM.hr                 69.47:  Time Drilling 
 EDEP.m                5084.50:  End Depth 
 ENG1.      Artemiy Matviyanov:  Engineer 1 
 ENG2.         Almaz Almadatov:  Engineer 2 
 ETIM.      18.40.00 29-Aug-21:  End Time 
 FLOI.gpm               500.00:  Flow In 
 FLON.gpm               400.00:  Flow In Min 
 FLOS.cptm                0.00:  Fluid Loss 
 FLOX.gpm               500.00:  Flow In Max 
 DFT .        Mineral Oil Base:  Mud Type 
 HFLO.                      No:  High Flow 
 HPRE.                      No:  High Pressure 
 HTEM.                      No:  High Temp 
 HYDO.m                   1.80:  Hydro Offset 
 IFIN.deg                25.62:  Inc, Final 
 IMAX.deg                48.69:  Inc Max 
 IMIN.deg                24.01:  Inc Min 
 IMND.m                4962.57:  Inc Min Depth 
 IMXD.m                4119.01:  Inc Max Depth 
 JARR.                      No:  Jarring 
 LETM.      18.40.00 29-Aug-21:  Log End Time 
 LOST.hr                     0:  Lost Rig Time 
 LSTM.      21.00.00 20-Aug-21:  Log Start Time 
 MDCL.ppm             41500.00:  Mud Chlorides 
 MDES.     Inversion Oil/Synthetic:  Mud Desc 
 DFD .sg                  1.56:  Mud Density 
 MDMN.sg                  1.56:  Dens Mud Min 
 MDMX.sg                  1.56:  Dens Mud Max 
 MOIL.                      70:  Run Mud Oil % 
 MOWR.                   70:30:  Run Mud OWR 
 MSND.                     0.2:  Run Mud Sand % 
 MSOL.                    23.3:  Run Mud Solids% 
 DFV .spqt               78.00:  Mud Viscosity 
 MWOD.in                  6.75:  MWD Tool OD 
 MWSI.                      No:  Serv Intrp, MWD 
 OTIM.hr                218.30:  Time Operating 
 PCON.           Look Like New:  Pad Condition 
 PMAX.psia            11015.30:  Press Op, Max 
 PV  .cP                 38.00:  Mud PV 
 RUN .                     300:  Run Number 
 ROPA.m/hr               15.00:  ROP Avg 
 ROPN.m/hr                9.00:  ROP Min 
 ROPX.m/hr               17.00:  ROP Max 
 RPMA.rpm               120.00:  RPM Surface Avg 
 RPMN.rpm                90.00:  RPM Surface Min 
 RPMX.rpm               140.00:  RPM Surface Max 
 RRUN.                     300:  Rig Run Number 
 RTIM.hr                 31.53:  Time Reaming 
 SAZI.deg               331.64:  Azm, Start 
 SDEP.m                4127.00:  Start Depth 
 SIDD.                      No:  Serv Intrp, DD 
 SINC.deg                48.43:  Inc, Start 
 SPPA.psig             5830.00:  SPP Avg 
 SPPN.psig             5600.00:  SPP Min 
 SPPX.psig             5900.00:  SPP Max 
 STIM.      21.00.00 20-Aug-21:  Start Time 
 SVCS.                 DD, MWD:  Services 
 SVER.                    9.20:  Sperry Version 
 TDAT.m                 957.50:  Tot Depth Attmp 
 TDDF.                      No:  Trip for DD 
 TDLG.m                 957.50:  Tot Depth Loggd 
 TFF .                      No:  Trip for Fail 
 TQAA.f-kp               15.00:  Torque Abs Avg 
 TQAN.f-kp               12.00:  Torque Abs Min 
 TQAX.f-kp               19.00:  Torque Abs Max 
 TRRT.°/30m              -3.40:  Turn Rotating 
 MRT .                  EWR-M5:  Maximum Recorded Temperature 
 TTMX.degC              100.00:  Max Tool Temp 
 VS01.                90639251:  Virtual Str1 SN 
 VS02.                90634715:  Virtual Str2 SN 
 VS03.                90652479:  Virtual Str3 SN 
 VS04.                90642262:  Virtual Str4 SN 
 WBMN.klb                 0.00:  WOB Min 
 WITN.           Murad Guliyev:  Customer Rep 
 WITN.          Yashar Gaziyev:  Customer Rep 2 
 WOBA.klb                 9.00:  WOB Avg 
 WOBX.klb                12.00:  WOB Max 
 YP  .lhf2               30.00:  Yield Point 
~Curve Information Block
#MNEM.UNIT                 API CODE     Curve Description
#---------               -----------    ---------------------------
 TIME.HHMMSS            00 000 000 000:  GT Time & Date
 GTDEPTH.m              00 000 000 000:  GT Depth
 GTPQH.psia             00 000 000 000:  GT HR Quartz Pressure
 GTTQ.degC              00 000 000 000:  GT Quartz Temperature
 GTTN.NONE              00 000 000 000:  GT Test Number
 GTET.sec               00 000 000 000:  GT Elapsed Test Time
 GTTVD.m                00 000 000 000:  GT True Vertical Depth
#Other Information
#
#WARRANTY: Halliburton will use its best efforts to furnish customers with 
#accurate information and interpretations that are part of, and incident to, the services 
#provided.  However, Halliburton cannot and does not warrant the accuracy 
#or correctness of such information and interpretations.  Under no circumstances should any 
#such information or interpretation be relied upon as the sole basis for any drilling, 
#completion, production, or financial decision or any procedure involving any risk to the 
#safety of any drilling venture, drilling rig or its crew or any other third party.  The 
#Customer has full responsibility for all drilling, completion and production operation.  
#Halliburton makes no representations or warranties, either expressed or 
#implied, including, but not limited to, the implied warranties of merchantability or fitness 
#for a particular purpose, with respect to the services rendered.  In no event will 
#Halliburton be liable for failure to obtain any particular results or for 
#any damages, including, but not limited to, indirect, special or consequential damages, 
#resulting from the use of any information or interpretation provided by Halliburton.
#
~A           TIME           GTDEPTH  GTPQH  GTTQ  GTTN  GTET   GTTVD  
# ...
   09:30:16.390.27-Aug-2021 4964.50 5198.21 86.31 7.00 299.12 3307.39
   09:30:16.590.27-Aug-2021 4964.50 5198.21 86.31 7.00 299.32 3307.39
   09:30:16.790.27-Aug-2021 4964.50 5198.21 86.31 7.00 299.52 3307.39
   09:30:16.990.27-Aug-2021 4964.50 5198.21 86.31 7.00 299.72 3307.39
   09:30:17.190.27-Aug-2021 4964.50 5198.21 86.31 7.00 299.92 3307.39
   09:30:17.390.27-Aug-2021 4964.50 5198.21 86.31 7.00 300.12 3307.39
   09:30:17.590.27-Aug-2021 4964.50 5198.21 86.31 7.00 300.32 3307.39
   09:30:17.790.27-Aug-2021 4964.50 5198.21 86.31 7.00 300.52 3307.39
   09:30:17.991.27-Aug-2021 4964.50 5198.21 86.31 7.00 300.72 3307.39
   09:30:18.191.27-Aug-2021 4964.50 5198.20 86.31 7.00 300.92 3307.39
   09:30:18.391.27-Aug-2021 4964.50 5198.21 86.31 7.00 301.13 3307.39
   09:30:18.591.27-Aug-2021 4964.50 5198.21 86.31 7.00 301.33 3307.39
   09:30:18.791.27-Aug-2021 4964.50 5198.21 86.31 7.00 301.53 3307.39
   09:30:18.991.27-Aug-2021 4964.50 5198.21 86.31 7.00 301.73 3307.39
   09:30:19.191.27-Aug-2021 4964.50 5198.20 86.31 7.00 301.93 3307.39
   09:30:19.391.27-Aug-2021 4964.50 5198.21 86.31 7.00 302.13 3307.39
   09:30:19.591.27-Aug-2021 4964.50 5198.21 86.31 7.00 302.33 3307.39
   09:30:19.791.27-Aug-2021 4964.50 5198.21 86.31 7.00 302.53 3307.39
   09:30:19.991.27-Aug-2021 4964.50 5198.21 86.31 7.00 302.73 3307.39
   09:30:20.191.27-Aug-2021 4964.50 5198.21 86.31 7.00 302.93 3307.39
   09:30:20.392.27-Aug-2021 4964.50 5198.21 86.31 7.00 303.13 3307.39
   09:30:20.592.27-Aug-2021 4964.50 5198.21 86.31 7.00 303.33 3307.39
   09:30:20.792.27-Aug-2021 4964.50 5198.20 86.31 7.00 303.53 3307.39
   09:30:20.992.27-Aug-2021 4964.50 5198.21 86.31 7.00 303.73 3307.39
   09:30:21.192.27-Aug-2021 4964.50 5198.21 86.31 7.00 303.93 3307.39
   09:30:21.392.27-Aug-2021 4964.50 5198.21 86.31 7.00 304.13 3307.39
   09:30:21.592.27-Aug-2021 4964.50 5198.21 86.31 7.00 304.33 3307.39
   09:30:21.792.27-Aug-2021 4964.50 5198.21 86.31 7.00 304.53 3307.39
   09:30:21.992.27-Aug-2021 4964.50 5198.21 86.31 7.00 304.73 3307.39
   09:30:22.192.27-Aug-2021 4964.50 5198.22 86.31 7.00 304.93 3307.39
   09:30:22.392.27-Aug-2021 4964.50 5198.21 86.31 7.00 305.13 3307.39
   09:30:22.592.27-Aug-2021 4964.50 5198.21 86.31 7.00 305.33 3307.39
   09:30:22.793.27-Aug-2021 4964.50 5198.22 86.31 7.00 305.53 3307.39
   09:30:22.993.27-Aug-2021 4964.50 5198.23 86.31 7.00 305.73 3307.39
   09:30:23.193.27-Aug-2021 4964.50 5198.23 86.31 7.00 305.93 3307.39
   09:30:23.393.27-Aug-2021 4964.50 5198.22 86.31 7.00 306.13 3307.39
   09:30:23.593.27-Aug-2021 4964.50 5198.22 86.31 7.00 306.33 3307.39
   09:30:23.793.27-Aug-2021 4964.50 5198.23 86.31 7.00 306.53 3307.39
   09:30:23.993.27-Aug-2021 4964.50 5198.22 86.31 7.00 306.73 3307.39
   09:30:24.193.27-Aug-2021 4964.50 5198.23 86.31 7.00 306.93 3307.39
   09:30:24.393.27-Aug-2021 4964.50 5198.23 86.31 7.00 307.13 3307.39
   09:30:24.593.27-Aug-2021 4964.50 5198.23 86.31 7.00 307.33 3307.39
   09:30:24.793.27-Aug-2021 4964.50 5198.22 86.31 7.00 307.53 3307.39
   09:30:24.993.27-Aug-2021 4964.50 5198.21 86.31 7.00 307.73 3307.39
   09:30:25.194.27-Aug-2021 4964.50 5198.25 86.31 7.00 307.93 3307.39
   09:30:25.394.27-Aug-2021 4964.50 5198.23 86.31 7.00 308.13 3307.39
   09:30:25.594.27-Aug-2021 4964.50 5198.23 86.31 7.00 308.33 3307.39
   09:30:25.794.27-Aug-2021 4964.50 5198.23 86.31 7.00 308.53 3307.39
   09:30:25.994.27-Aug-2021 4964.50 5198.22 86.31 7.00 308.73 3307.39
   09:30:26.194.27-Aug-2021 4964.50 5198.23 86.31 7.00 308.93 3307.39
   09:30:26.394.27-Aug-2021 4964.50 5198.22 86.31 7.00 309.13 3307.39
   09:30:26.594.27-Aug-2021 4964.50 5198.22 86.31 7.00 309.33 3307.39
   09:30:26.794.27-Aug-2021 4964.50 5198.22 86.31 7.00 309.53 3307.39
   09:30:26.994.27-Aug-2021 4964.50 5198.23 86.31 7.00 309.73 3307.39
   09:30:27.194.27-Aug-2021 4964.50 5198.23 86.31 7.00 309.93 3307.39
   09:30:27.394.27-Aug-2021 4964.50 5198.23 86.31 7.00 310.13 3307.39
   09:30:27.595.27-Aug-2021 4964.50 5198.23 86.31 7.00 310.33 3307.39
   09:30:27.795.27-Aug-2021 4964.50 5198.22 86.31 7.00 310.53 3307.39
   09:30:27.995.27-Aug-2021 4964.50 5198.23 86.31 7.00 310.73 3307.39
   09:30:28.195.27-Aug-2021 4964.50 5198.23 86.31 7.00 310.93 3307.39
   09:30:28.395.27-Aug-2021 4964.50 5198.22 86.31 7.00 311.13 3307.39
   09:30:28.595.27-Aug-2021 4964.50 5198.22 86.31 7.00 311.33 3307.39
   09:30:28.795.27-Aug-2021 4964.50 5198.22 86.31 7.00 311.53 3307.39
   09:30:28.995.27-Aug-2021 4964.50 5198.22 86.31 7.00 311.73 3307.39
   09:30:29.195.27-Aug-2021 4964.50 5198.23 86.31 7.00 311.93 3307.39
   09:30:29.395.27-Aug-2021 4964.50 5198.22 86.31 7.00 312.13 3307.39
   09:30:29.595.27-Aug-2021 4964.50 5198.22 86.31 7.00 312.33 3307.39
   09:30:29.795.27-Aug-2021 4964.50 5198.22 86.31 7.00 312.53 3307.39
   09:30:29.996.27-Aug-2021 4964.50 5198.23 86.31 7.00 312.73 3307.39
   09:30:30.196.27-Aug-2021 4964.50 5198.22 86.31 7.00 312.93 3307.39
   09:30:30.396.27-Aug-2021 4964.50 5198.22 86.31 7.00 313.13 3307.39
   09:30:30.596.27-Aug-2021 4964.50 5198.22 86.31 7.00 313.33 3307.39
   09:30:30.796.27-Aug-2021 4964.50 5198.22 86.31 7.00 313.53 3307.39
   09:30:30.996.27-Aug-2021 4964.50 5198.22 86.31 7.00 313.73 3307.39
   09:30:31.196.27-Aug-2021 4964.50 5198.22 86.31 7.00 313.93 3307.39
   09:30:31.396.27-Aug-2021 4964.50 5198.24 86.31 7.00 314.13 3307.39
   09:30:31.596.27-Aug-2021 4964.50 5198.24 86.31 7.00 314.33 3307.39
   09:30:31.796.27-Aug-2021 4964.50 5198.22 86.31 7.00 314.53 3307.39
   09:30:31.996.27-Aug-2021 4964.50 5198.22 86.31 7.00 314.73 3307.39
   09:30:32.196.27-Aug-2021 4964.50 5198.22 86.31 7.00 314.93 3307.39
   09:30:32.397.27-Aug-2021 4964.50 5198.24 86.31 7.00 315.13 3307.39
   09:30:32.597.27-Aug-2021 4964.50 5198.24 86.31 7.00 315.33 3307.39
   09:30:32.797.27-Aug-2021 4964.50 5198.22 86.31 7.00 315.53 3307.39
   09:30:32.997.27-Aug-2021 4964.50 5198.23 86.31 7.00 315.73 3307.39
   09:30:33.197.27-Aug-2021 4964.50 5198.24 86.31 7.00 315.93 3307.39
   09:30:33.397.27-Aug-2021 4964.50 5198.23 86.31 7.00 316.13 3307.39
   09:30:33.597.27-Aug-2021 4964.50 5198.23 86.31 7.00 316.33 3307.39
   09:30:33.797.27-Aug-2021 4964.50 5198.23 86.31 7.00 316.53 3307.39
   09:30:33.997.27-Aug-2021 4964.50 5198.23 86.31 7.00 316.73 3307.39
   09:30:34.197.27-Aug-2021 4964.50 5198.23 86.31 7.00 316.93 3307.39
   09:30:34.397.27-Aug-2021 4964.50 5198.22 86.31 7.00 317.13 3307.39
   09:30:34.597.27-Aug-2021 4964.50 5198.22 86.31 7.00 317.33 3307.39
   09:30:34.798.27-Aug-2021 4964.50 5198.23 86.31 7.00 317.53 3307.39
   09:30:34.998.27-Aug-2021 4964.50 5198.23 86.31 7.00 317.73 3307.39
   09:30:35.198.27-Aug-2021 4964.50 5198.24 86.31 7.00 317.93 3307.39
   09:30:35.398.27-Aug-2021 4964.50 5198.22 86.31 7.00 318.13 3307.39
   09:30:35.598.27-Aug-2021 4964.50 5198.22 86.31 7.00 318.33 3307.39
   09:30:35.798.27-Aug-2021 4964.50 5198.23 86.31 7.00 318.53 3307.39
   09:30:35.998.27-Aug-2021 4964.50 5198.23 86.31 7.00 318.73 3307.39
   09:30:36.198.27-Aug-2021 4964.50 5198.24 86.31 7.00 318.93 3307.39
   09:30:36.398.27-Aug-2021 4964.50 5198.23 86.31 7.00 319.13 3307.39
   09:30:36.598.27-Aug-2021 4964.50 5198.23 86.31 7.00 319.33 3307.39
   09:30:36.798.27-Aug-2021 4964.50 5198.23 86.31 7.00 319.53 3307.39
   09:30:36.998.27-Aug-2021 4964.50 5198.23 86.31 7.00 319.73 3307.39
   09:30:37.199.27-Aug-2021 4964.50 5198.23 86.31 7.00 319.93 3307.39
   09:30:37.399.27-Aug-2021 4964.50 5198.24 86.31 7.00 320.13 3307.39
   09:30:37.599.27-Aug-2021 4964.50 5198.24 86.31 7.00 320.33 3307.39
   09:30:37.799.27-Aug-2021 4964.50 5198.23 86.31 7.00 320.53 3307.39
   09:30:37.999.27-Aug-2021 4964.50 5198.22 86.31 7.00 320.73 3307.39
   09:30:38.199.27-Aug-2021 4964.50 5198.23 86.31 7.00 320.93 3307.39
   09:30:38.399.27-Aug-2021 4964.50 5198.24 86.31 7.00 321.13 3307.39
   09:30:38.599.27-Aug-2021 4964.50 5198.24 86.31 7.00 321.33 3307.39
   09:30:38.799.27-Aug-2021 4964.50 5198.24 86.31 7.00 321.53 3307.39
   09:30:38.999.27-Aug-2021 4964.50 5198.23 86.31 7.00 321.73 3307.39
   09:30:39.199.27-Aug-2021 4964.50 5198.23 86.31 7.00 321.93 3307.39
