~Version Information
 VERS.                  2.0:   CWLS log ASCII Standard -VERSION 2.0
 WRAP.                   NO:   One line per depth step
~Well Information Block
#MNEM.UNIT     VALUE/NAME     DESCRIPTION
#---------     -----------    ---------------------------
 STRT.S             23:43:00 27-Aug-21: START TIME 23:43:00 27-Aug-21
 STOP.S             23:50:14 27-Aug-21: STOP TIME  23:50:14 27-Aug-21
 STEP.S                   0.00: STEP TIME
 NULL.                 -999.25: NULL VALUE
 DFWT.                        :  DIST FWL TEXT
 DFST.                        :  DIST FSL TEXT
 DMF .             Drill Floor:  DRILL MEAS FROM
 STIM.      20.00.00 17-Aug-21:  START TIME
 DATE.      19.00.00 29-Aug-21:  END TIME
 SPUD.               15-Aug-21:  SPUD DATE
 NREF.                    Grid:  NORTH REFERENCE
 HPTY.       Minimum Curvature:  HOLE POS TYPE
 DMOD.             Drill Model:  DRILL MOD DESC
 SVYD.                  Survey:  SURVEY DESC
 ILTD.               Lithology:  INTERP LTH DESC
 FTOP.          Formation Tops:  FORM TOPS DESC
 RIG .              East Azeri:  RIG NAME
 PDAT.          Mean Sea Level:  PERMANENT DATUM
 FLD .                     ACG:  FIELD NAME
 SON .        AZ-XX-0907180857:  JOB NUMBER
 CTRY.              Azerbaijan:  COUNTRY NAME
 WELL.                    D23x:  WELL NAME
 SRVC.     Turan Drilling and Engineering:  CONTRACTOR
 COMP.     BP Exploration (Caspian Sea) Ltd.:  COMPANY
 UWI .            /AZE00000214:  UNIQUE WELL IDENTIFIER
 API .            /AZE00000214:  API NUMBER
 MDS .        Operator Entered:  MAG DATA SOURCE
 BASE.              Azerbaijan:  LOGGING EQUIPMENT BASE LOCATION
 REGN.                   EESSA:  REGION
 PROV.                    Baku:  PROVINCE
 STAT.                    Baku:  STATE NAME
 MWDS.                    Baku:  MWD SHOP
 DOE .                     N/A:  DOE NUMBER
 DCON.         Sperry Drilling:  DIRECTNL CONTR
 UNIT.                     N/A:  LOGGING EQUIPMENT ID
 WTYP.                Deviated:  WELL TYPE
 CNTY.                        :  COUNTY
 LOC .                        :  LOCATION
 LMF .             Drill Floor:  LOG MEASURED FROM
 TVDS.m                  43.60:  TVDSS CORRECTN
 LATI.deg                40.02:  LATITUDE
 LONG.deg                51.45:  LONGITUDE
 WHNS.m                  -7.04:  WELL HEAD N/S
 WHEW.m                  -0.67:  WELL HEAD E/W
 UTMX.m              538762.90:  UTM X
 UTMY.m             4431871.34:  UTM Y
 DFWL.m                   0.00:  DISTANCE FWL
 DFSL.m                   0.00:  DISTANCE FSL
 SDEP.m                4127.00:  START DEPTH
 TDD .m                5084.50:  TOTAL DEPTH (DRILLER)
 VSDR.deg               140.47:  VERT SEC DIRECT
 GVFD.g                   1.00:  GRAVITY FIELD
 MFLD.nT              50362.00:  MAGNETIC FIELD
 MDIP.deg                59.48:  MAGNETIC DIP
 MDEC.deg                 6.47:  MAGNETIC DECL
 GRDC.deg                 0.31:  GRID CORRECTION
 AZTC.deg                 6.16:  AZM TOTAL CORR
 EPD .m                   0.00:  ELEVATION
 EGL .m                   0.00:  GROUND ELEVATION
 WDMS.m                 151.80:  WD ELEV
 APD .m                  43.60:  DEPTH ABOVE PD
 DEP .m                4092.57:  DEPTH
 AGAP.m                  43.60:  AIR GAP
 VSEW.m                  -0.67:  VERT SEC E/W
 VSNS.m                  -7.04:  VERT SEC N/S
 EKB .m                  43.60:  KB ELEVATION
 EDF .m                  43.60:  DF ELEVATION
 TDL .m                 957.50:  TOTAL DEPTH (LOGGER)
 VSC .                       0:  VS TO CLOSURE
 MAGU.                 1851413:  MAGUTM CHECKSUM
~Parameter Information Block
#MNEM.UNIT       Value        Description
#---------     -----------    ---------------------------
 AV  .mps                 1.50:  Ann Velocity 
 AVMX.mps                 2.00:  Max Ann Veloc 
 AZIF.deg               184.66:  Azm, Final 
 BHAT.        Rotary Steerable:  BHA Type 
 BREV.rev               300.00:  Rev Bit Total 
 BROT.°/30m              -0.50:  Build Rotating 
 BS  .in                  8.50:  Bit Size 
 BSZ .in                  8.50:  Bit Size 
 BTPL.psig              370.00:  Bit Press Loss 
 CABU.                      No:  Customer Abuse 
 CGEO.      Behruz Shahbaliyev:  Customer Geo 
 COMM.                     Ì™‡:  Run Comments 1 
 TCS .hr                140.08:  Time Ciculation Ended 
 CV  .mps                 3.00:  Crit Velocity 
 CVMX.mps                 3.20:  Max Crit Veloc 
 DD1 .            Musa Ahmadov:  Direct Drillr 1 
 DD2 .           Hamid Ahmadov:  Direct Drillr 2 
 DDSV.               Geo-Pilot:  DD Service 
 DEFF.%                  98.40:  % Det Eff 
 DLRX.°/30m               3.40:  Dogleg Rot Max 
 DLSO.°/30m               1.45:  Dogleg Oriented 
 DLSX.°/30m               3.40:  Dogleg Str Max 
 DRET.      18.40.00 29-Aug-21:  Drill End Time 
 DRST.      21.00.00 20-Aug-21:  Drill Start Tim 
 DTIM.hr                 69.47:  Time Drilling 
 EDEP.m                5084.50:  End Depth 
 ENG1.      Artemiy Matviyanov:  Engineer 1 
 ENG2.         Almaz Almadatov:  Engineer 2 
 ETIM.      18.40.00 29-Aug-21:  End Time 
 FLOI.gpm               500.00:  Flow In 
 FLON.gpm               400.00:  Flow In Min 
 FLOS.cptm                0.00:  Fluid Loss 
 FLOX.gpm               500.00:  Flow In Max 
 DFT .        Mineral Oil Base:  Mud Type 
 HFLO.                      No:  High Flow 
 HPRE.                      No:  High Pressure 
 HTEM.                      No:  High Temp 
 HYDO.m                   1.80:  Hydro Offset 
 IFIN.deg                25.62:  Inc, Final 
 IMAX.deg                48.69:  Inc Max 
 IMIN.deg                24.01:  Inc Min 
 IMND.m                4962.57:  Inc Min Depth 
 IMXD.m                4119.01:  Inc Max Depth 
 JARR.                      No:  Jarring 
 LETM.      18.40.00 29-Aug-21:  Log End Time 
 LOST.hr                     0:  Lost Rig Time 
 LSTM.      21.00.00 20-Aug-21:  Log Start Time 
 MDCL.ppm             41500.00:  Mud Chlorides 
 MDES.     Inversion Oil/Synthetic:  Mud Desc 
 DFD .sg                  1.56:  Mud Density 
 MDMN.sg                  1.56:  Dens Mud Min 
 MDMX.sg                  1.56:  Dens Mud Max 
 MOIL.                      70:  Run Mud Oil % 
 MOWR.                   70:30:  Run Mud OWR 
 MSND.                     0.2:  Run Mud Sand % 
 MSOL.                    23.3:  Run Mud Solids% 
 DFV .spqt               78.00:  Mud Viscosity 
 MWOD.in                  6.75:  MWD Tool OD 
 MWSI.                      No:  Serv Intrp, MWD 
 OTIM.hr                218.30:  Time Operating 
 PCON.           Look Like New:  Pad Condition 
 PMAX.psia            11015.30:  Press Op, Max 
 PV  .cP                 38.00:  Mud PV 
 RUN .                     300:  Run Number 
 ROPA.m/hr               15.00:  ROP Avg 
 ROPN.m/hr                9.00:  ROP Min 
 ROPX.m/hr               17.00:  ROP Max 
 RPMA.rpm               120.00:  RPM Surface Avg 
 RPMN.rpm                90.00:  RPM Surface Min 
 RPMX.rpm               140.00:  RPM Surface Max 
 RRUN.                     300:  Rig Run Number 
 RTIM.hr                 31.53:  Time Reaming 
 SAZI.deg               331.64:  Azm, Start 
 SDEP.m                4127.00:  Start Depth 
 SIDD.                      No:  Serv Intrp, DD 
 SINC.deg                48.43:  Inc, Start 
 SPPA.psig             5830.00:  SPP Avg 
 SPPN.psig             5600.00:  SPP Min 
 SPPX.psig             5900.00:  SPP Max 
 STIM.      21.00.00 20-Aug-21:  Start Time 
 SVCS.                 DD, MWD:  Services 
 SVER.                    9.20:  Sperry Version 
 TDAT.m                 957.50:  Tot Depth Attmp 
 TDDF.                      No:  Trip for DD 
 TDLG.m                 957.50:  Tot Depth Loggd 
 TFF .                      No:  Trip for Fail 
 TQAA.f-kp               15.00:  Torque Abs Avg 
 TQAN.f-kp               12.00:  Torque Abs Min 
 TQAX.f-kp               19.00:  Torque Abs Max 
 TRRT.°/30m              -3.40:  Turn Rotating 
 MRT .                  EWR-M5:  Maximum Recorded Temperature 
 TTMX.degC              100.00:  Max Tool Temp 
 VS01.                90639251:  Virtual Str1 SN 
 VS02.                90634715:  Virtual Str2 SN 
 VS03.                90652479:  Virtual Str3 SN 
 VS04.                90642262:  Virtual Str4 SN 
 WBMN.klb                 0.00:  WOB Min 
 WITN.           Murad Guliyev:  Customer Rep 
 WITN.          Yashar Gaziyev:  Customer Rep 2 
 WOBA.klb                 9.00:  WOB Avg 
 WOBX.klb                12.00:  WOB Max 
 YP  .lhf2               30.00:  Yield Point 
~Curve Information Block
#MNEM.UNIT                 API CODE     Curve Description
#---------               -----------    ---------------------------
 TIME.HHMMSS            00 000 000 000:  GT Time & Date
 GTDEPTH.m              00 000 000 000:  GT Depth
 GTPQH.psia             00 000 000 000:  GT HR Quartz Pressure
 GTTQ.degC              00 000 000 000:  GT Quartz Temperature
 GTTN.NONE              00 000 000 000:  GT Test Number
 GTET.sec               00 000 000 000:  GT Elapsed Test Time
 GTTVD.m                00 000 000 000:  GT True Vertical Depth
#Other Information
#
#WARRANTY: Halliburton will use its best efforts to furnish customers with 
#accurate information and interpretations that are part of, and incident to, the services 
#provided.  However, Halliburton cannot and does not warrant the accuracy 
#or correctness of such information and interpretations.  Under no circumstances should any 
#such information or interpretation be relied upon as the sole basis for any drilling, 
#completion, production, or financial decision or any procedure involving any risk to the 
#safety of any drilling venture, drilling rig or its crew or any other third party.  The 
#Customer has full responsibility for all drilling, completion and production operation.  
#Halliburton makes no representations or warranties, either expressed or 
#implied, including, but not limited to, the implied warranties of merchantability or fitness 
#for a particular purpose, with respect to the services rendered.  In no event will 
#Halliburton be liable for failure to obtain any particular results or for 
#any damages, including, but not limited to, indirect, special or consequential damages, 
#resulting from the use of any information or interpretation provided by Halliburton.
#
~A           TIME           GTDEPTH  GTPQH  GTTQ  GTTN   GTET   GTTVD  
# ...
   23:49:01.773.27-Aug-2021 4669.00 4471.81 82.05 26.00 361.65 3039.49
   23:49:01.973.27-Aug-2021 4669.00 4471.77 82.05 26.00 361.85 3039.49
   23:49:02.173.27-Aug-2021 4669.00 4471.71 82.05 26.00 362.05 3039.49
   23:49:02.373.27-Aug-2021 4669.00 4471.71 82.05 26.00 362.25 3039.49
   23:49:02.573.27-Aug-2021 4669.00 4471.77 82.05 26.00 362.45 3039.49
   23:49:02.773.27-Aug-2021 4669.00 4471.93 82.05 26.00 362.65 3039.49
   23:49:02.973.27-Aug-2021 4669.00 4471.78 82.05 26.00 362.85 3039.49
   23:49:03.173.27-Aug-2021 4669.00 4471.91 82.05 26.00 363.05 3039.49
   23:49:03.373.27-Aug-2021 4669.00 4471.91 82.05 26.00 363.25 3039.49
   23:49:03.573.27-Aug-2021 4669.00 4471.77 82.05 26.00 363.45 3039.49
   23:49:03.773.27-Aug-2021 4669.00 4472.01 82.05 26.00 363.65 3039.49
   23:49:03.973.27-Aug-2021 4669.00 4471.86 82.05 26.00 363.85 3039.49
   23:49:04.173.27-Aug-2021 4669.00 4471.95 82.05 26.00 364.05 3039.49
   23:49:04.373.27-Aug-2021 4669.00 4471.95 82.05 26.00 364.25 3039.49
   23:49:04.573.27-Aug-2021 4669.00 4471.96 82.05 26.00 364.45 3039.49
   23:49:04.773.27-Aug-2021 4669.00 4471.62 82.05 26.00 364.65 3039.49
   23:49:04.973.27-Aug-2021 4669.00 4472.21 82.05 26.00 364.85 3039.49
   23:49:05.173.27-Aug-2021 4669.00 4471.77 82.05 26.00 365.05 3039.49
   23:49:05.373.27-Aug-2021 4669.00 4471.77 82.05 26.00 365.25 3039.49
   23:49:05.573.27-Aug-2021 4669.00 4471.84 82.05 26.00 365.45 3039.49
   23:49:05.773.27-Aug-2021 4669.00 4472.04 82.05 26.00 365.65 3039.49
   23:49:05.973.27-Aug-2021 4669.00 4471.90 82.05 26.00 365.85 3039.49
   23:49:06.173.27-Aug-2021 4669.00 4472.01 82.05 26.00 366.05 3039.49
   23:49:06.373.27-Aug-2021 4669.00 4472.01 82.05 26.00 366.25 3039.49
   23:49:06.573.27-Aug-2021 4669.00 4471.99 82.05 26.00 366.45 3039.49
   23:49:06.773.27-Aug-2021 4669.00 4471.97 82.05 26.00 366.65 3039.49
   23:49:06.973.27-Aug-2021 4669.00 4471.99 82.05 26.00 366.85 3039.49
   23:49:07.173.27-Aug-2021 4669.00 4471.97 82.05 26.00 367.05 3039.49
   23:49:07.373.27-Aug-2021 4669.00 4471.97 82.05 26.00 367.25 3039.49
   23:49:07.573.27-Aug-2021 4669.00 4471.97 82.05 26.00 367.45 3039.49
   23:49:07.773.27-Aug-2021 4669.00 4471.86 82.05 26.00 367.65 3039.49
   23:49:07.974.27-Aug-2021 4669.00 4472.09 82.05 26.00 367.85 3039.49
   23:49:08.174.27-Aug-2021 4669.00 4472.18 82.05 26.00 368.05 3039.49
   23:49:08.374.27-Aug-2021 4669.00 4472.18 82.05 26.00 368.25 3039.49
   23:49:08.574.27-Aug-2021 4669.00 4472.10 82.05 26.00 368.45 3039.49
   23:49:08.774.27-Aug-2021 4669.00 4472.06 82.05 26.00 368.65 3039.49
   23:49:08.974.27-Aug-2021 4669.00 4472.07 82.05 26.00 368.85 3039.49
   23:49:09.174.27-Aug-2021 4669.00 4472.09 82.05 26.00 369.05 3039.49
   23:49:09.374.27-Aug-2021 4669.00 4472.09 82.05 26.00 369.25 3039.49
   23:49:09.574.27-Aug-2021 4669.00 4472.08 82.05 26.00 369.45 3039.49
   23:49:09.774.27-Aug-2021 4669.00 4472.08 82.05 26.00 369.65 3039.49
   23:49:09.974.27-Aug-2021 4669.00 4472.11 82.05 26.00 369.85 3039.49
   23:49:10.174.27-Aug-2021 4669.00 4472.08 82.05 26.00 370.05 3039.49
   23:49:10.374.27-Aug-2021 4669.00 4472.08 82.05 26.00 370.25 3039.49
   23:49:10.574.27-Aug-2021 4669.00 4472.09 82.05 26.00 370.45 3039.49
   23:49:10.774.27-Aug-2021 4669.00 4472.10 82.05 26.00 370.65 3039.49
   23:49:10.974.27-Aug-2021 4669.00 4472.11 82.05 26.00 370.85 3039.49
   23:49:11.174.27-Aug-2021 4669.00 4472.01 82.05 26.00 371.05 3039.49
   23:49:11.374.27-Aug-2021 4669.00 4472.01 82.05 26.00 371.25 3039.49
   23:49:11.574.27-Aug-2021 4669.00 4472.15 82.05 26.00 371.45 3039.49
   23:49:11.774.27-Aug-2021 4669.00 4472.21 82.05 26.00 371.65 3039.49
   23:49:11.974.27-Aug-2021 4669.00 4472.12 82.05 26.00 371.85 3039.49
   23:49:12.174.27-Aug-2021 4669.00 4472.10 82.05 26.00 372.05 3039.49
   23:49:12.374.27-Aug-2021 4669.00 4472.10 82.05 26.00 372.25 3039.49
   23:49:12.574.27-Aug-2021 4669.00 4472.15 82.05 26.00 372.45 3039.49
   23:49:12.774.27-Aug-2021 4669.00 4472.31 82.05 26.00 372.65 3039.49
   23:49:12.974.27-Aug-2021 4669.00 4472.15 82.05 26.00 372.85 3039.49
   23:49:13.174.27-Aug-2021 4669.00 4472.27 82.05 26.00 373.05 3039.49
   23:49:13.374.27-Aug-2021 4669.00 4472.27 82.05 26.00 373.25 3039.49
   23:49:13.574.27-Aug-2021 4669.00 4472.15 82.05 26.00 373.45 3039.49
   23:49:13.774.27-Aug-2021 4669.00 4472.33 82.05 26.00 373.65 3039.49
   23:49:13.974.27-Aug-2021 4669.00 4472.23 82.05 26.00 373.85 3039.49
   23:49:14.174.27-Aug-2021 4669.00 4472.30 82.05 26.00 374.05 3039.49
   23:49:14.374.27-Aug-2021 4669.00 4472.30 82.05 26.00 374.25 3039.49
   23:49:14.574.27-Aug-2021 4669.00 4472.32 82.05 26.00 374.45 3039.49
   23:49:14.774.27-Aug-2021 4669.00 4471.95 82.05 26.00 374.65 3039.49
   23:49:14.974.27-Aug-2021 4669.00 4472.59 82.05 26.00 374.85 3039.49
   23:49:15.174.27-Aug-2021 4669.00 4472.09 82.05 26.00 375.05 3039.49
   23:49:15.374.27-Aug-2021 4669.00 4472.09 82.05 26.00 375.25 3039.49
   23:49:15.574.27-Aug-2021 4669.00 4472.15 82.05 26.00 375.45 3039.49
   23:49:15.774.27-Aug-2021 4669.00 4472.43 82.05 26.00 375.65 3039.49
   23:49:15.975.27-Aug-2021 4669.00 4472.21 82.05 26.00 375.85 3039.49
   23:49:16.175.27-Aug-2021 4669.00 4472.37 82.05 26.00 376.05 3039.49
   23:49:16.375.27-Aug-2021 4669.00 4472.37 82.05 26.00 376.25 3039.49
   23:49:16.575.27-Aug-2021 4669.00 4472.34 82.05 26.00 376.45 3039.49
   23:49:16.775.27-Aug-2021 4669.00 4472.31 82.05 26.00 376.65 3039.49
   23:49:16.975.27-Aug-2021 4669.00 4472.33 82.05 26.00 376.85 3039.49
   23:49:17.175.27-Aug-2021 4669.00 4472.32 82.05 26.00 377.05 3039.49
   23:49:17.375.27-Aug-2021 4669.00 4472.32 82.05 26.00 377.25 3039.49
   23:49:17.575.27-Aug-2021 4669.00 4472.33 82.05 26.00 377.45 3039.49
   23:49:17.775.27-Aug-2021 4669.00 4472.21 82.05 26.00 377.65 3039.49
   23:49:17.975.27-Aug-2021 4669.00 4472.45 82.05 26.00 377.85 3039.49
   23:49:18.175.27-Aug-2021 4669.00 4496.40 82.05 26.00 378.05 3039.49
   23:49:18.375.27-Aug-2021 4669.00 4496.40 82.05 26.00 378.25 3039.49
   23:49:18.575.27-Aug-2021 4669.00 4597.42 82.05 26.00 378.45 3039.49
   23:49:18.775.27-Aug-2021 4669.00 6264.92 82.05 26.00 378.65 3039.49
   23:49:18.975.27-Aug-2021 4669.00 7264.97 82.05 26.00 378.85 3039.49
   23:49:19.175.27-Aug-2021 4669.00 7263.45 82.05 26.00 379.05 3039.49
   23:49:19.375.27-Aug-2021 4669.00 7263.45 82.05 26.00 379.25 3039.49
   23:49:19.575.27-Aug-2021 4669.00 7262.92 82.05 26.00 379.45 3039.49
   23:49:19.775.27-Aug-2021 4669.00 7263.69 82.05 26.00 379.65 3039.49
   23:49:19.975.27-Aug-2021 4669.00 7264.16 82.05 26.00 379.85 3039.49
   23:49:20.175.27-Aug-2021 4669.00 7264.43 82.05 26.00 380.05 3039.49
   23:49:20.375.27-Aug-2021 4669.00 7264.43 82.05 26.00 380.25 3039.49
   23:49:20.575.27-Aug-2021 4669.00 7265.42 82.06 26.00 380.45 3039.49
   23:49:20.775.27-Aug-2021 4669.00 7265.78 82.06 26.00 380.65 3039.49
   23:49:20.975.27-Aug-2021 4669.00 7266.05 82.06 26.00 380.85 3039.49
   23:49:21.175.27-Aug-2021 4669.00 7272.74 82.06 26.00 381.05 3039.49
   23:49:21.375.27-Aug-2021 4669.00 7272.74 82.06 26.00 381.25 3039.49
   23:49:21.575.27-Aug-2021 4669.00 7268.35 82.07 26.00 381.45 3039.49
   23:49:21.775.27-Aug-2021 4669.00 7267.99 82.07 26.00 381.65 3039.49
   23:49:21.975.27-Aug-2021 4669.00 7269.29 82.07 26.00 381.85 3039.49
   23:49:22.175.27-Aug-2021 4669.00 7274.37 82.07 26.00 382.05 3039.49
   23:49:22.375.27-Aug-2021 4669.00 7274.37 82.07 26.00 382.25 3039.49
   23:49:22.575.27-Aug-2021 4669.00 7269.72 82.08 26.00 382.45 3039.49
   23:49:22.775.27-Aug-2021 4669.00 7268.93 82.08 26.00 382.65 3039.49
   23:49:22.975.27-Aug-2021 4669.00 7270.22 82.08 26.00 382.85 3039.49
   23:49:23.175.27-Aug-2021 4669.00 7269.28 82.08 26.00 383.05 3039.49
   23:49:23.375.27-Aug-2021 4669.00 7269.28 82.08 26.00 383.25 3039.49
   23:49:23.575.27-Aug-2021 4669.00 7273.05 82.09 26.00 383.45 3039.49
   23:49:23.775.27-Aug-2021 4669.00 7269.46 82.09 26.00 383.65 3039.49
   23:49:23.976.27-Aug-2021 4669.00 7269.81 82.09 26.00 383.85 3039.49
   23:49:24.176.27-Aug-2021 4669.00 7270.06 82.09 26.00 384.05 3039.49
