~Version Information
 VERS.                  2.0:   CWLS log ASCII Standard -VERSION 2.0
 WRAP.                   NO:   One line per depth step
~Well Information Block
#MNEM.UNIT     VALUE/NAME     DESCRIPTION
#---------     -----------    ---------------------------
 STRT.S             08:06:40 27-Aug-21: START TIME 08:06:40 27-Aug-21
 STOP.S             08:13:50 27-Aug-21: STOP TIME  08:13:50 27-Aug-21
 STEP.S                   0.00: STEP TIME
 NULL.                 -999.25: NULL VALUE
 DFWT.                        :  DIST FWL TEXT
 DFST.                        :  DIST FSL TEXT
 DMF .             Drill Floor:  DRILL MEAS FROM
 STIM.      20.00.00 17-Aug-21:  START TIME
 DATE.      19.00.00 29-Aug-21:  END TIME
 SPUD.               15-Aug-21:  SPUD DATE
 NREF.                    Grid:  NORTH REFERENCE
 HPTY.       Minimum Curvature:  HOLE POS TYPE
 DMOD.             Drill Model:  DRILL MOD DESC
 SVYD.                  Survey:  SURVEY DESC
 ILTD.               Lithology:  INTERP LTH DESC
 FTOP.          Formation Tops:  FORM TOPS DESC
 RIG .              East Azeri:  RIG NAME
 PDAT.          Mean Sea Level:  PERMANENT DATUM
 FLD .                     ACG:  FIELD NAME
 SON .        AZ-XX-0907180857:  JOB NUMBER
 CTRY.              Azerbaijan:  COUNTRY NAME
 WELL.                    D23x:  WELL NAME
 SRVC.     Turan Drilling and Engineering:  CONTRACTOR
 COMP.     BP Exploration (Caspian Sea) Ltd.:  COMPANY
 UWI .            /AZE00000214:  UNIQUE WELL IDENTIFIER
 API .            /AZE00000214:  API NUMBER
 MDS .        Operator Entered:  MAG DATA SOURCE
 BASE.              Azerbaijan:  LOGGING EQUIPMENT BASE LOCATION
 REGN.                   EESSA:  REGION
 PROV.                    Baku:  PROVINCE
 STAT.                    Baku:  STATE NAME
 MWDS.                    Baku:  MWD SHOP
 DOE .                     N/A:  DOE NUMBER
 DCON.         Sperry Drilling:  DIRECTNL CONTR
 UNIT.                     N/A:  LOGGING EQUIPMENT ID
 WTYP.                Deviated:  WELL TYPE
 CNTY.                        :  COUNTY
 LOC .                        :  LOCATION
 LMF .             Drill Floor:  LOG MEASURED FROM
 TVDS.m                  43.60:  TVDSS CORRECTN
 LATI.deg                40.02:  LATITUDE
 LONG.deg                51.45:  LONGITUDE
 WHNS.m                  -7.04:  WELL HEAD N/S
 WHEW.m                  -0.67:  WELL HEAD E/W
 UTMX.m              538762.90:  UTM X
 UTMY.m             4431871.34:  UTM Y
 DFWL.m                   0.00:  DISTANCE FWL
 DFSL.m                   0.00:  DISTANCE FSL
 SDEP.m                4127.00:  START DEPTH
 TDD .m                5084.50:  TOTAL DEPTH (DRILLER)
 VSDR.deg               140.47:  VERT SEC DIRECT
 GVFD.g                   1.00:  GRAVITY FIELD
 MFLD.nT              50362.00:  MAGNETIC FIELD
 MDIP.deg                59.48:  MAGNETIC DIP
 MDEC.deg                 6.47:  MAGNETIC DECL
 GRDC.deg                 0.31:  GRID CORRECTION
 AZTC.deg                 6.16:  AZM TOTAL CORR
 EPD .m                   0.00:  ELEVATION
 EGL .m                   0.00:  GROUND ELEVATION
 WDMS.m                 151.80:  WD ELEV
 APD .m                  43.60:  DEPTH ABOVE PD
 DEP .m                4092.57:  DEPTH
 AGAP.m                  43.60:  AIR GAP
 VSEW.m                  -0.67:  VERT SEC E/W
 VSNS.m                  -7.04:  VERT SEC N/S
 EKB .m                  43.60:  KB ELEVATION
 EDF .m                  43.60:  DF ELEVATION
 TDL .m                 957.50:  TOTAL DEPTH (LOGGER)
 VSC .                       0:  VS TO CLOSURE
 MAGU.                 1851413:  MAGUTM CHECKSUM
~Parameter Information Block
#MNEM.UNIT       Value        Description
#---------     -----------    ---------------------------
 AV  .mps                 1.50:  Ann Velocity 
 AVMX.mps                 2.00:  Max Ann Veloc 
 AZIF.deg               184.66:  Azm, Final 
 BHAT.        Rotary Steerable:  BHA Type 
 BREV.rev               300.00:  Rev Bit Total 
 BROT.°/30m              -0.50:  Build Rotating 
 BS  .in                  8.50:  Bit Size 
 BSZ .in                  8.50:  Bit Size 
 BTPL.psig              370.00:  Bit Press Loss 
 CABU.                      No:  Customer Abuse 
 CGEO.      Behruz Shahbaliyev:  Customer Geo 
 COMM.                     ü;x:  Run Comments 1 
 TCS .hr                140.08:  Time Ciculation Ended 
 CV  .mps                 3.00:  Crit Velocity 
 CVMX.mps                 3.20:  Max Crit Veloc 
 DD1 .            Musa Ahmadov:  Direct Drillr 1 
 DD2 .           Hamid Ahmadov:  Direct Drillr 2 
 DDSV.               Geo-Pilot:  DD Service 
 DEFF.%                  98.40:  % Det Eff 
 DLRX.°/30m               3.40:  Dogleg Rot Max 
 DLSO.°/30m               1.45:  Dogleg Oriented 
 DLSX.°/30m               3.40:  Dogleg Str Max 
 DRET.      18.40.00 29-Aug-21:  Drill End Time 
 DRST.      21.00.00 20-Aug-21:  Drill Start Tim 
 DTIM.hr                 69.47:  Time Drilling 
 EDEP.m                5084.50:  End Depth 
 ENG1.      Artemiy Matviyanov:  Engineer 1 
 ENG2.         Almaz Almadatov:  Engineer 2 
 ETIM.      18.40.00 29-Aug-21:  End Time 
 FLOI.gpm               500.00:  Flow In 
 FLON.gpm               400.00:  Flow In Min 
 FLOS.cptm                0.00:  Fluid Loss 
 FLOX.gpm               500.00:  Flow In Max 
 DFT .        Mineral Oil Base:  Mud Type 
 HFLO.                      No:  High Flow 
 HPRE.                      No:  High Pressure 
 HTEM.                      No:  High Temp 
 HYDO.m                   1.80:  Hydro Offset 
 IFIN.deg                25.62:  Inc, Final 
 IMAX.deg                48.69:  Inc Max 
 IMIN.deg                24.01:  Inc Min 
 IMND.m                4962.57:  Inc Min Depth 
 IMXD.m                4119.01:  Inc Max Depth 
 JARR.                      No:  Jarring 
 LETM.      18.40.00 29-Aug-21:  Log End Time 
 LOST.hr                     0:  Lost Rig Time 
 LSTM.      21.00.00 20-Aug-21:  Log Start Time 
 MDCL.ppm             41500.00:  Mud Chlorides 
 MDES.     Inversion Oil/Synthetic:  Mud Desc 
 DFD .sg                  1.56:  Mud Density 
 MDMN.sg                  1.56:  Dens Mud Min 
 MDMX.sg                  1.56:  Dens Mud Max 
 MOIL.                      70:  Run Mud Oil % 
 MOWR.                   70:30:  Run Mud OWR 
 MSND.                     0.2:  Run Mud Sand % 
 MSOL.                    23.3:  Run Mud Solids% 
 DFV .spqt               78.00:  Mud Viscosity 
 MWOD.in                  6.75:  MWD Tool OD 
 MWSI.                      No:  Serv Intrp, MWD 
 OTIM.hr                218.30:  Time Operating 
 PCON.           Look Like New:  Pad Condition 
 PMAX.psia            11015.30:  Press Op, Max 
 PV  .cP                 38.00:  Mud PV 
 RUN .                     300:  Run Number 
 ROPA.m/hr               15.00:  ROP Avg 
 ROPN.m/hr                9.00:  ROP Min 
 ROPX.m/hr               17.00:  ROP Max 
 RPMA.rpm               120.00:  RPM Surface Avg 
 RPMN.rpm                90.00:  RPM Surface Min 
 RPMX.rpm               140.00:  RPM Surface Max 
 RRUN.                     300:  Rig Run Number 
 RTIM.hr                 31.53:  Time Reaming 
 SAZI.deg               331.64:  Azm, Start 
 SDEP.m                4127.00:  Start Depth 
 SIDD.                      No:  Serv Intrp, DD 
 SINC.deg                48.43:  Inc, Start 
 SPPA.psig             5830.00:  SPP Avg 
 SPPN.psig             5600.00:  SPP Min 
 SPPX.psig             5900.00:  SPP Max 
 STIM.      21.00.00 20-Aug-21:  Start Time 
 SVCS.                 DD, MWD:  Services 
 SVER.                    9.20:  Sperry Version 
 TDAT.m                 957.50:  Tot Depth Attmp 
 TDDF.                      No:  Trip for DD 
 TDLG.m                 957.50:  Tot Depth Loggd 
 TFF .                      No:  Trip for Fail 
 TQAA.f-kp               15.00:  Torque Abs Avg 
 TQAN.f-kp               12.00:  Torque Abs Min 
 TQAX.f-kp               19.00:  Torque Abs Max 
 TRRT.°/30m              -3.40:  Turn Rotating 
 MRT .                  EWR-M5:  Maximum Recorded Temperature 
 TTMX.degC              100.00:  Max Tool Temp 
 VS01.                90639251:  Virtual Str1 SN 
 VS02.                90634715:  Virtual Str2 SN 
 VS03.                90652479:  Virtual Str3 SN 
 VS04.                90642262:  Virtual Str4 SN 
 WBMN.klb                 0.00:  WOB Min 
 WITN.           Murad Guliyev:  Customer Rep 
 WITN.          Yashar Gaziyev:  Customer Rep 2 
 WOBA.klb                 9.00:  WOB Avg 
 WOBX.klb                12.00:  WOB Max 
 YP  .lhf2               30.00:  Yield Point 
~Curve Information Block
#MNEM.UNIT                 API CODE     Curve Description
#---------               -----------    ---------------------------
 TIME.HHMMSS            00 000 000 000:  GT Time & Date
 GTDEPTH.m              00 000 000 000:  GT Depth
 GTPQH.psia             00 000 000 000:  GT HR Quartz Pressure
 GTTQ.degC              00 000 000 000:  GT Quartz Temperature
 GTTN.NONE              00 000 000 000:  GT Test Number
 GTET.sec               00 000 000 000:  GT Elapsed Test Time
 GTTVD.m                00 000 000 000:  GT True Vertical Depth
#Other Information
#
#WARRANTY: Halliburton will use its best efforts to furnish customers with 
#accurate information and interpretations that are part of, and incident to, the services 
#provided.  However, Halliburton cannot and does not warrant the accuracy 
#or correctness of such information and interpretations.  Under no circumstances should any 
#such information or interpretation be relied upon as the sole basis for any drilling, 
#completion, production, or financial decision or any procedure involving any risk to the 
#safety of any drilling venture, drilling rig or its crew or any other third party.  The 
#Customer has full responsibility for all drilling, completion and production operation.  
#Halliburton makes no representations or warranties, either expressed or 
#implied, including, but not limited to, the implied warranties of merchantability or fitness 
#for a particular purpose, with respect to the services rendered.  In no event will 
#Halliburton be liable for failure to obtain any particular results or for 
#any damages, including, but not limited to, indirect, special or consequential damages, 
#resulting from the use of any information or interpretation provided by Halliburton.
#
~A           TIME           GTDEPTH  GTPQH  GTTQ  GTTN  GTET   GTTVD  
# ...
   08:08:35.744.27-Aug-2021 4992.50 4261.73 86.93 5.00 115.02 3332.84
   08:08:35.944.27-Aug-2021 4992.50 4261.73 86.93 5.00 115.22 3332.84
   08:08:36.144.27-Aug-2021 4992.50 4261.75 86.93 5.00 115.42 3332.84
   08:08:36.345.27-Aug-2021 4992.50 4261.73 86.93 5.00 115.62 3332.84
   08:08:36.545.27-Aug-2021 4992.50 4261.40 86.93 5.00 115.82 3332.84
   08:08:36.745.27-Aug-2021 4992.50 4261.40 86.93 5.00 116.02 3332.84
   08:08:36.945.27-Aug-2021 4992.50 4261.40 86.93 5.00 116.22 3332.84
   08:08:37.145.27-Aug-2021 4992.50 4261.48 86.93 5.00 116.42 3332.84
   08:08:37.345.27-Aug-2021 4992.50 4261.51 86.93 5.00 116.62 3332.84
   08:08:37.545.27-Aug-2021 4992.50 4261.55 86.93 5.00 116.82 3332.84
   08:08:37.745.27-Aug-2021 4992.50 4261.43 86.93 5.00 117.02 3332.84
   08:08:37.945.27-Aug-2021 4992.50 4261.43 86.93 5.00 117.22 3332.84
   08:08:38.145.27-Aug-2021 4992.50 4261.34 86.93 5.00 117.42 3332.84
   08:08:38.345.27-Aug-2021 4992.50 4261.36 86.93 5.00 117.62 3332.84
   08:08:38.545.27-Aug-2021 4992.50 4261.36 86.93 5.00 117.82 3332.84
   08:08:38.745.27-Aug-2021 4992.50 4261.20 86.93 5.00 118.02 3332.84
   08:08:38.945.27-Aug-2021 4992.50 4261.20 86.93 5.00 118.22 3332.84
   08:08:39.145.27-Aug-2021 4992.50 4261.27 86.93 5.00 118.42 3332.84
   08:08:39.345.27-Aug-2021 4992.50 4261.33 86.93 5.00 118.62 3332.84
   08:08:39.545.27-Aug-2021 4992.50 4261.35 86.93 5.00 118.82 3332.84
   08:08:39.745.27-Aug-2021 4992.50 4261.41 86.93 5.00 119.02 3332.84
   08:08:39.945.27-Aug-2021 4992.50 4261.41 86.93 5.00 119.22 3332.84
   08:08:40.145.27-Aug-2021 4992.50 4261.23 86.93 5.00 119.42 3332.84
   08:08:40.345.27-Aug-2021 4992.50 4261.27 86.93 5.00 119.62 3332.84
   08:08:40.545.27-Aug-2021 4992.50 4261.30 86.93 5.00 119.82 3332.84
   08:08:40.745.27-Aug-2021 4992.50 4261.35 86.93 5.00 120.02 3332.84
   08:08:40.945.27-Aug-2021 4992.50 4261.35 86.93 5.00 120.22 3332.84
   08:08:41.145.27-Aug-2021 4992.50 4261.41 86.93 5.00 120.42 3332.84
   08:08:41.345.27-Aug-2021 4992.50 4261.44 86.93 5.00 120.62 3332.84
   08:08:41.545.27-Aug-2021 4992.50 4261.47 86.93 5.00 120.82 3332.84
   08:08:41.745.27-Aug-2021 4992.50 4261.51 86.93 5.00 121.02 3332.84
   08:08:41.945.27-Aug-2021 4992.50 4261.51 86.93 5.00 121.22 3332.84
   08:08:42.145.27-Aug-2021 4992.50 4261.56 86.93 5.00 121.42 3332.84
   08:08:42.345.27-Aug-2021 4992.50 4261.57 86.93 5.00 121.62 3332.84
   08:08:42.546.27-Aug-2021 4992.50 4261.61 86.93 5.00 121.82 3332.84
   08:08:42.746.27-Aug-2021 4992.50 4261.62 86.93 5.00 122.02 3332.84
   08:08:42.946.27-Aug-2021 4992.50 4261.62 86.93 5.00 122.22 3332.84
   08:08:43.146.27-Aug-2021 4992.50 4261.41 86.93 5.00 122.42 3332.84
   08:08:43.346.27-Aug-2021 4992.50 4261.32 86.93 5.00 122.62 3332.84
   08:08:43.546.27-Aug-2021 4992.50 4261.35 86.93 5.00 122.82 3332.84
   08:08:43.746.27-Aug-2021 4992.50 4261.38 86.93 5.00 123.02 3332.84
   08:08:43.946.27-Aug-2021 4992.50 4261.38 86.93 5.00 123.22 3332.84
   08:08:44.146.27-Aug-2021 4992.50 4261.45 86.93 5.00 123.42 3332.84
   08:08:44.346.27-Aug-2021 4992.50 4261.48 86.93 5.00 123.62 3332.84
   08:08:44.546.27-Aug-2021 4992.50 4261.50 86.93 5.00 123.82 3332.84
   08:08:44.746.27-Aug-2021 4992.50 4261.54 86.93 5.00 124.02 3332.84
   08:08:44.946.27-Aug-2021 4992.50 4261.54 86.93 5.00 124.22 3332.84
   08:08:45.146.27-Aug-2021 4992.50 4261.58 86.93 5.00 124.42 3332.84
   08:08:45.346.27-Aug-2021 4992.50 4261.59 86.93 5.00 124.62 3332.84
   08:08:45.546.27-Aug-2021 4992.50 4261.61 86.93 5.00 124.82 3332.84
   08:08:45.746.27-Aug-2021 4992.50 4261.63 86.93 5.00 125.02 3332.84
   08:08:45.946.27-Aug-2021 4992.50 4261.63 86.93 5.00 125.22 3332.84
   08:08:46.146.27-Aug-2021 4992.50 4261.66 86.93 5.00 125.42 3332.84
   08:08:46.346.27-Aug-2021 4992.50 4261.59 86.93 5.00 125.62 3332.84
   08:08:46.546.27-Aug-2021 4992.50 4261.32 86.93 5.00 125.82 3332.84
   08:08:46.746.27-Aug-2021 4992.50 4261.36 86.93 5.00 126.02 3332.84
   08:08:46.946.27-Aug-2021 4992.50 4261.36 86.93 5.00 126.22 3332.84
   08:08:47.146.27-Aug-2021 4992.50 4261.41 86.93 5.00 126.42 3332.84
   08:08:47.346.27-Aug-2021 4992.50 4261.44 86.93 5.00 126.62 3332.84
   08:08:47.546.27-Aug-2021 4992.50 4261.46 86.93 5.00 126.82 3332.84
   08:08:47.746.27-Aug-2021 4992.50 4261.30 86.93 5.00 127.02 3332.84
   08:08:47.946.27-Aug-2021 4992.50 4261.30 86.93 5.00 127.22 3332.84
   08:08:48.146.27-Aug-2021 4992.50 4261.29 86.93 5.00 127.42 3332.84
   08:08:48.346.27-Aug-2021 4992.50 4261.32 86.93 5.00 127.62 3332.84
   08:08:48.547.27-Aug-2021 4992.50 4261.26 86.93 5.00 127.82 3332.84
   08:08:48.747.27-Aug-2021 4992.50 4261.16 86.93 5.00 128.02 3332.84
   08:08:48.947.27-Aug-2021 4992.50 4261.16 86.93 5.00 128.22 3332.84
   08:08:49.147.27-Aug-2021 4992.50 4261.22 86.93 5.00 128.42 3332.84
   08:08:49.347.27-Aug-2021 4992.50 4261.26 86.93 5.00 128.62 3332.84
   08:08:49.547.27-Aug-2021 4992.50 4261.28 86.93 5.00 128.82 3332.84
   08:08:49.747.27-Aug-2021 4992.50 4261.32 86.93 5.00 129.02 3332.84
   08:08:49.947.27-Aug-2021 4992.50 4261.32 86.93 5.00 129.22 3332.84
   08:08:50.147.27-Aug-2021 4992.50 4261.17 86.93 5.00 129.42 3332.84
   08:08:50.347.27-Aug-2021 4992.50 4261.22 86.93 5.00 129.62 3332.84
   08:08:50.547.27-Aug-2021 4992.50 4261.23 86.93 5.00 129.82 3332.84
   08:08:50.747.27-Aug-2021 4992.50 4261.26 86.93 5.00 130.02 3332.84
   08:08:50.947.27-Aug-2021 4992.50 4261.26 86.93 5.00 130.22 3332.84
   08:08:51.147.27-Aug-2021 4992.50 4261.32 86.93 5.00 130.42 3332.84
   08:08:51.347.27-Aug-2021 4992.50 4261.34 86.93 5.00 130.62 3332.84
   08:08:51.547.27-Aug-2021 4992.50 4261.37 86.93 5.00 130.82 3332.84
   08:08:51.747.27-Aug-2021 4992.50 4261.39 86.93 5.00 131.02 3332.84
   08:08:51.947.27-Aug-2021 4992.50 4261.39 86.93 5.00 131.22 3332.84
   08:08:52.147.27-Aug-2021 4992.50 4261.45 86.93 5.00 131.42 3332.84
   08:08:52.347.27-Aug-2021 4992.50 4261.45 86.93 5.00 131.62 3332.84
   08:08:52.547.27-Aug-2021 4992.50 4261.49 86.93 5.00 131.82 3332.84
   08:08:52.747.27-Aug-2021 4992.50 4261.50 86.93 5.00 132.02 3332.84
   08:08:52.947.27-Aug-2021 4992.50 4261.50 86.93 5.00 132.22 3332.84
   08:08:53.147.27-Aug-2021 4992.50 4261.29 86.93 5.00 132.42 3332.84
   08:08:53.347.27-Aug-2021 4992.50 4261.28 86.93 5.00 132.62 3332.84
   08:08:53.547.27-Aug-2021 4992.50 4261.30 86.93 5.00 132.82 3332.84
   08:08:53.747.27-Aug-2021 4992.50 4261.33 86.93 5.00 133.02 3332.84
   08:08:53.947.27-Aug-2021 4992.50 4261.33 86.93 5.00 133.22 3332.84
   08:08:54.147.27-Aug-2021 4992.50 4261.38 86.93 5.00 133.42 3332.84
   08:08:54.347.27-Aug-2021 4992.50 4261.40 86.93 5.00 133.62 3332.84
   08:08:54.547.27-Aug-2021 4992.50 4261.42 86.93 5.00 133.82 3332.84
   08:08:54.748.27-Aug-2021 4992.50 4261.44 86.93 5.00 134.02 3332.84
   08:08:54.948.27-Aug-2021 4992.50 4261.44 86.93 5.00 134.22 3332.84
   08:08:55.148.27-Aug-2021 4992.50 4261.49 86.93 5.00 134.42 3332.84
   08:08:55.348.27-Aug-2021 4992.50 4261.50 86.93 5.00 134.62 3332.84
   08:08:55.548.27-Aug-2021 4992.50 4261.51 86.93 5.00 134.82 3332.84
   08:08:55.748.27-Aug-2021 4992.50 4261.54 86.93 5.00 135.02 3332.84
   08:08:55.948.27-Aug-2021 4992.50 4261.54 86.93 5.00 135.22 3332.84
   08:08:56.148.27-Aug-2021 4992.50 4261.55 86.93 5.00 135.42 3332.84
   08:08:56.348.27-Aug-2021 4992.50 4261.42 86.93 5.00 135.62 3332.84
   08:08:56.548.27-Aug-2021 4992.50 4261.27 86.93 5.00 135.82 3332.84
   08:08:56.748.27-Aug-2021 4992.50 4261.29 86.93 5.00 136.02 3332.84
   08:08:56.948.27-Aug-2021 4992.50 4261.29 86.93 5.00 136.22 3332.84
   08:08:57.148.27-Aug-2021 4992.50 4261.33 86.93 5.00 136.42 3332.84
   08:08:57.348.27-Aug-2021 4992.50 4261.36 86.93 5.00 136.62 3332.84
   08:08:57.548.27-Aug-2021 4992.50 4261.36 86.93 5.00 136.82 3332.84
   08:08:57.748.27-Aug-2021 4992.50 4261.19 86.93 5.00 137.02 3332.84
   08:08:57.948.27-Aug-2021 4992.50 4261.19 86.93 5.00 137.22 3332.84
   08:08:58.148.27-Aug-2021 4992.50 4261.21 86.93 5.00 137.42 3332.84
   08:08:58.348.27-Aug-2021 4992.50 4261.24 86.93 5.00 137.62 3332.84
   08:08:58.548.27-Aug-2021 4992.50 4261.15 86.93 5.00 137.82 3332.84
