~Version Information
 VERS.                  2.0:   CWLS log ASCII Standard -VERSION 2.0
 WRAP.                   NO:   One line per depth step
~Well Information Block
#MNEM.UNIT     VALUE/NAME     DESCRIPTION
#---------     -----------    ---------------------------
 STRT.S             10:06:49 27-Aug-21: START TIME 10:06:49 27-Aug-21
 STOP.S             10:13:57 27-Aug-21: STOP TIME  10:13:57 27-Aug-21
 STEP.S                   0.00: STEP TIME
 NULL.                 -999.25: NULL VALUE
 DFWT.                        :  DIST FWL TEXT
 DFST.                        :  DIST FSL TEXT
 DMF .             Drill Floor:  DRILL MEAS FROM
 STIM.      20.00.00 17-Aug-21:  START TIME
 DATE.      19.00.00 29-Aug-21:  END TIME
 SPUD.               15-Aug-21:  SPUD DATE
 NREF.                    Grid:  NORTH REFERENCE
 HPTY.       Minimum Curvature:  HOLE POS TYPE
 DMOD.             Drill Model:  DRILL MOD DESC
 SVYD.                  Survey:  SURVEY DESC
 ILTD.               Lithology:  INTERP LTH DESC
 FTOP.          Formation Tops:  FORM TOPS DESC
 RIG .              East Azeri:  RIG NAME
 PDAT.          Mean Sea Level:  PERMANENT DATUM
 FLD .                     ACG:  FIELD NAME
 SON .        AZ-XX-0907180857:  JOB NUMBER
 CTRY.              Azerbaijan:  COUNTRY NAME
 WELL.                    D23x:  WELL NAME
 SRVC.     Turan Drilling and Engineering:  CONTRACTOR
 COMP.     BP Exploration (Caspian Sea) Ltd.:  COMPANY
 UWI .            /AZE00000214:  UNIQUE WELL IDENTIFIER
 API .            /AZE00000214:  API NUMBER
 MDS .        Operator Entered:  MAG DATA SOURCE
 BASE.              Azerbaijan:  LOGGING EQUIPMENT BASE LOCATION
 REGN.                   EESSA:  REGION
 PROV.                    Baku:  PROVINCE
 STAT.                    Baku:  STATE NAME
 MWDS.                    Baku:  MWD SHOP
 DOE .                     N/A:  DOE NUMBER
 DCON.         Sperry Drilling:  DIRECTNL CONTR
 UNIT.                     N/A:  LOGGING EQUIPMENT ID
 WTYP.                Deviated:  WELL TYPE
 CNTY.                        :  COUNTY
 LOC .                        :  LOCATION
 LMF .             Drill Floor:  LOG MEASURED FROM
 TVDS.m                  43.60:  TVDSS CORRECTN
 LATI.deg                40.02:  LATITUDE
 LONG.deg                51.45:  LONGITUDE
 WHNS.m                  -7.04:  WELL HEAD N/S
 WHEW.m                  -0.67:  WELL HEAD E/W
 UTMX.m              538762.90:  UTM X
 UTMY.m             4431871.34:  UTM Y
 DFWL.m                   0.00:  DISTANCE FWL
 DFSL.m                   0.00:  DISTANCE FSL
 SDEP.m                4127.00:  START DEPTH
 TDD .m                5084.50:  TOTAL DEPTH (DRILLER)
 VSDR.deg               140.47:  VERT SEC DIRECT
 GVFD.g                   1.00:  GRAVITY FIELD
 MFLD.nT              50362.00:  MAGNETIC FIELD
 MDIP.deg                59.48:  MAGNETIC DIP
 MDEC.deg                 6.47:  MAGNETIC DECL
 GRDC.deg                 0.31:  GRID CORRECTION
 AZTC.deg                 6.16:  AZM TOTAL CORR
 EPD .m                   0.00:  ELEVATION
 EGL .m                   0.00:  GROUND ELEVATION
 WDMS.m                 151.80:  WD ELEV
 APD .m                  43.60:  DEPTH ABOVE PD
 DEP .m                4092.57:  DEPTH
 AGAP.m                  43.60:  AIR GAP
 VSEW.m                  -0.67:  VERT SEC E/W
 VSNS.m                  -7.04:  VERT SEC N/S
 EKB .m                  43.60:  KB ELEVATION
 EDF .m                  43.60:  DF ELEVATION
 TDL .m                 957.50:  TOTAL DEPTH (LOGGER)
 VSC .                       0:  VS TO CLOSURE
 MAGU.                 1851413:  MAGUTM CHECKSUM
~Parameter Information Block
#MNEM.UNIT       Value        Description
#---------     -----------    ---------------------------
 AV  .mps                 1.50:  Ann Velocity 
 AVMX.mps                 2.00:  Max Ann Veloc 
 AZIF.deg               184.66:  Azm, Final 
 BHAT.        Rotary Steerable:  BHA Type 
 BREV.rev               300.00:  Rev Bit Total 
 BROT.°/30m              -0.50:  Build Rotating 
 BS  .in                  8.50:  Bit Size 
 BSZ .in                  8.50:  Bit Size 
 BTPL.psig              370.00:  Bit Press Loss 
 CABU.                      No:  Customer Abuse 
 CGEO.      Behruz Shahbaliyev:  Customer Geo 
 COMM.                     Ììg:  Run Comments 1 
 TCS .hr                140.08:  Time Ciculation Ended 
 CV  .mps                 3.00:  Crit Velocity 
 CVMX.mps                 3.20:  Max Crit Veloc 
 DD1 .            Musa Ahmadov:  Direct Drillr 1 
 DD2 .           Hamid Ahmadov:  Direct Drillr 2 
 DDSV.               Geo-Pilot:  DD Service 
 DEFF.%                  98.40:  % Det Eff 
 DLRX.°/30m               3.40:  Dogleg Rot Max 
 DLSO.°/30m               1.45:  Dogleg Oriented 
 DLSX.°/30m               3.40:  Dogleg Str Max 
 DRET.      18.40.00 29-Aug-21:  Drill End Time 
 DRST.      21.00.00 20-Aug-21:  Drill Start Tim 
 DTIM.hr                 69.47:  Time Drilling 
 EDEP.m                5084.50:  End Depth 
 ENG1.      Artemiy Matviyanov:  Engineer 1 
 ENG2.         Almaz Almadatov:  Engineer 2 
 ETIM.      18.40.00 29-Aug-21:  End Time 
 FLOI.gpm               500.00:  Flow In 
 FLON.gpm               400.00:  Flow In Min 
 FLOS.cptm                0.00:  Fluid Loss 
 FLOX.gpm               500.00:  Flow In Max 
 DFT .        Mineral Oil Base:  Mud Type 
 HFLO.                      No:  High Flow 
 HPRE.                      No:  High Pressure 
 HTEM.                      No:  High Temp 
 HYDO.m                   1.80:  Hydro Offset 
 IFIN.deg                25.62:  Inc, Final 
 IMAX.deg                48.69:  Inc Max 
 IMIN.deg                24.01:  Inc Min 
 IMND.m                4962.57:  Inc Min Depth 
 IMXD.m                4119.01:  Inc Max Depth 
 JARR.                      No:  Jarring 
 LETM.      18.40.00 29-Aug-21:  Log End Time 
 LOST.hr                     0:  Lost Rig Time 
 LSTM.      21.00.00 20-Aug-21:  Log Start Time 
 MDCL.ppm             41500.00:  Mud Chlorides 
 MDES.     Inversion Oil/Synthetic:  Mud Desc 
 DFD .sg                  1.56:  Mud Density 
 MDMN.sg                  1.56:  Dens Mud Min 
 MDMX.sg                  1.56:  Dens Mud Max 
 MOIL.                      70:  Run Mud Oil % 
 MOWR.                   70:30:  Run Mud OWR 
 MSND.                     0.2:  Run Mud Sand % 
 MSOL.                    23.3:  Run Mud Solids% 
 DFV .spqt               78.00:  Mud Viscosity 
 MWOD.in                  6.75:  MWD Tool OD 
 MWSI.                      No:  Serv Intrp, MWD 
 OTIM.hr                218.30:  Time Operating 
 PCON.           Look Like New:  Pad Condition 
 PMAX.psia            11015.30:  Press Op, Max 
 PV  .cP                 38.00:  Mud PV 
 RUN .                     300:  Run Number 
 ROPA.m/hr               15.00:  ROP Avg 
 ROPN.m/hr                9.00:  ROP Min 
 ROPX.m/hr               17.00:  ROP Max 
 RPMA.rpm               120.00:  RPM Surface Avg 
 RPMN.rpm                90.00:  RPM Surface Min 
 RPMX.rpm               140.00:  RPM Surface Max 
 RRUN.                     300:  Rig Run Number 
 RTIM.hr                 31.53:  Time Reaming 
 SAZI.deg               331.64:  Azm, Start 
 SDEP.m                4127.00:  Start Depth 
 SIDD.                      No:  Serv Intrp, DD 
 SINC.deg                48.43:  Inc, Start 
 SPPA.psig             5830.00:  SPP Avg 
 SPPN.psig             5600.00:  SPP Min 
 SPPX.psig             5900.00:  SPP Max 
 STIM.      21.00.00 20-Aug-21:  Start Time 
 SVCS.                 DD, MWD:  Services 
 SVER.                    9.20:  Sperry Version 
 TDAT.m                 957.50:  Tot Depth Attmp 
 TDDF.                      No:  Trip for DD 
 TDLG.m                 957.50:  Tot Depth Loggd 
 TFF .                      No:  Trip for Fail 
 TQAA.f-kp               15.00:  Torque Abs Avg 
 TQAN.f-kp               12.00:  Torque Abs Min 
 TQAX.f-kp               19.00:  Torque Abs Max 
 TRRT.°/30m              -3.40:  Turn Rotating 
 MRT .                  EWR-M5:  Maximum Recorded Temperature 
 TTMX.degC              100.00:  Max Tool Temp 
 VS01.                90639251:  Virtual Str1 SN 
 VS02.                90634715:  Virtual Str2 SN 
 VS03.                90652479:  Virtual Str3 SN 
 VS04.                90642262:  Virtual Str4 SN 
 WBMN.klb                 0.00:  WOB Min 
 WITN.           Murad Guliyev:  Customer Rep 
 WITN.          Yashar Gaziyev:  Customer Rep 2 
 WOBA.klb                 9.00:  WOB Avg 
 WOBX.klb                12.00:  WOB Max 
 YP  .lhf2               30.00:  Yield Point 
~Curve Information Block
#MNEM.UNIT                 API CODE     Curve Description
#---------               -----------    ---------------------------
 TIME.HHMMSS            00 000 000 000:  GT Time & Date
 GTDEPTH.m              00 000 000 000:  GT Depth
 GTPQH.psia             00 000 000 000:  GT HR Quartz Pressure
 GTTQ.degC              00 000 000 000:  GT Quartz Temperature
 GTTN.NONE              00 000 000 000:  GT Test Number
 GTET.sec               00 000 000 000:  GT Elapsed Test Time
 GTTVD.m                00 000 000 000:  GT True Vertical Depth
#Other Information
#
#WARRANTY: Halliburton will use its best efforts to furnish customers with 
#accurate information and interpretations that are part of, and incident to, the services 
#provided.  However, Halliburton cannot and does not warrant the accuracy 
#or correctness of such information and interpretations.  Under no circumstances should any 
#such information or interpretation be relied upon as the sole basis for any drilling, 
#completion, production, or financial decision or any procedure involving any risk to the 
#safety of any drilling venture, drilling rig or its crew or any other third party.  The 
#Customer has full responsibility for all drilling, completion and production operation.  
#Halliburton makes no representations or warranties, either expressed or 
#implied, including, but not limited to, the implied warranties of merchantability or fitness 
#for a particular purpose, with respect to the services rendered.  In no event will 
#Halliburton be liable for failure to obtain any particular results or for 
#any damages, including, but not limited to, indirect, special or consequential damages, 
#resulting from the use of any information or interpretation provided by Halliburton.
#
~A           TIME           GTDEPTH  GTPQH  GTTQ  GTTN  GTET   GTTVD  
# ...
   10:09:06.969.27-Aug-2021 4958.50 7890.29 86.08 8.00 137.84 3301.91
   10:09:07.169.27-Aug-2021 4958.50 7890.29 86.08 8.00 138.04 3301.91
   10:09:07.369.27-Aug-2021 4958.50 7891.28 86.08 8.00 138.23 3301.91
   10:09:07.568.27-Aug-2021 4958.50 7891.61 86.08 8.00 138.43 3301.91
   10:09:07.768.27-Aug-2021 4958.50 7891.10 86.08 8.00 138.63 3301.91
   10:09:07.968.27-Aug-2021 4958.50 7890.67 86.08 8.00 138.83 3301.91
   10:09:08.168.27-Aug-2021 4958.50 7890.67 86.08 8.00 139.03 3301.91
   10:09:08.367.27-Aug-2021 4958.50 7894.92 86.07 8.00 139.23 3301.91
   10:09:08.567.27-Aug-2021 4958.50 7889.07 86.07 8.00 139.43 3301.91
   10:09:08.767.27-Aug-2021 4958.50 7891.62 86.07 8.00 139.63 3301.91
   10:09:08.967.27-Aug-2021 4958.50 7890.30 86.07 8.00 139.83 3301.91
   10:09:09.166.27-Aug-2021 4958.50 7890.30 86.07 8.00 140.03 3301.91
   10:09:09.366.27-Aug-2021 4958.50 7889.59 86.07 8.00 140.23 3301.91
   10:09:09.566.27-Aug-2021 4958.50 7889.77 86.07 8.00 140.43 3301.91
   10:09:09.766.27-Aug-2021 4958.50 7889.86 86.07 8.00 140.63 3301.91
   10:09:09.966.27-Aug-2021 4958.50 7889.56 86.07 8.00 140.83 3301.91
   10:09:10.165.27-Aug-2021 4958.50 7889.56 86.07 8.00 141.03 3301.91
   10:09:10.365.27-Aug-2021 4958.50 7890.47 86.07 8.00 141.23 3301.91
   10:09:10.565.27-Aug-2021 4958.50 7891.00 86.07 8.00 141.43 3301.91
   10:09:10.765.27-Aug-2021 4958.50 7891.14 86.07 8.00 141.63 3301.91
   10:09:10.964.27-Aug-2021 4958.50 7891.03 86.07 8.00 141.83 3301.91
   10:09:11.164.27-Aug-2021 4958.50 7891.03 86.07 8.00 142.03 3301.91
   10:09:11.364.27-Aug-2021 4958.50 7890.47 86.07 8.00 142.23 3301.91
   10:09:11.564.27-Aug-2021 4958.50 7890.47 86.07 8.00 142.43 3301.91
   10:09:11.763.27-Aug-2021 4958.50 7894.79 86.07 8.00 142.63 3301.91
   10:09:11.963.27-Aug-2021 4958.50 7889.08 86.07 8.00 142.83 3301.91
   10:09:12.163.27-Aug-2021 4958.50 7889.08 86.07 8.00 143.03 3301.91
   10:09:12.363.27-Aug-2021 4958.50 7890.09 86.07 8.00 143.23 3301.91
   10:09:12.562.27-Aug-2021 4958.50 7889.89 86.07 8.00 143.43 3301.91
   10:09:12.762.27-Aug-2021 4958.50 7889.70 86.07 8.00 143.63 3301.91
   10:09:12.962.27-Aug-2021 4958.50 7893.71 86.07 8.00 143.83 3301.91
   10:09:13.162.27-Aug-2021 4958.50 7893.71 86.07 8.00 144.03 3301.91
   10:09:13.361.27-Aug-2021 4958.50 7889.62 86.07 8.00 144.23 3301.91
   10:09:13.561.27-Aug-2021 4958.50 7889.52 86.07 8.00 144.43 3301.91
   10:09:13.761.27-Aug-2021 4958.50 7890.05 86.07 8.00 144.63 3301.91
   10:09:13.961.27-Aug-2021 4958.50 7890.66 86.07 8.00 144.83 3301.91
   10:09:14.161.27-Aug-2021 4958.50 7890.66 86.07 8.00 145.03 3301.91
   10:09:14.360.27-Aug-2021 4958.50 7892.86 86.07 8.00 145.23 3301.91
   10:09:14.560.27-Aug-2021 4958.50 7891.62 86.07 8.00 145.43 3301.91
   10:09:14.760.27-Aug-2021 4958.50 7890.58 86.07 8.00 145.63 3301.91
   10:09:14.960.27-Aug-2021 4958.50 7896.32 86.07 8.00 145.83 3301.91
   10:09:15.159.27-Aug-2021 4958.50 7896.32 86.07 8.00 146.03 3301.91
   10:09:15.359.27-Aug-2021 4958.50 7891.37 86.07 8.00 146.23 3301.91
   10:09:15.559.27-Aug-2021 4958.50 7890.17 86.07 8.00 146.43 3301.91
   10:09:15.759.27-Aug-2021 4958.50 7889.35 86.07 8.00 146.62 3301.91
   10:09:15.958.27-Aug-2021 4958.50 7889.53 86.07 8.00 146.82 3301.91
   10:09:16.158.27-Aug-2021 4958.50 7889.53 86.07 8.00 147.02 3301.91
   10:09:16.358.27-Aug-2021 4958.50 7890.10 86.07 8.00 147.22 3301.91
   10:09:16.558.27-Aug-2021 4958.50 7890.37 86.07 8.00 147.42 3301.91
   10:09:16.757.27-Aug-2021 4958.50 7890.42 86.07 8.00 147.62 3301.91
   10:09:16.957.27-Aug-2021 4958.50 7891.05 86.07 8.00 147.82 3301.91
   10:09:17.157.27-Aug-2021 4958.50 7891.05 86.07 8.00 148.02 3301.91
   10:09:17.357.27-Aug-2021 4958.50 7891.37 86.07 8.00 148.22 3301.91
   10:09:17.556.27-Aug-2021 4958.50 7891.20 86.07 8.00 148.42 3301.91
   10:09:17.756.27-Aug-2021 4958.50 7891.04 86.07 8.00 148.62 3301.91
   10:09:17.956.27-Aug-2021 4958.50 7890.81 86.07 8.00 148.82 3301.91
   10:09:18.156.27-Aug-2021 4958.50 7890.81 86.07 8.00 149.02 3301.91
   10:09:18.355.27-Aug-2021 4958.50 7889.17 86.07 8.00 149.22 3301.91
   10:09:18.555.27-Aug-2021 4958.50 7891.63 86.07 8.00 149.42 3301.91
   10:09:18.755.27-Aug-2021 4958.50 7890.30 86.07 8.00 149.62 3301.91
   10:09:18.955.27-Aug-2021 4958.50 7890.05 86.07 8.00 149.82 3301.91
   10:09:19.155.27-Aug-2021 4958.50 7890.05 86.07 8.00 150.02 3301.91
   10:09:19.354.27-Aug-2021 4958.50 7889.83 86.07 8.00 150.22 3301.91
   10:09:19.554.27-Aug-2021 4958.50 7889.72 86.07 8.00 150.42 3301.91
   10:09:19.754.27-Aug-2021 4958.50 7889.57 86.07 8.00 150.62 3301.91
   10:09:19.954.27-Aug-2021 4958.50 7890.03 86.07 8.00 150.82 3301.91
   10:09:20.153.27-Aug-2021 4958.50 7890.03 86.07 8.00 151.02 3301.91
   10:09:20.353.27-Aug-2021 4958.50 7891.02 86.07 8.00 151.22 3301.91
   10:09:20.553.27-Aug-2021 4958.50 7891.20 86.07 8.00 151.42 3301.91
   10:09:20.753.27-Aug-2021 4958.50 7891.10 86.07 8.00 151.62 3301.91
   10:09:20.952.27-Aug-2021 4958.50 7890.82 86.07 8.00 151.82 3301.91
   10:09:21.152.27-Aug-2021 4958.50 7890.82 86.07 8.00 152.02 3301.91
   10:09:21.352.27-Aug-2021 4958.50 7890.60 86.07 8.00 152.22 3301.91
   10:09:21.552.27-Aug-2021 4958.50 7895.01 86.07 8.00 152.42 3301.91
   10:09:21.751.27-Aug-2021 4958.50 7889.28 86.07 8.00 152.62 3301.91
   10:09:21.951.27-Aug-2021 4958.50 7891.68 86.07 8.00 152.82 3301.91
   10:09:22.151.27-Aug-2021 4958.50 7891.68 86.07 8.00 153.02 3301.91
   10:09:22.351.27-Aug-2021 4958.50 7889.87 86.07 8.00 153.22 3301.91
   10:09:22.550.27-Aug-2021 4958.50 7890.02 86.07 8.00 153.42 3301.91
   10:09:22.750.27-Aug-2021 4958.50 7893.78 86.07 8.00 153.62 3301.91
   10:09:22.950.27-Aug-2021 4958.50 7891.12 86.07 8.00 153.82 3301.91
   10:09:23.150.27-Aug-2021 4958.50 7891.12 86.07 8.00 154.02 3301.91
   10:09:23.350.27-Aug-2021 4958.50 7889.79 86.07 8.00 154.22 3301.91
   10:09:23.549.27-Aug-2021 4958.50 7890.23 86.07 8.00 154.42 3301.91
   10:09:23.749.27-Aug-2021 4958.50 7890.82 86.07 8.00 154.62 3301.91
   10:09:23.949.27-Aug-2021 4958.50 7891.46 86.07 8.00 154.82 3301.91
   10:09:24.149.27-Aug-2021 4958.50 7891.46 86.07 8.00 155.01 3301.91
   10:09:24.348.27-Aug-2021 4958.50 7891.48 86.07 8.00 155.21 3301.91
   10:09:24.548.27-Aug-2021 4958.50 7890.43 86.07 8.00 155.41 3301.91
   10:09:24.748.27-Aug-2021 4958.50 7896.43 86.07 8.00 155.61 3301.91
   10:09:24.948.27-Aug-2021 4958.50 7889.00 86.07 8.00 155.81 3301.91
   10:09:25.147.27-Aug-2021 4958.50 7889.00 86.07 8.00 156.01 3301.91
   10:09:25.347.27-Aug-2021 4958.50 7890.01 86.07 8.00 156.21 3301.91
   10:09:25.547.27-Aug-2021 4958.50 7888.89 86.07 8.00 156.41 3301.91
   10:09:25.747.27-Aug-2021 4958.50 7889.26 86.07 8.00 156.61 3301.91
   10:09:25.946.27-Aug-2021 4958.50 7888.64 86.07 8.00 156.81 3301.91
   10:09:26.146.27-Aug-2021 4958.50 7888.64 86.07 8.00 157.01 3301.91
   10:09:26.346.27-Aug-2021 4958.50 7888.57 86.07 8.00 157.21 3301.91
   10:09:26.546.27-Aug-2021 4958.50 7888.57 86.07 8.00 157.41 3301.91
   10:09:26.745.27-Aug-2021 4958.50 7889.45 86.07 8.00 157.61 3301.91
   10:09:26.945.27-Aug-2021 4958.50 7889.83 86.07 8.00 157.81 3301.91
   10:09:27.145.27-Aug-2021 4958.50 7889.83 86.07 8.00 158.01 3301.91
   10:09:27.345.27-Aug-2021 4958.50 7889.75 86.07 8.00 158.21 3301.91
   10:09:27.545.27-Aug-2021 4958.50 7889.48 86.07 8.00 158.41 3301.91
   10:09:27.744.27-Aug-2021 4958.50 7889.01 86.07 8.00 158.61 3301.91
   10:09:27.944.27-Aug-2021 4958.50 7893.27 86.07 8.00 158.81 3301.91
   10:09:28.144.27-Aug-2021 4958.50 7893.27 86.07 8.00 159.01 3301.91
   10:09:28.344.27-Aug-2021 4958.50 7890.04 86.07 8.00 159.21 3301.91
   10:09:28.543.27-Aug-2021 4958.50 7888.79 86.07 8.00 159.41 3301.91
   10:09:28.743.27-Aug-2021 4958.50 7888.26 86.07 8.00 159.61 3301.91
   10:09:28.943.27-Aug-2021 4958.50 7888.03 86.07 8.00 159.81 3301.91
   10:09:29.143.27-Aug-2021 4958.50 7888.03 86.07 8.00 160.01 3301.91
   10:09:29.342.27-Aug-2021 4958.50 7888.16 86.07 8.00 160.21 3301.91
   10:09:29.542.27-Aug-2021 4958.50 7887.91 86.07 8.00 160.41 3301.91
   10:09:29.742.27-Aug-2021 4958.50 7888.55 86.07 8.00 160.61 3301.91
