~Version Information
 VERS.                  2.0:   CWLS log ASCII Standard -VERSION 2.0
 WRAP.                   NO:   One line per depth step
~Well Information Block
#MNEM.UNIT     VALUE/NAME     DESCRIPTION
#---------     -----------    ---------------------------
 STRT.S             09:25:17 27-Aug-21: START TIME 09:25:17 27-Aug-21
 STOP.S             09:32:27 27-Aug-21: STOP TIME  09:32:27 27-Aug-21
 STEP.S                   0.00: STEP TIME
 NULL.                 -999.25: NULL VALUE
 DFWT.                        :  DIST FWL TEXT
 DFST.                        :  DIST FSL TEXT
 DMF .             Drill Floor:  DRILL MEAS FROM
 STIM.      20.00.00 17-Aug-21:  START TIME
 DATE.      19.00.00 29-Aug-21:  END TIME
 SPUD.               15-Aug-21:  SPUD DATE
 NREF.                    Grid:  NORTH REFERENCE
 HPTY.       Minimum Curvature:  HOLE POS TYPE
 DMOD.             Drill Model:  DRILL MOD DESC
 SVYD.                  Survey:  SURVEY DESC
 ILTD.               Lithology:  INTERP LTH DESC
 FTOP.          Formation Tops:  FORM TOPS DESC
 RIG .              East Azeri:  RIG NAME
 PDAT.          Mean Sea Level:  PERMANENT DATUM
 FLD .                     ACG:  FIELD NAME
 SON .        AZ-XX-0907180857:  JOB NUMBER
 CTRY.              Azerbaijan:  COUNTRY NAME
 WELL.                    D23x:  WELL NAME
 SRVC.     Turan Drilling and Engineering:  CONTRACTOR
 COMP.     BP Exploration (Caspian Sea) Ltd.:  COMPANY
 UWI .            /AZE00000214:  UNIQUE WELL IDENTIFIER
 API .            /AZE00000214:  API NUMBER
 MDS .        Operator Entered:  MAG DATA SOURCE
 BASE.              Azerbaijan:  LOGGING EQUIPMENT BASE LOCATION
 REGN.                   EESSA:  REGION
 PROV.                    Baku:  PROVINCE
 STAT.                    Baku:  STATE NAME
 MWDS.                    Baku:  MWD SHOP
 DOE .                     N/A:  DOE NUMBER
 DCON.         Sperry Drilling:  DIRECTNL CONTR
 UNIT.                     N/A:  LOGGING EQUIPMENT ID
 WTYP.                Deviated:  WELL TYPE
 CNTY.                        :  COUNTY
 LOC .                        :  LOCATION
 LMF .             Drill Floor:  LOG MEASURED FROM
 TVDS.m                  43.60:  TVDSS CORRECTN
 LATI.deg                40.02:  LATITUDE
 LONG.deg                51.45:  LONGITUDE
 WHNS.m                  -7.04:  WELL HEAD N/S
 WHEW.m                  -0.67:  WELL HEAD E/W
 UTMX.m              538762.90:  UTM X
 UTMY.m             4431871.34:  UTM Y
 DFWL.m                   0.00:  DISTANCE FWL
 DFSL.m                   0.00:  DISTANCE FSL
 SDEP.m                4127.00:  START DEPTH
 TDD .m                5084.50:  TOTAL DEPTH (DRILLER)
 VSDR.deg               140.47:  VERT SEC DIRECT
 GVFD.g                   1.00:  GRAVITY FIELD
 MFLD.nT              50362.00:  MAGNETIC FIELD
 MDIP.deg                59.48:  MAGNETIC DIP
 MDEC.deg                 6.47:  MAGNETIC DECL
 GRDC.deg                 0.31:  GRID CORRECTION
 AZTC.deg                 6.16:  AZM TOTAL CORR
 EPD .m                   0.00:  ELEVATION
 EGL .m                   0.00:  GROUND ELEVATION
 WDMS.m                 151.80:  WD ELEV
 APD .m                  43.60:  DEPTH ABOVE PD
 DEP .m                4092.57:  DEPTH
 AGAP.m                  43.60:  AIR GAP
 VSEW.m                  -0.67:  VERT SEC E/W
 VSNS.m                  -7.04:  VERT SEC N/S
 EKB .m                  43.60:  KB ELEVATION
 EDF .m                  43.60:  DF ELEVATION
 TDL .m                 957.50:  TOTAL DEPTH (LOGGER)
 VSC .                       0:  VS TO CLOSURE
 MAGU.                 1851413:  MAGUTM CHECKSUM
~Parameter Information Block
#MNEM.UNIT       Value        Description
#---------     -----------    ---------------------------
 AV  .mps                 1.50:  Ann Velocity 
 AVMX.mps                 2.00:  Max Ann Veloc 
 AZIF.deg               184.66:  Azm, Final 
 BHAT.        Rotary Steerable:  BHA Type 
 BREV.rev               300.00:  Rev Bit Total 
 BROT.°/30m              -0.50:  Build Rotating 
 BS  .in                  8.50:  Bit Size 
 BSZ .in                  8.50:  Bit Size 
 BTPL.psig              370.00:  Bit Press Loss 
 CABU.                      No:  Customer Abuse 
 CGEO.      Behruz Shahbaliyev:  Customer Geo 
 COMM.                     TD\:  Run Comments 1 
 TCS .hr                140.08:  Time Ciculation Ended 
 CV  .mps                 3.00:  Crit Velocity 
 CVMX.mps                 3.20:  Max Crit Veloc 
 DD1 .            Musa Ahmadov:  Direct Drillr 1 
 DD2 .           Hamid Ahmadov:  Direct Drillr 2 
 DDSV.               Geo-Pilot:  DD Service 
 DEFF.%                  98.40:  % Det Eff 
 DLRX.°/30m               3.40:  Dogleg Rot Max 
 DLSO.°/30m               1.45:  Dogleg Oriented 
 DLSX.°/30m               3.40:  Dogleg Str Max 
 DRET.      18.40.00 29-Aug-21:  Drill End Time 
 DRST.      21.00.00 20-Aug-21:  Drill Start Tim 
 DTIM.hr                 69.47:  Time Drilling 
 EDEP.m                5084.50:  End Depth 
 ENG1.      Artemiy Matviyanov:  Engineer 1 
 ENG2.         Almaz Almadatov:  Engineer 2 
 ETIM.      18.40.00 29-Aug-21:  End Time 
 FLOI.gpm               500.00:  Flow In 
 FLON.gpm               400.00:  Flow In Min 
 FLOS.cptm                0.00:  Fluid Loss 
 FLOX.gpm               500.00:  Flow In Max 
 DFT .        Mineral Oil Base:  Mud Type 
 HFLO.                      No:  High Flow 
 HPRE.                      No:  High Pressure 
 HTEM.                      No:  High Temp 
 HYDO.m                   1.80:  Hydro Offset 
 IFIN.deg                25.62:  Inc, Final 
 IMAX.deg                48.69:  Inc Max 
 IMIN.deg                24.01:  Inc Min 
 IMND.m                4962.57:  Inc Min Depth 
 IMXD.m                4119.01:  Inc Max Depth 
 JARR.                      No:  Jarring 
 LETM.      18.40.00 29-Aug-21:  Log End Time 
 LOST.hr                     0:  Lost Rig Time 
 LSTM.      21.00.00 20-Aug-21:  Log Start Time 
 MDCL.ppm             41500.00:  Mud Chlorides 
 MDES.     Inversion Oil/Synthetic:  Mud Desc 
 DFD .sg                  1.56:  Mud Density 
 MDMN.sg                  1.56:  Dens Mud Min 
 MDMX.sg                  1.56:  Dens Mud Max 
 MOIL.                      70:  Run Mud Oil % 
 MOWR.                   70:30:  Run Mud OWR 
 MSND.                     0.2:  Run Mud Sand % 
 MSOL.                    23.3:  Run Mud Solids% 
 DFV .spqt               78.00:  Mud Viscosity 
 MWOD.in                  6.75:  MWD Tool OD 
 MWSI.                      No:  Serv Intrp, MWD 
 OTIM.hr                218.30:  Time Operating 
 PCON.           Look Like New:  Pad Condition 
 PMAX.psia            11015.30:  Press Op, Max 
 PV  .cP                 38.00:  Mud PV 
 RUN .                     300:  Run Number 
 ROPA.m/hr               15.00:  ROP Avg 
 ROPN.m/hr                9.00:  ROP Min 
 ROPX.m/hr               17.00:  ROP Max 
 RPMA.rpm               120.00:  RPM Surface Avg 
 RPMN.rpm                90.00:  RPM Surface Min 
 RPMX.rpm               140.00:  RPM Surface Max 
 RRUN.                     300:  Rig Run Number 
 RTIM.hr                 31.53:  Time Reaming 
 SAZI.deg               331.64:  Azm, Start 
 SDEP.m                4127.00:  Start Depth 
 SIDD.                      No:  Serv Intrp, DD 
 SINC.deg                48.43:  Inc, Start 
 SPPA.psig             5830.00:  SPP Avg 
 SPPN.psig             5600.00:  SPP Min 
 SPPX.psig             5900.00:  SPP Max 
 STIM.      21.00.00 20-Aug-21:  Start Time 
 SVCS.                 DD, MWD:  Services 
 SVER.                    9.20:  Sperry Version 
 TDAT.m                 957.50:  Tot Depth Attmp 
 TDDF.                      No:  Trip for DD 
 TDLG.m                 957.50:  Tot Depth Loggd 
 TFF .                      No:  Trip for Fail 
 TQAA.f-kp               15.00:  Torque Abs Avg 
 TQAN.f-kp               12.00:  Torque Abs Min 
 TQAX.f-kp               19.00:  Torque Abs Max 
 TRRT.°/30m              -3.40:  Turn Rotating 
 MRT .                  EWR-M5:  Maximum Recorded Temperature 
 TTMX.degC              100.00:  Max Tool Temp 
 VS01.                90639251:  Virtual Str1 SN 
 VS02.                90634715:  Virtual Str2 SN 
 VS03.                90652479:  Virtual Str3 SN 
 VS04.                90642262:  Virtual Str4 SN 
 WBMN.klb                 0.00:  WOB Min 
 WITN.           Murad Guliyev:  Customer Rep 
 WITN.          Yashar Gaziyev:  Customer Rep 2 
 WOBA.klb                 9.00:  WOB Avg 
 WOBX.klb                12.00:  WOB Max 
 YP  .lhf2               30.00:  Yield Point 
~Curve Information Block
#MNEM.UNIT                 API CODE     Curve Description
#---------               -----------    ---------------------------
 TIME.HHMMSS            00 000 000 000:  GT Time & Date
 GTDEPTH.m              00 000 000 000:  GT Depth
 GTPQH.psia             00 000 000 000:  GT HR Quartz Pressure
 GTTQ.degC              00 000 000 000:  GT Quartz Temperature
 GTTN.NONE              00 000 000 000:  GT Test Number
 GTET.sec               00 000 000 000:  GT Elapsed Test Time
 GTTVD.m                00 000 000 000:  GT True Vertical Depth
#Other Information
#
#WARRANTY: Halliburton will use its best efforts to furnish customers with 
#accurate information and interpretations that are part of, and incident to, the services 
#provided.  However, Halliburton cannot and does not warrant the accuracy 
#or correctness of such information and interpretations.  Under no circumstances should any 
#such information or interpretation be relied upon as the sole basis for any drilling, 
#completion, production, or financial decision or any procedure involving any risk to the 
#safety of any drilling venture, drilling rig or its crew or any other third party.  The 
#Customer has full responsibility for all drilling, completion and production operation.  
#Halliburton makes no representations or warranties, either expressed or 
#implied, including, but not limited to, the implied warranties of merchantability or fitness 
#for a particular purpose, with respect to the services rendered.  In no event will 
#Halliburton be liable for failure to obtain any particular results or for 
#any damages, including, but not limited to, indirect, special or consequential damages, 
#resulting from the use of any information or interpretation provided by Halliburton.
#
~A           TIME           GTDEPTH  GTPQH  GTTQ  GTTN  GTET   GTTVD  
# ...
   09:26:49.304.27-Aug-2021 4964.50 5198.60 86.33 7.00  92.04 3307.39
   09:26:49.504.27-Aug-2021 4964.50 5198.60 86.33 7.00  92.24 3307.39
   09:26:49.704.27-Aug-2021 4964.50 5198.67 86.33 7.00  92.44 3307.39
   09:26:49.904.27-Aug-2021 4964.50 5198.72 86.33 7.00  92.64 3307.39
   09:26:50.104.27-Aug-2021 4964.50 5198.77 86.33 7.00  92.84 3307.39
   09:26:50.304.27-Aug-2021 4964.50 5198.79 86.33 7.00  93.04 3307.39
   09:26:50.504.27-Aug-2021 4964.50 5198.79 86.33 7.00  93.24 3307.39
   09:26:50.704.27-Aug-2021 4964.50 5198.86 86.33 7.00  93.44 3307.39
   09:26:50.905.27-Aug-2021 4964.50 5198.88 86.33 7.00  93.64 3307.39
   09:26:51.105.27-Aug-2021 4964.50 5198.91 86.33 7.00  93.84 3307.39
   09:26:51.305.27-Aug-2021 4964.50 5198.93 86.33 7.00  94.04 3307.39
   09:26:51.505.27-Aug-2021 4964.50 5198.93 86.33 7.00  94.24 3307.39
   09:26:51.705.27-Aug-2021 4964.50 5198.96 86.33 7.00  94.44 3307.39
   09:26:51.905.27-Aug-2021 4964.50 5198.98 86.33 7.00  94.64 3307.39
   09:26:52.105.27-Aug-2021 4964.50 5198.72 86.33 7.00  94.84 3307.39
   09:26:52.305.27-Aug-2021 4964.50 5198.65 86.33 7.00  95.04 3307.39
   09:26:52.505.27-Aug-2021 4964.50 5198.65 86.33 7.00  95.24 3307.39
   09:26:52.705.27-Aug-2021 4964.50 5198.70 86.33 7.00  95.44 3307.39
   09:26:52.905.27-Aug-2021 4964.50 5198.74 86.33 7.00  95.64 3307.39
   09:26:53.105.27-Aug-2021 4964.50 5198.78 86.33 7.00  95.84 3307.39
   09:26:53.306.27-Aug-2021 4964.50 5198.81 86.33 7.00  96.04 3307.39
   09:26:53.506.27-Aug-2021 4964.50 5198.81 86.33 7.00  96.24 3307.39
   09:26:53.706.27-Aug-2021 4964.50 5198.88 86.33 7.00  96.44 3307.39
   09:26:53.906.27-Aug-2021 4964.50 5198.91 86.33 7.00  96.64 3307.39
   09:26:54.106.27-Aug-2021 4964.50 5198.92 86.33 7.00  96.84 3307.39
   09:26:54.306.27-Aug-2021 4964.50 5198.95 86.33 7.00  97.04 3307.39
   09:26:54.506.27-Aug-2021 4964.50 5198.95 86.33 7.00  97.24 3307.39
   09:26:54.706.27-Aug-2021 4964.50 5198.98 86.33 7.00  97.44 3307.39
   09:26:54.906.27-Aug-2021 4964.50 5198.98 86.33 7.00  97.64 3307.39
   09:26:55.106.27-Aug-2021 4964.50 5199.00 86.33 7.00  97.84 3307.39
   09:26:55.306.27-Aug-2021 4964.50 5199.01 86.33 7.00  98.04 3307.39
   09:26:55.506.27-Aug-2021 4964.50 5199.01 86.33 7.00  98.24 3307.39
   09:26:55.707.27-Aug-2021 4964.50 5198.66 86.33 7.00  98.44 3307.39
   09:26:55.907.27-Aug-2021 4964.50 5198.68 86.33 7.00  98.64 3307.39
   09:26:56.107.27-Aug-2021 4964.50 5198.71 86.33 7.00  98.84 3307.39
   09:26:56.307.27-Aug-2021 4964.50 5198.68 86.33 7.00  99.04 3307.39
   09:26:56.507.27-Aug-2021 4964.50 5198.68 86.33 7.00  99.24 3307.39
   09:26:56.707.27-Aug-2021 4964.50 5198.62 86.33 7.00  99.44 3307.39
   09:26:56.907.27-Aug-2021 4964.50 5198.66 86.33 7.00  99.64 3307.39
   09:26:57.107.27-Aug-2021 4964.50 5198.71 86.33 7.00  99.84 3307.39
   09:26:57.307.27-Aug-2021 4964.50 5198.74 86.33 7.00 100.04 3307.39
   09:26:57.507.27-Aug-2021 4964.50 5198.74 86.33 7.00 100.24 3307.39
   09:26:57.707.27-Aug-2021 4964.50 5198.65 86.33 7.00 100.44 3307.39
   09:26:57.907.27-Aug-2021 4964.50 5198.61 86.33 7.00 100.64 3307.39
   09:26:58.108.27-Aug-2021 4964.50 5198.65 86.33 7.00 100.84 3307.39
   09:26:58.308.27-Aug-2021 4964.50 5198.64 86.33 7.00 101.04 3307.39
   09:26:58.508.27-Aug-2021 4964.50 5198.64 86.33 7.00 101.24 3307.39
   09:26:58.708.27-Aug-2021 4964.50 5198.61 86.33 7.00 101.44 3307.39
   09:26:58.908.27-Aug-2021 4964.50 5198.63 86.33 7.00 101.64 3307.39
   09:26:59.108.27-Aug-2021 4964.50 5198.66 86.33 7.00 101.84 3307.39
   09:26:59.308.27-Aug-2021 4964.50 5198.70 86.33 7.00 102.04 3307.39
   09:26:59.508.27-Aug-2021 4964.50 5198.70 86.33 7.00 102.24 3307.39
   09:26:59.708.27-Aug-2021 4964.50 5198.75 86.33 7.00 102.44 3307.39
   09:26:59.908.27-Aug-2021 4964.50 5198.77 86.33 7.00 102.64 3307.39
   09:27:00.108.27-Aug-2021 4964.50 5198.81 86.33 7.00 102.84 3307.39
   09:27:00.308.27-Aug-2021 4964.50 5198.82 86.33 7.00 103.04 3307.39
   09:27:00.509.27-Aug-2021 4964.50 5198.82 86.33 7.00 103.24 3307.39
   09:27:00.709.27-Aug-2021 4964.50 5198.85 86.33 7.00 103.44 3307.39
   09:27:00.909.27-Aug-2021 4964.50 5198.89 86.33 7.00 103.64 3307.39
   09:27:01.109.27-Aug-2021 4964.50 5198.89 86.33 7.00 103.84 3307.39
   09:27:01.309.27-Aug-2021 4964.50 5198.91 86.33 7.00 104.04 3307.39
   09:27:01.509.27-Aug-2021 4964.50 5198.91 86.33 7.00 104.24 3307.39
   09:27:01.709.27-Aug-2021 4964.50 5198.65 86.33 7.00 104.44 3307.39
   09:27:01.909.27-Aug-2021 4964.50 5198.67 86.33 7.00 104.64 3307.39
   09:27:02.109.27-Aug-2021 4964.50 5198.69 86.34 7.00 104.84 3307.39
   09:27:02.309.27-Aug-2021 4964.50 5198.72 86.33 7.00 105.04 3307.39
   09:27:02.509.27-Aug-2021 4964.50 5198.72 86.33 7.00 105.24 3307.39
   09:27:02.709.27-Aug-2021 4964.50 5198.78 86.34 7.00 105.44 3307.39
   09:27:02.910.27-Aug-2021 4964.50 5198.80 86.33 7.00 105.64 3307.39
   09:27:03.110.27-Aug-2021 4964.50 5198.82 86.34 7.00 105.84 3307.39
   09:27:03.310.27-Aug-2021 4964.50 5198.84 86.33 7.00 106.04 3307.39
   09:27:03.510.27-Aug-2021 4964.50 5198.84 86.33 7.00 106.24 3307.39
   09:27:03.710.27-Aug-2021 4964.50 5198.89 86.34 7.00 106.44 3307.39
   09:27:03.910.27-Aug-2021 4964.50 5198.89 86.34 7.00 106.64 3307.39
   09:27:04.110.27-Aug-2021 4964.50 5198.93 86.34 7.00 106.84 3307.39
   09:27:04.310.27-Aug-2021 4964.50 5198.93 86.34 7.00 107.04 3307.39
   09:27:04.510.27-Aug-2021 4964.50 5198.93 86.34 7.00 107.24 3307.39
   09:27:04.710.27-Aug-2021 4964.50 5198.95 86.34 7.00 107.44 3307.39
   09:27:04.910.27-Aug-2021 4964.50 5198.75 86.34 7.00 107.64 3307.39
   09:27:05.110.27-Aug-2021 4964.50 5198.68 86.34 7.00 107.84 3307.39
   09:27:05.311.27-Aug-2021 4964.50 5198.68 86.34 7.00 108.04 3307.39
   09:27:05.511.27-Aug-2021 4964.50 5198.68 86.34 7.00 108.24 3307.39
   09:27:05.711.27-Aug-2021 4964.50 5198.70 86.34 7.00 108.45 3307.39
   09:27:05.911.27-Aug-2021 4964.50 5198.67 86.34 7.00 108.65 3307.39
   09:27:06.111.27-Aug-2021 4964.50 5198.64 86.34 7.00 108.85 3307.39
   09:27:06.311.27-Aug-2021 4964.50 5198.67 86.34 7.00 109.05 3307.39
   09:27:06.511.27-Aug-2021 4964.50 5198.67 86.34 7.00 109.25 3307.39
   09:27:06.711.27-Aug-2021 4964.50 5198.73 86.34 7.00 109.45 3307.39
   09:27:06.911.27-Aug-2021 4964.50 5198.70 86.34 7.00 109.65 3307.39
   09:27:07.111.27-Aug-2021 4964.50 5198.72 86.34 7.00 109.85 3307.39
   09:27:07.311.27-Aug-2021 4964.50 5198.64 86.34 7.00 110.05 3307.39
   09:27:07.511.27-Aug-2021 4964.50 5198.64 86.34 7.00 110.25 3307.39
   09:27:07.712.27-Aug-2021 4964.50 5198.68 86.34 7.00 110.45 3307.39
   09:27:07.912.27-Aug-2021 4964.50 5198.68 86.34 7.00 110.65 3307.39
   09:27:08.112.27-Aug-2021 4964.50 5198.64 86.34 7.00 110.85 3307.39
   09:27:08.312.27-Aug-2021 4964.50 5198.66 86.34 7.00 111.05 3307.39
   09:27:08.512.27-Aug-2021 4964.50 5198.66 86.34 7.00 111.25 3307.39
   09:27:08.712.27-Aug-2021 4964.50 5198.71 86.34 7.00 111.45 3307.39
   09:27:08.912.27-Aug-2021 4964.50 5198.73 86.34 7.00 111.65 3307.39
   09:27:09.112.27-Aug-2021 4964.50 5198.75 86.34 7.00 111.85 3307.39
   09:27:09.312.27-Aug-2021 4964.50 5198.78 86.34 7.00 112.05 3307.39
   09:27:09.512.27-Aug-2021 4964.50 5198.78 86.34 7.00 112.25 3307.39
   09:27:09.712.27-Aug-2021 4964.50 5198.80 86.34 7.00 112.45 3307.39
   09:27:09.912.27-Aug-2021 4964.50 5198.83 86.34 7.00 112.65 3307.39
   09:27:10.113.27-Aug-2021 4964.50 5198.85 86.34 7.00 112.85 3307.39
   09:27:10.313.27-Aug-2021 4964.50 5198.86 86.34 7.00 113.05 3307.39
   09:27:10.513.27-Aug-2021 4964.50 5198.86 86.34 7.00 113.25 3307.39
   09:27:10.713.27-Aug-2021 4964.50 5198.84 86.34 7.00 113.45 3307.39
   09:27:10.913.27-Aug-2021 4964.50 5198.76 86.34 7.00 113.65 3307.39
   09:27:11.113.27-Aug-2021 4964.50 5198.68 86.34 7.00 113.85 3307.39
   09:27:11.313.27-Aug-2021 4964.50 5198.70 86.34 7.00 114.05 3307.39
   09:27:11.513.27-Aug-2021 4964.50 5198.70 86.34 7.00 114.25 3307.39
   09:27:11.713.27-Aug-2021 4964.50 5198.75 86.34 7.00 114.45 3307.39
   09:27:11.913.27-Aug-2021 4964.50 5198.76 86.34 7.00 114.65 3307.39
   09:27:12.113.27-Aug-2021 4964.50 5198.79 86.34 7.00 114.85 3307.39
