~Version Information
 VERS.                  2.0:   CWLS log ASCII Standard -VERSION 2.0
 WRAP.                   NO:   One line per depth step
~Well Information Block
#MNEM.UNIT     VALUE/NAME     DESCRIPTION
#---------     -----------    ---------------------------
 STRT.S             16:56:36 27-Aug-21: START TIME 16:56:36 27-Aug-21
 STOP.S             17:03:52 27-Aug-21: STOP TIME  17:03:52 27-Aug-21
 STEP.S                   0.00: STEP TIME
 NULL.                 -999.25: NULL VALUE
 DFWT.                        :  DIST FWL TEXT
 DFST.                        :  DIST FSL TEXT
 DMF .             Drill Floor:  DRILL MEAS FROM
 STIM.      20.00.00 17-Aug-21:  START TIME
 DATE.      19.00.00 29-Aug-21:  END TIME
 SPUD.               15-Aug-21:  SPUD DATE
 NREF.                    Grid:  NORTH REFERENCE
 HPTY.       Minimum Curvature:  HOLE POS TYPE
 DMOD.             Drill Model:  DRILL MOD DESC
 SVYD.                  Survey:  SURVEY DESC
 ILTD.               Lithology:  INTERP LTH DESC
 FTOP.          Formation Tops:  FORM TOPS DESC
 RIG .              East Azeri:  RIG NAME
 PDAT.          Mean Sea Level:  PERMANENT DATUM
 FLD .                     ACG:  FIELD NAME
 SON .        AZ-XX-0907180857:  JOB NUMBER
 CTRY.              Azerbaijan:  COUNTRY NAME
 WELL.                    D23x:  WELL NAME
 SRVC.     Turan Drilling and Engineering:  CONTRACTOR
 COMP.     BP Exploration (Caspian Sea) Ltd.:  COMPANY
 UWI .            /AZE00000214:  UNIQUE WELL IDENTIFIER
 API .            /AZE00000214:  API NUMBER
 MDS .        Operator Entered:  MAG DATA SOURCE
 BASE.              Azerbaijan:  LOGGING EQUIPMENT BASE LOCATION
 REGN.                   EESSA:  REGION
 PROV.                    Baku:  PROVINCE
 STAT.                    Baku:  STATE NAME
 MWDS.                    Baku:  MWD SHOP
 DOE .                     N/A:  DOE NUMBER
 DCON.         Sperry Drilling:  DIRECTNL CONTR
 UNIT.                     N/A:  LOGGING EQUIPMENT ID
 WTYP.                Deviated:  WELL TYPE
 CNTY.                        :  COUNTY
 LOC .                        :  LOCATION
 LMF .             Drill Floor:  LOG MEASURED FROM
 TVDS.m                  43.60:  TVDSS CORRECTN
 LATI.deg                40.02:  LATITUDE
 LONG.deg                51.45:  LONGITUDE
 WHNS.m                  -7.04:  WELL HEAD N/S
 WHEW.m                  -0.67:  WELL HEAD E/W
 UTMX.m              538762.90:  UTM X
 UTMY.m             4431871.34:  UTM Y
 DFWL.m                   0.00:  DISTANCE FWL
 DFSL.m                   0.00:  DISTANCE FSL
 SDEP.m                4127.00:  START DEPTH
 TDD .m                5084.50:  TOTAL DEPTH (DRILLER)
 VSDR.deg               140.47:  VERT SEC DIRECT
 GVFD.g                   1.00:  GRAVITY FIELD
 MFLD.nT              50362.00:  MAGNETIC FIELD
 MDIP.deg                59.48:  MAGNETIC DIP
 MDEC.deg                 6.47:  MAGNETIC DECL
 GRDC.deg                 0.31:  GRID CORRECTION
 AZTC.deg                 6.16:  AZM TOTAL CORR
 EPD .m                   0.00:  ELEVATION
 EGL .m                   0.00:  GROUND ELEVATION
 WDMS.m                 151.80:  WD ELEV
 APD .m                  43.60:  DEPTH ABOVE PD
 DEP .m                4092.57:  DEPTH
 AGAP.m                  43.60:  AIR GAP
 VSEW.m                  -0.67:  VERT SEC E/W
 VSNS.m                  -7.04:  VERT SEC N/S
 EKB .m                  43.60:  KB ELEVATION
 EDF .m                  43.60:  DF ELEVATION
 TDL .m                 957.50:  TOTAL DEPTH (LOGGER)
 VSC .                       0:  VS TO CLOSURE
 MAGU.                 1851413:  MAGUTM CHECKSUM
~Parameter Information Block
#MNEM.UNIT       Value        Description
#---------     -----------    ---------------------------
 AV  .mps                 1.50:  Ann Velocity 
 AVMX.mps                 2.00:  Max Ann Veloc 
 AZIF.deg               184.66:  Azm, Final 
 BHAT.        Rotary Steerable:  BHA Type 
 BREV.rev               300.00:  Rev Bit Total 
 BROT.°/30m              -0.50:  Build Rotating 
 BS  .in                  8.50:  Bit Size 
 BSZ .in                  8.50:  Bit Size 
 BTPL.psig              370.00:  Bit Press Loss 
 CABU.                      No:  Customer Abuse 
 CGEO.      Behruz Shahbaliyev:  Customer Geo 
 COMM.                     T
k:  Run Comments 1 
 TCS .hr                140.08:  Time Ciculation Ended 
 CV  .mps                 3.00:  Crit Velocity 
 CVMX.mps                 3.20:  Max Crit Veloc 
 DD1 .            Musa Ahmadov:  Direct Drillr 1 
 DD2 .           Hamid Ahmadov:  Direct Drillr 2 
 DDSV.               Geo-Pilot:  DD Service 
 DEFF.%                  98.40:  % Det Eff 
 DLRX.°/30m               3.40:  Dogleg Rot Max 
 DLSO.°/30m               1.45:  Dogleg Oriented 
 DLSX.°/30m               3.40:  Dogleg Str Max 
 DRET.      18.40.00 29-Aug-21:  Drill End Time 
 DRST.      21.00.00 20-Aug-21:  Drill Start Tim 
 DTIM.hr                 69.47:  Time Drilling 
 EDEP.m                5084.50:  End Depth 
 ENG1.      Artemiy Matviyanov:  Engineer 1 
 ENG2.         Almaz Almadatov:  Engineer 2 
 ETIM.      18.40.00 29-Aug-21:  End Time 
 FLOI.gpm               500.00:  Flow In 
 FLON.gpm               400.00:  Flow In Min 
 FLOS.cptm                0.00:  Fluid Loss 
 FLOX.gpm               500.00:  Flow In Max 
 DFT .        Mineral Oil Base:  Mud Type 
 HFLO.                      No:  High Flow 
 HPRE.                      No:  High Pressure 
 HTEM.                      No:  High Temp 
 HYDO.m                   1.80:  Hydro Offset 
 IFIN.deg                25.62:  Inc, Final 
 IMAX.deg                48.69:  Inc Max 
 IMIN.deg                24.01:  Inc Min 
 IMND.m                4962.57:  Inc Min Depth 
 IMXD.m                4119.01:  Inc Max Depth 
 JARR.                      No:  Jarring 
 LETM.      18.40.00 29-Aug-21:  Log End Time 
 LOST.hr                     0:  Lost Rig Time 
 LSTM.      21.00.00 20-Aug-21:  Log Start Time 
 MDCL.ppm             41500.00:  Mud Chlorides 
 MDES.     Inversion Oil/Synthetic:  Mud Desc 
 DFD .sg                  1.56:  Mud Density 
 MDMN.sg                  1.56:  Dens Mud Min 
 MDMX.sg                  1.56:  Dens Mud Max 
 MOIL.                      70:  Run Mud Oil % 
 MOWR.                   70:30:  Run Mud OWR 
 MSND.                     0.2:  Run Mud Sand % 
 MSOL.                    23.3:  Run Mud Solids% 
 DFV .spqt               78.00:  Mud Viscosity 
 MWOD.in                  6.75:  MWD Tool OD 
 MWSI.                      No:  Serv Intrp, MWD 
 OTIM.hr                218.30:  Time Operating 
 PCON.           Look Like New:  Pad Condition 
 PMAX.psia            11015.30:  Press Op, Max 
 PV  .cP                 38.00:  Mud PV 
 RUN .                     300:  Run Number 
 ROPA.m/hr               15.00:  ROP Avg 
 ROPN.m/hr                9.00:  ROP Min 
 ROPX.m/hr               17.00:  ROP Max 
 RPMA.rpm               120.00:  RPM Surface Avg 
 RPMN.rpm                90.00:  RPM Surface Min 
 RPMX.rpm               140.00:  RPM Surface Max 
 RRUN.                     300:  Rig Run Number 
 RTIM.hr                 31.53:  Time Reaming 
 SAZI.deg               331.64:  Azm, Start 
 SDEP.m                4127.00:  Start Depth 
 SIDD.                      No:  Serv Intrp, DD 
 SINC.deg                48.43:  Inc, Start 
 SPPA.psig             5830.00:  SPP Avg 
 SPPN.psig             5600.00:  SPP Min 
 SPPX.psig             5900.00:  SPP Max 
 STIM.      21.00.00 20-Aug-21:  Start Time 
 SVCS.                 DD, MWD:  Services 
 SVER.                    9.20:  Sperry Version 
 TDAT.m                 957.50:  Tot Depth Attmp 
 TDDF.                      No:  Trip for DD 
 TDLG.m                 957.50:  Tot Depth Loggd 
 TFF .                      No:  Trip for Fail 
 TQAA.f-kp               15.00:  Torque Abs Avg 
 TQAN.f-kp               12.00:  Torque Abs Min 
 TQAX.f-kp               19.00:  Torque Abs Max 
 TRRT.°/30m              -3.40:  Turn Rotating 
 MRT .                  EWR-M5:  Maximum Recorded Temperature 
 TTMX.degC              100.00:  Max Tool Temp 
 VS01.                90639251:  Virtual Str1 SN 
 VS02.                90634715:  Virtual Str2 SN 
 VS03.                90652479:  Virtual Str3 SN 
 VS04.                90642262:  Virtual Str4 SN 
 WBMN.klb                 0.00:  WOB Min 
 WITN.           Murad Guliyev:  Customer Rep 
 WITN.          Yashar Gaziyev:  Customer Rep 2 
 WOBA.klb                 9.00:  WOB Avg 
 WOBX.klb                12.00:  WOB Max 
 YP  .lhf2               30.00:  Yield Point 
~Curve Information Block
#MNEM.UNIT                 API CODE     Curve Description
#---------               -----------    ---------------------------
 TIME.HHMMSS            00 000 000 000:  GT Time & Date
 GTDEPTH.m              00 000 000 000:  GT Depth
 GTPQH.psia             00 000 000 000:  GT HR Quartz Pressure
 GTTQ.degC              00 000 000 000:  GT Quartz Temperature
 GTTN.NONE              00 000 000 000:  GT Test Number
 GTET.sec               00 000 000 000:  GT Elapsed Test Time
 GTTVD.m                00 000 000 000:  GT True Vertical Depth
#Other Information
#
#WARRANTY: Halliburton will use its best efforts to furnish customers with 
#accurate information and interpretations that are part of, and incident to, the services 
#provided.  However, Halliburton cannot and does not warrant the accuracy 
#or correctness of such information and interpretations.  Under no circumstances should any 
#such information or interpretation be relied upon as the sole basis for any drilling, 
#completion, production, or financial decision or any procedure involving any risk to the 
#safety of any drilling venture, drilling rig or its crew or any other third party.  The 
#Customer has full responsibility for all drilling, completion and production operation.  
#Halliburton makes no representations or warranties, either expressed or 
#implied, including, but not limited to, the implied warranties of merchantability or fitness 
#for a particular purpose, with respect to the services rendered.  In no event will 
#Halliburton be liable for failure to obtain any particular results or for 
#any damages, including, but not limited to, indirect, special or consequential damages, 
#resulting from the use of any information or interpretation provided by Halliburton.
#
~A           TIME           GTDEPTH  GTPQH  GTTQ  GTTN   GTET   GTTVD  
# ...
   17:00:21.943.27-Aug-2021 4788.50 7535.31 83.15 18.00 225.77 3147.67
   17:00:22.143.27-Aug-2021 4788.50 7535.31 83.15 18.00 225.97 3147.67
   17:00:22.343.27-Aug-2021 4788.50 7535.60 83.15 18.00 226.17 3147.67
   17:00:22.543.27-Aug-2021 4788.50 7535.58 83.15 18.00 226.37 3147.67
   17:00:22.742.27-Aug-2021 4788.50 7535.63 83.15 18.00 226.57 3147.67
   17:00:22.942.27-Aug-2021 4788.50 7535.60 83.15 18.00 226.77 3147.67
   17:00:23.142.27-Aug-2021 4788.50 7535.60 83.15 18.00 226.97 3147.67
   17:00:23.342.27-Aug-2021 4788.50 7535.36 83.15 18.00 227.17 3147.67
   17:00:23.542.27-Aug-2021 4788.50 7540.51 83.15 18.00 227.37 3147.67
   17:00:23.741.27-Aug-2021 4788.50 7533.13 83.15 18.00 227.57 3147.67
   17:00:23.941.27-Aug-2021 4788.50 7535.36 83.15 18.00 227.77 3147.67
   17:00:24.141.27-Aug-2021 4788.50 7535.36 83.15 18.00 227.97 3147.67
   17:00:24.341.27-Aug-2021 4788.50 7535.08 83.15 18.00 228.17 3147.67
   17:00:24.541.27-Aug-2021 4788.50 7540.19 83.15 18.00 228.37 3147.67
   17:00:24.740.27-Aug-2021 4788.50 7532.67 83.15 18.00 228.57 3147.67
   17:00:24.940.27-Aug-2021 4788.50 7534.92 83.15 18.00 228.77 3147.67
   17:00:25.140.27-Aug-2021 4788.50 7534.92 83.15 18.00 228.97 3147.67
   17:00:25.340.27-Aug-2021 4788.50 7535.13 83.15 18.00 229.17 3147.67
   17:00:25.540.27-Aug-2021 4788.50 7535.20 83.15 18.00 229.37 3147.67
   17:00:25.739.27-Aug-2021 4788.50 7536.79 83.15 18.00 229.57 3147.67
   17:00:25.939.27-Aug-2021 4788.50 7536.92 83.15 18.00 229.77 3147.67
   17:00:26.139.27-Aug-2021 4788.50 7536.92 83.15 18.00 229.97 3147.67
   17:00:26.339.27-Aug-2021 4788.50 7535.32 83.15 18.00 230.17 3147.67
   17:00:26.539.27-Aug-2021 4788.50 7535.92 83.15 18.00 230.37 3147.67
   17:00:26.738.27-Aug-2021 4788.50 7534.82 83.15 18.00 230.57 3147.67
   17:00:26.938.27-Aug-2021 4788.50 7536.79 83.15 18.00 230.77 3147.67
   17:00:27.138.27-Aug-2021 4788.50 7536.79 83.15 18.00 230.97 3147.67
   17:00:27.338.27-Aug-2021 4788.50 7535.06 83.15 18.00 231.17 3147.67
   17:00:27.538.27-Aug-2021 4788.50 7535.85 83.15 18.00 231.37 3147.67
   17:00:27.737.27-Aug-2021 4788.50 7535.76 83.15 18.00 231.57 3147.67
   17:00:27.937.27-Aug-2021 4788.50 7535.09 83.15 18.00 231.77 3147.67
   17:00:28.137.27-Aug-2021 4788.50 7535.09 83.15 18.00 231.97 3147.67
   17:00:28.337.27-Aug-2021 4788.50 7535.16 83.15 18.00 232.17 3147.67
   17:00:28.537.27-Aug-2021 4788.50 7535.46 83.15 18.00 232.37 3147.67
   17:00:28.736.27-Aug-2021 4788.50 7535.73 83.15 18.00 232.57 3147.67
   17:00:28.936.27-Aug-2021 4788.50 7535.44 83.15 18.00 232.77 3147.67
   17:00:29.136.27-Aug-2021 4788.50 7535.44 83.15 18.00 232.97 3147.67
   17:00:29.336.27-Aug-2021 4788.50 7535.64 83.15 18.00 233.17 3147.67
   17:00:29.536.27-Aug-2021 4788.50 7535.51 83.15 18.00 233.37 3147.67
   17:00:29.735.27-Aug-2021 4788.50 7535.54 83.15 18.00 233.57 3147.67
   17:00:29.935.27-Aug-2021 4788.50 7535.45 83.15 18.00 233.77 3147.67
   17:00:30.135.27-Aug-2021 4788.50 7535.45 83.15 18.00 233.97 3147.67
   17:00:30.335.27-Aug-2021 4788.50 7537.18 83.15 18.00 234.17 3147.67
   17:00:30.535.27-Aug-2021 4788.50 7535.17 83.15 18.00 234.37 3147.67
   17:00:30.734.27-Aug-2021 4788.50 7535.79 83.15 18.00 234.57 3147.67
   17:00:30.934.27-Aug-2021 4788.50 7536.03 83.15 18.00 234.77 3147.67
   17:00:31.134.27-Aug-2021 4788.50 7536.03 83.15 18.00 234.97 3147.67
   17:00:31.334.27-Aug-2021 4788.50 7535.50 83.15 18.00 235.17 3147.67
   17:00:31.534.27-Aug-2021 4788.50 7535.02 83.15 18.00 235.37 3147.67
   17:00:31.733.27-Aug-2021 4788.50 7535.39 83.15 18.00 235.56 3147.67
   17:00:31.933.27-Aug-2021 4788.50 7535.79 83.15 18.00 235.76 3147.67
   17:00:32.133.27-Aug-2021 4788.50 7535.79 83.15 18.00 235.96 3147.67
   17:00:32.333.27-Aug-2021 4788.50 7535.92 83.15 18.00 236.16 3147.67
   17:00:32.533.27-Aug-2021 4788.50 7535.90 83.15 18.00 236.36 3147.67
   17:00:32.732.27-Aug-2021 4788.50 7535.78 83.15 18.00 236.56 3147.67
   17:00:32.932.27-Aug-2021 4788.50 7535.79 83.15 18.00 236.76 3147.67
   17:00:33.132.27-Aug-2021 4788.50 7535.79 83.15 18.00 236.96 3147.67
   17:00:33.332.27-Aug-2021 4788.50 7535.58 83.15 18.00 237.16 3147.67
   17:00:33.532.27-Aug-2021 4788.50 7535.40 83.15 18.00 237.36 3147.67
   17:00:33.731.27-Aug-2021 4788.50 7538.87 83.15 18.00 237.56 3147.67
   17:00:33.931.27-Aug-2021 4788.50 7534.87 83.15 18.00 237.76 3147.67
   17:00:34.131.27-Aug-2021 4788.50 7534.87 83.15 18.00 237.96 3147.67
   17:00:34.331.27-Aug-2021 4788.50 7536.35 83.15 18.00 238.16 3147.67
   17:00:34.531.27-Aug-2021 4788.50 7534.89 83.15 18.00 238.36 3147.67
   17:00:34.730.27-Aug-2021 4788.50 7540.79 83.15 18.00 238.56 3147.67
   17:00:34.930.27-Aug-2021 4788.50 7532.39 83.15 18.00 238.76 3147.67
   17:00:35.130.27-Aug-2021 4788.50 7532.39 83.15 18.00 238.96 3147.67
   17:00:35.330.27-Aug-2021 4788.50 7536.82 83.15 18.00 239.16 3147.67
   17:00:35.530.27-Aug-2021 4788.50 7535.06 83.15 18.00 239.36 3147.67
   17:00:35.729.27-Aug-2021 4788.50 7535.70 83.15 18.00 239.56 3147.67
   17:00:35.929.27-Aug-2021 4788.50 7539.92 83.15 18.00 239.76 3147.67
   17:00:36.129.27-Aug-2021 4788.50 7539.92 83.15 18.00 239.96 3147.67
   17:00:36.329.27-Aug-2021 4788.50 7535.96 83.15 18.00 240.16 3147.67
   17:00:36.529.27-Aug-2021 4788.50 7536.40 83.15 18.00 240.36 3147.67
   17:00:36.728.27-Aug-2021 4788.50 7535.61 83.15 18.00 240.56 3147.67
   17:00:36.928.27-Aug-2021 4788.50 7535.49 83.15 18.00 240.76 3147.67
   17:00:37.128.27-Aug-2021 4788.50 7535.49 83.15 18.00 240.96 3147.67
   17:00:37.328.27-Aug-2021 4788.50 7533.67 83.15 18.00 241.16 3147.67
   17:00:37.528.27-Aug-2021 4788.50 7535.79 83.15 18.00 241.36 3147.67
   17:00:37.727.27-Aug-2021 4788.50 7536.32 83.15 18.00 241.56 3147.67
   17:00:37.927.27-Aug-2021 4788.50 7535.54 83.15 18.00 241.76 3147.67
   17:00:38.127.27-Aug-2021 4788.50 7535.54 83.15 18.00 241.96 3147.67
   17:00:38.327.27-Aug-2021 4788.50 7535.33 83.15 18.00 242.16 3147.67
   17:00:38.527.27-Aug-2021 4788.50 7535.37 83.15 18.00 242.36 3147.67
   17:00:38.726.27-Aug-2021 4788.50 7535.77 83.15 18.00 242.56 3147.67
   17:00:38.926.27-Aug-2021 4788.50 7535.61 83.15 18.00 242.76 3147.67
   17:00:39.126.27-Aug-2021 4788.50 7535.61 83.15 18.00 242.96 3147.67
   17:00:39.326.27-Aug-2021 4788.50 7535.82 83.15 18.00 243.16 3147.67
   17:00:39.526.27-Aug-2021 4788.50 7535.83 83.15 18.00 243.36 3147.67
   17:00:39.725.27-Aug-2021 4788.50 7535.79 83.15 18.00 243.56 3147.67
   17:00:39.925.27-Aug-2021 4788.50 7535.83 83.15 18.00 243.76 3147.67
   17:00:40.125.27-Aug-2021 4788.50 7535.83 83.15 18.00 243.96 3147.67
   17:00:40.325.27-Aug-2021 4788.50 7540.44 83.15 18.00 244.16 3147.67
   17:00:40.525.27-Aug-2021 4788.50 7533.93 83.15 18.00 244.36 3147.67
   17:00:40.724.27-Aug-2021 4788.50 7535.53 83.15 18.00 244.56 3147.67
   17:00:40.924.27-Aug-2021 4788.50 7536.39 83.15 18.00 244.76 3147.67
   17:00:41.124.27-Aug-2021 4788.50 7536.39 83.15 18.00 244.96 3147.67
   17:00:41.324.27-Aug-2021 4788.50 7535.58 83.15 18.00 245.16 3147.67
   17:00:41.524.27-Aug-2021 4788.50 7535.26 83.15 18.00 245.36 3147.67
   17:00:41.723.27-Aug-2021 4788.50 7535.24 83.15 18.00 245.55 3147.67
   17:00:41.923.27-Aug-2021 4788.50 7535.66 83.15 18.00 245.75 3147.67
   17:00:42.123.27-Aug-2021 4788.50 7535.66 83.15 18.00 245.95 3147.67
   17:00:42.323.27-Aug-2021 4788.50 7535.64 83.15 18.00 246.15 3147.67
   17:00:42.523.27-Aug-2021 4788.50 7535.90 83.15 18.00 246.35 3147.67
   17:00:42.722.27-Aug-2021 4788.50 7535.80 83.15 18.00 246.55 3147.67
   17:00:42.922.27-Aug-2021 4788.50 7535.66 83.15 18.00 246.75 3147.67
   17:00:43.122.27-Aug-2021 4788.50 7535.66 83.15 18.00 246.95 3147.67
   17:00:43.322.27-Aug-2021 4788.50 7535.42 83.15 18.00 247.15 3147.67
   17:00:43.522.27-Aug-2021 4788.50 7535.27 83.15 18.00 247.35 3147.67
   17:00:43.721.27-Aug-2021 4788.50 7536.39 83.15 18.00 247.55 3147.67
   17:00:43.921.27-Aug-2021 4788.50 7536.95 83.15 18.00 247.75 3147.67
   17:00:44.121.27-Aug-2021 4788.50 7536.95 83.15 18.00 247.95 3147.67
   17:00:44.321.27-Aug-2021 4788.50 7535.53 83.15 18.00 248.15 3147.67
