~Version Information
 VERS.                  2.0:   CWLS log ASCII Standard -VERSION 2.0
 WRAP.                   NO:   One line per depth step
~Well Information Block
#MNEM.UNIT     VALUE/NAME     DESCRIPTION
#---------     -----------    ---------------------------
 STRT.S             22:57:07 27-Aug-21: START TIME 22:57:07 27-Aug-21
 STOP.S             23:04:14 27-Aug-21: STOP TIME  23:04:14 27-Aug-21
 STEP.S                   0.00: STEP TIME
 NULL.                 -999.25: NULL VALUE
 DFWT.                        :  DIST FWL TEXT
 DFST.                        :  DIST FSL TEXT
 DMF .             Drill Floor:  DRILL MEAS FROM
 STIM.      20.00.00 17-Aug-21:  START TIME
 DATE.      19.00.00 29-Aug-21:  END TIME
 SPUD.               15-Aug-21:  SPUD DATE
 NREF.                    Grid:  NORTH REFERENCE
 HPTY.       Minimum Curvature:  HOLE POS TYPE
 DMOD.             Drill Model:  DRILL MOD DESC
 SVYD.                  Survey:  SURVEY DESC
 ILTD.               Lithology:  INTERP LTH DESC
 FTOP.          Formation Tops:  FORM TOPS DESC
 RIG .              East Azeri:  RIG NAME
 PDAT.          Mean Sea Level:  PERMANENT DATUM
 FLD .                     ACG:  FIELD NAME
 SON .        AZ-XX-0907180857:  JOB NUMBER
 CTRY.              Azerbaijan:  COUNTRY NAME
 WELL.                    D23x:  WELL NAME
 SRVC.     Turan Drilling and Engineering:  CONTRACTOR
 COMP.     BP Exploration (Caspian Sea) Ltd.:  COMPANY
 UWI .            /AZE00000214:  UNIQUE WELL IDENTIFIER
 API .            /AZE00000214:  API NUMBER
 MDS .        Operator Entered:  MAG DATA SOURCE
 BASE.              Azerbaijan:  LOGGING EQUIPMENT BASE LOCATION
 REGN.                   EESSA:  REGION
 PROV.                    Baku:  PROVINCE
 STAT.                    Baku:  STATE NAME
 MWDS.                    Baku:  MWD SHOP
 DOE .                     N/A:  DOE NUMBER
 DCON.         Sperry Drilling:  DIRECTNL CONTR
 UNIT.                     N/A:  LOGGING EQUIPMENT ID
 WTYP.                Deviated:  WELL TYPE
 CNTY.                        :  COUNTY
 LOC .                        :  LOCATION
 LMF .             Drill Floor:  LOG MEASURED FROM
 TVDS.m                  43.60:  TVDSS CORRECTN
 LATI.deg                40.02:  LATITUDE
 LONG.deg                51.45:  LONGITUDE
 WHNS.m                  -7.04:  WELL HEAD N/S
 WHEW.m                  -0.67:  WELL HEAD E/W
 UTMX.m              538762.90:  UTM X
 UTMY.m             4431871.34:  UTM Y
 DFWL.m                   0.00:  DISTANCE FWL
 DFSL.m                   0.00:  DISTANCE FSL
 SDEP.m                4127.00:  START DEPTH
 TDD .m                5084.50:  TOTAL DEPTH (DRILLER)
 VSDR.deg               140.47:  VERT SEC DIRECT
 GVFD.g                   1.00:  GRAVITY FIELD
 MFLD.nT              50362.00:  MAGNETIC FIELD
 MDIP.deg                59.48:  MAGNETIC DIP
 MDEC.deg                 6.47:  MAGNETIC DECL
 GRDC.deg                 0.31:  GRID CORRECTION
 AZTC.deg                 6.16:  AZM TOTAL CORR
 EPD .m                   0.00:  ELEVATION
 EGL .m                   0.00:  GROUND ELEVATION
 WDMS.m                 151.80:  WD ELEV
 APD .m                  43.60:  DEPTH ABOVE PD
 DEP .m                4092.57:  DEPTH
 AGAP.m                  43.60:  AIR GAP
 VSEW.m                  -0.67:  VERT SEC E/W
 VSNS.m                  -7.04:  VERT SEC N/S
 EKB .m                  43.60:  KB ELEVATION
 EDF .m                  43.60:  DF ELEVATION
 TDL .m                 957.50:  TOTAL DEPTH (LOGGER)
 VSC .                       0:  VS TO CLOSURE
 MAGU.                 1851413:  MAGUTM CHECKSUM
~Parameter Information Block
#MNEM.UNIT       Value        Description
#---------     -----------    ---------------------------
 AV  .mps                 1.50:  Ann Velocity 
 AVMX.mps                 2.00:  Max Ann Veloc 
 AZIF.deg               184.66:  Azm, Final 
 BHAT.        Rotary Steerable:  BHA Type 
 BREV.rev               300.00:  Rev Bit Total 
 BROT.°/30m              -0.50:  Build Rotating 
 BS  .in                  8.50:  Bit Size 
 BSZ .in                  8.50:  Bit Size 
 BTPL.psig              370.00:  Bit Press Loss 
 CABU.                      No:  Customer Abuse 
 CGEO.      Behruz Shahbaliyev:  Customer Geo 
 TCS .hr                140.08:  Time Ciculation Ended 
 CV  .mps                 3.00:  Crit Velocity 
 CVMX.mps                 3.20:  Max Crit Veloc 
 DD1 .            Musa Ahmadov:  Direct Drillr 1 
 DD2 .           Hamid Ahmadov:  Direct Drillr 2 
 DDSV.               Geo-Pilot:  DD Service 
 DEFF.%                  98.40:  % Det Eff 
 DLRX.°/30m               3.40:  Dogleg Rot Max 
 DLSO.°/30m               1.45:  Dogleg Oriented 
 DLSX.°/30m               3.40:  Dogleg Str Max 
 DRET.      18.40.00 29-Aug-21:  Drill End Time 
 DRST.      21.00.00 20-Aug-21:  Drill Start Tim 
 DTIM.hr                 69.47:  Time Drilling 
 EDEP.m                5084.50:  End Depth 
 ENG1.      Artemiy Matviyanov:  Engineer 1 
 ENG2.         Almaz Almadatov:  Engineer 2 
 ETIM.      18.40.00 29-Aug-21:  End Time 
 FLOI.gpm               500.00:  Flow In 
 FLON.gpm               400.00:  Flow In Min 
 FLOS.cptm                0.00:  Fluid Loss 
 FLOX.gpm               500.00:  Flow In Max 
 DFT .        Mineral Oil Base:  Mud Type 
 HFLO.                      No:  High Flow 
 HPRE.                      No:  High Pressure 
 HTEM.                      No:  High Temp 
 HYDO.m                   1.80:  Hydro Offset 
 IFIN.deg                25.62:  Inc, Final 
 IMAX.deg                48.69:  Inc Max 
 IMIN.deg                24.01:  Inc Min 
 IMND.m                4962.57:  Inc Min Depth 
 IMXD.m                4119.01:  Inc Max Depth 
 JARR.                      No:  Jarring 
 LETM.      18.40.00 29-Aug-21:  Log End Time 
 LOST.hr                     0:  Lost Rig Time 
 LSTM.      21.00.00 20-Aug-21:  Log Start Time 
 MDCL.ppm             41500.00:  Mud Chlorides 
 MDES.     Inversion Oil/Synthetic:  Mud Desc 
 DFD .sg                  1.56:  Mud Density 
 MDMN.sg                  1.56:  Dens Mud Min 
 MDMX.sg                  1.56:  Dens Mud Max 
 MOIL.                      70:  Run Mud Oil % 
 MOWR.                   70:30:  Run Mud OWR 
 MSND.                     0.2:  Run Mud Sand % 
 MSOL.                    23.3:  Run Mud Solids% 
 DFV .spqt               78.00:  Mud Viscosity 
 MWOD.in                  6.75:  MWD Tool OD 
 MWSI.                      No:  Serv Intrp, MWD 
 OTIM.hr                218.30:  Time Operating 
 PCON.           Look Like New:  Pad Condition 
 PMAX.psia            11015.30:  Press Op, Max 
 PV  .cP                 38.00:  Mud PV 
 RUN .                     300:  Run Number 
 ROPA.m/hr               15.00:  ROP Avg 
 ROPN.m/hr                9.00:  ROP Min 
 ROPX.m/hr               17.00:  ROP Max 
 RPMA.rpm               120.00:  RPM Surface Avg 
 RPMN.rpm                90.00:  RPM Surface Min 
 RPMX.rpm               140.00:  RPM Surface Max 
 RRUN.                     300:  Rig Run Number 
 RTIM.hr                 31.53:  Time Reaming 
 SAZI.deg               331.64:  Azm, Start 
 SDEP.m                4127.00:  Start Depth 
 SIDD.                      No:  Serv Intrp, DD 
 SINC.deg                48.43:  Inc, Start 
 SPPA.psig             5830.00:  SPP Avg 
 SPPN.psig             5600.00:  SPP Min 
 SPPX.psig             5900.00:  SPP Max 
 STIM.      21.00.00 20-Aug-21:  Start Time 
 SVCS.                 DD, MWD:  Services 
 SVER.                    9.20:  Sperry Version 
 TDAT.m                 957.50:  Tot Depth Attmp 
 TDDF.                      No:  Trip for DD 
 TDLG.m                 957.50:  Tot Depth Loggd 
 TFF .                      No:  Trip for Fail 
 TQAA.f-kp               15.00:  Torque Abs Avg 
 TQAN.f-kp               12.00:  Torque Abs Min 
 TQAX.f-kp               19.00:  Torque Abs Max 
 TRRT.°/30m              -3.40:  Turn Rotating 
 MRT .                  EWR-M5:  Maximum Recorded Temperature 
 TTMX.degC              100.00:  Max Tool Temp 
 VS01.                90639251:  Virtual Str1 SN 
 VS02.                90634715:  Virtual Str2 SN 
 VS03.                90652479:  Virtual Str3 SN 
 VS04.                90642262:  Virtual Str4 SN 
 WBMN.klb                 0.00:  WOB Min 
 WITN.           Murad Guliyev:  Customer Rep 
 WITN.          Yashar Gaziyev:  Customer Rep 2 
 WOBA.klb                 9.00:  WOB Avg 
 WOBX.klb                12.00:  WOB Max 
 YP  .lhf2               30.00:  Yield Point 
~Curve Information Block
#MNEM.UNIT                 API CODE     Curve Description
#---------               -----------    ---------------------------
 TIME.HHMMSS            00 000 000 000:  GT Time & Date
 GTDEPTH.m              00 000 000 000:  GT Depth
 GTPQH.psia             00 000 000 000:  GT HR Quartz Pressure
 GTTQ.degC              00 000 000 000:  GT Quartz Temperature
 GTTN.NONE              00 000 000 000:  GT Test Number
 GTET.sec               00 000 000 000:  GT Elapsed Test Time
 GTTVD.m                00 000 000 000:  GT True Vertical Depth
#Other Information
#
#WARRANTY: Halliburton will use its best efforts to furnish customers with 
#accurate information and interpretations that are part of, and incident to, the services 
#provided.  However, Halliburton cannot and does not warrant the accuracy 
#or correctness of such information and interpretations.  Under no circumstances should any 
#such information or interpretation be relied upon as the sole basis for any drilling, 
#completion, production, or financial decision or any procedure involving any risk to the 
#safety of any drilling venture, drilling rig or its crew or any other third party.  The 
#Customer has full responsibility for all drilling, completion and production operation.  
#Halliburton makes no representations or warranties, either expressed or 
#implied, including, but not limited to, the implied warranties of merchantability or fitness 
#for a particular purpose, with respect to the services rendered.  In no event will 
#Halliburton be liable for failure to obtain any particular results or for 
#any damages, including, but not limited to, indirect, special or consequential damages, 
#resulting from the use of any information or interpretation provided by Halliburton.
#
~A           TIME           GTDEPTH  GTPQH  GTTQ  GTTN   GTET   GTTVD  
# ...
   22:58:38.232.27-Aug-2021 4636.60 4501.42 82.25 25.00  90.41 3010.11
   22:58:38.432.27-Aug-2021 4636.60 4501.43 82.25 25.00  90.61 3010.11
   22:58:38.632.27-Aug-2021 4636.60 4501.45 82.25 25.00  90.81 3010.11
   22:58:38.832.27-Aug-2021 4636.60 4501.48 82.25 25.00  91.01 3010.11
   22:58:39.032.27-Aug-2021 4636.60 4501.48 82.25 25.00  91.21 3010.11
   22:58:39.232.27-Aug-2021 4636.60 4501.25 82.25 25.00  91.41 3010.11
   22:58:39.432.27-Aug-2021 4636.60 4501.55 82.25 25.00  91.61 3010.11
   22:58:39.632.27-Aug-2021 4636.60 4501.44 82.25 25.00  91.81 3010.11
   22:58:39.832.27-Aug-2021 4636.60 4501.45 82.25 25.00  92.01 3010.11
   22:58:40.032.27-Aug-2021 4636.60 4501.45 82.25 25.00  92.21 3010.11
   22:58:40.232.27-Aug-2021 4636.60 4501.49 82.25 25.00  92.41 3010.11
   22:58:40.432.27-Aug-2021 4636.60 4501.50 82.25 25.00  92.61 3010.11
   22:58:40.632.27-Aug-2021 4636.60 4501.54 82.25 25.00  92.81 3010.11
   22:58:40.832.27-Aug-2021 4636.60 4501.56 82.25 25.00  93.01 3010.11
   22:58:41.032.27-Aug-2021 4636.60 4501.56 82.25 25.00  93.21 3010.11
   22:58:41.232.27-Aug-2021 4636.60 4501.61 82.25 25.00  93.41 3010.11
   22:58:41.432.27-Aug-2021 4636.60 4501.60 82.25 25.00  93.61 3010.11
   22:58:41.632.27-Aug-2021 4636.60 4501.63 82.25 25.00  93.81 3010.11
   22:58:41.832.27-Aug-2021 4636.60 4501.65 82.25 25.00  94.01 3010.11
   22:58:42.032.27-Aug-2021 4636.60 4501.65 82.25 25.00  94.21 3010.11
   22:58:42.232.27-Aug-2021 4636.60 4501.09 82.25 25.00  94.41 3010.11
   22:58:42.432.27-Aug-2021 4636.60 4501.92 82.25 25.00  94.61 3010.11
   22:58:42.632.27-Aug-2021 4636.60 4501.54 82.25 25.00  94.81 3010.11
   22:58:42.832.27-Aug-2021 4636.60 4501.51 82.25 25.00  95.01 3010.11
   22:58:43.032.27-Aug-2021 4636.60 4501.51 82.25 25.00  95.21 3010.11
   22:58:43.232.27-Aug-2021 4636.60 4501.53 82.25 25.00  95.41 3010.11
   22:58:43.433.27-Aug-2021 4636.60 4501.54 82.25 25.00  95.61 3010.11
   22:58:43.633.27-Aug-2021 4636.60 4501.58 82.25 25.00  95.81 3010.11
   22:58:43.833.27-Aug-2021 4636.60 4501.60 82.25 25.00  96.01 3010.11
   22:58:44.033.27-Aug-2021 4636.60 4501.60 82.25 25.00  96.21 3010.11
   22:58:44.233.27-Aug-2021 4636.60 4501.65 82.25 25.00  96.41 3010.11
   22:58:44.433.27-Aug-2021 4636.60 4501.66 82.25 25.00  96.61 3010.11
   22:58:44.633.27-Aug-2021 4636.60 4501.67 82.25 25.00  96.81 3010.11
   22:58:44.833.27-Aug-2021 4636.60 4501.68 82.25 25.00  97.01 3010.11
   22:58:45.033.27-Aug-2021 4636.60 4501.68 82.25 25.00  97.21 3010.11
   22:58:45.233.27-Aug-2021 4636.60 4501.70 82.25 25.00  97.41 3010.11
   22:58:45.433.27-Aug-2021 4636.60 4501.71 82.25 25.00  97.61 3010.11
   22:58:45.633.27-Aug-2021 4636.60 4501.12 82.25 25.00  97.81 3010.11
   22:58:45.833.27-Aug-2021 4636.60 4501.97 82.25 25.00  98.01 3010.11
   22:58:46.033.27-Aug-2021 4636.60 4501.97 82.25 25.00  98.21 3010.11
   22:58:46.233.27-Aug-2021 4636.60 4501.54 82.25 25.00  98.41 3010.11
   22:58:46.433.27-Aug-2021 4636.60 4501.56 82.25 25.00  98.61 3010.11
   22:58:46.633.27-Aug-2021 4636.60 4501.42 82.25 25.00  98.81 3010.11
   22:58:46.833.27-Aug-2021 4636.60 4501.50 82.25 25.00  99.01 3010.11
   22:58:47.033.27-Aug-2021 4636.60 4501.50 82.25 25.00  99.21 3010.11
   22:58:47.233.27-Aug-2021 4636.60 4501.50 82.25 25.00  99.41 3010.11
   22:58:47.433.27-Aug-2021 4636.60 4501.51 82.25 25.00  99.61 3010.11
   22:58:47.633.27-Aug-2021 4636.60 4501.53 82.25 25.00  99.81 3010.11
   22:58:47.833.27-Aug-2021 4636.60 4501.30 82.25 25.00 100.01 3010.11
   22:58:48.033.27-Aug-2021 4636.60 4501.30 82.25 25.00 100.21 3010.11
   22:58:48.233.27-Aug-2021 4636.60 4501.50 82.25 25.00 100.41 3010.11
   22:58:48.433.27-Aug-2021 4636.60 4501.48 82.25 25.00 100.61 3010.11
   22:58:48.633.27-Aug-2021 4636.60 4501.51 82.25 25.00 100.81 3010.11
   22:58:48.833.27-Aug-2021 4636.60 4501.52 82.25 25.00 101.01 3010.11
   22:58:49.033.27-Aug-2021 4636.60 4501.52 82.25 25.00 101.21 3010.11
   22:58:49.233.27-Aug-2021 4636.60 4500.99 82.25 25.00 101.41 3010.11
   22:58:49.433.27-Aug-2021 4636.60 4501.90 82.25 25.00 101.61 3010.11
   22:58:49.633.27-Aug-2021 4636.60 4501.52 82.25 25.00 101.81 3010.11
   22:58:49.833.27-Aug-2021 4636.60 4501.49 82.25 25.00 102.01 3010.11
   22:58:50.033.27-Aug-2021 4636.60 4501.49 82.25 25.00 102.21 3010.11
   22:58:50.233.27-Aug-2021 4636.60 4501.52 82.25 25.00 102.41 3010.11
   22:58:50.433.27-Aug-2021 4636.60 4501.53 82.25 25.00 102.61 3010.11
   22:58:50.633.27-Aug-2021 4636.60 4501.56 82.25 25.00 102.81 3010.11
   22:58:50.833.27-Aug-2021 4636.60 4501.58 82.25 25.00 103.01 3010.11
   22:58:51.033.27-Aug-2021 4636.60 4501.58 82.25 25.00 103.21 3010.11
   22:58:51.233.27-Aug-2021 4636.60 4501.62 82.25 25.00 103.41 3010.11
   22:58:51.433.27-Aug-2021 4636.60 4501.64 82.25 25.00 103.61 3010.11
   22:58:51.633.27-Aug-2021 4636.60 4501.65 82.25 25.00 103.81 3010.11
   22:58:51.833.27-Aug-2021 4636.60 4501.66 82.25 25.00 104.01 3010.11
   22:58:52.033.27-Aug-2021 4636.60 4501.66 82.25 25.00 104.21 3010.11
   22:58:52.233.27-Aug-2021 4636.60 4501.57 82.25 25.00 104.41 3010.11
   22:58:52.433.27-Aug-2021 4636.60 4501.55 82.25 25.00 104.61 3010.11
   22:58:52.633.27-Aug-2021 4636.60 4501.61 82.25 25.00 104.81 3010.11
   22:58:52.833.27-Aug-2021 4636.60 4501.55 82.25 25.00 105.01 3010.11
   22:58:53.033.27-Aug-2021 4636.60 4501.55 82.25 25.00 105.21 3010.11
   22:58:53.234.27-Aug-2021 4636.60 4501.57 82.25 25.00 105.41 3010.11
   22:58:53.434.27-Aug-2021 4636.60 4501.59 82.25 25.00 105.61 3010.11
   22:58:53.634.27-Aug-2021 4636.60 4501.59 82.25 25.00 105.81 3010.11
   22:58:53.834.27-Aug-2021 4636.60 4501.62 82.25 25.00 106.01 3010.11
   22:58:54.034.27-Aug-2021 4636.60 4501.62 82.25 25.00 106.21 3010.11
   22:58:54.234.27-Aug-2021 4636.60 4501.66 82.25 25.00 106.41 3010.11
   22:58:54.434.27-Aug-2021 4636.60 4501.67 82.25 25.00 106.61 3010.11
   22:58:54.634.27-Aug-2021 4636.60 4501.68 82.25 25.00 106.81 3010.11
   22:58:54.834.27-Aug-2021 4636.60 4501.69 82.25 25.00 107.01 3010.11
   22:58:55.034.27-Aug-2021 4636.60 4501.69 82.25 25.00 107.21 3010.11
   22:58:55.234.27-Aug-2021 4636.60 4501.71 82.25 25.00 107.41 3010.11
   22:58:55.434.27-Aug-2021 4636.60 4501.71 82.25 25.00 107.61 3010.11
   22:58:55.634.27-Aug-2021 4636.60 4501.20 82.25 25.00 107.81 3010.11
   22:58:55.834.27-Aug-2021 4636.60 4502.03 82.25 25.00 108.01 3010.11
   22:58:56.034.27-Aug-2021 4636.60 4502.03 82.25 25.00 108.21 3010.11
   22:58:56.234.27-Aug-2021 4636.60 4501.63 82.25 25.00 108.41 3010.11
   22:58:56.434.27-Aug-2021 4636.60 4501.57 82.25 25.00 108.61 3010.11
   22:58:56.634.27-Aug-2021 4636.60 4501.60 82.25 25.00 108.81 3010.11
   22:58:56.834.27-Aug-2021 4636.60 4501.35 82.25 25.00 109.01 3010.11
   22:58:57.034.27-Aug-2021 4636.60 4501.35 82.25 25.00 109.21 3010.11
   22:58:57.234.27-Aug-2021 4636.60 4501.52 82.25 25.00 109.41 3010.11
   22:58:57.434.27-Aug-2021 4636.60 4501.52 82.25 25.00 109.61 3010.11
   22:58:57.634.27-Aug-2021 4636.60 4501.53 82.25 25.00 109.81 3010.11
   22:58:57.834.27-Aug-2021 4636.60 4501.02 82.25 25.00 110.01 3010.11
   22:58:58.034.27-Aug-2021 4636.60 4501.02 82.25 25.00 110.21 3010.11
   22:58:58.234.27-Aug-2021 4636.60 4501.57 82.25 25.00 110.41 3010.11
   22:58:58.434.27-Aug-2021 4636.60 4501.53 82.25 25.00 110.61 3010.11
   22:58:58.634.27-Aug-2021 4636.60 4501.54 82.25 25.00 110.81 3010.11
   22:58:58.834.27-Aug-2021 4636.60 4501.54 82.25 25.00 111.01 3010.11
   22:58:59.034.27-Aug-2021 4636.60 4501.54 82.25 25.00 111.21 3010.11
   22:58:59.234.27-Aug-2021 4636.60 4501.05 82.25 25.00 111.41 3010.11
   22:58:59.434.27-Aug-2021 4636.60 4501.95 82.25 25.00 111.61 3010.11
   22:58:59.634.27-Aug-2021 4636.60 4501.55 82.25 25.00 111.81 3010.11
   22:58:59.834.27-Aug-2021 4636.60 4501.53 82.25 25.00 112.01 3010.11
   22:59:00.034.27-Aug-2021 4636.60 4501.53 82.25 25.00 112.21 3010.11
   22:59:00.234.27-Aug-2021 4636.60 4501.56 82.25 25.00 112.41 3010.11
   22:59:00.434.27-Aug-2021 4636.60 4501.55 82.25 25.00 112.61 3010.11
   22:59:00.634.27-Aug-2021 4636.60 4501.56 82.25 25.00 112.81 3010.11
