~Version Information
 VERS.                  2.0:   CWLS log ASCII Standard -VERSION 2.0
 WRAP.                   NO:   One line per depth step
~Well Information Block
#MNEM.UNIT     VALUE/NAME     DESCRIPTION
#---------     -----------    ---------------------------
 STRT.S             19:41:39 27-Aug-21: START TIME 19:41:39 27-Aug-21
 STOP.S             19:48:52 27-Aug-21: STOP TIME  19:48:52 27-Aug-21
 STEP.S                   0.00: STEP TIME
 NULL.                 -999.25: NULL VALUE
 DFWT.                        :  DIST FWL TEXT
 DFST.                        :  DIST FSL TEXT
 DMF .             Drill Floor:  DRILL MEAS FROM
 STIM.      20.00.00 17-Aug-21:  START TIME
 DATE.      19.00.00 29-Aug-21:  END TIME
 SPUD.               15-Aug-21:  SPUD DATE
 NREF.                    Grid:  NORTH REFERENCE
 HPTY.       Minimum Curvature:  HOLE POS TYPE
 DMOD.             Drill Model:  DRILL MOD DESC
 SVYD.                  Survey:  SURVEY DESC
 ILTD.               Lithology:  INTERP LTH DESC
 FTOP.          Formation Tops:  FORM TOPS DESC
 RIG .              East Azeri:  RIG NAME
 PDAT.          Mean Sea Level:  PERMANENT DATUM
 FLD .                     ACG:  FIELD NAME
 SON .        AZ-XX-0907180857:  JOB NUMBER
 CTRY.              Azerbaijan:  COUNTRY NAME
 WELL.                    D23x:  WELL NAME
 SRVC.     Turan Drilling and Engineering:  CONTRACTOR
 COMP.     BP Exploration (Caspian Sea) Ltd.:  COMPANY
 UWI .            /AZE00000214:  UNIQUE WELL IDENTIFIER
 API .            /AZE00000214:  API NUMBER
 MDS .        Operator Entered:  MAG DATA SOURCE
 BASE.              Azerbaijan:  LOGGING EQUIPMENT BASE LOCATION
 REGN.                   EESSA:  REGION
 PROV.                    Baku:  PROVINCE
 STAT.                    Baku:  STATE NAME
 MWDS.                    Baku:  MWD SHOP
 DOE .                     N/A:  DOE NUMBER
 DCON.         Sperry Drilling:  DIRECTNL CONTR
 UNIT.                     N/A:  LOGGING EQUIPMENT ID
 WTYP.                Deviated:  WELL TYPE
 CNTY.                        :  COUNTY
 LOC .                        :  LOCATION
 LMF .             Drill Floor:  LOG MEASURED FROM
 TVDS.m                  43.60:  TVDSS CORRECTN
 LATI.deg                40.02:  LATITUDE
 LONG.deg                51.45:  LONGITUDE
 WHNS.m                  -7.04:  WELL HEAD N/S
 WHEW.m                  -0.67:  WELL HEAD E/W
 UTMX.m              538762.90:  UTM X
 UTMY.m             4431871.34:  UTM Y
 DFWL.m                   0.00:  DISTANCE FWL
 DFSL.m                   0.00:  DISTANCE FSL
 SDEP.m                4127.00:  START DEPTH
 TDD .m                5084.50:  TOTAL DEPTH (DRILLER)
 VSDR.deg               140.47:  VERT SEC DIRECT
 GVFD.g                   1.00:  GRAVITY FIELD
 MFLD.nT              50362.00:  MAGNETIC FIELD
 MDIP.deg                59.48:  MAGNETIC DIP
 MDEC.deg                 6.47:  MAGNETIC DECL
 GRDC.deg                 0.31:  GRID CORRECTION
 AZTC.deg                 6.16:  AZM TOTAL CORR
 EPD .m                   0.00:  ELEVATION
 EGL .m                   0.00:  GROUND ELEVATION
 WDMS.m                 151.80:  WD ELEV
 APD .m                  43.60:  DEPTH ABOVE PD
 DEP .m                4092.57:  DEPTH
 AGAP.m                  43.60:  AIR GAP
 VSEW.m                  -0.67:  VERT SEC E/W
 VSNS.m                  -7.04:  VERT SEC N/S
 EKB .m                  43.60:  KB ELEVATION
 EDF .m                  43.60:  DF ELEVATION
 TDL .m                 957.50:  TOTAL DEPTH (LOGGER)
 VSC .                       0:  VS TO CLOSURE
 MAGU.                 1851413:  MAGUTM CHECKSUM
~Parameter Information Block
#MNEM.UNIT       Value        Description
#---------     -----------    ---------------------------
 AV  .mps                 1.50:  Ann Velocity 
 AVMX.mps                 2.00:  Max Ann Veloc 
 AZIF.deg               184.66:  Azm, Final 
 BHAT.        Rotary Steerable:  BHA Type 
 BREV.rev               300.00:  Rev Bit Total 
 BROT.°/30m              -0.50:  Build Rotating 
 BS  .in                  8.50:  Bit Size 
 BSZ .in                  8.50:  Bit Size 
 BTPL.psig              370.00:  Bit Press Loss 
 CABU.                      No:  Customer Abuse 
 CGEO.      Behruz Shahbaliyev:  Customer Geo 
 COMM.                     ,‰€:  Run Comments 1 
 TCS .hr                140.08:  Time Ciculation Ended 
 CV  .mps                 3.00:  Crit Velocity 
 CVMX.mps                 3.20:  Max Crit Veloc 
 DD1 .            Musa Ahmadov:  Direct Drillr 1 
 DD2 .           Hamid Ahmadov:  Direct Drillr 2 
 DDSV.               Geo-Pilot:  DD Service 
 DEFF.%                  98.40:  % Det Eff 
 DLRX.°/30m               3.40:  Dogleg Rot Max 
 DLSO.°/30m               1.45:  Dogleg Oriented 
 DLSX.°/30m               3.40:  Dogleg Str Max 
 DRET.      18.40.00 29-Aug-21:  Drill End Time 
 DRST.      21.00.00 20-Aug-21:  Drill Start Tim 
 DTIM.hr                 69.47:  Time Drilling 
 EDEP.m                5084.50:  End Depth 
 ENG1.      Artemiy Matviyanov:  Engineer 1 
 ENG2.         Almaz Almadatov:  Engineer 2 
 ETIM.      18.40.00 29-Aug-21:  End Time 
 FLOI.gpm               500.00:  Flow In 
 FLON.gpm               400.00:  Flow In Min 
 FLOS.cptm                0.00:  Fluid Loss 
 FLOX.gpm               500.00:  Flow In Max 
 DFT .        Mineral Oil Base:  Mud Type 
 HFLO.                      No:  High Flow 
 HPRE.                      No:  High Pressure 
 HTEM.                      No:  High Temp 
 HYDO.m                   1.80:  Hydro Offset 
 IFIN.deg                25.62:  Inc, Final 
 IMAX.deg                48.69:  Inc Max 
 IMIN.deg                24.01:  Inc Min 
 IMND.m                4962.57:  Inc Min Depth 
 IMXD.m                4119.01:  Inc Max Depth 
 JARR.                      No:  Jarring 
 LETM.      18.40.00 29-Aug-21:  Log End Time 
 LOST.hr                     0:  Lost Rig Time 
 LSTM.      21.00.00 20-Aug-21:  Log Start Time 
 MDCL.ppm             41500.00:  Mud Chlorides 
 MDES.     Inversion Oil/Synthetic:  Mud Desc 
 DFD .sg                  1.56:  Mud Density 
 MDMN.sg                  1.56:  Dens Mud Min 
 MDMX.sg                  1.56:  Dens Mud Max 
 MOIL.                      70:  Run Mud Oil % 
 MOWR.                   70:30:  Run Mud OWR 
 MSND.                     0.2:  Run Mud Sand % 
 MSOL.                    23.3:  Run Mud Solids% 
 DFV .spqt               78.00:  Mud Viscosity 
 MWOD.in                  6.75:  MWD Tool OD 
 MWSI.                      No:  Serv Intrp, MWD 
 OTIM.hr                218.30:  Time Operating 
 PCON.           Look Like New:  Pad Condition 
 PMAX.psia            11015.30:  Press Op, Max 
 PV  .cP                 38.00:  Mud PV 
 RUN .                     300:  Run Number 
 ROPA.m/hr               15.00:  ROP Avg 
 ROPN.m/hr                9.00:  ROP Min 
 ROPX.m/hr               17.00:  ROP Max 
 RPMA.rpm               120.00:  RPM Surface Avg 
 RPMN.rpm                90.00:  RPM Surface Min 
 RPMX.rpm               140.00:  RPM Surface Max 
 RRUN.                     300:  Rig Run Number 
 RTIM.hr                 31.53:  Time Reaming 
 SAZI.deg               331.64:  Azm, Start 
 SDEP.m                4127.00:  Start Depth 
 SIDD.                      No:  Serv Intrp, DD 
 SINC.deg                48.43:  Inc, Start 
 SPPA.psig             5830.00:  SPP Avg 
 SPPN.psig             5600.00:  SPP Min 
 SPPX.psig             5900.00:  SPP Max 
 STIM.      21.00.00 20-Aug-21:  Start Time 
 SVCS.                 DD, MWD:  Services 
 SVER.                    9.20:  Sperry Version 
 TDAT.m                 957.50:  Tot Depth Attmp 
 TDDF.                      No:  Trip for DD 
 TDLG.m                 957.50:  Tot Depth Loggd 
 TFF .                      No:  Trip for Fail 
 TQAA.f-kp               15.00:  Torque Abs Avg 
 TQAN.f-kp               12.00:  Torque Abs Min 
 TQAX.f-kp               19.00:  Torque Abs Max 
 TRRT.°/30m              -3.40:  Turn Rotating 
 MRT .                  EWR-M5:  Maximum Recorded Temperature 
 TTMX.degC              100.00:  Max Tool Temp 
 VS01.                90639251:  Virtual Str1 SN 
 VS02.                90634715:  Virtual Str2 SN 
 VS03.                90652479:  Virtual Str3 SN 
 VS04.                90642262:  Virtual Str4 SN 
 WBMN.klb                 0.00:  WOB Min 
 WITN.           Murad Guliyev:  Customer Rep 
 WITN.          Yashar Gaziyev:  Customer Rep 2 
 WOBA.klb                 9.00:  WOB Avg 
 WOBX.klb                12.00:  WOB Max 
 YP  .lhf2               30.00:  Yield Point 
~Curve Information Block
#MNEM.UNIT                 API CODE     Curve Description
#---------               -----------    ---------------------------
 TIME.HHMMSS            00 000 000 000:  GT Time & Date
 GTDEPTH.m              00 000 000 000:  GT Depth
 GTPQH.psia             00 000 000 000:  GT HR Quartz Pressure
 GTTQ.degC              00 000 000 000:  GT Quartz Temperature
 GTTN.NONE              00 000 000 000:  GT Test Number
 GTET.sec               00 000 000 000:  GT Elapsed Test Time
 GTTVD.m                00 000 000 000:  GT True Vertical Depth
#Other Information
#
#WARRANTY: Halliburton will use its best efforts to furnish customers with 
#accurate information and interpretations that are part of, and incident to, the services 
#provided.  However, Halliburton cannot and does not warrant the accuracy 
#or correctness of such information and interpretations.  Under no circumstances should any 
#such information or interpretation be relied upon as the sole basis for any drilling, 
#completion, production, or financial decision or any procedure involving any risk to the 
#safety of any drilling venture, drilling rig or its crew or any other third party.  The 
#Customer has full responsibility for all drilling, completion and production operation.  
#Halliburton makes no representations or warranties, either expressed or 
#implied, including, but not limited to, the implied warranties of merchantability or fitness 
#for a particular purpose, with respect to the services rendered.  In no event will 
#Halliburton be liable for failure to obtain any particular results or for 
#any damages, including, but not limited to, indirect, special or consequential damages, 
#resulting from the use of any information or interpretation provided by Halliburton.
#
~A           TIME           GTDEPTH  GTPQH  GTTQ  GTTN   GTET   GTTVD  
# ...
   19:42:01.600.27-Aug-2021 4678.50 7295.27 82.39 21.00  22.60 3048.11
   19:42:01.800.27-Aug-2021 4678.50 7294.45 82.39 21.00  22.80 3048.11
   19:42:02.000.27-Aug-2021 4678.50 7295.71 82.39 21.00  23.00 3048.11
   19:42:02.200.27-Aug-2021 4678.50 7295.71 82.39 21.00  23.20 3048.11
   19:42:02.400.27-Aug-2021 4678.50 7295.15 82.39 21.00  23.40 3048.11
   19:42:02.600.27-Aug-2021 4678.50 7295.82 82.39 21.00  23.60 3048.11
   19:42:02.800.27-Aug-2021 4678.50 7295.61 82.39 21.00  23.80 3048.11
   19:42:03.000.27-Aug-2021 4678.50 7295.83 82.39 21.00  24.00 3048.11
   19:42:03.200.27-Aug-2021 4678.50 7295.83 82.39 21.00  24.20 3048.11
   19:42:03.400.27-Aug-2021 4678.50 7296.15 82.39 21.00  24.40 3048.11
   19:42:03.600.27-Aug-2021 4678.50 7296.30 82.39 21.00  24.60 3048.11
   19:42:03.800.27-Aug-2021 4678.50 7296.43 82.39 21.00  24.80 3048.11
   19:42:04.000.27-Aug-2021 4678.50 7296.50 82.39 21.00  25.00 3048.11
   19:42:04.200.27-Aug-2021 4678.50 7296.50 82.39 21.00  25.20 3048.11
   19:42:04.400.27-Aug-2021 4678.50 7300.96 82.39 21.00  25.40 3048.11
   19:42:04.600.27-Aug-2021 4678.50 7295.50 82.39 21.00  25.60 3048.11
   19:42:04.800.27-Aug-2021 4678.50 7297.12 82.39 21.00  25.80 3048.11
   19:42:05.000.27-Aug-2021 4678.50 7296.66 82.39 21.00  26.00 3048.11
   19:42:05.200.27-Aug-2021 4678.50 7296.66 82.39 21.00  26.20 3048.11
   19:42:05.400.27-Aug-2021 4678.50 7297.13 82.39 21.00  26.40 3048.11
   19:42:05.600.27-Aug-2021 4678.50 7297.44 82.39 21.00  26.60 3048.11
   19:42:05.800.27-Aug-2021 4678.50 7298.24 82.39 21.00  26.80 3048.11
   19:42:06.000.27-Aug-2021 4678.50 7297.97 82.39 21.00  27.00 3048.11
   19:42:06.200.27-Aug-2021 4678.50 7297.97 82.39 21.00  27.20 3048.11
   19:42:06.400.27-Aug-2021 4678.50 7298.18 82.39 21.00  27.40 3048.11
   19:42:06.600.27-Aug-2021 4678.50 7298.34 82.39 21.00  27.60 3048.11
   19:42:06.800.27-Aug-2021 4678.50 7298.40 82.39 21.00  27.80 3048.11
   19:42:07.000.27-Aug-2021 4678.50 7298.42 82.39 21.00  28.00 3048.11
   19:42:07.200.27-Aug-2021 4678.50 7298.42 82.39 21.00  28.20 3048.11
   19:42:07.400.27-Aug-2021 4678.50 7298.56 82.39 21.00  28.40 3048.11
   19:42:07.600.27-Aug-2021 4678.50 7298.71 82.39 21.00  28.60 3048.11
   19:42:07.800.27-Aug-2021 4678.50 7303.23 82.39 21.00  28.80 3048.11
   19:42:08.000.27-Aug-2021 4678.50 7297.60 82.39 21.00  29.00 3048.11
   19:42:08.200.27-Aug-2021 4678.50 7297.60 82.39 21.00  29.20 3048.11
   19:42:08.400.27-Aug-2021 4678.50 7298.70 82.39 21.00  29.40 3048.11
   19:42:08.600.27-Aug-2021 4678.50 7299.71 82.39 21.00  29.60 3048.11
   19:42:08.800.27-Aug-2021 4678.50 7305.62 82.39 21.00  29.80 3048.11
   19:42:09.000.27-Aug-2021 4678.50 7296.19 82.39 21.00  30.00 3048.11
   19:42:09.200.27-Aug-2021 4678.50 7296.19 82.39 21.00  30.20 3048.11
   19:42:09.400.27-Aug-2021 4678.50 7300.68 82.39 21.00  30.40 3048.11
   19:42:09.600.27-Aug-2021 4678.50 7300.79 82.39 21.00  30.60 3048.11
   19:42:09.800.27-Aug-2021 4678.50 7299.80 82.39 21.00  30.80 3048.11
   19:42:10.000.27-Aug-2021 4678.50 7300.76 82.39 21.00  31.00 3048.11
   19:42:10.200.27-Aug-2021 4678.50 7300.76 82.39 21.00  31.20 3048.11
   19:42:10.400.27-Aug-2021 4678.50 7300.93 82.39 21.00  31.40 3048.11
   19:42:10.600.27-Aug-2021 4678.50 7301.10 82.39 21.00  31.60 3048.11
   19:42:10.800.27-Aug-2021 4678.50 7301.07 82.39 21.00  31.80 3048.11
   19:42:11.000.27-Aug-2021 4678.50 7301.45 82.39 21.00  32.00 3048.11
   19:42:11.200.27-Aug-2021 4678.50 7301.45 82.39 21.00  32.20 3048.11
   19:42:11.400.27-Aug-2021 4678.50 7307.82 82.39 21.00  32.40 3048.11
   19:42:11.600.27-Aug-2021 4678.50 7298.59 82.39 21.00  32.60 3048.11
   19:42:11.800.27-Aug-2021 4678.50 7302.06 82.39 21.00  32.80 3048.11
   19:42:12.000.27-Aug-2021 4678.50 7301.95 82.39 21.00  33.00 3048.11
   19:42:12.200.27-Aug-2021 4678.50 7301.95 82.39 21.00  33.20 3048.11
   19:42:12.400.27-Aug-2021 4678.50 7301.39 82.39 21.00  33.40 3048.11
   19:42:12.600.27-Aug-2021 4678.50 7302.31 82.39 21.00  33.60 3048.11
   19:42:12.800.27-Aug-2021 4678.50 7302.95 82.39 21.00  33.80 3048.11
   19:42:13.000.27-Aug-2021 4678.50 7302.74 82.39 21.00  34.00 3048.11
   19:42:13.200.27-Aug-2021 4678.50 7302.74 82.39 21.00  34.20 3048.11
   19:42:13.400.27-Aug-2021 4678.50 7303.02 82.39 21.00  34.40 3048.11
   19:42:13.600.27-Aug-2021 4678.50 7303.07 82.39 21.00  34.60 3048.11
   19:42:13.800.27-Aug-2021 4678.50 7303.08 82.39 21.00  34.80 3048.11
   19:42:14.000.27-Aug-2021 4678.50 7303.06 82.39 21.00  35.00 3048.11
   19:42:14.200.27-Aug-2021 4678.50 7303.06 82.39 21.00  35.20 3048.11
   19:42:14.400.27-Aug-2021 4678.50 7302.97 82.39 21.00  35.40 3048.11
   19:42:14.600.27-Aug-2021 4678.50 7303.01 82.39 21.00  35.60 3048.11
   19:42:14.800.27-Aug-2021 4678.50 7303.11 82.39 21.00  35.80 3048.11
   19:42:15.000.27-Aug-2021 4678.50 7303.27 82.39 21.00  36.00 3048.11
   19:42:15.200.27-Aug-2021 4678.50 7303.27 82.39 21.00  36.20 3048.11
   19:42:15.400.27-Aug-2021 4678.50 7303.50 82.39 21.00  36.40 3048.11
   19:42:15.600.27-Aug-2021 4678.50 7303.64 82.39 21.00  36.60 3048.11
   19:42:15.800.27-Aug-2021 4678.50 7303.48 82.39 21.00  36.80 3048.11
   19:42:16.000.27-Aug-2021 4678.50 7309.30 82.39 21.00  37.00 3048.11
   19:42:16.200.27-Aug-2021 4678.50 7309.30 82.39 21.00  37.20 3048.11
   19:42:16.400.27-Aug-2021 4678.50 7362.05 82.39 21.00  37.40 3048.11
   19:42:16.600.27-Aug-2021 4678.50 7386.68 82.39 21.00  37.60 3048.11
   19:42:16.800.27-Aug-2021 4678.50 7408.80 82.39 21.00  37.80 3048.11
   19:42:17.000.27-Aug-2021 4678.50 7435.56 82.39 21.00  38.00 3048.11
   19:42:17.200.27-Aug-2021 4678.50 7435.56 82.39 21.00  38.20 3048.11
   19:42:17.400.27-Aug-2021 4678.50 7482.11 82.39 21.00  38.40 3048.11
   19:42:17.600.27-Aug-2021 4678.50 7471.81 82.39 21.00  38.60 3048.11
   19:42:17.800.27-Aug-2021 4678.50 7462.63 82.39 21.00  38.80 3048.11
   19:42:18.000.27-Aug-2021 4678.50 7455.90 82.39 21.00  39.00 3048.11
   19:42:18.200.27-Aug-2021 4678.50 7455.90 82.39 21.00  39.20 3048.11
   19:42:18.400.27-Aug-2021 4678.50 7447.00 82.39 21.00  39.40 3048.11
   19:42:18.600.27-Aug-2021 4678.50 7438.83 82.39 21.00  39.60 3048.11
   19:42:18.800.27-Aug-2021 4678.50 7434.08 82.39 21.00  39.80 3048.11
   19:42:19.000.27-Aug-2021 4678.50 7429.02 82.39 21.00  40.00 3048.11
   19:42:19.200.27-Aug-2021 4678.50 7429.02 82.39 21.00  40.20 3048.11
   19:42:19.400.27-Aug-2021 4678.50 7420.23 82.39 21.00  40.40 3048.11
   19:42:19.600.27-Aug-2021 4678.50 7418.99 82.39 21.00  40.60 3048.11
   19:42:19.800.27-Aug-2021 4678.50 7411.11 82.39 21.00  40.80 3048.11
   19:42:20.000.27-Aug-2021 4678.50 7405.27 82.39 21.00  41.00 3048.11
   19:42:20.200.27-Aug-2021 4678.50 7405.27 82.39 21.00  41.20 3048.11
   19:42:20.400.27-Aug-2021 4678.50 7391.76 82.39 21.00  41.40 3048.11
   19:42:20.600.27-Aug-2021 4678.50 7386.49 82.39 21.00  41.60 3048.11
   19:42:20.800.27-Aug-2021 4678.50 7377.09 82.39 21.00  41.80 3048.11
   19:42:21.000.27-Aug-2021 4678.50 7371.06 82.39 21.00  42.00 3048.11
   19:42:21.200.27-Aug-2021 4678.50 7371.06 82.39 21.00  42.20 3048.11
   19:42:21.400.27-Aug-2021 4678.50 7365.47 82.39 21.00  42.40 3048.11
   19:42:21.600.27-Aug-2021 4678.50 7353.81 82.39 21.00  42.60 3048.11
   19:42:21.800.27-Aug-2021 4678.50 7353.41 82.39 21.00  42.80 3048.11
   19:42:22.000.27-Aug-2021 4678.50 7340.11 82.39 21.00  43.00 3048.11
   19:42:22.200.27-Aug-2021 4678.50 7340.11 82.39 21.00  43.20 3048.11
   19:42:22.400.27-Aug-2021 4678.50 7327.74 82.39 21.00  43.40 3048.11
   19:42:22.600.27-Aug-2021 4678.50 7324.92 82.39 21.00  43.60 3048.11
   19:42:22.800.27-Aug-2021 4678.50 7312.29 82.39 21.00  43.80 3048.11
   19:42:23.000.27-Aug-2021 4678.50 7303.79 82.39 21.00  44.00 3048.11
   19:42:23.200.27-Aug-2021 4678.50 7303.79 82.39 21.00  44.20 3048.11
   19:42:23.400.27-Aug-2021 4678.50 7283.26 82.39 21.00  44.40 3048.11
   19:42:23.600.27-Aug-2021 4678.50 7276.86 82.39 21.00  44.60 3048.11
   19:42:23.800.27-Aug-2021 4678.50 7258.40 82.39 21.00  44.80 3048.11
   19:42:24.000.27-Aug-2021 4678.50 7247.56 82.39 21.00  45.00 3048.11
