~Version Information
 VERS.                  2.0:   CWLS log ASCII Standard -VERSION 2.0
 WRAP.                   NO:   One line per depth step
~Well Information Block
#MNEM.UNIT     VALUE/NAME     DESCRIPTION
#---------     -----------    ---------------------------
 STRT.S             02:31:31 28-Aug-21: START TIME 02:31:31 28-Aug-21
 STOP.S             02:38:23 28-Aug-21: STOP TIME  02:38:23 28-Aug-21
 STEP.S                   0.00: STEP TIME
 NULL.                 -999.25: NULL VALUE
 DFWT.                        :  DIST FWL TEXT
 DFST.                        :  DIST FSL TEXT
 DMF .             Drill Floor:  DRILL MEAS FROM
 STIM.      20.00.00 17-Aug-21:  START TIME
 DATE.      19.00.00 29-Aug-21:  END TIME
 SPUD.               15-Aug-21:  SPUD DATE
 NREF.                    Grid:  NORTH REFERENCE
 HPTY.       Minimum Curvature:  HOLE POS TYPE
 DMOD.             Drill Model:  DRILL MOD DESC
 SVYD.                  Survey:  SURVEY DESC
 ILTD.               Lithology:  INTERP LTH DESC
 FTOP.          Formation Tops:  FORM TOPS DESC
 RIG .              East Azeri:  RIG NAME
 PDAT.          Mean Sea Level:  PERMANENT DATUM
 FLD .                     ACG:  FIELD NAME
 SON .        AZ-XX-0907180857:  JOB NUMBER
 CTRY.              Azerbaijan:  COUNTRY NAME
 WELL.                    D23x:  WELL NAME
 SRVC.     Turan Drilling and Engineering:  CONTRACTOR
 COMP.     BP Exploration (Caspian Sea) Ltd.:  COMPANY
 UWI .            /AZE00000214:  UNIQUE WELL IDENTIFIER
 API .            /AZE00000214:  API NUMBER
 MDS .        Operator Entered:  MAG DATA SOURCE
 BASE.              Azerbaijan:  LOGGING EQUIPMENT BASE LOCATION
 REGN.                   EESSA:  REGION
 PROV.                    Baku:  PROVINCE
 STAT.                    Baku:  STATE NAME
 MWDS.                    Baku:  MWD SHOP
 DOE .                     N/A:  DOE NUMBER
 DCON.         Sperry Drilling:  DIRECTNL CONTR
 UNIT.                     N/A:  LOGGING EQUIPMENT ID
 WTYP.                Deviated:  WELL TYPE
 CNTY.                        :  COUNTY
 LOC .                        :  LOCATION
 LMF .             Drill Floor:  LOG MEASURED FROM
 TVDS.m                  43.60:  TVDSS CORRECTN
 LATI.deg                40.02:  LATITUDE
 LONG.deg                51.45:  LONGITUDE
 WHNS.m                  -7.04:  WELL HEAD N/S
 WHEW.m                  -0.67:  WELL HEAD E/W
 UTMX.m              538762.90:  UTM X
 UTMY.m             4431871.34:  UTM Y
 DFWL.m                   0.00:  DISTANCE FWL
 DFSL.m                   0.00:  DISTANCE FSL
 SDEP.m                4127.00:  START DEPTH
 TDD .m                5084.50:  TOTAL DEPTH (DRILLER)
 VSDR.deg               140.47:  VERT SEC DIRECT
 GVFD.g                   1.00:  GRAVITY FIELD
 MFLD.nT              50362.00:  MAGNETIC FIELD
 MDIP.deg                59.48:  MAGNETIC DIP
 MDEC.deg                 6.47:  MAGNETIC DECL
 GRDC.deg                 0.31:  GRID CORRECTION
 AZTC.deg                 6.16:  AZM TOTAL CORR
 EPD .m                   0.00:  ELEVATION
 EGL .m                   0.00:  GROUND ELEVATION
 WDMS.m                 151.80:  WD ELEV
 APD .m                  43.60:  DEPTH ABOVE PD
 DEP .m                4092.57:  DEPTH
 AGAP.m                  43.60:  AIR GAP
 VSEW.m                  -0.67:  VERT SEC E/W
 VSNS.m                  -7.04:  VERT SEC N/S
 EKB .m                  43.60:  KB ELEVATION
 EDF .m                  43.60:  DF ELEVATION
 TDL .m                 957.50:  TOTAL DEPTH (LOGGER)
 VSC .                       0:  VS TO CLOSURE
 MAGU.                 1851413:  MAGUTM CHECKSUM
~Parameter Information Block
#MNEM.UNIT       Value        Description
#---------     -----------    ---------------------------
 AV  .mps                 1.50:  Ann Velocity 
 AVMX.mps                 2.00:  Max Ann Veloc 
 AZIF.deg               184.66:  Azm, Final 
 BHAT.        Rotary Steerable:  BHA Type 
 BREV.rev               300.00:  Rev Bit Total 
 BROT.°/30m              -0.50:  Build Rotating 
 BS  .in                  8.50:  Bit Size 
 BSZ .in                  8.50:  Bit Size 
 BTPL.psig              370.00:  Bit Press Loss 
 CABU.                      No:  Customer Abuse 
 CGEO.      Behruz Shahbaliyev:  Customer Geo 
 COMM.                     Œjp:  Run Comments 1 
 TCS .hr                140.08:  Time Ciculation Ended 
 CV  .mps                 3.00:  Crit Velocity 
 CVMX.mps                 3.20:  Max Crit Veloc 
 DD1 .            Musa Ahmadov:  Direct Drillr 1 
 DD2 .           Hamid Ahmadov:  Direct Drillr 2 
 DDSV.               Geo-Pilot:  DD Service 
 DEFF.%                  98.40:  % Det Eff 
 DLRX.°/30m               3.40:  Dogleg Rot Max 
 DLSO.°/30m               1.45:  Dogleg Oriented 
 DLSX.°/30m               3.40:  Dogleg Str Max 
 DRET.      18.40.00 29-Aug-21:  Drill End Time 
 DRST.      21.00.00 20-Aug-21:  Drill Start Tim 
 DTIM.hr                 69.47:  Time Drilling 
 EDEP.m                5084.50:  End Depth 
 ENG1.      Artemiy Matviyanov:  Engineer 1 
 ENG2.         Almaz Almadatov:  Engineer 2 
 ETIM.      18.40.00 29-Aug-21:  End Time 
 FLOI.gpm               500.00:  Flow In 
 FLON.gpm               400.00:  Flow In Min 
 FLOS.cptm                0.00:  Fluid Loss 
 FLOX.gpm               500.00:  Flow In Max 
 DFT .        Mineral Oil Base:  Mud Type 
 HFLO.                      No:  High Flow 
 HPRE.                      No:  High Pressure 
 HTEM.                      No:  High Temp 
 HYDO.m                   1.80:  Hydro Offset 
 IFIN.deg                25.62:  Inc, Final 
 IMAX.deg                48.69:  Inc Max 
 IMIN.deg                24.01:  Inc Min 
 IMND.m                4962.57:  Inc Min Depth 
 IMXD.m                4119.01:  Inc Max Depth 
 JARR.                      No:  Jarring 
 LETM.      18.40.00 29-Aug-21:  Log End Time 
 LOST.hr                     0:  Lost Rig Time 
 LSTM.      21.00.00 20-Aug-21:  Log Start Time 
 MDCL.ppm             41500.00:  Mud Chlorides 
 MDES.     Inversion Oil/Synthetic:  Mud Desc 
 DFD .sg                  1.56:  Mud Density 
 MDMN.sg                  1.56:  Dens Mud Min 
 MDMX.sg                  1.56:  Dens Mud Max 
 MOIL.                      70:  Run Mud Oil % 
 MOWR.                   70:30:  Run Mud OWR 
 MSND.                     0.2:  Run Mud Sand % 
 MSOL.                    23.3:  Run Mud Solids% 
 DFV .spqt               78.00:  Mud Viscosity 
 MWOD.in                  6.75:  MWD Tool OD 
 MWSI.                      No:  Serv Intrp, MWD 
 OTIM.hr                218.30:  Time Operating 
 PCON.           Look Like New:  Pad Condition 
 PMAX.psia            11015.30:  Press Op, Max 
 PV  .cP                 38.00:  Mud PV 
 RUN .                     300:  Run Number 
 ROPA.m/hr               15.00:  ROP Avg 
 ROPN.m/hr                9.00:  ROP Min 
 ROPX.m/hr               17.00:  ROP Max 
 RPMA.rpm               120.00:  RPM Surface Avg 
 RPMN.rpm                90.00:  RPM Surface Min 
 RPMX.rpm               140.00:  RPM Surface Max 
 RRUN.                     300:  Rig Run Number 
 RTIM.hr                 31.53:  Time Reaming 
 SAZI.deg               331.64:  Azm, Start 
 SDEP.m                4127.00:  Start Depth 
 SIDD.                      No:  Serv Intrp, DD 
 SINC.deg                48.43:  Inc, Start 
 SPPA.psig             5830.00:  SPP Avg 
 SPPN.psig             5600.00:  SPP Min 
 SPPX.psig             5900.00:  SPP Max 
 STIM.      21.00.00 20-Aug-21:  Start Time 
 SVCS.                 DD, MWD:  Services 
 SVER.                    9.20:  Sperry Version 
 TDAT.m                 957.50:  Tot Depth Attmp 
 TDDF.                      No:  Trip for DD 
 TDLG.m                 957.50:  Tot Depth Loggd 
 TFF .                      No:  Trip for Fail 
 TQAA.f-kp               15.00:  Torque Abs Avg 
 TQAN.f-kp               12.00:  Torque Abs Min 
 TQAX.f-kp               19.00:  Torque Abs Max 
 TRRT.°/30m              -3.40:  Turn Rotating 
 MRT .                  EWR-M5:  Maximum Recorded Temperature 
 TTMX.degC              100.00:  Max Tool Temp 
 VS01.                90639251:  Virtual Str1 SN 
 VS02.                90634715:  Virtual Str2 SN 
 VS03.                90652479:  Virtual Str3 SN 
 VS04.                90642262:  Virtual Str4 SN 
 WBMN.klb                 0.00:  WOB Min 
 WITN.           Murad Guliyev:  Customer Rep 
 WITN.          Yashar Gaziyev:  Customer Rep 2 
 WOBA.klb                 9.00:  WOB Avg 
 WOBX.klb                12.00:  WOB Max 
 YP  .lhf2               30.00:  Yield Point 
~Curve Information Block
#MNEM.UNIT                 API CODE     Curve Description
#---------               -----------    ---------------------------
 TIME.HHMMSS            00 000 000 000:  GT Time & Date
 GTDEPTH.m              00 000 000 000:  GT Depth
 GTPQH.psia             00 000 000 000:  GT HR Quartz Pressure
 GTTQ.degC              00 000 000 000:  GT Quartz Temperature
 GTTN.NONE              00 000 000 000:  GT Test Number
 GTET.sec               00 000 000 000:  GT Elapsed Test Time
 GTTVD.m                00 000 000 000:  GT True Vertical Depth
#Other Information
#
#WARRANTY: Halliburton will use its best efforts to furnish customers with 
#accurate information and interpretations that are part of, and incident to, the services 
#provided.  However, Halliburton cannot and does not warrant the accuracy 
#or correctness of such information and interpretations.  Under no circumstances should any 
#such information or interpretation be relied upon as the sole basis for any drilling, 
#completion, production, or financial decision or any procedure involving any risk to the 
#safety of any drilling venture, drilling rig or its crew or any other third party.  The 
#Customer has full responsibility for all drilling, completion and production operation.  
#Halliburton makes no representations or warranties, either expressed or 
#implied, including, but not limited to, the implied warranties of merchantability or fitness 
#for a particular purpose, with respect to the services rendered.  In no event will 
#Halliburton be liable for failure to obtain any particular results or for 
#any damages, including, but not limited to, indirect, special or consequential damages, 
#resulting from the use of any information or interpretation provided by Halliburton.
#
~A           TIME           GTDEPTH  GTPQH  GTTQ  GTTN   GTET   GTTVD  
   02:31:31.988.28-Aug-2021 4891.00 7735.15 80.71 28.00   0.00 3240.41
   02:31:32.188.28-Aug-2021 4891.00 7735.15 80.71 28.00   0.20 3240.41
   02:31:32.388.28-Aug-2021 4891.00 7730.91 80.71 28.00   0.40 3240.41
   02:31:32.589.28-Aug-2021 4891.00 7734.70 80.71 28.00   0.60 3240.41
   02:31:32.789.28-Aug-2021 4891.00 7733.60 80.71 28.00   0.80 3240.41
   02:31:32.989.28-Aug-2021 4891.00 7733.17 80.71 28.00   1.00 3240.41
   02:31:33.189.28-Aug-2021 4891.00 7733.17 80.71 28.00   1.20 3240.41
   02:31:33.389.28-Aug-2021 4891.00 7733.30 80.71 28.00   1.40 3240.41
   02:31:33.589.28-Aug-2021 4891.00 7737.16 80.71 28.00   1.60 3240.41
   02:31:33.789.28-Aug-2021 4891.00 7732.50 80.71 28.00   1.80 3240.41
   02:31:33.989.28-Aug-2021 4891.00 7735.04 80.71 28.00   2.00 3240.41
   02:31:34.189.28-Aug-2021 4891.00 7735.04 80.71 28.00   2.20 3240.41
   02:31:34.389.28-Aug-2021 4891.00 7735.24 80.71 28.00   2.40 3240.41
   02:31:34.589.28-Aug-2021 4891.00 7735.13 80.71 28.00   2.60 3240.41
   02:31:34.789.28-Aug-2021 4891.00 7735.01 80.71 28.00   2.80 3240.41
   02:31:34.989.28-Aug-2021 4891.00 7738.64 80.71 28.00   3.00 3240.41
   02:31:35.189.28-Aug-2021 4891.00 7738.64 80.71 28.00   3.20 3240.41
   02:31:35.389.28-Aug-2021 4891.00 7736.13 80.71 28.00   3.40 3240.41
   02:31:35.589.28-Aug-2021 4891.00 7737.59 80.71 28.00   3.60 3240.41
   02:31:35.790.28-Aug-2021 4891.00 7736.36 80.71 28.00   3.80 3240.41
   02:31:35.990.28-Aug-2021 4891.00 7736.35 80.71 28.00   4.00 3240.41
   02:31:36.190.28-Aug-2021 4891.00 7736.35 80.71 28.00   4.20 3240.41
   02:31:36.390.28-Aug-2021 4891.00 7736.64 80.71 28.00   4.40 3240.41
   02:31:36.590.28-Aug-2021 4891.00 7741.96 80.71 28.00   4.60 3240.41
   02:31:36.790.28-Aug-2021 4891.00 7734.97 80.71 28.00   4.80 3240.41
   02:31:36.990.28-Aug-2021 4891.00 7738.95 80.71 28.00   5.00 3240.41
   02:31:37.190.28-Aug-2021 4891.00 7738.95 80.71 28.00   5.20 3240.41
   02:31:37.390.28-Aug-2021 4891.00 7738.61 80.71 28.00   5.40 3240.41
   02:31:37.590.28-Aug-2021 4891.00 7739.18 80.71 28.00   5.60 3240.41
   02:31:37.790.28-Aug-2021 4891.00 7739.09 80.71 28.00   5.80 3240.41
   02:31:37.990.28-Aug-2021 4891.00 7739.50 80.71 28.00   6.00 3240.41
   02:31:38.190.28-Aug-2021 4891.00 7739.50 80.71 28.00   6.20 3240.41
   02:31:38.390.28-Aug-2021 4891.00 7739.83 80.71 28.00   6.40 3240.41
   02:31:38.590.28-Aug-2021 4891.00 7740.67 80.71 28.00   6.60 3240.41
   02:31:38.790.28-Aug-2021 4891.00 7741.01 80.71 28.00   6.80 3240.41
   02:31:38.991.28-Aug-2021 4891.00 7741.22 80.71 28.00   7.00 3240.41
   02:31:39.191.28-Aug-2021 4891.00 7741.22 80.71 28.00   7.20 3240.41
   02:31:39.391.28-Aug-2021 4891.00 7741.71 80.71 28.00   7.40 3240.41
   02:31:39.591.28-Aug-2021 4891.00 7741.95 80.71 28.00   7.60 3240.41
   02:31:39.791.28-Aug-2021 4891.00 7742.30 80.71 28.00   7.80 3240.41
   02:31:39.991.28-Aug-2021 4891.00 7742.38 80.71 28.00   8.00 3240.41
   02:31:40.191.28-Aug-2021 4891.00 7742.38 80.71 28.00   8.20 3240.41
   02:31:40.391.28-Aug-2021 4891.00 7746.31 80.71 28.00   8.40 3240.41
   02:31:40.591.28-Aug-2021 4891.00 7743.76 80.71 28.00   8.60 3240.41
   02:31:40.791.28-Aug-2021 4891.00 7744.67 80.71 28.00   8.80 3240.41
   02:31:40.991.28-Aug-2021 4891.00 7743.81 80.71 28.00   9.00 3240.41
   02:31:41.191.28-Aug-2021 4891.00 7743.81 80.71 28.00   9.20 3240.41
   02:31:41.391.28-Aug-2021 4891.00 7743.15 80.71 28.00   9.40 3240.41
   02:31:41.591.28-Aug-2021 4891.00 7743.33 80.71 28.00   9.60 3240.41
   02:31:41.791.28-Aug-2021 4891.00 7742.93 80.71 28.00   9.80 3240.41
   02:31:41.991.28-Aug-2021 4891.00 7743.32 80.71 28.00  10.00 3240.41
   02:31:42.192.28-Aug-2021 4891.00 7743.32 80.71 28.00  10.20 3240.41
   02:31:42.392.28-Aug-2021 4891.00 7743.77 80.71 28.00  10.40 3240.41
   02:31:42.592.28-Aug-2021 4891.00 7744.15 80.71 28.00  10.60 3240.41
   02:31:42.792.28-Aug-2021 4891.00 7744.29 80.71 28.00  10.80 3240.41
   02:31:42.992.28-Aug-2021 4891.00 7744.45 80.71 28.00  11.00 3240.41
   02:31:43.192.28-Aug-2021 4891.00 7744.45 80.71 28.00  11.20 3240.41
   02:31:43.392.28-Aug-2021 4891.00 7744.78 80.71 28.00  11.40 3240.41
   02:31:43.592.28-Aug-2021 4891.00 7747.95 80.71 28.00  11.60 3240.41
   02:31:43.792.28-Aug-2021 4891.00 7745.70 80.71 28.00  11.80 3240.41
   02:31:43.992.28-Aug-2021 4891.00 7746.72 80.71 28.00  12.00 3240.41
   02:31:44.192.28-Aug-2021 4891.00 7746.72 80.71 28.00  12.20 3240.41
   02:31:44.392.28-Aug-2021 4891.00 7746.17 80.71 28.00  12.40 3240.41
   02:31:44.592.28-Aug-2021 4891.00 7746.30 80.70 28.00  12.60 3240.41
   02:31:44.792.28-Aug-2021 4891.00 7749.37 80.70 28.00  12.80 3240.41
   02:31:44.992.28-Aug-2021 4891.00 7746.74 80.70 28.00  13.00 3240.41
   02:31:45.192.28-Aug-2021 4891.00 7746.74 80.70 28.00  13.20 3240.41
   02:31:45.393.28-Aug-2021 4891.00 7748.19 80.70 28.00  13.40 3240.41
   02:31:45.593.28-Aug-2021 4891.00 7747.83 80.70 28.00  13.60 3240.41
   02:31:45.793.28-Aug-2021 4891.00 7750.27 80.70 28.00  13.80 3240.41
   02:31:45.993.28-Aug-2021 4891.00 7749.25 80.70 28.00  14.00 3240.41
   02:31:46.193.28-Aug-2021 4891.00 7749.25 80.70 28.00  14.20 3240.41
   02:31:46.393.28-Aug-2021 4891.00 7749.19 80.70 28.00  14.40 3240.41
   02:31:46.593.28-Aug-2021 4891.00 7749.41 80.70 28.00  14.60 3240.41
   02:31:46.793.28-Aug-2021 4891.00 7749.11 80.70 28.00  14.80 3240.41
   02:31:46.993.28-Aug-2021 4891.00 7753.49 80.70 28.00  15.00 3240.41
   02:31:47.193.28-Aug-2021 4891.00 7753.49 80.70 28.00  15.20 3240.41
   02:31:47.393.28-Aug-2021 4891.00 7750.56 80.70 28.00  15.40 3240.41
   02:31:47.593.28-Aug-2021 4891.00 7749.94 80.70 28.00  15.60 3240.41
   02:31:47.793.28-Aug-2021 4891.00 7752.93 80.70 28.00  15.80 3240.41
   02:31:47.993.28-Aug-2021 4891.00 7750.45 80.70 28.00  16.01 3240.41
   02:31:48.193.28-Aug-2021 4891.00 7750.45 80.70 28.00  16.21 3240.41
   02:31:48.393.28-Aug-2021 4891.00 7750.35 80.70 28.00  16.41 3240.41
   02:31:48.594.28-Aug-2021 4891.00 7750.53 80.70 28.00  16.61 3240.41
   02:31:48.794.28-Aug-2021 4891.00 7754.88 80.70 28.00  16.81 3240.41
   02:31:48.994.28-Aug-2021 4891.00 7749.27 80.70 28.00  17.01 3240.41
   02:31:49.194.28-Aug-2021 4891.00 7749.27 80.70 28.00  17.21 3240.41
   02:31:49.394.28-Aug-2021 4891.00 7751.60 80.70 28.00  17.41 3240.41
   02:31:49.594.28-Aug-2021 4891.00 7751.80 80.70 28.00  17.61 3240.41
   02:31:49.794.28-Aug-2021 4891.00 7751.75 80.70 28.00  17.81 3240.41
   02:31:49.994.28-Aug-2021 4891.00 7751.92 80.70 28.00  18.01 3240.41
   02:31:50.194.28-Aug-2021 4891.00 7751.92 80.70 28.00  18.21 3240.41
   02:31:50.394.28-Aug-2021 4891.00 7752.11 80.70 28.00  18.41 3240.41
   02:31:50.594.28-Aug-2021 4891.00 7752.42 80.70 28.00  18.61 3240.41
   02:31:50.794.28-Aug-2021 4891.00 7752.57 80.70 28.00  18.81 3240.41
   02:31:50.994.28-Aug-2021 4891.00 7752.83 80.70 28.00  19.01 3240.41
   02:31:51.194.28-Aug-2021 4891.00 7752.83 80.70 28.00  19.21 3240.41
   02:31:51.394.28-Aug-2021 4891.00 7752.97 80.70 28.00  19.41 3240.41
   02:31:51.594.28-Aug-2021 4891.00 7753.13 80.70 28.00  19.61 3240.41
   02:31:51.795.28-Aug-2021 4891.00 7753.16 80.70 28.00  19.81 3240.41
   02:31:51.995.28-Aug-2021 4891.00 7758.60 80.70 28.00  20.01 3240.41
   02:31:52.195.28-Aug-2021 4891.00 7758.60 80.70 28.00  20.21 3240.41
   02:31:52.395.28-Aug-2021 4891.00 7755.31 80.70 28.00  20.41 3240.41
   02:31:52.595.28-Aug-2021 4891.00 7754.35 80.70 28.00  20.61 3240.41
   02:31:52.795.28-Aug-2021 4891.00 7753.94 80.70 28.00  20.81 3240.41
   02:31:52.995.28-Aug-2021 4891.00 7753.43 80.70 28.00  21.01 3240.41
   02:31:53.195.28-Aug-2021 4891.00 7753.43 80.70 28.00  21.21 3240.41
   02:31:53.395.28-Aug-2021 4891.00 7754.79 80.70 28.00  21.41 3240.41
   02:31:53.595.28-Aug-2021 4891.00 7755.29 80.70 28.00  21.61 3240.41
   02:31:53.795.28-Aug-2021 4891.00 7755.53 80.70 28.00  21.81 3240.41
   02:31:53.995.28-Aug-2021 4891.00 7755.98 80.70 28.00  22.01 3240.41
   02:31:54.195.28-Aug-2021 4891.00 7755.98 80.70 28.00  22.21 3240.41
   02:31:54.395.28-Aug-2021 4891.00 7756.42 80.70 28.00  22.41 3240.41
