~Version Information
 VERS.                  2.0:   CWLS log ASCII Standard -VERSION 2.0
 WRAP.                   NO:   One line per depth step
~Well Information Block
#MNEM.UNIT     VALUE/NAME     DESCRIPTION
#---------     -----------    ---------------------------
 STRT.S             07:46:52 27-Aug-21: START TIME 07:46:52 27-Aug-21
 STOP.S             07:54:09 27-Aug-21: STOP TIME  07:54:09 27-Aug-21
 STEP.S                   0.00: STEP TIME
 NULL.                 -999.25: NULL VALUE
 DFWT.                        :  DIST FWL TEXT
 DFST.                        :  DIST FSL TEXT
 DMF .             Drill Floor:  DRILL MEAS FROM
 STIM.      20.00.00 17-Aug-21:  START TIME
 DATE.      19.00.00 29-Aug-21:  END TIME
 SPUD.               15-Aug-21:  SPUD DATE
 NREF.                    Grid:  NORTH REFERENCE
 HPTY.       Minimum Curvature:  HOLE POS TYPE
 DMOD.             Drill Model:  DRILL MOD DESC
 SVYD.                  Survey:  SURVEY DESC
 ILTD.               Lithology:  INTERP LTH DESC
 FTOP.          Formation Tops:  FORM TOPS DESC
 RIG .              East Azeri:  RIG NAME
 PDAT.          Mean Sea Level:  PERMANENT DATUM
 FLD .                     ACG:  FIELD NAME
 SON .        AZ-XX-0907180857:  JOB NUMBER
 CTRY.              Azerbaijan:  COUNTRY NAME
 WELL.                    D23x:  WELL NAME
 SRVC.     Turan Drilling and Engineering:  CONTRACTOR
 COMP.     BP Exploration (Caspian Sea) Ltd.:  COMPANY
 UWI .            /AZE00000214:  UNIQUE WELL IDENTIFIER
 API .            /AZE00000214:  API NUMBER
 MDS .        Operator Entered:  MAG DATA SOURCE
 BASE.              Azerbaijan:  LOGGING EQUIPMENT BASE LOCATION
 REGN.                   EESSA:  REGION
 PROV.                    Baku:  PROVINCE
 STAT.                    Baku:  STATE NAME
 MWDS.                    Baku:  MWD SHOP
 DOE .                     N/A:  DOE NUMBER
 DCON.         Sperry Drilling:  DIRECTNL CONTR
 UNIT.                     N/A:  LOGGING EQUIPMENT ID
 WTYP.                Deviated:  WELL TYPE
 CNTY.                        :  COUNTY
 LOC .                        :  LOCATION
 LMF .             Drill Floor:  LOG MEASURED FROM
 TVDS.m                  43.60:  TVDSS CORRECTN
 LATI.deg                40.02:  LATITUDE
 LONG.deg                51.45:  LONGITUDE
 WHNS.m                  -7.04:  WELL HEAD N/S
 WHEW.m                  -0.67:  WELL HEAD E/W
 UTMX.m              538762.90:  UTM X
 UTMY.m             4431871.34:  UTM Y
 DFWL.m                   0.00:  DISTANCE FWL
 DFSL.m                   0.00:  DISTANCE FSL
 SDEP.m                4127.00:  START DEPTH
 TDD .m                5084.50:  TOTAL DEPTH (DRILLER)
 VSDR.deg               140.47:  VERT SEC DIRECT
 GVFD.g                   1.00:  GRAVITY FIELD
 MFLD.nT              50362.00:  MAGNETIC FIELD
 MDIP.deg                59.48:  MAGNETIC DIP
 MDEC.deg                 6.47:  MAGNETIC DECL
 GRDC.deg                 0.31:  GRID CORRECTION
 AZTC.deg                 6.16:  AZM TOTAL CORR
 EPD .m                   0.00:  ELEVATION
 EGL .m                   0.00:  GROUND ELEVATION
 WDMS.m                 151.80:  WD ELEV
 APD .m                  43.60:  DEPTH ABOVE PD
 DEP .m                4092.57:  DEPTH
 AGAP.m                  43.60:  AIR GAP
 VSEW.m                  -0.67:  VERT SEC E/W
 VSNS.m                  -7.04:  VERT SEC N/S
 EKB .m                  43.60:  KB ELEVATION
 EDF .m                  43.60:  DF ELEVATION
 TDL .m                 957.50:  TOTAL DEPTH (LOGGER)
 VSC .                       0:  VS TO CLOSURE
 MAGU.                 1851413:  MAGUTM CHECKSUM
~Parameter Information Block
#MNEM.UNIT       Value        Description
#---------     -----------    ---------------------------
 AV  .mps                 1.50:  Ann Velocity 
 AVMX.mps                 2.00:  Max Ann Veloc 
 AZIF.deg               184.66:  Azm, Final 
 BHAT.        Rotary Steerable:  BHA Type 
 BREV.rev               300.00:  Rev Bit Total 
 BROT.°/30m              -0.50:  Build Rotating 
 BS  .in                  8.50:  Bit Size 
 BSZ .in                  8.50:  Bit Size 
 BTPL.psig              370.00:  Bit Press Loss 
 CABU.                      No:  Customer Abuse 
 CGEO.      Behruz Shahbaliyev:  Customer Geo 
 COMM.                     T\d:  Run Comments 1 
 TCS .hr                140.08:  Time Ciculation Ended 
 CV  .mps                 3.00:  Crit Velocity 
 CVMX.mps                 3.20:  Max Crit Veloc 
 DD1 .            Musa Ahmadov:  Direct Drillr 1 
 DD2 .           Hamid Ahmadov:  Direct Drillr 2 
 DDSV.               Geo-Pilot:  DD Service 
 DEFF.%                  98.40:  % Det Eff 
 DLRX.°/30m               3.40:  Dogleg Rot Max 
 DLSO.°/30m               1.45:  Dogleg Oriented 
 DLSX.°/30m               3.40:  Dogleg Str Max 
 DRET.      18.40.00 29-Aug-21:  Drill End Time 
 DRST.      21.00.00 20-Aug-21:  Drill Start Tim 
 DTIM.hr                 69.47:  Time Drilling 
 EDEP.m                5084.50:  End Depth 
 ENG1.      Artemiy Matviyanov:  Engineer 1 
 ENG2.         Almaz Almadatov:  Engineer 2 
 ETIM.      18.40.00 29-Aug-21:  End Time 
 FLOI.gpm               500.00:  Flow In 
 FLON.gpm               400.00:  Flow In Min 
 FLOS.cptm                0.00:  Fluid Loss 
 FLOX.gpm               500.00:  Flow In Max 
 DFT .        Mineral Oil Base:  Mud Type 
 HFLO.                      No:  High Flow 
 HPRE.                      No:  High Pressure 
 HTEM.                      No:  High Temp 
 HYDO.m                   1.80:  Hydro Offset 
 IFIN.deg                25.62:  Inc, Final 
 IMAX.deg                48.69:  Inc Max 
 IMIN.deg                24.01:  Inc Min 
 IMND.m                4962.57:  Inc Min Depth 
 IMXD.m                4119.01:  Inc Max Depth 
 JARR.                      No:  Jarring 
 LETM.      18.40.00 29-Aug-21:  Log End Time 
 LOST.hr                     0:  Lost Rig Time 
 LSTM.      21.00.00 20-Aug-21:  Log Start Time 
 MDCL.ppm             41500.00:  Mud Chlorides 
 MDES.     Inversion Oil/Synthetic:  Mud Desc 
 DFD .sg                  1.56:  Mud Density 
 MDMN.sg                  1.56:  Dens Mud Min 
 MDMX.sg                  1.56:  Dens Mud Max 
 MOIL.                      70:  Run Mud Oil % 
 MOWR.                   70:30:  Run Mud OWR 
 MSND.                     0.2:  Run Mud Sand % 
 MSOL.                    23.3:  Run Mud Solids% 
 DFV .spqt               78.00:  Mud Viscosity 
 MWOD.in                  6.75:  MWD Tool OD 
 MWSI.                      No:  Serv Intrp, MWD 
 OTIM.hr                218.30:  Time Operating 
 PCON.           Look Like New:  Pad Condition 
 PMAX.psia            11015.30:  Press Op, Max 
 PV  .cP                 38.00:  Mud PV 
 RUN .                     300:  Run Number 
 ROPA.m/hr               15.00:  ROP Avg 
 ROPN.m/hr                9.00:  ROP Min 
 ROPX.m/hr               17.00:  ROP Max 
 RPMA.rpm               120.00:  RPM Surface Avg 
 RPMN.rpm                90.00:  RPM Surface Min 
 RPMX.rpm               140.00:  RPM Surface Max 
 RRUN.                     300:  Rig Run Number 
 RTIM.hr                 31.53:  Time Reaming 
 SAZI.deg               331.64:  Azm, Start 
 SDEP.m                4127.00:  Start Depth 
 SIDD.                      No:  Serv Intrp, DD 
 SINC.deg                48.43:  Inc, Start 
 SPPA.psig             5830.00:  SPP Avg 
 SPPN.psig             5600.00:  SPP Min 
 SPPX.psig             5900.00:  SPP Max 
 STIM.      21.00.00 20-Aug-21:  Start Time 
 SVCS.                 DD, MWD:  Services 
 SVER.                    9.20:  Sperry Version 
 TDAT.m                 957.50:  Tot Depth Attmp 
 TDDF.                      No:  Trip for DD 
 TDLG.m                 957.50:  Tot Depth Loggd 
 TFF .                      No:  Trip for Fail 
 TQAA.f-kp               15.00:  Torque Abs Avg 
 TQAN.f-kp               12.00:  Torque Abs Min 
 TQAX.f-kp               19.00:  Torque Abs Max 
 TRRT.°/30m              -3.40:  Turn Rotating 
 MRT .                  EWR-M5:  Maximum Recorded Temperature 
 TTMX.degC              100.00:  Max Tool Temp 
 VS01.                90639251:  Virtual Str1 SN 
 VS02.                90634715:  Virtual Str2 SN 
 VS03.                90652479:  Virtual Str3 SN 
 VS04.                90642262:  Virtual Str4 SN 
 WBMN.klb                 0.00:  WOB Min 
 WITN.           Murad Guliyev:  Customer Rep 
 WITN.          Yashar Gaziyev:  Customer Rep 2 
 WOBA.klb                 9.00:  WOB Avg 
 WOBX.klb                12.00:  WOB Max 
 YP  .lhf2               30.00:  Yield Point 
~Curve Information Block
#MNEM.UNIT                 API CODE     Curve Description
#---------               -----------    ---------------------------
 TIME.HHMMSS            00 000 000 000:  GT Time & Date
 GTDEPTH.m              00 000 000 000:  GT Depth
 GTPQH.psia             00 000 000 000:  GT HR Quartz Pressure
 GTTQ.degC              00 000 000 000:  GT Quartz Temperature
 GTTN.NONE              00 000 000 000:  GT Test Number
 GTET.sec               00 000 000 000:  GT Elapsed Test Time
 GTTVD.m                00 000 000 000:  GT True Vertical Depth
#Other Information
#
#WARRANTY: Halliburton will use its best efforts to furnish customers with 
#accurate information and interpretations that are part of, and incident to, the services 
#provided.  However, Halliburton cannot and does not warrant the accuracy 
#or correctness of such information and interpretations.  Under no circumstances should any 
#such information or interpretation be relied upon as the sole basis for any drilling, 
#completion, production, or financial decision or any procedure involving any risk to the 
#safety of any drilling venture, drilling rig or its crew or any other third party.  The 
#Customer has full responsibility for all drilling, completion and production operation.  
#Halliburton makes no representations or warranties, either expressed or 
#implied, including, but not limited to, the implied warranties of merchantability or fitness 
#for a particular purpose, with respect to the services rendered.  In no event will 
#Halliburton be liable for failure to obtain any particular results or for 
#any damages, including, but not limited to, indirect, special or consequential damages, 
#resulting from the use of any information or interpretation provided by Halliburton.
#
~A           TIME           GTDEPTH  GTPQH  GTTQ  GTTN  GTET   GTTVD  
   07:46:52.530.27-Aug-2021 5003.00 7939.82 87.51 4.00   0.00 3342.33
   07:46:52.730.27-Aug-2021 5003.00 7939.82 87.51 4.00   0.20 3342.33
   07:46:52.930.27-Aug-2021 5003.00 7941.99 87.51 4.00   0.40 3342.33
   07:46:53.130.27-Aug-2021 5003.00 7942.28 87.51 4.00   0.60 3342.33
   07:46:53.331.27-Aug-2021 5003.00 7942.59 87.51 4.00   0.80 3342.33
   07:46:53.531.27-Aug-2021 5003.00 7943.38 87.51 4.00   1.00 3342.33
   07:46:53.731.27-Aug-2021 5003.00 7943.38 87.51 4.00   1.20 3342.33
   07:46:53.931.27-Aug-2021 5003.00 7945.01 87.51 4.00   1.40 3342.33
   07:46:54.131.27-Aug-2021 5003.00 7944.53 87.51 4.00   1.60 3342.33
   07:46:54.331.27-Aug-2021 5003.00 7943.79 87.51 4.00   1.80 3342.33
   07:46:54.531.27-Aug-2021 5003.00 7943.49 87.51 4.00   2.00 3342.33
   07:46:54.731.27-Aug-2021 5003.00 7943.49 87.51 4.00   2.20 3342.33
   07:46:54.931.27-Aug-2021 5003.00 7942.26 87.51 4.00   2.40 3342.33
   07:46:55.131.27-Aug-2021 5003.00 7942.09 87.51 4.00   2.60 3342.33
   07:46:55.331.27-Aug-2021 5003.00 7941.82 87.51 4.00   2.80 3342.33
   07:46:55.531.27-Aug-2021 5003.00 7943.90 87.51 4.00   3.00 3342.33
   07:46:55.731.27-Aug-2021 5003.00 7943.90 87.51 4.00   3.20 3342.33
   07:46:55.931.27-Aug-2021 5003.00 7942.46 87.51 4.00   3.40 3342.33
   07:46:56.131.27-Aug-2021 5003.00 7941.53 87.50 4.00   3.60 3342.33
   07:46:56.331.27-Aug-2021 5003.00 7942.50 87.50 4.00   3.80 3342.33
   07:46:56.531.27-Aug-2021 5003.00 7945.40 87.50 4.00   4.00 3342.33
   07:46:56.731.27-Aug-2021 5003.00 7945.40 87.50 4.00   4.20 3342.33
   07:46:56.931.27-Aug-2021 5003.00 7945.38 87.50 4.00   4.40 3342.33
   07:46:57.131.27-Aug-2021 5003.00 7944.29 87.50 4.00   4.60 3342.33
   07:46:57.331.27-Aug-2021 5003.00 7944.71 87.50 4.00   4.80 3342.33
   07:46:57.531.27-Aug-2021 5003.00 7950.88 87.50 4.00   5.00 3342.33
   07:46:57.731.27-Aug-2021 5003.00 7950.88 87.50 4.00   5.20 3342.33
   07:46:57.931.27-Aug-2021 5003.00 7944.63 87.50 4.00   5.40 3342.33
   07:46:58.131.27-Aug-2021 5003.00 7944.51 87.50 4.00   5.60 3342.33
   07:46:58.331.27-Aug-2021 5003.00 7947.57 87.50 4.00   5.80 3342.33
   07:46:58.531.27-Aug-2021 5003.00 7946.72 87.50 4.00   6.00 3342.33
   07:46:58.731.27-Aug-2021 5003.00 7946.72 87.50 4.00   6.20 3342.33
   07:46:58.931.27-Aug-2021 5003.00 7946.72 87.50 4.00   6.40 3342.33
   07:46:59.131.27-Aug-2021 5003.00 7946.00 87.50 4.00   6.60 3342.33
   07:46:59.331.27-Aug-2021 5003.00 7946.61 87.50 4.00   6.80 3342.33
   07:46:59.532.27-Aug-2021 5003.00 7947.29 87.50 4.00   7.00 3342.33
   07:46:59.732.27-Aug-2021 5003.00 7947.29 87.50 4.00   7.20 3342.33
   07:46:59.932.27-Aug-2021 5003.00 7950.98 87.50 4.00   7.40 3342.33
   07:47:00.132.27-Aug-2021 5003.00 7948.20 87.50 4.00   7.60 3342.33
   07:47:00.332.27-Aug-2021 5003.00 7949.39 87.50 4.00   7.80 3342.33
   07:47:00.532.27-Aug-2021 5003.00 7949.68 87.50 4.00   8.00 3342.33
   07:47:00.732.27-Aug-2021 5003.00 7949.68 87.50 4.00   8.20 3342.33
   07:47:00.932.27-Aug-2021 5003.00 7950.35 87.50 4.00   8.40 3342.33
   07:47:01.132.27-Aug-2021 5003.00 7948.60 87.50 4.00   8.60 3342.33
   07:47:01.332.27-Aug-2021 5003.00 7949.03 87.50 4.00   8.80 3342.33
   07:47:01.532.27-Aug-2021 5003.00 7949.57 87.50 4.00   9.00 3342.33
   07:47:01.732.27-Aug-2021 5003.00 7949.57 87.50 4.00   9.20 3342.33
   07:47:01.932.27-Aug-2021 5003.00 7951.64 87.50 4.00   9.40 3342.33
   07:47:02.132.27-Aug-2021 5003.00 7950.99 87.50 4.00   9.60 3342.33
   07:47:02.332.27-Aug-2021 5003.00 7951.16 87.50 4.00   9.80 3342.33
   07:47:02.532.27-Aug-2021 5003.00 7951.70 87.50 4.00  10.00 3342.33
   07:47:02.732.27-Aug-2021 5003.00 7951.70 87.50 4.00  10.20 3342.33
   07:47:02.932.27-Aug-2021 5003.00 7953.38 87.50 4.00  10.40 3342.33
   07:47:03.132.27-Aug-2021 5003.00 7952.81 87.50 4.00  10.60 3342.33
   07:47:03.332.27-Aug-2021 5003.00 7952.36 87.50 4.00  10.80 3342.33
   07:47:03.532.27-Aug-2021 5003.00 7952.24 87.50 4.00  11.00 3342.33
   07:47:03.732.27-Aug-2021 5003.00 7952.24 87.50 4.00  11.20 3342.33
   07:47:03.932.27-Aug-2021 5003.00 7952.34 87.50 4.00  11.40 3342.33
   07:47:04.132.27-Aug-2021 5003.00 7952.60 87.50 4.00  11.60 3342.33
   07:47:04.332.27-Aug-2021 5003.00 7958.11 87.50 4.00  11.80 3342.33
   07:47:04.532.27-Aug-2021 5003.00 7951.75 87.50 4.00  12.00 3342.33
   07:47:04.732.27-Aug-2021 5003.00 7951.75 87.50 4.00  12.20 3342.33
   07:47:04.932.27-Aug-2021 5003.00 7952.72 87.50 4.00  12.40 3342.33
   07:47:05.132.27-Aug-2021 5003.00 7953.50 87.50 4.00  12.60 3342.33
   07:47:05.332.27-Aug-2021 5003.00 7953.40 87.50 4.00  12.80 3342.33
   07:47:05.533.27-Aug-2021 5003.00 7953.81 87.50 4.00  13.00 3342.33
   07:47:05.733.27-Aug-2021 5003.00 7953.81 87.50 4.00  13.20 3342.33
   07:47:05.933.27-Aug-2021 5003.00 7953.77 87.50 4.00  13.40 3342.33
   07:47:06.133.27-Aug-2021 5003.00 7954.28 87.50 4.00  13.60 3342.33
   07:47:06.333.27-Aug-2021 5003.00 7955.44 87.50 4.00  13.80 3342.33
   07:47:06.533.27-Aug-2021 5003.00 7956.43 87.50 4.00  14.00 3342.33
   07:47:06.733.27-Aug-2021 5003.00 7956.43 87.50 4.00  14.20 3342.33
   07:47:06.933.27-Aug-2021 5003.00 7956.20 87.50 4.00  14.40 3342.33
   07:47:07.133.27-Aug-2021 5003.00 7956.26 87.50 4.00  14.60 3342.33
   07:47:07.333.27-Aug-2021 5003.00 7956.54 87.50 4.00  14.80 3342.33
   07:47:07.533.27-Aug-2021 5003.00 7962.37 87.50 4.00  15.00 3342.33
   07:47:07.733.27-Aug-2021 5003.00 7962.37 87.50 4.00  15.20 3342.33
   07:47:07.933.27-Aug-2021 5003.00 7956.14 87.50 4.00  15.40 3342.33
   07:47:08.133.27-Aug-2021 5003.00 7956.56 87.50 4.00  15.60 3342.33
   07:47:08.333.27-Aug-2021 5003.00 7956.94 87.50 4.00  15.80 3342.33
   07:47:08.533.27-Aug-2021 5003.00 7957.01 87.50 4.00  16.00 3342.33
   07:47:08.733.27-Aug-2021 5003.00 7957.01 87.50 4.00  16.20 3342.33
   07:47:08.933.27-Aug-2021 5003.00 7956.22 87.50 4.00  16.40 3342.33
   07:47:09.133.27-Aug-2021 5003.00 7956.88 87.50 4.00  16.60 3342.33
   07:47:09.333.27-Aug-2021 5003.00 7957.48 87.50 4.00  16.80 3342.33
   07:47:09.533.27-Aug-2021 5003.00 7959.01 87.50 4.00  17.00 3342.33
   07:47:09.733.27-Aug-2021 5003.00 7959.01 87.50 4.00  17.20 3342.33
   07:47:09.933.27-Aug-2021 5003.00 7965.12 87.50 4.00  17.40 3342.33
   07:47:10.133.27-Aug-2021 5003.00 7958.21 87.50 4.00  17.60 3342.33
   07:47:10.333.27-Aug-2021 5003.00 7958.27 87.50 4.00  17.80 3342.33
   07:47:10.533.27-Aug-2021 5003.00 7959.00 87.50 4.00  18.00 3342.33
   07:47:10.733.27-Aug-2021 5003.00 7959.00 87.50 4.00  18.20 3342.33
   07:47:10.933.27-Aug-2021 5003.00 7962.94 87.50 4.00  18.40 3342.33
   07:47:11.133.27-Aug-2021 5003.00 7961.86 87.50 4.00  18.60 3342.33
   07:47:11.333.27-Aug-2021 5003.00 7959.81 87.50 4.00  18.80 3342.33
   07:47:11.534.27-Aug-2021 5003.00 7958.39 87.50 4.00  19.00 3342.33
   07:47:11.734.27-Aug-2021 5003.00 7958.39 87.50 4.00  19.20 3342.33
   07:47:11.934.27-Aug-2021 5003.00 7960.38 87.49 4.00  19.40 3342.33
   07:47:12.134.27-Aug-2021 5003.00 7961.49 87.49 4.00  19.60 3342.33
   07:47:12.334.27-Aug-2021 5003.00 7960.58 87.49 4.00  19.80 3342.33
   07:47:12.534.27-Aug-2021 5003.00 7960.25 87.49 4.00  20.00 3342.33
   07:47:12.734.27-Aug-2021 5003.00 7960.25 87.49 4.00  20.20 3342.33
   07:47:12.934.27-Aug-2021 5003.00 7963.23 87.49 4.00  20.40 3342.33
   07:47:13.134.27-Aug-2021 5003.00 7962.81 87.49 4.00  20.60 3342.33
   07:47:13.334.27-Aug-2021 5003.00 7961.78 87.49 4.00  20.80 3342.33
   07:47:13.534.27-Aug-2021 5003.00 7961.68 87.49 4.00  21.00 3342.33
   07:47:13.734.27-Aug-2021 5003.00 7961.68 87.49 4.00  21.20 3342.33
   07:47:13.934.27-Aug-2021 5003.00 7963.28 87.49 4.00  21.40 3342.33
   07:47:14.134.27-Aug-2021 5003.00 7962.56 87.49 4.00  21.60 3342.33
   07:47:14.334.27-Aug-2021 5003.00 7962.30 87.49 4.00  21.80 3342.33
   07:47:14.534.27-Aug-2021 5003.00 7962.60 87.49 4.00  22.00 3342.33
   07:47:14.734.27-Aug-2021 5003.00 7962.60 87.49 4.00  22.20 3342.33
   07:47:14.934.27-Aug-2021 5003.00 7964.19 87.49 4.00  22.40 3342.33
   07:47:15.134.27-Aug-2021 5003.00 7964.33 87.49 4.00  22.60 3342.33
   07:47:15.334.27-Aug-2021 5003.00 7963.76 87.49 4.00  22.80 3342.33
