~Version Information
 VERS.                  2.0:   CWLS log ASCII Standard -VERSION 2.0
 WRAP.                   NO:   One line per depth step
~Well Information Block
#MNEM.UNIT     VALUE/NAME     DESCRIPTION
#---------     -----------    ---------------------------
 STRT.S             14:18:21 27-Aug-21: START TIME 14:18:21 27-Aug-21
 STOP.S             14:25:11 27-Aug-21: STOP TIME  14:25:11 27-Aug-21
 STEP.S                   0.00: STEP TIME
 NULL.                 -999.25: NULL VALUE
 DFWT.                        :  DIST FWL TEXT
 DFST.                        :  DIST FSL TEXT
 DMF .             Drill Floor:  DRILL MEAS FROM
 STIM.      20.00.00 17-Aug-21:  START TIME
 DATE.      19.00.00 29-Aug-21:  END TIME
 SPUD.               15-Aug-21:  SPUD DATE
 NREF.                    Grid:  NORTH REFERENCE
 HPTY.       Minimum Curvature:  HOLE POS TYPE
 DMOD.             Drill Model:  DRILL MOD DESC
 SVYD.                  Survey:  SURVEY DESC
 ILTD.               Lithology:  INTERP LTH DESC
 FTOP.          Formation Tops:  FORM TOPS DESC
 RIG .              East Azeri:  RIG NAME
 PDAT.          Mean Sea Level:  PERMANENT DATUM
 FLD .                     ACG:  FIELD NAME
 SON .        AZ-XX-0907180857:  JOB NUMBER
 CTRY.              Azerbaijan:  COUNTRY NAME
 WELL.                    D23x:  WELL NAME
 SRVC.     Turan Drilling and Engineering:  CONTRACTOR
 COMP.     BP Exploration (Caspian Sea) Ltd.:  COMPANY
 UWI .            /AZE00000214:  UNIQUE WELL IDENTIFIER
 API .            /AZE00000214:  API NUMBER
 MDS .        Operator Entered:  MAG DATA SOURCE
 BASE.              Azerbaijan:  LOGGING EQUIPMENT BASE LOCATION
 REGN.                   EESSA:  REGION
 PROV.                    Baku:  PROVINCE
 STAT.                    Baku:  STATE NAME
 MWDS.                    Baku:  MWD SHOP
 DOE .                     N/A:  DOE NUMBER
 DCON.         Sperry Drilling:  DIRECTNL CONTR
 UNIT.                     N/A:  LOGGING EQUIPMENT ID
 WTYP.                Deviated:  WELL TYPE
 CNTY.                        :  COUNTY
 LOC .                        :  LOCATION
 LMF .             Drill Floor:  LOG MEASURED FROM
 TVDS.m                  43.60:  TVDSS CORRECTN
 LATI.deg                40.02:  LATITUDE
 LONG.deg                51.45:  LONGITUDE
 WHNS.m                  -7.04:  WELL HEAD N/S
 WHEW.m                  -0.67:  WELL HEAD E/W
 UTMX.m              538762.90:  UTM X
 UTMY.m             4431871.34:  UTM Y
 DFWL.m                   0.00:  DISTANCE FWL
 DFSL.m                   0.00:  DISTANCE FSL
 SDEP.m                4127.00:  START DEPTH
 TDD .m                5084.50:  TOTAL DEPTH (DRILLER)
 VSDR.deg               140.47:  VERT SEC DIRECT
 GVFD.g                   1.00:  GRAVITY FIELD
 MFLD.nT              50362.00:  MAGNETIC FIELD
 MDIP.deg                59.48:  MAGNETIC DIP
 MDEC.deg                 6.47:  MAGNETIC DECL
 GRDC.deg                 0.31:  GRID CORRECTION
 AZTC.deg                 6.16:  AZM TOTAL CORR
 EPD .m                   0.00:  ELEVATION
 EGL .m                   0.00:  GROUND ELEVATION
 WDMS.m                 151.80:  WD ELEV
 APD .m                  43.60:  DEPTH ABOVE PD
 DEP .m                4092.57:  DEPTH
 AGAP.m                  43.60:  AIR GAP
 VSEW.m                  -0.67:  VERT SEC E/W
 VSNS.m                  -7.04:  VERT SEC N/S
 EKB .m                  43.60:  KB ELEVATION
 EDF .m                  43.60:  DF ELEVATION
 TDL .m                 957.50:  TOTAL DEPTH (LOGGER)
 VSC .                       0:  VS TO CLOSURE
 MAGU.                 1851413:  MAGUTM CHECKSUM
~Parameter Information Block
#MNEM.UNIT       Value        Description
#---------     -----------    ---------------------------
 AV  .mps                 1.50:  Ann Velocity 
 AVMX.mps                 2.00:  Max Ann Veloc 
 AZIF.deg               184.66:  Azm, Final 
 BHAT.        Rotary Steerable:  BHA Type 
 BREV.rev               300.00:  Rev Bit Total 
 BROT.°/30m              -0.50:  Build Rotating 
 BS  .in                  8.50:  Bit Size 
 BSZ .in                  8.50:  Bit Size 
 BTPL.psig              370.00:  Bit Press Loss 
 CABU.                      No:  Customer Abuse 
 CGEO.      Behruz Shahbaliyev:  Customer Geo 
 COMM.                     LAp:  Run Comments 1 
 TCS .hr                140.08:  Time Ciculation Ended 
 CV  .mps                 3.00:  Crit Velocity 
 CVMX.mps                 3.20:  Max Crit Veloc 
 DD1 .            Musa Ahmadov:  Direct Drillr 1 
 DD2 .           Hamid Ahmadov:  Direct Drillr 2 
 DDSV.               Geo-Pilot:  DD Service 
 DEFF.%                  98.40:  % Det Eff 
 DLRX.°/30m               3.40:  Dogleg Rot Max 
 DLSO.°/30m               1.45:  Dogleg Oriented 
 DLSX.°/30m               3.40:  Dogleg Str Max 
 DRET.      18.40.00 29-Aug-21:  Drill End Time 
 DRST.      21.00.00 20-Aug-21:  Drill Start Tim 
 DTIM.hr                 69.47:  Time Drilling 
 EDEP.m                5084.50:  End Depth 
 ENG1.      Artemiy Matviyanov:  Engineer 1 
 ENG2.         Almaz Almadatov:  Engineer 2 
 ETIM.      18.40.00 29-Aug-21:  End Time 
 FLOI.gpm               500.00:  Flow In 
 FLON.gpm               400.00:  Flow In Min 
 FLOS.cptm                0.00:  Fluid Loss 
 FLOX.gpm               500.00:  Flow In Max 
 DFT .        Mineral Oil Base:  Mud Type 
 HFLO.                      No:  High Flow 
 HPRE.                      No:  High Pressure 
 HTEM.                      No:  High Temp 
 HYDO.m                   1.80:  Hydro Offset 
 IFIN.deg                25.62:  Inc, Final 
 IMAX.deg                48.69:  Inc Max 
 IMIN.deg                24.01:  Inc Min 
 IMND.m                4962.57:  Inc Min Depth 
 IMXD.m                4119.01:  Inc Max Depth 
 JARR.                      No:  Jarring 
 LETM.      18.40.00 29-Aug-21:  Log End Time 
 LOST.hr                     0:  Lost Rig Time 
 LSTM.      21.00.00 20-Aug-21:  Log Start Time 
 MDCL.ppm             41500.00:  Mud Chlorides 
 MDES.     Inversion Oil/Synthetic:  Mud Desc 
 DFD .sg                  1.56:  Mud Density 
 MDMN.sg                  1.56:  Dens Mud Min 
 MDMX.sg                  1.56:  Dens Mud Max 
 MOIL.                      70:  Run Mud Oil % 
 MOWR.                   70:30:  Run Mud OWR 
 MSND.                     0.2:  Run Mud Sand % 
 MSOL.                    23.3:  Run Mud Solids% 
 DFV .spqt               78.00:  Mud Viscosity 
 MWOD.in                  6.75:  MWD Tool OD 
 MWSI.                      No:  Serv Intrp, MWD 
 OTIM.hr                218.30:  Time Operating 
 PCON.           Look Like New:  Pad Condition 
 PMAX.psia            11015.30:  Press Op, Max 
 PV  .cP                 38.00:  Mud PV 
 RUN .                     300:  Run Number 
 ROPA.m/hr               15.00:  ROP Avg 
 ROPN.m/hr                9.00:  ROP Min 
 ROPX.m/hr               17.00:  ROP Max 
 RPMA.rpm               120.00:  RPM Surface Avg 
 RPMN.rpm                90.00:  RPM Surface Min 
 RPMX.rpm               140.00:  RPM Surface Max 
 RRUN.                     300:  Rig Run Number 
 RTIM.hr                 31.53:  Time Reaming 
 SAZI.deg               331.64:  Azm, Start 
 SDEP.m                4127.00:  Start Depth 
 SIDD.                      No:  Serv Intrp, DD 
 SINC.deg                48.43:  Inc, Start 
 SPPA.psig             5830.00:  SPP Avg 
 SPPN.psig             5600.00:  SPP Min 
 SPPX.psig             5900.00:  SPP Max 
 STIM.      21.00.00 20-Aug-21:  Start Time 
 SVCS.                 DD, MWD:  Services 
 SVER.                    9.20:  Sperry Version 
 TDAT.m                 957.50:  Tot Depth Attmp 
 TDDF.                      No:  Trip for DD 
 TDLG.m                 957.50:  Tot Depth Loggd 
 TFF .                      No:  Trip for Fail 
 TQAA.f-kp               15.00:  Torque Abs Avg 
 TQAN.f-kp               12.00:  Torque Abs Min 
 TQAX.f-kp               19.00:  Torque Abs Max 
 TRRT.°/30m              -3.40:  Turn Rotating 
 MRT .                  EWR-M5:  Maximum Recorded Temperature 
 TTMX.degC              100.00:  Max Tool Temp 
 VS01.                90639251:  Virtual Str1 SN 
 VS02.                90634715:  Virtual Str2 SN 
 VS03.                90652479:  Virtual Str3 SN 
 VS04.                90642262:  Virtual Str4 SN 
 WBMN.klb                 0.00:  WOB Min 
 WITN.           Murad Guliyev:  Customer Rep 
 WITN.          Yashar Gaziyev:  Customer Rep 2 
 WOBA.klb                 9.00:  WOB Avg 
 WOBX.klb                12.00:  WOB Max 
 YP  .lhf2               30.00:  Yield Point 
~Curve Information Block
#MNEM.UNIT                 API CODE     Curve Description
#---------               -----------    ---------------------------
 TIME.HHMMSS            00 000 000 000:  GT Time & Date
 GTDEPTH.m              00 000 000 000:  GT Depth
 GTPQH.psia             00 000 000 000:  GT HR Quartz Pressure
 GTTQ.degC              00 000 000 000:  GT Quartz Temperature
 GTTN.NONE              00 000 000 000:  GT Test Number
 GTET.sec               00 000 000 000:  GT Elapsed Test Time
 GTTVD.m                00 000 000 000:  GT True Vertical Depth
#Other Information
#
#WARRANTY: Halliburton will use its best efforts to furnish customers with 
#accurate information and interpretations that are part of, and incident to, the services 
#provided.  However, Halliburton cannot and does not warrant the accuracy 
#or correctness of such information and interpretations.  Under no circumstances should any 
#such information or interpretation be relied upon as the sole basis for any drilling, 
#completion, production, or financial decision or any procedure involving any risk to the 
#safety of any drilling venture, drilling rig or its crew or any other third party.  The 
#Customer has full responsibility for all drilling, completion and production operation.  
#Halliburton makes no representations or warranties, either expressed or 
#implied, including, but not limited to, the implied warranties of merchantability or fitness 
#for a particular purpose, with respect to the services rendered.  In no event will 
#Halliburton be liable for failure to obtain any particular results or for 
#any damages, including, but not limited to, indirect, special or consequential damages, 
#resulting from the use of any information or interpretation provided by Halliburton.
#
~A           TIME           GTDEPTH  GTPQH  GTTQ  GTTN   GTET   GTTVD  
# ...
   14:19:28.800.27-Aug-2021 4859.50 1703.74 84.28 15.00  67.80 3211.87
   14:19:29.000.27-Aug-2021 4859.50 1713.83 84.28 15.00  68.00 3211.87
   14:19:29.200.27-Aug-2021 4859.50 1713.83 84.28 15.00  68.20 3211.87
   14:19:29.400.27-Aug-2021 4859.50 1733.04 84.28 15.00  68.40 3211.87
   14:19:29.600.27-Aug-2021 4859.50 1742.52 84.28 15.00  68.60 3211.87
   14:19:29.800.27-Aug-2021 4859.50 1751.98 84.28 15.00  68.80 3211.87
   14:19:30.000.27-Aug-2021 4859.50 1761.35 84.28 15.00  69.00 3211.87
   14:19:30.200.27-Aug-2021 4859.50 1761.35 84.28 15.00  69.20 3211.87
   14:19:30.400.27-Aug-2021 4859.50 1779.91 84.28 15.00  69.40 3211.87
   14:19:30.600.27-Aug-2021 4859.50 1789.05 84.28 15.00  69.60 3211.87
   14:19:30.800.27-Aug-2021 4859.50 1798.20 84.28 15.00  69.80 3211.87
   14:19:31.000.27-Aug-2021 4859.50 1807.23 84.28 15.00  70.00 3211.87
   14:19:31.200.27-Aug-2021 4859.50 1807.23 84.28 15.00  70.20 3211.87
   14:19:31.400.27-Aug-2021 4859.50 1825.13 84.28 15.00  70.40 3211.87
   14:19:31.600.27-Aug-2021 4859.50 1832.86 84.28 15.00  70.60 3211.87
   14:19:31.800.27-Aug-2021 4859.50 1841.23 84.28 15.00  70.80 3211.87
   14:19:32.000.27-Aug-2021 4859.50 1850.32 84.28 15.00  71.00 3211.87
   14:19:32.200.27-Aug-2021 4859.50 1850.32 84.28 15.00  71.20 3211.87
   14:19:32.400.27-Aug-2021 4859.50 1867.70 84.28 15.00  71.40 3211.87
   14:19:32.600.27-Aug-2021 4859.50 1876.31 84.28 15.00  71.60 3211.87
   14:19:32.800.27-Aug-2021 4859.50 1884.25 84.29 15.00  71.80 3211.87
   14:19:33.000.27-Aug-2021 4859.50 1891.80 84.29 15.00  72.00 3211.87
   14:19:33.200.27-Aug-2021 4859.50 1891.80 84.29 15.00  72.20 3211.87
   14:19:33.400.27-Aug-2021 4859.50 1908.82 84.29 15.00  72.40 3211.87
   14:19:33.600.27-Aug-2021 4859.50 1917.29 84.29 15.00  72.60 3211.87
   14:19:33.800.27-Aug-2021 4859.50 1925.62 84.29 15.00  72.80 3211.87
   14:19:34.000.27-Aug-2021 4859.50 1933.97 84.29 15.00  73.00 3211.87
   14:19:34.200.27-Aug-2021 4859.50 1933.97 84.29 15.00  73.20 3211.87
   14:19:34.400.27-Aug-2021 4859.50 1948.80 84.29 15.00  73.40 3211.87
   14:19:34.600.27-Aug-2021 4859.50 1957.02 84.29 15.00  73.60 3211.87
   14:19:34.800.27-Aug-2021 4859.50 1965.18 84.29 15.00  73.80 3211.87
   14:19:35.000.27-Aug-2021 4859.50 1973.15 84.29 15.00  74.00 3211.87
   14:19:35.200.27-Aug-2021 4859.50 1973.15 84.29 15.00  74.20 3211.87
   14:19:35.400.27-Aug-2021 4859.50 1989.45 84.29 15.00  74.40 3211.87
   14:19:35.600.27-Aug-2021 4859.50 1996.71 84.29 15.00  74.60 3211.87
   14:19:35.800.27-Aug-2021 4859.50 2003.87 84.29 15.00  74.80 3211.87
   14:19:36.000.27-Aug-2021 4859.50 2011.71 84.29 15.00  75.00 3211.87
   14:19:36.200.27-Aug-2021 4859.50 2011.71 84.29 15.00  75.20 3211.87
   14:19:36.400.27-Aug-2021 4859.50 2019.89 84.29 15.00  75.40 3211.87
   14:19:36.600.27-Aug-2021 4859.50 2035.60 84.30 15.00  75.60 3211.87
   14:19:36.800.27-Aug-2021 4859.50 2043.40 84.30 15.00  75.80 3211.87
   14:19:37.000.27-Aug-2021 4859.50 2050.85 84.30 15.00  76.00 3211.87
   14:19:37.200.27-Aug-2021 4859.50 2050.85 84.30 15.00  76.20 3211.87
   14:19:37.400.27-Aug-2021 4859.50 2065.08 84.30 15.00  76.40 3211.87
   14:19:37.600.27-Aug-2021 4859.50 2072.75 84.30 15.00  76.60 3211.87
   14:19:37.800.27-Aug-2021 4859.50 2080.20 84.30 15.00  76.80 3211.87
   14:19:38.000.27-Aug-2021 4859.50 2088.17 84.30 15.00  77.00 3211.87
   14:19:38.200.27-Aug-2021 4859.50 2088.17 84.30 15.00  77.20 3211.87
   14:19:38.400.27-Aug-2021 4859.50 2103.29 84.30 15.00  77.40 3211.87
   14:19:38.600.27-Aug-2021 4859.50 2110.26 84.30 15.00  77.60 3211.87
   14:19:38.800.27-Aug-2021 4859.50 2116.59 84.30 15.00  77.80 3211.87
   14:19:39.000.27-Aug-2021 4859.50 2124.03 84.30 15.00  78.00 3211.87
   14:19:39.200.27-Aug-2021 4859.50 2124.03 84.30 15.00  78.20 3211.87
   14:19:39.400.27-Aug-2021 4859.50 2138.94 84.30 15.00  78.40 3211.87
   14:19:39.600.27-Aug-2021 4859.50 2146.31 84.30 15.00  78.60 3211.87
   14:19:39.800.27-Aug-2021 4859.50 2153.68 84.30 15.00  78.80 3211.87
   14:19:40.000.27-Aug-2021 4859.50 2161.00 84.31 15.00  79.00 3211.87
   14:19:40.200.27-Aug-2021 4859.50 2161.00 84.31 15.00  79.20 3211.87
   14:19:40.400.27-Aug-2021 4859.50 2167.02 84.31 15.00  79.40 3211.87
   14:19:40.600.27-Aug-2021 4859.50 2181.02 84.31 15.00  79.60 3211.87
   14:19:40.800.27-Aug-2021 4859.50 2188.28 84.31 15.00  79.80 3211.87
   14:19:41.000.27-Aug-2021 4859.50 2194.99 84.31 15.00  80.00 3211.87
   14:19:41.200.27-Aug-2021 4859.50 2194.99 84.31 15.00  80.20 3211.87
   14:19:41.400.27-Aug-2021 4859.50 2209.56 84.31 15.00  80.40 3211.87
   14:19:41.600.27-Aug-2021 4859.50 2216.59 84.31 15.00  80.60 3211.87
   14:19:41.800.27-Aug-2021 4859.50 2222.22 84.31 15.00  80.80 3211.87
   14:19:42.000.27-Aug-2021 4859.50 2228.95 84.31 15.00  81.00 3211.87
   14:19:42.200.27-Aug-2021 4859.50 2228.95 84.31 15.00  81.20 3211.87
   14:19:42.400.27-Aug-2021 4859.50 2242.96 84.31 15.00  81.40 3211.87
   14:19:42.600.27-Aug-2021 4859.50 2249.98 84.31 15.00  81.60 3211.87
   14:19:42.800.27-Aug-2021 4859.50 2256.92 84.31 15.00  81.80 3211.87
   14:19:43.000.27-Aug-2021 4859.50 2263.82 84.31 15.00  82.00 3211.87
   14:19:43.200.27-Aug-2021 4859.50 2263.82 84.31 15.00  82.20 3211.87
   14:19:43.400.27-Aug-2021 4859.50 2276.15 84.32 15.00  82.40 3211.87
   14:19:43.600.27-Aug-2021 4859.50 2282.72 84.32 15.00  82.60 3211.87
   14:19:43.800.27-Aug-2021 4859.50 2289.48 84.32 15.00  82.80 3211.87
   14:19:44.000.27-Aug-2021 4859.50 2296.33 84.32 15.00  83.00 3211.87
   14:19:44.200.27-Aug-2021 4859.50 2296.33 84.32 15.00  83.20 3211.87
   14:19:44.400.27-Aug-2021 4859.50 2309.77 84.32 15.00  83.40 3211.87
   14:19:44.600.27-Aug-2021 4859.50 2316.40 84.32 15.00  83.60 3211.87
   14:19:44.800.27-Aug-2021 4859.50 2323.07 84.32 15.00  83.80 3211.87
   14:19:45.000.27-Aug-2021 4859.50 2328.84 84.32 15.00  84.00 3211.87
   14:19:45.200.27-Aug-2021 4859.50 2328.84 84.32 15.00  84.20 3211.87
   14:19:45.400.27-Aug-2021 4859.50 2340.99 84.32 15.00  84.40 3211.87
   14:19:45.600.27-Aug-2021 4859.50 2347.89 84.32 15.00  84.60 3211.87
   14:19:45.800.27-Aug-2021 4859.50 2354.55 84.32 15.00  84.80 3211.87
   14:19:46.000.27-Aug-2021 4859.50 2361.08 84.32 15.00  85.00 3211.87
   14:19:46.200.27-Aug-2021 4859.50 2361.08 84.32 15.00  85.20 3211.87
   14:19:46.400.27-Aug-2021 4859.50 2373.81 84.32 15.00  85.40 3211.87
   14:19:46.600.27-Aug-2021 4859.50 2380.62 84.32 15.00  85.60 3211.87
   14:19:46.800.27-Aug-2021 4859.50 2385.50 84.32 15.00  85.80 3211.87
   14:19:47.000.27-Aug-2021 4859.50 2391.87 84.32 15.00  86.00 3211.87
   14:19:47.200.27-Aug-2021 4859.50 2391.87 84.32 15.00  86.20 3211.87
   14:19:47.400.27-Aug-2021 4859.50 2404.80 84.33 15.00  86.40 3211.87
   14:19:47.600.27-Aug-2021 4859.50 2411.22 84.33 15.00  86.60 3211.87
   14:19:47.800.27-Aug-2021 4859.50 2417.31 84.33 15.00  86.80 3211.87
   14:19:48.000.27-Aug-2021 4859.50 2423.92 84.33 15.00  87.00 3211.87
   14:19:48.200.27-Aug-2021 4859.50 2423.92 84.33 15.00  87.20 3211.87
   14:19:48.400.27-Aug-2021 4859.50 2435.53 84.33 15.00  87.40 3211.87
   14:19:48.600.27-Aug-2021 4859.50 2441.12 84.33 15.00  87.60 3211.87
   14:19:48.800.27-Aug-2021 4859.50 2447.44 84.33 15.00  87.80 3211.87
   14:19:49.000.27-Aug-2021 4859.50 2453.72 84.33 15.00  88.00 3211.87
   14:19:49.200.27-Aug-2021 4859.50 2453.72 84.33 15.00  88.20 3211.87
   14:19:49.400.27-Aug-2021 4859.50 2466.21 84.33 15.00  88.40 3211.87
   14:19:49.600.27-Aug-2021 4859.50 2472.42 84.33 15.00  88.60 3211.87
   14:19:49.800.27-Aug-2021 4859.50 2478.58 84.33 15.00  88.80 3211.87
   14:19:50.000.27-Aug-2021 4859.50 2484.72 84.33 15.00  89.00 3211.87
   14:19:50.200.27-Aug-2021 4859.50 2484.72 84.33 15.00  89.20 3211.87
   14:19:50.400.27-Aug-2021 4859.50 2495.34 84.33 15.00  89.40 3211.87
   14:19:50.600.27-Aug-2021 4859.50 2501.41 84.33 15.00  89.60 3211.87
   14:19:50.800.27-Aug-2021 4859.50 2507.54 84.33 15.00  89.80 3211.87
   14:19:51.000.27-Aug-2021 4859.50 2513.25 84.33 15.00  90.00 3211.87
   14:19:51.200.27-Aug-2021 4859.50 2513.25 84.33 15.00  90.20 3211.87
