~Version Information
 VERS.                  2.0:   CWLS log ASCII Standard -VERSION 2.0
 WRAP.                   NO:   One line per depth step
~Well Information Block
#MNEM.UNIT     VALUE/NAME     DESCRIPTION
#---------     -----------    ---------------------------
 STRT.S             22:11:58 27-Aug-21: START TIME 22:11:58 27-Aug-21
 STOP.S             22:18:52 27-Aug-21: STOP TIME  22:18:52 27-Aug-21
 STEP.S                   0.00: STEP TIME
 NULL.                 -999.25: NULL VALUE
 DFWT.                        :  DIST FWL TEXT
 DFST.                        :  DIST FSL TEXT
 DMF .             Drill Floor:  DRILL MEAS FROM
 STIM.      20.00.00 17-Aug-21:  START TIME
 DATE.      19.00.00 29-Aug-21:  END TIME
 SPUD.               15-Aug-21:  SPUD DATE
 NREF.                    Grid:  NORTH REFERENCE
 HPTY.       Minimum Curvature:  HOLE POS TYPE
 DMOD.             Drill Model:  DRILL MOD DESC
 SVYD.                  Survey:  SURVEY DESC
 ILTD.               Lithology:  INTERP LTH DESC
 FTOP.          Formation Tops:  FORM TOPS DESC
 RIG .              East Azeri:  RIG NAME
 PDAT.          Mean Sea Level:  PERMANENT DATUM
 FLD .                     ACG:  FIELD NAME
 SON .        AZ-XX-0907180857:  JOB NUMBER
 CTRY.              Azerbaijan:  COUNTRY NAME
 WELL.                    D23x:  WELL NAME
 SRVC.     Turan Drilling and Engineering:  CONTRACTOR
 COMP.     BP Exploration (Caspian Sea) Ltd.:  COMPANY
 UWI .            /AZE00000214:  UNIQUE WELL IDENTIFIER
 API .            /AZE00000214:  API NUMBER
 MDS .        Operator Entered:  MAG DATA SOURCE
 BASE.              Azerbaijan:  LOGGING EQUIPMENT BASE LOCATION
 REGN.                   EESSA:  REGION
 PROV.                    Baku:  PROVINCE
 STAT.                    Baku:  STATE NAME
 MWDS.                    Baku:  MWD SHOP
 DOE .                     N/A:  DOE NUMBER
 DCON.         Sperry Drilling:  DIRECTNL CONTR
 UNIT.                     N/A:  LOGGING EQUIPMENT ID
 WTYP.                Deviated:  WELL TYPE
 CNTY.                        :  COUNTY
 LOC .                        :  LOCATION
 LMF .             Drill Floor:  LOG MEASURED FROM
 TVDS.m                  43.60:  TVDSS CORRECTN
 LATI.deg                40.02:  LATITUDE
 LONG.deg                51.45:  LONGITUDE
 WHNS.m                  -7.04:  WELL HEAD N/S
 WHEW.m                  -0.67:  WELL HEAD E/W
 UTMX.m              538762.90:  UTM X
 UTMY.m             4431871.34:  UTM Y
 DFWL.m                   0.00:  DISTANCE FWL
 DFSL.m                   0.00:  DISTANCE FSL
 SDEP.m                4127.00:  START DEPTH
 TDD .m                5084.50:  TOTAL DEPTH (DRILLER)
 VSDR.deg               140.47:  VERT SEC DIRECT
 GVFD.g                   1.00:  GRAVITY FIELD
 MFLD.nT              50362.00:  MAGNETIC FIELD
 MDIP.deg                59.48:  MAGNETIC DIP
 MDEC.deg                 6.47:  MAGNETIC DECL
 GRDC.deg                 0.31:  GRID CORRECTION
 AZTC.deg                 6.16:  AZM TOTAL CORR
 EPD .m                   0.00:  ELEVATION
 EGL .m                   0.00:  GROUND ELEVATION
 WDMS.m                 151.80:  WD ELEV
 APD .m                  43.60:  DEPTH ABOVE PD
 DEP .m                4092.57:  DEPTH
 AGAP.m                  43.60:  AIR GAP
 VSEW.m                  -0.67:  VERT SEC E/W
 VSNS.m                  -7.04:  VERT SEC N/S
 EKB .m                  43.60:  KB ELEVATION
 EDF .m                  43.60:  DF ELEVATION
 TDL .m                 957.50:  TOTAL DEPTH (LOGGER)
 VSC .                       0:  VS TO CLOSURE
 MAGU.                 1851413:  MAGUTM CHECKSUM
~Parameter Information Block
#MNEM.UNIT       Value        Description
#---------     -----------    ---------------------------
 AV  .mps                 1.50:  Ann Velocity 
 AVMX.mps                 2.00:  Max Ann Veloc 
 AZIF.deg               184.66:  Azm, Final 
 BHAT.        Rotary Steerable:  BHA Type 
 BREV.rev               300.00:  Rev Bit Total 
 BROT.°/30m              -0.50:  Build Rotating 
 BS  .in                  8.50:  Bit Size 
 BSZ .in                  8.50:  Bit Size 
 BTPL.psig              370.00:  Bit Press Loss 
 CABU.                      No:  Customer Abuse 
 CGEO.      Behruz Shahbaliyev:  Customer Geo 
 COMM.                     Tªl:  Run Comments 1 
 TCS .hr                140.08:  Time Ciculation Ended 
 CV  .mps                 3.00:  Crit Velocity 
 CVMX.mps                 3.20:  Max Crit Veloc 
 DD1 .            Musa Ahmadov:  Direct Drillr 1 
 DD2 .           Hamid Ahmadov:  Direct Drillr 2 
 DDSV.               Geo-Pilot:  DD Service 
 DEFF.%                  98.40:  % Det Eff 
 DLRX.°/30m               3.40:  Dogleg Rot Max 
 DLSO.°/30m               1.45:  Dogleg Oriented 
 DLSX.°/30m               3.40:  Dogleg Str Max 
 DRET.      18.40.00 29-Aug-21:  Drill End Time 
 DRST.      21.00.00 20-Aug-21:  Drill Start Tim 
 DTIM.hr                 69.47:  Time Drilling 
 EDEP.m                5084.50:  End Depth 
 ENG1.      Artemiy Matviyanov:  Engineer 1 
 ENG2.         Almaz Almadatov:  Engineer 2 
 ETIM.      18.40.00 29-Aug-21:  End Time 
 FLOI.gpm               500.00:  Flow In 
 FLON.gpm               400.00:  Flow In Min 
 FLOS.cptm                0.00:  Fluid Loss 
 FLOX.gpm               500.00:  Flow In Max 
 DFT .        Mineral Oil Base:  Mud Type 
 HFLO.                      No:  High Flow 
 HPRE.                      No:  High Pressure 
 HTEM.                      No:  High Temp 
 HYDO.m                   1.80:  Hydro Offset 
 IFIN.deg                25.62:  Inc, Final 
 IMAX.deg                48.69:  Inc Max 
 IMIN.deg                24.01:  Inc Min 
 IMND.m                4962.57:  Inc Min Depth 
 IMXD.m                4119.01:  Inc Max Depth 
 JARR.                      No:  Jarring 
 LETM.      18.40.00 29-Aug-21:  Log End Time 
 LOST.hr                     0:  Lost Rig Time 
 LSTM.      21.00.00 20-Aug-21:  Log Start Time 
 MDCL.ppm             41500.00:  Mud Chlorides 
 MDES.     Inversion Oil/Synthetic:  Mud Desc 
 DFD .sg                  1.56:  Mud Density 
 MDMN.sg                  1.56:  Dens Mud Min 
 MDMX.sg                  1.56:  Dens Mud Max 
 MOIL.                      70:  Run Mud Oil % 
 MOWR.                   70:30:  Run Mud OWR 
 MSND.                     0.2:  Run Mud Sand % 
 MSOL.                    23.3:  Run Mud Solids% 
 DFV .spqt               78.00:  Mud Viscosity 
 MWOD.in                  6.75:  MWD Tool OD 
 MWSI.                      No:  Serv Intrp, MWD 
 OTIM.hr                218.30:  Time Operating 
 PCON.           Look Like New:  Pad Condition 
 PMAX.psia            11015.30:  Press Op, Max 
 PV  .cP                 38.00:  Mud PV 
 RUN .                     300:  Run Number 
 ROPA.m/hr               15.00:  ROP Avg 
 ROPN.m/hr                9.00:  ROP Min 
 ROPX.m/hr               17.00:  ROP Max 
 RPMA.rpm               120.00:  RPM Surface Avg 
 RPMN.rpm                90.00:  RPM Surface Min 
 RPMX.rpm               140.00:  RPM Surface Max 
 RRUN.                     300:  Rig Run Number 
 RTIM.hr                 31.53:  Time Reaming 
 SAZI.deg               331.64:  Azm, Start 
 SDEP.m                4127.00:  Start Depth 
 SIDD.                      No:  Serv Intrp, DD 
 SINC.deg                48.43:  Inc, Start 
 SPPA.psig             5830.00:  SPP Avg 
 SPPN.psig             5600.00:  SPP Min 
 SPPX.psig             5900.00:  SPP Max 
 STIM.      21.00.00 20-Aug-21:  Start Time 
 SVCS.                 DD, MWD:  Services 
 SVER.                    9.20:  Sperry Version 
 TDAT.m                 957.50:  Tot Depth Attmp 
 TDDF.                      No:  Trip for DD 
 TDLG.m                 957.50:  Tot Depth Loggd 
 TFF .                      No:  Trip for Fail 
 TQAA.f-kp               15.00:  Torque Abs Avg 
 TQAN.f-kp               12.00:  Torque Abs Min 
 TQAX.f-kp               19.00:  Torque Abs Max 
 TRRT.°/30m              -3.40:  Turn Rotating 
 MRT .                  EWR-M5:  Maximum Recorded Temperature 
 TTMX.degC              100.00:  Max Tool Temp 
 VS01.                90639251:  Virtual Str1 SN 
 VS02.                90634715:  Virtual Str2 SN 
 VS03.                90652479:  Virtual Str3 SN 
 VS04.                90642262:  Virtual Str4 SN 
 WBMN.klb                 0.00:  WOB Min 
 WITN.           Murad Guliyev:  Customer Rep 
 WITN.          Yashar Gaziyev:  Customer Rep 2 
 WOBA.klb                 9.00:  WOB Avg 
 WOBX.klb                12.00:  WOB Max 
 YP  .lhf2               30.00:  Yield Point 
~Curve Information Block
#MNEM.UNIT                 API CODE     Curve Description
#---------               -----------    ---------------------------
 TIME.HHMMSS            00 000 000 000:  GT Time & Date
 GTDEPTH.m              00 000 000 000:  GT Depth
 GTPQH.psia             00 000 000 000:  GT HR Quartz Pressure
 GTTQ.degC              00 000 000 000:  GT Quartz Temperature
 GTTN.NONE              00 000 000 000:  GT Test Number
 GTET.sec               00 000 000 000:  GT Elapsed Test Time
 GTTVD.m                00 000 000 000:  GT True Vertical Depth
#Other Information
#
#WARRANTY: Halliburton will use its best efforts to furnish customers with 
#accurate information and interpretations that are part of, and incident to, the services 
#provided.  However, Halliburton cannot and does not warrant the accuracy 
#or correctness of such information and interpretations.  Under no circumstances should any 
#such information or interpretation be relied upon as the sole basis for any drilling, 
#completion, production, or financial decision or any procedure involving any risk to the 
#safety of any drilling venture, drilling rig or its crew or any other third party.  The 
#Customer has full responsibility for all drilling, completion and production operation.  
#Halliburton makes no representations or warranties, either expressed or 
#implied, including, but not limited to, the implied warranties of merchantability or fitness 
#for a particular purpose, with respect to the services rendered.  In no event will 
#Halliburton be liable for failure to obtain any particular results or for 
#any damages, including, but not limited to, indirect, special or consequential damages, 
#resulting from the use of any information or interpretation provided by Halliburton.
#
~A           TIME           GTDEPTH  GTPQH  GTTQ  GTTN   GTET   GTTVD  
# ...
   22:17:37.580.27-Aug-2021 4635.80 3929.97 82.38 24.00 339.03 3009.39
   22:17:37.780.27-Aug-2021 4635.80 3929.97 82.38 24.00 339.23 3009.39
   22:17:37.980.27-Aug-2021 4635.80 3937.33 82.38 24.00 339.43 3009.39
   22:17:38.180.27-Aug-2021 4635.80 3941.10 82.38 24.00 339.63 3009.39
   22:17:38.381.27-Aug-2021 4635.80 3944.94 82.38 24.00 339.83 3009.39
   22:17:38.581.27-Aug-2021 4635.80 3948.80 82.38 24.00 340.03 3009.39
   22:17:38.781.27-Aug-2021 4635.80 3948.80 82.38 24.00 340.23 3009.39
   22:17:38.981.27-Aug-2021 4635.80 3956.33 82.38 24.00 340.43 3009.39
   22:17:39.181.27-Aug-2021 4635.80 3959.89 82.38 24.00 340.63 3009.39
   22:17:39.381.27-Aug-2021 4635.80 3963.57 82.38 24.00 340.83 3009.39
   22:17:39.581.27-Aug-2021 4635.80 3966.92 82.38 24.00 341.03 3009.39
   22:17:39.781.27-Aug-2021 4635.80 3966.92 82.38 24.00 341.23 3009.39
   22:17:39.981.27-Aug-2021 4635.80 3972.95 82.38 24.00 341.43 3009.39
   22:17:40.181.27-Aug-2021 4635.80 3976.49 82.38 24.00 341.63 3009.39
   22:17:40.381.27-Aug-2021 4635.80 3980.10 82.38 24.00 341.83 3009.39
   22:17:40.581.27-Aug-2021 4635.80 3983.49 82.38 24.00 342.03 3009.39
   22:17:40.781.27-Aug-2021 4635.80 3983.49 82.38 24.00 342.23 3009.39
   22:17:40.981.27-Aug-2021 4635.80 3990.49 82.38 24.00 342.44 3009.39
   22:17:41.181.27-Aug-2021 4635.80 3994.04 82.38 24.00 342.64 3009.39
   22:17:41.381.27-Aug-2021 4635.80 3997.57 82.38 24.00 342.84 3009.39
   22:17:41.581.27-Aug-2021 4635.80 4001.08 82.38 24.00 343.04 3009.39
   22:17:41.781.27-Aug-2021 4635.80 4001.08 82.38 24.00 343.24 3009.39
   22:17:41.981.27-Aug-2021 4635.80 4007.73 82.38 24.00 343.44 3009.39
   22:17:42.181.27-Aug-2021 4635.80 4011.07 82.38 24.00 343.64 3009.39
   22:17:42.381.27-Aug-2021 4635.80 4014.47 82.38 24.00 343.84 3009.39
   22:17:42.581.27-Aug-2021 4635.80 4017.78 82.38 24.00 344.04 3009.39
   22:17:42.781.27-Aug-2021 4635.80 4017.78 82.38 24.00 344.24 3009.39
   22:17:42.981.27-Aug-2021 4635.80 4023.11 82.38 24.00 344.44 3009.39
   22:17:43.181.27-Aug-2021 4635.80 4026.46 82.38 24.00 344.64 3009.39
   22:17:43.381.27-Aug-2021 4635.80 4029.56 82.38 24.00 344.84 3009.39
   22:17:43.581.27-Aug-2021 4635.80 4032.69 82.38 24.00 345.04 3009.39
   22:17:43.781.27-Aug-2021 4635.80 4032.69 82.38 24.00 345.24 3009.39
   22:17:43.981.27-Aug-2021 4635.80 4037.92 82.38 24.00 345.44 3009.39
   22:17:44.181.27-Aug-2021 4635.80 4040.87 82.38 24.00 345.64 3009.39
   22:17:44.381.27-Aug-2021 4635.80 4044.09 82.38 24.00 345.84 3009.39
   22:17:44.581.27-Aug-2021 4635.80 4046.30 82.38 24.00 346.04 3009.39
   22:17:44.781.27-Aug-2021 4635.80 4046.30 82.38 24.00 346.24 3009.39
   22:17:44.981.27-Aug-2021 4635.80 4052.68 82.38 24.00 346.44 3009.39
   22:17:45.181.27-Aug-2021 4635.80 4055.86 82.38 24.00 346.64 3009.39
   22:17:45.381.27-Aug-2021 4635.80 4058.81 82.38 24.00 346.84 3009.39
   22:17:45.581.27-Aug-2021 4635.80 4062.01 82.38 24.00 347.04 3009.39
   22:17:45.781.27-Aug-2021 4635.80 4062.01 82.38 24.00 347.24 3009.39
   22:17:45.981.27-Aug-2021 4635.80 4067.08 82.38 24.00 347.44 3009.39
   22:17:46.181.27-Aug-2021 4635.80 4070.47 82.38 24.00 347.64 3009.39
   22:17:46.381.27-Aug-2021 4635.80 4073.05 82.38 24.00 347.84 3009.39
   22:17:46.581.27-Aug-2021 4635.80 4076.04 82.38 24.00 348.04 3009.39
   22:17:46.781.27-Aug-2021 4635.80 4076.04 82.38 24.00 348.24 3009.39
   22:17:46.981.27-Aug-2021 4635.80 4081.95 82.38 24.00 348.44 3009.39
   22:17:47.181.27-Aug-2021 4635.80 4084.84 82.38 24.00 348.64 3009.39
   22:17:47.381.27-Aug-2021 4635.80 4087.89 82.38 24.00 348.84 3009.39
   22:17:47.581.27-Aug-2021 4635.80 4090.94 82.38 24.00 349.04 3009.39
   22:17:47.781.27-Aug-2021 4635.80 4090.94 82.38 24.00 349.24 3009.39
   22:17:47.981.27-Aug-2021 4635.80 4096.96 82.38 24.00 349.44 3009.39
   22:17:48.182.27-Aug-2021 4635.80 4099.83 82.38 24.00 349.64 3009.39
   22:17:48.382.27-Aug-2021 4635.80 4102.65 82.38 24.00 349.84 3009.39
   22:17:48.582.27-Aug-2021 4635.80 4105.46 82.38 24.00 350.04 3009.39
   22:17:48.782.27-Aug-2021 4635.80 4105.46 82.38 24.00 350.24 3009.39
   22:17:48.982.27-Aug-2021 4635.80 4110.87 82.38 24.00 350.44 3009.39
   22:17:49.182.27-Aug-2021 4635.80 4112.90 82.38 24.00 350.64 3009.39
   22:17:49.382.27-Aug-2021 4635.80 4115.71 82.38 24.00 350.84 3009.39
   22:17:49.582.27-Aug-2021 4635.80 4118.10 82.38 24.00 351.04 3009.39
   22:17:49.782.27-Aug-2021 4635.80 4118.10 82.38 24.00 351.24 3009.39
   22:17:49.982.27-Aug-2021 4635.80 4123.73 82.38 24.00 351.44 3009.39
   22:17:50.182.27-Aug-2021 4635.80 4126.63 82.38 24.00 351.64 3009.39
   22:17:50.382.27-Aug-2021 4635.80 4129.24 82.38 24.00 351.84 3009.39
   22:17:50.582.27-Aug-2021 4635.80 4131.82 82.38 24.00 352.04 3009.39
   22:17:50.782.27-Aug-2021 4635.80 4131.82 82.38 24.00 352.24 3009.39
   22:17:50.982.27-Aug-2021 4635.80 4137.03 82.38 24.00 352.44 3009.39
   22:17:51.182.27-Aug-2021 4635.80 4139.72 82.38 24.00 352.64 3009.39
   22:17:51.382.27-Aug-2021 4635.80 4142.43 82.38 24.00 352.84 3009.39
   22:17:51.582.27-Aug-2021 4635.80 4145.18 82.38 24.00 353.04 3009.39
   22:17:51.782.27-Aug-2021 4635.80 4145.18 82.38 24.00 353.24 3009.39
   22:17:51.982.27-Aug-2021 4635.80 4150.54 82.38 24.00 353.44 3009.39
   22:17:52.182.27-Aug-2021 4635.80 4153.20 82.38 24.00 353.64 3009.39
   22:17:52.382.27-Aug-2021 4635.80 4155.53 82.38 24.00 353.84 3009.39
   22:17:52.582.27-Aug-2021 4635.80 4156.89 82.38 24.00 354.04 3009.39
   22:17:52.782.27-Aug-2021 4635.80 4156.89 82.38 24.00 354.24 3009.39
   22:17:52.982.27-Aug-2021 4635.80 4161.81 82.38 24.00 354.44 3009.39
   22:17:53.182.27-Aug-2021 4635.80 4164.42 82.38 24.00 354.64 3009.39
   22:17:53.382.27-Aug-2021 4635.80 4166.96 82.38 24.00 354.84 3009.39
   22:17:53.582.27-Aug-2021 4635.80 4169.48 82.38 24.00 355.04 3009.39
   22:17:53.782.27-Aug-2021 4635.80 4169.48 82.38 24.00 355.24 3009.39
   22:17:53.982.27-Aug-2021 4635.80 4173.29 82.38 24.00 355.44 3009.39
   22:17:54.182.27-Aug-2021 4635.80 4175.25 82.38 24.00 355.64 3009.39
   22:17:54.382.27-Aug-2021 4635.80 4177.67 82.38 24.00 355.84 3009.39
   22:17:54.582.27-Aug-2021 4635.80 4180.04 82.38 24.00 356.04 3009.39
   22:17:54.782.27-Aug-2021 4635.80 4180.04 82.38 24.00 356.24 3009.39
   22:17:54.982.27-Aug-2021 4635.80 4184.03 82.38 24.00 356.44 3009.39
   22:17:55.182.27-Aug-2021 4635.80 4186.19 82.38 24.00 356.64 3009.39
   22:17:55.382.27-Aug-2021 4635.80 4188.63 82.38 24.00 356.84 3009.39
   22:17:55.582.27-Aug-2021 4635.80 4191.02 82.38 24.00 357.04 3009.39
   22:17:55.782.27-Aug-2021 4635.80 4191.02 82.38 24.00 357.24 3009.39
   22:17:55.982.27-Aug-2021 4635.80 4194.83 82.38 24.00 357.44 3009.39
   22:17:56.182.27-Aug-2021 4635.80 4197.21 82.38 24.00 357.64 3009.39
   22:17:56.382.27-Aug-2021 4635.80 4199.24 82.38 24.00 357.84 3009.39
   22:17:56.582.27-Aug-2021 4635.80 4201.50 82.38 24.00 358.04 3009.39
   22:17:56.782.27-Aug-2021 4635.80 4201.50 82.38 24.00 358.24 3009.39
   22:17:56.982.27-Aug-2021 4635.80 4205.46 82.38 24.00 358.44 3009.39
   22:17:57.182.27-Aug-2021 4635.80 4207.44 82.38 24.00 358.64 3009.39
   22:17:57.382.27-Aug-2021 4635.80 4209.63 82.38 24.00 358.84 3009.39
   22:17:57.582.27-Aug-2021 4635.80 4211.95 82.38 24.00 359.04 3009.39
   22:17:57.782.27-Aug-2021 4635.80 4211.95 82.38 24.00 359.24 3009.39
   22:17:57.983.27-Aug-2021 4635.80 4216.56 82.38 24.00 359.44 3009.39
   22:17:58.183.27-Aug-2021 4635.80 4218.88 82.38 24.00 359.64 3009.39
   22:17:58.383.27-Aug-2021 4635.80 4221.10 82.38 24.00 359.84 3009.39
   22:17:58.583.27-Aug-2021 4635.80 4223.37 82.38 24.00 360.04 3009.39
   22:17:58.783.27-Aug-2021 4635.80 4223.37 82.38 24.00 360.24 3009.39
   22:17:58.983.27-Aug-2021 4635.80 4226.96 82.38 24.00 360.44 3009.39
   22:17:59.183.27-Aug-2021 4635.80 4229.01 82.38 24.00 360.64 3009.39
   22:17:59.383.27-Aug-2021 4635.80 4230.65 82.38 24.00 360.84 3009.39
   22:17:59.583.27-Aug-2021 4635.80 4232.62 82.38 24.00 361.04 3009.39
   22:17:59.783.27-Aug-2021 4635.80 4232.62 82.38 24.00 361.24 3009.39
   22:17:59.983.27-Aug-2021 4635.80 4236.92 82.38 24.00 361.44 3009.39
