~Version Information
 VERS.                  2.0:   CWLS log ASCII Standard -VERSION 2.0
 WRAP.                   NO:   One line per depth step
~Well Information Block
#MNEM.UNIT     VALUE/NAME     DESCRIPTION
#---------     -----------    ---------------------------
 STRT.S             10:43:45 27-Aug-21: START TIME 10:43:45 27-Aug-21
 STOP.S             10:50:54 27-Aug-21: STOP TIME  10:50:54 27-Aug-21
 STEP.S                   0.00: STEP TIME
 NULL.                 -999.25: NULL VALUE
 DFWT.                        :  DIST FWL TEXT
 DFST.                        :  DIST FSL TEXT
 DMF .             Drill Floor:  DRILL MEAS FROM
 STIM.      20.00.00 17-Aug-21:  START TIME
 DATE.      19.00.00 29-Aug-21:  END TIME
 SPUD.               15-Aug-21:  SPUD DATE
 NREF.                    Grid:  NORTH REFERENCE
 HPTY.       Minimum Curvature:  HOLE POS TYPE
 DMOD.             Drill Model:  DRILL MOD DESC
 SVYD.                  Survey:  SURVEY DESC
 ILTD.               Lithology:  INTERP LTH DESC
 FTOP.          Formation Tops:  FORM TOPS DESC
 RIG .              East Azeri:  RIG NAME
 PDAT.          Mean Sea Level:  PERMANENT DATUM
 FLD .                     ACG:  FIELD NAME
 SON .        AZ-XX-0907180857:  JOB NUMBER
 CTRY.              Azerbaijan:  COUNTRY NAME
 WELL.                    D23x:  WELL NAME
 SRVC.     Turan Drilling and Engineering:  CONTRACTOR
 COMP.     BP Exploration (Caspian Sea) Ltd.:  COMPANY
 UWI .            /AZE00000214:  UNIQUE WELL IDENTIFIER
 API .            /AZE00000214:  API NUMBER
 MDS .        Operator Entered:  MAG DATA SOURCE
 BASE.              Azerbaijan:  LOGGING EQUIPMENT BASE LOCATION
 REGN.                   EESSA:  REGION
 PROV.                    Baku:  PROVINCE
 STAT.                    Baku:  STATE NAME
 MWDS.                    Baku:  MWD SHOP
 DOE .                     N/A:  DOE NUMBER
 DCON.         Sperry Drilling:  DIRECTNL CONTR
 UNIT.                     N/A:  LOGGING EQUIPMENT ID
 WTYP.                Deviated:  WELL TYPE
 CNTY.                        :  COUNTY
 LOC .                        :  LOCATION
 LMF .             Drill Floor:  LOG MEASURED FROM
 TVDS.m                  43.60:  TVDSS CORRECTN
 LATI.deg                40.02:  LATITUDE
 LONG.deg                51.45:  LONGITUDE
 WHNS.m                  -7.04:  WELL HEAD N/S
 WHEW.m                  -0.67:  WELL HEAD E/W
 UTMX.m              538762.90:  UTM X
 UTMY.m             4431871.34:  UTM Y
 DFWL.m                   0.00:  DISTANCE FWL
 DFSL.m                   0.00:  DISTANCE FSL
 SDEP.m                4127.00:  START DEPTH
 TDD .m                5084.50:  TOTAL DEPTH (DRILLER)
 VSDR.deg               140.47:  VERT SEC DIRECT
 GVFD.g                   1.00:  GRAVITY FIELD
 MFLD.nT              50362.00:  MAGNETIC FIELD
 MDIP.deg                59.48:  MAGNETIC DIP
 MDEC.deg                 6.47:  MAGNETIC DECL
 GRDC.deg                 0.31:  GRID CORRECTION
 AZTC.deg                 6.16:  AZM TOTAL CORR
 EPD .m                   0.00:  ELEVATION
 EGL .m                   0.00:  GROUND ELEVATION
 WDMS.m                 151.80:  WD ELEV
 APD .m                  43.60:  DEPTH ABOVE PD
 DEP .m                4092.57:  DEPTH
 AGAP.m                  43.60:  AIR GAP
 VSEW.m                  -0.67:  VERT SEC E/W
 VSNS.m                  -7.04:  VERT SEC N/S
 EKB .m                  43.60:  KB ELEVATION
 EDF .m                  43.60:  DF ELEVATION
 TDL .m                 957.50:  TOTAL DEPTH (LOGGER)
 VSC .                       0:  VS TO CLOSURE
 MAGU.                 1851413:  MAGUTM CHECKSUM
~Parameter Information Block
#MNEM.UNIT       Value        Description
#---------     -----------    ---------------------------
 AV  .mps                 1.50:  Ann Velocity 
 AVMX.mps                 2.00:  Max Ann Veloc 
 AZIF.deg               184.66:  Azm, Final 
 BHAT.        Rotary Steerable:  BHA Type 
 BREV.rev               300.00:  Rev Bit Total 
 BROT.°/30m              -0.50:  Build Rotating 
 BS  .in                  8.50:  Bit Size 
 BSZ .in                  8.50:  Bit Size 
 BTPL.psig              370.00:  Bit Press Loss 
 CABU.                      No:  Customer Abuse 
 CGEO.      Behruz Shahbaliyev:  Customer Geo 
 COMM.                     $K:  Run Comments 1 
 TCS .hr                140.08:  Time Ciculation Ended 
 CV  .mps                 3.00:  Crit Velocity 
 CVMX.mps                 3.20:  Max Crit Veloc 
 DD1 .            Musa Ahmadov:  Direct Drillr 1 
 DD2 .           Hamid Ahmadov:  Direct Drillr 2 
 DDSV.               Geo-Pilot:  DD Service 
 DEFF.%                  98.40:  % Det Eff 
 DLRX.°/30m               3.40:  Dogleg Rot Max 
 DLSO.°/30m               1.45:  Dogleg Oriented 
 DLSX.°/30m               3.40:  Dogleg Str Max 
 DRET.      18.40.00 29-Aug-21:  Drill End Time 
 DRST.      21.00.00 20-Aug-21:  Drill Start Tim 
 DTIM.hr                 69.47:  Time Drilling 
 EDEP.m                5084.50:  End Depth 
 ENG1.      Artemiy Matviyanov:  Engineer 1 
 ENG2.         Almaz Almadatov:  Engineer 2 
 ETIM.      18.40.00 29-Aug-21:  End Time 
 FLOI.gpm               500.00:  Flow In 
 FLON.gpm               400.00:  Flow In Min 
 FLOS.cptm                0.00:  Fluid Loss 
 FLOX.gpm               500.00:  Flow In Max 
 DFT .        Mineral Oil Base:  Mud Type 
 HFLO.                      No:  High Flow 
 HPRE.                      No:  High Pressure 
 HTEM.                      No:  High Temp 
 HYDO.m                   1.80:  Hydro Offset 
 IFIN.deg                25.62:  Inc, Final 
 IMAX.deg                48.69:  Inc Max 
 IMIN.deg                24.01:  Inc Min 
 IMND.m                4962.57:  Inc Min Depth 
 IMXD.m                4119.01:  Inc Max Depth 
 JARR.                      No:  Jarring 
 LETM.      18.40.00 29-Aug-21:  Log End Time 
 LOST.hr                     0:  Lost Rig Time 
 LSTM.      21.00.00 20-Aug-21:  Log Start Time 
 MDCL.ppm             41500.00:  Mud Chlorides 
 MDES.     Inversion Oil/Synthetic:  Mud Desc 
 DFD .sg                  1.56:  Mud Density 
 MDMN.sg                  1.56:  Dens Mud Min 
 MDMX.sg                  1.56:  Dens Mud Max 
 MOIL.                      70:  Run Mud Oil % 
 MOWR.                   70:30:  Run Mud OWR 
 MSND.                     0.2:  Run Mud Sand % 
 MSOL.                    23.3:  Run Mud Solids% 
 DFV .spqt               78.00:  Mud Viscosity 
 MWOD.in                  6.75:  MWD Tool OD 
 MWSI.                      No:  Serv Intrp, MWD 
 OTIM.hr                218.30:  Time Operating 
 PCON.           Look Like New:  Pad Condition 
 PMAX.psia            11015.30:  Press Op, Max 
 PV  .cP                 38.00:  Mud PV 
 RUN .                     300:  Run Number 
 ROPA.m/hr               15.00:  ROP Avg 
 ROPN.m/hr                9.00:  ROP Min 
 ROPX.m/hr               17.00:  ROP Max 
 RPMA.rpm               120.00:  RPM Surface Avg 
 RPMN.rpm                90.00:  RPM Surface Min 
 RPMX.rpm               140.00:  RPM Surface Max 
 RRUN.                     300:  Rig Run Number 
 RTIM.hr                 31.53:  Time Reaming 
 SAZI.deg               331.64:  Azm, Start 
 SDEP.m                4127.00:  Start Depth 
 SIDD.                      No:  Serv Intrp, DD 
 SINC.deg                48.43:  Inc, Start 
 SPPA.psig             5830.00:  SPP Avg 
 SPPN.psig             5600.00:  SPP Min 
 SPPX.psig             5900.00:  SPP Max 
 STIM.      21.00.00 20-Aug-21:  Start Time 
 SVCS.                 DD, MWD:  Services 
 SVER.                    9.20:  Sperry Version 
 TDAT.m                 957.50:  Tot Depth Attmp 
 TDDF.                      No:  Trip for DD 
 TDLG.m                 957.50:  Tot Depth Loggd 
 TFF .                      No:  Trip for Fail 
 TQAA.f-kp               15.00:  Torque Abs Avg 
 TQAN.f-kp               12.00:  Torque Abs Min 
 TQAX.f-kp               19.00:  Torque Abs Max 
 TRRT.°/30m              -3.40:  Turn Rotating 
 MRT .                  EWR-M5:  Maximum Recorded Temperature 
 TTMX.degC              100.00:  Max Tool Temp 
 VS01.                90639251:  Virtual Str1 SN 
 VS02.                90634715:  Virtual Str2 SN 
 VS03.                90652479:  Virtual Str3 SN 
 VS04.                90642262:  Virtual Str4 SN 
 WBMN.klb                 0.00:  WOB Min 
 WITN.           Murad Guliyev:  Customer Rep 
 WITN.          Yashar Gaziyev:  Customer Rep 2 
 WOBA.klb                 9.00:  WOB Avg 
 WOBX.klb                12.00:  WOB Max 
 YP  .lhf2               30.00:  Yield Point 
~Curve Information Block
#MNEM.UNIT                 API CODE     Curve Description
#---------               -----------    ---------------------------
 TIME.HHMMSS            00 000 000 000:  GT Time & Date
 GTDEPTH.m              00 000 000 000:  GT Depth
 GTPQH.psia             00 000 000 000:  GT HR Quartz Pressure
 GTTQ.degC              00 000 000 000:  GT Quartz Temperature
 GTTN.NONE              00 000 000 000:  GT Test Number
 GTET.sec               00 000 000 000:  GT Elapsed Test Time
 GTTVD.m                00 000 000 000:  GT True Vertical Depth
#Other Information
#
#WARRANTY: Halliburton will use its best efforts to furnish customers with 
#accurate information and interpretations that are part of, and incident to, the services 
#provided.  However, Halliburton cannot and does not warrant the accuracy 
#or correctness of such information and interpretations.  Under no circumstances should any 
#such information or interpretation be relied upon as the sole basis for any drilling, 
#completion, production, or financial decision or any procedure involving any risk to the 
#safety of any drilling venture, drilling rig or its crew or any other third party.  The 
#Customer has full responsibility for all drilling, completion and production operation.  
#Halliburton makes no representations or warranties, either expressed or 
#implied, including, but not limited to, the implied warranties of merchantability or fitness 
#for a particular purpose, with respect to the services rendered.  In no event will 
#Halliburton be liable for failure to obtain any particular results or for 
#any damages, including, but not limited to, indirect, special or consequential damages, 
#resulting from the use of any information or interpretation provided by Halliburton.
#
~A           TIME           GTDEPTH  GTPQH  GTTQ  GTTN  GTET   GTTVD  
# ...
   10:47:35.213.27-Aug-2021 4957.82 5167.67 85.92 9.00 229.73 3301.29
   10:47:35.413.27-Aug-2021 4957.82 5167.67 85.92 9.00 229.93 3301.29
   10:47:35.612.27-Aug-2021 4957.82 5167.70 85.92 9.00 230.13 3301.29
   10:47:35.812.27-Aug-2021 4957.82 5167.68 85.92 9.00 230.32 3301.29
   10:47:36.012.27-Aug-2021 4957.82 5167.67 85.92 9.00 230.52 3301.29
   10:47:36.212.27-Aug-2021 4957.82 5167.68 85.92 9.00 230.72 3301.29
   10:47:36.412.27-Aug-2021 4957.82 5167.68 85.92 9.00 230.92 3301.29
   10:47:36.611.27-Aug-2021 4957.82 5167.67 85.92 9.00 231.12 3301.29
   10:47:36.811.27-Aug-2021 4957.82 5167.67 85.92 9.00 231.32 3301.29
   10:47:37.011.27-Aug-2021 4957.82 5167.72 85.92 9.00 231.52 3301.29
   10:47:37.211.27-Aug-2021 4957.82 5167.71 85.92 9.00 231.72 3301.29
   10:47:37.410.27-Aug-2021 4957.82 5167.71 85.92 9.00 231.92 3301.29
   10:47:37.610.27-Aug-2021 4957.82 5167.65 85.92 9.00 232.12 3301.29
   10:47:37.810.27-Aug-2021 4957.82 5167.67 85.92 9.00 232.32 3301.29
   10:47:38.010.27-Aug-2021 4957.82 5167.72 85.92 9.00 232.52 3301.29
   10:47:38.209.27-Aug-2021 4957.82 5167.69 85.92 9.00 232.72 3301.29
   10:47:38.409.27-Aug-2021 4957.82 5167.69 85.92 9.00 232.92 3301.29
   10:47:38.609.27-Aug-2021 4957.82 5167.65 85.92 9.00 233.12 3301.29
   10:47:38.809.27-Aug-2021 4957.82 5167.67 85.92 9.00 233.32 3301.29
   10:47:39.008.27-Aug-2021 4957.82 5167.73 85.92 9.00 233.52 3301.29
   10:47:39.208.27-Aug-2021 4957.82 5167.75 85.92 9.00 233.72 3301.29
   10:47:39.408.27-Aug-2021 4957.82 5167.75 85.92 9.00 233.92 3301.29
   10:47:39.608.27-Aug-2021 4957.82 5167.75 85.92 9.00 234.12 3301.29
   10:47:39.807.27-Aug-2021 4957.82 5167.71 85.92 9.00 234.32 3301.29
   10:47:40.007.27-Aug-2021 4957.82 5167.69 85.92 9.00 234.52 3301.29
   10:47:40.207.27-Aug-2021 4957.82 5167.68 85.92 9.00 234.72 3301.29
   10:47:40.407.27-Aug-2021 4957.82 5167.68 85.92 9.00 234.92 3301.29
   10:47:40.607.27-Aug-2021 4957.82 5167.66 85.92 9.00 235.12 3301.29
   10:47:40.806.27-Aug-2021 4957.82 5167.66 85.92 9.00 235.32 3301.29
   10:47:41.006.27-Aug-2021 4957.82 5167.69 85.92 9.00 235.52 3301.29
   10:47:41.206.27-Aug-2021 4957.82 5167.68 85.92 9.00 235.72 3301.29
   10:47:41.406.27-Aug-2021 4957.82 5167.68 85.92 9.00 235.92 3301.29
   10:47:41.605.27-Aug-2021 4957.82 5167.70 85.92 9.00 236.12 3301.29
   10:47:41.805.27-Aug-2021 4957.82 5167.70 85.92 9.00 236.32 3301.29
   10:47:42.005.27-Aug-2021 4957.82 5167.69 85.92 9.00 236.52 3301.29
   10:47:42.205.27-Aug-2021 4957.82 5167.70 85.92 9.00 236.72 3301.29
   10:47:42.404.27-Aug-2021 4957.82 5167.70 85.92 9.00 236.92 3301.29
   10:47:42.604.27-Aug-2021 4957.82 5167.66 85.92 9.00 237.12 3301.29
   10:47:42.804.27-Aug-2021 4957.82 5167.80 85.92 9.00 237.32 3301.29
   10:47:43.004.27-Aug-2021 4957.82 5167.69 85.92 9.00 237.52 3301.29
   10:47:43.203.27-Aug-2021 4957.82 5167.70 85.92 9.00 237.72 3301.29
   10:47:43.403.27-Aug-2021 4957.82 5167.70 85.92 9.00 237.92 3301.29
   10:47:43.603.27-Aug-2021 4957.82 5167.69 85.92 9.00 238.12 3301.29
   10:47:43.803.27-Aug-2021 4957.82 5167.68 85.92 9.00 238.32 3301.29
   10:47:44.002.27-Aug-2021 4957.82 5167.69 85.92 9.00 238.52 3301.29
   10:47:44.202.27-Aug-2021 4957.82 5167.67 85.92 9.00 238.71 3301.29
   10:47:44.402.27-Aug-2021 4957.82 5167.67 85.92 9.00 238.91 3301.29
   10:47:44.602.27-Aug-2021 4957.82 5167.71 85.92 9.00 239.11 3301.29
   10:47:44.802.27-Aug-2021 4957.82 5167.70 85.92 9.00 239.31 3301.29
   10:47:45.001.27-Aug-2021 4957.82 5167.71 85.92 9.00 239.51 3301.29
   10:47:45.201.27-Aug-2021 4957.82 5167.70 85.92 9.00 239.71 3301.29
   10:47:45.401.27-Aug-2021 4957.82 5167.70 85.92 9.00 239.91 3301.29
   10:47:45.601.27-Aug-2021 4957.82 5167.70 85.92 9.00 240.11 3301.29
   10:47:45.800.27-Aug-2021 4957.82 5167.70 85.92 9.00 240.31 3301.29
   10:47:46.000.27-Aug-2021 4957.82 5167.68 85.92 9.00 240.51 3301.29
   10:47:46.200.27-Aug-2021 4957.82 5167.78 85.92 9.00 240.71 3301.29
   10:47:46.400.27-Aug-2021 4957.82 5167.78 85.92 9.00 240.91 3301.29
   10:47:46.599.27-Aug-2021 4957.82 5167.69 85.92 9.00 241.11 3301.29
   10:47:46.799.27-Aug-2021 4957.82 5167.71 85.92 9.00 241.31 3301.29
   10:47:46.999.27-Aug-2021 4957.82 5167.70 85.92 9.00 241.51 3301.29
   10:47:47.199.27-Aug-2021 4957.82 5167.76 85.92 9.00 241.71 3301.29
   10:47:47.398.27-Aug-2021 4957.82 5167.76 85.92 9.00 241.91 3301.29
   10:47:47.598.27-Aug-2021 4957.82 5167.68 85.92 9.00 242.11 3301.29
   10:47:47.798.27-Aug-2021 4957.82 5167.71 85.92 9.00 242.31 3301.29
   10:47:47.998.27-Aug-2021 4957.82 5167.81 85.92 9.00 242.51 3301.29
   10:47:48.197.27-Aug-2021 4957.82 5167.80 85.92 9.00 242.71 3301.29
   10:47:48.397.27-Aug-2021 4957.82 5167.80 85.92 9.00 242.91 3301.29
   10:47:48.597.27-Aug-2021 4957.82 5167.70 85.92 9.00 243.11 3301.29
   10:47:48.797.27-Aug-2021 4957.82 5167.77 85.92 9.00 243.31 3301.29
   10:47:48.997.27-Aug-2021 4957.82 5167.74 85.92 9.00 243.51 3301.29
   10:47:49.196.27-Aug-2021 4957.82 5167.69 85.92 9.00 243.71 3301.29
   10:47:49.396.27-Aug-2021 4957.82 5167.69 85.92 9.00 243.91 3301.29
   10:47:49.596.27-Aug-2021 4957.82 5167.69 85.92 9.00 244.11 3301.29
   10:47:49.796.27-Aug-2021 4957.82 5167.70 85.92 9.00 244.31 3301.29
   10:47:49.995.27-Aug-2021 4957.82 5167.72 85.92 9.00 244.51 3301.29
   10:47:50.195.27-Aug-2021 4957.82 5167.71 85.92 9.00 244.71 3301.29
   10:47:50.395.27-Aug-2021 4957.82 5167.71 85.92 9.00 244.91 3301.29
   10:47:50.595.27-Aug-2021 4957.82 5167.71 85.92 9.00 245.11 3301.29
   10:47:50.794.27-Aug-2021 4957.82 5167.73 85.92 9.00 245.31 3301.29
   10:47:50.994.27-Aug-2021 4957.82 5167.72 85.92 9.00 245.51 3301.29
   10:47:51.194.27-Aug-2021 4957.82 5167.72 85.92 9.00 245.71 3301.29
   10:47:51.394.27-Aug-2021 4957.82 5167.72 85.92 9.00 245.91 3301.29
   10:47:51.593.27-Aug-2021 4957.82 5167.71 85.92 9.00 246.11 3301.29
   10:47:51.793.27-Aug-2021 4957.82 5167.70 85.92 9.00 246.31 3301.29
   10:47:51.993.27-Aug-2021 4957.82 5167.77 85.92 9.00 246.51 3301.29
   10:47:52.193.27-Aug-2021 4957.82 5167.75 85.92 9.00 246.71 3301.29
   10:47:52.392.27-Aug-2021 4957.82 5167.75 85.92 9.00 246.91 3301.29
   10:47:52.592.27-Aug-2021 4957.82 5167.71 85.92 9.00 247.10 3301.29
   10:47:52.792.27-Aug-2021 4957.82 5167.72 85.92 9.00 247.30 3301.29
   10:47:52.992.27-Aug-2021 4957.82 5167.72 85.92 9.00 247.50 3301.29
   10:47:53.192.27-Aug-2021 4957.82 5167.71 85.92 9.00 247.70 3301.29
   10:47:53.391.27-Aug-2021 4957.82 5167.71 85.92 9.00 247.90 3301.29
   10:47:53.591.27-Aug-2021 4957.82 5167.71 85.92 9.00 248.10 3301.29
   10:47:53.791.27-Aug-2021 4957.82 5167.74 85.92 9.00 248.30 3301.29
   10:47:53.991.27-Aug-2021 4957.82 5167.73 85.92 9.00 248.50 3301.29
   10:47:54.190.27-Aug-2021 4957.82 5167.74 85.92 9.00 248.70 3301.29
   10:47:54.390.27-Aug-2021 4957.82 5167.74 85.92 9.00 248.90 3301.29
   10:47:54.590.27-Aug-2021 4957.82 5167.72 85.92 9.00 249.10 3301.29
   10:47:54.790.27-Aug-2021 4957.82 5167.71 85.92 9.00 249.30 3301.29
   10:47:54.989.27-Aug-2021 4957.82 5167.73 85.92 9.00 249.50 3301.29
   10:47:55.189.27-Aug-2021 4957.82 5167.70 85.92 9.00 249.70 3301.29
   10:47:55.389.27-Aug-2021 4957.82 5167.70 85.92 9.00 249.90 3301.29
   10:47:55.589.27-Aug-2021 4957.82 5167.75 85.92 9.00 250.10 3301.29
   10:47:55.788.27-Aug-2021 4957.82 5167.72 85.92 9.00 250.30 3301.29
   10:47:55.988.27-Aug-2021 4957.82 5167.71 85.92 9.00 250.50 3301.29
   10:47:56.188.27-Aug-2021 4957.82 5167.69 85.92 9.00 250.70 3301.29
   10:47:56.388.27-Aug-2021 4957.82 5167.69 85.92 9.00 250.90 3301.29
   10:47:56.587.27-Aug-2021 4957.82 5167.69 85.92 9.00 251.10 3301.29
   10:47:56.787.27-Aug-2021 4957.82 5167.71 85.92 9.00 251.30 3301.29
   10:47:56.987.27-Aug-2021 4957.82 5167.71 85.92 9.00 251.50 3301.29
   10:47:57.187.27-Aug-2021 4957.82 5167.82 85.92 9.00 251.70 3301.29
   10:47:57.387.27-Aug-2021 4957.82 5167.82 85.92 9.00 251.90 3301.29
   10:47:57.586.27-Aug-2021 4957.82 5167.71 85.92 9.00 252.10 3301.29
   10:47:57.786.27-Aug-2021 4957.82 5167.67 85.92 9.00 252.30 3301.29
   10:47:57.986.27-Aug-2021 4957.82 5167.81 85.92 9.00 252.50 3301.29
