~Version Information
 VERS.                  2.0:   CWLS log ASCII Standard -VERSION 2.0
 WRAP.                   NO:   One line per depth step
~Well Information Block
#MNEM.UNIT     VALUE/NAME     DESCRIPTION
#---------     -----------    ---------------------------
 STRT.S             10:06:49 27-Aug-21: START TIME 10:06:49 27-Aug-21
 STOP.S             10:13:57 27-Aug-21: STOP TIME  10:13:57 27-Aug-21
 STEP.S                   0.00: STEP TIME
 NULL.                 -999.25: NULL VALUE
 DFWT.                        :  DIST FWL TEXT
 DFST.                        :  DIST FSL TEXT
 DMF .             Drill Floor:  DRILL MEAS FROM
 STIM.      20.00.00 17-Aug-21:  START TIME
 DATE.      19.00.00 29-Aug-21:  END TIME
 SPUD.               15-Aug-21:  SPUD DATE
 NREF.                    Grid:  NORTH REFERENCE
 HPTY.       Minimum Curvature:  HOLE POS TYPE
 DMOD.             Drill Model:  DRILL MOD DESC
 SVYD.                  Survey:  SURVEY DESC
 ILTD.               Lithology:  INTERP LTH DESC
 FTOP.          Formation Tops:  FORM TOPS DESC
 RIG .              East Azeri:  RIG NAME
 PDAT.          Mean Sea Level:  PERMANENT DATUM
 FLD .                     ACG:  FIELD NAME
 SON .        AZ-XX-0907180857:  JOB NUMBER
 CTRY.              Azerbaijan:  COUNTRY NAME
 WELL.                    D23x:  WELL NAME
 SRVC.     Turan Drilling and Engineering:  CONTRACTOR
 COMP.     BP Exploration (Caspian Sea) Ltd.:  COMPANY
 UWI .            /AZE00000214:  UNIQUE WELL IDENTIFIER
 API .            /AZE00000214:  API NUMBER
 MDS .        Operator Entered:  MAG DATA SOURCE
 BASE.              Azerbaijan:  LOGGING EQUIPMENT BASE LOCATION
 REGN.                   EESSA:  REGION
 PROV.                    Baku:  PROVINCE
 STAT.                    Baku:  STATE NAME
 MWDS.                    Baku:  MWD SHOP
 DOE .                     N/A:  DOE NUMBER
 DCON.         Sperry Drilling:  DIRECTNL CONTR
 UNIT.                     N/A:  LOGGING EQUIPMENT ID
 WTYP.                Deviated:  WELL TYPE
 CNTY.                        :  COUNTY
 LOC .                        :  LOCATION
 LMF .             Drill Floor:  LOG MEASURED FROM
 TVDS.m                  43.60:  TVDSS CORRECTN
 LATI.deg                40.02:  LATITUDE
 LONG.deg                51.45:  LONGITUDE
 WHNS.m                  -7.04:  WELL HEAD N/S
 WHEW.m                  -0.67:  WELL HEAD E/W
 UTMX.m              538762.90:  UTM X
 UTMY.m             4431871.34:  UTM Y
 DFWL.m                   0.00:  DISTANCE FWL
 DFSL.m                   0.00:  DISTANCE FSL
 SDEP.m                4127.00:  START DEPTH
 TDD .m                5084.50:  TOTAL DEPTH (DRILLER)
 VSDR.deg               140.47:  VERT SEC DIRECT
 GVFD.g                   1.00:  GRAVITY FIELD
 MFLD.nT              50362.00:  MAGNETIC FIELD
 MDIP.deg                59.48:  MAGNETIC DIP
 MDEC.deg                 6.47:  MAGNETIC DECL
 GRDC.deg                 0.31:  GRID CORRECTION
 AZTC.deg                 6.16:  AZM TOTAL CORR
 EPD .m                   0.00:  ELEVATION
 EGL .m                   0.00:  GROUND ELEVATION
 WDMS.m                 151.80:  WD ELEV
 APD .m                  43.60:  DEPTH ABOVE PD
 DEP .m                4092.57:  DEPTH
 AGAP.m                  43.60:  AIR GAP
 VSEW.m                  -0.67:  VERT SEC E/W
 VSNS.m                  -7.04:  VERT SEC N/S
 EKB .m                  43.60:  KB ELEVATION
 EDF .m                  43.60:  DF ELEVATION
 TDL .m                 957.50:  TOTAL DEPTH (LOGGER)
 VSC .                       0:  VS TO CLOSURE
 MAGU.                 1851413:  MAGUTM CHECKSUM
~Parameter Information Block
#MNEM.UNIT       Value        Description
#---------     -----------    ---------------------------
 AV  .mps                 1.50:  Ann Velocity 
 AVMX.mps                 2.00:  Max Ann Veloc 
 AZIF.deg               184.66:  Azm, Final 
 BHAT.        Rotary Steerable:  BHA Type 
 BREV.rev               300.00:  Rev Bit Total 
 BROT.°/30m              -0.50:  Build Rotating 
 BS  .in                  8.50:  Bit Size 
 BSZ .in                  8.50:  Bit Size 
 BTPL.psig              370.00:  Bit Press Loss 
 CABU.                      No:  Customer Abuse 
 CGEO.      Behruz Shahbaliyev:  Customer Geo 
 COMM.                     Ììg:  Run Comments 1 
 TCS .hr                140.08:  Time Ciculation Ended 
 CV  .mps                 3.00:  Crit Velocity 
 CVMX.mps                 3.20:  Max Crit Veloc 
 DD1 .            Musa Ahmadov:  Direct Drillr 1 
 DD2 .           Hamid Ahmadov:  Direct Drillr 2 
 DDSV.               Geo-Pilot:  DD Service 
 DEFF.%                  98.40:  % Det Eff 
 DLRX.°/30m               3.40:  Dogleg Rot Max 
 DLSO.°/30m               1.45:  Dogleg Oriented 
 DLSX.°/30m               3.40:  Dogleg Str Max 
 DRET.      18.40.00 29-Aug-21:  Drill End Time 
 DRST.      21.00.00 20-Aug-21:  Drill Start Tim 
 DTIM.hr                 69.47:  Time Drilling 
 EDEP.m                5084.50:  End Depth 
 ENG1.      Artemiy Matviyanov:  Engineer 1 
 ENG2.         Almaz Almadatov:  Engineer 2 
 ETIM.      18.40.00 29-Aug-21:  End Time 
 FLOI.gpm               500.00:  Flow In 
 FLON.gpm               400.00:  Flow In Min 
 FLOS.cptm                0.00:  Fluid Loss 
 FLOX.gpm               500.00:  Flow In Max 
 DFT .        Mineral Oil Base:  Mud Type 
 HFLO.                      No:  High Flow 
 HPRE.                      No:  High Pressure 
 HTEM.                      No:  High Temp 
 HYDO.m                   1.80:  Hydro Offset 
 IFIN.deg                25.62:  Inc, Final 
 IMAX.deg                48.69:  Inc Max 
 IMIN.deg                24.01:  Inc Min 
 IMND.m                4962.57:  Inc Min Depth 
 IMXD.m                4119.01:  Inc Max Depth 
 JARR.                      No:  Jarring 
 LETM.      18.40.00 29-Aug-21:  Log End Time 
 LOST.hr                     0:  Lost Rig Time 
 LSTM.      21.00.00 20-Aug-21:  Log Start Time 
 MDCL.ppm             41500.00:  Mud Chlorides 
 MDES.     Inversion Oil/Synthetic:  Mud Desc 
 DFD .sg                  1.56:  Mud Density 
 MDMN.sg                  1.56:  Dens Mud Min 
 MDMX.sg                  1.56:  Dens Mud Max 
 MOIL.                      70:  Run Mud Oil % 
 MOWR.                   70:30:  Run Mud OWR 
 MSND.                     0.2:  Run Mud Sand % 
 MSOL.                    23.3:  Run Mud Solids% 
 DFV .spqt               78.00:  Mud Viscosity 
 MWOD.in                  6.75:  MWD Tool OD 
 MWSI.                      No:  Serv Intrp, MWD 
 OTIM.hr                218.30:  Time Operating 
 PCON.           Look Like New:  Pad Condition 
 PMAX.psia            11015.30:  Press Op, Max 
 PV  .cP                 38.00:  Mud PV 
 RUN .                     300:  Run Number 
 ROPA.m/hr               15.00:  ROP Avg 
 ROPN.m/hr                9.00:  ROP Min 
 ROPX.m/hr               17.00:  ROP Max 
 RPMA.rpm               120.00:  RPM Surface Avg 
 RPMN.rpm                90.00:  RPM Surface Min 
 RPMX.rpm               140.00:  RPM Surface Max 
 RRUN.                     300:  Rig Run Number 
 RTIM.hr                 31.53:  Time Reaming 
 SAZI.deg               331.64:  Azm, Start 
 SDEP.m                4127.00:  Start Depth 
 SIDD.                      No:  Serv Intrp, DD 
 SINC.deg                48.43:  Inc, Start 
 SPPA.psig             5830.00:  SPP Avg 
 SPPN.psig             5600.00:  SPP Min 
 SPPX.psig             5900.00:  SPP Max 
 STIM.      21.00.00 20-Aug-21:  Start Time 
 SVCS.                 DD, MWD:  Services 
 SVER.                    9.20:  Sperry Version 
 TDAT.m                 957.50:  Tot Depth Attmp 
 TDDF.                      No:  Trip for DD 
 TDLG.m                 957.50:  Tot Depth Loggd 
 TFF .                      No:  Trip for Fail 
 TQAA.f-kp               15.00:  Torque Abs Avg 
 TQAN.f-kp               12.00:  Torque Abs Min 
 TQAX.f-kp               19.00:  Torque Abs Max 
 TRRT.°/30m              -3.40:  Turn Rotating 
 MRT .                  EWR-M5:  Maximum Recorded Temperature 
 TTMX.degC              100.00:  Max Tool Temp 
 VS01.                90639251:  Virtual Str1 SN 
 VS02.                90634715:  Virtual Str2 SN 
 VS03.                90652479:  Virtual Str3 SN 
 VS04.                90642262:  Virtual Str4 SN 
 WBMN.klb                 0.00:  WOB Min 
 WITN.           Murad Guliyev:  Customer Rep 
 WITN.          Yashar Gaziyev:  Customer Rep 2 
 WOBA.klb                 9.00:  WOB Avg 
 WOBX.klb                12.00:  WOB Max 
 YP  .lhf2               30.00:  Yield Point 
~Curve Information Block
#MNEM.UNIT                 API CODE     Curve Description
#---------               -----------    ---------------------------
 TIME.HHMMSS            00 000 000 000:  GT Time & Date
 GTDEPTH.m              00 000 000 000:  GT Depth
 GTPQH.psia             00 000 000 000:  GT HR Quartz Pressure
 GTTQ.degC              00 000 000 000:  GT Quartz Temperature
 GTTN.NONE              00 000 000 000:  GT Test Number
 GTET.sec               00 000 000 000:  GT Elapsed Test Time
 GTTVD.m                00 000 000 000:  GT True Vertical Depth
#Other Information
#
#WARRANTY: Halliburton will use its best efforts to furnish customers with 
#accurate information and interpretations that are part of, and incident to, the services 
#provided.  However, Halliburton cannot and does not warrant the accuracy 
#or correctness of such information and interpretations.  Under no circumstances should any 
#such information or interpretation be relied upon as the sole basis for any drilling, 
#completion, production, or financial decision or any procedure involving any risk to the 
#safety of any drilling venture, drilling rig or its crew or any other third party.  The 
#Customer has full responsibility for all drilling, completion and production operation.  
#Halliburton makes no representations or warranties, either expressed or 
#implied, including, but not limited to, the implied warranties of merchantability or fitness 
#for a particular purpose, with respect to the services rendered.  In no event will 
#Halliburton be liable for failure to obtain any particular results or for 
#any damages, including, but not limited to, indirect, special or consequential damages, 
#resulting from the use of any information or interpretation provided by Halliburton.
#
~A           TIME           GTDEPTH  GTPQH  GTTQ  GTTN  GTET   GTTVD  
# ...
   10:12:56.695.27-Aug-2021 4958.50 7889.04 86.03 8.00 367.56 3301.91
   10:12:56.895.27-Aug-2021 4958.50 7889.04 86.03 8.00 367.76 3301.91
   10:12:57.094.27-Aug-2021 4958.50 7888.34 86.03 8.00 367.96 3301.91
   10:12:57.294.27-Aug-2021 4958.50 7893.86 86.03 8.00 368.16 3301.91
   10:12:57.494.27-Aug-2021 4958.50 7886.09 86.03 8.00 368.36 3301.91
   10:12:57.694.27-Aug-2021 4958.50 7889.67 86.03 8.00 368.56 3301.91
   10:12:57.893.27-Aug-2021 4958.50 7889.67 86.03 8.00 368.76 3301.91
   10:12:58.093.27-Aug-2021 4958.50 7888.07 86.03 8.00 368.96 3301.91
   10:12:58.293.27-Aug-2021 4958.50 7887.86 86.02 8.00 369.16 3301.91
   10:12:58.493.27-Aug-2021 4958.50 7887.84 86.03 8.00 369.36 3301.91
   10:12:58.692.27-Aug-2021 4958.50 7887.75 86.03 8.00 369.56 3301.91
   10:12:58.892.27-Aug-2021 4958.50 7887.75 86.03 8.00 369.76 3301.91
   10:12:59.092.27-Aug-2021 4958.50 7887.79 86.03 8.00 369.96 3301.91
   10:12:59.292.27-Aug-2021 4958.50 7888.35 86.02 8.00 370.16 3301.91
   10:12:59.491.27-Aug-2021 4958.50 7888.88 86.02 8.00 370.36 3301.91
   10:12:59.691.27-Aug-2021 4958.50 7889.12 86.02 8.00 370.56 3301.91
   10:12:59.891.27-Aug-2021 4958.50 7889.12 86.02 8.00 370.76 3301.91
   10:13:00.091.27-Aug-2021 4958.50 7890.17 86.02 8.00 370.96 3301.91
   10:13:00.290.27-Aug-2021 4958.50 7888.68 86.02 8.00 371.16 3301.91
   10:13:00.490.27-Aug-2021 4958.50 7888.29 86.02 8.00 371.36 3301.91
   10:13:00.690.27-Aug-2021 4958.50 7893.82 86.02 8.00 371.56 3301.91
   10:13:00.890.27-Aug-2021 4958.50 7893.82 86.02 8.00 371.76 3301.91
   10:13:01.090.27-Aug-2021 4958.50 7889.42 86.02 8.00 371.96 3301.91
   10:13:01.289.27-Aug-2021 4958.50 7887.90 86.02 8.00 372.16 3301.91
   10:13:01.489.27-Aug-2021 4958.50 7887.64 86.02 8.00 372.36 3301.91
   10:13:01.689.27-Aug-2021 4958.50 7887.79 86.02 8.00 372.56 3301.91
   10:13:01.889.27-Aug-2021 4958.50 7887.79 86.02 8.00 372.75 3301.91
   10:13:02.088.27-Aug-2021 4958.50 7889.30 86.02 8.00 372.95 3301.91
   10:13:02.288.27-Aug-2021 4958.50 7887.79 86.02 8.00 373.15 3301.91
   10:13:02.488.27-Aug-2021 4958.50 7887.52 86.02 8.00 373.35 3301.91
   10:13:02.688.27-Aug-2021 4958.50 7888.36 86.02 8.00 373.55 3301.91
   10:13:02.887.27-Aug-2021 4958.50 7888.36 86.02 8.00 373.75 3301.91
   10:13:03.087.27-Aug-2021 4958.50 7894.42 86.02 8.00 373.95 3301.91
   10:13:03.287.27-Aug-2021 4958.50 7886.16 86.02 8.00 374.15 3301.91
   10:13:03.487.27-Aug-2021 4958.50 7889.62 86.02 8.00 374.35 3301.91
   10:13:03.686.27-Aug-2021 4958.50 7888.37 86.02 8.00 374.55 3301.91
   10:13:03.886.27-Aug-2021 4958.50 7888.37 86.02 8.00 374.75 3301.91
   10:13:04.086.27-Aug-2021 4958.50 7886.91 86.02 8.00 374.95 3301.91
   10:13:04.286.27-Aug-2021 4958.50 7889.66 86.02 8.00 375.15 3301.91
   10:13:04.485.27-Aug-2021 4958.50 7888.19 86.02 8.00 375.35 3301.91
   10:13:04.685.27-Aug-2021 4958.50 7886.94 86.02 8.00 375.55 3301.91
   10:13:04.885.27-Aug-2021 4958.50 7886.94 86.02 8.00 375.75 3301.91
   10:13:05.085.27-Aug-2021 4958.50 7887.89 86.02 8.00 375.95 3301.91
   10:13:05.285.27-Aug-2021 4958.50 7887.98 86.02 8.00 376.15 3301.91
   10:13:05.484.27-Aug-2021 4958.50 7887.71 86.02 8.00 376.35 3301.91
   10:13:05.684.27-Aug-2021 4958.50 7888.06 86.02 8.00 376.55 3301.91
   10:13:05.884.27-Aug-2021 4958.50 7888.06 86.02 8.00 376.75 3301.91
   10:13:06.084.27-Aug-2021 4958.50 7888.90 86.02 8.00 376.95 3301.91
   10:13:06.283.27-Aug-2021 4958.50 7889.13 86.02 8.00 377.15 3301.91
   10:13:06.483.27-Aug-2021 4958.50 7888.93 86.02 8.00 377.35 3301.91
   10:13:06.683.27-Aug-2021 4958.50 7888.78 86.02 8.00 377.55 3301.91
   10:13:06.883.27-Aug-2021 4958.50 7888.78 86.02 8.00 377.75 3301.91
   10:13:07.082.27-Aug-2021 4958.50 7890.24 86.02 8.00 377.95 3301.91
   10:13:07.282.27-Aug-2021 4958.50 7889.25 86.02 8.00 378.15 3301.91
   10:13:07.482.27-Aug-2021 4958.50 7889.34 86.02 8.00 378.35 3301.91
   10:13:07.682.27-Aug-2021 4958.50 7888.33 86.02 8.00 378.55 3301.91
   10:13:07.881.27-Aug-2021 4958.50 7888.33 86.02 8.00 378.75 3301.91
   10:13:08.081.27-Aug-2021 4958.50 7887.60 86.02 8.00 378.95 3301.91
   10:13:08.281.27-Aug-2021 4958.50 7887.63 86.02 8.00 379.15 3301.91
   10:13:08.481.27-Aug-2021 4958.50 7887.73 86.02 8.00 379.35 3301.91
   10:13:08.680.27-Aug-2021 4958.50 7887.46 86.02 8.00 379.55 3301.91
   10:13:08.880.27-Aug-2021 4958.50 7887.46 86.02 8.00 379.75 3301.91
   10:13:09.080.27-Aug-2021 4958.50 7888.36 86.02 8.00 379.95 3301.91
   10:13:09.280.27-Aug-2021 4958.50 7888.94 86.02 8.00 380.15 3301.91
   10:13:09.480.27-Aug-2021 4958.50 7889.44 86.02 8.00 380.35 3301.91
   10:13:09.679.27-Aug-2021 4958.50 7889.03 86.02 8.00 380.55 3301.91
   10:13:09.879.27-Aug-2021 4958.50 7889.03 86.02 8.00 380.75 3301.91
   10:13:10.079.27-Aug-2021 4958.50 7888.56 86.02 8.00 380.95 3301.91
   10:13:10.279.27-Aug-2021 4958.50 7888.43 86.02 8.00 381.14 3301.91
   10:13:10.478.27-Aug-2021 4958.50 7890.43 86.02 8.00 381.34 3301.91
   10:13:10.678.27-Aug-2021 4958.50 7889.41 86.02 8.00 381.54 3301.91
   10:13:10.878.27-Aug-2021 4958.50 7889.41 86.02 8.00 381.74 3301.91
   10:13:11.078.27-Aug-2021 4958.50 7888.05 86.02 8.00 381.94 3301.91
   10:13:11.277.27-Aug-2021 4958.50 7887.79 86.02 8.00 382.14 3301.91
   10:13:11.477.27-Aug-2021 4958.50 7887.43 86.02 8.00 382.34 3301.91
   10:13:11.677.27-Aug-2021 4958.50 7892.79 86.02 8.00 382.54 3301.91
   10:13:11.877.27-Aug-2021 4958.50 7892.79 86.02 8.00 382.74 3301.91
   10:13:12.076.27-Aug-2021 4958.50 7887.87 86.02 8.00 382.94 3301.91
   10:13:12.276.27-Aug-2021 4958.50 7887.57 86.02 8.00 383.14 3301.91
   10:13:12.476.27-Aug-2021 4958.50 7887.84 86.02 8.00 383.34 3301.91
   10:13:12.676.27-Aug-2021 4958.50 7888.32 86.02 8.00 383.54 3301.91
   10:13:12.875.27-Aug-2021 4958.50 7888.32 86.02 8.00 383.74 3301.91
   10:13:13.075.27-Aug-2021 4958.50 7893.62 86.02 8.00 383.94 3301.91
   10:13:13.275.27-Aug-2021 4958.50 7885.69 86.02 8.00 384.14 3301.91
   10:13:13.475.27-Aug-2021 4958.50 7889.23 86.02 8.00 384.34 3301.91
   10:13:13.675.27-Aug-2021 4958.50 7888.44 86.02 8.00 384.54 3301.91
   10:13:13.874.27-Aug-2021 4958.50 7888.44 86.02 8.00 384.74 3301.91
   10:13:14.074.27-Aug-2021 4958.50 7891.44 86.02 8.00 384.94 3301.91
   10:13:14.274.27-Aug-2021 4958.50 7889.31 86.02 8.00 385.14 3301.91
   10:13:14.474.27-Aug-2021 4958.50 7887.57 86.02 8.00 385.34 3301.91
   10:13:14.673.27-Aug-2021 4958.50 7886.27 86.02 8.00 385.54 3301.91
   10:13:14.873.27-Aug-2021 4958.50 7886.27 86.02 8.00 385.74 3301.91
   10:13:15.073.27-Aug-2021 4958.50 7887.35 86.02 8.00 385.94 3301.91
   10:13:15.273.27-Aug-2021 4958.50 7887.61 86.02 8.00 386.14 3301.91
   10:13:15.472.27-Aug-2021 4958.50 7887.79 86.02 8.00 386.34 3301.91
   10:13:15.672.27-Aug-2021 4958.50 7887.76 86.02 8.00 386.54 3301.91
   10:13:15.872.27-Aug-2021 4958.50 7887.76 86.02 8.00 386.74 3301.91
   10:13:16.072.27-Aug-2021 4958.50 7887.76 86.02 8.00 386.94 3301.91
   10:13:16.271.27-Aug-2021 4958.50 7889.16 86.02 8.00 387.14 3301.91
   10:13:16.471.27-Aug-2021 4958.50 7889.14 86.02 8.00 387.34 3301.91
   10:13:16.671.27-Aug-2021 4958.50 7888.71 86.02 8.00 387.54 3301.91
   10:13:16.871.27-Aug-2021 4958.50 7888.71 86.02 8.00 387.74 3301.91
   10:13:17.070.27-Aug-2021 4958.50 7888.08 86.02 8.00 387.94 3301.91
   10:13:17.270.27-Aug-2021 4958.50 7893.02 86.02 8.00 388.14 3301.91
   10:13:17.470.27-Aug-2021 4958.50 7887.18 86.02 8.00 388.34 3301.91
   10:13:17.670.27-Aug-2021 4958.50 7888.88 86.02 8.00 388.54 3301.91
   10:13:17.870.27-Aug-2021 4958.50 7888.88 86.02 8.00 388.74 3301.91
   10:13:18.069.27-Aug-2021 4958.50 7887.60 86.02 8.00 388.94 3301.91
   10:13:18.269.27-Aug-2021 4958.50 7887.82 86.02 8.00 389.14 3301.91
   10:13:18.469.27-Aug-2021 4958.50 7887.76 86.02 8.00 389.34 3301.91
   10:13:18.669.27-Aug-2021 4958.50 7887.81 86.02 8.00 389.53 3301.91
   10:13:18.868.27-Aug-2021 4958.50 7887.81 86.02 8.00 389.73 3301.91
   10:13:19.068.27-Aug-2021 4958.50 7888.11 86.02 8.00 389.93 3301.91
   10:13:19.268.27-Aug-2021 4958.50 7888.89 86.02 8.00 390.13 3301.91
   10:13:19.468.27-Aug-2021 4958.50 7889.31 86.02 8.00 390.33 3301.91
