~Version Information
 VERS.                  2.0:   CWLS log ASCII Standard -VERSION 2.0
 WRAP.                   NO:   One line per depth step
~Well Information Block
#MNEM.UNIT     VALUE/NAME     DESCRIPTION
#---------     -----------    ---------------------------
 STRT.S             01:57:49 28-Aug-21: START TIME 01:57:49 28-Aug-21
 STOP.S             02:04:41 28-Aug-21: STOP TIME  02:04:41 28-Aug-21
 STEP.S                   0.00: STEP TIME
 NULL.                 -999.25: NULL VALUE
 DFWT.                        :  DIST FWL TEXT
 DFST.                        :  DIST FSL TEXT
 DMF .             Drill Floor:  DRILL MEAS FROM
 STIM.      20.00.00 17-Aug-21:  START TIME
 DATE.      19.00.00 29-Aug-21:  END TIME
 SPUD.               15-Aug-21:  SPUD DATE
 NREF.                    Grid:  NORTH REFERENCE
 HPTY.       Minimum Curvature:  HOLE POS TYPE
 DMOD.             Drill Model:  DRILL MOD DESC
 SVYD.                  Survey:  SURVEY DESC
 ILTD.               Lithology:  INTERP LTH DESC
 FTOP.          Formation Tops:  FORM TOPS DESC
 RIG .              East Azeri:  RIG NAME
 PDAT.          Mean Sea Level:  PERMANENT DATUM
 FLD .                     ACG:  FIELD NAME
 SON .        AZ-XX-0907180857:  JOB NUMBER
 CTRY.              Azerbaijan:  COUNTRY NAME
 WELL.                    D23x:  WELL NAME
 SRVC.     Turan Drilling and Engineering:  CONTRACTOR
 COMP.     BP Exploration (Caspian Sea) Ltd.:  COMPANY
 UWI .            /AZE00000214:  UNIQUE WELL IDENTIFIER
 API .            /AZE00000214:  API NUMBER
 MDS .        Operator Entered:  MAG DATA SOURCE
 BASE.              Azerbaijan:  LOGGING EQUIPMENT BASE LOCATION
 REGN.                   EESSA:  REGION
 PROV.                    Baku:  PROVINCE
 STAT.                    Baku:  STATE NAME
 MWDS.                    Baku:  MWD SHOP
 DOE .                     N/A:  DOE NUMBER
 DCON.         Sperry Drilling:  DIRECTNL CONTR
 UNIT.                     N/A:  LOGGING EQUIPMENT ID
 WTYP.                Deviated:  WELL TYPE
 CNTY.                        :  COUNTY
 LOC .                        :  LOCATION
 LMF .             Drill Floor:  LOG MEASURED FROM
 TVDS.m                  43.60:  TVDSS CORRECTN
 LATI.deg                40.02:  LATITUDE
 LONG.deg                51.45:  LONGITUDE
 WHNS.m                  -7.04:  WELL HEAD N/S
 WHEW.m                  -0.67:  WELL HEAD E/W
 UTMX.m              538762.90:  UTM X
 UTMY.m             4431871.34:  UTM Y
 DFWL.m                   0.00:  DISTANCE FWL
 DFSL.m                   0.00:  DISTANCE FSL
 SDEP.m                4127.00:  START DEPTH
 TDD .m                5084.50:  TOTAL DEPTH (DRILLER)
 VSDR.deg               140.47:  VERT SEC DIRECT
 GVFD.g                   1.00:  GRAVITY FIELD
 MFLD.nT              50362.00:  MAGNETIC FIELD
 MDIP.deg                59.48:  MAGNETIC DIP
 MDEC.deg                 6.47:  MAGNETIC DECL
 GRDC.deg                 0.31:  GRID CORRECTION
 AZTC.deg                 6.16:  AZM TOTAL CORR
 EPD .m                   0.00:  ELEVATION
 EGL .m                   0.00:  GROUND ELEVATION
 WDMS.m                 151.80:  WD ELEV
 APD .m                  43.60:  DEPTH ABOVE PD
 DEP .m                4092.57:  DEPTH
 AGAP.m                  43.60:  AIR GAP
 VSEW.m                  -0.67:  VERT SEC E/W
 VSNS.m                  -7.04:  VERT SEC N/S
 EKB .m                  43.60:  KB ELEVATION
 EDF .m                  43.60:  DF ELEVATION
 TDL .m                 957.50:  TOTAL DEPTH (LOGGER)
 VSC .                       0:  VS TO CLOSURE
 MAGU.                 1851413:  MAGUTM CHECKSUM
~Parameter Information Block
#MNEM.UNIT       Value        Description
#---------     -----------    ---------------------------
 AV  .mps                 1.50:  Ann Velocity 
 AVMX.mps                 2.00:  Max Ann Veloc 
 AZIF.deg               184.66:  Azm, Final 
 BHAT.        Rotary Steerable:  BHA Type 
 BREV.rev               300.00:  Rev Bit Total 
 BROT.°/30m              -0.50:  Build Rotating 
 BS  .in                  8.50:  Bit Size 
 BSZ .in                  8.50:  Bit Size 
 BTPL.psig              370.00:  Bit Press Loss 
 CABU.                      No:  Customer Abuse 
 CGEO.      Behruz Shahbaliyev:  Customer Geo 
 COMM.                     Äi}:  Run Comments 1 
 TCS .hr                140.08:  Time Ciculation Ended 
 CV  .mps                 3.00:  Crit Velocity 
 CVMX.mps                 3.20:  Max Crit Veloc 
 DD1 .            Musa Ahmadov:  Direct Drillr 1 
 DD2 .           Hamid Ahmadov:  Direct Drillr 2 
 DDSV.               Geo-Pilot:  DD Service 
 DEFF.%                  98.40:  % Det Eff 
 DLRX.°/30m               3.40:  Dogleg Rot Max 
 DLSO.°/30m               1.45:  Dogleg Oriented 
 DLSX.°/30m               3.40:  Dogleg Str Max 
 DRET.      18.40.00 29-Aug-21:  Drill End Time 
 DRST.      21.00.00 20-Aug-21:  Drill Start Tim 
 DTIM.hr                 69.47:  Time Drilling 
 EDEP.m                5084.50:  End Depth 
 ENG1.      Artemiy Matviyanov:  Engineer 1 
 ENG2.         Almaz Almadatov:  Engineer 2 
 ETIM.      18.40.00 29-Aug-21:  End Time 
 FLOI.gpm               500.00:  Flow In 
 FLON.gpm               400.00:  Flow In Min 
 FLOS.cptm                0.00:  Fluid Loss 
 FLOX.gpm               500.00:  Flow In Max 
 DFT .        Mineral Oil Base:  Mud Type 
 HFLO.                      No:  High Flow 
 HPRE.                      No:  High Pressure 
 HTEM.                      No:  High Temp 
 HYDO.m                   1.80:  Hydro Offset 
 IFIN.deg                25.62:  Inc, Final 
 IMAX.deg                48.69:  Inc Max 
 IMIN.deg                24.01:  Inc Min 
 IMND.m                4962.57:  Inc Min Depth 
 IMXD.m                4119.01:  Inc Max Depth 
 JARR.                      No:  Jarring 
 LETM.      18.40.00 29-Aug-21:  Log End Time 
 LOST.hr                     0:  Lost Rig Time 
 LSTM.      21.00.00 20-Aug-21:  Log Start Time 
 MDCL.ppm             41500.00:  Mud Chlorides 
 MDES.     Inversion Oil/Synthetic:  Mud Desc 
 DFD .sg                  1.56:  Mud Density 
 MDMN.sg                  1.56:  Dens Mud Min 
 MDMX.sg                  1.56:  Dens Mud Max 
 MOIL.                      70:  Run Mud Oil % 
 MOWR.                   70:30:  Run Mud OWR 
 MSND.                     0.2:  Run Mud Sand % 
 MSOL.                    23.3:  Run Mud Solids% 
 DFV .spqt               78.00:  Mud Viscosity 
 MWOD.in                  6.75:  MWD Tool OD 
 MWSI.                      No:  Serv Intrp, MWD 
 OTIM.hr                218.30:  Time Operating 
 PCON.           Look Like New:  Pad Condition 
 PMAX.psia            11015.30:  Press Op, Max 
 PV  .cP                 38.00:  Mud PV 
 RUN .                     300:  Run Number 
 ROPA.m/hr               15.00:  ROP Avg 
 ROPN.m/hr                9.00:  ROP Min 
 ROPX.m/hr               17.00:  ROP Max 
 RPMA.rpm               120.00:  RPM Surface Avg 
 RPMN.rpm                90.00:  RPM Surface Min 
 RPMX.rpm               140.00:  RPM Surface Max 
 RRUN.                     300:  Rig Run Number 
 RTIM.hr                 31.53:  Time Reaming 
 SAZI.deg               331.64:  Azm, Start 
 SDEP.m                4127.00:  Start Depth 
 SIDD.                      No:  Serv Intrp, DD 
 SINC.deg                48.43:  Inc, Start 
 SPPA.psig             5830.00:  SPP Avg 
 SPPN.psig             5600.00:  SPP Min 
 SPPX.psig             5900.00:  SPP Max 
 STIM.      21.00.00 20-Aug-21:  Start Time 
 SVCS.                 DD, MWD:  Services 
 SVER.                    9.20:  Sperry Version 
 TDAT.m                 957.50:  Tot Depth Attmp 
 TDDF.                      No:  Trip for DD 
 TDLG.m                 957.50:  Tot Depth Loggd 
 TFF .                      No:  Trip for Fail 
 TQAA.f-kp               15.00:  Torque Abs Avg 
 TQAN.f-kp               12.00:  Torque Abs Min 
 TQAX.f-kp               19.00:  Torque Abs Max 
 TRRT.°/30m              -3.40:  Turn Rotating 
 MRT .                  EWR-M5:  Maximum Recorded Temperature 
 TTMX.degC              100.00:  Max Tool Temp 
 VS01.                90639251:  Virtual Str1 SN 
 VS02.                90634715:  Virtual Str2 SN 
 VS03.                90652479:  Virtual Str3 SN 
 VS04.                90642262:  Virtual Str4 SN 
 WBMN.klb                 0.00:  WOB Min 
 WITN.           Murad Guliyev:  Customer Rep 
 WITN.          Yashar Gaziyev:  Customer Rep 2 
 WOBA.klb                 9.00:  WOB Avg 
 WOBX.klb                12.00:  WOB Max 
 YP  .lhf2               30.00:  Yield Point 
~Curve Information Block
#MNEM.UNIT                 API CODE     Curve Description
#---------               -----------    ---------------------------
 TIME.HHMMSS            00 000 000 000:  GT Time & Date
 GTDEPTH.m              00 000 000 000:  GT Depth
 GTPQH.psia             00 000 000 000:  GT HR Quartz Pressure
 GTTQ.degC              00 000 000 000:  GT Quartz Temperature
 GTTN.NONE              00 000 000 000:  GT Test Number
 GTET.sec               00 000 000 000:  GT Elapsed Test Time
 GTTVD.m                00 000 000 000:  GT True Vertical Depth
#Other Information
#
#WARRANTY: Halliburton will use its best efforts to furnish customers with 
#accurate information and interpretations that are part of, and incident to, the services 
#provided.  However, Halliburton cannot and does not warrant the accuracy 
#or correctness of such information and interpretations.  Under no circumstances should any 
#such information or interpretation be relied upon as the sole basis for any drilling, 
#completion, production, or financial decision or any procedure involving any risk to the 
#safety of any drilling venture, drilling rig or its crew or any other third party.  The 
#Customer has full responsibility for all drilling, completion and production operation.  
#Halliburton makes no representations or warranties, either expressed or 
#implied, including, but not limited to, the implied warranties of merchantability or fitness 
#for a particular purpose, with respect to the services rendered.  In no event will 
#Halliburton be liable for failure to obtain any particular results or for 
#any damages, including, but not limited to, indirect, special or consequential damages, 
#resulting from the use of any information or interpretation provided by Halliburton.
#
~A           TIME           GTDEPTH  GTPQH  GTTQ  GTTN   GTET   GTTVD  
# ...
   02:01:12.816.28-Aug-2021 4879.00 7756.31 81.19 27.00 203.46 3229.53
   02:01:13.016.28-Aug-2021 4879.00 7757.30 81.19 27.00 203.66 3229.53
   02:01:13.216.28-Aug-2021 4879.00 7756.30 81.19 27.00 203.86 3229.53
   02:01:13.416.28-Aug-2021 4879.00 7756.06 81.18 27.00 204.06 3229.53
   02:01:13.616.28-Aug-2021 4879.00 7756.06 81.18 27.00 204.26 3229.53
   02:01:13.816.28-Aug-2021 4879.00 7755.99 81.18 27.00 204.46 3229.53
   02:01:14.016.28-Aug-2021 4879.00 7755.84 81.18 27.00 204.66 3229.53
   02:01:14.216.28-Aug-2021 4879.00 7756.12 81.18 27.00 204.86 3229.53
   02:01:14.416.28-Aug-2021 4879.00 7756.54 81.18 27.00 205.06 3229.53
   02:01:14.616.28-Aug-2021 4879.00 7756.54 81.18 27.00 205.26 3229.53
   02:01:14.816.28-Aug-2021 4879.00 7756.84 81.18 27.00 205.46 3229.53
   02:01:15.016.28-Aug-2021 4879.00 7756.71 81.18 27.00 205.66 3229.53
   02:01:15.216.28-Aug-2021 4879.00 7756.66 81.18 27.00 205.86 3229.53
   02:01:15.416.28-Aug-2021 4879.00 7756.56 81.18 27.00 206.06 3229.53
   02:01:15.617.28-Aug-2021 4879.00 7756.56 81.18 27.00 206.26 3229.53
   02:01:15.817.28-Aug-2021 4879.00 7756.25 81.18 27.00 206.46 3229.53
   02:01:16.017.28-Aug-2021 4879.00 7759.38 81.18 27.00 206.67 3229.53
   02:01:16.217.28-Aug-2021 4879.00 7756.20 81.18 27.00 206.87 3229.53
   02:01:16.417.28-Aug-2021 4879.00 7757.32 81.18 27.00 207.07 3229.53
   02:01:16.617.28-Aug-2021 4879.00 7757.32 81.18 27.00 207.27 3229.53
   02:01:16.817.28-Aug-2021 4879.00 7752.93 81.18 27.00 207.47 3229.53
   02:01:17.017.28-Aug-2021 4879.00 7757.06 81.18 27.00 207.67 3229.53
   02:01:17.217.28-Aug-2021 4879.00 7756.05 81.18 27.00 207.87 3229.53
   02:01:17.417.28-Aug-2021 4879.00 7755.95 81.18 27.00 208.07 3229.53
   02:01:17.617.28-Aug-2021 4879.00 7755.95 81.18 27.00 208.27 3229.53
   02:01:17.817.28-Aug-2021 4879.00 7755.95 81.18 27.00 208.47 3229.53
   02:01:18.017.28-Aug-2021 4879.00 7758.76 81.18 27.00 208.67 3229.53
   02:01:18.217.28-Aug-2021 4879.00 7756.47 81.18 27.00 208.87 3229.53
   02:01:18.417.28-Aug-2021 4879.00 7757.43 81.18 27.00 209.07 3229.53
   02:01:18.617.28-Aug-2021 4879.00 7757.43 81.18 27.00 209.27 3229.53
   02:01:18.818.28-Aug-2021 4879.00 7753.45 81.18 27.00 209.47 3229.53
   02:01:19.018.28-Aug-2021 4879.00 7757.61 81.18 27.00 209.67 3229.53
   02:01:19.218.28-Aug-2021 4879.00 7756.29 81.18 27.00 209.87 3229.53
   02:01:19.418.28-Aug-2021 4879.00 7756.16 81.18 27.00 210.07 3229.53
   02:01:19.618.28-Aug-2021 4879.00 7756.16 81.18 27.00 210.27 3229.53
   02:01:19.818.28-Aug-2021 4879.00 7755.87 81.18 27.00 210.47 3229.53
   02:01:20.018.28-Aug-2021 4879.00 7755.48 81.18 27.00 210.67 3229.53
   02:01:20.218.28-Aug-2021 4879.00 7756.14 81.18 27.00 210.87 3229.53
   02:01:20.418.28-Aug-2021 4879.00 7756.38 81.18 27.00 211.07 3229.53
   02:01:20.618.28-Aug-2021 4879.00 7756.38 81.18 27.00 211.27 3229.53
   02:01:20.818.28-Aug-2021 4879.00 7756.86 81.18 27.00 211.47 3229.53
   02:01:21.018.28-Aug-2021 4879.00 7756.82 81.18 27.00 211.67 3229.53
   02:01:21.218.28-Aug-2021 4879.00 7756.95 81.18 27.00 211.87 3229.53
   02:01:21.418.28-Aug-2021 4879.00 7756.84 81.18 27.00 212.07 3229.53
   02:01:21.618.28-Aug-2021 4879.00 7756.84 81.18 27.00 212.27 3229.53
   02:01:21.818.28-Aug-2021 4879.00 7759.97 81.18 27.00 212.47 3229.53
   02:01:22.019.28-Aug-2021 4879.00 7756.43 81.18 27.00 212.67 3229.53
   02:01:22.219.28-Aug-2021 4879.00 7757.25 81.18 27.00 212.87 3229.53
   02:01:22.419.28-Aug-2021 4879.00 7757.50 81.18 27.00 213.07 3229.53
   02:01:22.619.28-Aug-2021 4879.00 7757.50 81.18 27.00 213.27 3229.53
   02:01:22.819.28-Aug-2021 4879.00 7756.49 81.18 27.00 213.47 3229.53
   02:01:23.019.28-Aug-2021 4879.00 7756.32 81.18 27.00 213.67 3229.53
   02:01:23.219.28-Aug-2021 4879.00 7756.20 81.18 27.00 213.87 3229.53
   02:01:23.419.28-Aug-2021 4879.00 7756.43 81.18 27.00 214.07 3229.53
   02:01:23.619.28-Aug-2021 4879.00 7756.43 81.18 27.00 214.27 3229.53
   02:01:23.819.28-Aug-2021 4879.00 7756.90 81.18 27.00 214.47 3229.53
   02:01:24.019.28-Aug-2021 4879.00 7756.85 81.18 27.00 214.67 3229.53
   02:01:24.219.28-Aug-2021 4879.00 7757.05 81.18 27.00 214.87 3229.53
   02:01:24.419.28-Aug-2021 4879.00 7756.80 81.18 27.00 215.07 3229.53
   02:01:24.619.28-Aug-2021 4879.00 7756.80 81.18 27.00 215.27 3229.53
   02:01:24.819.28-Aug-2021 4879.00 7756.67 81.18 27.00 215.47 3229.53
   02:01:25.019.28-Aug-2021 4879.00 7756.68 81.18 27.00 215.67 3229.53
   02:01:25.220.28-Aug-2021 4879.00 7759.78 81.18 27.00 215.87 3229.53
   02:01:25.420.28-Aug-2021 4879.00 7756.27 81.18 27.00 216.07 3229.53
   02:01:25.620.28-Aug-2021 4879.00 7756.27 81.18 27.00 216.27 3229.53
   02:01:25.820.28-Aug-2021 4879.00 7757.22 81.18 27.00 216.47 3229.53
   02:01:26.020.28-Aug-2021 4879.00 7759.99 81.18 27.00 216.67 3229.53
   02:01:26.220.28-Aug-2021 4879.00 7755.96 81.18 27.00 216.87 3229.53
   02:01:26.420.28-Aug-2021 4879.00 7756.95 81.18 27.00 217.07 3229.53
   02:01:26.620.28-Aug-2021 4879.00 7756.95 81.18 27.00 217.27 3229.53
   02:01:26.820.28-Aug-2021 4879.00 7756.69 81.18 27.00 217.47 3229.53
   02:01:27.020.28-Aug-2021 4879.00 7756.27 81.18 27.00 217.67 3229.53
   02:01:27.220.28-Aug-2021 4879.00 7759.59 81.18 27.00 217.87 3229.53
   02:01:27.420.28-Aug-2021 4879.00 7756.11 81.18 27.00 218.07 3229.53
   02:01:27.620.28-Aug-2021 4879.00 7756.11 81.18 27.00 218.27 3229.53
   02:01:27.820.28-Aug-2021 4879.00 7757.39 81.18 27.00 218.47 3229.53
   02:01:28.020.28-Aug-2021 4879.00 7757.13 81.18 27.00 218.67 3229.53
   02:01:28.220.28-Aug-2021 4879.00 7760.92 81.18 27.00 218.87 3229.53
   02:01:28.421.28-Aug-2021 4879.00 7755.44 81.18 27.00 219.07 3229.53
   02:01:28.621.28-Aug-2021 4879.00 7755.44 81.18 27.00 219.27 3229.53
   02:01:28.821.28-Aug-2021 4879.00 7756.55 81.18 27.00 219.47 3229.53
   02:01:29.021.28-Aug-2021 4879.00 7756.32 81.18 27.00 219.67 3229.53
   02:01:29.221.28-Aug-2021 4879.00 7756.19 81.18 27.00 219.87 3229.53
   02:01:29.421.28-Aug-2021 4879.00 7756.16 81.18 27.00 220.07 3229.53
   02:01:29.621.28-Aug-2021 4879.00 7756.16 81.18 27.00 220.27 3229.53
   02:01:29.821.28-Aug-2021 4879.00 7756.29 81.17 27.00 220.47 3229.53
   02:01:30.021.28-Aug-2021 4879.00 7756.59 81.17 27.00 220.67 3229.53
   02:01:30.221.28-Aug-2021 4879.00 7756.55 81.17 27.00 220.87 3229.53
   02:01:30.421.28-Aug-2021 4879.00 7756.93 81.17 27.00 221.07 3229.53
   02:01:30.621.28-Aug-2021 4879.00 7756.93 81.17 27.00 221.27 3229.53
   02:01:30.821.28-Aug-2021 4879.00 7756.79 81.17 27.00 221.47 3229.53
   02:01:31.021.28-Aug-2021 4879.00 7756.58 81.17 27.00 221.67 3229.53
   02:01:31.221.28-Aug-2021 4879.00 7756.57 81.17 27.00 221.87 3229.53
   02:01:31.421.28-Aug-2021 4879.00 7762.12 81.17 27.00 222.07 3229.53
   02:01:31.622.28-Aug-2021 4879.00 7762.12 81.17 27.00 222.27 3229.53
   02:01:31.822.28-Aug-2021 4879.00 7757.71 81.17 27.00 222.47 3229.53
   02:01:32.022.28-Aug-2021 4879.00 7756.86 81.17 27.00 222.67 3229.53
   02:01:32.222.28-Aug-2021 4879.00 7756.40 81.17 27.00 222.87 3229.53
   02:01:32.422.28-Aug-2021 4879.00 7756.34 81.17 27.00 223.07 3229.53
   02:01:32.622.28-Aug-2021 4879.00 7756.34 81.17 27.00 223.27 3229.53
   02:01:32.822.28-Aug-2021 4879.00 7755.89 81.17 27.00 223.47 3229.53
   02:01:33.022.28-Aug-2021 4879.00 7756.39 81.17 27.00 223.67 3229.53
   02:01:33.222.28-Aug-2021 4879.00 7756.59 81.17 27.00 223.87 3229.53
   02:01:33.422.28-Aug-2021 4879.00 7756.85 81.17 27.00 224.07 3229.53
   02:01:33.622.28-Aug-2021 4879.00 7756.85 81.17 27.00 224.27 3229.53
   02:01:33.822.28-Aug-2021 4879.00 7757.18 81.17 27.00 224.47 3229.53
   02:01:34.022.28-Aug-2021 4879.00 7757.14 81.17 27.00 224.67 3229.53
   02:01:34.222.28-Aug-2021 4879.00 7757.18 81.17 27.00 224.87 3229.53
   02:01:34.422.28-Aug-2021 4879.00 7756.87 81.17 27.00 225.07 3229.53
   02:01:34.622.28-Aug-2021 4879.00 7756.87 81.17 27.00 225.27 3229.53
   02:01:34.823.28-Aug-2021 4879.00 7762.45 81.17 27.00 225.47 3229.53
   02:01:35.023.28-Aug-2021 4879.00 7753.69 81.17 27.00 225.67 3229.53
   02:01:35.223.28-Aug-2021 4879.00 7757.98 81.17 27.00 225.87 3229.53
