~Version Information
 VERS.                  2.0:   CWLS log ASCII Standard -VERSION 2.0
 WRAP.                   NO:   One line per depth step
~Well Information Block
#MNEM.UNIT     VALUE/NAME     DESCRIPTION
#---------     -----------    ---------------------------
 STRT.S             21:24:04 27-Aug-21: START TIME 21:24:04 27-Aug-21
 STOP.S             21:30:54 27-Aug-21: STOP TIME  21:30:54 27-Aug-21
 STEP.S                   0.00: STEP TIME
 NULL.                 -999.25: NULL VALUE
 DFWT.                        :  DIST FWL TEXT
 DFST.                        :  DIST FSL TEXT
 DMF .             Drill Floor:  DRILL MEAS FROM
 STIM.      20.00.00 17-Aug-21:  START TIME
 DATE.      19.00.00 29-Aug-21:  END TIME
 SPUD.               15-Aug-21:  SPUD DATE
 NREF.                    Grid:  NORTH REFERENCE
 HPTY.       Minimum Curvature:  HOLE POS TYPE
 DMOD.             Drill Model:  DRILL MOD DESC
 SVYD.                  Survey:  SURVEY DESC
 ILTD.               Lithology:  INTERP LTH DESC
 FTOP.          Formation Tops:  FORM TOPS DESC
 RIG .              East Azeri:  RIG NAME
 PDAT.          Mean Sea Level:  PERMANENT DATUM
 FLD .                     ACG:  FIELD NAME
 SON .        AZ-XX-0907180857:  JOB NUMBER
 CTRY.              Azerbaijan:  COUNTRY NAME
 WELL.                    D23x:  WELL NAME
 SRVC.     Turan Drilling and Engineering:  CONTRACTOR
 COMP.     BP Exploration (Caspian Sea) Ltd.:  COMPANY
 UWI .            /AZE00000214:  UNIQUE WELL IDENTIFIER
 API .            /AZE00000214:  API NUMBER
 MDS .        Operator Entered:  MAG DATA SOURCE
 BASE.              Azerbaijan:  LOGGING EQUIPMENT BASE LOCATION
 REGN.                   EESSA:  REGION
 PROV.                    Baku:  PROVINCE
 STAT.                    Baku:  STATE NAME
 MWDS.                    Baku:  MWD SHOP
 DOE .                     N/A:  DOE NUMBER
 DCON.         Sperry Drilling:  DIRECTNL CONTR
 UNIT.                     N/A:  LOGGING EQUIPMENT ID
 WTYP.                Deviated:  WELL TYPE
 CNTY.                        :  COUNTY
 LOC .                        :  LOCATION
 LMF .             Drill Floor:  LOG MEASURED FROM
 TVDS.m                  43.60:  TVDSS CORRECTN
 LATI.deg                40.02:  LATITUDE
 LONG.deg                51.45:  LONGITUDE
 WHNS.m                  -7.04:  WELL HEAD N/S
 WHEW.m                  -0.67:  WELL HEAD E/W
 UTMX.m              538762.90:  UTM X
 UTMY.m             4431871.34:  UTM Y
 DFWL.m                   0.00:  DISTANCE FWL
 DFSL.m                   0.00:  DISTANCE FSL
 SDEP.m                4127.00:  START DEPTH
 TDD .m                5084.50:  TOTAL DEPTH (DRILLER)
 VSDR.deg               140.47:  VERT SEC DIRECT
 GVFD.g                   1.00:  GRAVITY FIELD
 MFLD.nT              50362.00:  MAGNETIC FIELD
 MDIP.deg                59.48:  MAGNETIC DIP
 MDEC.deg                 6.47:  MAGNETIC DECL
 GRDC.deg                 0.31:  GRID CORRECTION
 AZTC.deg                 6.16:  AZM TOTAL CORR
 EPD .m                   0.00:  ELEVATION
 EGL .m                   0.00:  GROUND ELEVATION
 WDMS.m                 151.80:  WD ELEV
 APD .m                  43.60:  DEPTH ABOVE PD
 DEP .m                4092.57:  DEPTH
 AGAP.m                  43.60:  AIR GAP
 VSEW.m                  -0.67:  VERT SEC E/W
 VSNS.m                  -7.04:  VERT SEC N/S
 EKB .m                  43.60:  KB ELEVATION
 EDF .m                  43.60:  DF ELEVATION
 TDL .m                 957.50:  TOTAL DEPTH (LOGGER)
 VSC .                       0:  VS TO CLOSURE
 MAGU.                 1851413:  MAGUTM CHECKSUM
~Parameter Information Block
#MNEM.UNIT       Value        Description
#---------     -----------    ---------------------------
 AV  .mps                 1.50:  Ann Velocity 
 AVMX.mps                 2.00:  Max Ann Veloc 
 AZIF.deg               184.66:  Azm, Final 
 BHAT.        Rotary Steerable:  BHA Type 
 BREV.rev               300.00:  Rev Bit Total 
 BROT.°/30m              -0.50:  Build Rotating 
 BS  .in                  8.50:  Bit Size 
 BSZ .in                  8.50:  Bit Size 
 BTPL.psig              370.00:  Bit Press Loss 
 CABU.                      No:  Customer Abuse 
 CGEO.      Behruz Shahbaliyev:  Customer Geo 
 COMM.                     tºv:  Run Comments 1 
 TCS .hr                140.08:  Time Ciculation Ended 
 CV  .mps                 3.00:  Crit Velocity 
 CVMX.mps                 3.20:  Max Crit Veloc 
 DD1 .            Musa Ahmadov:  Direct Drillr 1 
 DD2 .           Hamid Ahmadov:  Direct Drillr 2 
 DDSV.               Geo-Pilot:  DD Service 
 DEFF.%                  98.40:  % Det Eff 
 DLRX.°/30m               3.40:  Dogleg Rot Max 
 DLSO.°/30m               1.45:  Dogleg Oriented 
 DLSX.°/30m               3.40:  Dogleg Str Max 
 DRET.      18.40.00 29-Aug-21:  Drill End Time 
 DRST.      21.00.00 20-Aug-21:  Drill Start Tim 
 DTIM.hr                 69.47:  Time Drilling 
 EDEP.m                5084.50:  End Depth 
 ENG1.      Artemiy Matviyanov:  Engineer 1 
 ENG2.         Almaz Almadatov:  Engineer 2 
 ETIM.      18.40.00 29-Aug-21:  End Time 
 FLOI.gpm               500.00:  Flow In 
 FLON.gpm               400.00:  Flow In Min 
 FLOS.cptm                0.00:  Fluid Loss 
 FLOX.gpm               500.00:  Flow In Max 
 DFT .        Mineral Oil Base:  Mud Type 
 HFLO.                      No:  High Flow 
 HPRE.                      No:  High Pressure 
 HTEM.                      No:  High Temp 
 HYDO.m                   1.80:  Hydro Offset 
 IFIN.deg                25.62:  Inc, Final 
 IMAX.deg                48.69:  Inc Max 
 IMIN.deg                24.01:  Inc Min 
 IMND.m                4962.57:  Inc Min Depth 
 IMXD.m                4119.01:  Inc Max Depth 
 JARR.                      No:  Jarring 
 LETM.      18.40.00 29-Aug-21:  Log End Time 
 LOST.hr                     0:  Lost Rig Time 
 LSTM.      21.00.00 20-Aug-21:  Log Start Time 
 MDCL.ppm             41500.00:  Mud Chlorides 
 MDES.     Inversion Oil/Synthetic:  Mud Desc 
 DFD .sg                  1.56:  Mud Density 
 MDMN.sg                  1.56:  Dens Mud Min 
 MDMX.sg                  1.56:  Dens Mud Max 
 MOIL.                      70:  Run Mud Oil % 
 MOWR.                   70:30:  Run Mud OWR 
 MSND.                     0.2:  Run Mud Sand % 
 MSOL.                    23.3:  Run Mud Solids% 
 DFV .spqt               78.00:  Mud Viscosity 
 MWOD.in                  6.75:  MWD Tool OD 
 MWSI.                      No:  Serv Intrp, MWD 
 OTIM.hr                218.30:  Time Operating 
 PCON.           Look Like New:  Pad Condition 
 PMAX.psia            11015.30:  Press Op, Max 
 PV  .cP                 38.00:  Mud PV 
 RUN .                     300:  Run Number 
 ROPA.m/hr               15.00:  ROP Avg 
 ROPN.m/hr                9.00:  ROP Min 
 ROPX.m/hr               17.00:  ROP Max 
 RPMA.rpm               120.00:  RPM Surface Avg 
 RPMN.rpm                90.00:  RPM Surface Min 
 RPMX.rpm               140.00:  RPM Surface Max 
 RRUN.                     300:  Rig Run Number 
 RTIM.hr                 31.53:  Time Reaming 
 SAZI.deg               331.64:  Azm, Start 
 SDEP.m                4127.00:  Start Depth 
 SIDD.                      No:  Serv Intrp, DD 
 SINC.deg                48.43:  Inc, Start 
 SPPA.psig             5830.00:  SPP Avg 
 SPPN.psig             5600.00:  SPP Min 
 SPPX.psig             5900.00:  SPP Max 
 STIM.      21.00.00 20-Aug-21:  Start Time 
 SVCS.                 DD, MWD:  Services 
 SVER.                    9.20:  Sperry Version 
 TDAT.m                 957.50:  Tot Depth Attmp 
 TDDF.                      No:  Trip for DD 
 TDLG.m                 957.50:  Tot Depth Loggd 
 TFF .                      No:  Trip for Fail 
 TQAA.f-kp               15.00:  Torque Abs Avg 
 TQAN.f-kp               12.00:  Torque Abs Min 
 TQAX.f-kp               19.00:  Torque Abs Max 
 TRRT.°/30m              -3.40:  Turn Rotating 
 MRT .                  EWR-M5:  Maximum Recorded Temperature 
 TTMX.degC              100.00:  Max Tool Temp 
 VS01.                90639251:  Virtual Str1 SN 
 VS02.                90634715:  Virtual Str2 SN 
 VS03.                90652479:  Virtual Str3 SN 
 VS04.                90642262:  Virtual Str4 SN 
 WBMN.klb                 0.00:  WOB Min 
 WITN.           Murad Guliyev:  Customer Rep 
 WITN.          Yashar Gaziyev:  Customer Rep 2 
 WOBA.klb                 9.00:  WOB Avg 
 WOBX.klb                12.00:  WOB Max 
 YP  .lhf2               30.00:  Yield Point 
~Curve Information Block
#MNEM.UNIT                 API CODE     Curve Description
#---------               -----------    ---------------------------
 TIME.HHMMSS            00 000 000 000:  GT Time & Date
 GTDEPTH.m              00 000 000 000:  GT Depth
 GTPQH.psia             00 000 000 000:  GT HR Quartz Pressure
 GTTQ.degC              00 000 000 000:  GT Quartz Temperature
 GTTN.NONE              00 000 000 000:  GT Test Number
 GTET.sec               00 000 000 000:  GT Elapsed Test Time
 GTTVD.m                00 000 000 000:  GT True Vertical Depth
#Other Information
#
#WARRANTY: Halliburton will use its best efforts to furnish customers with 
#accurate information and interpretations that are part of, and incident to, the services 
#provided.  However, Halliburton cannot and does not warrant the accuracy 
#or correctness of such information and interpretations.  Under no circumstances should any 
#such information or interpretation be relied upon as the sole basis for any drilling, 
#completion, production, or financial decision or any procedure involving any risk to the 
#safety of any drilling venture, drilling rig or its crew or any other third party.  The 
#Customer has full responsibility for all drilling, completion and production operation.  
#Halliburton makes no representations or warranties, either expressed or 
#implied, including, but not limited to, the implied warranties of merchantability or fitness 
#for a particular purpose, with respect to the services rendered.  In no event will 
#Halliburton be liable for failure to obtain any particular results or for 
#any damages, including, but not limited to, indirect, special or consequential damages, 
#resulting from the use of any information or interpretation provided by Halliburton.
#
~A           TIME           GTDEPTH  GTPQH  GTTQ  GTTN   GTET   GTTVD  
# ...
   21:26:19.866.27-Aug-2021 4641.00 1443.54 82.38 23.00 135.61 3014.10
   21:26:20.066.27-Aug-2021 4641.00 1443.50 82.38 23.00 135.81 3014.10
   21:26:20.266.27-Aug-2021 4641.00 1443.78 82.38 23.00 136.01 3014.10
   21:26:20.466.27-Aug-2021 4641.00 1443.78 82.38 23.00 136.21 3014.10
   21:26:20.666.27-Aug-2021 4641.00 1444.63 82.38 23.00 136.41 3014.10
   21:26:20.866.27-Aug-2021 4641.00 1444.79 82.38 23.00 136.61 3014.10
   21:26:21.066.27-Aug-2021 4641.00 1444.97 82.38 23.00 136.81 3014.10
   21:26:21.266.27-Aug-2021 4641.00 1445.20 82.38 23.00 137.01 3014.10
   21:26:21.466.27-Aug-2021 4641.00 1445.20 82.38 23.00 137.21 3014.10
   21:26:21.666.27-Aug-2021 4641.00 1445.57 82.38 23.00 137.41 3014.10
   21:26:21.866.27-Aug-2021 4641.00 1445.76 82.38 23.00 137.61 3014.10
   21:26:22.066.27-Aug-2021 4641.00 1445.98 82.38 23.00 137.81 3014.10
   21:26:22.266.27-Aug-2021 4641.00 1446.21 82.38 23.00 138.01 3014.10
   21:26:22.466.27-Aug-2021 4641.00 1446.21 82.38 23.00 138.21 3014.10
   21:26:22.666.27-Aug-2021 4641.00 1446.68 82.38 23.00 138.41 3014.10
   21:26:22.866.27-Aug-2021 4641.00 1446.89 82.38 23.00 138.61 3014.10
   21:26:23.066.27-Aug-2021 4641.00 1447.11 82.38 23.00 138.81 3014.10
   21:26:23.266.27-Aug-2021 4641.00 1446.77 82.38 23.00 139.01 3014.10
   21:26:23.466.27-Aug-2021 4641.00 1446.77 82.38 23.00 139.21 3014.10
   21:26:23.666.27-Aug-2021 4641.00 1448.04 82.38 23.00 139.41 3014.10
   21:26:23.866.27-Aug-2021 4641.00 1448.17 82.38 23.00 139.61 3014.10
   21:26:24.066.27-Aug-2021 4641.00 1448.36 82.38 23.00 139.81 3014.10
   21:26:24.266.27-Aug-2021 4641.00 1448.55 82.38 23.00 140.01 3014.10
   21:26:24.466.27-Aug-2021 4641.00 1448.55 82.38 23.00 140.21 3014.10
   21:26:24.666.27-Aug-2021 4641.00 1448.88 82.38 23.00 140.41 3014.10
   21:26:24.866.27-Aug-2021 4641.00 1449.04 82.38 23.00 140.61 3014.10
   21:26:25.066.27-Aug-2021 4641.00 1449.25 82.38 23.00 140.81 3014.10
   21:26:25.266.27-Aug-2021 4641.00 1449.44 82.38 23.00 141.01 3014.10
   21:26:25.466.27-Aug-2021 4641.00 1449.44 82.38 23.00 141.21 3014.10
   21:26:25.666.27-Aug-2021 4641.00 1449.89 82.38 23.00 141.41 3014.10
   21:26:25.866.27-Aug-2021 4641.00 1450.09 82.39 23.00 141.61 3014.10
   21:26:26.066.27-Aug-2021 4641.00 1450.33 82.39 23.00 141.81 3014.10
   21:26:26.266.27-Aug-2021 4641.00 1450.54 82.39 23.00 142.01 3014.10
   21:26:26.466.27-Aug-2021 4641.00 1450.54 82.39 23.00 142.21 3014.10
   21:26:26.666.27-Aug-2021 4641.00 1450.93 82.39 23.00 142.41 3014.10
   21:26:26.867.27-Aug-2021 4641.00 1451.13 82.39 23.00 142.61 3014.10
   21:26:27.067.27-Aug-2021 4641.00 1451.28 82.39 23.00 142.81 3014.10
   21:26:27.267.27-Aug-2021 4641.00 1451.44 82.39 23.00 143.01 3014.10
   21:26:27.467.27-Aug-2021 4641.00 1451.44 82.39 23.00 143.21 3014.10
   21:26:27.667.27-Aug-2021 4641.00 1451.82 82.39 23.00 143.41 3014.10
   21:26:27.867.27-Aug-2021 4641.00 1451.60 82.39 23.00 143.61 3014.10
   21:26:28.067.27-Aug-2021 4641.00 1452.58 82.39 23.00 143.81 3014.10
   21:26:28.267.27-Aug-2021 4641.00 1452.72 82.39 23.00 144.01 3014.10
   21:26:28.467.27-Aug-2021 4641.00 1452.72 82.39 23.00 144.21 3014.10
   21:26:28.667.27-Aug-2021 4641.00 1453.28 82.39 23.00 144.41 3014.10
   21:26:28.867.27-Aug-2021 4641.00 1453.54 82.39 23.00 144.61 3014.10
   21:26:29.067.27-Aug-2021 4641.00 1453.67 82.39 23.00 144.81 3014.10
   21:26:29.267.27-Aug-2021 4641.00 1453.61 82.39 23.00 145.01 3014.10
   21:26:29.467.27-Aug-2021 4641.00 1453.61 82.39 23.00 145.21 3014.10
   21:26:29.667.27-Aug-2021 4641.00 1454.46 82.39 23.00 145.41 3014.10
   21:26:29.867.27-Aug-2021 4641.00 1454.63 82.39 23.00 145.61 3014.10
   21:26:30.067.27-Aug-2021 4641.00 1454.80 82.39 23.00 145.81 3014.10
   21:26:30.267.27-Aug-2021 4641.00 1454.94 82.39 23.00 146.01 3014.10
   21:26:30.467.27-Aug-2021 4641.00 1454.94 82.39 23.00 146.21 3014.10
   21:26:30.667.27-Aug-2021 4641.00 1455.31 82.39 23.00 146.41 3014.10
   21:26:30.867.27-Aug-2021 4641.00 1455.48 82.39 23.00 146.61 3014.10
   21:26:31.067.27-Aug-2021 4641.00 1455.66 82.39 23.00 146.82 3014.10
   21:26:31.267.27-Aug-2021 4641.00 1455.85 82.39 23.00 147.02 3014.10
   21:26:31.467.27-Aug-2021 4641.00 1455.85 82.39 23.00 147.22 3014.10
   21:26:31.667.27-Aug-2021 4641.00 1456.29 82.39 23.00 147.42 3014.10
   21:26:31.867.27-Aug-2021 4641.00 1456.51 82.39 23.00 147.62 3014.10
   21:26:32.067.27-Aug-2021 4641.00 1456.71 82.39 23.00 147.82 3014.10
   21:26:32.267.27-Aug-2021 4641.00 1456.91 82.39 23.00 148.02 3014.10
   21:26:32.467.27-Aug-2021 4641.00 1456.91 82.39 23.00 148.22 3014.10
   21:26:32.667.27-Aug-2021 4641.00 1457.71 82.39 23.00 148.42 3014.10
   21:26:32.867.27-Aug-2021 4641.00 1457.75 82.39 23.00 148.62 3014.10
   21:26:33.067.27-Aug-2021 4641.00 1457.86 82.39 23.00 148.82 3014.10
   21:26:33.267.27-Aug-2021 4641.00 1458.00 82.39 23.00 149.02 3014.10
   21:26:33.467.27-Aug-2021 4641.00 1458.00 82.39 23.00 149.22 3014.10
   21:26:33.667.27-Aug-2021 4641.00 1458.31 82.39 23.00 149.42 3014.10
   21:26:33.867.27-Aug-2021 4641.00 1458.46 82.39 23.00 149.62 3014.10
   21:26:34.067.27-Aug-2021 4641.00 1458.62 82.39 23.00 149.82 3014.10
   21:26:34.267.27-Aug-2021 4641.00 1458.78 82.39 23.00 150.02 3014.10
   21:26:34.467.27-Aug-2021 4641.00 1458.78 82.39 23.00 150.22 3014.10
   21:26:34.667.27-Aug-2021 4641.00 1459.18 82.39 23.00 150.42 3014.10
   21:26:34.867.27-Aug-2021 4641.00 1459.40 82.39 23.00 150.62 3014.10
   21:26:35.067.27-Aug-2021 4641.00 1459.59 82.39 23.00 150.82 3014.10
   21:26:35.267.27-Aug-2021 4641.00 1459.80 82.39 23.00 151.02 3014.10
   21:26:35.467.27-Aug-2021 4641.00 1459.80 82.39 23.00 151.22 3014.10
   21:26:35.667.27-Aug-2021 4641.00 1459.68 82.39 23.00 151.42 3014.10
   21:26:35.867.27-Aug-2021 4641.00 1460.79 82.39 23.00 151.62 3014.10
   21:26:36.067.27-Aug-2021 4641.00 1460.98 82.39 23.00 151.82 3014.10
   21:26:36.267.27-Aug-2021 4641.00 1461.09 82.39 23.00 152.02 3014.10
   21:26:36.467.27-Aug-2021 4641.00 1461.09 82.39 23.00 152.22 3014.10
   21:26:36.668.27-Aug-2021 4641.00 1461.38 82.39 23.00 152.42 3014.10
   21:26:36.868.27-Aug-2021 4641.00 1461.52 82.39 23.00 152.62 3014.10
   21:26:37.068.27-Aug-2021 4641.00 1461.10 82.39 23.00 152.82 3014.10
   21:26:37.268.27-Aug-2021 4641.00 1461.69 82.39 23.00 153.02 3014.10
   21:26:37.468.27-Aug-2021 4641.00 1461.69 82.39 23.00 153.22 3014.10
   21:26:37.668.27-Aug-2021 4641.00 1461.97 82.39 23.00 153.42 3014.10
   21:26:37.868.27-Aug-2021 4641.00 1461.45 82.39 23.00 153.62 3014.10
   21:26:38.068.27-Aug-2021 4641.00 1462.53 82.39 23.00 153.82 3014.10
   21:26:38.268.27-Aug-2021 4641.00 1462.55 82.39 23.00 154.02 3014.10
   21:26:38.468.27-Aug-2021 4641.00 1462.55 82.39 23.00 154.22 3014.10
   21:26:38.668.27-Aug-2021 4641.00 1462.84 82.39 23.00 154.42 3014.10
   21:26:38.868.27-Aug-2021 4641.00 1462.98 82.39 23.00 154.62 3014.10
   21:26:39.068.27-Aug-2021 4641.00 1462.60 82.39 23.00 154.82 3014.10
   21:26:39.268.27-Aug-2021 4641.00 1463.53 82.39 23.00 155.02 3014.10
   21:26:39.468.27-Aug-2021 4641.00 1463.53 82.39 23.00 155.22 3014.10
   21:26:39.668.27-Aug-2021 4641.00 1463.77 82.39 23.00 155.42 3014.10
   21:26:39.868.27-Aug-2021 4641.00 1463.91 82.39 23.00 155.62 3014.10
   21:26:40.068.27-Aug-2021 4641.00 1464.11 82.39 23.00 155.82 3014.10
   21:26:40.268.27-Aug-2021 4641.00 1464.24 82.39 23.00 156.02 3014.10
   21:26:40.468.27-Aug-2021 4641.00 1464.24 82.39 23.00 156.22 3014.10
   21:26:40.668.27-Aug-2021 4641.00 1464.53 82.39 23.00 156.42 3014.10
   21:26:40.868.27-Aug-2021 4641.00 1464.70 82.39 23.00 156.62 3014.10
   21:26:41.068.27-Aug-2021 4641.00 1464.88 82.39 23.00 156.82 3014.10
   21:26:41.268.27-Aug-2021 4641.00 1465.09 82.39 23.00 157.02 3014.10
   21:26:41.468.27-Aug-2021 4641.00 1465.09 82.39 23.00 157.22 3014.10
   21:26:41.668.27-Aug-2021 4641.00 1465.47 82.39 23.00 157.42 3014.10
   21:26:41.868.27-Aug-2021 4641.00 1465.64 82.39 23.00 157.62 3014.10
   21:26:42.068.27-Aug-2021 4641.00 1465.32 82.39 23.00 157.82 3014.10
   21:26:42.268.27-Aug-2021 4641.00 1466.43 82.39 23.00 158.02 3014.10
