~Version Information
 VERS.                  2.0:   CWLS log ASCII Standard -VERSION 2.0
 WRAP.                   NO:   One line per depth step
~Well Information Block
#MNEM.UNIT     VALUE/NAME     DESCRIPTION
#---------     -----------    ---------------------------
 STRT.S             02:31:31 28-Aug-21: START TIME 02:31:31 28-Aug-21
 STOP.S             02:38:23 28-Aug-21: STOP TIME  02:38:23 28-Aug-21
 STEP.S                   0.00: STEP TIME
 NULL.                 -999.25: NULL VALUE
 DFWT.                        :  DIST FWL TEXT
 DFST.                        :  DIST FSL TEXT
 DMF .             Drill Floor:  DRILL MEAS FROM
 STIM.      20.00.00 17-Aug-21:  START TIME
 DATE.      19.00.00 29-Aug-21:  END TIME
 SPUD.               15-Aug-21:  SPUD DATE
 NREF.                    Grid:  NORTH REFERENCE
 HPTY.       Minimum Curvature:  HOLE POS TYPE
 DMOD.             Drill Model:  DRILL MOD DESC
 SVYD.                  Survey:  SURVEY DESC
 ILTD.               Lithology:  INTERP LTH DESC
 FTOP.          Formation Tops:  FORM TOPS DESC
 RIG .              East Azeri:  RIG NAME
 PDAT.          Mean Sea Level:  PERMANENT DATUM
 FLD .                     ACG:  FIELD NAME
 SON .        AZ-XX-0907180857:  JOB NUMBER
 CTRY.              Azerbaijan:  COUNTRY NAME
 WELL.                    D23x:  WELL NAME
 SRVC.     Turan Drilling and Engineering:  CONTRACTOR
 COMP.     BP Exploration (Caspian Sea) Ltd.:  COMPANY
 UWI .            /AZE00000214:  UNIQUE WELL IDENTIFIER
 API .            /AZE00000214:  API NUMBER
 MDS .        Operator Entered:  MAG DATA SOURCE
 BASE.              Azerbaijan:  LOGGING EQUIPMENT BASE LOCATION
 REGN.                   EESSA:  REGION
 PROV.                    Baku:  PROVINCE
 STAT.                    Baku:  STATE NAME
 MWDS.                    Baku:  MWD SHOP
 DOE .                     N/A:  DOE NUMBER
 DCON.         Sperry Drilling:  DIRECTNL CONTR
 UNIT.                     N/A:  LOGGING EQUIPMENT ID
 WTYP.                Deviated:  WELL TYPE
 CNTY.                        :  COUNTY
 LOC .                        :  LOCATION
 LMF .             Drill Floor:  LOG MEASURED FROM
 TVDS.m                  43.60:  TVDSS CORRECTN
 LATI.deg                40.02:  LATITUDE
 LONG.deg                51.45:  LONGITUDE
 WHNS.m                  -7.04:  WELL HEAD N/S
 WHEW.m                  -0.67:  WELL HEAD E/W
 UTMX.m              538762.90:  UTM X
 UTMY.m             4431871.34:  UTM Y
 DFWL.m                   0.00:  DISTANCE FWL
 DFSL.m                   0.00:  DISTANCE FSL
 SDEP.m                4127.00:  START DEPTH
 TDD .m                5084.50:  TOTAL DEPTH (DRILLER)
 VSDR.deg               140.47:  VERT SEC DIRECT
 GVFD.g                   1.00:  GRAVITY FIELD
 MFLD.nT              50362.00:  MAGNETIC FIELD
 MDIP.deg                59.48:  MAGNETIC DIP
 MDEC.deg                 6.47:  MAGNETIC DECL
 GRDC.deg                 0.31:  GRID CORRECTION
 AZTC.deg                 6.16:  AZM TOTAL CORR
 EPD .m                   0.00:  ELEVATION
 EGL .m                   0.00:  GROUND ELEVATION
 WDMS.m                 151.80:  WD ELEV
 APD .m                  43.60:  DEPTH ABOVE PD
 DEP .m                4092.57:  DEPTH
 AGAP.m                  43.60:  AIR GAP
 VSEW.m                  -0.67:  VERT SEC E/W
 VSNS.m                  -7.04:  VERT SEC N/S
 EKB .m                  43.60:  KB ELEVATION
 EDF .m                  43.60:  DF ELEVATION
 TDL .m                 957.50:  TOTAL DEPTH (LOGGER)
 VSC .                       0:  VS TO CLOSURE
 MAGU.                 1851413:  MAGUTM CHECKSUM
~Parameter Information Block
#MNEM.UNIT       Value        Description
#---------     -----------    ---------------------------
 AV  .mps                 1.50:  Ann Velocity 
 AVMX.mps                 2.00:  Max Ann Veloc 
 AZIF.deg               184.66:  Azm, Final 
 BHAT.        Rotary Steerable:  BHA Type 
 BREV.rev               300.00:  Rev Bit Total 
 BROT.°/30m              -0.50:  Build Rotating 
 BS  .in                  8.50:  Bit Size 
 BSZ .in                  8.50:  Bit Size 
 BTPL.psig              370.00:  Bit Press Loss 
 CABU.                      No:  Customer Abuse 
 CGEO.      Behruz Shahbaliyev:  Customer Geo 
 COMM.                     Œjp:  Run Comments 1 
 TCS .hr                140.08:  Time Ciculation Ended 
 CV  .mps                 3.00:  Crit Velocity 
 CVMX.mps                 3.20:  Max Crit Veloc 
 DD1 .            Musa Ahmadov:  Direct Drillr 1 
 DD2 .           Hamid Ahmadov:  Direct Drillr 2 
 DDSV.               Geo-Pilot:  DD Service 
 DEFF.%                  98.40:  % Det Eff 
 DLRX.°/30m               3.40:  Dogleg Rot Max 
 DLSO.°/30m               1.45:  Dogleg Oriented 
 DLSX.°/30m               3.40:  Dogleg Str Max 
 DRET.      18.40.00 29-Aug-21:  Drill End Time 
 DRST.      21.00.00 20-Aug-21:  Drill Start Tim 
 DTIM.hr                 69.47:  Time Drilling 
 EDEP.m                5084.50:  End Depth 
 ENG1.      Artemiy Matviyanov:  Engineer 1 
 ENG2.         Almaz Almadatov:  Engineer 2 
 ETIM.      18.40.00 29-Aug-21:  End Time 
 FLOI.gpm               500.00:  Flow In 
 FLON.gpm               400.00:  Flow In Min 
 FLOS.cptm                0.00:  Fluid Loss 
 FLOX.gpm               500.00:  Flow In Max 
 DFT .        Mineral Oil Base:  Mud Type 
 HFLO.                      No:  High Flow 
 HPRE.                      No:  High Pressure 
 HTEM.                      No:  High Temp 
 HYDO.m                   1.80:  Hydro Offset 
 IFIN.deg                25.62:  Inc, Final 
 IMAX.deg                48.69:  Inc Max 
 IMIN.deg                24.01:  Inc Min 
 IMND.m                4962.57:  Inc Min Depth 
 IMXD.m                4119.01:  Inc Max Depth 
 JARR.                      No:  Jarring 
 LETM.      18.40.00 29-Aug-21:  Log End Time 
 LOST.hr                     0:  Lost Rig Time 
 LSTM.      21.00.00 20-Aug-21:  Log Start Time 
 MDCL.ppm             41500.00:  Mud Chlorides 
 MDES.     Inversion Oil/Synthetic:  Mud Desc 
 DFD .sg                  1.56:  Mud Density 
 MDMN.sg                  1.56:  Dens Mud Min 
 MDMX.sg                  1.56:  Dens Mud Max 
 MOIL.                      70:  Run Mud Oil % 
 MOWR.                   70:30:  Run Mud OWR 
 MSND.                     0.2:  Run Mud Sand % 
 MSOL.                    23.3:  Run Mud Solids% 
 DFV .spqt               78.00:  Mud Viscosity 
 MWOD.in                  6.75:  MWD Tool OD 
 MWSI.                      No:  Serv Intrp, MWD 
 OTIM.hr                218.30:  Time Operating 
 PCON.           Look Like New:  Pad Condition 
 PMAX.psia            11015.30:  Press Op, Max 
 PV  .cP                 38.00:  Mud PV 
 RUN .                     300:  Run Number 
 ROPA.m/hr               15.00:  ROP Avg 
 ROPN.m/hr                9.00:  ROP Min 
 ROPX.m/hr               17.00:  ROP Max 
 RPMA.rpm               120.00:  RPM Surface Avg 
 RPMN.rpm                90.00:  RPM Surface Min 
 RPMX.rpm               140.00:  RPM Surface Max 
 RRUN.                     300:  Rig Run Number 
 RTIM.hr                 31.53:  Time Reaming 
 SAZI.deg               331.64:  Azm, Start 
 SDEP.m                4127.00:  Start Depth 
 SIDD.                      No:  Serv Intrp, DD 
 SINC.deg                48.43:  Inc, Start 
 SPPA.psig             5830.00:  SPP Avg 
 SPPN.psig             5600.00:  SPP Min 
 SPPX.psig             5900.00:  SPP Max 
 STIM.      21.00.00 20-Aug-21:  Start Time 
 SVCS.                 DD, MWD:  Services 
 SVER.                    9.20:  Sperry Version 
 TDAT.m                 957.50:  Tot Depth Attmp 
 TDDF.                      No:  Trip for DD 
 TDLG.m                 957.50:  Tot Depth Loggd 
 TFF .                      No:  Trip for Fail 
 TQAA.f-kp               15.00:  Torque Abs Avg 
 TQAN.f-kp               12.00:  Torque Abs Min 
 TQAX.f-kp               19.00:  Torque Abs Max 
 TRRT.°/30m              -3.40:  Turn Rotating 
 MRT .                  EWR-M5:  Maximum Recorded Temperature 
 TTMX.degC              100.00:  Max Tool Temp 
 VS01.                90639251:  Virtual Str1 SN 
 VS02.                90634715:  Virtual Str2 SN 
 VS03.                90652479:  Virtual Str3 SN 
 VS04.                90642262:  Virtual Str4 SN 
 WBMN.klb                 0.00:  WOB Min 
 WITN.           Murad Guliyev:  Customer Rep 
 WITN.          Yashar Gaziyev:  Customer Rep 2 
 WOBA.klb                 9.00:  WOB Avg 
 WOBX.klb                12.00:  WOB Max 
 YP  .lhf2               30.00:  Yield Point 
~Curve Information Block
#MNEM.UNIT                 API CODE     Curve Description
#---------               -----------    ---------------------------
 TIME.HHMMSS            00 000 000 000:  GT Time & Date
 GTDEPTH.m              00 000 000 000:  GT Depth
 GTPQH.psia             00 000 000 000:  GT HR Quartz Pressure
 GTTQ.degC              00 000 000 000:  GT Quartz Temperature
 GTTN.NONE              00 000 000 000:  GT Test Number
 GTET.sec               00 000 000 000:  GT Elapsed Test Time
 GTTVD.m                00 000 000 000:  GT True Vertical Depth
#Other Information
#
#WARRANTY: Halliburton will use its best efforts to furnish customers with 
#accurate information and interpretations that are part of, and incident to, the services 
#provided.  However, Halliburton cannot and does not warrant the accuracy 
#or correctness of such information and interpretations.  Under no circumstances should any 
#such information or interpretation be relied upon as the sole basis for any drilling, 
#completion, production, or financial decision or any procedure involving any risk to the 
#safety of any drilling venture, drilling rig or its crew or any other third party.  The 
#Customer has full responsibility for all drilling, completion and production operation.  
#Halliburton makes no representations or warranties, either expressed or 
#implied, including, but not limited to, the implied warranties of merchantability or fitness 
#for a particular purpose, with respect to the services rendered.  In no event will 
#Halliburton be liable for failure to obtain any particular results or for 
#any damages, including, but not limited to, indirect, special or consequential damages, 
#resulting from the use of any information or interpretation provided by Halliburton.
#
~A           TIME           GTDEPTH  GTPQH  GTTQ  GTTN   GTET   GTTVD  
# ...
   02:32:39.810.28-Aug-2021 4891.00 7780.96 80.68 28.00  67.82 3240.41
   02:32:40.010.28-Aug-2021 4891.00 7780.37 80.68 28.00  68.02 3240.41
   02:32:40.210.28-Aug-2021 4891.00 7780.37 80.68 28.00  68.22 3240.41
   02:32:40.410.28-Aug-2021 4891.00 7780.48 80.68 28.00  68.42 3240.41
   02:32:40.610.28-Aug-2021 4891.00 7784.98 80.68 28.00  68.62 3240.41
   02:32:40.810.28-Aug-2021 4891.00 7778.31 80.68 28.00  68.82 3240.41
   02:32:41.010.28-Aug-2021 4891.00 7782.00 80.68 28.00  69.02 3240.41
   02:32:41.210.28-Aug-2021 4891.00 7782.00 80.68 28.00  69.22 3240.41
   02:32:41.410.28-Aug-2021 4891.00 7780.94 80.68 28.00  69.42 3240.41
   02:32:41.610.28-Aug-2021 4891.00 7780.89 80.68 28.00  69.62 3240.41
   02:32:41.810.28-Aug-2021 4891.00 7780.62 80.68 28.00  69.82 3240.41
   02:32:42.010.28-Aug-2021 4891.00 7780.48 80.68 28.00  70.02 3240.41
   02:32:42.210.28-Aug-2021 4891.00 7780.48 80.68 28.00  70.22 3240.41
   02:32:42.410.28-Aug-2021 4891.00 7780.84 80.68 28.00  70.42 3240.41
   02:32:42.611.28-Aug-2021 4891.00 7781.27 80.68 28.00  70.62 3240.41
   02:32:42.811.28-Aug-2021 4891.00 7781.68 80.68 28.00  70.82 3240.41
   02:32:43.011.28-Aug-2021 4891.00 7781.60 80.68 28.00  71.02 3240.41
   02:32:43.211.28-Aug-2021 4891.00 7781.60 80.68 28.00  71.22 3240.41
   02:32:43.411.28-Aug-2021 4891.00 7781.75 80.68 28.00  71.42 3240.41
   02:32:43.611.28-Aug-2021 4891.00 7781.70 80.68 28.00  71.62 3240.41
   02:32:43.811.28-Aug-2021 4891.00 7786.93 80.68 28.00  71.82 3240.41
   02:32:44.011.28-Aug-2021 4891.00 7779.47 80.68 28.00  72.02 3240.41
   02:32:44.211.28-Aug-2021 4891.00 7779.47 80.68 28.00  72.22 3240.41
   02:32:44.411.28-Aug-2021 4891.00 7781.90 80.68 28.00  72.42 3240.41
   02:32:44.611.28-Aug-2021 4891.00 7782.00 80.68 28.00  72.62 3240.41
   02:32:44.811.28-Aug-2021 4891.00 7781.66 80.68 28.00  72.82 3240.41
   02:32:45.011.28-Aug-2021 4891.00 7781.52 80.68 28.00  73.02 3240.41
   02:32:45.211.28-Aug-2021 4891.00 7781.52 80.68 28.00  73.22 3240.41
   02:32:45.411.28-Aug-2021 4891.00 7781.87 80.68 28.00  73.42 3240.41
   02:32:45.611.28-Aug-2021 4891.00 7781.94 80.68 28.00  73.62 3240.41
   02:32:45.812.28-Aug-2021 4891.00 7782.42 80.68 28.00  73.82 3240.41
   02:32:46.012.28-Aug-2021 4891.00 7782.59 80.68 28.00  74.02 3240.41
   02:32:46.212.28-Aug-2021 4891.00 7782.59 80.68 28.00  74.22 3240.41
   02:32:46.412.28-Aug-2021 4891.00 7782.61 80.68 28.00  74.42 3240.41
   02:32:46.612.28-Aug-2021 4891.00 7782.58 80.68 28.00  74.62 3240.41
   02:32:46.812.28-Aug-2021 4891.00 7782.69 80.68 28.00  74.82 3240.41
   02:32:47.012.28-Aug-2021 4891.00 7782.40 80.68 28.00  75.02 3240.41
   02:32:47.212.28-Aug-2021 4891.00 7782.40 80.68 28.00  75.22 3240.41
   02:32:47.412.28-Aug-2021 4891.00 7780.00 80.68 28.00  75.42 3240.41
   02:32:47.612.28-Aug-2021 4891.00 7783.59 80.68 28.00  75.62 3240.41
   02:32:47.812.28-Aug-2021 4891.00 7782.16 80.68 28.00  75.82 3240.41
   02:32:48.012.28-Aug-2021 4891.00 7782.19 80.68 28.00  76.02 3240.41
   02:32:48.212.28-Aug-2021 4891.00 7782.19 80.68 28.00  76.22 3240.41
   02:32:48.412.28-Aug-2021 4891.00 7779.36 80.68 28.00  76.42 3240.41
   02:32:48.612.28-Aug-2021 4891.00 7783.05 80.68 28.00  76.62 3240.41
   02:32:48.813.28-Aug-2021 4891.00 7782.10 80.68 28.00  76.82 3240.41
   02:32:49.013.28-Aug-2021 4891.00 7782.28 80.68 28.00  77.02 3240.41
   02:32:49.213.28-Aug-2021 4891.00 7782.28 80.68 28.00  77.22 3240.41
   02:32:49.413.28-Aug-2021 4891.00 7785.73 80.68 28.00  77.42 3240.41
   02:32:49.613.28-Aug-2021 4891.00 7782.23 80.68 28.00  77.62 3240.41
   02:32:49.813.28-Aug-2021 4891.00 7783.93 80.68 28.00  77.82 3240.41
   02:32:50.013.28-Aug-2021 4891.00 7784.41 80.68 28.00  78.02 3240.41
   02:32:50.213.28-Aug-2021 4891.00 7784.41 80.68 28.00  78.22 3240.41
   02:32:50.413.28-Aug-2021 4891.00 7783.33 80.68 28.00  78.42 3240.41
   02:32:50.613.28-Aug-2021 4891.00 7783.38 80.68 28.00  78.62 3240.41
   02:32:50.813.28-Aug-2021 4891.00 7782.51 80.68 28.00  78.82 3240.41
   02:32:51.013.28-Aug-2021 4891.00 7782.28 80.68 28.00  79.02 3240.41
   02:32:51.213.28-Aug-2021 4891.00 7782.28 80.68 28.00  79.22 3240.41
   02:32:51.413.28-Aug-2021 4891.00 7782.61 80.68 28.00  79.43 3240.41
   02:32:51.613.28-Aug-2021 4891.00 7782.87 80.68 28.00  79.63 3240.41
   02:32:51.813.28-Aug-2021 4891.00 7782.75 80.68 28.00  79.83 3240.41
   02:32:52.014.28-Aug-2021 4891.00 7783.63 80.68 28.00  80.03 3240.41
   02:32:52.214.28-Aug-2021 4891.00 7783.63 80.68 28.00  80.23 3240.41
   02:32:52.414.28-Aug-2021 4891.00 7783.95 80.68 28.00  80.43 3240.41
   02:32:52.614.28-Aug-2021 4891.00 7783.73 80.68 28.00  80.63 3240.41
   02:32:52.814.28-Aug-2021 4891.00 7783.79 80.68 28.00  80.83 3240.41
   02:32:53.014.28-Aug-2021 4891.00 7783.53 80.68 28.00  81.03 3240.41
   02:32:53.214.28-Aug-2021 4891.00 7783.53 80.68 28.00  81.23 3240.41
   02:32:53.414.28-Aug-2021 4891.00 7786.53 80.68 28.00  81.43 3240.41
   02:32:53.614.28-Aug-2021 4891.00 7783.29 80.68 28.00  81.63 3240.41
   02:32:53.814.28-Aug-2021 4891.00 7784.75 80.68 28.00  81.83 3240.41
   02:32:54.014.28-Aug-2021 4891.00 7783.75 80.68 28.00  82.03 3240.41
   02:32:54.214.28-Aug-2021 4891.00 7783.75 80.68 28.00  82.23 3240.41
   02:32:54.414.28-Aug-2021 4891.00 7783.27 80.68 28.00  82.43 3240.41
   02:32:54.614.28-Aug-2021 4891.00 7783.48 80.68 28.00  82.63 3240.41
   02:32:54.814.28-Aug-2021 4891.00 7783.09 80.68 28.00  82.83 3240.41
   02:32:55.014.28-Aug-2021 4891.00 7783.61 80.68 28.00  83.03 3240.41
   02:32:55.215.28-Aug-2021 4891.00 7783.61 80.68 28.00  83.23 3240.41
   02:32:55.415.28-Aug-2021 4891.00 7784.24 80.68 28.00  83.43 3240.41
   02:32:55.615.28-Aug-2021 4891.00 7784.64 80.68 28.00  83.63 3240.41
   02:32:55.815.28-Aug-2021 4891.00 7784.46 80.68 28.00  83.83 3240.41
   02:32:56.015.28-Aug-2021 4891.00 7784.60 80.68 28.00  84.03 3240.41
   02:32:56.215.28-Aug-2021 4891.00 7784.60 80.68 28.00  84.23 3240.41
   02:32:56.415.28-Aug-2021 4891.00 7784.35 80.68 28.00  84.43 3240.41
   02:32:56.615.28-Aug-2021 4891.00 7784.11 80.68 28.00  84.63 3240.41
   02:32:56.815.28-Aug-2021 4891.00 7787.40 80.68 28.00  84.83 3240.41
   02:32:57.015.28-Aug-2021 4891.00 7783.89 80.68 28.00  85.03 3240.41
   02:32:57.215.28-Aug-2021 4891.00 7783.89 80.68 28.00  85.23 3240.41
   02:32:57.415.28-Aug-2021 4891.00 7784.35 80.68 28.00  85.43 3240.41
   02:32:57.615.28-Aug-2021 4891.00 7785.54 80.68 28.00  85.63 3240.41
   02:32:57.815.28-Aug-2021 4891.00 7785.64 80.68 28.00  85.83 3240.41
   02:32:58.015.28-Aug-2021 4891.00 7784.85 80.68 28.00  86.03 3240.41
   02:32:58.215.28-Aug-2021 4891.00 7784.85 80.68 28.00  86.23 3240.41
   02:32:58.416.28-Aug-2021 4891.00 7784.57 80.67 28.00  86.43 3240.41
   02:32:58.616.28-Aug-2021 4891.00 7784.60 80.68 28.00  86.63 3240.41
   02:32:58.816.28-Aug-2021 4891.00 7785.75 80.67 28.00  86.83 3240.41
   02:32:59.016.28-Aug-2021 4891.00 7786.69 80.67 28.00  87.03 3240.41
   02:32:59.216.28-Aug-2021 4891.00 7786.69 80.67 28.00  87.23 3240.41
   02:32:59.416.28-Aug-2021 4891.00 7785.40 80.67 28.00  87.43 3240.41
   02:32:59.616.28-Aug-2021 4891.00 7785.33 80.67 28.00  87.63 3240.41
   02:32:59.816.28-Aug-2021 4891.00 7784.90 80.67 28.00  87.83 3240.41
   02:33:00.016.28-Aug-2021 4891.00 7789.75 80.67 28.00  88.03 3240.41
   02:33:00.216.28-Aug-2021 4891.00 7789.75 80.67 28.00  88.23 3240.41
   02:33:00.416.28-Aug-2021 4891.00 7785.96 80.67 28.00  88.43 3240.41
   02:33:00.616.28-Aug-2021 4891.00 7784.71 80.67 28.00  88.63 3240.41
   02:33:00.816.28-Aug-2021 4891.00 7785.34 80.67 28.00  88.83 3240.41
   02:33:01.016.28-Aug-2021 4891.00 7784.89 80.67 28.00  89.03 3240.41
   02:33:01.216.28-Aug-2021 4891.00 7784.89 80.67 28.00  89.23 3240.41
   02:33:01.416.28-Aug-2021 4891.00 7784.83 80.67 28.00  89.43 3240.41
   02:33:01.617.28-Aug-2021 4891.00 7785.24 80.67 28.00  89.63 3240.41
   02:33:01.817.28-Aug-2021 4891.00 7785.23 80.67 28.00  89.83 3240.41
   02:33:02.017.28-Aug-2021 4891.00 7785.81 80.67 28.00  90.03 3240.41
   02:33:02.217.28-Aug-2021 4891.00 7785.81 80.67 28.00  90.23 3240.41
