~Version Information
 VERS.                  2.0:   CWLS log ASCII Standard -VERSION 2.0
 WRAP.                   NO:   One line per depth step
~Well Information Block
#MNEM.UNIT     VALUE/NAME     DESCRIPTION
#---------     -----------    ---------------------------
 STRT.S             07:46:52 27-Aug-21: START TIME 07:46:52 27-Aug-21
 STOP.S             07:54:09 27-Aug-21: STOP TIME  07:54:09 27-Aug-21
 STEP.S                   0.00: STEP TIME
 NULL.                 -999.25: NULL VALUE
 DFWT.                        :  DIST FWL TEXT
 DFST.                        :  DIST FSL TEXT
 DMF .             Drill Floor:  DRILL MEAS FROM
 STIM.      20.00.00 17-Aug-21:  START TIME
 DATE.      19.00.00 29-Aug-21:  END TIME
 SPUD.               15-Aug-21:  SPUD DATE
 NREF.                    Grid:  NORTH REFERENCE
 HPTY.       Minimum Curvature:  HOLE POS TYPE
 DMOD.             Drill Model:  DRILL MOD DESC
 SVYD.                  Survey:  SURVEY DESC
 ILTD.               Lithology:  INTERP LTH DESC
 FTOP.          Formation Tops:  FORM TOPS DESC
 RIG .              East Azeri:  RIG NAME
 PDAT.          Mean Sea Level:  PERMANENT DATUM
 FLD .                     ACG:  FIELD NAME
 SON .        AZ-XX-0907180857:  JOB NUMBER
 CTRY.              Azerbaijan:  COUNTRY NAME
 WELL.                    D23x:  WELL NAME
 SRVC.     Turan Drilling and Engineering:  CONTRACTOR
 COMP.     BP Exploration (Caspian Sea) Ltd.:  COMPANY
 UWI .            /AZE00000214:  UNIQUE WELL IDENTIFIER
 API .            /AZE00000214:  API NUMBER
 MDS .        Operator Entered:  MAG DATA SOURCE
 BASE.              Azerbaijan:  LOGGING EQUIPMENT BASE LOCATION
 REGN.                   EESSA:  REGION
 PROV.                    Baku:  PROVINCE
 STAT.                    Baku:  STATE NAME
 MWDS.                    Baku:  MWD SHOP
 DOE .                     N/A:  DOE NUMBER
 DCON.         Sperry Drilling:  DIRECTNL CONTR
 UNIT.                     N/A:  LOGGING EQUIPMENT ID
 WTYP.                Deviated:  WELL TYPE
 CNTY.                        :  COUNTY
 LOC .                        :  LOCATION
 LMF .             Drill Floor:  LOG MEASURED FROM
 TVDS.m                  43.60:  TVDSS CORRECTN
 LATI.deg                40.02:  LATITUDE
 LONG.deg                51.45:  LONGITUDE
 WHNS.m                  -7.04:  WELL HEAD N/S
 WHEW.m                  -0.67:  WELL HEAD E/W
 UTMX.m              538762.90:  UTM X
 UTMY.m             4431871.34:  UTM Y
 DFWL.m                   0.00:  DISTANCE FWL
 DFSL.m                   0.00:  DISTANCE FSL
 SDEP.m                4127.00:  START DEPTH
 TDD .m                5084.50:  TOTAL DEPTH (DRILLER)
 VSDR.deg               140.47:  VERT SEC DIRECT
 GVFD.g                   1.00:  GRAVITY FIELD
 MFLD.nT              50362.00:  MAGNETIC FIELD
 MDIP.deg                59.48:  MAGNETIC DIP
 MDEC.deg                 6.47:  MAGNETIC DECL
 GRDC.deg                 0.31:  GRID CORRECTION
 AZTC.deg                 6.16:  AZM TOTAL CORR
 EPD .m                   0.00:  ELEVATION
 EGL .m                   0.00:  GROUND ELEVATION
 WDMS.m                 151.80:  WD ELEV
 APD .m                  43.60:  DEPTH ABOVE PD
 DEP .m                4092.57:  DEPTH
 AGAP.m                  43.60:  AIR GAP
 VSEW.m                  -0.67:  VERT SEC E/W
 VSNS.m                  -7.04:  VERT SEC N/S
 EKB .m                  43.60:  KB ELEVATION
 EDF .m                  43.60:  DF ELEVATION
 TDL .m                 957.50:  TOTAL DEPTH (LOGGER)
 VSC .                       0:  VS TO CLOSURE
 MAGU.                 1851413:  MAGUTM CHECKSUM
~Parameter Information Block
#MNEM.UNIT       Value        Description
#---------     -----------    ---------------------------
 AV  .mps                 1.50:  Ann Velocity 
 AVMX.mps                 2.00:  Max Ann Veloc 
 AZIF.deg               184.66:  Azm, Final 
 BHAT.        Rotary Steerable:  BHA Type 
 BREV.rev               300.00:  Rev Bit Total 
 BROT.°/30m              -0.50:  Build Rotating 
 BS  .in                  8.50:  Bit Size 
 BSZ .in                  8.50:  Bit Size 
 BTPL.psig              370.00:  Bit Press Loss 
 CABU.                      No:  Customer Abuse 
 CGEO.      Behruz Shahbaliyev:  Customer Geo 
 COMM.                     T\d:  Run Comments 1 
 TCS .hr                140.08:  Time Ciculation Ended 
 CV  .mps                 3.00:  Crit Velocity 
 CVMX.mps                 3.20:  Max Crit Veloc 
 DD1 .            Musa Ahmadov:  Direct Drillr 1 
 DD2 .           Hamid Ahmadov:  Direct Drillr 2 
 DDSV.               Geo-Pilot:  DD Service 
 DEFF.%                  98.40:  % Det Eff 
 DLRX.°/30m               3.40:  Dogleg Rot Max 
 DLSO.°/30m               1.45:  Dogleg Oriented 
 DLSX.°/30m               3.40:  Dogleg Str Max 
 DRET.      18.40.00 29-Aug-21:  Drill End Time 
 DRST.      21.00.00 20-Aug-21:  Drill Start Tim 
 DTIM.hr                 69.47:  Time Drilling 
 EDEP.m                5084.50:  End Depth 
 ENG1.      Artemiy Matviyanov:  Engineer 1 
 ENG2.         Almaz Almadatov:  Engineer 2 
 ETIM.      18.40.00 29-Aug-21:  End Time 
 FLOI.gpm               500.00:  Flow In 
 FLON.gpm               400.00:  Flow In Min 
 FLOS.cptm                0.00:  Fluid Loss 
 FLOX.gpm               500.00:  Flow In Max 
 DFT .        Mineral Oil Base:  Mud Type 
 HFLO.                      No:  High Flow 
 HPRE.                      No:  High Pressure 
 HTEM.                      No:  High Temp 
 HYDO.m                   1.80:  Hydro Offset 
 IFIN.deg                25.62:  Inc, Final 
 IMAX.deg                48.69:  Inc Max 
 IMIN.deg                24.01:  Inc Min 
 IMND.m                4962.57:  Inc Min Depth 
 IMXD.m                4119.01:  Inc Max Depth 
 JARR.                      No:  Jarring 
 LETM.      18.40.00 29-Aug-21:  Log End Time 
 LOST.hr                     0:  Lost Rig Time 
 LSTM.      21.00.00 20-Aug-21:  Log Start Time 
 MDCL.ppm             41500.00:  Mud Chlorides 
 MDES.     Inversion Oil/Synthetic:  Mud Desc 
 DFD .sg                  1.56:  Mud Density 
 MDMN.sg                  1.56:  Dens Mud Min 
 MDMX.sg                  1.56:  Dens Mud Max 
 MOIL.                      70:  Run Mud Oil % 
 MOWR.                   70:30:  Run Mud OWR 
 MSND.                     0.2:  Run Mud Sand % 
 MSOL.                    23.3:  Run Mud Solids% 
 DFV .spqt               78.00:  Mud Viscosity 
 MWOD.in                  6.75:  MWD Tool OD 
 MWSI.                      No:  Serv Intrp, MWD 
 OTIM.hr                218.30:  Time Operating 
 PCON.           Look Like New:  Pad Condition 
 PMAX.psia            11015.30:  Press Op, Max 
 PV  .cP                 38.00:  Mud PV 
 RUN .                     300:  Run Number 
 ROPA.m/hr               15.00:  ROP Avg 
 ROPN.m/hr                9.00:  ROP Min 
 ROPX.m/hr               17.00:  ROP Max 
 RPMA.rpm               120.00:  RPM Surface Avg 
 RPMN.rpm                90.00:  RPM Surface Min 
 RPMX.rpm               140.00:  RPM Surface Max 
 RRUN.                     300:  Rig Run Number 
 RTIM.hr                 31.53:  Time Reaming 
 SAZI.deg               331.64:  Azm, Start 
 SDEP.m                4127.00:  Start Depth 
 SIDD.                      No:  Serv Intrp, DD 
 SINC.deg                48.43:  Inc, Start 
 SPPA.psig             5830.00:  SPP Avg 
 SPPN.psig             5600.00:  SPP Min 
 SPPX.psig             5900.00:  SPP Max 
 STIM.      21.00.00 20-Aug-21:  Start Time 
 SVCS.                 DD, MWD:  Services 
 SVER.                    9.20:  Sperry Version 
 TDAT.m                 957.50:  Tot Depth Attmp 
 TDDF.                      No:  Trip for DD 
 TDLG.m                 957.50:  Tot Depth Loggd 
 TFF .                      No:  Trip for Fail 
 TQAA.f-kp               15.00:  Torque Abs Avg 
 TQAN.f-kp               12.00:  Torque Abs Min 
 TQAX.f-kp               19.00:  Torque Abs Max 
 TRRT.°/30m              -3.40:  Turn Rotating 
 MRT .                  EWR-M5:  Maximum Recorded Temperature 
 TTMX.degC              100.00:  Max Tool Temp 
 VS01.                90639251:  Virtual Str1 SN 
 VS02.                90634715:  Virtual Str2 SN 
 VS03.                90652479:  Virtual Str3 SN 
 VS04.                90642262:  Virtual Str4 SN 
 WBMN.klb                 0.00:  WOB Min 
 WITN.           Murad Guliyev:  Customer Rep 
 WITN.          Yashar Gaziyev:  Customer Rep 2 
 WOBA.klb                 9.00:  WOB Avg 
 WOBX.klb                12.00:  WOB Max 
 YP  .lhf2               30.00:  Yield Point 
~Curve Information Block
#MNEM.UNIT                 API CODE     Curve Description
#---------               -----------    ---------------------------
 TIME.HHMMSS            00 000 000 000:  GT Time & Date
 GTDEPTH.m              00 000 000 000:  GT Depth
 GTPQH.psia             00 000 000 000:  GT HR Quartz Pressure
 GTTQ.degC              00 000 000 000:  GT Quartz Temperature
 GTTN.NONE              00 000 000 000:  GT Test Number
 GTET.sec               00 000 000 000:  GT Elapsed Test Time
 GTTVD.m                00 000 000 000:  GT True Vertical Depth
#Other Information
#
#WARRANTY: Halliburton will use its best efforts to furnish customers with 
#accurate information and interpretations that are part of, and incident to, the services 
#provided.  However, Halliburton cannot and does not warrant the accuracy 
#or correctness of such information and interpretations.  Under no circumstances should any 
#such information or interpretation be relied upon as the sole basis for any drilling, 
#completion, production, or financial decision or any procedure involving any risk to the 
#safety of any drilling venture, drilling rig or its crew or any other third party.  The 
#Customer has full responsibility for all drilling, completion and production operation.  
#Halliburton makes no representations or warranties, either expressed or 
#implied, including, but not limited to, the implied warranties of merchantability or fitness 
#for a particular purpose, with respect to the services rendered.  In no event will 
#Halliburton be liable for failure to obtain any particular results or for 
#any damages, including, but not limited to, indirect, special or consequential damages, 
#resulting from the use of any information or interpretation provided by Halliburton.
#
~A           TIME           GTDEPTH  GTPQH  GTTQ  GTTN  GTET   GTTVD  
# ...
   07:49:56.561.27-Aug-2021 5003.00 4272.61 87.37 4.00 184.03 3342.33
   07:49:56.761.27-Aug-2021 5003.00 4272.61 87.37 4.00 184.23 3342.33
   07:49:56.961.27-Aug-2021 5003.00 4272.71 87.37 4.00 184.43 3342.33
   07:49:57.161.27-Aug-2021 5003.00 4272.69 87.37 4.00 184.63 3342.33
   07:49:57.361.27-Aug-2021 5003.00 4272.68 87.37 4.00 184.83 3342.33
   07:49:57.561.27-Aug-2021 5003.00 4272.70 87.37 4.00 185.03 3342.33
   07:49:57.761.27-Aug-2021 5003.00 4272.70 87.37 4.00 185.23 3342.33
   07:49:57.961.27-Aug-2021 5003.00 4272.64 87.37 4.00 185.43 3342.33
   07:49:58.161.27-Aug-2021 5003.00 4272.71 87.37 4.00 185.63 3342.33
   07:49:58.361.27-Aug-2021 5003.00 4272.69 87.37 4.00 185.83 3342.33
   07:49:58.561.27-Aug-2021 5003.00 4272.72 87.37 4.00 186.03 3342.33
   07:49:58.761.27-Aug-2021 5003.00 4272.72 87.37 4.00 186.23 3342.33
   07:49:58.961.27-Aug-2021 5003.00 4272.72 87.37 4.00 186.43 3342.33
   07:49:59.161.27-Aug-2021 5003.00 4272.73 87.37 4.00 186.63 3342.33
   07:49:59.361.27-Aug-2021 5003.00 4272.72 87.37 4.00 186.83 3342.33
   07:49:59.561.27-Aug-2021 5003.00 4272.72 87.37 4.00 187.03 3342.33
   07:49:59.761.27-Aug-2021 5003.00 4272.72 87.37 4.00 187.23 3342.33
   07:49:59.961.27-Aug-2021 5003.00 4272.73 87.37 4.00 187.43 3342.33
   07:50:00.161.27-Aug-2021 5003.00 4272.73 87.37 4.00 187.63 3342.33
   07:50:00.361.27-Aug-2021 5003.00 4272.73 87.37 4.00 187.83 3342.33
   07:50:00.561.27-Aug-2021 5003.00 4272.72 87.37 4.00 188.03 3342.33
   07:50:00.761.27-Aug-2021 5003.00 4272.72 87.37 4.00 188.23 3342.33
   07:50:00.961.27-Aug-2021 5003.00 4272.74 87.37 4.00 188.43 3342.33
   07:50:01.161.27-Aug-2021 5003.00 4272.68 87.37 4.00 188.63 3342.33
   07:50:01.361.27-Aug-2021 5003.00 4272.73 87.37 4.00 188.83 3342.33
   07:50:01.561.27-Aug-2021 5003.00 4272.73 87.37 4.00 189.03 3342.33
   07:50:01.761.27-Aug-2021 5003.00 4272.73 87.37 4.00 189.23 3342.33
   07:50:01.961.27-Aug-2021 5003.00 4272.75 87.37 4.00 189.43 3342.33
   07:50:02.162.27-Aug-2021 5003.00 4272.73 87.37 4.00 189.63 3342.33
   07:50:02.362.27-Aug-2021 5003.00 4272.75 87.37 4.00 189.83 3342.33
   07:50:02.562.27-Aug-2021 5003.00 4272.74 87.37 4.00 190.03 3342.33
   07:50:02.762.27-Aug-2021 5003.00 4272.74 87.37 4.00 190.23 3342.33
   07:50:02.962.27-Aug-2021 5003.00 4272.75 87.37 4.00 190.43 3342.33
   07:50:03.162.27-Aug-2021 5003.00 4272.77 87.37 4.00 190.63 3342.33
   07:50:03.362.27-Aug-2021 5003.00 4272.75 87.37 4.00 190.83 3342.33
   07:50:03.562.27-Aug-2021 5003.00 4272.76 87.37 4.00 191.03 3342.33
   07:50:03.762.27-Aug-2021 5003.00 4272.76 87.37 4.00 191.23 3342.33
   07:50:03.962.27-Aug-2021 5003.00 4272.77 87.37 4.00 191.43 3342.33
   07:50:04.162.27-Aug-2021 5003.00 4272.77 87.37 4.00 191.63 3342.33
   07:50:04.362.27-Aug-2021 5003.00 4272.73 87.37 4.00 191.83 3342.33
   07:50:04.562.27-Aug-2021 5003.00 4272.75 87.37 4.00 192.03 3342.33
   07:50:04.762.27-Aug-2021 5003.00 4272.75 87.37 4.00 192.23 3342.33
   07:50:04.962.27-Aug-2021 5003.00 4272.77 87.37 4.00 192.43 3342.33
   07:50:05.162.27-Aug-2021 5003.00 4272.76 87.37 4.00 192.63 3342.33
   07:50:05.362.27-Aug-2021 5003.00 4272.77 87.37 4.00 192.83 3342.33
   07:50:05.562.27-Aug-2021 5003.00 4272.78 87.37 4.00 193.03 3342.33
   07:50:05.762.27-Aug-2021 5003.00 4272.78 87.37 4.00 193.23 3342.33
   07:50:05.962.27-Aug-2021 5003.00 4272.78 87.37 4.00 193.43 3342.33
   07:50:06.162.27-Aug-2021 5003.00 4272.79 87.37 4.00 193.63 3342.33
   07:50:06.362.27-Aug-2021 5003.00 4272.79 87.37 4.00 193.83 3342.33
   07:50:06.562.27-Aug-2021 5003.00 4272.76 87.37 4.00 194.03 3342.33
   07:50:06.762.27-Aug-2021 5003.00 4272.76 87.37 4.00 194.23 3342.33
   07:50:06.962.27-Aug-2021 5003.00 4272.77 87.37 4.00 194.43 3342.33
   07:50:07.162.27-Aug-2021 5003.00 4272.79 87.37 4.00 194.63 3342.33
   07:50:07.362.27-Aug-2021 5003.00 4272.75 87.37 4.00 194.83 3342.33
   07:50:07.562.27-Aug-2021 5003.00 4272.82 87.37 4.00 195.03 3342.33
   07:50:07.762.27-Aug-2021 5003.00 4272.82 87.37 4.00 195.23 3342.33
   07:50:07.962.27-Aug-2021 5003.00 4272.80 87.37 4.00 195.43 3342.33
   07:50:08.163.27-Aug-2021 5003.00 4272.80 87.37 4.00 195.63 3342.33
   07:50:08.363.27-Aug-2021 5003.00 4272.80 87.37 4.00 195.83 3342.33
   07:50:08.563.27-Aug-2021 5003.00 4272.80 87.37 4.00 196.03 3342.33
   07:50:08.763.27-Aug-2021 5003.00 4272.80 87.37 4.00 196.23 3342.33
   07:50:08.963.27-Aug-2021 5003.00 4272.80 87.37 4.00 196.43 3342.33
   07:50:09.163.27-Aug-2021 5003.00 4272.80 87.37 4.00 196.63 3342.33
   07:50:09.363.27-Aug-2021 5003.00 4272.81 87.37 4.00 196.83 3342.33
   07:50:09.563.27-Aug-2021 5003.00 4272.80 87.37 4.00 197.03 3342.33
   07:50:09.763.27-Aug-2021 5003.00 4272.80 87.37 4.00 197.23 3342.33
   07:50:09.963.27-Aug-2021 5003.00 4272.82 87.37 4.00 197.43 3342.33
   07:50:10.163.27-Aug-2021 5003.00 4272.81 87.37 4.00 197.63 3342.33
   07:50:10.363.27-Aug-2021 5003.00 4272.80 87.37 4.00 197.83 3342.33
   07:50:10.563.27-Aug-2021 5003.00 4272.80 87.37 4.00 198.03 3342.33
   07:50:10.763.27-Aug-2021 5003.00 4272.80 87.37 4.00 198.23 3342.33
   07:50:10.963.27-Aug-2021 5003.00 4272.80 87.37 4.00 198.43 3342.33
   07:50:11.163.27-Aug-2021 5003.00 4272.81 87.37 4.00 198.63 3342.33
   07:50:11.363.27-Aug-2021 5003.00 4272.81 87.37 4.00 198.83 3342.33
   07:50:11.563.27-Aug-2021 5003.00 4272.80 87.37 4.00 199.03 3342.33
   07:50:11.763.27-Aug-2021 5003.00 4272.80 87.37 4.00 199.23 3342.33
   07:50:11.963.27-Aug-2021 5003.00 4272.81 87.37 4.00 199.43 3342.33
   07:50:12.163.27-Aug-2021 5003.00 4272.82 87.37 4.00 199.63 3342.33
   07:50:12.363.27-Aug-2021 5003.00 4272.82 87.37 4.00 199.83 3342.33
   07:50:12.563.27-Aug-2021 5003.00 4272.82 87.37 4.00 200.03 3342.33
   07:50:12.763.27-Aug-2021 5003.00 4272.82 87.37 4.00 200.23 3342.33
   07:50:12.963.27-Aug-2021 5003.00 4272.83 87.37 4.00 200.43 3342.33
   07:50:13.163.27-Aug-2021 5003.00 4272.81 87.37 4.00 200.63 3342.33
   07:50:13.363.27-Aug-2021 5003.00 4272.82 87.37 4.00 200.83 3342.33
   07:50:13.563.27-Aug-2021 5003.00 4272.83 87.37 4.00 201.03 3342.33
   07:50:13.763.27-Aug-2021 5003.00 4272.83 87.37 4.00 201.23 3342.33
   07:50:13.963.27-Aug-2021 5003.00 4272.82 87.37 4.00 201.43 3342.33
   07:50:14.163.27-Aug-2021 5003.00 4272.80 87.37 4.00 201.63 3342.33
   07:50:14.364.27-Aug-2021 5003.00 4272.83 87.37 4.00 201.83 3342.33
   07:50:14.564.27-Aug-2021 5003.00 4272.82 87.37 4.00 202.03 3342.33
   07:50:14.764.27-Aug-2021 5003.00 4272.82 87.37 4.00 202.23 3342.33
   07:50:14.964.27-Aug-2021 5003.00 4272.81 87.37 4.00 202.43 3342.33
   07:50:15.164.27-Aug-2021 5003.00 4272.81 87.37 4.00 202.63 3342.33
   07:50:15.364.27-Aug-2021 5003.00 4272.78 87.37 4.00 202.83 3342.33
   07:50:15.564.27-Aug-2021 5003.00 4272.81 87.37 4.00 203.03 3342.33
   07:50:15.764.27-Aug-2021 5003.00 4272.81 87.37 4.00 203.23 3342.33
   07:50:15.964.27-Aug-2021 5003.00 4272.78 87.37 4.00 203.43 3342.33
   07:50:16.164.27-Aug-2021 5003.00 4272.82 87.37 4.00 203.63 3342.33
   07:50:16.364.27-Aug-2021 5003.00 4272.82 87.37 4.00 203.83 3342.33
   07:50:16.564.27-Aug-2021 5003.00 4272.84 87.37 4.00 204.03 3342.33
   07:50:16.764.27-Aug-2021 5003.00 4272.84 87.37 4.00 204.23 3342.33
   07:50:16.964.27-Aug-2021 5003.00 4272.81 87.37 4.00 204.43 3342.33
   07:50:17.164.27-Aug-2021 5003.00 4272.82 87.37 4.00 204.63 3342.33
   07:50:17.364.27-Aug-2021 5003.00 4272.82 87.37 4.00 204.83 3342.33
   07:50:17.564.27-Aug-2021 5003.00 4272.82 87.37 4.00 205.03 3342.33
   07:50:17.764.27-Aug-2021 5003.00 4272.82 87.37 4.00 205.23 3342.33
   07:50:17.964.27-Aug-2021 5003.00 4272.83 87.37 4.00 205.43 3342.33
   07:50:18.164.27-Aug-2021 5003.00 4272.83 87.37 4.00 205.63 3342.33
   07:50:18.364.27-Aug-2021 5003.00 4272.83 87.37 4.00 205.83 3342.33
   07:50:18.564.27-Aug-2021 5003.00 4272.84 87.37 4.00 206.03 3342.33
   07:50:18.764.27-Aug-2021 5003.00 4272.84 87.37 4.00 206.23 3342.33
   07:50:18.964.27-Aug-2021 5003.00 4272.84 87.37 4.00 206.43 3342.33
   07:50:19.164.27-Aug-2021 5003.00 4272.84 87.37 4.00 206.63 3342.33
   07:50:19.364.27-Aug-2021 5003.00 4272.84 87.37 4.00 206.83 3342.33
