~Version Information
 VERS.                  2.0:   CWLS log ASCII Standard -VERSION 2.0
 WRAP.                   NO:   One line per depth step
~Well Information Block
#MNEM.UNIT     VALUE/NAME     DESCRIPTION
#---------     -----------    ---------------------------
 STRT.S             13:07:39 27-Aug-21: START TIME 13:07:39 27-Aug-21
 STOP.S             13:14:54 27-Aug-21: STOP TIME  13:14:54 27-Aug-21
 STEP.S                   0.00: STEP TIME
 NULL.                 -999.25: NULL VALUE
 DFWT.                        :  DIST FWL TEXT
 DFST.                        :  DIST FSL TEXT
 DMF .             Drill Floor:  DRILL MEAS FROM
 STIM.      20.00.00 17-Aug-21:  START TIME
 DATE.      19.00.00 29-Aug-21:  END TIME
 SPUD.               15-Aug-21:  SPUD DATE
 NREF.                    Grid:  NORTH REFERENCE
 HPTY.       Minimum Curvature:  HOLE POS TYPE
 DMOD.             Drill Model:  DRILL MOD DESC
 SVYD.                  Survey:  SURVEY DESC
 ILTD.               Lithology:  INTERP LTH DESC
 FTOP.          Formation Tops:  FORM TOPS DESC
 RIG .              East Azeri:  RIG NAME
 PDAT.          Mean Sea Level:  PERMANENT DATUM
 FLD .                     ACG:  FIELD NAME
 SON .        AZ-XX-0907180857:  JOB NUMBER
 CTRY.              Azerbaijan:  COUNTRY NAME
 WELL.                    D23x:  WELL NAME
 SRVC.     Turan Drilling and Engineering:  CONTRACTOR
 COMP.     BP Exploration (Caspian Sea) Ltd.:  COMPANY
 UWI .            /AZE00000214:  UNIQUE WELL IDENTIFIER
 API .            /AZE00000214:  API NUMBER
 MDS .        Operator Entered:  MAG DATA SOURCE
 BASE.              Azerbaijan:  LOGGING EQUIPMENT BASE LOCATION
 REGN.                   EESSA:  REGION
 PROV.                    Baku:  PROVINCE
 STAT.                    Baku:  STATE NAME
 MWDS.                    Baku:  MWD SHOP
 DOE .                     N/A:  DOE NUMBER
 DCON.         Sperry Drilling:  DIRECTNL CONTR
 UNIT.                     N/A:  LOGGING EQUIPMENT ID
 WTYP.                Deviated:  WELL TYPE
 CNTY.                        :  COUNTY
 LOC .                        :  LOCATION
 LMF .             Drill Floor:  LOG MEASURED FROM
 TVDS.m                  43.60:  TVDSS CORRECTN
 LATI.deg                40.02:  LATITUDE
 LONG.deg                51.45:  LONGITUDE
 WHNS.m                  -7.04:  WELL HEAD N/S
 WHEW.m                  -0.67:  WELL HEAD E/W
 UTMX.m              538762.90:  UTM X
 UTMY.m             4431871.34:  UTM Y
 DFWL.m                   0.00:  DISTANCE FWL
 DFSL.m                   0.00:  DISTANCE FSL
 SDEP.m                4127.00:  START DEPTH
 TDD .m                5084.50:  TOTAL DEPTH (DRILLER)
 VSDR.deg               140.47:  VERT SEC DIRECT
 GVFD.g                   1.00:  GRAVITY FIELD
 MFLD.nT              50362.00:  MAGNETIC FIELD
 MDIP.deg                59.48:  MAGNETIC DIP
 MDEC.deg                 6.47:  MAGNETIC DECL
 GRDC.deg                 0.31:  GRID CORRECTION
 AZTC.deg                 6.16:  AZM TOTAL CORR
 EPD .m                   0.00:  ELEVATION
 EGL .m                   0.00:  GROUND ELEVATION
 WDMS.m                 151.80:  WD ELEV
 APD .m                  43.60:  DEPTH ABOVE PD
 DEP .m                4092.57:  DEPTH
 AGAP.m                  43.60:  AIR GAP
 VSEW.m                  -0.67:  VERT SEC E/W
 VSNS.m                  -7.04:  VERT SEC N/S
 EKB .m                  43.60:  KB ELEVATION
 EDF .m                  43.60:  DF ELEVATION
 TDL .m                 957.50:  TOTAL DEPTH (LOGGER)
 VSC .                       0:  VS TO CLOSURE
 MAGU.                 1851413:  MAGUTM CHECKSUM
~Parameter Information Block
#MNEM.UNIT       Value        Description
#---------     -----------    ---------------------------
 AV  .mps                 1.50:  Ann Velocity 
 AVMX.mps                 2.00:  Max Ann Veloc 
 AZIF.deg               184.66:  Azm, Final 
 BHAT.        Rotary Steerable:  BHA Type 
 BREV.rev               300.00:  Rev Bit Total 
 BROT.°/30m              -0.50:  Build Rotating 
 BS  .in                  8.50:  Bit Size 
 BSZ .in                  8.50:  Bit Size 
 BTPL.psig              370.00:  Bit Press Loss 
 CABU.                      No:  Customer Abuse 
 CGEO.      Behruz Shahbaliyev:  Customer Geo 
 COMM.                     ¤R:  Run Comments 1 
 TCS .hr                140.08:  Time Ciculation Ended 
 CV  .mps                 3.00:  Crit Velocity 
 CVMX.mps                 3.20:  Max Crit Veloc 
 DD1 .            Musa Ahmadov:  Direct Drillr 1 
 DD2 .           Hamid Ahmadov:  Direct Drillr 2 
 DDSV.               Geo-Pilot:  DD Service 
 DEFF.%                  98.40:  % Det Eff 
 DLRX.°/30m               3.40:  Dogleg Rot Max 
 DLSO.°/30m               1.45:  Dogleg Oriented 
 DLSX.°/30m               3.40:  Dogleg Str Max 
 DRET.      18.40.00 29-Aug-21:  Drill End Time 
 DRST.      21.00.00 20-Aug-21:  Drill Start Tim 
 DTIM.hr                 69.47:  Time Drilling 
 EDEP.m                5084.50:  End Depth 
 ENG1.      Artemiy Matviyanov:  Engineer 1 
 ENG2.         Almaz Almadatov:  Engineer 2 
 ETIM.      18.40.00 29-Aug-21:  End Time 
 FLOI.gpm               500.00:  Flow In 
 FLON.gpm               400.00:  Flow In Min 
 FLOS.cptm                0.00:  Fluid Loss 
 FLOX.gpm               500.00:  Flow In Max 
 DFT .        Mineral Oil Base:  Mud Type 
 HFLO.                      No:  High Flow 
 HPRE.                      No:  High Pressure 
 HTEM.                      No:  High Temp 
 HYDO.m                   1.80:  Hydro Offset 
 IFIN.deg                25.62:  Inc, Final 
 IMAX.deg                48.69:  Inc Max 
 IMIN.deg                24.01:  Inc Min 
 IMND.m                4962.57:  Inc Min Depth 
 IMXD.m                4119.01:  Inc Max Depth 
 JARR.                      No:  Jarring 
 LETM.      18.40.00 29-Aug-21:  Log End Time 
 LOST.hr                     0:  Lost Rig Time 
 LSTM.      21.00.00 20-Aug-21:  Log Start Time 
 MDCL.ppm             41500.00:  Mud Chlorides 
 MDES.     Inversion Oil/Synthetic:  Mud Desc 
 DFD .sg                  1.56:  Mud Density 
 MDMN.sg                  1.56:  Dens Mud Min 
 MDMX.sg                  1.56:  Dens Mud Max 
 MOIL.                      70:  Run Mud Oil % 
 MOWR.                   70:30:  Run Mud OWR 
 MSND.                     0.2:  Run Mud Sand % 
 MSOL.                    23.3:  Run Mud Solids% 
 DFV .spqt               78.00:  Mud Viscosity 
 MWOD.in                  6.75:  MWD Tool OD 
 MWSI.                      No:  Serv Intrp, MWD 
 OTIM.hr                218.30:  Time Operating 
 PCON.           Look Like New:  Pad Condition 
 PMAX.psia            11015.30:  Press Op, Max 
 PV  .cP                 38.00:  Mud PV 
 RUN .                     300:  Run Number 
 ROPA.m/hr               15.00:  ROP Avg 
 ROPN.m/hr                9.00:  ROP Min 
 ROPX.m/hr               17.00:  ROP Max 
 RPMA.rpm               120.00:  RPM Surface Avg 
 RPMN.rpm                90.00:  RPM Surface Min 
 RPMX.rpm               140.00:  RPM Surface Max 
 RRUN.                     300:  Rig Run Number 
 RTIM.hr                 31.53:  Time Reaming 
 SAZI.deg               331.64:  Azm, Start 
 SDEP.m                4127.00:  Start Depth 
 SIDD.                      No:  Serv Intrp, DD 
 SINC.deg                48.43:  Inc, Start 
 SPPA.psig             5830.00:  SPP Avg 
 SPPN.psig             5600.00:  SPP Min 
 SPPX.psig             5900.00:  SPP Max 
 STIM.      21.00.00 20-Aug-21:  Start Time 
 SVCS.                 DD, MWD:  Services 
 SVER.                    9.20:  Sperry Version 
 TDAT.m                 957.50:  Tot Depth Attmp 
 TDDF.                      No:  Trip for DD 
 TDLG.m                 957.50:  Tot Depth Loggd 
 TFF .                      No:  Trip for Fail 
 TQAA.f-kp               15.00:  Torque Abs Avg 
 TQAN.f-kp               12.00:  Torque Abs Min 
 TQAX.f-kp               19.00:  Torque Abs Max 
 TRRT.°/30m              -3.40:  Turn Rotating 
 MRT .                  EWR-M5:  Maximum Recorded Temperature 
 TTMX.degC              100.00:  Max Tool Temp 
 VS01.                90639251:  Virtual Str1 SN 
 VS02.                90634715:  Virtual Str2 SN 
 VS03.                90652479:  Virtual Str3 SN 
 VS04.                90642262:  Virtual Str4 SN 
 WBMN.klb                 0.00:  WOB Min 
 WITN.           Murad Guliyev:  Customer Rep 
 WITN.          Yashar Gaziyev:  Customer Rep 2 
 WOBA.klb                 9.00:  WOB Avg 
 WOBX.klb                12.00:  WOB Max 
 YP  .lhf2               30.00:  Yield Point 
~Curve Information Block
#MNEM.UNIT                 API CODE     Curve Description
#---------               -----------    ---------------------------
 TIME.HHMMSS            00 000 000 000:  GT Time & Date
 GTDEPTH.m              00 000 000 000:  GT Depth
 GTPQH.psia             00 000 000 000:  GT HR Quartz Pressure
 GTTQ.degC              00 000 000 000:  GT Quartz Temperature
 GTTN.NONE              00 000 000 000:  GT Test Number
 GTET.sec               00 000 000 000:  GT Elapsed Test Time
 GTTVD.m                00 000 000 000:  GT True Vertical Depth
#Other Information
#
#WARRANTY: Halliburton will use its best efforts to furnish customers with 
#accurate information and interpretations that are part of, and incident to, the services 
#provided.  However, Halliburton cannot and does not warrant the accuracy 
#or correctness of such information and interpretations.  Under no circumstances should any 
#such information or interpretation be relied upon as the sole basis for any drilling, 
#completion, production, or financial decision or any procedure involving any risk to the 
#safety of any drilling venture, drilling rig or its crew or any other third party.  The 
#Customer has full responsibility for all drilling, completion and production operation.  
#Halliburton makes no representations or warranties, either expressed or 
#implied, including, but not limited to, the implied warranties of merchantability or fitness 
#for a particular purpose, with respect to the services rendered.  In no event will 
#Halliburton be liable for failure to obtain any particular results or for 
#any damages, including, but not limited to, indirect, special or consequential damages, 
#resulting from the use of any information or interpretation provided by Halliburton.
#
~A           TIME           GTDEPTH  GTPQH  GTTQ  GTTN   GTET   GTTVD  
# ...
   13:13:41.899.27-Aug-2021 4901.50 5051.39 84.90 13.00 361.97 3249.95
   13:13:42.099.27-Aug-2021 4901.50 5051.38 84.90 13.00 362.17 3249.95
   13:13:42.299.27-Aug-2021 4901.50 5051.38 84.90 13.00 362.37 3249.95
   13:13:42.500.27-Aug-2021 4901.50 5051.38 84.90 13.00 362.57 3249.95
   13:13:42.700.27-Aug-2021 4901.50 5051.38 84.90 13.00 362.77 3249.95
   13:13:42.900.27-Aug-2021 4901.50 5051.37 84.90 13.00 362.97 3249.95
   13:13:43.100.27-Aug-2021 4901.50 5051.37 84.90 13.00 363.17 3249.95
   13:13:43.300.27-Aug-2021 4901.50 5051.37 84.90 13.00 363.37 3249.95
   13:13:43.501.27-Aug-2021 4901.50 5051.37 84.90 13.00 363.57 3249.95
   13:13:43.701.27-Aug-2021 4901.50 5051.36 84.90 13.00 363.77 3249.95
   13:13:43.901.27-Aug-2021 4901.50 5051.37 84.90 13.00 363.97 3249.95
   13:13:44.101.27-Aug-2021 4901.50 5051.36 84.90 13.00 364.17 3249.95
   13:13:44.302.27-Aug-2021 4901.50 5051.43 84.90 13.00 364.37 3249.95
   13:13:44.502.27-Aug-2021 4901.50 5051.43 84.90 13.00 364.57 3249.95
   13:13:44.702.27-Aug-2021 4901.50 5051.39 84.90 13.00 364.77 3249.95
   13:13:44.902.27-Aug-2021 4901.50 5051.38 84.90 13.00 364.97 3249.95
   13:13:45.102.27-Aug-2021 4901.50 5051.38 84.90 13.00 365.17 3249.95
   13:13:45.303.27-Aug-2021 4901.50 5051.38 84.90 13.00 365.37 3249.95
   13:13:45.503.27-Aug-2021 4901.50 5051.38 84.90 13.00 365.57 3249.95
   13:13:45.703.27-Aug-2021 4901.50 5051.37 84.90 13.00 365.77 3249.95
   13:13:45.903.27-Aug-2021 4901.50 5051.38 84.90 13.00 365.97 3249.95
   13:13:46.103.27-Aug-2021 4901.50 5051.37 84.90 13.00 366.17 3249.95
   13:13:46.304.27-Aug-2021 4901.50 5051.36 84.90 13.00 366.37 3249.95
   13:13:46.504.27-Aug-2021 4901.50 5051.36 84.90 13.00 366.57 3249.95
   13:13:46.704.27-Aug-2021 4901.50 5051.35 84.90 13.00 366.77 3249.95
   13:13:46.904.27-Aug-2021 4901.50 5051.37 84.90 13.00 366.97 3249.95
   13:13:47.104.27-Aug-2021 4901.50 5051.35 84.90 13.00 367.17 3249.95
   13:13:47.305.27-Aug-2021 4901.50 5051.30 84.90 13.00 367.37 3249.95
   13:13:47.505.27-Aug-2021 4901.50 5051.30 84.90 13.00 367.57 3249.95
   13:13:47.705.27-Aug-2021 4901.50 5051.36 84.90 13.00 367.77 3249.95
   13:13:47.905.27-Aug-2021 4901.50 5051.38 84.90 13.00 367.97 3249.95
   13:13:48.105.27-Aug-2021 4901.50 5051.37 84.90 13.00 368.17 3249.95
   13:13:48.306.27-Aug-2021 4901.50 5051.38 84.90 13.00 368.37 3249.95
   13:13:48.506.27-Aug-2021 4901.50 5051.38 84.90 13.00 368.57 3249.95
   13:13:48.706.27-Aug-2021 4901.50 5051.36 84.90 13.00 368.78 3249.95
   13:13:48.906.27-Aug-2021 4901.50 5051.36 84.90 13.00 368.98 3249.95
   13:13:49.106.27-Aug-2021 4901.50 5051.42 84.90 13.00 369.18 3249.95
   13:13:49.307.27-Aug-2021 4901.50 5051.38 84.90 13.00 369.38 3249.95
   13:13:49.507.27-Aug-2021 4901.50 5051.38 84.90 13.00 369.58 3249.95
   13:13:49.707.27-Aug-2021 4901.50 5051.33 84.90 13.00 369.78 3249.95
   13:13:49.907.27-Aug-2021 4901.50 5051.45 84.90 13.00 369.98 3249.95
   13:13:50.107.27-Aug-2021 4901.50 5051.38 84.90 13.00 370.18 3249.95
   13:13:50.308.27-Aug-2021 4901.50 5051.38 84.90 13.00 370.38 3249.95
   13:13:50.508.27-Aug-2021 4901.50 5051.38 84.90 13.00 370.58 3249.95
   13:13:50.708.27-Aug-2021 4901.50 5051.40 84.90 13.00 370.78 3249.95
   13:13:50.908.27-Aug-2021 4901.50 5051.34 84.90 13.00 370.98 3249.95
   13:13:51.108.27-Aug-2021 4901.50 5051.44 84.90 13.00 371.18 3249.95
   13:13:51.309.27-Aug-2021 4901.50 5051.38 84.90 13.00 371.38 3249.95
   13:13:51.509.27-Aug-2021 4901.50 5051.38 84.90 13.00 371.58 3249.95
   13:13:51.709.27-Aug-2021 4901.50 5051.39 84.90 13.00 371.78 3249.95
   13:13:51.909.27-Aug-2021 4901.50 5051.39 84.90 13.00 371.98 3249.95
   13:13:52.109.27-Aug-2021 4901.50 5051.39 84.90 13.00 372.18 3249.95
   13:13:52.310.27-Aug-2021 4901.50 5051.37 84.90 13.00 372.38 3249.95
   13:13:52.510.27-Aug-2021 4901.50 5051.37 84.90 13.00 372.58 3249.95
   13:13:52.710.27-Aug-2021 4901.50 5051.38 84.90 13.00 372.78 3249.95
   13:13:52.910.27-Aug-2021 4901.50 5051.37 84.90 13.00 372.98 3249.95
   13:13:53.110.27-Aug-2021 4901.50 5051.37 84.90 13.00 373.18 3249.95
   13:13:53.311.27-Aug-2021 4901.50 5051.37 84.90 13.00 373.38 3249.95
   13:13:53.511.27-Aug-2021 4901.50 5051.37 84.90 13.00 373.58 3249.95
   13:13:53.711.27-Aug-2021 4901.50 5051.36 84.90 13.00 373.78 3249.95
   13:13:53.911.27-Aug-2021 4901.50 5051.31 84.90 13.00 373.98 3249.95
   13:13:54.111.27-Aug-2021 4901.50 5051.46 84.90 13.00 374.18 3249.95
   13:13:54.312.27-Aug-2021 4901.50 5051.38 84.90 13.00 374.38 3249.95
   13:13:54.512.27-Aug-2021 4901.50 5051.38 84.90 13.00 374.58 3249.95
   13:13:54.712.27-Aug-2021 4901.50 5051.37 84.90 13.00 374.78 3249.95
   13:13:54.912.27-Aug-2021 4901.50 5051.38 84.90 13.00 374.98 3249.95
   13:13:55.112.27-Aug-2021 4901.50 5051.37 84.90 13.00 375.18 3249.95
   13:13:55.313.27-Aug-2021 4901.50 5051.37 84.90 13.00 375.38 3249.95
   13:13:55.513.27-Aug-2021 4901.50 5051.37 84.90 13.00 375.58 3249.95
   13:13:55.713.27-Aug-2021 4901.50 5051.37 84.90 13.00 375.78 3249.95
   13:13:55.913.27-Aug-2021 4901.50 5051.37 84.90 13.00 375.98 3249.95
   13:13:56.114.27-Aug-2021 4901.50 5051.37 84.90 13.00 376.18 3249.95
   13:13:56.314.27-Aug-2021 4901.50 5051.37 84.90 13.00 376.38 3249.95
   13:13:56.514.27-Aug-2021 4901.50 5051.37 84.90 13.00 376.58 3249.95
   13:13:56.714.27-Aug-2021 4901.50 5051.35 84.90 13.00 376.78 3249.95
   13:13:56.914.27-Aug-2021 4901.50 5051.35 84.90 13.00 376.98 3249.95
   13:13:57.115.27-Aug-2021 4901.50 5051.36 84.90 13.00 377.18 3249.95
   13:13:57.315.27-Aug-2021 4901.50 5051.34 84.90 13.00 377.38 3249.95
   13:13:57.515.27-Aug-2021 4901.50 5051.34 84.90 13.00 377.58 3249.95
   13:13:57.715.27-Aug-2021 4901.50 5051.40 84.90 13.00 377.78 3249.95
   13:13:57.915.27-Aug-2021 4901.50 5065.52 84.90 13.00 377.98 3249.95
   13:13:58.116.27-Aug-2021 4901.50 5118.52 84.90 13.00 378.18 3249.95
   13:13:58.316.27-Aug-2021 4901.50 5187.07 84.90 13.00 378.38 3249.95
   13:13:58.516.27-Aug-2021 4901.50 5187.07 84.90 13.00 378.59 3249.95
   13:13:58.716.27-Aug-2021 4901.50 7765.62 84.90 13.00 378.79 3249.95
   13:13:58.916.27-Aug-2021 4901.50 7762.20 84.90 13.00 378.99 3249.95
   13:13:59.117.27-Aug-2021 4901.50 7763.09 84.90 13.00 379.19 3249.95
   13:13:59.317.27-Aug-2021 4901.50 7762.26 84.90 13.00 379.39 3249.95
   13:13:59.517.27-Aug-2021 4901.50 7762.26 84.90 13.00 379.59 3249.95
   13:13:59.717.27-Aug-2021 4901.50 7768.41 84.90 13.00 379.79 3249.95
   13:13:59.917.27-Aug-2021 4901.50 7759.47 84.90 13.00 379.99 3249.95
   13:14:00.118.27-Aug-2021 4901.50 7764.33 84.91 13.00 380.19 3249.95
   13:14:00.318.27-Aug-2021 4901.50 7762.99 84.91 13.00 380.39 3249.95
   13:14:00.518.27-Aug-2021 4901.50 7762.99 84.91 13.00 380.59 3249.95
   13:14:00.718.27-Aug-2021 4901.50 7767.00 84.91 13.00 380.79 3249.95
   13:14:00.918.27-Aug-2021 4901.50 7764.34 84.91 13.00 380.99 3249.95
   13:14:01.119.27-Aug-2021 4901.50 7766.32 84.91 13.00 381.19 3249.95
   13:14:01.319.27-Aug-2021 4901.50 7765.44 84.92 13.00 381.39 3249.95
   13:14:01.519.27-Aug-2021 4901.50 7765.44 84.92 13.00 381.59 3249.95
   13:14:01.719.27-Aug-2021 4901.50 7765.73 84.92 13.00 381.79 3249.95
   13:14:01.919.27-Aug-2021 4901.50 7765.88 84.92 13.00 381.99 3249.95
   13:14:02.120.27-Aug-2021 4901.50 7766.37 84.92 13.00 382.19 3249.95
   13:14:02.320.27-Aug-2021 4901.50 7766.08 84.93 13.00 382.39 3249.95
   13:14:02.520.27-Aug-2021 4901.50 7766.08 84.93 13.00 382.59 3249.95
   13:14:02.720.27-Aug-2021 4901.50 7766.88 84.93 13.00 382.79 3249.95
   13:14:02.920.27-Aug-2021 4901.50 7766.85 84.93 13.00 382.99 3249.95
   13:14:03.121.27-Aug-2021 4901.50 7767.10 84.93 13.00 383.19 3249.95
   13:14:03.321.27-Aug-2021 4901.50 7766.97 84.94 13.00 383.39 3249.95
   13:14:03.521.27-Aug-2021 4901.50 7766.97 84.94 13.00 383.59 3249.95
   13:14:03.721.27-Aug-2021 4901.50 7766.87 84.94 13.00 383.79 3249.95
   13:14:03.921.27-Aug-2021 4901.50 7771.45 84.94 13.00 383.99 3249.95
   13:14:04.122.27-Aug-2021 4901.50 7766.43 84.94 13.00 384.19 3249.95
   13:14:04.322.27-Aug-2021 4901.50 7768.96 84.94 13.00 384.39 3249.95
