~Version Information
 VERS.                  2.0:   CWLS log ASCII Standard -VERSION 2.0
 WRAP.                   NO:   One line per depth step
~Well Information Block
#MNEM.UNIT     VALUE/NAME     DESCRIPTION
#---------     -----------    ---------------------------
 STRT.S             04:10:22 28-Aug-21: START TIME 04:10:22 28-Aug-21
 STOP.S             04:17:14 28-Aug-21: STOP TIME  04:17:14 28-Aug-21
 STEP.S                   0.00: STEP TIME
 NULL.                 -999.25: NULL VALUE
 DFWT.                        :  DIST FWL TEXT
 DFST.                        :  DIST FSL TEXT
 DMF .             Drill Floor:  DRILL MEAS FROM
 STIM.      20.00.00 17-Aug-21:  START TIME
 DATE.      19.00.00 29-Aug-21:  END TIME
 SPUD.               15-Aug-21:  SPUD DATE
 NREF.                    Grid:  NORTH REFERENCE
 HPTY.       Minimum Curvature:  HOLE POS TYPE
 DMOD.             Drill Model:  DRILL MOD DESC
 SVYD.                  Survey:  SURVEY DESC
 ILTD.               Lithology:  INTERP LTH DESC
 FTOP.          Formation Tops:  FORM TOPS DESC
 RIG .              East Azeri:  RIG NAME
 PDAT.          Mean Sea Level:  PERMANENT DATUM
 FLD .                     ACG:  FIELD NAME
 SON .        AZ-XX-0907180857:  JOB NUMBER
 CTRY.              Azerbaijan:  COUNTRY NAME
 WELL.                    D23x:  WELL NAME
 SRVC.     Turan Drilling and Engineering:  CONTRACTOR
 COMP.     BP Exploration (Caspian Sea) Ltd.:  COMPANY
 UWI .            /AZE00000214:  UNIQUE WELL IDENTIFIER
 API .            /AZE00000214:  API NUMBER
 MDS .        Operator Entered:  MAG DATA SOURCE
 BASE.              Azerbaijan:  LOGGING EQUIPMENT BASE LOCATION
 REGN.                   EESSA:  REGION
 PROV.                    Baku:  PROVINCE
 STAT.                    Baku:  STATE NAME
 MWDS.                    Baku:  MWD SHOP
 DOE .                     N/A:  DOE NUMBER
 DCON.         Sperry Drilling:  DIRECTNL CONTR
 UNIT.                     N/A:  LOGGING EQUIPMENT ID
 WTYP.                Deviated:  WELL TYPE
 CNTY.                        :  COUNTY
 LOC .                        :  LOCATION
 LMF .             Drill Floor:  LOG MEASURED FROM
 TVDS.m                  43.60:  TVDSS CORRECTN
 LATI.deg                40.02:  LATITUDE
 LONG.deg                51.45:  LONGITUDE
 WHNS.m                  -7.04:  WELL HEAD N/S
 WHEW.m                  -0.67:  WELL HEAD E/W
 UTMX.m              538762.90:  UTM X
 UTMY.m             4431871.34:  UTM Y
 DFWL.m                   0.00:  DISTANCE FWL
 DFSL.m                   0.00:  DISTANCE FSL
 SDEP.m                4127.00:  START DEPTH
 TDD .m                5084.50:  TOTAL DEPTH (DRILLER)
 VSDR.deg               140.47:  VERT SEC DIRECT
 GVFD.g                   1.00:  GRAVITY FIELD
 MFLD.nT              50362.00:  MAGNETIC FIELD
 MDIP.deg                59.48:  MAGNETIC DIP
 MDEC.deg                 6.47:  MAGNETIC DECL
 GRDC.deg                 0.31:  GRID CORRECTION
 AZTC.deg                 6.16:  AZM TOTAL CORR
 EPD .m                   0.00:  ELEVATION
 EGL .m                   0.00:  GROUND ELEVATION
 WDMS.m                 151.80:  WD ELEV
 APD .m                  43.60:  DEPTH ABOVE PD
 DEP .m                4092.57:  DEPTH
 AGAP.m                  43.60:  AIR GAP
 VSEW.m                  -0.67:  VERT SEC E/W
 VSNS.m                  -7.04:  VERT SEC N/S
 EKB .m                  43.60:  KB ELEVATION
 EDF .m                  43.60:  DF ELEVATION
 TDL .m                 957.50:  TOTAL DEPTH (LOGGER)
 VSC .                       0:  VS TO CLOSURE
 MAGU.                 1851413:  MAGUTM CHECKSUM
~Parameter Information Block
#MNEM.UNIT       Value        Description
#---------     -----------    ---------------------------
 AV  .mps                 1.50:  Ann Velocity 
 AVMX.mps                 2.00:  Max Ann Veloc 
 AZIF.deg               184.66:  Azm, Final 
 BHAT.        Rotary Steerable:  BHA Type 
 BREV.rev               300.00:  Rev Bit Total 
 BROT.°/30m              -0.50:  Build Rotating 
 BS  .in                  8.50:  Bit Size 
 BSZ .in                  8.50:  Bit Size 
 BTPL.psig              370.00:  Bit Press Loss 
 CABU.                      No:  Customer Abuse 
 CGEO.      Behruz Shahbaliyev:  Customer Geo 
 COMM.                     LÁp:  Run Comments 1 
 TCS .hr                140.08:  Time Ciculation Ended 
 CV  .mps                 3.00:  Crit Velocity 
 CVMX.mps                 3.20:  Max Crit Veloc 
 DD1 .            Musa Ahmadov:  Direct Drillr 1 
 DD2 .           Hamid Ahmadov:  Direct Drillr 2 
 DDSV.               Geo-Pilot:  DD Service 
 DEFF.%                  98.40:  % Det Eff 
 DLRX.°/30m               3.40:  Dogleg Rot Max 
 DLSO.°/30m               1.45:  Dogleg Oriented 
 DLSX.°/30m               3.40:  Dogleg Str Max 
 DRET.      18.40.00 29-Aug-21:  Drill End Time 
 DRST.      21.00.00 20-Aug-21:  Drill Start Tim 
 DTIM.hr                 69.47:  Time Drilling 
 EDEP.m                5084.50:  End Depth 
 ENG1.      Artemiy Matviyanov:  Engineer 1 
 ENG2.         Almaz Almadatov:  Engineer 2 
 ETIM.      18.40.00 29-Aug-21:  End Time 
 FLOI.gpm               500.00:  Flow In 
 FLON.gpm               400.00:  Flow In Min 
 FLOS.cptm                0.00:  Fluid Loss 
 FLOX.gpm               500.00:  Flow In Max 
 DFT .        Mineral Oil Base:  Mud Type 
 HFLO.                      No:  High Flow 
 HPRE.                      No:  High Pressure 
 HTEM.                      No:  High Temp 
 HYDO.m                   1.80:  Hydro Offset 
 IFIN.deg                25.62:  Inc, Final 
 IMAX.deg                48.69:  Inc Max 
 IMIN.deg                24.01:  Inc Min 
 IMND.m                4962.57:  Inc Min Depth 
 IMXD.m                4119.01:  Inc Max Depth 
 JARR.                      No:  Jarring 
 LETM.      18.40.00 29-Aug-21:  Log End Time 
 LOST.hr                     0:  Lost Rig Time 
 LSTM.      21.00.00 20-Aug-21:  Log Start Time 
 MDCL.ppm             41500.00:  Mud Chlorides 
 MDES.     Inversion Oil/Synthetic:  Mud Desc 
 DFD .sg                  1.56:  Mud Density 
 MDMN.sg                  1.56:  Dens Mud Min 
 MDMX.sg                  1.56:  Dens Mud Max 
 MOIL.                      70:  Run Mud Oil % 
 MOWR.                   70:30:  Run Mud OWR 
 MSND.                     0.2:  Run Mud Sand % 
 MSOL.                    23.3:  Run Mud Solids% 
 DFV .spqt               78.00:  Mud Viscosity 
 MWOD.in                  6.75:  MWD Tool OD 
 MWSI.                      No:  Serv Intrp, MWD 
 OTIM.hr                218.30:  Time Operating 
 PCON.           Look Like New:  Pad Condition 
 PMAX.psia            11015.30:  Press Op, Max 
 PV  .cP                 38.00:  Mud PV 
 RUN .                     300:  Run Number 
 ROPA.m/hr               15.00:  ROP Avg 
 ROPN.m/hr                9.00:  ROP Min 
 ROPX.m/hr               17.00:  ROP Max 
 RPMA.rpm               120.00:  RPM Surface Avg 
 RPMN.rpm                90.00:  RPM Surface Min 
 RPMX.rpm               140.00:  RPM Surface Max 
 RRUN.                     300:  Rig Run Number 
 RTIM.hr                 31.53:  Time Reaming 
 SAZI.deg               331.64:  Azm, Start 
 SDEP.m                4127.00:  Start Depth 
 SIDD.                      No:  Serv Intrp, DD 
 SINC.deg                48.43:  Inc, Start 
 SPPA.psig             5830.00:  SPP Avg 
 SPPN.psig             5600.00:  SPP Min 
 SPPX.psig             5900.00:  SPP Max 
 STIM.      21.00.00 20-Aug-21:  Start Time 
 SVCS.                 DD, MWD:  Services 
 SVER.                    9.20:  Sperry Version 
 TDAT.m                 957.50:  Tot Depth Attmp 
 TDDF.                      No:  Trip for DD 
 TDLG.m                 957.50:  Tot Depth Loggd 
 TFF .                      No:  Trip for Fail 
 TQAA.f-kp               15.00:  Torque Abs Avg 
 TQAN.f-kp               12.00:  Torque Abs Min 
 TQAX.f-kp               19.00:  Torque Abs Max 
 TRRT.°/30m              -3.40:  Turn Rotating 
 MRT .                  EWR-M5:  Maximum Recorded Temperature 
 TTMX.degC              100.00:  Max Tool Temp 
 VS01.                90639251:  Virtual Str1 SN 
 VS02.                90634715:  Virtual Str2 SN 
 VS03.                90652479:  Virtual Str3 SN 
 VS04.                90642262:  Virtual Str4 SN 
 WBMN.klb                 0.00:  WOB Min 
 WITN.           Murad Guliyev:  Customer Rep 
 WITN.          Yashar Gaziyev:  Customer Rep 2 
 WOBA.klb                 9.00:  WOB Avg 
 WOBX.klb                12.00:  WOB Max 
 YP  .lhf2               30.00:  Yield Point 
~Curve Information Block
#MNEM.UNIT                 API CODE     Curve Description
#---------               -----------    ---------------------------
 TIME.HHMMSS            00 000 000 000:  GT Time & Date
 GTDEPTH.m              00 000 000 000:  GT Depth
 GTPQH.psia             00 000 000 000:  GT HR Quartz Pressure
 GTTQ.degC              00 000 000 000:  GT Quartz Temperature
 GTTN.NONE              00 000 000 000:  GT Test Number
 GTET.sec               00 000 000 000:  GT Elapsed Test Time
 GTTVD.m                00 000 000 000:  GT True Vertical Depth
#Other Information
#
#WARRANTY: Halliburton will use its best efforts to furnish customers with 
#accurate information and interpretations that are part of, and incident to, the services 
#provided.  However, Halliburton cannot and does not warrant the accuracy 
#or correctness of such information and interpretations.  Under no circumstances should any 
#such information or interpretation be relied upon as the sole basis for any drilling, 
#completion, production, or financial decision or any procedure involving any risk to the 
#safety of any drilling venture, drilling rig or its crew or any other third party.  The 
#Customer has full responsibility for all drilling, completion and production operation.  
#Halliburton makes no representations or warranties, either expressed or 
#implied, including, but not limited to, the implied warranties of merchantability or fitness 
#for a particular purpose, with respect to the services rendered.  In no event will 
#Halliburton be liable for failure to obtain any particular results or for 
#any damages, including, but not limited to, indirect, special or consequential damages, 
#resulting from the use of any information or interpretation provided by Halliburton.
#
~A           TIME           GTDEPTH  GTPQH  GTTQ  GTTN   GTET   GTTVD  
# ...
   04:13:23.875.28-Aug-2021 4978.00 7972.57 80.45 29.00 181.05 3319.69
   04:13:24.076.28-Aug-2021 4978.00 7972.68 80.45 29.00 181.25 3319.69
   04:13:24.276.28-Aug-2021 4978.00 7972.68 80.45 29.00 181.46 3319.69
   04:13:24.476.28-Aug-2021 4978.00 7972.31 80.45 29.00 181.66 3319.69
   04:13:24.676.28-Aug-2021 4978.00 7972.30 80.45 29.00 181.86 3319.69
   04:13:24.877.28-Aug-2021 4978.00 7972.22 80.45 29.00 182.06 3319.69
   04:13:25.077.28-Aug-2021 4978.00 7972.23 80.45 29.00 182.26 3319.69
   04:13:25.277.28-Aug-2021 4978.00 7972.23 80.45 29.00 182.46 3319.69
   04:13:25.477.28-Aug-2021 4978.00 7972.30 80.45 29.00 182.66 3319.69
   04:13:25.678.28-Aug-2021 4978.00 7971.74 80.45 29.00 182.86 3319.69
   04:13:25.878.28-Aug-2021 4978.00 7971.63 80.45 29.00 183.06 3319.69
   04:13:26.078.28-Aug-2021 4978.00 7975.33 80.45 29.00 183.26 3319.69
   04:13:26.279.28-Aug-2021 4978.00 7975.33 80.45 29.00 183.46 3319.69
   04:13:26.479.28-Aug-2021 4978.00 7972.60 80.45 29.00 183.66 3319.69
   04:13:26.679.28-Aug-2021 4978.00 7970.94 80.45 29.00 183.86 3319.69
   04:13:26.879.28-Aug-2021 4978.00 7974.93 80.45 29.00 184.06 3319.69
   04:13:27.080.28-Aug-2021 4978.00 7971.65 80.45 29.00 184.26 3319.69
   04:13:27.280.28-Aug-2021 4978.00 7971.65 80.45 29.00 184.46 3319.69
   04:13:27.480.28-Aug-2021 4978.00 7971.83 80.45 29.00 184.66 3319.69
   04:13:27.681.28-Aug-2021 4978.00 7971.45 80.45 29.00 184.86 3319.69
   04:13:27.881.28-Aug-2021 4978.00 7975.51 80.45 29.00 185.06 3319.69
   04:13:28.081.28-Aug-2021 4978.00 7972.74 80.45 29.00 185.26 3319.69
   04:13:28.281.28-Aug-2021 4978.00 7972.74 80.45 29.00 185.46 3319.69
   04:13:28.482.28-Aug-2021 4978.00 7971.49 80.45 29.00 185.66 3319.69
   04:13:28.682.28-Aug-2021 4978.00 7971.57 80.44 29.00 185.86 3319.69
   04:13:28.882.28-Aug-2021 4978.00 7972.19 80.44 29.00 186.06 3319.69
   04:13:29.083.28-Aug-2021 4978.00 7972.13 80.45 29.00 186.26 3319.69
   04:13:29.283.28-Aug-2021 4978.00 7972.13 80.45 29.00 186.46 3319.69
   04:13:29.483.28-Aug-2021 4978.00 7971.50 80.44 29.00 186.66 3319.69
   04:13:29.683.28-Aug-2021 4978.00 7971.61 80.44 29.00 186.86 3319.69
   04:13:29.884.28-Aug-2021 4978.00 7972.51 80.44 29.00 187.06 3319.69
   04:13:30.084.28-Aug-2021 4978.00 7972.57 80.44 29.00 187.26 3319.69
   04:13:30.284.28-Aug-2021 4978.00 7972.57 80.44 29.00 187.46 3319.69
   04:13:30.485.28-Aug-2021 4978.00 7972.12 80.44 29.00 187.66 3319.69
   04:13:30.685.28-Aug-2021 4978.00 7972.13 80.44 29.00 187.86 3319.69
   04:13:30.885.28-Aug-2021 4978.00 7971.94 80.44 29.00 188.06 3319.69
   04:13:31.085.28-Aug-2021 4978.00 7977.90 80.44 29.00 188.26 3319.69
   04:13:31.286.28-Aug-2021 4978.00 7977.90 80.44 29.00 188.46 3319.69
   04:13:31.486.28-Aug-2021 4978.00 7971.87 80.44 29.00 188.67 3319.69
   04:13:31.686.28-Aug-2021 4978.00 7971.60 80.44 29.00 188.87 3319.69
   04:13:31.886.28-Aug-2021 4978.00 7971.71 80.44 29.00 189.07 3319.69
   04:13:32.087.28-Aug-2021 4978.00 7971.79 80.44 29.00 189.27 3319.69
   04:13:32.287.28-Aug-2021 4978.00 7971.79 80.44 29.00 189.47 3319.69
   04:13:32.487.28-Aug-2021 4978.00 7971.21 80.44 29.00 189.67 3319.69
   04:13:32.688.28-Aug-2021 4978.00 7971.01 80.44 29.00 189.87 3319.69
   04:13:32.888.28-Aug-2021 4978.00 7971.40 80.44 29.00 190.07 3319.69
   04:13:33.088.28-Aug-2021 4978.00 7972.25 80.44 29.00 190.27 3319.69
   04:13:33.288.28-Aug-2021 4978.00 7972.25 80.44 29.00 190.47 3319.69
   04:13:33.489.28-Aug-2021 4978.00 7972.48 80.44 29.00 190.67 3319.69
   04:13:33.689.28-Aug-2021 4978.00 7972.21 80.44 29.00 190.87 3319.69
   04:13:33.889.28-Aug-2021 4978.00 7972.13 80.44 29.00 191.07 3319.69
   04:13:34.090.28-Aug-2021 4978.00 7972.13 80.44 29.00 191.27 3319.69
   04:13:34.290.28-Aug-2021 4978.00 7972.13 80.44 29.00 191.47 3319.69
   04:13:34.490.28-Aug-2021 4978.00 7975.61 80.44 29.00 191.67 3319.69
   04:13:34.690.28-Aug-2021 4978.00 7972.06 80.44 29.00 191.87 3319.69
   04:13:34.891.28-Aug-2021 4978.00 7972.74 80.44 29.00 192.07 3319.69
   04:13:35.091.28-Aug-2021 4978.00 7971.57 80.44 29.00 192.27 3319.69
   04:13:35.291.28-Aug-2021 4978.00 7971.57 80.44 29.00 192.47 3319.69
   04:13:35.492.28-Aug-2021 4978.00 7975.91 80.44 29.00 192.67 3319.69
   04:13:35.692.28-Aug-2021 4978.00 7972.54 80.44 29.00 192.87 3319.69
   04:13:35.892.28-Aug-2021 4978.00 7971.38 80.44 29.00 193.07 3319.69
   04:13:36.092.28-Aug-2021 4978.00 7971.01 80.44 29.00 193.27 3319.69
   04:13:36.293.28-Aug-2021 4978.00 7971.01 80.44 29.00 193.47 3319.69
   04:13:36.493.28-Aug-2021 4978.00 7972.76 80.44 29.00 193.67 3319.69
   04:13:36.693.28-Aug-2021 4978.00 7972.30 80.44 29.00 193.87 3319.69
   04:13:36.894.28-Aug-2021 4978.00 7971.85 80.44 29.00 194.07 3319.69
   04:13:37.094.28-Aug-2021 4978.00 7975.02 80.44 29.00 194.27 3319.69
   04:13:37.294.28-Aug-2021 4978.00 7975.02 80.44 29.00 194.47 3319.69
   04:13:37.494.28-Aug-2021 4978.00 7973.10 80.44 29.00 194.67 3319.69
   04:13:37.695.28-Aug-2021 4978.00 7971.93 80.44 29.00 194.87 3319.69
   04:13:37.895.28-Aug-2021 4978.00 7971.72 80.44 29.00 195.07 3319.69
   04:13:38.095.28-Aug-2021 4978.00 7971.52 80.44 29.00 195.27 3319.69
   04:13:38.295.28-Aug-2021 4978.00 7971.52 80.44 29.00 195.47 3319.69
   04:13:38.496.28-Aug-2021 4978.00 7971.96 80.44 29.00 195.68 3319.69
   04:13:38.696.28-Aug-2021 4978.00 7971.36 80.44 29.00 195.88 3319.69
   04:13:38.896.28-Aug-2021 4978.00 7971.64 80.44 29.00 196.08 3319.69
   04:13:39.097.28-Aug-2021 4978.00 7972.18 80.44 29.00 196.28 3319.69
   04:13:39.297.28-Aug-2021 4978.00 7972.18 80.44 29.00 196.48 3319.69
   04:13:39.497.28-Aug-2021 4978.00 7972.52 80.44 29.00 196.68 3319.69
   04:13:39.697.28-Aug-2021 4978.00 7972.21 80.44 29.00 196.88 3319.69
   04:13:39.898.28-Aug-2021 4978.00 7972.12 80.44 29.00 197.08 3319.69
   04:13:40.098.28-Aug-2021 4978.00 7971.85 80.44 29.00 197.28 3319.69
   04:13:40.298.28-Aug-2021 4978.00 7971.85 80.44 29.00 197.48 3319.69
   04:13:40.499.28-Aug-2021 4978.00 7975.46 80.44 29.00 197.68 3319.69
   04:13:40.699.28-Aug-2021 4978.00 7973.43 80.44 29.00 197.88 3319.69
   04:13:40.899.28-Aug-2021 4978.00 7972.15 80.44 29.00 198.08 3319.69
   04:13:41.099.28-Aug-2021 4978.00 7971.88 80.44 29.00 198.28 3319.69
   04:13:41.300.28-Aug-2021 4978.00 7971.88 80.44 29.00 198.48 3319.69
   04:13:41.500.28-Aug-2021 4978.00 7971.99 80.44 29.00 198.68 3319.69
   04:13:41.700.28-Aug-2021 4978.00 7971.57 80.44 29.00 198.88 3319.69
   04:13:41.901.28-Aug-2021 4978.00 7971.21 80.44 29.00 199.08 3319.69
   04:13:42.101.28-Aug-2021 4978.00 7971.50 80.44 29.00 199.28 3319.69
   04:13:42.301.28-Aug-2021 4978.00 7971.50 80.44 29.00 199.48 3319.69
   04:13:42.501.28-Aug-2021 4978.00 7972.49 80.44 29.00 199.68 3319.69
   04:13:42.702.28-Aug-2021 4978.00 7972.72 80.44 29.00 199.88 3319.69
   04:13:42.902.28-Aug-2021 4978.00 7972.54 80.44 29.00 200.08 3319.69
   04:13:43.102.28-Aug-2021 4978.00 7972.27 80.44 29.00 200.28 3319.69
   04:13:43.303.28-Aug-2021 4978.00 7972.27 80.44 29.00 200.48 3319.69
   04:13:43.503.28-Aug-2021 4978.00 7972.20 80.44 29.00 200.68 3319.69
   04:13:43.703.28-Aug-2021 4978.00 7972.09 80.44 29.00 200.88 3319.69
   04:13:43.903.28-Aug-2021 4978.00 7976.05 80.44 29.00 201.08 3319.69
   04:13:44.104.28-Aug-2021 4978.00 7972.24 80.44 29.00 201.28 3319.69
   04:13:44.304.28-Aug-2021 4978.00 7972.24 80.44 29.00 201.48 3319.69
   04:13:44.504.28-Aug-2021 4978.00 7971.67 80.44 29.00 201.68 3319.69
   04:13:44.704.28-Aug-2021 4978.00 7975.28 80.44 29.00 201.88 3319.69
   04:13:44.905.28-Aug-2021 4978.00 7972.28 80.44 29.00 202.08 3319.69
   04:13:45.105.28-Aug-2021 4978.00 7972.66 80.44 29.00 202.28 3319.69
   04:13:45.305.28-Aug-2021 4978.00 7972.66 80.44 29.00 202.48 3319.69
   04:13:45.506.28-Aug-2021 4978.00 7974.73 80.44 29.00 202.68 3319.69
   04:13:45.706.28-Aug-2021 4978.00 7971.80 80.44 29.00 202.89 3319.69
   04:13:45.906.28-Aug-2021 4978.00 7973.42 80.44 29.00 203.09 3319.69
   04:13:46.106.28-Aug-2021 4978.00 7971.85 80.44 29.00 203.29 3319.69
   04:13:46.307.28-Aug-2021 4978.00 7971.85 80.44 29.00 203.49 3319.69
