~Version Information
 VERS.                  2.0:   CWLS log ASCII Standard -VERSION 2.0
 WRAP.                   NO:   One line per depth step
~Well Information Block
#MNEM.UNIT     VALUE/NAME     DESCRIPTION
#---------     -----------    ---------------------------
 STRT.S             16:56:36 27-Aug-21: START TIME 16:56:36 27-Aug-21
 STOP.S             17:03:52 27-Aug-21: STOP TIME  17:03:52 27-Aug-21
 STEP.S                   0.00: STEP TIME
 NULL.                 -999.25: NULL VALUE
 DFWT.                        :  DIST FWL TEXT
 DFST.                        :  DIST FSL TEXT
 DMF .             Drill Floor:  DRILL MEAS FROM
 STIM.      20.00.00 17-Aug-21:  START TIME
 DATE.      19.00.00 29-Aug-21:  END TIME
 SPUD.               15-Aug-21:  SPUD DATE
 NREF.                    Grid:  NORTH REFERENCE
 HPTY.       Minimum Curvature:  HOLE POS TYPE
 DMOD.             Drill Model:  DRILL MOD DESC
 SVYD.                  Survey:  SURVEY DESC
 ILTD.               Lithology:  INTERP LTH DESC
 FTOP.          Formation Tops:  FORM TOPS DESC
 RIG .              East Azeri:  RIG NAME
 PDAT.          Mean Sea Level:  PERMANENT DATUM
 FLD .                     ACG:  FIELD NAME
 SON .        AZ-XX-0907180857:  JOB NUMBER
 CTRY.              Azerbaijan:  COUNTRY NAME
 WELL.                    D23x:  WELL NAME
 SRVC.     Turan Drilling and Engineering:  CONTRACTOR
 COMP.     BP Exploration (Caspian Sea) Ltd.:  COMPANY
 UWI .            /AZE00000214:  UNIQUE WELL IDENTIFIER
 API .            /AZE00000214:  API NUMBER
 MDS .        Operator Entered:  MAG DATA SOURCE
 BASE.              Azerbaijan:  LOGGING EQUIPMENT BASE LOCATION
 REGN.                   EESSA:  REGION
 PROV.                    Baku:  PROVINCE
 STAT.                    Baku:  STATE NAME
 MWDS.                    Baku:  MWD SHOP
 DOE .                     N/A:  DOE NUMBER
 DCON.         Sperry Drilling:  DIRECTNL CONTR
 UNIT.                     N/A:  LOGGING EQUIPMENT ID
 WTYP.                Deviated:  WELL TYPE
 CNTY.                        :  COUNTY
 LOC .                        :  LOCATION
 LMF .             Drill Floor:  LOG MEASURED FROM
 TVDS.m                  43.60:  TVDSS CORRECTN
 LATI.deg                40.02:  LATITUDE
 LONG.deg                51.45:  LONGITUDE
 WHNS.m                  -7.04:  WELL HEAD N/S
 WHEW.m                  -0.67:  WELL HEAD E/W
 UTMX.m              538762.90:  UTM X
 UTMY.m             4431871.34:  UTM Y
 DFWL.m                   0.00:  DISTANCE FWL
 DFSL.m                   0.00:  DISTANCE FSL
 SDEP.m                4127.00:  START DEPTH
 TDD .m                5084.50:  TOTAL DEPTH (DRILLER)
 VSDR.deg               140.47:  VERT SEC DIRECT
 GVFD.g                   1.00:  GRAVITY FIELD
 MFLD.nT              50362.00:  MAGNETIC FIELD
 MDIP.deg                59.48:  MAGNETIC DIP
 MDEC.deg                 6.47:  MAGNETIC DECL
 GRDC.deg                 0.31:  GRID CORRECTION
 AZTC.deg                 6.16:  AZM TOTAL CORR
 EPD .m                   0.00:  ELEVATION
 EGL .m                   0.00:  GROUND ELEVATION
 WDMS.m                 151.80:  WD ELEV
 APD .m                  43.60:  DEPTH ABOVE PD
 DEP .m                4092.57:  DEPTH
 AGAP.m                  43.60:  AIR GAP
 VSEW.m                  -0.67:  VERT SEC E/W
 VSNS.m                  -7.04:  VERT SEC N/S
 EKB .m                  43.60:  KB ELEVATION
 EDF .m                  43.60:  DF ELEVATION
 TDL .m                 957.50:  TOTAL DEPTH (LOGGER)
 VSC .                       0:  VS TO CLOSURE
 MAGU.                 1851413:  MAGUTM CHECKSUM
~Parameter Information Block
#MNEM.UNIT       Value        Description
#---------     -----------    ---------------------------
 AV  .mps                 1.50:  Ann Velocity 
 AVMX.mps                 2.00:  Max Ann Veloc 
 AZIF.deg               184.66:  Azm, Final 
 BHAT.        Rotary Steerable:  BHA Type 
 BREV.rev               300.00:  Rev Bit Total 
 BROT.°/30m              -0.50:  Build Rotating 
 BS  .in                  8.50:  Bit Size 
 BSZ .in                  8.50:  Bit Size 
 BTPL.psig              370.00:  Bit Press Loss 
 CABU.                      No:  Customer Abuse 
 CGEO.      Behruz Shahbaliyev:  Customer Geo 
 COMM.                     T
k:  Run Comments 1 
 TCS .hr                140.08:  Time Ciculation Ended 
 CV  .mps                 3.00:  Crit Velocity 
 CVMX.mps                 3.20:  Max Crit Veloc 
 DD1 .            Musa Ahmadov:  Direct Drillr 1 
 DD2 .           Hamid Ahmadov:  Direct Drillr 2 
 DDSV.               Geo-Pilot:  DD Service 
 DEFF.%                  98.40:  % Det Eff 
 DLRX.°/30m               3.40:  Dogleg Rot Max 
 DLSO.°/30m               1.45:  Dogleg Oriented 
 DLSX.°/30m               3.40:  Dogleg Str Max 
 DRET.      18.40.00 29-Aug-21:  Drill End Time 
 DRST.      21.00.00 20-Aug-21:  Drill Start Tim 
 DTIM.hr                 69.47:  Time Drilling 
 EDEP.m                5084.50:  End Depth 
 ENG1.      Artemiy Matviyanov:  Engineer 1 
 ENG2.         Almaz Almadatov:  Engineer 2 
 ETIM.      18.40.00 29-Aug-21:  End Time 
 FLOI.gpm               500.00:  Flow In 
 FLON.gpm               400.00:  Flow In Min 
 FLOS.cptm                0.00:  Fluid Loss 
 FLOX.gpm               500.00:  Flow In Max 
 DFT .        Mineral Oil Base:  Mud Type 
 HFLO.                      No:  High Flow 
 HPRE.                      No:  High Pressure 
 HTEM.                      No:  High Temp 
 HYDO.m                   1.80:  Hydro Offset 
 IFIN.deg                25.62:  Inc, Final 
 IMAX.deg                48.69:  Inc Max 
 IMIN.deg                24.01:  Inc Min 
 IMND.m                4962.57:  Inc Min Depth 
 IMXD.m                4119.01:  Inc Max Depth 
 JARR.                      No:  Jarring 
 LETM.      18.40.00 29-Aug-21:  Log End Time 
 LOST.hr                     0:  Lost Rig Time 
 LSTM.      21.00.00 20-Aug-21:  Log Start Time 
 MDCL.ppm             41500.00:  Mud Chlorides 
 MDES.     Inversion Oil/Synthetic:  Mud Desc 
 DFD .sg                  1.56:  Mud Density 
 MDMN.sg                  1.56:  Dens Mud Min 
 MDMX.sg                  1.56:  Dens Mud Max 
 MOIL.                      70:  Run Mud Oil % 
 MOWR.                   70:30:  Run Mud OWR 
 MSND.                     0.2:  Run Mud Sand % 
 MSOL.                    23.3:  Run Mud Solids% 
 DFV .spqt               78.00:  Mud Viscosity 
 MWOD.in                  6.75:  MWD Tool OD 
 MWSI.                      No:  Serv Intrp, MWD 
 OTIM.hr                218.30:  Time Operating 
 PCON.           Look Like New:  Pad Condition 
 PMAX.psia            11015.30:  Press Op, Max 
 PV  .cP                 38.00:  Mud PV 
 RUN .                     300:  Run Number 
 ROPA.m/hr               15.00:  ROP Avg 
 ROPN.m/hr                9.00:  ROP Min 
 ROPX.m/hr               17.00:  ROP Max 
 RPMA.rpm               120.00:  RPM Surface Avg 
 RPMN.rpm                90.00:  RPM Surface Min 
 RPMX.rpm               140.00:  RPM Surface Max 
 RRUN.                     300:  Rig Run Number 
 RTIM.hr                 31.53:  Time Reaming 
 SAZI.deg               331.64:  Azm, Start 
 SDEP.m                4127.00:  Start Depth 
 SIDD.                      No:  Serv Intrp, DD 
 SINC.deg                48.43:  Inc, Start 
 SPPA.psig             5830.00:  SPP Avg 
 SPPN.psig             5600.00:  SPP Min 
 SPPX.psig             5900.00:  SPP Max 
 STIM.      21.00.00 20-Aug-21:  Start Time 
 SVCS.                 DD, MWD:  Services 
 SVER.                    9.20:  Sperry Version 
 TDAT.m                 957.50:  Tot Depth Attmp 
 TDDF.                      No:  Trip for DD 
 TDLG.m                 957.50:  Tot Depth Loggd 
 TFF .                      No:  Trip for Fail 
 TQAA.f-kp               15.00:  Torque Abs Avg 
 TQAN.f-kp               12.00:  Torque Abs Min 
 TQAX.f-kp               19.00:  Torque Abs Max 
 TRRT.°/30m              -3.40:  Turn Rotating 
 MRT .                  EWR-M5:  Maximum Recorded Temperature 
 TTMX.degC              100.00:  Max Tool Temp 
 VS01.                90639251:  Virtual Str1 SN 
 VS02.                90634715:  Virtual Str2 SN 
 VS03.                90652479:  Virtual Str3 SN 
 VS04.                90642262:  Virtual Str4 SN 
 WBMN.klb                 0.00:  WOB Min 
 WITN.           Murad Guliyev:  Customer Rep 
 WITN.          Yashar Gaziyev:  Customer Rep 2 
 WOBA.klb                 9.00:  WOB Avg 
 WOBX.klb                12.00:  WOB Max 
 YP  .lhf2               30.00:  Yield Point 
~Curve Information Block
#MNEM.UNIT                 API CODE     Curve Description
#---------               -----------    ---------------------------
 TIME.HHMMSS            00 000 000 000:  GT Time & Date
 GTDEPTH.m              00 000 000 000:  GT Depth
 GTPQH.psia             00 000 000 000:  GT HR Quartz Pressure
 GTTQ.degC              00 000 000 000:  GT Quartz Temperature
 GTTN.NONE              00 000 000 000:  GT Test Number
 GTET.sec               00 000 000 000:  GT Elapsed Test Time
 GTTVD.m                00 000 000 000:  GT True Vertical Depth
#Other Information
#
#WARRANTY: Halliburton will use its best efforts to furnish customers with 
#accurate information and interpretations that are part of, and incident to, the services 
#provided.  However, Halliburton cannot and does not warrant the accuracy 
#or correctness of such information and interpretations.  Under no circumstances should any 
#such information or interpretation be relied upon as the sole basis for any drilling, 
#completion, production, or financial decision or any procedure involving any risk to the 
#safety of any drilling venture, drilling rig or its crew or any other third party.  The 
#Customer has full responsibility for all drilling, completion and production operation.  
#Halliburton makes no representations or warranties, either expressed or 
#implied, including, but not limited to, the implied warranties of merchantability or fitness 
#for a particular purpose, with respect to the services rendered.  In no event will 
#Halliburton be liable for failure to obtain any particular results or for 
#any damages, including, but not limited to, indirect, special or consequential damages, 
#resulting from the use of any information or interpretation provided by Halliburton.
#
~A           TIME           GTDEPTH  GTPQH  GTTQ  GTTN   GTET   GTTVD  
# ...
   16:58:06.478.27-Aug-2021 4788.50 7535.56 83.17 18.00  90.31 3147.67
   16:58:06.678.27-Aug-2021 4788.50 7529.90 83.17 18.00  90.51 3147.67
   16:58:06.878.27-Aug-2021 4788.50 7532.28 83.17 18.00  90.71 3147.67
   16:58:07.078.27-Aug-2021 4788.50 7532.36 83.17 18.00  90.91 3147.67
   16:58:07.278.27-Aug-2021 4788.50 7532.36 83.17 18.00  91.11 3147.67
   16:58:07.477.27-Aug-2021 4788.50 7531.85 83.17 18.00  91.31 3147.67
   16:58:07.677.27-Aug-2021 4788.50 7530.98 83.17 18.00  91.51 3147.67
   16:58:07.877.27-Aug-2021 4788.50 7531.36 83.17 18.00  91.71 3147.67
   16:58:08.077.27-Aug-2021 4788.50 7532.06 83.17 18.00  91.91 3147.67
   16:58:08.277.27-Aug-2021 4788.50 7532.06 83.17 18.00  92.11 3147.67
   16:58:08.476.27-Aug-2021 4788.50 7531.95 83.17 18.00  92.31 3147.67
   16:58:08.676.27-Aug-2021 4788.50 7532.12 83.17 18.00  92.51 3147.67
   16:58:08.876.27-Aug-2021 4788.50 7532.10 83.17 18.00  92.71 3147.67
   16:58:09.076.27-Aug-2021 4788.50 7532.12 83.17 18.00  92.91 3147.67
   16:58:09.276.27-Aug-2021 4788.50 7532.12 83.17 18.00  93.11 3147.67
   16:58:09.475.27-Aug-2021 4788.50 7531.96 83.17 18.00  93.31 3147.67
   16:58:09.675.27-Aug-2021 4788.50 7536.47 83.17 18.00  93.51 3147.67
   16:58:09.875.27-Aug-2021 4788.50 7530.44 83.17 18.00  93.71 3147.67
   16:58:10.075.27-Aug-2021 4788.50 7532.06 83.17 18.00  93.91 3147.67
   16:58:10.275.27-Aug-2021 4788.50 7532.06 83.17 18.00  94.11 3147.67
   16:58:10.474.27-Aug-2021 4788.50 7532.91 83.17 18.00  94.31 3147.67
   16:58:10.674.27-Aug-2021 4788.50 7531.97 83.17 18.00  94.51 3147.67
   16:58:10.874.27-Aug-2021 4788.50 7531.31 83.17 18.00  94.71 3147.67
   16:58:11.074.27-Aug-2021 4788.50 7531.80 83.17 18.00  94.91 3147.67
   16:58:11.274.27-Aug-2021 4788.50 7531.80 83.17 18.00  95.11 3147.67
   16:58:11.473.27-Aug-2021 4788.50 7532.23 83.17 18.00  95.30 3147.67
   16:58:11.673.27-Aug-2021 4788.50 7532.56 83.17 18.00  95.50 3147.67
   16:58:11.873.27-Aug-2021 4788.50 7532.79 83.17 18.00  95.70 3147.67
   16:58:12.073.27-Aug-2021 4788.50 7532.76 83.17 18.00  95.90 3147.67
   16:58:12.273.27-Aug-2021 4788.50 7532.76 83.17 18.00  96.10 3147.67
   16:58:12.472.27-Aug-2021 4788.50 7532.70 83.17 18.00  96.30 3147.67
   16:58:12.672.27-Aug-2021 4788.50 7532.52 83.17 18.00  96.50 3147.67
   16:58:12.872.27-Aug-2021 4788.50 7532.45 83.17 18.00  96.70 3147.67
   16:58:13.072.27-Aug-2021 4788.50 7538.22 83.17 18.00  96.90 3147.67
   16:58:13.272.27-Aug-2021 4788.50 7538.22 83.17 18.00  97.10 3147.67
   16:58:13.471.27-Aug-2021 4788.50 7532.66 83.17 18.00  97.30 3147.67
   16:58:13.671.27-Aug-2021 4788.50 7533.29 83.17 18.00  97.50 3147.67
   16:58:13.871.27-Aug-2021 4788.50 7532.42 83.17 18.00  97.70 3147.67
   16:58:14.071.27-Aug-2021 4788.50 7535.62 83.17 18.00  97.90 3147.67
   16:58:14.271.27-Aug-2021 4788.50 7535.62 83.17 18.00  98.10 3147.67
   16:58:14.470.27-Aug-2021 4788.50 7532.39 83.17 18.00  98.30 3147.67
   16:58:14.670.27-Aug-2021 4788.50 7533.70 83.17 18.00  98.50 3147.67
   16:58:14.870.27-Aug-2021 4788.50 7532.12 83.17 18.00  98.70 3147.67
   16:58:15.070.27-Aug-2021 4788.50 7532.77 83.17 18.00  98.90 3147.67
   16:58:15.270.27-Aug-2021 4788.50 7532.77 83.17 18.00  99.10 3147.67
   16:58:15.469.27-Aug-2021 4788.50 7529.98 83.17 18.00  99.30 3147.67
   16:58:15.669.27-Aug-2021 4788.50 7533.25 83.17 18.00  99.50 3147.67
   16:58:15.869.27-Aug-2021 4788.50 7533.70 83.17 18.00  99.70 3147.67
   16:58:16.069.27-Aug-2021 4788.50 7532.91 83.17 18.00  99.90 3147.67
   16:58:16.269.27-Aug-2021 4788.50 7532.91 83.17 18.00 100.10 3147.67
   16:58:16.468.27-Aug-2021 4788.50 7535.43 83.17 18.00 100.30 3147.67
   16:58:16.668.27-Aug-2021 4788.50 7532.53 83.17 18.00 100.50 3147.67
   16:58:16.868.27-Aug-2021 4788.50 7533.15 83.17 18.00 100.70 3147.67
   16:58:17.068.27-Aug-2021 4788.50 7533.39 83.17 18.00 100.90 3147.67
   16:58:17.268.27-Aug-2021 4788.50 7533.39 83.17 18.00 101.10 3147.67
   16:58:17.467.27-Aug-2021 4788.50 7533.14 83.17 18.00 101.30 3147.67
   16:58:17.667.27-Aug-2021 4788.50 7532.44 83.17 18.00 101.50 3147.67
   16:58:17.867.27-Aug-2021 4788.50 7532.73 83.17 18.00 101.70 3147.67
   16:58:18.067.27-Aug-2021 4788.50 7533.40 83.17 18.00 101.90 3147.67
   16:58:18.267.27-Aug-2021 4788.50 7533.40 83.17 18.00 102.10 3147.67
   16:58:18.466.27-Aug-2021 4788.50 7533.37 83.17 18.00 102.30 3147.67
   16:58:18.666.27-Aug-2021 4788.50 7533.41 83.17 18.00 102.50 3147.67
   16:58:18.866.27-Aug-2021 4788.50 7533.33 83.17 18.00 102.70 3147.67
   16:58:19.066.27-Aug-2021 4788.50 7533.36 83.17 18.00 102.90 3147.67
   16:58:19.266.27-Aug-2021 4788.50 7533.36 83.17 18.00 103.10 3147.67
   16:58:19.465.27-Aug-2021 4788.50 7533.18 83.17 18.00 103.30 3147.67
   16:58:19.665.27-Aug-2021 4788.50 7536.42 83.17 18.00 103.50 3147.67
   16:58:19.865.27-Aug-2021 4788.50 7532.92 83.17 18.00 103.70 3147.67
   16:58:20.065.27-Aug-2021 4788.50 7533.18 83.17 18.00 103.90 3147.67
   16:58:20.265.27-Aug-2021 4788.50 7533.18 83.17 18.00 104.10 3147.67
   16:58:20.464.27-Aug-2021 4788.50 7532.66 83.17 18.00 104.30 3147.67
   16:58:20.664.27-Aug-2021 4788.50 7533.36 83.17 18.00 104.50 3147.67
   16:58:20.864.27-Aug-2021 4788.50 7532.73 83.17 18.00 104.70 3147.67
   16:58:21.064.27-Aug-2021 4788.50 7533.07 83.17 18.00 104.90 3147.67
   16:58:21.264.27-Aug-2021 4788.50 7533.07 83.17 18.00 105.10 3147.67
   16:58:21.463.27-Aug-2021 4788.50 7533.42 83.17 18.00 105.29 3147.67
   16:58:21.663.27-Aug-2021 4788.50 7533.74 83.17 18.00 105.49 3147.67
   16:58:21.863.27-Aug-2021 4788.50 7533.83 83.17 18.00 105.69 3147.67
   16:58:22.063.27-Aug-2021 4788.50 7533.75 83.17 18.00 105.89 3147.67
   16:58:22.263.27-Aug-2021 4788.50 7533.75 83.17 18.00 106.09 3147.67
   16:58:22.462.27-Aug-2021 4788.50 7533.74 83.17 18.00 106.29 3147.67
   16:58:22.662.27-Aug-2021 4788.50 7533.64 83.17 18.00 106.49 3147.67
   16:58:22.862.27-Aug-2021 4788.50 7533.53 83.17 18.00 106.69 3147.67
   16:58:23.062.27-Aug-2021 4788.50 7537.99 83.17 18.00 106.89 3147.67
   16:58:23.262.27-Aug-2021 4788.50 7537.99 83.17 18.00 107.09 3147.67
   16:58:23.461.27-Aug-2021 4788.50 7533.59 83.17 18.00 107.29 3147.67
   16:58:23.661.27-Aug-2021 4788.50 7534.19 83.17 18.00 107.49 3147.67
   16:58:23.861.27-Aug-2021 4788.50 7533.13 83.17 18.00 107.69 3147.67
   16:58:24.061.27-Aug-2021 4788.50 7538.01 83.17 18.00 107.89 3147.67
   16:58:24.261.27-Aug-2021 4788.50 7538.01 83.17 18.00 108.09 3147.67
   16:58:24.460.27-Aug-2021 4788.50 7533.09 83.17 18.00 108.29 3147.67
   16:58:24.660.27-Aug-2021 4788.50 7534.67 83.17 18.00 108.49 3147.67
   16:58:24.860.27-Aug-2021 4788.50 7533.04 83.17 18.00 108.69 3147.67
   16:58:25.060.27-Aug-2021 4788.50 7533.60 83.17 18.00 108.89 3147.67
   16:58:25.260.27-Aug-2021 4788.50 7533.60 83.17 18.00 109.09 3147.67
   16:58:25.459.27-Aug-2021 4788.50 7531.96 83.17 18.00 109.29 3147.67
   16:58:25.659.27-Aug-2021 4788.50 7534.32 83.17 18.00 109.49 3147.67
   16:58:25.859.27-Aug-2021 4788.50 7534.62 83.17 18.00 109.69 3147.67
   16:58:26.059.27-Aug-2021 4788.50 7533.69 83.17 18.00 109.89 3147.67
   16:58:26.259.27-Aug-2021 4788.50 7533.69 83.17 18.00 110.09 3147.67
   16:58:26.458.27-Aug-2021 4788.50 7535.92 83.17 18.00 110.29 3147.67
   16:58:26.658.27-Aug-2021 4788.50 7534.50 83.17 18.00 110.49 3147.67
   16:58:26.858.27-Aug-2021 4788.50 7534.23 83.17 18.00 110.69 3147.67
   16:58:27.058.27-Aug-2021 4788.50 7534.25 83.17 18.00 110.89 3147.67
   16:58:27.258.27-Aug-2021 4788.50 7534.25 83.17 18.00 111.09 3147.67
   16:58:27.457.27-Aug-2021 4788.50 7533.64 83.17 18.00 111.29 3147.67
   16:58:27.657.27-Aug-2021 4788.50 7533.96 83.17 18.00 111.49 3147.67
   16:58:27.857.27-Aug-2021 4788.50 7533.76 83.17 18.00 111.69 3147.67
   16:58:28.057.27-Aug-2021 4788.50 7534.21 83.17 18.00 111.89 3147.67
   16:58:28.257.27-Aug-2021 4788.50 7534.21 83.17 18.00 112.09 3147.67
   16:58:28.456.27-Aug-2021 4788.50 7534.20 83.17 18.00 112.29 3147.67
   16:58:28.656.27-Aug-2021 4788.50 7534.33 83.17 18.00 112.49 3147.67
   16:58:28.856.27-Aug-2021 4788.50 7534.40 83.17 18.00 112.69 3147.67
