~Version Information
 VERS.                  2.0:   CWLS log ASCII Standard -VERSION 2.0
 WRAP.                   NO:   One line per depth step
~Well Information Block
#MNEM.UNIT     VALUE/NAME     DESCRIPTION
#---------     -----------    ---------------------------
 STRT.S             21:24:04 27-Aug-21: START TIME 21:24:04 27-Aug-21
 STOP.S             21:30:54 27-Aug-21: STOP TIME  21:30:54 27-Aug-21
 STEP.S                   0.00: STEP TIME
 NULL.                 -999.25: NULL VALUE
 DFWT.                        :  DIST FWL TEXT
 DFST.                        :  DIST FSL TEXT
 DMF .             Drill Floor:  DRILL MEAS FROM
 STIM.      20.00.00 17-Aug-21:  START TIME
 DATE.      19.00.00 29-Aug-21:  END TIME
 SPUD.               15-Aug-21:  SPUD DATE
 NREF.                    Grid:  NORTH REFERENCE
 HPTY.       Minimum Curvature:  HOLE POS TYPE
 DMOD.             Drill Model:  DRILL MOD DESC
 SVYD.                  Survey:  SURVEY DESC
 ILTD.               Lithology:  INTERP LTH DESC
 FTOP.          Formation Tops:  FORM TOPS DESC
 RIG .              East Azeri:  RIG NAME
 PDAT.          Mean Sea Level:  PERMANENT DATUM
 FLD .                     ACG:  FIELD NAME
 SON .        AZ-XX-0907180857:  JOB NUMBER
 CTRY.              Azerbaijan:  COUNTRY NAME
 WELL.                    D23x:  WELL NAME
 SRVC.     Turan Drilling and Engineering:  CONTRACTOR
 COMP.     BP Exploration (Caspian Sea) Ltd.:  COMPANY
 UWI .            /AZE00000214:  UNIQUE WELL IDENTIFIER
 API .            /AZE00000214:  API NUMBER
 MDS .        Operator Entered:  MAG DATA SOURCE
 BASE.              Azerbaijan:  LOGGING EQUIPMENT BASE LOCATION
 REGN.                   EESSA:  REGION
 PROV.                    Baku:  PROVINCE
 STAT.                    Baku:  STATE NAME
 MWDS.                    Baku:  MWD SHOP
 DOE .                     N/A:  DOE NUMBER
 DCON.         Sperry Drilling:  DIRECTNL CONTR
 UNIT.                     N/A:  LOGGING EQUIPMENT ID
 WTYP.                Deviated:  WELL TYPE
 CNTY.                        :  COUNTY
 LOC .                        :  LOCATION
 LMF .             Drill Floor:  LOG MEASURED FROM
 TVDS.m                  43.60:  TVDSS CORRECTN
 LATI.deg                40.02:  LATITUDE
 LONG.deg                51.45:  LONGITUDE
 WHNS.m                  -7.04:  WELL HEAD N/S
 WHEW.m                  -0.67:  WELL HEAD E/W
 UTMX.m              538762.90:  UTM X
 UTMY.m             4431871.34:  UTM Y
 DFWL.m                   0.00:  DISTANCE FWL
 DFSL.m                   0.00:  DISTANCE FSL
 SDEP.m                4127.00:  START DEPTH
 TDD .m                5084.50:  TOTAL DEPTH (DRILLER)
 VSDR.deg               140.47:  VERT SEC DIRECT
 GVFD.g                   1.00:  GRAVITY FIELD
 MFLD.nT              50362.00:  MAGNETIC FIELD
 MDIP.deg                59.48:  MAGNETIC DIP
 MDEC.deg                 6.47:  MAGNETIC DECL
 GRDC.deg                 0.31:  GRID CORRECTION
 AZTC.deg                 6.16:  AZM TOTAL CORR
 EPD .m                   0.00:  ELEVATION
 EGL .m                   0.00:  GROUND ELEVATION
 WDMS.m                 151.80:  WD ELEV
 APD .m                  43.60:  DEPTH ABOVE PD
 DEP .m                4092.57:  DEPTH
 AGAP.m                  43.60:  AIR GAP
 VSEW.m                  -0.67:  VERT SEC E/W
 VSNS.m                  -7.04:  VERT SEC N/S
 EKB .m                  43.60:  KB ELEVATION
 EDF .m                  43.60:  DF ELEVATION
 TDL .m                 957.50:  TOTAL DEPTH (LOGGER)
 VSC .                       0:  VS TO CLOSURE
 MAGU.                 1851413:  MAGUTM CHECKSUM
~Parameter Information Block
#MNEM.UNIT       Value        Description
#---------     -----------    ---------------------------
 AV  .mps                 1.50:  Ann Velocity 
 AVMX.mps                 2.00:  Max Ann Veloc 
 AZIF.deg               184.66:  Azm, Final 
 BHAT.        Rotary Steerable:  BHA Type 
 BREV.rev               300.00:  Rev Bit Total 
 BROT.°/30m              -0.50:  Build Rotating 
 BS  .in                  8.50:  Bit Size 
 BSZ .in                  8.50:  Bit Size 
 BTPL.psig              370.00:  Bit Press Loss 
 CABU.                      No:  Customer Abuse 
 CGEO.      Behruz Shahbaliyev:  Customer Geo 
 COMM.                     tºv:  Run Comments 1 
 TCS .hr                140.08:  Time Ciculation Ended 
 CV  .mps                 3.00:  Crit Velocity 
 CVMX.mps                 3.20:  Max Crit Veloc 
 DD1 .            Musa Ahmadov:  Direct Drillr 1 
 DD2 .           Hamid Ahmadov:  Direct Drillr 2 
 DDSV.               Geo-Pilot:  DD Service 
 DEFF.%                  98.40:  % Det Eff 
 DLRX.°/30m               3.40:  Dogleg Rot Max 
 DLSO.°/30m               1.45:  Dogleg Oriented 
 DLSX.°/30m               3.40:  Dogleg Str Max 
 DRET.      18.40.00 29-Aug-21:  Drill End Time 
 DRST.      21.00.00 20-Aug-21:  Drill Start Tim 
 DTIM.hr                 69.47:  Time Drilling 
 EDEP.m                5084.50:  End Depth 
 ENG1.      Artemiy Matviyanov:  Engineer 1 
 ENG2.         Almaz Almadatov:  Engineer 2 
 ETIM.      18.40.00 29-Aug-21:  End Time 
 FLOI.gpm               500.00:  Flow In 
 FLON.gpm               400.00:  Flow In Min 
 FLOS.cptm                0.00:  Fluid Loss 
 FLOX.gpm               500.00:  Flow In Max 
 DFT .        Mineral Oil Base:  Mud Type 
 HFLO.                      No:  High Flow 
 HPRE.                      No:  High Pressure 
 HTEM.                      No:  High Temp 
 HYDO.m                   1.80:  Hydro Offset 
 IFIN.deg                25.62:  Inc, Final 
 IMAX.deg                48.69:  Inc Max 
 IMIN.deg                24.01:  Inc Min 
 IMND.m                4962.57:  Inc Min Depth 
 IMXD.m                4119.01:  Inc Max Depth 
 JARR.                      No:  Jarring 
 LETM.      18.40.00 29-Aug-21:  Log End Time 
 LOST.hr                     0:  Lost Rig Time 
 LSTM.      21.00.00 20-Aug-21:  Log Start Time 
 MDCL.ppm             41500.00:  Mud Chlorides 
 MDES.     Inversion Oil/Synthetic:  Mud Desc 
 DFD .sg                  1.56:  Mud Density 
 MDMN.sg                  1.56:  Dens Mud Min 
 MDMX.sg                  1.56:  Dens Mud Max 
 MOIL.                      70:  Run Mud Oil % 
 MOWR.                   70:30:  Run Mud OWR 
 MSND.                     0.2:  Run Mud Sand % 
 MSOL.                    23.3:  Run Mud Solids% 
 DFV .spqt               78.00:  Mud Viscosity 
 MWOD.in                  6.75:  MWD Tool OD 
 MWSI.                      No:  Serv Intrp, MWD 
 OTIM.hr                218.30:  Time Operating 
 PCON.           Look Like New:  Pad Condition 
 PMAX.psia            11015.30:  Press Op, Max 
 PV  .cP                 38.00:  Mud PV 
 RUN .                     300:  Run Number 
 ROPA.m/hr               15.00:  ROP Avg 
 ROPN.m/hr                9.00:  ROP Min 
 ROPX.m/hr               17.00:  ROP Max 
 RPMA.rpm               120.00:  RPM Surface Avg 
 RPMN.rpm                90.00:  RPM Surface Min 
 RPMX.rpm               140.00:  RPM Surface Max 
 RRUN.                     300:  Rig Run Number 
 RTIM.hr                 31.53:  Time Reaming 
 SAZI.deg               331.64:  Azm, Start 
 SDEP.m                4127.00:  Start Depth 
 SIDD.                      No:  Serv Intrp, DD 
 SINC.deg                48.43:  Inc, Start 
 SPPA.psig             5830.00:  SPP Avg 
 SPPN.psig             5600.00:  SPP Min 
 SPPX.psig             5900.00:  SPP Max 
 STIM.      21.00.00 20-Aug-21:  Start Time 
 SVCS.                 DD, MWD:  Services 
 SVER.                    9.20:  Sperry Version 
 TDAT.m                 957.50:  Tot Depth Attmp 
 TDDF.                      No:  Trip for DD 
 TDLG.m                 957.50:  Tot Depth Loggd 
 TFF .                      No:  Trip for Fail 
 TQAA.f-kp               15.00:  Torque Abs Avg 
 TQAN.f-kp               12.00:  Torque Abs Min 
 TQAX.f-kp               19.00:  Torque Abs Max 
 TRRT.°/30m              -3.40:  Turn Rotating 
 MRT .                  EWR-M5:  Maximum Recorded Temperature 
 TTMX.degC              100.00:  Max Tool Temp 
 VS01.                90639251:  Virtual Str1 SN 
 VS02.                90634715:  Virtual Str2 SN 
 VS03.                90652479:  Virtual Str3 SN 
 VS04.                90642262:  Virtual Str4 SN 
 WBMN.klb                 0.00:  WOB Min 
 WITN.           Murad Guliyev:  Customer Rep 
 WITN.          Yashar Gaziyev:  Customer Rep 2 
 WOBA.klb                 9.00:  WOB Avg 
 WOBX.klb                12.00:  WOB Max 
 YP  .lhf2               30.00:  Yield Point 
~Curve Information Block
#MNEM.UNIT                 API CODE     Curve Description
#---------               -----------    ---------------------------
 TIME.HHMMSS            00 000 000 000:  GT Time & Date
 GTDEPTH.m              00 000 000 000:  GT Depth
 GTPQH.psia             00 000 000 000:  GT HR Quartz Pressure
 GTTQ.degC              00 000 000 000:  GT Quartz Temperature
 GTTN.NONE              00 000 000 000:  GT Test Number
 GTET.sec               00 000 000 000:  GT Elapsed Test Time
 GTTVD.m                00 000 000 000:  GT True Vertical Depth
#Other Information
#
#WARRANTY: Halliburton will use its best efforts to furnish customers with 
#accurate information and interpretations that are part of, and incident to, the services 
#provided.  However, Halliburton cannot and does not warrant the accuracy 
#or correctness of such information and interpretations.  Under no circumstances should any 
#such information or interpretation be relied upon as the sole basis for any drilling, 
#completion, production, or financial decision or any procedure involving any risk to the 
#safety of any drilling venture, drilling rig or its crew or any other third party.  The 
#Customer has full responsibility for all drilling, completion and production operation.  
#Halliburton makes no representations or warranties, either expressed or 
#implied, including, but not limited to, the implied warranties of merchantability or fitness 
#for a particular purpose, with respect to the services rendered.  In no event will 
#Halliburton be liable for failure to obtain any particular results or for 
#any damages, including, but not limited to, indirect, special or consequential damages, 
#resulting from the use of any information or interpretation provided by Halliburton.
#
~A           TIME           GTDEPTH  GTPQH  GTTQ  GTTN   GTET   GTTVD  
# ...
   21:27:27.673.27-Aug-2021 4641.00 1232.71 82.41 23.00 203.42 3014.10
   21:27:27.873.27-Aug-2021 4641.00 1232.80 82.41 23.00 203.62 3014.10
   21:27:28.073.27-Aug-2021 4641.00 1232.97 82.41 23.00 203.82 3014.10
   21:27:28.273.27-Aug-2021 4641.00 1233.09 82.41 23.00 204.02 3014.10
   21:27:28.473.27-Aug-2021 4641.00 1233.09 82.41 23.00 204.22 3014.10
   21:27:28.673.27-Aug-2021 4641.00 1233.34 82.41 23.00 204.42 3014.10
   21:27:28.873.27-Aug-2021 4641.00 1233.44 82.41 23.00 204.62 3014.10
   21:27:29.073.27-Aug-2021 4641.00 1233.58 82.41 23.00 204.82 3014.10
   21:27:29.273.27-Aug-2021 4641.00 1233.71 82.41 23.00 205.02 3014.10
   21:27:29.473.27-Aug-2021 4641.00 1233.71 82.41 23.00 205.22 3014.10
   21:27:29.673.27-Aug-2021 4641.00 1233.99 82.41 23.00 205.42 3014.10
   21:27:29.873.27-Aug-2021 4641.00 1234.11 82.41 23.00 205.62 3014.10
   21:27:30.073.27-Aug-2021 4641.00 1234.23 82.41 23.00 205.82 3014.10
   21:27:30.273.27-Aug-2021 4641.00 1234.21 82.41 23.00 206.02 3014.10
   21:27:30.473.27-Aug-2021 4641.00 1234.21 82.41 23.00 206.22 3014.10
   21:27:30.673.27-Aug-2021 4641.00 1234.91 82.41 23.00 206.42 3014.10
   21:27:30.873.27-Aug-2021 4641.00 1235.02 82.41 23.00 206.62 3014.10
   21:27:31.073.27-Aug-2021 4641.00 1235.12 82.41 23.00 206.82 3014.10
   21:27:31.273.27-Aug-2021 4641.00 1235.19 82.41 23.00 207.02 3014.10
   21:27:31.473.27-Aug-2021 4641.00 1235.19 82.41 23.00 207.22 3014.10
   21:27:31.673.27-Aug-2021 4641.00 1235.42 82.41 23.00 207.42 3014.10
   21:27:31.873.27-Aug-2021 4641.00 1235.53 82.41 23.00 207.62 3014.10
   21:27:32.073.27-Aug-2021 4641.00 1235.64 82.41 23.00 207.82 3014.10
   21:27:32.273.27-Aug-2021 4641.00 1235.75 82.41 23.00 208.02 3014.10
   21:27:32.473.27-Aug-2021 4641.00 1235.75 82.41 23.00 208.22 3014.10
   21:27:32.673.27-Aug-2021 4641.00 1235.98 82.41 23.00 208.42 3014.10
   21:27:32.873.27-Aug-2021 4641.00 1236.12 82.41 23.00 208.62 3014.10
   21:27:33.073.27-Aug-2021 4641.00 1236.23 82.41 23.00 208.82 3014.10
   21:27:33.273.27-Aug-2021 4641.00 1236.37 82.41 23.00 209.02 3014.10
   21:27:33.473.27-Aug-2021 4641.00 1236.37 82.41 23.00 209.22 3014.10
   21:27:33.673.27-Aug-2021 4641.00 1236.49 82.41 23.00 209.42 3014.10
   21:27:33.873.27-Aug-2021 4641.00 1237.15 82.41 23.00 209.62 3014.10
   21:27:34.073.27-Aug-2021 4641.00 1237.23 82.41 23.00 209.82 3014.10
   21:27:34.273.27-Aug-2021 4641.00 1237.31 82.41 23.00 210.02 3014.10
   21:27:34.473.27-Aug-2021 4641.00 1237.31 82.41 23.00 210.22 3014.10
   21:27:34.673.27-Aug-2021 4641.00 1237.54 82.41 23.00 210.42 3014.10
   21:27:34.873.27-Aug-2021 4641.00 1237.10 82.41 23.00 210.62 3014.10
   21:27:35.073.27-Aug-2021 4641.00 1237.89 82.41 23.00 210.82 3014.10
   21:27:35.274.27-Aug-2021 4641.00 1237.95 82.41 23.00 211.02 3014.10
   21:27:35.474.27-Aug-2021 4641.00 1237.95 82.41 23.00 211.22 3014.10
   21:27:35.674.27-Aug-2021 4641.00 1238.17 82.41 23.00 211.42 3014.10
   21:27:35.874.27-Aug-2021 4641.00 1238.33 82.41 23.00 211.62 3014.10
   21:27:36.074.27-Aug-2021 4641.00 1237.76 82.41 23.00 211.82 3014.10
   21:27:36.274.27-Aug-2021 4641.00 1238.44 82.41 23.00 212.02 3014.10
   21:27:36.474.27-Aug-2021 4641.00 1238.44 82.41 23.00 212.22 3014.10
   21:27:36.674.27-Aug-2021 4641.00 1238.60 82.41 23.00 212.42 3014.10
   21:27:36.874.27-Aug-2021 4641.00 1237.94 82.41 23.00 212.62 3014.10
   21:27:37.074.27-Aug-2021 4641.00 1238.98 82.41 23.00 212.82 3014.10
   21:27:37.274.27-Aug-2021 4641.00 1238.91 82.41 23.00 213.02 3014.10
   21:27:37.474.27-Aug-2021 4641.00 1238.91 82.41 23.00 213.22 3014.10
   21:27:37.674.27-Aug-2021 4641.00 1239.12 82.41 23.00 213.42 3014.10
   21:27:37.874.27-Aug-2021 4641.00 1239.25 82.41 23.00 213.62 3014.10
   21:27:38.074.27-Aug-2021 4641.00 1239.34 82.41 23.00 213.82 3014.10
   21:27:38.274.27-Aug-2021 4641.00 1239.45 82.41 23.00 214.02 3014.10
   21:27:38.474.27-Aug-2021 4641.00 1239.45 82.41 23.00 214.22 3014.10
   21:27:38.674.27-Aug-2021 4641.00 1239.64 82.41 23.00 214.42 3014.10
   21:27:38.874.27-Aug-2021 4641.00 1239.76 82.41 23.00 214.62 3014.10
   21:27:39.074.27-Aug-2021 4641.00 1239.86 82.41 23.00 214.82 3014.10
   21:27:39.274.27-Aug-2021 4641.00 1239.98 82.41 23.00 215.02 3014.10
   21:27:39.474.27-Aug-2021 4641.00 1239.98 82.41 23.00 215.22 3014.10
   21:27:39.674.27-Aug-2021 4641.00 1240.20 82.41 23.00 215.42 3014.10
   21:27:39.874.27-Aug-2021 4641.00 1240.22 82.41 23.00 215.62 3014.10
   21:27:40.074.27-Aug-2021 4641.00 1240.16 82.41 23.00 215.82 3014.10
   21:27:40.274.27-Aug-2021 4641.00 1240.83 82.41 23.00 216.02 3014.10
   21:27:40.474.27-Aug-2021 4641.00 1240.83 82.41 23.00 216.22 3014.10
   21:27:40.674.27-Aug-2021 4641.00 1241.02 82.41 23.00 216.42 3014.10
   21:27:40.874.27-Aug-2021 4641.00 1241.10 82.41 23.00 216.62 3014.10
   21:27:41.074.27-Aug-2021 4641.00 1241.24 82.41 23.00 216.82 3014.10
   21:27:41.274.27-Aug-2021 4641.00 1241.33 82.41 23.00 217.02 3014.10
   21:27:41.474.27-Aug-2021 4641.00 1241.33 82.41 23.00 217.22 3014.10
   21:27:41.674.27-Aug-2021 4641.00 1241.54 82.41 23.00 217.42 3014.10
   21:27:41.874.27-Aug-2021 4641.00 1241.65 82.41 23.00 217.62 3014.10
   21:27:42.074.27-Aug-2021 4641.00 1241.77 82.41 23.00 217.82 3014.10
   21:27:42.274.27-Aug-2021 4641.00 1241.89 82.41 23.00 218.02 3014.10
   21:27:42.474.27-Aug-2021 4641.00 1241.89 82.41 23.00 218.22 3014.10
   21:27:42.674.27-Aug-2021 4641.00 1242.14 82.41 23.00 218.42 3014.10
   21:27:42.874.27-Aug-2021 4641.00 1242.24 82.41 23.00 218.62 3014.10
   21:27:43.074.27-Aug-2021 4641.00 1242.26 82.41 23.00 218.82 3014.10
   21:27:43.274.27-Aug-2021 4641.00 1242.31 82.41 23.00 219.02 3014.10
   21:27:43.474.27-Aug-2021 4641.00 1242.31 82.41 23.00 219.22 3014.10
   21:27:43.674.27-Aug-2021 4641.00 1243.08 82.41 23.00 219.42 3014.10
   21:27:43.874.27-Aug-2021 4641.00 1243.14 82.41 23.00 219.62 3014.10
   21:27:44.074.27-Aug-2021 4641.00 1243.23 82.41 23.00 219.82 3014.10
   21:27:44.274.27-Aug-2021 4641.00 1242.63 82.41 23.00 220.02 3014.10
   21:27:44.474.27-Aug-2021 4641.00 1242.63 82.41 23.00 220.22 3014.10
   21:27:44.674.27-Aug-2021 4641.00 1243.62 82.41 23.00 220.42 3014.10
   21:27:44.874.27-Aug-2021 4641.00 1243.68 82.41 23.00 220.62 3014.10
   21:27:45.075.27-Aug-2021 4641.00 1243.81 82.41 23.00 220.82 3014.10
   21:27:45.275.27-Aug-2021 4641.00 1243.91 82.41 23.00 221.02 3014.10
   21:27:45.475.27-Aug-2021 4641.00 1243.91 82.41 23.00 221.22 3014.10
   21:27:45.675.27-Aug-2021 4641.00 1243.41 82.41 23.00 221.42 3014.10
   21:27:45.875.27-Aug-2021 4641.00 1244.43 82.41 23.00 221.62 3014.10
   21:27:46.075.27-Aug-2021 4641.00 1244.39 82.41 23.00 221.82 3014.10
   21:27:46.275.27-Aug-2021 4641.00 1244.45 82.41 23.00 222.02 3014.10
   21:27:46.475.27-Aug-2021 4641.00 1244.45 82.41 23.00 222.22 3014.10
   21:27:46.675.27-Aug-2021 4641.00 1244.06 82.41 23.00 222.42 3014.10
   21:27:46.875.27-Aug-2021 4641.00 1243.93 82.41 23.00 222.62 3014.10
   21:27:47.075.27-Aug-2021 4641.00 1244.17 82.41 23.00 222.82 3014.10
   21:27:47.275.27-Aug-2021 4641.00 1244.21 82.41 23.00 223.02 3014.10
   21:27:47.475.27-Aug-2021 4641.00 1244.21 82.41 23.00 223.22 3014.10
   21:27:47.675.27-Aug-2021 4641.00 1244.46 82.41 23.00 223.42 3014.10
   21:27:47.875.27-Aug-2021 4641.00 1244.55 82.41 23.00 223.62 3014.10
   21:27:48.075.27-Aug-2021 4641.00 1244.67 82.41 23.00 223.82 3014.10
   21:27:48.275.27-Aug-2021 4641.00 1244.75 82.41 23.00 224.02 3014.10
   21:27:48.475.27-Aug-2021 4641.00 1244.75 82.41 23.00 224.22 3014.10
   21:27:48.675.27-Aug-2021 4641.00 1244.96 82.41 23.00 224.42 3014.10
   21:27:48.875.27-Aug-2021 4641.00 1245.06 82.41 23.00 224.62 3014.10
   21:27:49.075.27-Aug-2021 4641.00 1245.17 82.41 23.00 224.82 3014.10
   21:27:49.275.27-Aug-2021 4641.00 1245.27 82.41 23.00 225.02 3014.10
   21:27:49.475.27-Aug-2021 4641.00 1245.27 82.41 23.00 225.22 3014.10
   21:27:49.675.27-Aug-2021 4641.00 1245.52 82.41 23.00 225.42 3014.10
   21:27:49.875.27-Aug-2021 4641.00 1245.19 82.41 23.00 225.62 3014.10
   21:27:50.075.27-Aug-2021 4641.00 1246.08 82.41 23.00 225.82 3014.10
