~Version Information
 VERS.                  2.0:   CWLS log ASCII Standard -VERSION 2.0
 WRAP.                   NO:   One line per depth step
~Well Information Block
#MNEM.UNIT     VALUE/NAME     DESCRIPTION
#---------     -----------    ---------------------------
 STRT.S             04:10:22 28-Aug-21: START TIME 04:10:22 28-Aug-21
 STOP.S             04:17:14 28-Aug-21: STOP TIME  04:17:14 28-Aug-21
 STEP.S                   0.00: STEP TIME
 NULL.                 -999.25: NULL VALUE
 DFWT.                        :  DIST FWL TEXT
 DFST.                        :  DIST FSL TEXT
 DMF .             Drill Floor:  DRILL MEAS FROM
 STIM.      20.00.00 17-Aug-21:  START TIME
 DATE.      19.00.00 29-Aug-21:  END TIME
 SPUD.               15-Aug-21:  SPUD DATE
 NREF.                    Grid:  NORTH REFERENCE
 HPTY.       Minimum Curvature:  HOLE POS TYPE
 DMOD.             Drill Model:  DRILL MOD DESC
 SVYD.                  Survey:  SURVEY DESC
 ILTD.               Lithology:  INTERP LTH DESC
 FTOP.          Formation Tops:  FORM TOPS DESC
 RIG .              East Azeri:  RIG NAME
 PDAT.          Mean Sea Level:  PERMANENT DATUM
 FLD .                     ACG:  FIELD NAME
 SON .        AZ-XX-0907180857:  JOB NUMBER
 CTRY.              Azerbaijan:  COUNTRY NAME
 WELL.                    D23x:  WELL NAME
 SRVC.     Turan Drilling and Engineering:  CONTRACTOR
 COMP.     BP Exploration (Caspian Sea) Ltd.:  COMPANY
 UWI .            /AZE00000214:  UNIQUE WELL IDENTIFIER
 API .            /AZE00000214:  API NUMBER
 MDS .        Operator Entered:  MAG DATA SOURCE
 BASE.              Azerbaijan:  LOGGING EQUIPMENT BASE LOCATION
 REGN.                   EESSA:  REGION
 PROV.                    Baku:  PROVINCE
 STAT.                    Baku:  STATE NAME
 MWDS.                    Baku:  MWD SHOP
 DOE .                     N/A:  DOE NUMBER
 DCON.         Sperry Drilling:  DIRECTNL CONTR
 UNIT.                     N/A:  LOGGING EQUIPMENT ID
 WTYP.                Deviated:  WELL TYPE
 CNTY.                        :  COUNTY
 LOC .                        :  LOCATION
 LMF .             Drill Floor:  LOG MEASURED FROM
 TVDS.m                  43.60:  TVDSS CORRECTN
 LATI.deg                40.02:  LATITUDE
 LONG.deg                51.45:  LONGITUDE
 WHNS.m                  -7.04:  WELL HEAD N/S
 WHEW.m                  -0.67:  WELL HEAD E/W
 UTMX.m              538762.90:  UTM X
 UTMY.m             4431871.34:  UTM Y
 DFWL.m                   0.00:  DISTANCE FWL
 DFSL.m                   0.00:  DISTANCE FSL
 SDEP.m                4127.00:  START DEPTH
 TDD .m                5084.50:  TOTAL DEPTH (DRILLER)
 VSDR.deg               140.47:  VERT SEC DIRECT
 GVFD.g                   1.00:  GRAVITY FIELD
 MFLD.nT              50362.00:  MAGNETIC FIELD
 MDIP.deg                59.48:  MAGNETIC DIP
 MDEC.deg                 6.47:  MAGNETIC DECL
 GRDC.deg                 0.31:  GRID CORRECTION
 AZTC.deg                 6.16:  AZM TOTAL CORR
 EPD .m                   0.00:  ELEVATION
 EGL .m                   0.00:  GROUND ELEVATION
 WDMS.m                 151.80:  WD ELEV
 APD .m                  43.60:  DEPTH ABOVE PD
 DEP .m                4092.57:  DEPTH
 AGAP.m                  43.60:  AIR GAP
 VSEW.m                  -0.67:  VERT SEC E/W
 VSNS.m                  -7.04:  VERT SEC N/S
 EKB .m                  43.60:  KB ELEVATION
 EDF .m                  43.60:  DF ELEVATION
 TDL .m                 957.50:  TOTAL DEPTH (LOGGER)
 VSC .                       0:  VS TO CLOSURE
 MAGU.                 1851413:  MAGUTM CHECKSUM
~Parameter Information Block
#MNEM.UNIT       Value        Description
#---------     -----------    ---------------------------
 AV  .mps                 1.50:  Ann Velocity 
 AVMX.mps                 2.00:  Max Ann Veloc 
 AZIF.deg               184.66:  Azm, Final 
 BHAT.        Rotary Steerable:  BHA Type 
 BREV.rev               300.00:  Rev Bit Total 
 BROT.°/30m              -0.50:  Build Rotating 
 BS  .in                  8.50:  Bit Size 
 BSZ .in                  8.50:  Bit Size 
 BTPL.psig              370.00:  Bit Press Loss 
 CABU.                      No:  Customer Abuse 
 CGEO.      Behruz Shahbaliyev:  Customer Geo 
 COMM.                     LÁp:  Run Comments 1 
 TCS .hr                140.08:  Time Ciculation Ended 
 CV  .mps                 3.00:  Crit Velocity 
 CVMX.mps                 3.20:  Max Crit Veloc 
 DD1 .            Musa Ahmadov:  Direct Drillr 1 
 DD2 .           Hamid Ahmadov:  Direct Drillr 2 
 DDSV.               Geo-Pilot:  DD Service 
 DEFF.%                  98.40:  % Det Eff 
 DLRX.°/30m               3.40:  Dogleg Rot Max 
 DLSO.°/30m               1.45:  Dogleg Oriented 
 DLSX.°/30m               3.40:  Dogleg Str Max 
 DRET.      18.40.00 29-Aug-21:  Drill End Time 
 DRST.      21.00.00 20-Aug-21:  Drill Start Tim 
 DTIM.hr                 69.47:  Time Drilling 
 EDEP.m                5084.50:  End Depth 
 ENG1.      Artemiy Matviyanov:  Engineer 1 
 ENG2.         Almaz Almadatov:  Engineer 2 
 ETIM.      18.40.00 29-Aug-21:  End Time 
 FLOI.gpm               500.00:  Flow In 
 FLON.gpm               400.00:  Flow In Min 
 FLOS.cptm                0.00:  Fluid Loss 
 FLOX.gpm               500.00:  Flow In Max 
 DFT .        Mineral Oil Base:  Mud Type 
 HFLO.                      No:  High Flow 
 HPRE.                      No:  High Pressure 
 HTEM.                      No:  High Temp 
 HYDO.m                   1.80:  Hydro Offset 
 IFIN.deg                25.62:  Inc, Final 
 IMAX.deg                48.69:  Inc Max 
 IMIN.deg                24.01:  Inc Min 
 IMND.m                4962.57:  Inc Min Depth 
 IMXD.m                4119.01:  Inc Max Depth 
 JARR.                      No:  Jarring 
 LETM.      18.40.00 29-Aug-21:  Log End Time 
 LOST.hr                     0:  Lost Rig Time 
 LSTM.      21.00.00 20-Aug-21:  Log Start Time 
 MDCL.ppm             41500.00:  Mud Chlorides 
 MDES.     Inversion Oil/Synthetic:  Mud Desc 
 DFD .sg                  1.56:  Mud Density 
 MDMN.sg                  1.56:  Dens Mud Min 
 MDMX.sg                  1.56:  Dens Mud Max 
 MOIL.                      70:  Run Mud Oil % 
 MOWR.                   70:30:  Run Mud OWR 
 MSND.                     0.2:  Run Mud Sand % 
 MSOL.                    23.3:  Run Mud Solids% 
 DFV .spqt               78.00:  Mud Viscosity 
 MWOD.in                  6.75:  MWD Tool OD 
 MWSI.                      No:  Serv Intrp, MWD 
 OTIM.hr                218.30:  Time Operating 
 PCON.           Look Like New:  Pad Condition 
 PMAX.psia            11015.30:  Press Op, Max 
 PV  .cP                 38.00:  Mud PV 
 RUN .                     300:  Run Number 
 ROPA.m/hr               15.00:  ROP Avg 
 ROPN.m/hr                9.00:  ROP Min 
 ROPX.m/hr               17.00:  ROP Max 
 RPMA.rpm               120.00:  RPM Surface Avg 
 RPMN.rpm                90.00:  RPM Surface Min 
 RPMX.rpm               140.00:  RPM Surface Max 
 RRUN.                     300:  Rig Run Number 
 RTIM.hr                 31.53:  Time Reaming 
 SAZI.deg               331.64:  Azm, Start 
 SDEP.m                4127.00:  Start Depth 
 SIDD.                      No:  Serv Intrp, DD 
 SINC.deg                48.43:  Inc, Start 
 SPPA.psig             5830.00:  SPP Avg 
 SPPN.psig             5600.00:  SPP Min 
 SPPX.psig             5900.00:  SPP Max 
 STIM.      21.00.00 20-Aug-21:  Start Time 
 SVCS.                 DD, MWD:  Services 
 SVER.                    9.20:  Sperry Version 
 TDAT.m                 957.50:  Tot Depth Attmp 
 TDDF.                      No:  Trip for DD 
 TDLG.m                 957.50:  Tot Depth Loggd 
 TFF .                      No:  Trip for Fail 
 TQAA.f-kp               15.00:  Torque Abs Avg 
 TQAN.f-kp               12.00:  Torque Abs Min 
 TQAX.f-kp               19.00:  Torque Abs Max 
 TRRT.°/30m              -3.40:  Turn Rotating 
 MRT .                  EWR-M5:  Maximum Recorded Temperature 
 TTMX.degC              100.00:  Max Tool Temp 
 VS01.                90639251:  Virtual Str1 SN 
 VS02.                90634715:  Virtual Str2 SN 
 VS03.                90652479:  Virtual Str3 SN 
 VS04.                90642262:  Virtual Str4 SN 
 WBMN.klb                 0.00:  WOB Min 
 WITN.           Murad Guliyev:  Customer Rep 
 WITN.          Yashar Gaziyev:  Customer Rep 2 
 WOBA.klb                 9.00:  WOB Avg 
 WOBX.klb                12.00:  WOB Max 
 YP  .lhf2               30.00:  Yield Point 
~Curve Information Block
#MNEM.UNIT                 API CODE     Curve Description
#---------               -----------    ---------------------------
 TIME.HHMMSS            00 000 000 000:  GT Time & Date
 GTDEPTH.m              00 000 000 000:  GT Depth
 GTPQH.psia             00 000 000 000:  GT HR Quartz Pressure
 GTTQ.degC              00 000 000 000:  GT Quartz Temperature
 GTTN.NONE              00 000 000 000:  GT Test Number
 GTET.sec               00 000 000 000:  GT Elapsed Test Time
 GTTVD.m                00 000 000 000:  GT True Vertical Depth
#Other Information
#
#WARRANTY: Halliburton will use its best efforts to furnish customers with 
#accurate information and interpretations that are part of, and incident to, the services 
#provided.  However, Halliburton cannot and does not warrant the accuracy 
#or correctness of such information and interpretations.  Under no circumstances should any 
#such information or interpretation be relied upon as the sole basis for any drilling, 
#completion, production, or financial decision or any procedure involving any risk to the 
#safety of any drilling venture, drilling rig or its crew or any other third party.  The 
#Customer has full responsibility for all drilling, completion and production operation.  
#Halliburton makes no representations or warranties, either expressed or 
#implied, including, but not limited to, the implied warranties of merchantability or fitness 
#for a particular purpose, with respect to the services rendered.  In no event will 
#Halliburton be liable for failure to obtain any particular results or for 
#any damages, including, but not limited to, indirect, special or consequential damages, 
#resulting from the use of any information or interpretation provided by Halliburton.
#
~A           TIME           GTDEPTH  GTPQH  GTTQ  GTTN   GTET   GTTVD  
# ...
   04:16:24.930.28-Aug-2021 4978.00 7971.81 80.42 29.00 362.11 3319.69
   04:16:25.130.28-Aug-2021 4978.00 7975.33 80.42 29.00 362.31 3319.69
   04:16:25.330.28-Aug-2021 4978.00 7973.98 80.42 29.00 362.51 3319.69
   04:16:25.531.28-Aug-2021 4978.00 7973.98 80.42 29.00 362.71 3319.69
   04:16:25.731.28-Aug-2021 4978.00 7971.89 80.42 29.00 362.91 3319.69
   04:16:25.931.28-Aug-2021 4978.00 7971.81 80.42 29.00 363.11 3319.69
   04:16:26.131.28-Aug-2021 4978.00 7972.69 80.42 29.00 363.31 3319.69
   04:16:26.332.28-Aug-2021 4978.00 7972.36 80.42 29.00 363.51 3319.69
   04:16:26.532.28-Aug-2021 4978.00 7972.36 80.42 29.00 363.71 3319.69
   04:16:26.732.28-Aug-2021 4978.00 7971.90 80.42 29.00 363.91 3319.69
   04:16:26.933.28-Aug-2021 4978.00 7972.11 80.42 29.00 364.11 3319.69
   04:16:27.133.28-Aug-2021 4978.00 7972.95 80.42 29.00 364.31 3319.69
   04:16:27.333.28-Aug-2021 4978.00 7973.12 80.42 29.00 364.51 3319.69
   04:16:27.533.28-Aug-2021 4978.00 7973.12 80.42 29.00 364.71 3319.69
   04:16:27.734.28-Aug-2021 4978.00 7972.71 80.42 29.00 364.91 3319.69
   04:16:27.934.28-Aug-2021 4978.00 7972.62 80.42 29.00 365.11 3319.69
   04:16:28.134.28-Aug-2021 4978.00 7972.56 80.42 29.00 365.31 3319.69
   04:16:28.334.28-Aug-2021 4978.00 7977.25 80.42 29.00 365.51 3319.69
   04:16:28.535.28-Aug-2021 4978.00 7977.25 80.42 29.00 365.71 3319.69
   04:16:28.735.28-Aug-2021 4978.00 7972.31 80.42 29.00 365.91 3319.69
   04:16:28.935.28-Aug-2021 4978.00 7972.10 80.42 29.00 366.11 3319.69
   04:16:29.136.28-Aug-2021 4978.00 7972.13 80.42 29.00 366.31 3319.69
   04:16:29.336.28-Aug-2021 4978.00 7972.24 80.42 29.00 366.52 3319.69
   04:16:29.536.28-Aug-2021 4978.00 7972.24 80.42 29.00 366.72 3319.69
   04:16:29.736.28-Aug-2021 4978.00 7971.90 80.42 29.00 366.92 3319.69
   04:16:29.937.28-Aug-2021 4978.00 7971.78 80.42 29.00 367.12 3319.69
   04:16:30.137.28-Aug-2021 4978.00 7972.12 80.42 29.00 367.32 3319.69
   04:16:30.337.28-Aug-2021 4978.00 7973.15 80.42 29.00 367.52 3319.69
   04:16:30.538.28-Aug-2021 4978.00 7973.15 80.42 29.00 367.72 3319.69
   04:16:30.738.28-Aug-2021 4978.00 7973.42 80.42 29.00 367.92 3319.69
   04:16:30.938.28-Aug-2021 4978.00 7973.20 80.42 29.00 368.12 3319.69
   04:16:31.138.28-Aug-2021 4978.00 7973.15 80.42 29.00 368.32 3319.69
   04:16:31.339.28-Aug-2021 4978.00 7973.10 80.42 29.00 368.52 3319.69
   04:16:31.539.28-Aug-2021 4978.00 7973.10 80.42 29.00 368.72 3319.69
   04:16:31.739.28-Aug-2021 4978.00 7978.07 80.42 29.00 368.92 3319.69
   04:16:31.940.28-Aug-2021 4978.00 7971.26 80.42 29.00 369.12 3319.69
   04:16:32.140.28-Aug-2021 4978.00 7973.01 80.42 29.00 369.32 3319.69
   04:16:32.340.28-Aug-2021 4978.00 7972.35 80.42 29.00 369.52 3319.69
   04:16:32.540.28-Aug-2021 4978.00 7972.35 80.42 29.00 369.72 3319.69
   04:16:32.741.28-Aug-2021 4978.00 7976.03 80.42 29.00 369.92 3319.69
   04:16:32.941.28-Aug-2021 4978.00 7973.93 80.42 29.00 370.12 3319.69
   04:16:33.141.28-Aug-2021 4978.00 7972.54 80.42 29.00 370.32 3319.69
   04:16:33.342.28-Aug-2021 4978.00 7971.90 80.42 29.00 370.52 3319.69
   04:16:33.542.28-Aug-2021 4978.00 7971.90 80.42 29.00 370.72 3319.69
   04:16:33.742.28-Aug-2021 4978.00 7972.73 80.42 29.00 370.92 3319.69
   04:16:33.942.28-Aug-2021 4978.00 7973.20 80.42 29.00 371.12 3319.69
   04:16:34.143.28-Aug-2021 4978.00 7972.61 80.42 29.00 371.32 3319.69
   04:16:34.343.28-Aug-2021 4978.00 7972.46 80.42 29.00 371.52 3319.69
   04:16:34.543.28-Aug-2021 4978.00 7972.46 80.42 29.00 371.72 3319.69
   04:16:34.743.28-Aug-2021 4978.00 7972.42 80.42 29.00 371.92 3319.69
   04:16:34.944.28-Aug-2021 4978.00 7972.72 80.42 29.00 372.12 3319.69
   04:16:35.144.28-Aug-2021 4978.00 7972.00 80.42 29.00 372.32 3319.69
   04:16:35.344.28-Aug-2021 4978.00 7972.09 80.42 29.00 372.52 3319.69
   04:16:35.545.28-Aug-2021 4978.00 7972.09 80.42 29.00 372.72 3319.69
   04:16:35.745.28-Aug-2021 4978.00 7972.64 80.42 29.00 372.92 3319.69
   04:16:35.945.28-Aug-2021 4978.00 7972.18 80.42 29.00 373.12 3319.69
   04:16:36.145.28-Aug-2021 4978.00 7971.77 80.42 29.00 373.32 3319.69
   04:16:36.346.28-Aug-2021 4978.00 7972.07 80.42 29.00 373.52 3319.69
   04:16:36.546.28-Aug-2021 4978.00 7972.07 80.42 29.00 373.73 3319.69
   04:16:36.746.28-Aug-2021 4978.00 7973.28 80.42 29.00 373.93 3319.69
   04:16:36.947.28-Aug-2021 4978.00 7973.04 80.42 29.00 374.13 3319.69
   04:16:37.147.28-Aug-2021 4978.00 7972.87 80.42 29.00 374.33 3319.69
   04:16:37.347.28-Aug-2021 4978.00 7972.66 80.42 29.00 374.53 3319.69
   04:16:37.547.28-Aug-2021 4978.00 7972.66 80.42 29.00 374.73 3319.69
   04:16:37.748.28-Aug-2021 4978.00 7977.69 80.42 29.00 374.93 3319.69
   04:16:37.948.28-Aug-2021 4978.00 7971.22 80.42 29.00 375.13 3319.69
   04:16:38.148.28-Aug-2021 4978.00 7973.02 80.42 29.00 375.33 3319.69
   04:16:38.349.28-Aug-2021 4978.00 7972.13 80.42 29.00 375.53 3319.69
   04:16:38.549.28-Aug-2021 4978.00 7972.13 80.42 29.00 375.73 3319.69
   04:16:38.749.28-Aug-2021 4978.00 7972.14 80.42 29.00 375.93 3319.69
   04:16:38.949.28-Aug-2021 4978.00 7972.11 80.42 29.00 376.13 3319.69
   04:16:39.150.28-Aug-2021 4978.00 7971.71 80.42 29.00 376.33 3319.69
   04:16:39.350.28-Aug-2021 4978.00 7971.49 80.42 29.00 376.53 3319.69
   04:16:39.550.28-Aug-2021 4978.00 7971.49 80.42 29.00 376.73 3319.69
   04:16:39.751.28-Aug-2021 4978.00 7972.80 80.42 29.00 376.93 3319.69
   04:16:39.951.28-Aug-2021 4978.00 7973.10 80.42 29.00 377.13 3319.69
   04:16:40.151.28-Aug-2021 4978.00 7973.28 80.42 29.00 377.33 3319.69
   04:16:40.351.28-Aug-2021 4978.00 7973.02 80.42 29.00 377.53 3319.69
   04:16:40.552.28-Aug-2021 4978.00 7973.02 80.42 29.00 377.73 3319.69
   04:16:40.752.28-Aug-2021 4978.00 7972.82 80.42 29.00 377.93 3319.69
   04:16:40.952.28-Aug-2021 4978.00 7972.73 80.42 29.00 378.13 3319.69
   04:16:41.152.28-Aug-2021 4978.00 7974.37 80.42 29.00 378.33 3319.69
   04:16:41.353.28-Aug-2021 4978.00 7974.38 80.42 29.00 378.53 3319.69
   04:16:41.553.28-Aug-2021 4978.00 7974.38 80.42 29.00 378.73 3319.69
   04:16:41.753.28-Aug-2021 4978.00 7972.02 80.42 29.00 378.93 3319.69
   04:16:41.954.28-Aug-2021 4978.00 7972.18 80.42 29.00 379.13 3319.69
   04:16:42.154.28-Aug-2021 4978.00 7976.90 80.42 29.00 379.33 3319.69
   04:16:42.354.28-Aug-2021 4978.00 7971.76 80.42 29.00 379.53 3319.69
   04:16:42.554.28-Aug-2021 4978.00 7971.76 80.42 29.00 379.73 3319.69
   04:16:42.755.28-Aug-2021 4978.00 7971.19 80.42 29.00 379.93 3319.69
   04:16:42.955.28-Aug-2021 4978.00 7976.72 80.42 29.00 380.13 3319.69
   04:16:43.155.28-Aug-2021 4978.00 7970.96 80.42 29.00 380.33 3319.69
   04:16:43.356.28-Aug-2021 4978.00 7973.12 80.42 29.00 380.53 3319.69
   04:16:43.556.28-Aug-2021 4978.00 7973.12 80.42 29.00 380.74 3319.69
   04:16:43.756.28-Aug-2021 4978.00 7971.65 80.42 29.00 380.94 3319.69
   04:16:43.956.28-Aug-2021 4978.00 7976.95 80.42 29.00 381.14 3319.69
   04:16:44.157.28-Aug-2021 4978.00 7971.28 80.42 29.00 381.34 3319.69
   04:16:44.357.28-Aug-2021 4978.00 7973.00 80.42 29.00 381.54 3319.69
   04:16:44.557.28-Aug-2021 4978.00 7973.00 80.42 29.00 381.74 3319.69
   04:16:44.758.28-Aug-2021 4978.00 7971.96 80.42 29.00 381.94 3319.69
   04:16:44.958.28-Aug-2021 4978.00 7972.56 80.42 29.00 382.14 3319.69
   04:16:45.158.28-Aug-2021 4978.00 7972.63 80.42 29.00 382.34 3319.69
   04:16:45.358.28-Aug-2021 4978.00 7972.17 80.42 29.00 382.54 3319.69
   04:16:45.559.28-Aug-2021 4978.00 7972.17 80.42 29.00 382.74 3319.69
   04:16:45.759.28-Aug-2021 4978.00 7972.09 80.42 29.00 382.94 3319.69
   04:16:45.959.28-Aug-2021 4978.00 7972.70 80.42 29.00 383.14 3319.69
   04:16:46.160.28-Aug-2021 4978.00 7973.22 80.42 29.00 383.34 3319.69
   04:16:46.360.28-Aug-2021 4978.00 7973.19 80.42 29.00 383.54 3319.69
   04:16:46.560.28-Aug-2021 4978.00 7973.19 80.42 29.00 383.74 3319.69
   04:16:46.760.28-Aug-2021 4978.00 7972.82 80.42 29.00 383.94 3319.69
   04:16:46.961.28-Aug-2021 4978.00 7972.59 80.42 29.00 384.14 3319.69
   04:16:47.161.28-Aug-2021 4978.00 7974.34 80.42 29.00 384.34 3319.69
   04:16:47.361.28-Aug-2021 4978.00 7974.58 80.42 29.00 384.54 3319.69
