~Version Information
 VERS.                  2.0:   CWLS log ASCII Standard -VERSION 2.0
 WRAP.                   NO:   One line per depth step
~Well Information Block
#MNEM.UNIT     VALUE/NAME     DESCRIPTION
#---------     -----------    ---------------------------
 STRT.S             08:06:40 27-Aug-21: START TIME 08:06:40 27-Aug-21
 STOP.S             08:13:50 27-Aug-21: STOP TIME  08:13:50 27-Aug-21
 STEP.S                   0.00: STEP TIME
 NULL.                 -999.25: NULL VALUE
 DFWT.                        :  DIST FWL TEXT
 DFST.                        :  DIST FSL TEXT
 DMF .             Drill Floor:  DRILL MEAS FROM
 STIM.      20.00.00 17-Aug-21:  START TIME
 DATE.      19.00.00 29-Aug-21:  END TIME
 SPUD.               15-Aug-21:  SPUD DATE
 NREF.                    Grid:  NORTH REFERENCE
 HPTY.       Minimum Curvature:  HOLE POS TYPE
 DMOD.             Drill Model:  DRILL MOD DESC
 SVYD.                  Survey:  SURVEY DESC
 ILTD.               Lithology:  INTERP LTH DESC
 FTOP.          Formation Tops:  FORM TOPS DESC
 RIG .              East Azeri:  RIG NAME
 PDAT.          Mean Sea Level:  PERMANENT DATUM
 FLD .                     ACG:  FIELD NAME
 SON .        AZ-XX-0907180857:  JOB NUMBER
 CTRY.              Azerbaijan:  COUNTRY NAME
 WELL.                    D23x:  WELL NAME
 SRVC.     Turan Drilling and Engineering:  CONTRACTOR
 COMP.     BP Exploration (Caspian Sea) Ltd.:  COMPANY
 UWI .            /AZE00000214:  UNIQUE WELL IDENTIFIER
 API .            /AZE00000214:  API NUMBER
 MDS .        Operator Entered:  MAG DATA SOURCE
 BASE.              Azerbaijan:  LOGGING EQUIPMENT BASE LOCATION
 REGN.                   EESSA:  REGION
 PROV.                    Baku:  PROVINCE
 STAT.                    Baku:  STATE NAME
 MWDS.                    Baku:  MWD SHOP
 DOE .                     N/A:  DOE NUMBER
 DCON.         Sperry Drilling:  DIRECTNL CONTR
 UNIT.                     N/A:  LOGGING EQUIPMENT ID
 WTYP.                Deviated:  WELL TYPE
 CNTY.                        :  COUNTY
 LOC .                        :  LOCATION
 LMF .             Drill Floor:  LOG MEASURED FROM
 TVDS.m                  43.60:  TVDSS CORRECTN
 LATI.deg                40.02:  LATITUDE
 LONG.deg                51.45:  LONGITUDE
 WHNS.m                  -7.04:  WELL HEAD N/S
 WHEW.m                  -0.67:  WELL HEAD E/W
 UTMX.m              538762.90:  UTM X
 UTMY.m             4431871.34:  UTM Y
 DFWL.m                   0.00:  DISTANCE FWL
 DFSL.m                   0.00:  DISTANCE FSL
 SDEP.m                4127.00:  START DEPTH
 TDD .m                5084.50:  TOTAL DEPTH (DRILLER)
 VSDR.deg               140.47:  VERT SEC DIRECT
 GVFD.g                   1.00:  GRAVITY FIELD
 MFLD.nT              50362.00:  MAGNETIC FIELD
 MDIP.deg                59.48:  MAGNETIC DIP
 MDEC.deg                 6.47:  MAGNETIC DECL
 GRDC.deg                 0.31:  GRID CORRECTION
 AZTC.deg                 6.16:  AZM TOTAL CORR
 EPD .m                   0.00:  ELEVATION
 EGL .m                   0.00:  GROUND ELEVATION
 WDMS.m                 151.80:  WD ELEV
 APD .m                  43.60:  DEPTH ABOVE PD
 DEP .m                4092.57:  DEPTH
 AGAP.m                  43.60:  AIR GAP
 VSEW.m                  -0.67:  VERT SEC E/W
 VSNS.m                  -7.04:  VERT SEC N/S
 EKB .m                  43.60:  KB ELEVATION
 EDF .m                  43.60:  DF ELEVATION
 TDL .m                 957.50:  TOTAL DEPTH (LOGGER)
 VSC .                       0:  VS TO CLOSURE
 MAGU.                 1851413:  MAGUTM CHECKSUM
~Parameter Information Block
#MNEM.UNIT       Value        Description
#---------     -----------    ---------------------------
 AV  .mps                 1.50:  Ann Velocity 
 AVMX.mps                 2.00:  Max Ann Veloc 
 AZIF.deg               184.66:  Azm, Final 
 BHAT.        Rotary Steerable:  BHA Type 
 BREV.rev               300.00:  Rev Bit Total 
 BROT.°/30m              -0.50:  Build Rotating 
 BS  .in                  8.50:  Bit Size 
 BSZ .in                  8.50:  Bit Size 
 BTPL.psig              370.00:  Bit Press Loss 
 CABU.                      No:  Customer Abuse 
 CGEO.      Behruz Shahbaliyev:  Customer Geo 
 COMM.                     ü;x:  Run Comments 1 
 TCS .hr                140.08:  Time Ciculation Ended 
 CV  .mps                 3.00:  Crit Velocity 
 CVMX.mps                 3.20:  Max Crit Veloc 
 DD1 .            Musa Ahmadov:  Direct Drillr 1 
 DD2 .           Hamid Ahmadov:  Direct Drillr 2 
 DDSV.               Geo-Pilot:  DD Service 
 DEFF.%                  98.40:  % Det Eff 
 DLRX.°/30m               3.40:  Dogleg Rot Max 
 DLSO.°/30m               1.45:  Dogleg Oriented 
 DLSX.°/30m               3.40:  Dogleg Str Max 
 DRET.      18.40.00 29-Aug-21:  Drill End Time 
 DRST.      21.00.00 20-Aug-21:  Drill Start Tim 
 DTIM.hr                 69.47:  Time Drilling 
 EDEP.m                5084.50:  End Depth 
 ENG1.      Artemiy Matviyanov:  Engineer 1 
 ENG2.         Almaz Almadatov:  Engineer 2 
 ETIM.      18.40.00 29-Aug-21:  End Time 
 FLOI.gpm               500.00:  Flow In 
 FLON.gpm               400.00:  Flow In Min 
 FLOS.cptm                0.00:  Fluid Loss 
 FLOX.gpm               500.00:  Flow In Max 
 DFT .        Mineral Oil Base:  Mud Type 
 HFLO.                      No:  High Flow 
 HPRE.                      No:  High Pressure 
 HTEM.                      No:  High Temp 
 HYDO.m                   1.80:  Hydro Offset 
 IFIN.deg                25.62:  Inc, Final 
 IMAX.deg                48.69:  Inc Max 
 IMIN.deg                24.01:  Inc Min 
 IMND.m                4962.57:  Inc Min Depth 
 IMXD.m                4119.01:  Inc Max Depth 
 JARR.                      No:  Jarring 
 LETM.      18.40.00 29-Aug-21:  Log End Time 
 LOST.hr                     0:  Lost Rig Time 
 LSTM.      21.00.00 20-Aug-21:  Log Start Time 
 MDCL.ppm             41500.00:  Mud Chlorides 
 MDES.     Inversion Oil/Synthetic:  Mud Desc 
 DFD .sg                  1.56:  Mud Density 
 MDMN.sg                  1.56:  Dens Mud Min 
 MDMX.sg                  1.56:  Dens Mud Max 
 MOIL.                      70:  Run Mud Oil % 
 MOWR.                   70:30:  Run Mud OWR 
 MSND.                     0.2:  Run Mud Sand % 
 MSOL.                    23.3:  Run Mud Solids% 
 DFV .spqt               78.00:  Mud Viscosity 
 MWOD.in                  6.75:  MWD Tool OD 
 MWSI.                      No:  Serv Intrp, MWD 
 OTIM.hr                218.30:  Time Operating 
 PCON.           Look Like New:  Pad Condition 
 PMAX.psia            11015.30:  Press Op, Max 
 PV  .cP                 38.00:  Mud PV 
 RUN .                     300:  Run Number 
 ROPA.m/hr               15.00:  ROP Avg 
 ROPN.m/hr                9.00:  ROP Min 
 ROPX.m/hr               17.00:  ROP Max 
 RPMA.rpm               120.00:  RPM Surface Avg 
 RPMN.rpm                90.00:  RPM Surface Min 
 RPMX.rpm               140.00:  RPM Surface Max 
 RRUN.                     300:  Rig Run Number 
 RTIM.hr                 31.53:  Time Reaming 
 SAZI.deg               331.64:  Azm, Start 
 SDEP.m                4127.00:  Start Depth 
 SIDD.                      No:  Serv Intrp, DD 
 SINC.deg                48.43:  Inc, Start 
 SPPA.psig             5830.00:  SPP Avg 
 SPPN.psig             5600.00:  SPP Min 
 SPPX.psig             5900.00:  SPP Max 
 STIM.      21.00.00 20-Aug-21:  Start Time 
 SVCS.                 DD, MWD:  Services 
 SVER.                    9.20:  Sperry Version 
 TDAT.m                 957.50:  Tot Depth Attmp 
 TDDF.                      No:  Trip for DD 
 TDLG.m                 957.50:  Tot Depth Loggd 
 TFF .                      No:  Trip for Fail 
 TQAA.f-kp               15.00:  Torque Abs Avg 
 TQAN.f-kp               12.00:  Torque Abs Min 
 TQAX.f-kp               19.00:  Torque Abs Max 
 TRRT.°/30m              -3.40:  Turn Rotating 
 MRT .                  EWR-M5:  Maximum Recorded Temperature 
 TTMX.degC              100.00:  Max Tool Temp 
 VS01.                90639251:  Virtual Str1 SN 
 VS02.                90634715:  Virtual Str2 SN 
 VS03.                90652479:  Virtual Str3 SN 
 VS04.                90642262:  Virtual Str4 SN 
 WBMN.klb                 0.00:  WOB Min 
 WITN.           Murad Guliyev:  Customer Rep 
 WITN.          Yashar Gaziyev:  Customer Rep 2 
 WOBA.klb                 9.00:  WOB Avg 
 WOBX.klb                12.00:  WOB Max 
 YP  .lhf2               30.00:  Yield Point 
~Curve Information Block
#MNEM.UNIT                 API CODE     Curve Description
#---------               -----------    ---------------------------
 TIME.HHMMSS            00 000 000 000:  GT Time & Date
 GTDEPTH.m              00 000 000 000:  GT Depth
 GTPQH.psia             00 000 000 000:  GT HR Quartz Pressure
 GTTQ.degC              00 000 000 000:  GT Quartz Temperature
 GTTN.NONE              00 000 000 000:  GT Test Number
 GTET.sec               00 000 000 000:  GT Elapsed Test Time
 GTTVD.m                00 000 000 000:  GT True Vertical Depth
#Other Information
#
#WARRANTY: Halliburton will use its best efforts to furnish customers with 
#accurate information and interpretations that are part of, and incident to, the services 
#provided.  However, Halliburton cannot and does not warrant the accuracy 
#or correctness of such information and interpretations.  Under no circumstances should any 
#such information or interpretation be relied upon as the sole basis for any drilling, 
#completion, production, or financial decision or any procedure involving any risk to the 
#safety of any drilling venture, drilling rig or its crew or any other third party.  The 
#Customer has full responsibility for all drilling, completion and production operation.  
#Halliburton makes no representations or warranties, either expressed or 
#implied, including, but not limited to, the implied warranties of merchantability or fitness 
#for a particular purpose, with respect to the services rendered.  In no event will 
#Halliburton be liable for failure to obtain any particular results or for 
#any damages, including, but not limited to, indirect, special or consequential damages, 
#resulting from the use of any information or interpretation provided by Halliburton.
#
~A           TIME           GTDEPTH  GTPQH  GTTQ  GTTN  GTET   GTTVD  
   08:06:40.726.27-Aug-2021 4992.50 7924.48 87.03 5.00   0.00 3332.84
   08:06:40.926.27-Aug-2021 4992.50 7924.48 87.03 5.00   0.20 3332.84
   08:06:41.126.27-Aug-2021 4992.50 7927.69 87.03 5.00   0.40 3332.84
   08:06:41.326.27-Aug-2021 4992.50 7927.72 87.03 5.00   0.60 3332.84
   08:06:41.526.27-Aug-2021 4992.50 7931.45 87.03 5.00   0.80 3332.84
   08:06:41.726.27-Aug-2021 4992.50 7927.63 87.02 5.00   1.00 3332.84
   08:06:41.926.27-Aug-2021 4992.50 7927.63 87.02 5.00   1.20 3332.84
   08:06:42.126.27-Aug-2021 4992.50 7927.70 87.02 5.00   1.40 3332.84
   08:06:42.326.27-Aug-2021 4992.50 7928.06 87.02 5.00   1.60 3332.84
   08:06:42.526.27-Aug-2021 4992.50 7932.73 87.02 5.00   1.80 3332.84
   08:06:42.726.27-Aug-2021 4992.50 7925.85 87.02 5.00   2.00 3332.84
   08:06:42.926.27-Aug-2021 4992.50 7925.85 87.02 5.00   2.20 3332.84
   08:06:43.126.27-Aug-2021 4992.50 7926.07 87.02 5.00   2.40 3332.84
   08:06:43.326.27-Aug-2021 4992.50 7929.33 87.02 5.00   2.60 3332.84
   08:06:43.526.27-Aug-2021 4992.50 7927.11 87.02 5.00   2.80 3332.84
   08:06:43.726.27-Aug-2021 4992.50 7926.81 87.02 5.00   3.00 3332.84
   08:06:43.926.27-Aug-2021 4992.50 7926.81 87.02 5.00   3.20 3332.84
   08:06:44.126.27-Aug-2021 4992.50 7926.62 87.02 5.00   3.40 3332.84
   08:06:44.326.27-Aug-2021 4992.50 7927.14 87.02 5.00   3.60 3332.84
   08:06:44.526.27-Aug-2021 4992.50 7928.08 87.02 5.00   3.80 3332.84
   08:06:44.726.27-Aug-2021 4992.50 7932.07 87.02 5.00   4.00 3332.84
   08:06:44.926.27-Aug-2021 4992.50 7932.07 87.02 5.00   4.20 3332.84
   08:06:45.126.27-Aug-2021 4992.50 7928.36 87.02 5.00   4.40 3332.84
   08:06:45.326.27-Aug-2021 4992.50 7928.42 87.02 5.00   4.60 3332.84
   08:06:45.526.27-Aug-2021 4992.50 7928.96 87.02 5.00   4.80 3332.84
   08:06:45.726.27-Aug-2021 4992.50 7932.48 87.02 5.00   5.00 3332.84
   08:06:45.926.27-Aug-2021 4992.50 7932.48 87.02 5.00   5.20 3332.84
   08:06:46.126.27-Aug-2021 4992.50 7929.56 87.02 5.00   5.40 3332.84
   08:06:46.326.27-Aug-2021 4992.50 7929.51 87.02 5.00   5.60 3332.84
   08:06:46.526.27-Aug-2021 4992.50 7929.65 87.02 5.00   5.80 3332.84
   08:06:46.727.27-Aug-2021 4992.50 7930.89 87.02 5.00   6.00 3332.84
   08:06:46.927.27-Aug-2021 4992.50 7930.89 87.02 5.00   6.20 3332.84
   08:06:47.127.27-Aug-2021 4992.50 7930.89 87.02 5.00   6.40 3332.84
   08:06:47.327.27-Aug-2021 4992.50 7932.01 87.02 5.00   6.60 3332.84
   08:06:47.527.27-Aug-2021 4992.50 7930.85 87.02 5.00   6.80 3332.84
   08:06:47.727.27-Aug-2021 4992.50 7932.38 87.02 5.00   7.00 3332.84
   08:06:47.927.27-Aug-2021 4992.50 7932.38 87.02 5.00   7.20 3332.84
   08:06:48.127.27-Aug-2021 4992.50 7933.08 87.02 5.00   7.40 3332.84
   08:06:48.327.27-Aug-2021 4992.50 7932.54 87.02 5.00   7.60 3332.84
   08:06:48.527.27-Aug-2021 4992.50 7932.41 87.02 5.00   7.80 3332.84
   08:06:48.727.27-Aug-2021 4992.50 7932.97 87.02 5.00   8.00 3332.84
   08:06:48.927.27-Aug-2021 4992.50 7932.97 87.02 5.00   8.20 3332.84
   08:06:49.127.27-Aug-2021 4992.50 7935.32 87.02 5.00   8.40 3332.84
   08:06:49.327.27-Aug-2021 4992.50 7936.15 87.02 5.00   8.60 3332.84
   08:06:49.527.27-Aug-2021 4992.50 7935.71 87.02 5.00   8.80 3332.84
   08:06:49.727.27-Aug-2021 4992.50 7935.71 87.02 5.00   9.00 3332.84
   08:06:49.927.27-Aug-2021 4992.50 7935.71 87.02 5.00   9.20 3332.84
   08:06:50.127.27-Aug-2021 4992.50 7936.38 87.02 5.00   9.40 3332.84
   08:06:50.327.27-Aug-2021 4992.50 7936.43 87.02 5.00   9.60 3332.84
   08:06:50.527.27-Aug-2021 4992.50 7936.42 87.02 5.00   9.80 3332.84
   08:06:50.727.27-Aug-2021 4992.50 7941.74 87.02 5.00  10.00 3332.84
   08:06:50.927.27-Aug-2021 4992.50 7941.74 87.02 5.00  10.20 3332.84
   08:06:51.127.27-Aug-2021 4992.50 7936.15 87.02 5.00  10.40 3332.84
   08:06:51.327.27-Aug-2021 4992.50 7936.38 87.02 5.00  10.60 3332.84
   08:06:51.527.27-Aug-2021 4992.50 7936.89 87.02 5.00  10.80 3332.84
   08:06:51.727.27-Aug-2021 4992.50 7936.76 87.02 5.00  11.00 3332.84
   08:06:51.927.27-Aug-2021 4992.50 7936.76 87.02 5.00  11.20 3332.84
   08:06:52.127.27-Aug-2021 4992.50 7936.38 87.02 5.00  11.40 3332.84
   08:06:52.327.27-Aug-2021 4992.50 7936.53 87.02 5.00  11.60 3332.84
   08:06:52.527.27-Aug-2021 4992.50 7936.89 87.02 5.00  11.80 3332.84
   08:06:52.727.27-Aug-2021 4992.50 7938.00 87.02 5.00  12.00 3332.84
   08:06:52.928.27-Aug-2021 4992.50 7938.00 87.02 5.00  12.20 3332.84
   08:06:53.128.27-Aug-2021 4992.50 7938.72 87.02 5.00  12.40 3332.84
   08:06:53.328.27-Aug-2021 4992.50 7938.48 87.02 5.00  12.60 3332.84
   08:06:53.528.27-Aug-2021 4992.50 7938.49 87.02 5.00  12.80 3332.84
   08:06:53.728.27-Aug-2021 4992.50 7938.88 87.02 5.00  13.00 3332.84
   08:06:53.928.27-Aug-2021 4992.50 7938.88 87.02 5.00  13.20 3332.84
   08:06:54.128.27-Aug-2021 4992.50 7938.45 87.02 5.00  13.40 3332.84
   08:06:54.328.27-Aug-2021 4992.50 7939.30 87.02 5.00  13.60 3332.84
   08:06:54.528.27-Aug-2021 4992.50 7939.41 87.02 5.00  13.80 3332.84
   08:06:54.728.27-Aug-2021 4992.50 7939.79 87.02 5.00  14.00 3332.84
   08:06:54.928.27-Aug-2021 4992.50 7939.79 87.02 5.00  14.20 3332.84
   08:06:55.128.27-Aug-2021 4992.50 7946.22 87.02 5.00  14.40 3332.84
   08:06:55.328.27-Aug-2021 4992.50 7939.49 87.02 5.00  14.60 3332.84
   08:06:55.528.27-Aug-2021 4992.50 7940.43 87.02 5.00  14.80 3332.84
   08:06:55.728.27-Aug-2021 4992.50 7940.94 87.02 5.00  15.00 3332.84
   08:06:55.928.27-Aug-2021 4992.50 7940.94 87.02 5.00  15.20 3332.84
   08:06:56.128.27-Aug-2021 4992.50 7943.20 87.02 5.00  15.40 3332.84
   08:06:56.328.27-Aug-2021 4992.50 7946.85 87.02 5.00  15.60 3332.84
   08:06:56.528.27-Aug-2021 4992.50 7943.32 87.02 5.00  15.80 3332.84
   08:06:56.728.27-Aug-2021 4992.50 7941.89 87.02 5.00  16.00 3332.84
   08:06:56.928.27-Aug-2021 4992.50 7941.89 87.02 5.00  16.20 3332.84
   08:06:57.128.27-Aug-2021 4992.50 7943.44 87.02 5.00  16.40 3332.84
   08:06:57.328.27-Aug-2021 4992.50 7948.40 87.02 5.00  16.60 3332.84
   08:06:57.528.27-Aug-2021 4992.50 7944.55 87.02 5.00  16.80 3332.84
   08:06:57.728.27-Aug-2021 4992.50 7943.28 87.02 5.00  17.00 3332.84
   08:06:57.928.27-Aug-2021 4992.50 7943.28 87.02 5.00  17.20 3332.84
   08:06:58.128.27-Aug-2021 4992.50 7949.00 87.02 5.00  17.40 3332.84
   08:06:58.328.27-Aug-2021 4992.50 7943.88 87.02 5.00  17.60 3332.84
   08:06:58.528.27-Aug-2021 4992.50 7945.51 87.02 5.00  17.80 3332.84
   08:06:58.728.27-Aug-2021 4992.50 7944.51 87.02 5.00  18.00 3332.84
   08:06:58.929.27-Aug-2021 4992.50 7944.51 87.02 5.00  18.20 3332.84
   08:06:59.129.27-Aug-2021 4992.50 7948.15 87.02 5.00  18.40 3332.84
   08:06:59.329.27-Aug-2021 4992.50 7945.59 87.02 5.00  18.60 3332.84
   08:06:59.529.27-Aug-2021 4992.50 7946.10 87.02 5.00  18.80 3332.84
   08:06:59.729.27-Aug-2021 4992.50 7945.49 87.02 5.00  19.00 3332.84
   08:06:59.929.27-Aug-2021 4992.50 7945.49 87.02 5.00  19.20 3332.84
   08:07:00.129.27-Aug-2021 4992.50 7945.89 87.02 5.00  19.40 3332.84
   08:07:00.329.27-Aug-2021 4992.50 7946.57 87.02 5.00  19.60 3332.84
   08:07:00.529.27-Aug-2021 4992.50 7945.92 87.02 5.00  19.80 3332.84
   08:07:00.729.27-Aug-2021 4992.50 7945.78 87.02 5.00  20.00 3332.84
   08:07:00.929.27-Aug-2021 4992.50 7945.78 87.02 5.00  20.20 3332.84
   08:07:01.129.27-Aug-2021 4992.50 7946.41 87.02 5.00  20.40 3332.84
   08:07:01.329.27-Aug-2021 4992.50 7947.23 87.02 5.00  20.60 3332.84
   08:07:01.529.27-Aug-2021 4992.50 7947.40 87.01 5.00  20.80 3332.84
   08:07:01.729.27-Aug-2021 4992.50 7947.14 87.02 5.00  21.00 3332.84
   08:07:01.929.27-Aug-2021 4992.50 7947.14 87.02 5.00  21.20 3332.84
   08:07:02.129.27-Aug-2021 4992.50 7947.31 87.01 5.00  21.40 3332.84
   08:07:02.329.27-Aug-2021 4992.50 7947.88 87.01 5.00  21.60 3332.84
   08:07:02.529.27-Aug-2021 4992.50 7951.31 87.01 5.00  21.80 3332.84
   08:07:02.729.27-Aug-2021 4992.50 7949.54 87.01 5.00  22.00 3332.84
   08:07:02.929.27-Aug-2021 4992.50 7949.54 87.01 5.00  22.20 3332.84
   08:07:03.129.27-Aug-2021 4992.50 7948.38 87.01 5.00  22.40 3332.84
   08:07:03.329.27-Aug-2021 4992.50 7948.57 87.01 5.00  22.60 3332.84
   08:07:03.529.27-Aug-2021 4992.50 7949.19 87.01 5.00  22.80 3332.84
