~Version Information
 VERS.                  2.0:   CWLS log ASCII Standard -VERSION 2.0
 WRAP.                   NO:   One line per depth step
~Well Information Block
#MNEM.UNIT     VALUE/NAME     DESCRIPTION
#---------     -----------    ---------------------------
 STRT.S             04:10:22 28-Aug-21: START TIME 04:10:22 28-Aug-21
 STOP.S             04:17:14 28-Aug-21: STOP TIME  04:17:14 28-Aug-21
 STEP.S                   0.00: STEP TIME
 NULL.                 -999.25: NULL VALUE
 DFWT.                        :  DIST FWL TEXT
 DFST.                        :  DIST FSL TEXT
 DMF .             Drill Floor:  DRILL MEAS FROM
 STIM.      20.00.00 17-Aug-21:  START TIME
 DATE.      19.00.00 29-Aug-21:  END TIME
 SPUD.               15-Aug-21:  SPUD DATE
 NREF.                    Grid:  NORTH REFERENCE
 HPTY.       Minimum Curvature:  HOLE POS TYPE
 DMOD.             Drill Model:  DRILL MOD DESC
 SVYD.                  Survey:  SURVEY DESC
 ILTD.               Lithology:  INTERP LTH DESC
 FTOP.          Formation Tops:  FORM TOPS DESC
 RIG .              East Azeri:  RIG NAME
 PDAT.          Mean Sea Level:  PERMANENT DATUM
 FLD .                     ACG:  FIELD NAME
 SON .        AZ-XX-0907180857:  JOB NUMBER
 CTRY.              Azerbaijan:  COUNTRY NAME
 WELL.                    D23x:  WELL NAME
 SRVC.     Turan Drilling and Engineering:  CONTRACTOR
 COMP.     BP Exploration (Caspian Sea) Ltd.:  COMPANY
 UWI .            /AZE00000214:  UNIQUE WELL IDENTIFIER
 API .            /AZE00000214:  API NUMBER
 MDS .        Operator Entered:  MAG DATA SOURCE
 BASE.              Azerbaijan:  LOGGING EQUIPMENT BASE LOCATION
 REGN.                   EESSA:  REGION
 PROV.                    Baku:  PROVINCE
 STAT.                    Baku:  STATE NAME
 MWDS.                    Baku:  MWD SHOP
 DOE .                     N/A:  DOE NUMBER
 DCON.         Sperry Drilling:  DIRECTNL CONTR
 UNIT.                     N/A:  LOGGING EQUIPMENT ID
 WTYP.                Deviated:  WELL TYPE
 CNTY.                        :  COUNTY
 LOC .                        :  LOCATION
 LMF .             Drill Floor:  LOG MEASURED FROM
 TVDS.m                  43.60:  TVDSS CORRECTN
 LATI.deg                40.02:  LATITUDE
 LONG.deg                51.45:  LONGITUDE
 WHNS.m                  -7.04:  WELL HEAD N/S
 WHEW.m                  -0.67:  WELL HEAD E/W
 UTMX.m              538762.90:  UTM X
 UTMY.m             4431871.34:  UTM Y
 DFWL.m                   0.00:  DISTANCE FWL
 DFSL.m                   0.00:  DISTANCE FSL
 SDEP.m                4127.00:  START DEPTH
 TDD .m                5084.50:  TOTAL DEPTH (DRILLER)
 VSDR.deg               140.47:  VERT SEC DIRECT
 GVFD.g                   1.00:  GRAVITY FIELD
 MFLD.nT              50362.00:  MAGNETIC FIELD
 MDIP.deg                59.48:  MAGNETIC DIP
 MDEC.deg                 6.47:  MAGNETIC DECL
 GRDC.deg                 0.31:  GRID CORRECTION
 AZTC.deg                 6.16:  AZM TOTAL CORR
 EPD .m                   0.00:  ELEVATION
 EGL .m                   0.00:  GROUND ELEVATION
 WDMS.m                 151.80:  WD ELEV
 APD .m                  43.60:  DEPTH ABOVE PD
 DEP .m                4092.57:  DEPTH
 AGAP.m                  43.60:  AIR GAP
 VSEW.m                  -0.67:  VERT SEC E/W
 VSNS.m                  -7.04:  VERT SEC N/S
 EKB .m                  43.60:  KB ELEVATION
 EDF .m                  43.60:  DF ELEVATION
 TDL .m                 957.50:  TOTAL DEPTH (LOGGER)
 VSC .                       0:  VS TO CLOSURE
 MAGU.                 1851413:  MAGUTM CHECKSUM
~Parameter Information Block
#MNEM.UNIT       Value        Description
#---------     -----------    ---------------------------
 AV  .mps                 1.50:  Ann Velocity 
 AVMX.mps                 2.00:  Max Ann Veloc 
 AZIF.deg               184.66:  Azm, Final 
 BHAT.        Rotary Steerable:  BHA Type 
 BREV.rev               300.00:  Rev Bit Total 
 BROT.°/30m              -0.50:  Build Rotating 
 BS  .in                  8.50:  Bit Size 
 BSZ .in                  8.50:  Bit Size 
 BTPL.psig              370.00:  Bit Press Loss 
 CABU.                      No:  Customer Abuse 
 CGEO.      Behruz Shahbaliyev:  Customer Geo 
 COMM.                     LÁp:  Run Comments 1 
 TCS .hr                140.08:  Time Ciculation Ended 
 CV  .mps                 3.00:  Crit Velocity 
 CVMX.mps                 3.20:  Max Crit Veloc 
 DD1 .            Musa Ahmadov:  Direct Drillr 1 
 DD2 .           Hamid Ahmadov:  Direct Drillr 2 
 DDSV.               Geo-Pilot:  DD Service 
 DEFF.%                  98.40:  % Det Eff 
 DLRX.°/30m               3.40:  Dogleg Rot Max 
 DLSO.°/30m               1.45:  Dogleg Oriented 
 DLSX.°/30m               3.40:  Dogleg Str Max 
 DRET.      18.40.00 29-Aug-21:  Drill End Time 
 DRST.      21.00.00 20-Aug-21:  Drill Start Tim 
 DTIM.hr                 69.47:  Time Drilling 
 EDEP.m                5084.50:  End Depth 
 ENG1.      Artemiy Matviyanov:  Engineer 1 
 ENG2.         Almaz Almadatov:  Engineer 2 
 ETIM.      18.40.00 29-Aug-21:  End Time 
 FLOI.gpm               500.00:  Flow In 
 FLON.gpm               400.00:  Flow In Min 
 FLOS.cptm                0.00:  Fluid Loss 
 FLOX.gpm               500.00:  Flow In Max 
 DFT .        Mineral Oil Base:  Mud Type 
 HFLO.                      No:  High Flow 
 HPRE.                      No:  High Pressure 
 HTEM.                      No:  High Temp 
 HYDO.m                   1.80:  Hydro Offset 
 IFIN.deg                25.62:  Inc, Final 
 IMAX.deg                48.69:  Inc Max 
 IMIN.deg                24.01:  Inc Min 
 IMND.m                4962.57:  Inc Min Depth 
 IMXD.m                4119.01:  Inc Max Depth 
 JARR.                      No:  Jarring 
 LETM.      18.40.00 29-Aug-21:  Log End Time 
 LOST.hr                     0:  Lost Rig Time 
 LSTM.      21.00.00 20-Aug-21:  Log Start Time 
 MDCL.ppm             41500.00:  Mud Chlorides 
 MDES.     Inversion Oil/Synthetic:  Mud Desc 
 DFD .sg                  1.56:  Mud Density 
 MDMN.sg                  1.56:  Dens Mud Min 
 MDMX.sg                  1.56:  Dens Mud Max 
 MOIL.                      70:  Run Mud Oil % 
 MOWR.                   70:30:  Run Mud OWR 
 MSND.                     0.2:  Run Mud Sand % 
 MSOL.                    23.3:  Run Mud Solids% 
 DFV .spqt               78.00:  Mud Viscosity 
 MWOD.in                  6.75:  MWD Tool OD 
 MWSI.                      No:  Serv Intrp, MWD 
 OTIM.hr                218.30:  Time Operating 
 PCON.           Look Like New:  Pad Condition 
 PMAX.psia            11015.30:  Press Op, Max 
 PV  .cP                 38.00:  Mud PV 
 RUN .                     300:  Run Number 
 ROPA.m/hr               15.00:  ROP Avg 
 ROPN.m/hr                9.00:  ROP Min 
 ROPX.m/hr               17.00:  ROP Max 
 RPMA.rpm               120.00:  RPM Surface Avg 
 RPMN.rpm                90.00:  RPM Surface Min 
 RPMX.rpm               140.00:  RPM Surface Max 
 RRUN.                     300:  Rig Run Number 
 RTIM.hr                 31.53:  Time Reaming 
 SAZI.deg               331.64:  Azm, Start 
 SDEP.m                4127.00:  Start Depth 
 SIDD.                      No:  Serv Intrp, DD 
 SINC.deg                48.43:  Inc, Start 
 SPPA.psig             5830.00:  SPP Avg 
 SPPN.psig             5600.00:  SPP Min 
 SPPX.psig             5900.00:  SPP Max 
 STIM.      21.00.00 20-Aug-21:  Start Time 
 SVCS.                 DD, MWD:  Services 
 SVER.                    9.20:  Sperry Version 
 TDAT.m                 957.50:  Tot Depth Attmp 
 TDDF.                      No:  Trip for DD 
 TDLG.m                 957.50:  Tot Depth Loggd 
 TFF .                      No:  Trip for Fail 
 TQAA.f-kp               15.00:  Torque Abs Avg 
 TQAN.f-kp               12.00:  Torque Abs Min 
 TQAX.f-kp               19.00:  Torque Abs Max 
 TRRT.°/30m              -3.40:  Turn Rotating 
 MRT .                  EWR-M5:  Maximum Recorded Temperature 
 TTMX.degC              100.00:  Max Tool Temp 
 VS01.                90639251:  Virtual Str1 SN 
 VS02.                90634715:  Virtual Str2 SN 
 VS03.                90652479:  Virtual Str3 SN 
 VS04.                90642262:  Virtual Str4 SN 
 WBMN.klb                 0.00:  WOB Min 
 WITN.           Murad Guliyev:  Customer Rep 
 WITN.          Yashar Gaziyev:  Customer Rep 2 
 WOBA.klb                 9.00:  WOB Avg 
 WOBX.klb                12.00:  WOB Max 
 YP  .lhf2               30.00:  Yield Point 
~Curve Information Block
#MNEM.UNIT                 API CODE     Curve Description
#---------               -----------    ---------------------------
 TIME.HHMMSS            00 000 000 000:  GT Time & Date
 GTDEPTH.m              00 000 000 000:  GT Depth
 GTPQH.psia             00 000 000 000:  GT HR Quartz Pressure
 GTTQ.degC              00 000 000 000:  GT Quartz Temperature
 GTTN.NONE              00 000 000 000:  GT Test Number
 GTET.sec               00 000 000 000:  GT Elapsed Test Time
 GTTVD.m                00 000 000 000:  GT True Vertical Depth
#Other Information
#
#WARRANTY: Halliburton will use its best efforts to furnish customers with 
#accurate information and interpretations that are part of, and incident to, the services 
#provided.  However, Halliburton cannot and does not warrant the accuracy 
#or correctness of such information and interpretations.  Under no circumstances should any 
#such information or interpretation be relied upon as the sole basis for any drilling, 
#completion, production, or financial decision or any procedure involving any risk to the 
#safety of any drilling venture, drilling rig or its crew or any other third party.  The 
#Customer has full responsibility for all drilling, completion and production operation.  
#Halliburton makes no representations or warranties, either expressed or 
#implied, including, but not limited to, the implied warranties of merchantability or fitness 
#for a particular purpose, with respect to the services rendered.  In no event will 
#Halliburton be liable for failure to obtain any particular results or for 
#any damages, including, but not limited to, indirect, special or consequential damages, 
#resulting from the use of any information or interpretation provided by Halliburton.
#
~A           TIME           GTDEPTH  GTPQH  GTTQ  GTTN   GTET   GTTVD  
# ...
   04:14:31.771.28-Aug-2021 4978.00 7970.05 80.43 29.00 248.95 3319.69
   04:14:31.971.28-Aug-2021 4978.00 7969.65 80.43 29.00 249.15 3319.69
   04:14:32.171.28-Aug-2021 4978.00 7974.52 80.43 29.00 249.35 3319.69
   04:14:32.371.28-Aug-2021 4978.00 7974.52 80.43 29.00 249.55 3319.69
   04:14:32.572.28-Aug-2021 4978.00 7971.01 80.43 29.00 249.75 3319.69
   04:14:32.772.28-Aug-2021 4978.00 7970.54 80.43 29.00 249.95 3319.69
   04:14:32.972.28-Aug-2021 4978.00 7973.13 80.43 29.00 250.15 3319.69
   04:14:33.173.28-Aug-2021 4978.00 7970.96 80.43 29.00 250.35 3319.69
   04:14:33.373.28-Aug-2021 4978.00 7970.96 80.43 29.00 250.55 3319.69
   04:14:33.573.28-Aug-2021 4978.00 7970.46 80.43 29.00 250.75 3319.69
   04:14:33.773.28-Aug-2021 4978.00 7970.18 80.43 29.00 250.95 3319.69
   04:14:33.974.28-Aug-2021 4978.00 7969.94 80.43 29.00 251.15 3319.69
   04:14:34.174.28-Aug-2021 4978.00 7970.65 80.43 29.00 251.35 3319.69
   04:14:34.374.28-Aug-2021 4978.00 7970.65 80.43 29.00 251.55 3319.69
   04:14:34.575.28-Aug-2021 4978.00 7969.61 80.43 29.00 251.75 3319.69
   04:14:34.775.28-Aug-2021 4978.00 7970.01 80.43 29.00 251.95 3319.69
   04:14:34.975.28-Aug-2021 4978.00 7970.52 80.43 29.00 252.15 3319.69
   04:14:35.175.28-Aug-2021 4978.00 7970.89 80.43 29.00 252.35 3319.69
   04:14:35.376.28-Aug-2021 4978.00 7970.89 80.43 29.00 252.55 3319.69
   04:14:35.576.28-Aug-2021 4978.00 7970.74 80.43 29.00 252.76 3319.69
   04:14:35.776.28-Aug-2021 4978.00 7970.69 80.43 29.00 252.96 3319.69
   04:14:35.977.28-Aug-2021 4978.00 7970.42 80.43 29.00 253.16 3319.69
   04:14:36.177.28-Aug-2021 4978.00 7970.36 80.43 29.00 253.36 3319.69
   04:14:36.377.28-Aug-2021 4978.00 7970.36 80.43 29.00 253.56 3319.69
   04:14:36.577.28-Aug-2021 4978.00 7971.77 80.43 29.00 253.76 3319.69
   04:14:36.778.28-Aug-2021 4978.00 7970.55 80.43 29.00 253.96 3319.69
   04:14:36.978.28-Aug-2021 4978.00 7970.44 80.43 29.00 254.16 3319.69
   04:14:37.178.28-Aug-2021 4978.00 7970.35 80.43 29.00 254.36 3319.69
   04:14:37.379.28-Aug-2021 4978.00 7970.35 80.43 29.00 254.56 3319.69
   04:14:37.579.28-Aug-2021 4978.00 7970.20 80.43 29.00 254.76 3319.69
   04:14:37.779.28-Aug-2021 4978.00 7969.97 80.43 29.00 254.96 3319.69
   04:14:37.979.28-Aug-2021 4978.00 7970.19 80.43 29.00 255.16 3319.69
   04:14:38.180.28-Aug-2021 4978.00 7970.55 80.43 29.00 255.36 3319.69
   04:14:38.380.28-Aug-2021 4978.00 7970.55 80.43 29.00 255.56 3319.69
   04:14:38.580.28-Aug-2021 4978.00 7971.55 80.43 29.00 255.76 3319.69
   04:14:38.780.28-Aug-2021 4978.00 7971.24 80.43 29.00 255.96 3319.69
   04:14:38.981.28-Aug-2021 4978.00 7971.05 80.43 29.00 256.16 3319.69
   04:14:39.181.28-Aug-2021 4978.00 7971.05 80.43 29.00 256.36 3319.69
   04:14:39.381.28-Aug-2021 4978.00 7971.05 80.43 29.00 256.56 3319.69
   04:14:39.582.28-Aug-2021 4978.00 7970.91 80.43 29.00 256.76 3319.69
   04:14:39.782.28-Aug-2021 4978.00 7975.14 80.43 29.00 256.96 3319.69
   04:14:39.982.28-Aug-2021 4978.00 7970.81 80.43 29.00 257.16 3319.69
   04:14:40.182.28-Aug-2021 4978.00 7970.52 80.43 29.00 257.36 3319.69
   04:14:40.383.28-Aug-2021 4978.00 7970.52 80.43 29.00 257.56 3319.69
   04:14:40.583.28-Aug-2021 4978.00 7975.20 80.43 29.00 257.76 3319.69
   04:14:40.783.28-Aug-2021 4978.00 7973.39 80.43 29.00 257.96 3319.69
   04:14:40.984.28-Aug-2021 4978.00 7973.18 80.43 29.00 258.16 3319.69
   04:14:41.184.28-Aug-2021 4978.00 7971.62 80.43 29.00 258.36 3319.69
   04:14:41.384.28-Aug-2021 4978.00 7971.62 80.43 29.00 258.56 3319.69
   04:14:41.584.28-Aug-2021 4978.00 7972.64 80.43 29.00 258.76 3319.69
   04:14:41.785.28-Aug-2021 4978.00 7974.05 80.43 29.00 258.96 3319.69
   04:14:41.985.28-Aug-2021 4978.00 7972.35 80.43 29.00 259.16 3319.69
   04:14:42.185.28-Aug-2021 4978.00 7971.93 80.43 29.00 259.36 3319.69
   04:14:42.386.28-Aug-2021 4978.00 7971.93 80.43 29.00 259.56 3319.69
   04:14:42.586.28-Aug-2021 4978.00 7972.95 80.43 29.00 259.77 3319.69
   04:14:42.786.28-Aug-2021 4978.00 7972.54 80.43 29.00 259.97 3319.69
   04:14:42.986.28-Aug-2021 4978.00 7972.21 80.43 29.00 260.17 3319.69
   04:14:43.187.28-Aug-2021 4978.00 7972.24 80.43 29.00 260.37 3319.69
   04:14:43.387.28-Aug-2021 4978.00 7972.24 80.43 29.00 260.57 3319.69
   04:14:43.587.28-Aug-2021 4978.00 7972.47 80.43 29.00 260.77 3319.69
   04:14:43.788.28-Aug-2021 4978.00 7972.18 80.43 29.00 260.97 3319.69
   04:14:43.988.28-Aug-2021 4978.00 7971.90 80.43 29.00 261.17 3319.69
   04:14:44.188.28-Aug-2021 4978.00 7972.09 80.43 29.00 261.37 3319.69
   04:14:44.388.28-Aug-2021 4978.00 7972.09 80.43 29.00 261.57 3319.69
   04:14:44.589.28-Aug-2021 4978.00 7973.12 80.43 29.00 261.77 3319.69
   04:14:44.789.28-Aug-2021 4978.00 7972.93 80.43 29.00 261.97 3319.69
   04:14:44.989.28-Aug-2021 4978.00 7972.72 80.43 29.00 262.17 3319.69
   04:14:45.190.28-Aug-2021 4978.00 7972.75 80.43 29.00 262.37 3319.69
   04:14:45.390.28-Aug-2021 4978.00 7972.75 80.43 29.00 262.57 3319.69
   04:14:45.590.28-Aug-2021 4978.00 7978.40 80.43 29.00 262.77 3319.69
   04:14:45.790.28-Aug-2021 4978.00 7971.05 80.43 29.00 262.97 3319.69
   04:14:45.991.28-Aug-2021 4978.00 7973.10 80.43 29.00 263.17 3319.69
   04:14:46.191.28-Aug-2021 4978.00 7972.50 80.43 29.00 263.37 3319.69
   04:14:46.391.28-Aug-2021 4978.00 7972.50 80.43 29.00 263.57 3319.69
   04:14:46.591.28-Aug-2021 4978.00 7972.44 80.43 29.00 263.77 3319.69
   04:14:46.792.28-Aug-2021 4978.00 7972.29 80.43 29.00 263.97 3319.69
   04:14:46.992.28-Aug-2021 4978.00 7971.81 80.43 29.00 264.17 3319.69
   04:14:47.192.28-Aug-2021 4978.00 7971.38 80.43 29.00 264.37 3319.69
   04:14:47.393.28-Aug-2021 4978.00 7971.38 80.43 29.00 264.57 3319.69
   04:14:47.593.28-Aug-2021 4978.00 7972.58 80.43 29.00 264.77 3319.69
   04:14:47.793.28-Aug-2021 4978.00 7972.97 80.43 29.00 264.97 3319.69
   04:14:47.993.28-Aug-2021 4978.00 7972.96 80.43 29.00 265.17 3319.69
   04:14:48.194.28-Aug-2021 4978.00 7972.72 80.43 29.00 265.37 3319.69
   04:14:48.394.28-Aug-2021 4978.00 7972.72 80.43 29.00 265.57 3319.69
   04:14:48.594.28-Aug-2021 4978.00 7972.63 80.43 29.00 265.77 3319.69
   04:14:48.795.28-Aug-2021 4978.00 7972.48 80.43 29.00 265.97 3319.69
   04:14:48.995.28-Aug-2021 4978.00 7975.21 80.43 29.00 266.17 3319.69
   04:14:49.195.28-Aug-2021 4978.00 7973.14 80.43 29.00 266.37 3319.69
   04:14:49.395.28-Aug-2021 4978.00 7973.14 80.43 29.00 266.57 3319.69
   04:14:49.596.28-Aug-2021 4978.00 7971.86 80.43 29.00 266.77 3319.69
   04:14:49.796.28-Aug-2021 4978.00 7972.01 80.43 29.00 266.98 3319.69
   04:14:49.996.28-Aug-2021 4978.00 7977.95 80.43 29.00 267.18 3319.69
   04:14:50.197.28-Aug-2021 4978.00 7970.58 80.43 29.00 267.38 3319.69
   04:14:50.397.28-Aug-2021 4978.00 7970.58 80.43 29.00 267.58 3319.69
   04:14:50.597.28-Aug-2021 4978.00 7971.34 80.43 29.00 267.78 3319.69
   04:14:50.797.28-Aug-2021 4978.00 7976.25 80.43 29.00 267.98 3319.69
   04:14:50.998.28-Aug-2021 4978.00 7972.77 80.43 29.00 268.18 3319.69
   04:14:51.198.28-Aug-2021 4978.00 7972.75 80.43 29.00 268.38 3319.69
   04:14:51.398.28-Aug-2021 4978.00 7972.75 80.43 29.00 268.58 3319.69
   04:14:51.599.28-Aug-2021 4978.00 7971.56 80.43 29.00 268.78 3319.69
   04:14:51.799.28-Aug-2021 4978.00 7976.31 80.43 29.00 268.98 3319.69
   04:14:51.999.28-Aug-2021 4978.00 7972.66 80.43 29.00 269.18 3319.69
   04:14:52.199.28-Aug-2021 4978.00 7972.65 80.43 29.00 269.38 3319.69
   04:14:52.400.28-Aug-2021 4978.00 7972.65 80.43 29.00 269.58 3319.69
   04:14:52.600.28-Aug-2021 4978.00 7972.04 80.43 29.00 269.78 3319.69
   04:14:52.800.28-Aug-2021 4978.00 7972.73 80.43 29.00 269.98 3319.69
   04:14:53.000.28-Aug-2021 4978.00 7972.61 80.43 29.00 270.18 3319.69
   04:14:53.201.28-Aug-2021 4978.00 7972.03 80.43 29.00 270.38 3319.69
   04:14:53.401.28-Aug-2021 4978.00 7972.03 80.43 29.00 270.58 3319.69
   04:14:53.601.28-Aug-2021 4978.00 7971.95 80.43 29.00 270.78 3319.69
   04:14:53.802.28-Aug-2021 4978.00 7972.80 80.43 29.00 270.98 3319.69
   04:14:54.002.28-Aug-2021 4978.00 7972.96 80.43 29.00 271.18 3319.69
   04:14:54.202.28-Aug-2021 4978.00 7972.66 80.43 29.00 271.38 3319.69
