~Version Information
 VERS.                  2.0:   CWLS log ASCII Standard -VERSION 2.0
 WRAP.                   NO:   One line per depth step
~Well Information Block
#MNEM.UNIT     VALUE/NAME     DESCRIPTION
#---------     -----------    ---------------------------
 STRT.S             11:48:55 27-Aug-21: START TIME 11:48:55 27-Aug-21
 STOP.S             11:56:03 27-Aug-21: STOP TIME  11:56:03 27-Aug-21
 STEP.S                   0.00: STEP TIME
 NULL.                 -999.25: NULL VALUE
 DFWT.                        :  DIST FWL TEXT
 DFST.                        :  DIST FSL TEXT
 DMF .             Drill Floor:  DRILL MEAS FROM
 STIM.      20.00.00 17-Aug-21:  START TIME
 DATE.      19.00.00 29-Aug-21:  END TIME
 SPUD.               15-Aug-21:  SPUD DATE
 NREF.                    Grid:  NORTH REFERENCE
 HPTY.       Minimum Curvature:  HOLE POS TYPE
 DMOD.             Drill Model:  DRILL MOD DESC
 SVYD.                  Survey:  SURVEY DESC
 ILTD.               Lithology:  INTERP LTH DESC
 FTOP.          Formation Tops:  FORM TOPS DESC
 RIG .              East Azeri:  RIG NAME
 PDAT.          Mean Sea Level:  PERMANENT DATUM
 FLD .                     ACG:  FIELD NAME
 SON .        AZ-XX-0907180857:  JOB NUMBER
 CTRY.              Azerbaijan:  COUNTRY NAME
 WELL.                    D23x:  WELL NAME
 SRVC.     Turan Drilling and Engineering:  CONTRACTOR
 COMP.     BP Exploration (Caspian Sea) Ltd.:  COMPANY
 UWI .            /AZE00000214:  UNIQUE WELL IDENTIFIER
 API .            /AZE00000214:  API NUMBER
 MDS .        Operator Entered:  MAG DATA SOURCE
 BASE.              Azerbaijan:  LOGGING EQUIPMENT BASE LOCATION
 REGN.                   EESSA:  REGION
 PROV.                    Baku:  PROVINCE
 STAT.                    Baku:  STATE NAME
 MWDS.                    Baku:  MWD SHOP
 DOE .                     N/A:  DOE NUMBER
 DCON.         Sperry Drilling:  DIRECTNL CONTR
 UNIT.                     N/A:  LOGGING EQUIPMENT ID
 WTYP.                Deviated:  WELL TYPE
 CNTY.                        :  COUNTY
 LOC .                        :  LOCATION
 LMF .             Drill Floor:  LOG MEASURED FROM
 TVDS.m                  43.60:  TVDSS CORRECTN
 LATI.deg                40.02:  LATITUDE
 LONG.deg                51.45:  LONGITUDE
 WHNS.m                  -7.04:  WELL HEAD N/S
 WHEW.m                  -0.67:  WELL HEAD E/W
 UTMX.m              538762.90:  UTM X
 UTMY.m             4431871.34:  UTM Y
 DFWL.m                   0.00:  DISTANCE FWL
 DFSL.m                   0.00:  DISTANCE FSL
 SDEP.m                4127.00:  START DEPTH
 TDD .m                5084.50:  TOTAL DEPTH (DRILLER)
 VSDR.deg               140.47:  VERT SEC DIRECT
 GVFD.g                   1.00:  GRAVITY FIELD
 MFLD.nT              50362.00:  MAGNETIC FIELD
 MDIP.deg                59.48:  MAGNETIC DIP
 MDEC.deg                 6.47:  MAGNETIC DECL
 GRDC.deg                 0.31:  GRID CORRECTION
 AZTC.deg                 6.16:  AZM TOTAL CORR
 EPD .m                   0.00:  ELEVATION
 EGL .m                   0.00:  GROUND ELEVATION
 WDMS.m                 151.80:  WD ELEV
 APD .m                  43.60:  DEPTH ABOVE PD
 DEP .m                4092.57:  DEPTH
 AGAP.m                  43.60:  AIR GAP
 VSEW.m                  -0.67:  VERT SEC E/W
 VSNS.m                  -7.04:  VERT SEC N/S
 EKB .m                  43.60:  KB ELEVATION
 EDF .m                  43.60:  DF ELEVATION
 TDL .m                 957.50:  TOTAL DEPTH (LOGGER)
 VSC .                       0:  VS TO CLOSURE
 MAGU.                 1851413:  MAGUTM CHECKSUM
~Parameter Information Block
#MNEM.UNIT       Value        Description
#---------     -----------    ---------------------------
 AV  .mps                 1.50:  Ann Velocity 
 AVMX.mps                 2.00:  Max Ann Veloc 
 AZIF.deg               184.66:  Azm, Final 
 BHAT.        Rotary Steerable:  BHA Type 
 BREV.rev               300.00:  Rev Bit Total 
 BROT.°/30m              -0.50:  Build Rotating 
 BS  .in                  8.50:  Bit Size 
 BSZ .in                  8.50:  Bit Size 
 BTPL.psig              370.00:  Bit Press Loss 
 CABU.                      No:  Customer Abuse 
 CGEO.      Behruz Shahbaliyev:  Customer Geo 
 COMM.                     L*e:  Run Comments 1 
 TCS .hr                140.08:  Time Ciculation Ended 
 CV  .mps                 3.00:  Crit Velocity 
 CVMX.mps                 3.20:  Max Crit Veloc 
 DD1 .            Musa Ahmadov:  Direct Drillr 1 
 DD2 .           Hamid Ahmadov:  Direct Drillr 2 
 DDSV.               Geo-Pilot:  DD Service 
 DEFF.%                  98.40:  % Det Eff 
 DLRX.°/30m               3.40:  Dogleg Rot Max 
 DLSO.°/30m               1.45:  Dogleg Oriented 
 DLSX.°/30m               3.40:  Dogleg Str Max 
 DRET.      18.40.00 29-Aug-21:  Drill End Time 
 DRST.      21.00.00 20-Aug-21:  Drill Start Tim 
 DTIM.hr                 69.47:  Time Drilling 
 EDEP.m                5084.50:  End Depth 
 ENG1.      Artemiy Matviyanov:  Engineer 1 
 ENG2.         Almaz Almadatov:  Engineer 2 
 ETIM.      18.40.00 29-Aug-21:  End Time 
 FLOI.gpm               500.00:  Flow In 
 FLON.gpm               400.00:  Flow In Min 
 FLOS.cptm                0.00:  Fluid Loss 
 FLOX.gpm               500.00:  Flow In Max 
 DFT .        Mineral Oil Base:  Mud Type 
 HFLO.                      No:  High Flow 
 HPRE.                      No:  High Pressure 
 HTEM.                      No:  High Temp 
 HYDO.m                   1.80:  Hydro Offset 
 IFIN.deg                25.62:  Inc, Final 
 IMAX.deg                48.69:  Inc Max 
 IMIN.deg                24.01:  Inc Min 
 IMND.m                4962.57:  Inc Min Depth 
 IMXD.m                4119.01:  Inc Max Depth 
 JARR.                      No:  Jarring 
 LETM.      18.40.00 29-Aug-21:  Log End Time 
 LOST.hr                     0:  Lost Rig Time 
 LSTM.      21.00.00 20-Aug-21:  Log Start Time 
 MDCL.ppm             41500.00:  Mud Chlorides 
 MDES.     Inversion Oil/Synthetic:  Mud Desc 
 DFD .sg                  1.56:  Mud Density 
 MDMN.sg                  1.56:  Dens Mud Min 
 MDMX.sg                  1.56:  Dens Mud Max 
 MOIL.                      70:  Run Mud Oil % 
 MOWR.                   70:30:  Run Mud OWR 
 MSND.                     0.2:  Run Mud Sand % 
 MSOL.                    23.3:  Run Mud Solids% 
 DFV .spqt               78.00:  Mud Viscosity 
 MWOD.in                  6.75:  MWD Tool OD 
 MWSI.                      No:  Serv Intrp, MWD 
 OTIM.hr                218.30:  Time Operating 
 PCON.           Look Like New:  Pad Condition 
 PMAX.psia            11015.30:  Press Op, Max 
 PV  .cP                 38.00:  Mud PV 
 RUN .                     300:  Run Number 
 ROPA.m/hr               15.00:  ROP Avg 
 ROPN.m/hr                9.00:  ROP Min 
 ROPX.m/hr               17.00:  ROP Max 
 RPMA.rpm               120.00:  RPM Surface Avg 
 RPMN.rpm                90.00:  RPM Surface Min 
 RPMX.rpm               140.00:  RPM Surface Max 
 RRUN.                     300:  Rig Run Number 
 RTIM.hr                 31.53:  Time Reaming 
 SAZI.deg               331.64:  Azm, Start 
 SDEP.m                4127.00:  Start Depth 
 SIDD.                      No:  Serv Intrp, DD 
 SINC.deg                48.43:  Inc, Start 
 SPPA.psig             5830.00:  SPP Avg 
 SPPN.psig             5600.00:  SPP Min 
 SPPX.psig             5900.00:  SPP Max 
 STIM.      21.00.00 20-Aug-21:  Start Time 
 SVCS.                 DD, MWD:  Services 
 SVER.                    9.20:  Sperry Version 
 TDAT.m                 957.50:  Tot Depth Attmp 
 TDDF.                      No:  Trip for DD 
 TDLG.m                 957.50:  Tot Depth Loggd 
 TFF .                      No:  Trip for Fail 
 TQAA.f-kp               15.00:  Torque Abs Avg 
 TQAN.f-kp               12.00:  Torque Abs Min 
 TQAX.f-kp               19.00:  Torque Abs Max 
 TRRT.°/30m              -3.40:  Turn Rotating 
 MRT .                  EWR-M5:  Maximum Recorded Temperature 
 TTMX.degC              100.00:  Max Tool Temp 
 VS01.                90639251:  Virtual Str1 SN 
 VS02.                90634715:  Virtual Str2 SN 
 VS03.                90652479:  Virtual Str3 SN 
 VS04.                90642262:  Virtual Str4 SN 
 WBMN.klb                 0.00:  WOB Min 
 WITN.           Murad Guliyev:  Customer Rep 
 WITN.          Yashar Gaziyev:  Customer Rep 2 
 WOBA.klb                 9.00:  WOB Avg 
 WOBX.klb                12.00:  WOB Max 
 YP  .lhf2               30.00:  Yield Point 
~Curve Information Block
#MNEM.UNIT                 API CODE     Curve Description
#---------               -----------    ---------------------------
 TIME.HHMMSS            00 000 000 000:  GT Time & Date
 GTDEPTH.m              00 000 000 000:  GT Depth
 GTPQH.psia             00 000 000 000:  GT HR Quartz Pressure
 GTTQ.degC              00 000 000 000:  GT Quartz Temperature
 GTTN.NONE              00 000 000 000:  GT Test Number
 GTET.sec               00 000 000 000:  GT Elapsed Test Time
 GTTVD.m                00 000 000 000:  GT True Vertical Depth
#Other Information
#
#WARRANTY: Halliburton will use its best efforts to furnish customers with 
#accurate information and interpretations that are part of, and incident to, the services 
#provided.  However, Halliburton cannot and does not warrant the accuracy 
#or correctness of such information and interpretations.  Under no circumstances should any 
#such information or interpretation be relied upon as the sole basis for any drilling, 
#completion, production, or financial decision or any procedure involving any risk to the 
#safety of any drilling venture, drilling rig or its crew or any other third party.  The 
#Customer has full responsibility for all drilling, completion and production operation.  
#Halliburton makes no representations or warranties, either expressed or 
#implied, including, but not limited to, the implied warranties of merchantability or fitness 
#for a particular purpose, with respect to the services rendered.  In no event will 
#Halliburton be liable for failure to obtain any particular results or for 
#any damages, including, but not limited to, indirect, special or consequential damages, 
#resulting from the use of any information or interpretation provided by Halliburton.
#
~A           TIME           GTDEPTH  GTPQH  GTTQ  GTTN   GTET   GTTVD  
# ...
   11:49:40.864.27-Aug-2021 4914.00 7795.67 85.32 11.00  45.22 3261.31
   11:49:41.064.27-Aug-2021 4914.00 7795.68 85.32 11.00  45.42 3261.31
   11:49:41.264.27-Aug-2021 4914.00 7795.90 85.32 11.00  45.62 3261.31
   11:49:41.464.27-Aug-2021 4914.00 7796.11 85.32 11.00  45.82 3261.31
   11:49:41.664.27-Aug-2021 4914.00 7796.24 85.32 11.00  46.02 3261.31
   11:49:41.864.27-Aug-2021 4914.00 7796.24 85.32 11.00  46.22 3261.31
   11:49:42.064.27-Aug-2021 4914.00 7796.12 85.32 11.00  46.42 3261.31
   11:49:42.264.27-Aug-2021 4914.00 7795.99 85.32 11.00  46.62 3261.31
   11:49:42.464.27-Aug-2021 4914.00 7796.24 85.32 11.00  46.82 3261.31
   11:49:42.665.27-Aug-2021 4914.00 7800.90 85.32 11.00  47.02 3261.31
   11:49:42.865.27-Aug-2021 4914.00 7800.90 85.32 11.00  47.22 3261.31
   11:49:43.065.27-Aug-2021 4914.00 7797.67 85.32 11.00  47.42 3261.31
   11:49:43.265.27-Aug-2021 4914.00 7796.76 85.32 11.00  47.62 3261.31
   11:49:43.465.27-Aug-2021 4914.00 7796.42 85.32 11.00  47.82 3261.31
   11:49:43.665.27-Aug-2021 4914.00 7796.65 85.32 11.00  48.02 3261.31
   11:49:43.865.27-Aug-2021 4914.00 7796.65 85.32 11.00  48.22 3261.31
   11:49:44.065.27-Aug-2021 4914.00 7796.63 85.32 11.00  48.42 3261.31
   11:49:44.265.27-Aug-2021 4914.00 7796.95 85.32 11.00  48.62 3261.31
   11:49:44.465.27-Aug-2021 4914.00 7797.12 85.32 11.00  48.82 3261.31
   11:49:44.665.27-Aug-2021 4914.00 7797.71 85.32 11.00  49.02 3261.31
   11:49:44.865.27-Aug-2021 4914.00 7797.71 85.32 11.00  49.22 3261.31
   11:49:45.065.27-Aug-2021 4914.00 7797.92 85.32 11.00  49.42 3261.31
   11:49:45.265.27-Aug-2021 4914.00 7797.97 85.32 11.00  49.62 3261.31
   11:49:45.466.27-Aug-2021 4914.00 7797.61 85.32 11.00  49.82 3261.31
   11:49:45.666.27-Aug-2021 4914.00 7796.21 85.32 11.00  50.02 3261.31
   11:49:45.866.27-Aug-2021 4914.00 7796.21 85.32 11.00  50.22 3261.31
   11:49:46.066.27-Aug-2021 4914.00 7801.52 85.32 11.00  50.42 3261.31
   11:49:46.266.27-Aug-2021 4914.00 7794.91 85.32 11.00  50.62 3261.31
   11:49:46.466.27-Aug-2021 4914.00 7797.91 85.32 11.00  50.82 3261.31
   11:49:46.666.27-Aug-2021 4914.00 7796.95 85.32 11.00  51.02 3261.31
   11:49:46.866.27-Aug-2021 4914.00 7796.95 85.32 11.00  51.22 3261.31
   11:49:47.066.27-Aug-2021 4914.00 7797.97 85.32 11.00  51.42 3261.31
   11:49:47.266.27-Aug-2021 4914.00 7797.83 85.32 11.00  51.62 3261.31
   11:49:47.466.27-Aug-2021 4914.00 7796.92 85.32 11.00  51.82 3261.31
   11:49:47.666.27-Aug-2021 4914.00 7796.85 85.32 11.00  52.02 3261.31
   11:49:47.866.27-Aug-2021 4914.00 7796.85 85.32 11.00  52.22 3261.31
   11:49:48.066.27-Aug-2021 4914.00 7797.32 85.32 11.00  52.42 3261.31
   11:49:48.266.27-Aug-2021 4914.00 7803.40 85.32 11.00  52.62 3261.31
   11:49:48.467.27-Aug-2021 4914.00 7794.92 85.32 11.00  52.82 3261.31
   11:49:48.667.27-Aug-2021 4914.00 7798.85 85.32 11.00  53.02 3261.31
   11:49:48.867.27-Aug-2021 4914.00 7798.85 85.32 11.00  53.22 3261.31
   11:49:49.067.27-Aug-2021 4914.00 7799.92 85.32 11.00  53.42 3261.31
   11:49:49.267.27-Aug-2021 4914.00 7799.07 85.32 11.00  53.62 3261.31
   11:49:49.467.27-Aug-2021 4914.00 7798.77 85.32 11.00  53.82 3261.31
   11:49:49.667.27-Aug-2021 4914.00 7797.81 85.32 11.00  54.02 3261.31
   11:49:49.867.27-Aug-2021 4914.00 7797.81 85.32 11.00  54.22 3261.31
   11:49:50.067.27-Aug-2021 4914.00 7796.75 85.32 11.00  54.42 3261.31
   11:49:50.267.27-Aug-2021 4914.00 7797.01 85.32 11.00  54.62 3261.31
   11:49:50.467.27-Aug-2021 4914.00 7797.60 85.32 11.00  54.82 3261.31
   11:49:50.667.27-Aug-2021 4914.00 7797.65 85.32 11.00  55.02 3261.31
   11:49:50.867.27-Aug-2021 4914.00 7797.65 85.32 11.00  55.22 3261.31
   11:49:51.067.27-Aug-2021 4914.00 7798.72 85.32 11.00  55.42 3261.31
   11:49:51.268.27-Aug-2021 4914.00 7798.77 85.32 11.00  55.62 3261.31
   11:49:51.468.27-Aug-2021 4914.00 7799.19 85.32 11.00  55.82 3261.31
   11:49:51.668.27-Aug-2021 4914.00 7798.99 85.32 11.00  56.02 3261.31
   11:49:51.868.27-Aug-2021 4914.00 7798.99 85.32 11.00  56.22 3261.31
   11:49:52.068.27-Aug-2021 4914.00 7798.74 85.32 11.00  56.42 3261.31
   11:49:52.268.27-Aug-2021 4914.00 7795.16 85.32 11.00  56.62 3261.31
   11:49:52.468.27-Aug-2021 4914.00 7798.64 85.32 11.00  56.82 3261.31
   11:49:52.668.27-Aug-2021 4914.00 7799.05 85.32 11.00  57.02 3261.31
   11:49:52.868.27-Aug-2021 4914.00 7799.05 85.32 11.00  57.22 3261.31
   11:49:53.068.27-Aug-2021 4914.00 7798.38 85.32 11.00  57.42 3261.31
   11:49:53.268.27-Aug-2021 4914.00 7798.28 85.32 11.00  57.62 3261.31
   11:49:53.468.27-Aug-2021 4914.00 7798.30 85.32 11.00  57.82 3261.31
   11:49:53.668.27-Aug-2021 4914.00 7798.34 85.32 11.00  58.02 3261.31
   11:49:53.868.27-Aug-2021 4914.00 7798.34 85.32 11.00  58.22 3261.31
   11:49:54.069.27-Aug-2021 4914.00 7798.49 85.32 11.00  58.42 3261.31
   11:49:54.269.27-Aug-2021 4914.00 7799.16 85.32 11.00  58.62 3261.31
   11:49:54.469.27-Aug-2021 4914.00 7799.25 85.32 11.00  58.82 3261.31
   11:49:54.669.27-Aug-2021 4914.00 7799.76 85.32 11.00  59.02 3261.31
   11:49:54.869.27-Aug-2021 4914.00 7799.76 85.32 11.00  59.22 3261.31
   11:49:55.069.27-Aug-2021 4914.00 7799.55 85.32 11.00  59.42 3261.31
   11:49:55.269.27-Aug-2021 4914.00 7799.89 85.32 11.00  59.62 3261.31
   11:49:55.469.27-Aug-2021 4914.00 7800.60 85.32 11.00  59.82 3261.31
   11:49:55.669.27-Aug-2021 4914.00 7800.69 85.32 11.00  60.02 3261.31
   11:49:55.869.27-Aug-2021 4914.00 7800.69 85.32 11.00  60.22 3261.31
   11:49:56.069.27-Aug-2021 4914.00 7801.41 85.32 11.00  60.42 3261.31
   11:49:56.269.27-Aug-2021 4914.00 7801.69 85.32 11.00  60.62 3261.31
   11:49:56.469.27-Aug-2021 4914.00 7800.69 85.32 11.00  60.82 3261.31
   11:49:56.669.27-Aug-2021 4914.00 7806.07 85.32 11.00  61.02 3261.31
   11:49:56.870.27-Aug-2021 4914.00 7806.07 85.32 11.00  61.22 3261.31
   11:49:57.070.27-Aug-2021 4914.00 7802.35 85.32 11.00  61.42 3261.31
   11:49:57.270.27-Aug-2021 4914.00 7800.34 85.32 11.00  61.62 3261.31
   11:49:57.470.27-Aug-2021 4914.00 7800.75 85.32 11.00  61.82 3261.31
   11:49:57.670.27-Aug-2021 4914.00 7800.98 85.32 11.00  62.02 3261.31
   11:49:57.870.27-Aug-2021 4914.00 7800.98 85.32 11.00  62.22 3261.31
   11:49:58.070.27-Aug-2021 4914.00 7807.05 85.32 11.00  62.42 3261.31
   11:49:58.270.27-Aug-2021 4914.00 7798.95 85.32 11.00  62.62 3261.31
   11:49:58.470.27-Aug-2021 4914.00 7802.96 85.32 11.00  62.82 3261.31
   11:49:58.670.27-Aug-2021 4914.00 7802.13 85.32 11.00  63.02 3261.31
   11:49:58.870.27-Aug-2021 4914.00 7802.13 85.32 11.00  63.22 3261.31
   11:49:59.070.27-Aug-2021 4914.00 7806.71 85.32 11.00  63.42 3261.31
   11:49:59.270.27-Aug-2021 4914.00 7799.67 85.32 11.00  63.62 3261.31
   11:49:59.470.27-Aug-2021 4914.00 7802.71 85.31 11.00  63.82 3261.31
   11:49:59.671.27-Aug-2021 4914.00 7801.42 85.31 11.00  64.02 3261.31
   11:49:59.871.27-Aug-2021 4914.00 7801.42 85.31 11.00  64.22 3261.31
   11:50:00.071.27-Aug-2021 4914.00 7801.56 85.31 11.00  64.42 3261.31
   11:50:00.271.27-Aug-2021 4914.00 7801.51 85.31 11.00  64.62 3261.31
   11:50:00.471.27-Aug-2021 4914.00 7801.70 85.31 11.00  64.82 3261.31
   11:50:00.671.27-Aug-2021 4914.00 7801.96 85.31 11.00  65.02 3261.31
   11:50:00.871.27-Aug-2021 4914.00 7801.96 85.31 11.00  65.22 3261.31
   11:50:01.071.27-Aug-2021 4914.00 7802.85 85.31 11.00  65.42 3261.31
   11:50:01.271.27-Aug-2021 4914.00 7803.08 85.31 11.00  65.62 3261.31
   11:50:01.471.27-Aug-2021 4914.00 7803.33 85.31 11.00  65.82 3261.31
   11:50:01.671.27-Aug-2021 4914.00 7803.22 85.31 11.00  66.02 3261.31
   11:50:01.871.27-Aug-2021 4914.00 7803.22 85.31 11.00  66.22 3261.31
   11:50:02.071.27-Aug-2021 4914.00 7802.89 85.31 11.00  66.42 3261.31
   11:50:02.271.27-Aug-2021 4914.00 7808.21 85.31 11.00  66.62 3261.31
   11:50:02.472.27-Aug-2021 4914.00 7800.66 85.31 11.00  66.82 3261.31
   11:50:02.672.27-Aug-2021 4914.00 7804.22 85.31 11.00  67.02 3261.31
   11:50:02.872.27-Aug-2021 4914.00 7804.22 85.31 11.00  67.22 3261.31
   11:50:03.072.27-Aug-2021 4914.00 7802.77 85.31 11.00  67.42 3261.31
   11:50:03.272.27-Aug-2021 4914.00 7802.79 85.31 11.00  67.62 3261.31
