~Version Information
 VERS.                  2.0:   CWLS log ASCII Standard -VERSION 2.0
 WRAP.                   NO:   One line per depth step
~Well Information Block
#MNEM.UNIT     VALUE/NAME     DESCRIPTION
#---------     -----------    ---------------------------
 STRT.S             06:14:43 27-Aug-21: START TIME 06:14:43 27-Aug-21
 STOP.S             06:21:54 27-Aug-21: STOP TIME  06:21:54 27-Aug-21
 STEP.S                   0.00: STEP TIME
 NULL.                 -999.25: NULL VALUE
 DFWT.                        :  DIST FWL TEXT
 DFST.                        :  DIST FSL TEXT
 DMF .             Drill Floor:  DRILL MEAS FROM
 STIM.      20.00.00 17-Aug-21:  START TIME
 DATE.      19.00.00 29-Aug-21:  END TIME
 SPUD.               15-Aug-21:  SPUD DATE
 NREF.                    Grid:  NORTH REFERENCE
 HPTY.       Minimum Curvature:  HOLE POS TYPE
 DMOD.             Drill Model:  DRILL MOD DESC
 SVYD.                  Survey:  SURVEY DESC
 ILTD.               Lithology:  INTERP LTH DESC
 FTOP.          Formation Tops:  FORM TOPS DESC
 RIG .              East Azeri:  RIG NAME
 PDAT.          Mean Sea Level:  PERMANENT DATUM
 FLD .                     ACG:  FIELD NAME
 SON .        AZ-XX-0907180857:  JOB NUMBER
 CTRY.              Azerbaijan:  COUNTRY NAME
 WELL.                    D23x:  WELL NAME
 SRVC.     Turan Drilling and Engineering:  CONTRACTOR
 COMP.     BP Exploration (Caspian Sea) Ltd.:  COMPANY
 UWI .            /AZE00000214:  UNIQUE WELL IDENTIFIER
 API .            /AZE00000214:  API NUMBER
 MDS .        Operator Entered:  MAG DATA SOURCE
 BASE.              Azerbaijan:  LOGGING EQUIPMENT BASE LOCATION
 REGN.                   EESSA:  REGION
 PROV.                    Baku:  PROVINCE
 STAT.                    Baku:  STATE NAME
 MWDS.                    Baku:  MWD SHOP
 DOE .                     N/A:  DOE NUMBER
 DCON.         Sperry Drilling:  DIRECTNL CONTR
 UNIT.                     N/A:  LOGGING EQUIPMENT ID
 WTYP.                Deviated:  WELL TYPE
 CNTY.                        :  COUNTY
 LOC .                        :  LOCATION
 LMF .             Drill Floor:  LOG MEASURED FROM
 TVDS.m                  43.60:  TVDSS CORRECTN
 LATI.deg                40.02:  LATITUDE
 LONG.deg                51.45:  LONGITUDE
 WHNS.m                  -7.04:  WELL HEAD N/S
 WHEW.m                  -0.67:  WELL HEAD E/W
 UTMX.m              538762.90:  UTM X
 UTMY.m             4431871.34:  UTM Y
 DFWL.m                   0.00:  DISTANCE FWL
 DFSL.m                   0.00:  DISTANCE FSL
 SDEP.m                4127.00:  START DEPTH
 TDD .m                5084.50:  TOTAL DEPTH (DRILLER)
 VSDR.deg               140.47:  VERT SEC DIRECT
 GVFD.g                   1.00:  GRAVITY FIELD
 MFLD.nT              50362.00:  MAGNETIC FIELD
 MDIP.deg                59.48:  MAGNETIC DIP
 MDEC.deg                 6.47:  MAGNETIC DECL
 GRDC.deg                 0.31:  GRID CORRECTION
 AZTC.deg                 6.16:  AZM TOTAL CORR
 EPD .m                   0.00:  ELEVATION
 EGL .m                   0.00:  GROUND ELEVATION
 WDMS.m                 151.80:  WD ELEV
 APD .m                  43.60:  DEPTH ABOVE PD
 DEP .m                4092.57:  DEPTH
 AGAP.m                  43.60:  AIR GAP
 VSEW.m                  -0.67:  VERT SEC E/W
 VSNS.m                  -7.04:  VERT SEC N/S
 EKB .m                  43.60:  KB ELEVATION
 EDF .m                  43.60:  DF ELEVATION
 TDL .m                 957.50:  TOTAL DEPTH (LOGGER)
 VSC .                       0:  VS TO CLOSURE
 MAGU.                 1851413:  MAGUTM CHECKSUM
~Parameter Information Block
#MNEM.UNIT       Value        Description
#---------     -----------    ---------------------------
 AV  .mps                 1.50:  Ann Velocity 
 AVMX.mps                 2.00:  Max Ann Veloc 
 AZIF.deg               184.66:  Azm, Final 
 BHAT.        Rotary Steerable:  BHA Type 
 BREV.rev               300.00:  Rev Bit Total 
 BROT.°/30m              -0.50:  Build Rotating 
 BS  .in                  8.50:  Bit Size 
 BSZ .in                  8.50:  Bit Size 
 BTPL.psig              370.00:  Bit Press Loss 
 CABU.                      No:  Customer Abuse 
 CGEO.      Behruz Shahbaliyev:  Customer Geo 
 COMM.                     4V:  Run Comments 1 
 TCS .hr                140.08:  Time Ciculation Ended 
 CV  .mps                 3.00:  Crit Velocity 
 CVMX.mps                 3.20:  Max Crit Veloc 
 DD1 .            Musa Ahmadov:  Direct Drillr 1 
 DD2 .           Hamid Ahmadov:  Direct Drillr 2 
 DDSV.               Geo-Pilot:  DD Service 
 DEFF.%                  98.40:  % Det Eff 
 DLRX.°/30m               3.40:  Dogleg Rot Max 
 DLSO.°/30m               1.45:  Dogleg Oriented 
 DLSX.°/30m               3.40:  Dogleg Str Max 
 DRET.      18.40.00 29-Aug-21:  Drill End Time 
 DRST.      21.00.00 20-Aug-21:  Drill Start Tim 
 DTIM.hr                 69.47:  Time Drilling 
 EDEP.m                5084.50:  End Depth 
 ENG1.      Artemiy Matviyanov:  Engineer 1 
 ENG2.         Almaz Almadatov:  Engineer 2 
 ETIM.      18.40.00 29-Aug-21:  End Time 
 FLOI.gpm               500.00:  Flow In 
 FLON.gpm               400.00:  Flow In Min 
 FLOS.cptm                0.00:  Fluid Loss 
 FLOX.gpm               500.00:  Flow In Max 
 DFT .        Mineral Oil Base:  Mud Type 
 HFLO.                      No:  High Flow 
 HPRE.                      No:  High Pressure 
 HTEM.                      No:  High Temp 
 HYDO.m                   1.80:  Hydro Offset 
 IFIN.deg                25.62:  Inc, Final 
 IMAX.deg                48.69:  Inc Max 
 IMIN.deg                24.01:  Inc Min 
 IMND.m                4962.57:  Inc Min Depth 
 IMXD.m                4119.01:  Inc Max Depth 
 JARR.                      No:  Jarring 
 LETM.      18.40.00 29-Aug-21:  Log End Time 
 LOST.hr                     0:  Lost Rig Time 
 LSTM.      21.00.00 20-Aug-21:  Log Start Time 
 MDCL.ppm             41500.00:  Mud Chlorides 
 MDES.     Inversion Oil/Synthetic:  Mud Desc 
 DFD .sg                  1.56:  Mud Density 
 MDMN.sg                  1.56:  Dens Mud Min 
 MDMX.sg                  1.56:  Dens Mud Max 
 MOIL.                      70:  Run Mud Oil % 
 MOWR.                   70:30:  Run Mud OWR 
 MSND.                     0.2:  Run Mud Sand % 
 MSOL.                    23.3:  Run Mud Solids% 
 DFV .spqt               78.00:  Mud Viscosity 
 MWOD.in                  6.75:  MWD Tool OD 
 MWSI.                      No:  Serv Intrp, MWD 
 OTIM.hr                218.30:  Time Operating 
 PCON.           Look Like New:  Pad Condition 
 PMAX.psia            11015.30:  Press Op, Max 
 PV  .cP                 38.00:  Mud PV 
 RUN .                     300:  Run Number 
 ROPA.m/hr               15.00:  ROP Avg 
 ROPN.m/hr                9.00:  ROP Min 
 ROPX.m/hr               17.00:  ROP Max 
 RPMA.rpm               120.00:  RPM Surface Avg 
 RPMN.rpm                90.00:  RPM Surface Min 
 RPMX.rpm               140.00:  RPM Surface Max 
 RRUN.                     300:  Rig Run Number 
 RTIM.hr                 31.53:  Time Reaming 
 SAZI.deg               331.64:  Azm, Start 
 SDEP.m                4127.00:  Start Depth 
 SIDD.                      No:  Serv Intrp, DD 
 SINC.deg                48.43:  Inc, Start 
 SPPA.psig             5830.00:  SPP Avg 
 SPPN.psig             5600.00:  SPP Min 
 SPPX.psig             5900.00:  SPP Max 
 STIM.      21.00.00 20-Aug-21:  Start Time 
 SVCS.                 DD, MWD:  Services 
 SVER.                    9.20:  Sperry Version 
 TDAT.m                 957.50:  Tot Depth Attmp 
 TDDF.                      No:  Trip for DD 
 TDLG.m                 957.50:  Tot Depth Loggd 
 TFF .                      No:  Trip for Fail 
 TQAA.f-kp               15.00:  Torque Abs Avg 
 TQAN.f-kp               12.00:  Torque Abs Min 
 TQAX.f-kp               19.00:  Torque Abs Max 
 TRRT.°/30m              -3.40:  Turn Rotating 
 MRT .                  EWR-M5:  Maximum Recorded Temperature 
 TTMX.degC              100.00:  Max Tool Temp 
 VS01.                90639251:  Virtual Str1 SN 
 VS02.                90634715:  Virtual Str2 SN 
 VS03.                90652479:  Virtual Str3 SN 
 VS04.                90642262:  Virtual Str4 SN 
 WBMN.klb                 0.00:  WOB Min 
 WITN.           Murad Guliyev:  Customer Rep 
 WITN.          Yashar Gaziyev:  Customer Rep 2 
 WOBA.klb                 9.00:  WOB Avg 
 WOBX.klb                12.00:  WOB Max 
 YP  .lhf2               30.00:  Yield Point 
~Curve Information Block
#MNEM.UNIT                 API CODE     Curve Description
#---------               -----------    ---------------------------
 TIME.HHMMSS            00 000 000 000:  GT Time & Date
 GTDEPTH.m              00 000 000 000:  GT Depth
 GTPQH.psia             00 000 000 000:  GT HR Quartz Pressure
 GTTQ.degC              00 000 000 000:  GT Quartz Temperature
 GTTN.NONE              00 000 000 000:  GT Test Number
 GTET.sec               00 000 000 000:  GT Elapsed Test Time
 GTTVD.m                00 000 000 000:  GT True Vertical Depth
#Other Information
#
#WARRANTY: Halliburton will use its best efforts to furnish customers with 
#accurate information and interpretations that are part of, and incident to, the services 
#provided.  However, Halliburton cannot and does not warrant the accuracy 
#or correctness of such information and interpretations.  Under no circumstances should any 
#such information or interpretation be relied upon as the sole basis for any drilling, 
#completion, production, or financial decision or any procedure involving any risk to the 
#safety of any drilling venture, drilling rig or its crew or any other third party.  The 
#Customer has full responsibility for all drilling, completion and production operation.  
#Halliburton makes no representations or warranties, either expressed or 
#implied, including, but not limited to, the implied warranties of merchantability or fitness 
#for a particular purpose, with respect to the services rendered.  In no event will 
#Halliburton be liable for failure to obtain any particular results or for 
#any damages, including, but not limited to, indirect, special or consequential damages, 
#resulting from the use of any information or interpretation provided by Halliburton.
#
~A           TIME           GTDEPTH  GTPQH  GTTQ  GTTN  GTET   GTTVD  
# ...
   06:21:37.690.27-Aug-2021 5020.50 8002.21 88.12 2.00 414.07 3358.11
   06:21:37.890.27-Aug-2021 5020.50 8002.21 88.12 2.00 414.27 3358.11
   06:21:38.090.27-Aug-2021 5020.50 8002.26 88.12 2.00 414.47 3358.11
   06:21:38.290.27-Aug-2021 5020.50 8001.97 88.12 2.00 414.67 3358.11
   06:21:38.490.27-Aug-2021 5020.50 8001.68 88.12 2.00 414.87 3358.11
   06:21:38.691.27-Aug-2021 5020.50 8001.99 88.12 2.00 415.07 3358.11
   06:21:38.891.27-Aug-2021 5020.50 8001.99 88.12 2.00 415.27 3358.11
   06:21:39.091.27-Aug-2021 5020.50 8003.29 88.12 2.00 415.47 3358.11
   06:21:39.291.27-Aug-2021 5020.50 8004.13 88.12 2.00 415.67 3358.11
   06:21:39.491.27-Aug-2021 5020.50 8003.81 88.12 2.00 415.87 3358.11
   06:21:39.691.27-Aug-2021 5020.50 8003.83 88.12 2.00 416.07 3358.11
   06:21:39.891.27-Aug-2021 5020.50 8003.83 88.12 2.00 416.27 3358.11
   06:21:40.091.27-Aug-2021 5020.50 8003.34 88.12 2.00 416.47 3358.11
   06:21:40.291.27-Aug-2021 5020.50 8002.90 88.12 2.00 416.67 3358.11
   06:21:40.491.27-Aug-2021 5020.50 8010.62 88.12 2.00 416.87 3358.11
   06:21:40.691.27-Aug-2021 5020.50 8001.16 88.12 2.00 417.07 3358.11
   06:21:40.891.27-Aug-2021 5020.50 8001.16 88.12 2.00 417.27 3358.11
   06:21:41.091.27-Aug-2021 5020.50 8002.31 88.12 2.00 417.47 3358.11
   06:21:41.291.27-Aug-2021 5020.50 8006.18 88.12 2.00 417.67 3358.11
   06:21:41.491.27-Aug-2021 5020.50 8004.17 88.12 2.00 417.87 3358.11
   06:21:41.691.27-Aug-2021 5020.50 8001.74 88.12 2.00 418.07 3358.11
   06:21:41.891.27-Aug-2021 5020.50 8001.74 88.12 2.00 418.27 3358.11
   06:21:42.091.27-Aug-2021 5020.50 8001.32 88.12 2.00 418.47 3358.11
   06:21:42.291.27-Aug-2021 5020.50 8002.03 88.12 2.00 418.67 3358.11
   06:21:42.491.27-Aug-2021 5020.50 8009.28 88.12 2.00 418.87 3358.11
   06:21:42.691.27-Aug-2021 5020.50 8000.92 88.12 2.00 419.07 3358.11
   06:21:42.891.27-Aug-2021 5020.50 8000.92 88.12 2.00 419.27 3358.11
   06:21:43.091.27-Aug-2021 5020.50 8002.06 88.12 2.00 419.47 3358.11
   06:21:43.291.27-Aug-2021 5020.50 8010.43 88.12 2.00 419.67 3358.11
   06:21:43.491.27-Aug-2021 5020.50 8001.33 88.12 2.00 419.87 3358.11
   06:21:43.691.27-Aug-2021 5020.50 8002.37 88.12 2.00 420.07 3358.11
   06:21:43.891.27-Aug-2021 5020.50 8002.37 88.12 2.00 420.27 3358.11
   06:21:44.091.27-Aug-2021 5020.50 8001.58 88.12 2.00 420.47 3358.11
   06:21:44.291.27-Aug-2021 5020.50 8001.54 88.12 2.00 420.67 3358.11
   06:21:44.491.27-Aug-2021 5020.50 8001.80 88.12 2.00 420.87 3358.11
   06:21:44.692.27-Aug-2021 5020.50 8002.37 88.12 2.00 421.07 3358.11
   06:21:44.892.27-Aug-2021 5020.50 8002.37 88.12 2.00 421.27 3358.11
   06:21:45.092.27-Aug-2021 5020.50 8002.30 88.12 2.00 421.47 3358.11
   06:21:45.292.27-Aug-2021 5020.50 8002.54 88.12 2.00 421.67 3358.11
   06:21:45.492.27-Aug-2021 5020.50 8003.83 88.12 2.00 421.87 3358.11
   06:21:45.692.27-Aug-2021 5020.50 8003.77 88.12 2.00 422.07 3358.11
   06:21:45.892.27-Aug-2021 5020.50 8003.77 88.12 2.00 422.27 3358.11
   06:21:46.092.27-Aug-2021 5020.50 8003.30 88.12 2.00 422.47 3358.11
   06:21:46.292.27-Aug-2021 5020.50 8002.63 88.12 2.00 422.67 3358.11
   06:21:46.492.27-Aug-2021 5020.50 8009.20 88.12 2.00 422.87 3358.11
   06:21:46.692.27-Aug-2021 5020.50 8001.41 88.12 2.00 423.07 3358.11
   06:21:46.892.27-Aug-2021 5020.50 8001.41 88.12 2.00 423.27 3358.11
   06:21:47.092.27-Aug-2021 5020.50 8002.10 88.12 2.00 423.47 3358.11
   06:21:47.292.27-Aug-2021 5020.50 8002.28 88.12 2.00 423.67 3358.11
   06:21:47.492.27-Aug-2021 5020.50 8002.04 88.12 2.00 423.87 3358.11
   06:21:47.692.27-Aug-2021 5020.50 8002.54 88.12 2.00 424.07 3358.11
   06:21:47.892.27-Aug-2021 5020.50 8002.54 88.12 2.00 424.27 3358.11
   06:21:48.092.27-Aug-2021 5020.50 8002.09 88.12 2.00 424.47 3358.11
   06:21:48.292.27-Aug-2021 5020.50 8002.27 88.12 2.00 424.67 3358.11
   06:21:48.492.27-Aug-2021 5020.50 8002.57 88.12 2.00 424.87 3358.11
   06:21:48.692.27-Aug-2021 5020.50 8003.96 88.12 2.00 425.07 3358.11
   06:21:48.892.27-Aug-2021 5020.50 8003.96 88.12 2.00 425.27 3358.11
   06:21:49.092.27-Aug-2021 5020.50 8003.56 88.12 2.00 425.47 3358.11
   06:21:49.292.27-Aug-2021 5020.50 8003.25 88.12 2.00 425.67 3358.11
   06:21:49.492.27-Aug-2021 5020.50 8002.84 88.12 2.00 425.87 3358.11
   06:21:49.692.27-Aug-2021 5020.50 8003.07 88.12 2.00 426.07 3358.11
   06:21:49.892.27-Aug-2021 5020.50 8003.07 88.12 2.00 426.27 3358.11
   06:21:50.092.27-Aug-2021 5020.50 8005.39 88.12 2.00 426.47 3358.11
   06:21:50.292.27-Aug-2021 5020.50 8003.57 88.12 2.00 426.67 3358.11
   06:21:50.492.27-Aug-2021 5020.50 8001.99 88.12 2.00 426.87 3358.11
   06:21:50.693.27-Aug-2021 5020.50 8009.57 88.12 2.00 427.07 3358.11
   06:21:50.893.27-Aug-2021 5020.50 8009.57 88.12 2.00 427.27 3358.11
   06:21:51.093.27-Aug-2021 5020.50 8002.22 88.12 2.00 427.47 3358.11
   06:21:51.293.27-Aug-2021 5020.50 8001.27 88.12 2.00 427.67 3358.11
   06:21:51.493.27-Aug-2021 5020.50 8000.82 88.12 2.00 427.87 3358.11
   06:21:51.693.27-Aug-2021 5020.50 7999.93 88.12 2.00 428.07 3358.11
   06:21:51.893.27-Aug-2021 5020.50 7999.93 88.12 2.00 428.27 3358.11
   06:21:52.093.27-Aug-2021 5020.50 8002.46 88.12 2.00 428.47 3358.11
   06:21:52.293.27-Aug-2021 5020.50 8001.16 88.12 2.00 428.67 3358.11
   06:21:52.493.27-Aug-2021 5020.50 8001.43 88.12 2.00 428.87 3358.11
   06:21:52.693.27-Aug-2021 5020.50 8005.94 88.12 2.00 429.07 3358.11
   06:21:52.893.27-Aug-2021 5020.50 8005.94 88.12 2.00 429.27 3358.11
   06:21:53.093.27-Aug-2021 5020.50 8000.99 88.12 2.00 429.47 3358.11
   06:21:53.293.27-Aug-2021 5020.50 8001.48 88.12 2.00 429.67 3358.11
   06:21:53.493.27-Aug-2021 5020.50 8000.31 88.12 2.00 429.87 3358.11
   06:21:53.693.27-Aug-2021 5020.50 8001.11 88.12 2.00 430.07 3358.11
   06:21:53.893.27-Aug-2021 5020.50 8001.11 88.12 2.00 430.27 3358.11
   06:21:54.093.27-Aug-2021 5020.50 8001.15 88.12 2.00 430.47 3358.11
   06:21:54.293.27-Aug-2021 5020.50 8000.90 88.12 2.00 430.67 3358.11
   06:21:54.493.27-Aug-2021 5020.50 8000.73 88.12 2.00 430.87 3358.11
