~Version Information
 VERS.                  2.0:   CWLS log ASCII Standard -VERSION 2.0
 WRAP.                   NO:   One line per depth step
~Well Information Block
#MNEM.UNIT     VALUE/NAME     DESCRIPTION
#---------     -----------    ---------------------------
 STRT.S             21:24:04 27-Aug-21: START TIME 21:24:04 27-Aug-21
 STOP.S             21:30:54 27-Aug-21: STOP TIME  21:30:54 27-Aug-21
 STEP.S                   0.00: STEP TIME
 NULL.                 -999.25: NULL VALUE
 DFWT.                        :  DIST FWL TEXT
 DFST.                        :  DIST FSL TEXT
 DMF .             Drill Floor:  DRILL MEAS FROM
 STIM.      20.00.00 17-Aug-21:  START TIME
 DATE.      19.00.00 29-Aug-21:  END TIME
 SPUD.               15-Aug-21:  SPUD DATE
 NREF.                    Grid:  NORTH REFERENCE
 HPTY.       Minimum Curvature:  HOLE POS TYPE
 DMOD.             Drill Model:  DRILL MOD DESC
 SVYD.                  Survey:  SURVEY DESC
 ILTD.               Lithology:  INTERP LTH DESC
 FTOP.          Formation Tops:  FORM TOPS DESC
 RIG .              East Azeri:  RIG NAME
 PDAT.          Mean Sea Level:  PERMANENT DATUM
 FLD .                     ACG:  FIELD NAME
 SON .        AZ-XX-0907180857:  JOB NUMBER
 CTRY.              Azerbaijan:  COUNTRY NAME
 WELL.                    D23x:  WELL NAME
 SRVC.     Turan Drilling and Engineering:  CONTRACTOR
 COMP.     BP Exploration (Caspian Sea) Ltd.:  COMPANY
 UWI .            /AZE00000214:  UNIQUE WELL IDENTIFIER
 API .            /AZE00000214:  API NUMBER
 MDS .        Operator Entered:  MAG DATA SOURCE
 BASE.              Azerbaijan:  LOGGING EQUIPMENT BASE LOCATION
 REGN.                   EESSA:  REGION
 PROV.                    Baku:  PROVINCE
 STAT.                    Baku:  STATE NAME
 MWDS.                    Baku:  MWD SHOP
 DOE .                     N/A:  DOE NUMBER
 DCON.         Sperry Drilling:  DIRECTNL CONTR
 UNIT.                     N/A:  LOGGING EQUIPMENT ID
 WTYP.                Deviated:  WELL TYPE
 CNTY.                        :  COUNTY
 LOC .                        :  LOCATION
 LMF .             Drill Floor:  LOG MEASURED FROM
 TVDS.m                  43.60:  TVDSS CORRECTN
 LATI.deg                40.02:  LATITUDE
 LONG.deg                51.45:  LONGITUDE
 WHNS.m                  -7.04:  WELL HEAD N/S
 WHEW.m                  -0.67:  WELL HEAD E/W
 UTMX.m              538762.90:  UTM X
 UTMY.m             4431871.34:  UTM Y
 DFWL.m                   0.00:  DISTANCE FWL
 DFSL.m                   0.00:  DISTANCE FSL
 SDEP.m                4127.00:  START DEPTH
 TDD .m                5084.50:  TOTAL DEPTH (DRILLER)
 VSDR.deg               140.47:  VERT SEC DIRECT
 GVFD.g                   1.00:  GRAVITY FIELD
 MFLD.nT              50362.00:  MAGNETIC FIELD
 MDIP.deg                59.48:  MAGNETIC DIP
 MDEC.deg                 6.47:  MAGNETIC DECL
 GRDC.deg                 0.31:  GRID CORRECTION
 AZTC.deg                 6.16:  AZM TOTAL CORR
 EPD .m                   0.00:  ELEVATION
 EGL .m                   0.00:  GROUND ELEVATION
 WDMS.m                 151.80:  WD ELEV
 APD .m                  43.60:  DEPTH ABOVE PD
 DEP .m                4092.57:  DEPTH
 AGAP.m                  43.60:  AIR GAP
 VSEW.m                  -0.67:  VERT SEC E/W
 VSNS.m                  -7.04:  VERT SEC N/S
 EKB .m                  43.60:  KB ELEVATION
 EDF .m                  43.60:  DF ELEVATION
 TDL .m                 957.50:  TOTAL DEPTH (LOGGER)
 VSC .                       0:  VS TO CLOSURE
 MAGU.                 1851413:  MAGUTM CHECKSUM
~Parameter Information Block
#MNEM.UNIT       Value        Description
#---------     -----------    ---------------------------
 AV  .mps                 1.50:  Ann Velocity 
 AVMX.mps                 2.00:  Max Ann Veloc 
 AZIF.deg               184.66:  Azm, Final 
 BHAT.        Rotary Steerable:  BHA Type 
 BREV.rev               300.00:  Rev Bit Total 
 BROT.°/30m              -0.50:  Build Rotating 
 BS  .in                  8.50:  Bit Size 
 BSZ .in                  8.50:  Bit Size 
 BTPL.psig              370.00:  Bit Press Loss 
 CABU.                      No:  Customer Abuse 
 CGEO.      Behruz Shahbaliyev:  Customer Geo 
 COMM.                     tºv:  Run Comments 1 
 TCS .hr                140.08:  Time Ciculation Ended 
 CV  .mps                 3.00:  Crit Velocity 
 CVMX.mps                 3.20:  Max Crit Veloc 
 DD1 .            Musa Ahmadov:  Direct Drillr 1 
 DD2 .           Hamid Ahmadov:  Direct Drillr 2 
 DDSV.               Geo-Pilot:  DD Service 
 DEFF.%                  98.40:  % Det Eff 
 DLRX.°/30m               3.40:  Dogleg Rot Max 
 DLSO.°/30m               1.45:  Dogleg Oriented 
 DLSX.°/30m               3.40:  Dogleg Str Max 
 DRET.      18.40.00 29-Aug-21:  Drill End Time 
 DRST.      21.00.00 20-Aug-21:  Drill Start Tim 
 DTIM.hr                 69.47:  Time Drilling 
 EDEP.m                5084.50:  End Depth 
 ENG1.      Artemiy Matviyanov:  Engineer 1 
 ENG2.         Almaz Almadatov:  Engineer 2 
 ETIM.      18.40.00 29-Aug-21:  End Time 
 FLOI.gpm               500.00:  Flow In 
 FLON.gpm               400.00:  Flow In Min 
 FLOS.cptm                0.00:  Fluid Loss 
 FLOX.gpm               500.00:  Flow In Max 
 DFT .        Mineral Oil Base:  Mud Type 
 HFLO.                      No:  High Flow 
 HPRE.                      No:  High Pressure 
 HTEM.                      No:  High Temp 
 HYDO.m                   1.80:  Hydro Offset 
 IFIN.deg                25.62:  Inc, Final 
 IMAX.deg                48.69:  Inc Max 
 IMIN.deg                24.01:  Inc Min 
 IMND.m                4962.57:  Inc Min Depth 
 IMXD.m                4119.01:  Inc Max Depth 
 JARR.                      No:  Jarring 
 LETM.      18.40.00 29-Aug-21:  Log End Time 
 LOST.hr                     0:  Lost Rig Time 
 LSTM.      21.00.00 20-Aug-21:  Log Start Time 
 MDCL.ppm             41500.00:  Mud Chlorides 
 MDES.     Inversion Oil/Synthetic:  Mud Desc 
 DFD .sg                  1.56:  Mud Density 
 MDMN.sg                  1.56:  Dens Mud Min 
 MDMX.sg                  1.56:  Dens Mud Max 
 MOIL.                      70:  Run Mud Oil % 
 MOWR.                   70:30:  Run Mud OWR 
 MSND.                     0.2:  Run Mud Sand % 
 MSOL.                    23.3:  Run Mud Solids% 
 DFV .spqt               78.00:  Mud Viscosity 
 MWOD.in                  6.75:  MWD Tool OD 
 MWSI.                      No:  Serv Intrp, MWD 
 OTIM.hr                218.30:  Time Operating 
 PCON.           Look Like New:  Pad Condition 
 PMAX.psia            11015.30:  Press Op, Max 
 PV  .cP                 38.00:  Mud PV 
 RUN .                     300:  Run Number 
 ROPA.m/hr               15.00:  ROP Avg 
 ROPN.m/hr                9.00:  ROP Min 
 ROPX.m/hr               17.00:  ROP Max 
 RPMA.rpm               120.00:  RPM Surface Avg 
 RPMN.rpm                90.00:  RPM Surface Min 
 RPMX.rpm               140.00:  RPM Surface Max 
 RRUN.                     300:  Rig Run Number 
 RTIM.hr                 31.53:  Time Reaming 
 SAZI.deg               331.64:  Azm, Start 
 SDEP.m                4127.00:  Start Depth 
 SIDD.                      No:  Serv Intrp, DD 
 SINC.deg                48.43:  Inc, Start 
 SPPA.psig             5830.00:  SPP Avg 
 SPPN.psig             5600.00:  SPP Min 
 SPPX.psig             5900.00:  SPP Max 
 STIM.      21.00.00 20-Aug-21:  Start Time 
 SVCS.                 DD, MWD:  Services 
 SVER.                    9.20:  Sperry Version 
 TDAT.m                 957.50:  Tot Depth Attmp 
 TDDF.                      No:  Trip for DD 
 TDLG.m                 957.50:  Tot Depth Loggd 
 TFF .                      No:  Trip for Fail 
 TQAA.f-kp               15.00:  Torque Abs Avg 
 TQAN.f-kp               12.00:  Torque Abs Min 
 TQAX.f-kp               19.00:  Torque Abs Max 
 TRRT.°/30m              -3.40:  Turn Rotating 
 MRT .                  EWR-M5:  Maximum Recorded Temperature 
 TTMX.degC              100.00:  Max Tool Temp 
 VS01.                90639251:  Virtual Str1 SN 
 VS02.                90634715:  Virtual Str2 SN 
 VS03.                90652479:  Virtual Str3 SN 
 VS04.                90642262:  Virtual Str4 SN 
 WBMN.klb                 0.00:  WOB Min 
 WITN.           Murad Guliyev:  Customer Rep 
 WITN.          Yashar Gaziyev:  Customer Rep 2 
 WOBA.klb                 9.00:  WOB Avg 
 WOBX.klb                12.00:  WOB Max 
 YP  .lhf2               30.00:  Yield Point 
~Curve Information Block
#MNEM.UNIT                 API CODE     Curve Description
#---------               -----------    ---------------------------
 TIME.HHMMSS            00 000 000 000:  GT Time & Date
 GTDEPTH.m              00 000 000 000:  GT Depth
 GTPQH.psia             00 000 000 000:  GT HR Quartz Pressure
 GTTQ.degC              00 000 000 000:  GT Quartz Temperature
 GTTN.NONE              00 000 000 000:  GT Test Number
 GTET.sec               00 000 000 000:  GT Elapsed Test Time
 GTTVD.m                00 000 000 000:  GT True Vertical Depth
#Other Information
#
#WARRANTY: Halliburton will use its best efforts to furnish customers with 
#accurate information and interpretations that are part of, and incident to, the services 
#provided.  However, Halliburton cannot and does not warrant the accuracy 
#or correctness of such information and interpretations.  Under no circumstances should any 
#such information or interpretation be relied upon as the sole basis for any drilling, 
#completion, production, or financial decision or any procedure involving any risk to the 
#safety of any drilling venture, drilling rig or its crew or any other third party.  The 
#Customer has full responsibility for all drilling, completion and production operation.  
#Halliburton makes no representations or warranties, either expressed or 
#implied, including, but not limited to, the implied warranties of merchantability or fitness 
#for a particular purpose, with respect to the services rendered.  In no event will 
#Halliburton be liable for failure to obtain any particular results or for 
#any damages, including, but not limited to, indirect, special or consequential damages, 
#resulting from the use of any information or interpretation provided by Halliburton.
#
~A           TIME           GTDEPTH  GTPQH  GTTQ  GTTN   GTET   GTTVD  
# ...
   21:26:42.468.27-Aug-2021 4641.00 1466.43 82.39 23.00 158.22 3014.10
   21:26:42.668.27-Aug-2021 4641.00 1466.77 82.39 23.00 158.42 3014.10
   21:26:42.868.27-Aug-2021 4641.00 1466.90 82.39 23.00 158.62 3014.10
   21:26:43.068.27-Aug-2021 4641.00 1467.06 82.39 23.00 158.82 3014.10
   21:26:43.268.27-Aug-2021 4641.00 1467.22 82.39 23.00 159.02 3014.10
   21:26:43.468.27-Aug-2021 4641.00 1467.22 82.39 23.00 159.22 3014.10
   21:26:43.668.27-Aug-2021 4641.00 1467.51 82.39 23.00 159.42 3014.10
   21:26:43.868.27-Aug-2021 4641.00 1467.67 82.39 23.00 159.62 3014.10
   21:26:44.068.27-Aug-2021 4641.00 1467.86 82.40 23.00 159.82 3014.10
   21:26:44.268.27-Aug-2021 4641.00 1468.06 82.40 23.00 160.02 3014.10
   21:26:44.468.27-Aug-2021 4641.00 1468.06 82.40 23.00 160.22 3014.10
   21:26:44.668.27-Aug-2021 4641.00 1468.44 82.40 23.00 160.42 3014.10
   21:26:44.868.27-Aug-2021 4641.00 1455.82 82.40 23.00 160.62 3014.10
   21:26:45.068.27-Aug-2021 4641.00 1369.44 82.40 23.00 160.82 3014.10
   21:26:45.268.27-Aug-2021 4641.00 1252.11 82.40 23.00 161.02 3014.10
   21:26:45.468.27-Aug-2021 4641.00 1252.11 82.40 23.00 161.22 3014.10
   21:26:45.668.27-Aug-2021 4641.00 1211.74 82.40 23.00 161.42 3014.10
   21:26:45.868.27-Aug-2021 4641.00 1205.65 82.40 23.00 161.62 3014.10
   21:26:46.068.27-Aug-2021 4641.00 1204.00 82.40 23.00 161.82 3014.10
   21:26:46.268.27-Aug-2021 4641.00 1203.53 82.40 23.00 162.02 3014.10
   21:26:46.469.27-Aug-2021 4641.00 1203.53 82.40 23.00 162.22 3014.10
   21:26:46.669.27-Aug-2021 4641.00 1203.00 82.40 23.00 162.42 3014.10
   21:26:46.869.27-Aug-2021 4641.00 1201.11 82.40 23.00 162.62 3014.10
   21:26:47.069.27-Aug-2021 4641.00 1200.77 82.40 23.00 162.82 3014.10
   21:26:47.269.27-Aug-2021 4641.00 1201.05 82.40 23.00 163.02 3014.10
   21:26:47.469.27-Aug-2021 4641.00 1201.05 82.40 23.00 163.22 3014.10
   21:26:47.669.27-Aug-2021 4641.00 1200.69 82.40 23.00 163.42 3014.10
   21:26:47.869.27-Aug-2021 4641.00 1199.94 82.40 23.00 163.62 3014.10
   21:26:48.069.27-Aug-2021 4641.00 1199.97 82.40 23.00 163.82 3014.10
   21:26:48.269.27-Aug-2021 4641.00 1200.17 82.39 23.00 164.02 3014.10
   21:26:48.469.27-Aug-2021 4641.00 1200.17 82.39 23.00 164.22 3014.10
   21:26:48.669.27-Aug-2021 4641.00 1200.63 82.39 23.00 164.42 3014.10
   21:26:48.869.27-Aug-2021 4641.00 1200.88 82.39 23.00 164.62 3014.10
   21:26:49.069.27-Aug-2021 4641.00 1199.88 82.39 23.00 164.82 3014.10
   21:26:49.269.27-Aug-2021 4641.00 1198.78 82.39 23.00 165.02 3014.10
   21:26:49.469.27-Aug-2021 4641.00 1198.78 82.39 23.00 165.22 3014.10
   21:26:49.669.27-Aug-2021 4641.00 1199.35 82.39 23.00 165.42 3014.10
   21:26:49.869.27-Aug-2021 4641.00 1199.56 82.39 23.00 165.62 3014.10
   21:26:50.069.27-Aug-2021 4641.00 1199.79 82.39 23.00 165.82 3014.10
   21:26:50.269.27-Aug-2021 4641.00 1199.91 82.39 23.00 166.02 3014.10
   21:26:50.469.27-Aug-2021 4641.00 1199.91 82.39 23.00 166.22 3014.10
   21:26:50.669.27-Aug-2021 4641.00 1200.08 82.39 23.00 166.42 3014.10
   21:26:50.869.27-Aug-2021 4641.00 1200.25 82.39 23.00 166.62 3014.10
   21:26:51.069.27-Aug-2021 4641.00 1200.55 82.39 23.00 166.82 3014.10
   21:26:51.269.27-Aug-2021 4641.00 1200.71 82.39 23.00 167.02 3014.10
   21:26:51.469.27-Aug-2021 4641.00 1200.71 82.39 23.00 167.22 3014.10
   21:26:51.669.27-Aug-2021 4641.00 1201.07 82.39 23.00 167.42 3014.10
   21:26:51.869.27-Aug-2021 4641.00 1201.27 82.39 23.00 167.62 3014.10
   21:26:52.069.27-Aug-2021 4641.00 1200.74 82.39 23.00 167.82 3014.10
   21:26:52.269.27-Aug-2021 4641.00 1199.93 82.39 23.00 168.02 3014.10
   21:26:52.469.27-Aug-2021 4641.00 1199.93 82.39 23.00 168.22 3014.10
   21:26:52.669.27-Aug-2021 4641.00 1200.01 82.39 23.00 168.42 3014.10
   21:26:52.869.27-Aug-2021 4641.00 1200.33 82.39 23.00 168.62 3014.10
   21:26:53.069.27-Aug-2021 4641.00 1200.68 82.39 23.00 168.82 3014.10
   21:26:53.269.27-Aug-2021 4641.00 1200.96 82.39 23.00 169.02 3014.10
   21:26:53.469.27-Aug-2021 4641.00 1200.96 82.39 23.00 169.22 3014.10
   21:26:53.669.27-Aug-2021 4641.00 1201.59 82.39 23.00 169.42 3014.10
   21:26:53.869.27-Aug-2021 4641.00 1201.93 82.39 23.00 169.62 3014.10
   21:26:54.069.27-Aug-2021 4641.00 1202.24 82.39 23.00 169.82 3014.10
   21:26:54.269.27-Aug-2021 4641.00 1202.40 82.39 23.00 170.02 3014.10
   21:26:54.469.27-Aug-2021 4641.00 1202.40 82.39 23.00 170.22 3014.10
   21:26:54.669.27-Aug-2021 4641.00 1202.62 82.39 23.00 170.42 3014.10
   21:26:54.869.27-Aug-2021 4641.00 1202.85 82.39 23.00 170.62 3014.10
   21:26:55.069.27-Aug-2021 4641.00 1203.10 82.39 23.00 170.82 3014.10
   21:26:55.269.27-Aug-2021 4641.00 1202.72 82.39 23.00 171.02 3014.10
   21:26:55.469.27-Aug-2021 4641.00 1202.72 82.39 23.00 171.22 3014.10
   21:26:55.669.27-Aug-2021 4641.00 1208.98 82.39 23.00 171.42 3014.10
   21:26:55.869.27-Aug-2021 4641.00 1209.24 82.39 23.00 171.62 3014.10
   21:26:56.069.27-Aug-2021 4641.00 1209.53 82.39 23.00 171.82 3014.10
   21:26:56.270.27-Aug-2021 4641.00 1209.90 82.39 23.00 172.02 3014.10
   21:26:56.470.27-Aug-2021 4641.00 1209.90 82.39 23.00 172.22 3014.10
   21:26:56.670.27-Aug-2021 4641.00 1209.83 82.39 23.00 172.42 3014.10
   21:26:56.870.27-Aug-2021 4641.00 1210.87 82.39 23.00 172.62 3014.10
   21:26:57.070.27-Aug-2021 4641.00 1210.92 82.39 23.00 172.82 3014.10
   21:26:57.270.27-Aug-2021 4641.00 1211.15 82.39 23.00 173.02 3014.10
   21:26:57.470.27-Aug-2021 4641.00 1211.15 82.39 23.00 173.22 3014.10
   21:26:57.670.27-Aug-2021 4641.00 1210.72 82.39 23.00 173.42 3014.10
   21:26:57.870.27-Aug-2021 4641.00 1211.36 82.39 23.00 173.62 3014.10
   21:26:58.070.27-Aug-2021 4641.00 1211.60 82.39 23.00 173.82 3014.10
   21:26:58.270.27-Aug-2021 4641.00 1211.85 82.39 23.00 174.02 3014.10
   21:26:58.470.27-Aug-2021 4641.00 1211.85 82.39 23.00 174.22 3014.10
   21:26:58.670.27-Aug-2021 4641.00 1211.69 82.39 23.00 174.42 3014.10
   21:26:58.870.27-Aug-2021 4641.00 1212.28 82.39 23.00 174.62 3014.10
   21:26:59.070.27-Aug-2021 4641.00 1212.49 82.39 23.00 174.82 3014.10
   21:26:59.270.27-Aug-2021 4641.00 1212.70 82.39 23.00 175.02 3014.10
   21:26:59.470.27-Aug-2021 4641.00 1212.70 82.39 23.00 175.22 3014.10
   21:26:59.670.27-Aug-2021 4641.00 1213.19 82.39 23.00 175.42 3014.10
   21:26:59.870.27-Aug-2021 4641.00 1213.39 82.39 23.00 175.62 3014.10
   21:27:00.070.27-Aug-2021 4641.00 1213.62 82.39 23.00 175.82 3014.10
   21:27:00.270.27-Aug-2021 4641.00 1213.86 82.39 23.00 176.02 3014.10
   21:27:00.470.27-Aug-2021 4641.00 1213.86 82.39 23.00 176.22 3014.10
   21:27:00.670.27-Aug-2021 4641.00 1214.31 82.39 23.00 176.42 3014.10
   21:27:00.870.27-Aug-2021 4641.00 1214.53 82.39 23.00 176.62 3014.10
   21:27:01.070.27-Aug-2021 4641.00 1214.75 82.39 23.00 176.82 3014.10
   21:27:01.270.27-Aug-2021 4641.00 1214.99 82.39 23.00 177.02 3014.10
   21:27:01.470.27-Aug-2021 4641.00 1214.99 82.39 23.00 177.22 3014.10
   21:27:01.670.27-Aug-2021 4641.00 1214.85 82.39 23.00 177.42 3014.10
   21:27:01.870.27-Aug-2021 4641.00 1215.90 82.39 23.00 177.62 3014.10
   21:27:02.070.27-Aug-2021 4641.00 1215.92 82.40 23.00 177.82 3014.10
   21:27:02.270.27-Aug-2021 4641.00 1216.08 82.39 23.00 178.02 3014.10
   21:27:02.470.27-Aug-2021 4641.00 1216.08 82.39 23.00 178.22 3014.10
   21:27:02.670.27-Aug-2021 4641.00 1216.49 82.40 23.00 178.42 3014.10
   21:27:02.870.27-Aug-2021 4641.00 1216.65 82.40 23.00 178.62 3014.10
   21:27:03.070.27-Aug-2021 4641.00 1216.84 82.40 23.00 178.82 3014.10
   21:27:03.270.27-Aug-2021 4641.00 1217.02 82.40 23.00 179.02 3014.10
   21:27:03.470.27-Aug-2021 4641.00 1217.02 82.40 23.00 179.22 3014.10
   21:27:03.670.27-Aug-2021 4641.00 1217.39 82.40 23.00 179.42 3014.10
   21:27:03.870.27-Aug-2021 4641.00 1217.56 82.40 23.00 179.62 3014.10
   21:27:04.070.27-Aug-2021 4641.00 1217.75 82.40 23.00 179.82 3014.10
   21:27:04.270.27-Aug-2021 4641.00 1217.96 82.40 23.00 180.02 3014.10
   21:27:04.470.27-Aug-2021 4641.00 1217.96 82.40 23.00 180.22 3014.10
   21:27:04.670.27-Aug-2021 4641.00 1218.37 82.40 23.00 180.42 3014.10
   21:27:04.870.27-Aug-2021 4641.00 1217.68 82.40 23.00 180.62 3014.10
