~Version Information
 VERS.                  2.0:   CWLS log ASCII Standard -VERSION 2.0
 WRAP.                   NO:   One line per depth step
~Well Information Block
#MNEM.UNIT     VALUE/NAME     DESCRIPTION
#---------     -----------    ---------------------------
 STRT.S             08:51:30 27-Aug-21: START TIME 08:51:30 27-Aug-21
 STOP.S             08:58:20 27-Aug-21: STOP TIME  08:58:20 27-Aug-21
 STEP.S                   0.00: STEP TIME
 NULL.                 -999.25: NULL VALUE
 DFWT.                        :  DIST FWL TEXT
 DFST.                        :  DIST FSL TEXT
 DMF .             Drill Floor:  DRILL MEAS FROM
 STIM.      20.00.00 17-Aug-21:  START TIME
 DATE.      19.00.00 29-Aug-21:  END TIME
 SPUD.               15-Aug-21:  SPUD DATE
 NREF.                    Grid:  NORTH REFERENCE
 HPTY.       Minimum Curvature:  HOLE POS TYPE
 DMOD.             Drill Model:  DRILL MOD DESC
 SVYD.                  Survey:  SURVEY DESC
 ILTD.               Lithology:  INTERP LTH DESC
 FTOP.          Formation Tops:  FORM TOPS DESC
 RIG .              East Azeri:  RIG NAME
 PDAT.          Mean Sea Level:  PERMANENT DATUM
 FLD .                     ACG:  FIELD NAME
 SON .        AZ-XX-0907180857:  JOB NUMBER
 CTRY.              Azerbaijan:  COUNTRY NAME
 WELL.                    D23x:  WELL NAME
 SRVC.     Turan Drilling and Engineering:  CONTRACTOR
 COMP.     BP Exploration (Caspian Sea) Ltd.:  COMPANY
 UWI .            /AZE00000214:  UNIQUE WELL IDENTIFIER
 API .            /AZE00000214:  API NUMBER
 MDS .        Operator Entered:  MAG DATA SOURCE
 BASE.              Azerbaijan:  LOGGING EQUIPMENT BASE LOCATION
 REGN.                   EESSA:  REGION
 PROV.                    Baku:  PROVINCE
 STAT.                    Baku:  STATE NAME
 MWDS.                    Baku:  MWD SHOP
 DOE .                     N/A:  DOE NUMBER
 DCON.         Sperry Drilling:  DIRECTNL CONTR
 UNIT.                     N/A:  LOGGING EQUIPMENT ID
 WTYP.                Deviated:  WELL TYPE
 CNTY.                        :  COUNTY
 LOC .                        :  LOCATION
 LMF .             Drill Floor:  LOG MEASURED FROM
 TVDS.m                  43.60:  TVDSS CORRECTN
 LATI.deg                40.02:  LATITUDE
 LONG.deg                51.45:  LONGITUDE
 WHNS.m                  -7.04:  WELL HEAD N/S
 WHEW.m                  -0.67:  WELL HEAD E/W
 UTMX.m              538762.90:  UTM X
 UTMY.m             4431871.34:  UTM Y
 DFWL.m                   0.00:  DISTANCE FWL
 DFSL.m                   0.00:  DISTANCE FSL
 SDEP.m                4127.00:  START DEPTH
 TDD .m                5084.50:  TOTAL DEPTH (DRILLER)
 VSDR.deg               140.47:  VERT SEC DIRECT
 GVFD.g                   1.00:  GRAVITY FIELD
 MFLD.nT              50362.00:  MAGNETIC FIELD
 MDIP.deg                59.48:  MAGNETIC DIP
 MDEC.deg                 6.47:  MAGNETIC DECL
 GRDC.deg                 0.31:  GRID CORRECTION
 AZTC.deg                 6.16:  AZM TOTAL CORR
 EPD .m                   0.00:  ELEVATION
 EGL .m                   0.00:  GROUND ELEVATION
 WDMS.m                 151.80:  WD ELEV
 APD .m                  43.60:  DEPTH ABOVE PD
 DEP .m                4092.57:  DEPTH
 AGAP.m                  43.60:  AIR GAP
 VSEW.m                  -0.67:  VERT SEC E/W
 VSNS.m                  -7.04:  VERT SEC N/S
 EKB .m                  43.60:  KB ELEVATION
 EDF .m                  43.60:  DF ELEVATION
 TDL .m                 957.50:  TOTAL DEPTH (LOGGER)
 VSC .                       0:  VS TO CLOSURE
 MAGU.                 1851413:  MAGUTM CHECKSUM
~Parameter Information Block
#MNEM.UNIT       Value        Description
#---------     -----------    ---------------------------
 AV  .mps                 1.50:  Ann Velocity 
 AVMX.mps                 2.00:  Max Ann Veloc 
 AZIF.deg               184.66:  Azm, Final 
 BHAT.        Rotary Steerable:  BHA Type 
 BREV.rev               300.00:  Rev Bit Total 
 BROT.°/30m              -0.50:  Build Rotating 
 BS  .in                  8.50:  Bit Size 
 BSZ .in                  8.50:  Bit Size 
 BTPL.psig              370.00:  Bit Press Loss 
 CABU.                      No:  Customer Abuse 
 CGEO.      Behruz Shahbaliyev:  Customer Geo 
 COMM.                     <w:  Run Comments 1 
 TCS .hr                140.08:  Time Ciculation Ended 
 CV  .mps                 3.00:  Crit Velocity 
 CVMX.mps                 3.20:  Max Crit Veloc 
 DD1 .            Musa Ahmadov:  Direct Drillr 1 
 DD2 .           Hamid Ahmadov:  Direct Drillr 2 
 DDSV.               Geo-Pilot:  DD Service 
 DEFF.%                  98.40:  % Det Eff 
 DLRX.°/30m               3.40:  Dogleg Rot Max 
 DLSO.°/30m               1.45:  Dogleg Oriented 
 DLSX.°/30m               3.40:  Dogleg Str Max 
 DRET.      18.40.00 29-Aug-21:  Drill End Time 
 DRST.      21.00.00 20-Aug-21:  Drill Start Tim 
 DTIM.hr                 69.47:  Time Drilling 
 EDEP.m                5084.50:  End Depth 
 ENG1.      Artemiy Matviyanov:  Engineer 1 
 ENG2.         Almaz Almadatov:  Engineer 2 
 ETIM.      18.40.00 29-Aug-21:  End Time 
 FLOI.gpm               500.00:  Flow In 
 FLON.gpm               400.00:  Flow In Min 
 FLOS.cptm                0.00:  Fluid Loss 
 FLOX.gpm               500.00:  Flow In Max 
 DFT .        Mineral Oil Base:  Mud Type 
 HFLO.                      No:  High Flow 
 HPRE.                      No:  High Pressure 
 HTEM.                      No:  High Temp 
 HYDO.m                   1.80:  Hydro Offset 
 IFIN.deg                25.62:  Inc, Final 
 IMAX.deg                48.69:  Inc Max 
 IMIN.deg                24.01:  Inc Min 
 IMND.m                4962.57:  Inc Min Depth 
 IMXD.m                4119.01:  Inc Max Depth 
 JARR.                      No:  Jarring 
 LETM.      18.40.00 29-Aug-21:  Log End Time 
 LOST.hr                     0:  Lost Rig Time 
 LSTM.      21.00.00 20-Aug-21:  Log Start Time 
 MDCL.ppm             41500.00:  Mud Chlorides 
 MDES.     Inversion Oil/Synthetic:  Mud Desc 
 DFD .sg                  1.56:  Mud Density 
 MDMN.sg                  1.56:  Dens Mud Min 
 MDMX.sg                  1.56:  Dens Mud Max 
 MOIL.                      70:  Run Mud Oil % 
 MOWR.                   70:30:  Run Mud OWR 
 MSND.                     0.2:  Run Mud Sand % 
 MSOL.                    23.3:  Run Mud Solids% 
 DFV .spqt               78.00:  Mud Viscosity 
 MWOD.in                  6.75:  MWD Tool OD 
 MWSI.                      No:  Serv Intrp, MWD 
 OTIM.hr                218.30:  Time Operating 
 PCON.           Look Like New:  Pad Condition 
 PMAX.psia            11015.30:  Press Op, Max 
 PV  .cP                 38.00:  Mud PV 
 RUN .                     300:  Run Number 
 ROPA.m/hr               15.00:  ROP Avg 
 ROPN.m/hr                9.00:  ROP Min 
 ROPX.m/hr               17.00:  ROP Max 
 RPMA.rpm               120.00:  RPM Surface Avg 
 RPMN.rpm                90.00:  RPM Surface Min 
 RPMX.rpm               140.00:  RPM Surface Max 
 RRUN.                     300:  Rig Run Number 
 RTIM.hr                 31.53:  Time Reaming 
 SAZI.deg               331.64:  Azm, Start 
 SDEP.m                4127.00:  Start Depth 
 SIDD.                      No:  Serv Intrp, DD 
 SINC.deg                48.43:  Inc, Start 
 SPPA.psig             5830.00:  SPP Avg 
 SPPN.psig             5600.00:  SPP Min 
 SPPX.psig             5900.00:  SPP Max 
 STIM.      21.00.00 20-Aug-21:  Start Time 
 SVCS.                 DD, MWD:  Services 
 SVER.                    9.20:  Sperry Version 
 TDAT.m                 957.50:  Tot Depth Attmp 
 TDDF.                      No:  Trip for DD 
 TDLG.m                 957.50:  Tot Depth Loggd 
 TFF .                      No:  Trip for Fail 
 TQAA.f-kp               15.00:  Torque Abs Avg 
 TQAN.f-kp               12.00:  Torque Abs Min 
 TQAX.f-kp               19.00:  Torque Abs Max 
 TRRT.°/30m              -3.40:  Turn Rotating 
 MRT .                  EWR-M5:  Maximum Recorded Temperature 
 TTMX.degC              100.00:  Max Tool Temp 
 VS01.                90639251:  Virtual Str1 SN 
 VS02.                90634715:  Virtual Str2 SN 
 VS03.                90652479:  Virtual Str3 SN 
 VS04.                90642262:  Virtual Str4 SN 
 WBMN.klb                 0.00:  WOB Min 
 WITN.           Murad Guliyev:  Customer Rep 
 WITN.          Yashar Gaziyev:  Customer Rep 2 
 WOBA.klb                 9.00:  WOB Avg 
 WOBX.klb                12.00:  WOB Max 
 YP  .lhf2               30.00:  Yield Point 
~Curve Information Block
#MNEM.UNIT                 API CODE     Curve Description
#---------               -----------    ---------------------------
 TIME.HHMMSS            00 000 000 000:  GT Time & Date
 GTDEPTH.m              00 000 000 000:  GT Depth
 GTPQH.psia             00 000 000 000:  GT HR Quartz Pressure
 GTTQ.degC              00 000 000 000:  GT Quartz Temperature
 GTTN.NONE              00 000 000 000:  GT Test Number
 GTET.sec               00 000 000 000:  GT Elapsed Test Time
 GTTVD.m                00 000 000 000:  GT True Vertical Depth
#Other Information
#
#WARRANTY: Halliburton will use its best efforts to furnish customers with 
#accurate information and interpretations that are part of, and incident to, the services 
#provided.  However, Halliburton cannot and does not warrant the accuracy 
#or correctness of such information and interpretations.  Under no circumstances should any 
#such information or interpretation be relied upon as the sole basis for any drilling, 
#completion, production, or financial decision or any procedure involving any risk to the 
#safety of any drilling venture, drilling rig or its crew or any other third party.  The 
#Customer has full responsibility for all drilling, completion and production operation.  
#Halliburton makes no representations or warranties, either expressed or 
#implied, including, but not limited to, the implied warranties of merchantability or fitness 
#for a particular purpose, with respect to the services rendered.  In no event will 
#Halliburton be liable for failure to obtain any particular results or for 
#any damages, including, but not limited to, indirect, special or consequential damages, 
#resulting from the use of any information or interpretation provided by Halliburton.
#
~A           TIME           GTDEPTH  GTPQH  GTTQ  GTTN  GTET   GTTVD  
# ...
   08:57:15.567.27-Aug-2021 4965.00 1829.32 86.59 6.00 345.14 3307.85
   08:57:15.767.27-Aug-2021 4965.00 1829.32 86.59 6.00 345.34 3307.85
   08:57:15.967.27-Aug-2021 4965.00 1829.32 86.59 6.00 345.54 3307.85
   08:57:16.167.27-Aug-2021 4965.00 1829.38 86.59 6.00 345.74 3307.85
   08:57:16.367.27-Aug-2021 4965.00 1829.46 86.59 6.00 345.94 3307.85
   08:57:16.568.27-Aug-2021 4965.00 1829.48 86.59 6.00 346.14 3307.85
   08:57:16.768.27-Aug-2021 4965.00 1829.48 86.59 6.00 346.34 3307.85
   08:57:16.968.27-Aug-2021 4965.00 1829.55 86.59 6.00 346.54 3307.85
   08:57:17.168.27-Aug-2021 4965.00 1829.58 86.59 6.00 346.74 3307.85
   08:57:17.368.27-Aug-2021 4965.00 1829.63 86.59 6.00 346.94 3307.85
   08:57:17.568.27-Aug-2021 4965.00 1829.69 86.59 6.00 347.14 3307.85
   08:57:17.768.27-Aug-2021 4965.00 1829.69 86.59 6.00 347.34 3307.85
   08:57:17.968.27-Aug-2021 4965.00 1829.77 86.59 6.00 347.54 3307.85
   08:57:18.168.27-Aug-2021 4965.00 1829.82 86.59 6.00 347.74 3307.85
   08:57:18.368.27-Aug-2021 4965.00 1829.72 86.59 6.00 347.94 3307.85
   08:57:18.568.27-Aug-2021 4965.00 1829.86 86.59 6.00 348.14 3307.85
   08:57:18.768.27-Aug-2021 4965.00 1829.86 86.59 6.00 348.34 3307.85
   08:57:18.969.27-Aug-2021 4965.00 1830.31 86.59 6.00 348.54 3307.85
   08:57:19.169.27-Aug-2021 4965.00 1830.33 86.59 6.00 348.74 3307.85
   08:57:19.369.27-Aug-2021 4965.00 1830.38 86.59 6.00 348.94 3307.85
   08:57:19.569.27-Aug-2021 4965.00 1830.41 86.59 6.00 349.15 3307.85
   08:57:19.769.27-Aug-2021 4965.00 1830.41 86.59 6.00 349.35 3307.85
   08:57:19.969.27-Aug-2021 4965.00 1830.46 86.59 6.00 349.55 3307.85
   08:57:20.169.27-Aug-2021 4965.00 1830.50 86.59 6.00 349.75 3307.85
   08:57:20.369.27-Aug-2021 4965.00 1830.54 86.59 6.00 349.95 3307.85
   08:57:20.569.27-Aug-2021 4965.00 1830.60 86.59 6.00 350.15 3307.85
   08:57:20.769.27-Aug-2021 4965.00 1830.60 86.59 6.00 350.35 3307.85
   08:57:20.969.27-Aug-2021 4965.00 1830.70 86.59 6.00 350.55 3307.85
   08:57:21.169.27-Aug-2021 4965.00 1830.75 86.59 6.00 350.75 3307.85
   08:57:21.370.27-Aug-2021 4965.00 1830.80 86.59 6.00 350.95 3307.85
   08:57:21.570.27-Aug-2021 4965.00 1830.85 86.59 6.00 351.15 3307.85
   08:57:21.770.27-Aug-2021 4965.00 1830.85 86.59 6.00 351.35 3307.85
   08:57:21.970.27-Aug-2021 4965.00 1831.33 86.59 6.00 351.55 3307.85
   08:57:22.170.27-Aug-2021 4965.00 1831.37 86.59 6.00 351.75 3307.85
   08:57:22.370.27-Aug-2021 4965.00 1831.36 86.59 6.00 351.95 3307.85
   08:57:22.570.27-Aug-2021 4965.00 1831.23 86.59 6.00 352.15 3307.85
   08:57:22.770.27-Aug-2021 4965.00 1831.23 86.59 6.00 352.35 3307.85
   08:57:22.970.27-Aug-2021 4965.00 1831.70 86.59 6.00 352.55 3307.85
   08:57:23.170.27-Aug-2021 4965.00 1831.70 86.59 6.00 352.75 3307.85
   08:57:23.370.27-Aug-2021 4965.00 1831.30 86.59 6.00 352.95 3307.85
   08:57:23.570.27-Aug-2021 4965.00 1831.74 86.59 6.00 353.15 3307.85
   08:57:23.771.27-Aug-2021 4965.00 1831.74 86.59 6.00 353.35 3307.85
   08:57:23.971.27-Aug-2021 4965.00 1831.91 86.59 6.00 353.55 3307.85
   08:57:24.171.27-Aug-2021 4965.00 1831.95 86.59 6.00 353.75 3307.85
   08:57:24.371.27-Aug-2021 4965.00 1831.62 86.59 6.00 353.95 3307.85
   08:57:24.571.27-Aug-2021 4965.00 1832.05 86.59 6.00 354.15 3307.85
   08:57:24.771.27-Aug-2021 4965.00 1832.05 86.59 6.00 354.35 3307.85
   08:57:24.971.27-Aug-2021 4965.00 1832.21 86.59 6.00 354.55 3307.85
   08:57:25.171.27-Aug-2021 4965.00 1832.25 86.59 6.00 354.75 3307.85
   08:57:25.371.27-Aug-2021 4965.00 1832.30 86.59 6.00 354.95 3307.85
   08:57:25.571.27-Aug-2021 4965.00 1832.33 86.59 6.00 355.15 3307.85
   08:57:25.771.27-Aug-2021 4965.00 1832.33 86.59 6.00 355.35 3307.85
   08:57:25.971.27-Aug-2021 4965.00 1832.39 86.59 6.00 355.55 3307.85
   08:57:26.172.27-Aug-2021 4965.00 1832.41 86.59 6.00 355.75 3307.85
   08:57:26.372.27-Aug-2021 4965.00 1832.46 86.59 6.00 355.95 3307.85
   08:57:26.572.27-Aug-2021 4965.00 1832.51 86.59 6.00 356.15 3307.85
   08:57:26.772.27-Aug-2021 4965.00 1832.51 86.59 6.00 356.35 3307.85
   08:57:26.972.27-Aug-2021 4965.00 1832.62 86.59 6.00 356.55 3307.85
   08:57:27.172.27-Aug-2021 4965.00 1832.65 86.59 6.00 356.75 3307.85
   08:57:27.372.27-Aug-2021 4965.00 1832.70 86.59 6.00 356.95 3307.85
   08:57:27.572.27-Aug-2021 4965.00 1832.47 86.59 6.00 357.15 3307.85
   08:57:27.772.27-Aug-2021 4965.00 1832.47 86.59 6.00 357.35 3307.85
   08:57:27.972.27-Aug-2021 4965.00 1833.17 86.59 6.00 357.55 3307.85
   08:57:28.172.27-Aug-2021 4965.00 1833.14 86.59 6.00 357.75 3307.85
   08:57:28.372.27-Aug-2021 4965.00 1833.18 86.59 6.00 357.95 3307.85
   08:57:28.573.27-Aug-2021 4965.00 1833.21 86.59 6.00 358.15 3307.85
   08:57:28.773.27-Aug-2021 4965.00 1833.21 86.59 6.00 358.35 3307.85
   08:57:28.973.27-Aug-2021 4965.00 1833.25 86.59 6.00 358.55 3307.85
   08:57:29.173.27-Aug-2021 4965.00 1833.29 86.59 6.00 358.75 3307.85
   08:57:29.373.27-Aug-2021 4965.00 1833.32 86.59 6.00 358.95 3307.85
   08:57:29.573.27-Aug-2021 4965.00 1833.37 86.59 6.00 359.15 3307.85
   08:57:29.773.27-Aug-2021 4965.00 1833.37 86.59 6.00 359.35 3307.85
   08:57:29.973.27-Aug-2021 4965.00 1833.47 86.59 6.00 359.55 3307.85
   08:57:30.173.27-Aug-2021 4965.00 1833.52 86.59 6.00 359.75 3307.85
   08:57:30.373.27-Aug-2021 4965.00 1833.58 86.59 6.00 359.95 3307.85
   08:57:30.573.27-Aug-2021 4965.00 1833.62 86.59 6.00 360.15 3307.85
   08:57:30.773.27-Aug-2021 4965.00 1833.62 86.59 6.00 360.35 3307.85
   08:57:30.974.27-Aug-2021 4965.00 1833.93 86.59 6.00 360.55 3307.85
   08:57:31.174.27-Aug-2021 4965.00 1834.15 86.59 6.00 360.75 3307.85
   08:57:31.374.27-Aug-2021 4965.00 1834.09 86.59 6.00 360.95 3307.85
   08:57:31.574.27-Aug-2021 4965.00 1834.12 86.59 6.00 361.15 3307.85
   08:57:31.774.27-Aug-2021 4965.00 1834.12 86.59 6.00 361.35 3307.85
   08:57:31.974.27-Aug-2021 4965.00 1834.31 86.59 6.00 361.55 3307.85
   08:57:32.174.27-Aug-2021 4965.00 1834.43 86.59 6.00 361.75 3307.85
   08:57:32.374.27-Aug-2021 4965.00 1834.40 86.59 6.00 361.95 3307.85
   08:57:32.574.27-Aug-2021 4965.00 1834.01 86.59 6.00 362.15 3307.85
   08:57:32.774.27-Aug-2021 4965.00 1834.01 86.59 6.00 362.35 3307.85
   08:57:32.974.27-Aug-2021 4965.00 1834.70 86.59 6.00 362.55 3307.85
   08:57:33.174.27-Aug-2021 4965.00 1834.45 86.59 6.00 362.75 3307.85
   08:57:33.375.27-Aug-2021 4965.00 1834.41 86.59 6.00 362.95 3307.85
   08:57:33.575.27-Aug-2021 4965.00 1834.92 86.59 6.00 363.15 3307.85
   08:57:33.775.27-Aug-2021 4965.00 1834.92 86.59 6.00 363.35 3307.85
   08:57:33.975.27-Aug-2021 4965.00 1834.87 86.59 6.00 363.55 3307.85
   08:57:34.175.27-Aug-2021 4965.00 1834.94 86.59 6.00 363.75 3307.85
   08:57:34.375.27-Aug-2021 4965.00 1834.97 86.59 6.00 363.95 3307.85
   08:57:34.575.27-Aug-2021 4965.00 1835.00 86.59 6.00 364.15 3307.85
   08:57:34.775.27-Aug-2021 4965.00 1835.00 86.59 6.00 364.35 3307.85
   08:57:34.975.27-Aug-2021 4965.00 1835.06 86.59 6.00 364.55 3307.85
   08:57:35.175.27-Aug-2021 4965.00 1835.09 86.59 6.00 364.75 3307.85
   08:57:35.375.27-Aug-2021 4965.00 1835.13 86.59 6.00 364.95 3307.85
   08:57:35.575.27-Aug-2021 4965.00 1835.19 86.59 6.00 365.15 3307.85
   08:57:35.776.27-Aug-2021 4965.00 1835.19 86.59 6.00 365.35 3307.85
   08:57:35.976.27-Aug-2021 4965.00 1835.28 86.59 6.00 365.55 3307.85
   08:57:36.176.27-Aug-2021 4965.00 1835.32 86.59 6.00 365.75 3307.85
   08:57:36.376.27-Aug-2021 4965.00 1835.04 86.59 6.00 365.95 3307.85
   08:57:36.576.27-Aug-2021 4965.00 1835.59 86.59 6.00 366.15 3307.85
   08:57:36.776.27-Aug-2021 4965.00 1835.59 86.59 6.00 366.35 3307.85
   08:57:36.976.27-Aug-2021 4965.00 1835.76 86.59 6.00 366.55 3307.85
   08:57:37.176.27-Aug-2021 4965.00 1835.78 86.59 6.00 366.75 3307.85
   08:57:37.376.27-Aug-2021 4965.00 1835.83 86.59 6.00 366.95 3307.85
   08:57:37.576.27-Aug-2021 4965.00 1835.86 86.59 6.00 367.15 3307.85
   08:57:37.776.27-Aug-2021 4965.00 1835.86 86.59 6.00 367.35 3307.85
   08:57:37.976.27-Aug-2021 4965.00 1835.91 86.59 6.00 367.55 3307.85
   08:57:38.177.27-Aug-2021 4965.00 1835.94 86.59 6.00 367.75 3307.85
   08:57:38.377.27-Aug-2021 4965.00 1835.98 86.59 6.00 367.95 3307.85
