~Version Information
 VERS.                  2.0:   CWLS log ASCII Standard -VERSION 2.0
 WRAP.                   NO:   One line per depth step
~Well Information Block
#MNEM.UNIT     VALUE/NAME     DESCRIPTION
#---------     -----------    ---------------------------
 STRT.S             23:43:00 27-Aug-21: START TIME 23:43:00 27-Aug-21
 STOP.S             23:50:14 27-Aug-21: STOP TIME  23:50:14 27-Aug-21
 STEP.S                   0.00: STEP TIME
 NULL.                 -999.25: NULL VALUE
 DFWT.                        :  DIST FWL TEXT
 DFST.                        :  DIST FSL TEXT
 DMF .             Drill Floor:  DRILL MEAS FROM
 STIM.      20.00.00 17-Aug-21:  START TIME
 DATE.      19.00.00 29-Aug-21:  END TIME
 SPUD.               15-Aug-21:  SPUD DATE
 NREF.                    Grid:  NORTH REFERENCE
 HPTY.       Minimum Curvature:  HOLE POS TYPE
 DMOD.             Drill Model:  DRILL MOD DESC
 SVYD.                  Survey:  SURVEY DESC
 ILTD.               Lithology:  INTERP LTH DESC
 FTOP.          Formation Tops:  FORM TOPS DESC
 RIG .              East Azeri:  RIG NAME
 PDAT.          Mean Sea Level:  PERMANENT DATUM
 FLD .                     ACG:  FIELD NAME
 SON .        AZ-XX-0907180857:  JOB NUMBER
 CTRY.              Azerbaijan:  COUNTRY NAME
 WELL.                    D23x:  WELL NAME
 SRVC.     Turan Drilling and Engineering:  CONTRACTOR
 COMP.     BP Exploration (Caspian Sea) Ltd.:  COMPANY
 UWI .            /AZE00000214:  UNIQUE WELL IDENTIFIER
 API .            /AZE00000214:  API NUMBER
 MDS .        Operator Entered:  MAG DATA SOURCE
 BASE.              Azerbaijan:  LOGGING EQUIPMENT BASE LOCATION
 REGN.                   EESSA:  REGION
 PROV.                    Baku:  PROVINCE
 STAT.                    Baku:  STATE NAME
 MWDS.                    Baku:  MWD SHOP
 DOE .                     N/A:  DOE NUMBER
 DCON.         Sperry Drilling:  DIRECTNL CONTR
 UNIT.                     N/A:  LOGGING EQUIPMENT ID
 WTYP.                Deviated:  WELL TYPE
 CNTY.                        :  COUNTY
 LOC .                        :  LOCATION
 LMF .             Drill Floor:  LOG MEASURED FROM
 TVDS.m                  43.60:  TVDSS CORRECTN
 LATI.deg                40.02:  LATITUDE
 LONG.deg                51.45:  LONGITUDE
 WHNS.m                  -7.04:  WELL HEAD N/S
 WHEW.m                  -0.67:  WELL HEAD E/W
 UTMX.m              538762.90:  UTM X
 UTMY.m             4431871.34:  UTM Y
 DFWL.m                   0.00:  DISTANCE FWL
 DFSL.m                   0.00:  DISTANCE FSL
 SDEP.m                4127.00:  START DEPTH
 TDD .m                5084.50:  TOTAL DEPTH (DRILLER)
 VSDR.deg               140.47:  VERT SEC DIRECT
 GVFD.g                   1.00:  GRAVITY FIELD
 MFLD.nT              50362.00:  MAGNETIC FIELD
 MDIP.deg                59.48:  MAGNETIC DIP
 MDEC.deg                 6.47:  MAGNETIC DECL
 GRDC.deg                 0.31:  GRID CORRECTION
 AZTC.deg                 6.16:  AZM TOTAL CORR
 EPD .m                   0.00:  ELEVATION
 EGL .m                   0.00:  GROUND ELEVATION
 WDMS.m                 151.80:  WD ELEV
 APD .m                  43.60:  DEPTH ABOVE PD
 DEP .m                4092.57:  DEPTH
 AGAP.m                  43.60:  AIR GAP
 VSEW.m                  -0.67:  VERT SEC E/W
 VSNS.m                  -7.04:  VERT SEC N/S
 EKB .m                  43.60:  KB ELEVATION
 EDF .m                  43.60:  DF ELEVATION
 TDL .m                 957.50:  TOTAL DEPTH (LOGGER)
 VSC .                       0:  VS TO CLOSURE
 MAGU.                 1851413:  MAGUTM CHECKSUM
~Parameter Information Block
#MNEM.UNIT       Value        Description
#---------     -----------    ---------------------------
 AV  .mps                 1.50:  Ann Velocity 
 AVMX.mps                 2.00:  Max Ann Veloc 
 AZIF.deg               184.66:  Azm, Final 
 BHAT.        Rotary Steerable:  BHA Type 
 BREV.rev               300.00:  Rev Bit Total 
 BROT.°/30m              -0.50:  Build Rotating 
 BS  .in                  8.50:  Bit Size 
 BSZ .in                  8.50:  Bit Size 
 BTPL.psig              370.00:  Bit Press Loss 
 CABU.                      No:  Customer Abuse 
 CGEO.      Behruz Shahbaliyev:  Customer Geo 
 COMM.                     Ì™‡:  Run Comments 1 
 TCS .hr                140.08:  Time Ciculation Ended 
 CV  .mps                 3.00:  Crit Velocity 
 CVMX.mps                 3.20:  Max Crit Veloc 
 DD1 .            Musa Ahmadov:  Direct Drillr 1 
 DD2 .           Hamid Ahmadov:  Direct Drillr 2 
 DDSV.               Geo-Pilot:  DD Service 
 DEFF.%                  98.40:  % Det Eff 
 DLRX.°/30m               3.40:  Dogleg Rot Max 
 DLSO.°/30m               1.45:  Dogleg Oriented 
 DLSX.°/30m               3.40:  Dogleg Str Max 
 DRET.      18.40.00 29-Aug-21:  Drill End Time 
 DRST.      21.00.00 20-Aug-21:  Drill Start Tim 
 DTIM.hr                 69.47:  Time Drilling 
 EDEP.m                5084.50:  End Depth 
 ENG1.      Artemiy Matviyanov:  Engineer 1 
 ENG2.         Almaz Almadatov:  Engineer 2 
 ETIM.      18.40.00 29-Aug-21:  End Time 
 FLOI.gpm               500.00:  Flow In 
 FLON.gpm               400.00:  Flow In Min 
 FLOS.cptm                0.00:  Fluid Loss 
 FLOX.gpm               500.00:  Flow In Max 
 DFT .        Mineral Oil Base:  Mud Type 
 HFLO.                      No:  High Flow 
 HPRE.                      No:  High Pressure 
 HTEM.                      No:  High Temp 
 HYDO.m                   1.80:  Hydro Offset 
 IFIN.deg                25.62:  Inc, Final 
 IMAX.deg                48.69:  Inc Max 
 IMIN.deg                24.01:  Inc Min 
 IMND.m                4962.57:  Inc Min Depth 
 IMXD.m                4119.01:  Inc Max Depth 
 JARR.                      No:  Jarring 
 LETM.      18.40.00 29-Aug-21:  Log End Time 
 LOST.hr                     0:  Lost Rig Time 
 LSTM.      21.00.00 20-Aug-21:  Log Start Time 
 MDCL.ppm             41500.00:  Mud Chlorides 
 MDES.     Inversion Oil/Synthetic:  Mud Desc 
 DFD .sg                  1.56:  Mud Density 
 MDMN.sg                  1.56:  Dens Mud Min 
 MDMX.sg                  1.56:  Dens Mud Max 
 MOIL.                      70:  Run Mud Oil % 
 MOWR.                   70:30:  Run Mud OWR 
 MSND.                     0.2:  Run Mud Sand % 
 MSOL.                    23.3:  Run Mud Solids% 
 DFV .spqt               78.00:  Mud Viscosity 
 MWOD.in                  6.75:  MWD Tool OD 
 MWSI.                      No:  Serv Intrp, MWD 
 OTIM.hr                218.30:  Time Operating 
 PCON.           Look Like New:  Pad Condition 
 PMAX.psia            11015.30:  Press Op, Max 
 PV  .cP                 38.00:  Mud PV 
 RUN .                     300:  Run Number 
 ROPA.m/hr               15.00:  ROP Avg 
 ROPN.m/hr                9.00:  ROP Min 
 ROPX.m/hr               17.00:  ROP Max 
 RPMA.rpm               120.00:  RPM Surface Avg 
 RPMN.rpm                90.00:  RPM Surface Min 
 RPMX.rpm               140.00:  RPM Surface Max 
 RRUN.                     300:  Rig Run Number 
 RTIM.hr                 31.53:  Time Reaming 
 SAZI.deg               331.64:  Azm, Start 
 SDEP.m                4127.00:  Start Depth 
 SIDD.                      No:  Serv Intrp, DD 
 SINC.deg                48.43:  Inc, Start 
 SPPA.psig             5830.00:  SPP Avg 
 SPPN.psig             5600.00:  SPP Min 
 SPPX.psig             5900.00:  SPP Max 
 STIM.      21.00.00 20-Aug-21:  Start Time 
 SVCS.                 DD, MWD:  Services 
 SVER.                    9.20:  Sperry Version 
 TDAT.m                 957.50:  Tot Depth Attmp 
 TDDF.                      No:  Trip for DD 
 TDLG.m                 957.50:  Tot Depth Loggd 
 TFF .                      No:  Trip for Fail 
 TQAA.f-kp               15.00:  Torque Abs Avg 
 TQAN.f-kp               12.00:  Torque Abs Min 
 TQAX.f-kp               19.00:  Torque Abs Max 
 TRRT.°/30m              -3.40:  Turn Rotating 
 MRT .                  EWR-M5:  Maximum Recorded Temperature 
 TTMX.degC              100.00:  Max Tool Temp 
 VS01.                90639251:  Virtual Str1 SN 
 VS02.                90634715:  Virtual Str2 SN 
 VS03.                90652479:  Virtual Str3 SN 
 VS04.                90642262:  Virtual Str4 SN 
 WBMN.klb                 0.00:  WOB Min 
 WITN.           Murad Guliyev:  Customer Rep 
 WITN.          Yashar Gaziyev:  Customer Rep 2 
 WOBA.klb                 9.00:  WOB Avg 
 WOBX.klb                12.00:  WOB Max 
 YP  .lhf2               30.00:  Yield Point 
~Curve Information Block
#MNEM.UNIT                 API CODE     Curve Description
#---------               -----------    ---------------------------
 TIME.HHMMSS            00 000 000 000:  GT Time & Date
 GTDEPTH.m              00 000 000 000:  GT Depth
 GTPQH.psia             00 000 000 000:  GT HR Quartz Pressure
 GTTQ.degC              00 000 000 000:  GT Quartz Temperature
 GTTN.NONE              00 000 000 000:  GT Test Number
 GTET.sec               00 000 000 000:  GT Elapsed Test Time
 GTTVD.m                00 000 000 000:  GT True Vertical Depth
#Other Information
#
#WARRANTY: Halliburton will use its best efforts to furnish customers with 
#accurate information and interpretations that are part of, and incident to, the services 
#provided.  However, Halliburton cannot and does not warrant the accuracy 
#or correctness of such information and interpretations.  Under no circumstances should any 
#such information or interpretation be relied upon as the sole basis for any drilling, 
#completion, production, or financial decision or any procedure involving any risk to the 
#safety of any drilling venture, drilling rig or its crew or any other third party.  The 
#Customer has full responsibility for all drilling, completion and production operation.  
#Halliburton makes no representations or warranties, either expressed or 
#implied, including, but not limited to, the implied warranties of merchantability or fitness 
#for a particular purpose, with respect to the services rendered.  In no event will 
#Halliburton be liable for failure to obtain any particular results or for 
#any damages, including, but not limited to, indirect, special or consequential damages, 
#resulting from the use of any information or interpretation provided by Halliburton.
#
~A           TIME           GTDEPTH  GTPQH  GTTQ  GTTN   GTET   GTTVD  
# ...
   23:46:00.950.27-Aug-2021 4669.00 4445.04 82.07 26.00 180.82 3039.49
   23:46:01.150.27-Aug-2021 4669.00 4446.27 82.07 26.00 181.02 3039.49
   23:46:01.350.27-Aug-2021 4669.00 4446.27 82.07 26.00 181.22 3039.49
   23:46:01.550.27-Aug-2021 4669.00 4446.97 82.07 26.00 181.42 3039.49
   23:46:01.750.27-Aug-2021 4669.00 4447.26 82.07 26.00 181.62 3039.49
   23:46:01.950.27-Aug-2021 4669.00 4447.91 82.07 26.00 181.82 3039.49
   23:46:02.150.27-Aug-2021 4669.00 4448.23 82.07 26.00 182.02 3039.49
   23:46:02.350.27-Aug-2021 4669.00 4448.23 82.07 26.00 182.22 3039.49
   23:46:02.550.27-Aug-2021 4669.00 4450.12 82.07 26.00 182.42 3039.49
   23:46:02.750.27-Aug-2021 4669.00 4450.10 82.07 26.00 182.62 3039.49
   23:46:02.950.27-Aug-2021 4669.00 4450.66 82.07 26.00 182.82 3039.49
   23:46:03.150.27-Aug-2021 4669.00 4450.80 82.07 26.00 183.02 3039.49
   23:46:03.350.27-Aug-2021 4669.00 4450.80 82.07 26.00 183.22 3039.49
   23:46:03.550.27-Aug-2021 4669.00 4451.77 82.07 26.00 183.42 3039.49
   23:46:03.750.27-Aug-2021 4669.00 4453.09 82.07 26.00 183.62 3039.49
   23:46:03.950.27-Aug-2021 4669.00 4452.80 82.07 26.00 183.82 3039.49
   23:46:04.151.27-Aug-2021 4669.00 4453.36 82.07 26.00 184.02 3039.49
   23:46:04.351.27-Aug-2021 4669.00 4453.36 82.07 26.00 184.22 3039.49
   23:46:04.551.27-Aug-2021 4669.00 4453.79 82.07 26.00 184.42 3039.49
   23:46:04.751.27-Aug-2021 4669.00 4453.88 82.07 26.00 184.62 3039.49
   23:46:04.951.27-Aug-2021 4669.00 4454.89 82.07 26.00 184.82 3039.49
   23:46:05.151.27-Aug-2021 4669.00 4455.25 82.07 26.00 185.02 3039.49
   23:46:05.351.27-Aug-2021 4669.00 4455.25 82.07 26.00 185.22 3039.49
   23:46:05.551.27-Aug-2021 4669.00 4455.48 82.07 26.00 185.42 3039.49
   23:46:05.751.27-Aug-2021 4669.00 4455.58 82.07 26.00 185.62 3039.49
   23:46:05.951.27-Aug-2021 4669.00 4455.81 82.07 26.00 185.82 3039.49
   23:46:06.151.27-Aug-2021 4669.00 4456.02 82.07 26.00 186.02 3039.49
   23:46:06.351.27-Aug-2021 4669.00 4456.02 82.07 26.00 186.22 3039.49
   23:46:06.551.27-Aug-2021 4669.00 4456.48 82.07 26.00 186.42 3039.49
   23:46:06.751.27-Aug-2021 4669.00 4456.72 82.07 26.00 186.62 3039.49
   23:46:06.951.27-Aug-2021 4669.00 4456.98 82.07 26.00 186.82 3039.49
   23:46:07.151.27-Aug-2021 4669.00 4457.19 82.07 26.00 187.02 3039.49
   23:46:07.351.27-Aug-2021 4669.00 4457.19 82.07 26.00 187.22 3039.49
   23:46:07.551.27-Aug-2021 4669.00 4457.19 82.07 26.00 187.42 3039.49
   23:46:07.751.27-Aug-2021 4669.00 4457.85 82.08 26.00 187.62 3039.49
   23:46:07.951.27-Aug-2021 4669.00 4458.14 82.08 26.00 187.82 3039.49
   23:46:08.151.27-Aug-2021 4669.00 4459.09 82.07 26.00 188.02 3039.49
   23:46:08.351.27-Aug-2021 4669.00 4459.09 82.07 26.00 188.22 3039.49
   23:46:08.551.27-Aug-2021 4669.00 4459.23 82.08 26.00 188.42 3039.49
   23:46:08.751.27-Aug-2021 4669.00 4459.17 82.08 26.00 188.62 3039.49
   23:46:08.951.27-Aug-2021 4669.00 4459.40 82.08 26.00 188.82 3039.49
   23:46:09.151.27-Aug-2021 4669.00 4459.40 82.08 26.00 189.02 3039.49
   23:46:09.351.27-Aug-2021 4669.00 4459.40 82.08 26.00 189.22 3039.49
   23:46:09.551.27-Aug-2021 4669.00 4459.68 82.08 26.00 189.42 3039.49
   23:46:09.751.27-Aug-2021 4669.00 4459.88 82.08 26.00 189.62 3039.49
   23:46:09.951.27-Aug-2021 4669.00 4459.97 82.08 26.00 189.82 3039.49
   23:46:10.151.27-Aug-2021 4669.00 4460.15 82.08 26.00 190.02 3039.49
   23:46:10.351.27-Aug-2021 4669.00 4460.15 82.08 26.00 190.22 3039.49
   23:46:10.551.27-Aug-2021 4669.00 4460.44 82.08 26.00 190.42 3039.49
   23:46:10.751.27-Aug-2021 4669.00 4460.57 82.08 26.00 190.62 3039.49
   23:46:10.951.27-Aug-2021 4669.00 4460.74 82.08 26.00 190.82 3039.49
   23:46:11.151.27-Aug-2021 4669.00 4460.78 82.08 26.00 191.02 3039.49
   23:46:11.351.27-Aug-2021 4669.00 4460.78 82.08 26.00 191.22 3039.49
   23:46:11.551.27-Aug-2021 4669.00 4461.94 82.08 26.00 191.42 3039.49
   23:46:11.751.27-Aug-2021 4669.00 4461.78 82.08 26.00 191.62 3039.49
   23:46:11.951.27-Aug-2021 4669.00 4461.96 82.08 26.00 191.82 3039.49
   23:46:12.152.27-Aug-2021 4669.00 4461.82 82.08 26.00 192.02 3039.49
   23:46:12.352.27-Aug-2021 4669.00 4461.82 82.08 26.00 192.22 3039.49
   23:46:12.552.27-Aug-2021 4669.00 4462.35 82.08 26.00 192.42 3039.49
   23:46:12.752.27-Aug-2021 4669.00 4462.62 82.08 26.00 192.62 3039.49
   23:46:12.952.27-Aug-2021 4669.00 4462.51 82.08 26.00 192.82 3039.49
   23:46:13.152.27-Aug-2021 4669.00 4462.71 82.08 26.00 193.02 3039.49
   23:46:13.352.27-Aug-2021 4669.00 4462.71 82.08 26.00 193.22 3039.49
   23:46:13.552.27-Aug-2021 4669.00 4462.71 82.08 26.00 193.42 3039.49
   23:46:13.752.27-Aug-2021 4669.00 4463.28 82.08 26.00 193.62 3039.49
   23:46:13.952.27-Aug-2021 4669.00 4463.11 82.08 26.00 193.82 3039.49
   23:46:14.152.27-Aug-2021 4669.00 4463.32 82.08 26.00 194.02 3039.49
   23:46:14.352.27-Aug-2021 4669.00 4463.32 82.08 26.00 194.22 3039.49
   23:46:14.552.27-Aug-2021 4669.00 4463.89 82.08 26.00 194.42 3039.49
   23:46:14.752.27-Aug-2021 4669.00 4463.50 82.08 26.00 194.62 3039.49
   23:46:14.952.27-Aug-2021 4669.00 4463.86 82.08 26.00 194.82 3039.49
   23:46:15.152.27-Aug-2021 4669.00 4463.71 82.07 26.00 195.02 3039.49
   23:46:15.352.27-Aug-2021 4669.00 4463.71 82.07 26.00 195.22 3039.49
   23:46:15.552.27-Aug-2021 4669.00 4463.85 82.07 26.00 195.42 3039.49
   23:46:15.752.27-Aug-2021 4669.00 4463.97 82.08 26.00 195.62 3039.49
   23:46:15.952.27-Aug-2021 4669.00 4463.97 82.07 26.00 195.82 3039.49
   23:46:16.152.27-Aug-2021 4669.00 4464.03 82.07 26.00 196.02 3039.49
   23:46:16.352.27-Aug-2021 4669.00 4464.03 82.07 26.00 196.22 3039.49
   23:46:16.552.27-Aug-2021 4669.00 4464.13 82.07 26.00 196.42 3039.49
   23:46:16.752.27-Aug-2021 4669.00 4464.15 82.07 26.00 196.62 3039.49
   23:46:16.952.27-Aug-2021 4669.00 4464.22 82.07 26.00 196.82 3039.49
   23:46:17.152.27-Aug-2021 4669.00 4464.26 82.07 26.00 197.02 3039.49
   23:46:17.352.27-Aug-2021 4669.00 4464.26 82.07 26.00 197.22 3039.49
   23:46:17.552.27-Aug-2021 4669.00 4464.89 82.07 26.00 197.42 3039.49
   23:46:17.752.27-Aug-2021 4669.00 4465.02 82.07 26.00 197.62 3039.49
   23:46:17.952.27-Aug-2021 4669.00 4464.94 82.07 26.00 197.82 3039.49
   23:46:18.152.27-Aug-2021 4669.00 4465.03 82.07 26.00 198.02 3039.49
   23:46:18.352.27-Aug-2021 4669.00 4465.03 82.07 26.00 198.22 3039.49
   23:46:18.552.27-Aug-2021 4669.00 4465.08 82.07 26.00 198.42 3039.49
   23:46:18.752.27-Aug-2021 4669.00 4465.16 82.07 26.00 198.62 3039.49
   23:46:18.952.27-Aug-2021 4669.00 4465.17 82.07 26.00 198.82 3039.49
   23:46:19.152.27-Aug-2021 4669.00 4465.22 82.07 26.00 199.02 3039.49
   23:46:19.352.27-Aug-2021 4669.00 4465.22 82.07 26.00 199.22 3039.49
   23:46:19.552.27-Aug-2021 4669.00 4465.28 82.07 26.00 199.42 3039.49
   23:46:19.752.27-Aug-2021 4669.00 4465.29 82.07 26.00 199.62 3039.49
   23:46:19.952.27-Aug-2021 4669.00 4465.32 82.07 26.00 199.82 3039.49
   23:46:20.153.27-Aug-2021 4669.00 4465.35 82.07 26.00 200.03 3039.49
   23:46:20.353.27-Aug-2021 4669.00 4465.35 82.07 26.00 200.23 3039.49
   23:46:20.553.27-Aug-2021 4669.00 4465.44 82.07 26.00 200.43 3039.49
   23:46:20.753.27-Aug-2021 4669.00 4465.48 82.07 26.00 200.63 3039.49
   23:46:20.953.27-Aug-2021 4669.00 4466.12 82.07 26.00 200.83 3039.49
   23:46:21.153.27-Aug-2021 4669.00 4465.97 82.07 26.00 201.03 3039.49
   23:46:21.353.27-Aug-2021 4669.00 4465.97 82.07 26.00 201.23 3039.49
   23:46:21.553.27-Aug-2021 4669.00 4466.05 82.07 26.00 201.43 3039.49
   23:46:21.753.27-Aug-2021 4669.00 4466.13 82.07 26.00 201.63 3039.49
   23:46:21.953.27-Aug-2021 4669.00 4466.41 82.07 26.00 201.83 3039.49
   23:46:22.153.27-Aug-2021 4669.00 4466.33 82.07 26.00 202.03 3039.49
   23:46:22.353.27-Aug-2021 4669.00 4466.33 82.07 26.00 202.23 3039.49
   23:46:22.553.27-Aug-2021 4669.00 4466.40 82.07 26.00 202.43 3039.49
   23:46:22.753.27-Aug-2021 4669.00 4466.45 82.07 26.00 202.63 3039.49
   23:46:22.953.27-Aug-2021 4669.00 4466.25 82.07 26.00 202.83 3039.49
   23:46:23.153.27-Aug-2021 4669.00 4466.79 82.07 26.00 203.03 3039.49
   23:46:23.353.27-Aug-2021 4669.00 4466.79 82.07 26.00 203.23 3039.49
