~Version Information
 VERS.                  2.0:   CWLS log ASCII Standard -VERSION 2.0
 WRAP.                   NO:   One line per depth step
~Well Information Block
#MNEM.UNIT     VALUE/NAME     DESCRIPTION
#---------     -----------    ---------------------------
 STRT.S             22:11:58 27-Aug-21: START TIME 22:11:58 27-Aug-21
 STOP.S             22:18:52 27-Aug-21: STOP TIME  22:18:52 27-Aug-21
 STEP.S                   0.00: STEP TIME
 NULL.                 -999.25: NULL VALUE
 DFWT.                        :  DIST FWL TEXT
 DFST.                        :  DIST FSL TEXT
 DMF .             Drill Floor:  DRILL MEAS FROM
 STIM.      20.00.00 17-Aug-21:  START TIME
 DATE.      19.00.00 29-Aug-21:  END TIME
 SPUD.               15-Aug-21:  SPUD DATE
 NREF.                    Grid:  NORTH REFERENCE
 HPTY.       Minimum Curvature:  HOLE POS TYPE
 DMOD.             Drill Model:  DRILL MOD DESC
 SVYD.                  Survey:  SURVEY DESC
 ILTD.               Lithology:  INTERP LTH DESC
 FTOP.          Formation Tops:  FORM TOPS DESC
 RIG .              East Azeri:  RIG NAME
 PDAT.          Mean Sea Level:  PERMANENT DATUM
 FLD .                     ACG:  FIELD NAME
 SON .        AZ-XX-0907180857:  JOB NUMBER
 CTRY.              Azerbaijan:  COUNTRY NAME
 WELL.                    D23x:  WELL NAME
 SRVC.     Turan Drilling and Engineering:  CONTRACTOR
 COMP.     BP Exploration (Caspian Sea) Ltd.:  COMPANY
 UWI .            /AZE00000214:  UNIQUE WELL IDENTIFIER
 API .            /AZE00000214:  API NUMBER
 MDS .        Operator Entered:  MAG DATA SOURCE
 BASE.              Azerbaijan:  LOGGING EQUIPMENT BASE LOCATION
 REGN.                   EESSA:  REGION
 PROV.                    Baku:  PROVINCE
 STAT.                    Baku:  STATE NAME
 MWDS.                    Baku:  MWD SHOP
 DOE .                     N/A:  DOE NUMBER
 DCON.         Sperry Drilling:  DIRECTNL CONTR
 UNIT.                     N/A:  LOGGING EQUIPMENT ID
 WTYP.                Deviated:  WELL TYPE
 CNTY.                        :  COUNTY
 LOC .                        :  LOCATION
 LMF .             Drill Floor:  LOG MEASURED FROM
 TVDS.m                  43.60:  TVDSS CORRECTN
 LATI.deg                40.02:  LATITUDE
 LONG.deg                51.45:  LONGITUDE
 WHNS.m                  -7.04:  WELL HEAD N/S
 WHEW.m                  -0.67:  WELL HEAD E/W
 UTMX.m              538762.90:  UTM X
 UTMY.m             4431871.34:  UTM Y
 DFWL.m                   0.00:  DISTANCE FWL
 DFSL.m                   0.00:  DISTANCE FSL
 SDEP.m                4127.00:  START DEPTH
 TDD .m                5084.50:  TOTAL DEPTH (DRILLER)
 VSDR.deg               140.47:  VERT SEC DIRECT
 GVFD.g                   1.00:  GRAVITY FIELD
 MFLD.nT              50362.00:  MAGNETIC FIELD
 MDIP.deg                59.48:  MAGNETIC DIP
 MDEC.deg                 6.47:  MAGNETIC DECL
 GRDC.deg                 0.31:  GRID CORRECTION
 AZTC.deg                 6.16:  AZM TOTAL CORR
 EPD .m                   0.00:  ELEVATION
 EGL .m                   0.00:  GROUND ELEVATION
 WDMS.m                 151.80:  WD ELEV
 APD .m                  43.60:  DEPTH ABOVE PD
 DEP .m                4092.57:  DEPTH
 AGAP.m                  43.60:  AIR GAP
 VSEW.m                  -0.67:  VERT SEC E/W
 VSNS.m                  -7.04:  VERT SEC N/S
 EKB .m                  43.60:  KB ELEVATION
 EDF .m                  43.60:  DF ELEVATION
 TDL .m                 957.50:  TOTAL DEPTH (LOGGER)
 VSC .                       0:  VS TO CLOSURE
 MAGU.                 1851413:  MAGUTM CHECKSUM
~Parameter Information Block
#MNEM.UNIT       Value        Description
#---------     -----------    ---------------------------
 AV  .mps                 1.50:  Ann Velocity 
 AVMX.mps                 2.00:  Max Ann Veloc 
 AZIF.deg               184.66:  Azm, Final 
 BHAT.        Rotary Steerable:  BHA Type 
 BREV.rev               300.00:  Rev Bit Total 
 BROT.°/30m              -0.50:  Build Rotating 
 BS  .in                  8.50:  Bit Size 
 BSZ .in                  8.50:  Bit Size 
 BTPL.psig              370.00:  Bit Press Loss 
 CABU.                      No:  Customer Abuse 
 CGEO.      Behruz Shahbaliyev:  Customer Geo 
 COMM.                     Tªl:  Run Comments 1 
 TCS .hr                140.08:  Time Ciculation Ended 
 CV  .mps                 3.00:  Crit Velocity 
 CVMX.mps                 3.20:  Max Crit Veloc 
 DD1 .            Musa Ahmadov:  Direct Drillr 1 
 DD2 .           Hamid Ahmadov:  Direct Drillr 2 
 DDSV.               Geo-Pilot:  DD Service 
 DEFF.%                  98.40:  % Det Eff 
 DLRX.°/30m               3.40:  Dogleg Rot Max 
 DLSO.°/30m               1.45:  Dogleg Oriented 
 DLSX.°/30m               3.40:  Dogleg Str Max 
 DRET.      18.40.00 29-Aug-21:  Drill End Time 
 DRST.      21.00.00 20-Aug-21:  Drill Start Tim 
 DTIM.hr                 69.47:  Time Drilling 
 EDEP.m                5084.50:  End Depth 
 ENG1.      Artemiy Matviyanov:  Engineer 1 
 ENG2.         Almaz Almadatov:  Engineer 2 
 ETIM.      18.40.00 29-Aug-21:  End Time 
 FLOI.gpm               500.00:  Flow In 
 FLON.gpm               400.00:  Flow In Min 
 FLOS.cptm                0.00:  Fluid Loss 
 FLOX.gpm               500.00:  Flow In Max 
 DFT .        Mineral Oil Base:  Mud Type 
 HFLO.                      No:  High Flow 
 HPRE.                      No:  High Pressure 
 HTEM.                      No:  High Temp 
 HYDO.m                   1.80:  Hydro Offset 
 IFIN.deg                25.62:  Inc, Final 
 IMAX.deg                48.69:  Inc Max 
 IMIN.deg                24.01:  Inc Min 
 IMND.m                4962.57:  Inc Min Depth 
 IMXD.m                4119.01:  Inc Max Depth 
 JARR.                      No:  Jarring 
 LETM.      18.40.00 29-Aug-21:  Log End Time 
 LOST.hr                     0:  Lost Rig Time 
 LSTM.      21.00.00 20-Aug-21:  Log Start Time 
 MDCL.ppm             41500.00:  Mud Chlorides 
 MDES.     Inversion Oil/Synthetic:  Mud Desc 
 DFD .sg                  1.56:  Mud Density 
 MDMN.sg                  1.56:  Dens Mud Min 
 MDMX.sg                  1.56:  Dens Mud Max 
 MOIL.                      70:  Run Mud Oil % 
 MOWR.                   70:30:  Run Mud OWR 
 MSND.                     0.2:  Run Mud Sand % 
 MSOL.                    23.3:  Run Mud Solids% 
 DFV .spqt               78.00:  Mud Viscosity 
 MWOD.in                  6.75:  MWD Tool OD 
 MWSI.                      No:  Serv Intrp, MWD 
 OTIM.hr                218.30:  Time Operating 
 PCON.           Look Like New:  Pad Condition 
 PMAX.psia            11015.30:  Press Op, Max 
 PV  .cP                 38.00:  Mud PV 
 RUN .                     300:  Run Number 
 ROPA.m/hr               15.00:  ROP Avg 
 ROPN.m/hr                9.00:  ROP Min 
 ROPX.m/hr               17.00:  ROP Max 
 RPMA.rpm               120.00:  RPM Surface Avg 
 RPMN.rpm                90.00:  RPM Surface Min 
 RPMX.rpm               140.00:  RPM Surface Max 
 RRUN.                     300:  Rig Run Number 
 RTIM.hr                 31.53:  Time Reaming 
 SAZI.deg               331.64:  Azm, Start 
 SDEP.m                4127.00:  Start Depth 
 SIDD.                      No:  Serv Intrp, DD 
 SINC.deg                48.43:  Inc, Start 
 SPPA.psig             5830.00:  SPP Avg 
 SPPN.psig             5600.00:  SPP Min 
 SPPX.psig             5900.00:  SPP Max 
 STIM.      21.00.00 20-Aug-21:  Start Time 
 SVCS.                 DD, MWD:  Services 
 SVER.                    9.20:  Sperry Version 
 TDAT.m                 957.50:  Tot Depth Attmp 
 TDDF.                      No:  Trip for DD 
 TDLG.m                 957.50:  Tot Depth Loggd 
 TFF .                      No:  Trip for Fail 
 TQAA.f-kp               15.00:  Torque Abs Avg 
 TQAN.f-kp               12.00:  Torque Abs Min 
 TQAX.f-kp               19.00:  Torque Abs Max 
 TRRT.°/30m              -3.40:  Turn Rotating 
 MRT .                  EWR-M5:  Maximum Recorded Temperature 
 TTMX.degC              100.00:  Max Tool Temp 
 VS01.                90639251:  Virtual Str1 SN 
 VS02.                90634715:  Virtual Str2 SN 
 VS03.                90652479:  Virtual Str3 SN 
 VS04.                90642262:  Virtual Str4 SN 
 WBMN.klb                 0.00:  WOB Min 
 WITN.           Murad Guliyev:  Customer Rep 
 WITN.          Yashar Gaziyev:  Customer Rep 2 
 WOBA.klb                 9.00:  WOB Avg 
 WOBX.klb                12.00:  WOB Max 
 YP  .lhf2               30.00:  Yield Point 
~Curve Information Block
#MNEM.UNIT                 API CODE     Curve Description
#---------               -----------    ---------------------------
 TIME.HHMMSS            00 000 000 000:  GT Time & Date
 GTDEPTH.m              00 000 000 000:  GT Depth
 GTPQH.psia             00 000 000 000:  GT HR Quartz Pressure
 GTTQ.degC              00 000 000 000:  GT Quartz Temperature
 GTTN.NONE              00 000 000 000:  GT Test Number
 GTET.sec               00 000 000 000:  GT Elapsed Test Time
 GTTVD.m                00 000 000 000:  GT True Vertical Depth
#Other Information
#
#WARRANTY: Halliburton will use its best efforts to furnish customers with 
#accurate information and interpretations that are part of, and incident to, the services 
#provided.  However, Halliburton cannot and does not warrant the accuracy 
#or correctness of such information and interpretations.  Under no circumstances should any 
#such information or interpretation be relied upon as the sole basis for any drilling, 
#completion, production, or financial decision or any procedure involving any risk to the 
#safety of any drilling venture, drilling rig or its crew or any other third party.  The 
#Customer has full responsibility for all drilling, completion and production operation.  
#Halliburton makes no representations or warranties, either expressed or 
#implied, including, but not limited to, the implied warranties of merchantability or fitness 
#for a particular purpose, with respect to the services rendered.  In no event will 
#Halliburton be liable for failure to obtain any particular results or for 
#any damages, including, but not limited to, indirect, special or consequential damages, 
#resulting from the use of any information or interpretation provided by Halliburton.
#
~A           TIME           GTDEPTH  GTPQH  GTTQ  GTTN   GTET   GTTVD  
   22:11:58.546.27-Aug-2021 4635.80 7157.66 82.55 24.00   0.00 3009.39
   22:11:58.746.27-Aug-2021 4635.80 7157.66 82.55 24.00   0.20 3009.39
   22:11:58.946.27-Aug-2021 4635.80 7158.52 82.55 24.00   0.40 3009.39
   22:11:59.146.27-Aug-2021 4635.80 7157.88 82.55 24.00   0.60 3009.39
   22:11:59.346.27-Aug-2021 4635.80 7157.67 82.55 24.00   0.80 3009.39
   22:11:59.546.27-Aug-2021 4635.80 7157.54 82.55 24.00   1.00 3009.39
   22:11:59.746.27-Aug-2021 4635.80 7157.54 82.55 24.00   1.20 3009.39
   22:11:59.946.27-Aug-2021 4635.80 7157.29 82.55 24.00   1.40 3009.39
   22:12:00.146.27-Aug-2021 4635.80 7157.10 82.55 24.00   1.60 3009.39
   22:12:00.346.27-Aug-2021 4635.80 7157.15 82.55 24.00   1.80 3009.39
   22:12:00.546.27-Aug-2021 4635.80 7157.38 82.55 24.00   2.00 3009.39
   22:12:00.746.27-Aug-2021 4635.80 7157.38 82.55 24.00   2.20 3009.39
   22:12:00.946.27-Aug-2021 4635.80 7157.64 82.55 24.00   2.40 3009.39
   22:12:01.146.27-Aug-2021 4635.80 7157.91 82.55 24.00   2.60 3009.39
   22:12:01.346.27-Aug-2021 4635.80 7158.09 82.55 24.00   2.80 3009.39
   22:12:01.546.27-Aug-2021 4635.80 7158.37 82.55 24.00   3.00 3009.39
   22:12:01.746.27-Aug-2021 4635.80 7158.37 82.55 24.00   3.20 3009.39
   22:12:01.946.27-Aug-2021 4635.80 7158.77 82.55 24.00   3.40 3009.39
   22:12:02.146.27-Aug-2021 4635.80 7158.98 82.54 24.00   3.60 3009.39
   22:12:02.346.27-Aug-2021 4635.80 7159.30 82.54 24.00   3.80 3009.39
   22:12:02.546.27-Aug-2021 4635.80 7159.56 82.54 24.00   4.00 3009.39
   22:12:02.746.27-Aug-2021 4635.80 7159.56 82.54 24.00   4.20 3009.39
   22:12:02.946.27-Aug-2021 4635.80 7164.74 82.54 24.00   4.40 3009.39
   22:12:03.146.27-Aug-2021 4635.80 7158.46 82.54 24.00   4.60 3009.39
   22:12:03.346.27-Aug-2021 4635.80 7160.42 82.54 24.00   4.80 3009.39
   22:12:03.546.27-Aug-2021 4635.80 7160.67 82.54 24.00   5.00 3009.39
   22:12:03.746.27-Aug-2021 4635.80 7160.67 82.54 24.00   5.20 3009.39
   22:12:03.946.27-Aug-2021 4635.80 7162.18 82.54 24.00   5.40 3009.39
   22:12:04.146.27-Aug-2021 4635.80 7161.82 82.54 24.00   5.60 3009.39
   22:12:04.346.27-Aug-2021 4635.80 7162.60 82.54 24.00   5.80 3009.39
   22:12:04.546.27-Aug-2021 4635.80 7162.70 82.54 24.00   6.00 3009.39
   22:12:04.746.27-Aug-2021 4635.80 7162.70 82.54 24.00   6.20 3009.39
   22:12:04.946.27-Aug-2021 4635.80 7162.70 82.54 24.00   6.40 3009.39
   22:12:05.146.27-Aug-2021 4635.80 7163.44 82.54 24.00   6.60 3009.39
   22:12:05.346.27-Aug-2021 4635.80 7163.61 82.54 24.00   6.80 3009.39
   22:12:05.546.27-Aug-2021 4635.80 7160.67 82.54 24.00   7.00 3009.39
   22:12:05.746.27-Aug-2021 4635.80 7163.76 82.54 24.00   7.20 3009.39
   22:12:05.947.27-Aug-2021 4635.80 7163.76 82.54 24.00   7.40 3009.39
   22:12:06.147.27-Aug-2021 4635.80 7163.76 82.54 24.00   7.60 3009.39
   22:12:06.347.27-Aug-2021 4635.80 7163.76 82.54 24.00   7.80 3009.39
   22:12:06.547.27-Aug-2021 4635.80 7165.07 82.54 24.00   8.00 3009.39
   22:12:06.747.27-Aug-2021 4635.80 7165.20 82.54 24.00   8.20 3009.39
   22:12:06.947.27-Aug-2021 4635.80 7165.32 82.54 24.00   8.40 3009.39
   22:12:07.147.27-Aug-2021 4635.80 7164.91 82.54 24.00   8.60 3009.39
   22:12:07.347.27-Aug-2021 4635.80 7168.93 82.54 24.00   8.80 3009.39
   22:12:07.547.27-Aug-2021 4635.80 7165.63 82.54 24.00   9.00 3009.39
   22:12:07.747.27-Aug-2021 4635.80 7165.63 82.54 24.00   9.20 3009.39
   22:12:07.947.27-Aug-2021 4635.80 7165.90 82.54 24.00   9.40 3009.39
   22:12:08.147.27-Aug-2021 4635.80 7165.60 82.54 24.00   9.60 3009.39
   22:12:08.347.27-Aug-2021 4635.80 7166.77 82.54 24.00   9.80 3009.39
   22:12:08.547.27-Aug-2021 4635.80 7171.02 82.54 24.00  10.00 3009.39
   22:12:08.747.27-Aug-2021 4635.80 7171.02 82.54 24.00  10.20 3009.39
   22:12:08.947.27-Aug-2021 4635.80 7166.61 82.54 24.00  10.40 3009.39
   22:12:09.147.27-Aug-2021 4635.80 7166.32 82.54 24.00  10.60 3009.39
   22:12:09.347.27-Aug-2021 4635.80 7167.17 82.54 24.00  10.80 3009.39
   22:12:09.547.27-Aug-2021 4635.80 7167.18 82.54 24.00  11.00 3009.39
   22:12:09.747.27-Aug-2021 4635.80 7167.18 82.54 24.00  11.20 3009.39
   22:12:09.947.27-Aug-2021 4635.80 7169.35 82.54 24.00  11.40 3009.39
   22:12:10.147.27-Aug-2021 4635.80 7169.32 82.54 24.00  11.60 3009.39
   22:12:10.347.27-Aug-2021 4635.80 7168.31 82.54 24.00  11.80 3009.39
   22:12:10.547.27-Aug-2021 4635.80 7168.43 82.54 24.00  12.00 3009.39
   22:12:10.747.27-Aug-2021 4635.80 7168.43 82.54 24.00  12.20 3009.39
   22:12:10.947.27-Aug-2021 4635.80 7168.67 82.54 24.00  12.40 3009.39
   22:12:11.147.27-Aug-2021 4635.80 7172.36 82.54 24.00  12.60 3009.39
   22:12:11.347.27-Aug-2021 4635.80 7169.86 82.54 24.00  12.80 3009.39
   22:12:11.547.27-Aug-2021 4635.80 7169.97 82.54 24.00  13.00 3009.39
   22:12:11.747.27-Aug-2021 4635.80 7169.97 82.54 24.00  13.20 3009.39
   22:12:11.947.27-Aug-2021 4635.80 7174.72 82.54 24.00  13.40 3009.39
   22:12:12.147.27-Aug-2021 4635.80 7169.58 82.54 24.00  13.60 3009.39
   22:12:12.347.27-Aug-2021 4635.80 7171.43 82.54 24.00  13.80 3009.39
   22:12:12.547.27-Aug-2021 4635.80 7172.52 82.54 24.00  14.00 3009.39
   22:12:12.747.27-Aug-2021 4635.80 7172.52 82.54 24.00  14.20 3009.39
   22:12:12.947.27-Aug-2021 4635.80 7172.28 82.54 24.00  14.40 3009.39
   22:12:13.147.27-Aug-2021 4635.80 7171.38 82.54 24.00  14.60 3009.39
   22:12:13.347.27-Aug-2021 4635.80 7172.40 82.54 24.00  14.80 3009.39
   22:12:13.547.27-Aug-2021 4635.80 7171.74 82.54 24.00  15.00 3009.39
   22:12:13.747.27-Aug-2021 4635.80 7171.74 82.54 24.00  15.20 3009.39
   22:12:13.947.27-Aug-2021 4635.80 7173.21 82.53 24.00  15.40 3009.39
   22:12:14.147.27-Aug-2021 4635.80 7172.95 82.53 24.00  15.60 3009.39
   22:12:14.347.27-Aug-2021 4635.80 7173.19 82.53 24.00  15.80 3009.39
   22:12:14.547.27-Aug-2021 4635.80 7173.39 82.53 24.00  16.00 3009.39
   22:12:14.747.27-Aug-2021 4635.80 7173.39 82.53 24.00  16.20 3009.39
   22:12:14.947.27-Aug-2021 4635.80 7173.47 82.53 24.00  16.40 3009.39
   22:12:15.147.27-Aug-2021 4635.80 7173.55 82.53 24.00  16.60 3009.39
   22:12:15.347.27-Aug-2021 4635.80 7173.72 82.53 24.00  16.80 3009.39
   22:12:15.548.27-Aug-2021 4635.80 7173.98 82.53 24.00  17.00 3009.39
   22:12:15.748.27-Aug-2021 4635.80 7173.98 82.53 24.00  17.20 3009.39
   22:12:15.948.27-Aug-2021 4635.80 7174.23 82.53 24.00  17.40 3009.39
   22:12:16.148.27-Aug-2021 4635.80 7174.38 82.53 24.00  17.60 3009.39
   22:12:16.348.27-Aug-2021 4635.80 7179.26 82.53 24.00  17.80 3009.39
   22:12:16.548.27-Aug-2021 4635.80 7172.53 82.53 24.00  18.00 3009.39
   22:12:16.748.27-Aug-2021 4635.80 7172.53 82.53 24.00  18.20 3009.39
   22:12:16.948.27-Aug-2021 4635.80 7174.86 82.53 24.00  18.40 3009.39
   22:12:17.148.27-Aug-2021 4635.80 7175.05 82.53 24.00  18.60 3009.39
   22:12:17.348.27-Aug-2021 4635.80 7175.91 82.53 24.00  18.80 3009.39
   22:12:17.548.27-Aug-2021 4635.80 7175.60 82.53 24.00  19.00 3009.39
   22:12:17.748.27-Aug-2021 4635.80 7175.60 82.53 24.00  19.20 3009.39
   22:12:17.948.27-Aug-2021 4635.80 7176.11 82.53 24.00  19.40 3009.39
   22:12:18.148.27-Aug-2021 4635.80 7176.39 82.53 24.00  19.60 3009.39
   22:12:18.348.27-Aug-2021 4635.80 7176.59 82.53 24.00  19.80 3009.39
   22:12:18.548.27-Aug-2021 4635.80 7176.57 82.53 24.00  20.00 3009.39
   22:12:18.748.27-Aug-2021 4635.80 7176.57 82.53 24.00  20.20 3009.39
   22:12:18.948.27-Aug-2021 4635.80 7176.84 82.53 24.00  20.40 3009.39
   22:12:19.148.27-Aug-2021 4635.80 7177.03 82.53 24.00  20.60 3009.39
   22:12:19.348.27-Aug-2021 4635.80 7177.36 82.53 24.00  20.80 3009.39
   22:12:19.548.27-Aug-2021 4635.80 7182.41 82.53 24.00  21.00 3009.39
   22:12:19.748.27-Aug-2021 4635.80 7182.41 82.53 24.00  21.20 3009.39
   22:12:19.948.27-Aug-2021 4635.80 7177.85 82.53 24.00  21.40 3009.39
   22:12:20.148.27-Aug-2021 4635.80 7177.89 82.53 24.00  21.60 3009.39
   22:12:20.348.27-Aug-2021 4635.80 7178.16 82.53 24.00  21.80 3009.39
   22:12:20.548.27-Aug-2021 4635.80 7178.96 82.53 24.00  22.00 3009.39
   22:12:20.748.27-Aug-2021 4635.80 7178.96 82.53 24.00  22.20 3009.39
   22:12:20.948.27-Aug-2021 4635.80 7177.09 82.53 24.00  22.40 3009.39
