~Version Information
 VERS.                  2.0:   CWLS log ASCII Standard -VERSION 2.0
 WRAP.                   NO:   One line per depth step
~Well Information Block
#MNEM.UNIT     VALUE/NAME     DESCRIPTION
#---------     -----------    ---------------------------
 STRT.S             08:51:30 27-Aug-21: START TIME 08:51:30 27-Aug-21
 STOP.S             08:58:20 27-Aug-21: STOP TIME  08:58:20 27-Aug-21
 STEP.S                   0.00: STEP TIME
 NULL.                 -999.25: NULL VALUE
 DFWT.                        :  DIST FWL TEXT
 DFST.                        :  DIST FSL TEXT
 DMF .             Drill Floor:  DRILL MEAS FROM
 STIM.      20.00.00 17-Aug-21:  START TIME
 DATE.      19.00.00 29-Aug-21:  END TIME
 SPUD.               15-Aug-21:  SPUD DATE
 NREF.                    Grid:  NORTH REFERENCE
 HPTY.       Minimum Curvature:  HOLE POS TYPE
 DMOD.             Drill Model:  DRILL MOD DESC
 SVYD.                  Survey:  SURVEY DESC
 ILTD.               Lithology:  INTERP LTH DESC
 FTOP.          Formation Tops:  FORM TOPS DESC
 RIG .              East Azeri:  RIG NAME
 PDAT.          Mean Sea Level:  PERMANENT DATUM
 FLD .                     ACG:  FIELD NAME
 SON .        AZ-XX-0907180857:  JOB NUMBER
 CTRY.              Azerbaijan:  COUNTRY NAME
 WELL.                    D23x:  WELL NAME
 SRVC.     Turan Drilling and Engineering:  CONTRACTOR
 COMP.     BP Exploration (Caspian Sea) Ltd.:  COMPANY
 UWI .            /AZE00000214:  UNIQUE WELL IDENTIFIER
 API .            /AZE00000214:  API NUMBER
 MDS .        Operator Entered:  MAG DATA SOURCE
 BASE.              Azerbaijan:  LOGGING EQUIPMENT BASE LOCATION
 REGN.                   EESSA:  REGION
 PROV.                    Baku:  PROVINCE
 STAT.                    Baku:  STATE NAME
 MWDS.                    Baku:  MWD SHOP
 DOE .                     N/A:  DOE NUMBER
 DCON.         Sperry Drilling:  DIRECTNL CONTR
 UNIT.                     N/A:  LOGGING EQUIPMENT ID
 WTYP.                Deviated:  WELL TYPE
 CNTY.                        :  COUNTY
 LOC .                        :  LOCATION
 LMF .             Drill Floor:  LOG MEASURED FROM
 TVDS.m                  43.60:  TVDSS CORRECTN
 LATI.deg                40.02:  LATITUDE
 LONG.deg                51.45:  LONGITUDE
 WHNS.m                  -7.04:  WELL HEAD N/S
 WHEW.m                  -0.67:  WELL HEAD E/W
 UTMX.m              538762.90:  UTM X
 UTMY.m             4431871.34:  UTM Y
 DFWL.m                   0.00:  DISTANCE FWL
 DFSL.m                   0.00:  DISTANCE FSL
 SDEP.m                4127.00:  START DEPTH
 TDD .m                5084.50:  TOTAL DEPTH (DRILLER)
 VSDR.deg               140.47:  VERT SEC DIRECT
 GVFD.g                   1.00:  GRAVITY FIELD
 MFLD.nT              50362.00:  MAGNETIC FIELD
 MDIP.deg                59.48:  MAGNETIC DIP
 MDEC.deg                 6.47:  MAGNETIC DECL
 GRDC.deg                 0.31:  GRID CORRECTION
 AZTC.deg                 6.16:  AZM TOTAL CORR
 EPD .m                   0.00:  ELEVATION
 EGL .m                   0.00:  GROUND ELEVATION
 WDMS.m                 151.80:  WD ELEV
 APD .m                  43.60:  DEPTH ABOVE PD
 DEP .m                4092.57:  DEPTH
 AGAP.m                  43.60:  AIR GAP
 VSEW.m                  -0.67:  VERT SEC E/W
 VSNS.m                  -7.04:  VERT SEC N/S
 EKB .m                  43.60:  KB ELEVATION
 EDF .m                  43.60:  DF ELEVATION
 TDL .m                 957.50:  TOTAL DEPTH (LOGGER)
 VSC .                       0:  VS TO CLOSURE
 MAGU.                 1851413:  MAGUTM CHECKSUM
~Parameter Information Block
#MNEM.UNIT       Value        Description
#---------     -----------    ---------------------------
 AV  .mps                 1.50:  Ann Velocity 
 AVMX.mps                 2.00:  Max Ann Veloc 
 AZIF.deg               184.66:  Azm, Final 
 BHAT.        Rotary Steerable:  BHA Type 
 BREV.rev               300.00:  Rev Bit Total 
 BROT.°/30m              -0.50:  Build Rotating 
 BS  .in                  8.50:  Bit Size 
 BSZ .in                  8.50:  Bit Size 
 BTPL.psig              370.00:  Bit Press Loss 
 CABU.                      No:  Customer Abuse 
 CGEO.      Behruz Shahbaliyev:  Customer Geo 
 COMM.                     <w:  Run Comments 1 
 TCS .hr                140.08:  Time Ciculation Ended 
 CV  .mps                 3.00:  Crit Velocity 
 CVMX.mps                 3.20:  Max Crit Veloc 
 DD1 .            Musa Ahmadov:  Direct Drillr 1 
 DD2 .           Hamid Ahmadov:  Direct Drillr 2 
 DDSV.               Geo-Pilot:  DD Service 
 DEFF.%                  98.40:  % Det Eff 
 DLRX.°/30m               3.40:  Dogleg Rot Max 
 DLSO.°/30m               1.45:  Dogleg Oriented 
 DLSX.°/30m               3.40:  Dogleg Str Max 
 DRET.      18.40.00 29-Aug-21:  Drill End Time 
 DRST.      21.00.00 20-Aug-21:  Drill Start Tim 
 DTIM.hr                 69.47:  Time Drilling 
 EDEP.m                5084.50:  End Depth 
 ENG1.      Artemiy Matviyanov:  Engineer 1 
 ENG2.         Almaz Almadatov:  Engineer 2 
 ETIM.      18.40.00 29-Aug-21:  End Time 
 FLOI.gpm               500.00:  Flow In 
 FLON.gpm               400.00:  Flow In Min 
 FLOS.cptm                0.00:  Fluid Loss 
 FLOX.gpm               500.00:  Flow In Max 
 DFT .        Mineral Oil Base:  Mud Type 
 HFLO.                      No:  High Flow 
 HPRE.                      No:  High Pressure 
 HTEM.                      No:  High Temp 
 HYDO.m                   1.80:  Hydro Offset 
 IFIN.deg                25.62:  Inc, Final 
 IMAX.deg                48.69:  Inc Max 
 IMIN.deg                24.01:  Inc Min 
 IMND.m                4962.57:  Inc Min Depth 
 IMXD.m                4119.01:  Inc Max Depth 
 JARR.                      No:  Jarring 
 LETM.      18.40.00 29-Aug-21:  Log End Time 
 LOST.hr                     0:  Lost Rig Time 
 LSTM.      21.00.00 20-Aug-21:  Log Start Time 
 MDCL.ppm             41500.00:  Mud Chlorides 
 MDES.     Inversion Oil/Synthetic:  Mud Desc 
 DFD .sg                  1.56:  Mud Density 
 MDMN.sg                  1.56:  Dens Mud Min 
 MDMX.sg                  1.56:  Dens Mud Max 
 MOIL.                      70:  Run Mud Oil % 
 MOWR.                   70:30:  Run Mud OWR 
 MSND.                     0.2:  Run Mud Sand % 
 MSOL.                    23.3:  Run Mud Solids% 
 DFV .spqt               78.00:  Mud Viscosity 
 MWOD.in                  6.75:  MWD Tool OD 
 MWSI.                      No:  Serv Intrp, MWD 
 OTIM.hr                218.30:  Time Operating 
 PCON.           Look Like New:  Pad Condition 
 PMAX.psia            11015.30:  Press Op, Max 
 PV  .cP                 38.00:  Mud PV 
 RUN .                     300:  Run Number 
 ROPA.m/hr               15.00:  ROP Avg 
 ROPN.m/hr                9.00:  ROP Min 
 ROPX.m/hr               17.00:  ROP Max 
 RPMA.rpm               120.00:  RPM Surface Avg 
 RPMN.rpm                90.00:  RPM Surface Min 
 RPMX.rpm               140.00:  RPM Surface Max 
 RRUN.                     300:  Rig Run Number 
 RTIM.hr                 31.53:  Time Reaming 
 SAZI.deg               331.64:  Azm, Start 
 SDEP.m                4127.00:  Start Depth 
 SIDD.                      No:  Serv Intrp, DD 
 SINC.deg                48.43:  Inc, Start 
 SPPA.psig             5830.00:  SPP Avg 
 SPPN.psig             5600.00:  SPP Min 
 SPPX.psig             5900.00:  SPP Max 
 STIM.      21.00.00 20-Aug-21:  Start Time 
 SVCS.                 DD, MWD:  Services 
 SVER.                    9.20:  Sperry Version 
 TDAT.m                 957.50:  Tot Depth Attmp 
 TDDF.                      No:  Trip for DD 
 TDLG.m                 957.50:  Tot Depth Loggd 
 TFF .                      No:  Trip for Fail 
 TQAA.f-kp               15.00:  Torque Abs Avg 
 TQAN.f-kp               12.00:  Torque Abs Min 
 TQAX.f-kp               19.00:  Torque Abs Max 
 TRRT.°/30m              -3.40:  Turn Rotating 
 MRT .                  EWR-M5:  Maximum Recorded Temperature 
 TTMX.degC              100.00:  Max Tool Temp 
 VS01.                90639251:  Virtual Str1 SN 
 VS02.                90634715:  Virtual Str2 SN 
 VS03.                90652479:  Virtual Str3 SN 
 VS04.                90642262:  Virtual Str4 SN 
 WBMN.klb                 0.00:  WOB Min 
 WITN.           Murad Guliyev:  Customer Rep 
 WITN.          Yashar Gaziyev:  Customer Rep 2 
 WOBA.klb                 9.00:  WOB Avg 
 WOBX.klb                12.00:  WOB Max 
 YP  .lhf2               30.00:  Yield Point 
~Curve Information Block
#MNEM.UNIT                 API CODE     Curve Description
#---------               -----------    ---------------------------
 TIME.HHMMSS            00 000 000 000:  GT Time & Date
 GTDEPTH.m              00 000 000 000:  GT Depth
 GTPQH.psia             00 000 000 000:  GT HR Quartz Pressure
 GTTQ.degC              00 000 000 000:  GT Quartz Temperature
 GTTN.NONE              00 000 000 000:  GT Test Number
 GTET.sec               00 000 000 000:  GT Elapsed Test Time
 GTTVD.m                00 000 000 000:  GT True Vertical Depth
#Other Information
#
#WARRANTY: Halliburton will use its best efforts to furnish customers with 
#accurate information and interpretations that are part of, and incident to, the services 
#provided.  However, Halliburton cannot and does not warrant the accuracy 
#or correctness of such information and interpretations.  Under no circumstances should any 
#such information or interpretation be relied upon as the sole basis for any drilling, 
#completion, production, or financial decision or any procedure involving any risk to the 
#safety of any drilling venture, drilling rig or its crew or any other third party.  The 
#Customer has full responsibility for all drilling, completion and production operation.  
#Halliburton makes no representations or warranties, either expressed or 
#implied, including, but not limited to, the implied warranties of merchantability or fitness 
#for a particular purpose, with respect to the services rendered.  In no event will 
#Halliburton be liable for failure to obtain any particular results or for 
#any damages, including, but not limited to, indirect, special or consequential damages, 
#resulting from the use of any information or interpretation provided by Halliburton.
#
~A           TIME           GTDEPTH  GTPQH  GTTQ  GTTN  GTET   GTTVD  
# ...
   08:55:43.529.27-Aug-2021 4965.00 1866.80 86.62 6.00 253.11 3307.85
   08:55:43.729.27-Aug-2021 4965.00 1866.80 86.62 6.00 253.31 3307.85
   08:55:43.929.27-Aug-2021 4965.00 1866.90 86.62 6.00 253.51 3307.85
   08:55:44.129.27-Aug-2021 4965.00 1866.95 86.62 6.00 253.71 3307.85
   08:55:44.329.27-Aug-2021 4965.00 1867.00 86.62 6.00 253.91 3307.85
   08:55:44.529.27-Aug-2021 4965.00 1867.09 86.62 6.00 254.11 3307.85
   08:55:44.729.27-Aug-2021 4965.00 1867.09 86.62 6.00 254.31 3307.85
   08:55:44.929.27-Aug-2021 4965.00 1867.24 86.62 6.00 254.51 3307.85
   08:55:45.130.27-Aug-2021 4965.00 1867.31 86.62 6.00 254.71 3307.85
   08:55:45.330.27-Aug-2021 4965.00 1867.38 86.62 6.00 254.91 3307.85
   08:55:45.530.27-Aug-2021 4965.00 1867.15 86.62 6.00 255.11 3307.85
   08:55:45.730.27-Aug-2021 4965.00 1867.15 86.62 6.00 255.31 3307.85
   08:55:45.930.27-Aug-2021 4965.00 1868.02 86.62 6.00 255.51 3307.85
   08:55:46.130.27-Aug-2021 4965.00 1867.98 86.62 6.00 255.71 3307.85
   08:55:46.330.27-Aug-2021 4965.00 1868.03 86.62 6.00 255.91 3307.85
   08:55:46.530.27-Aug-2021 4965.00 1868.09 86.62 6.00 256.11 3307.85
   08:55:46.730.27-Aug-2021 4965.00 1868.09 86.62 6.00 256.31 3307.85
   08:55:46.930.27-Aug-2021 4965.00 1868.17 86.62 6.00 256.51 3307.85
   08:55:47.130.27-Aug-2021 4965.00 1868.21 86.62 6.00 256.71 3307.85
   08:55:47.330.27-Aug-2021 4965.00 1868.27 86.62 6.00 256.91 3307.85
   08:55:47.531.27-Aug-2021 4965.00 1868.34 86.62 6.00 257.11 3307.85
   08:55:47.731.27-Aug-2021 4965.00 1868.34 86.62 6.00 257.31 3307.85
   08:55:47.931.27-Aug-2021 4965.00 1868.51 86.62 6.00 257.51 3307.85
   08:55:48.131.27-Aug-2021 4965.00 1868.60 86.62 6.00 257.71 3307.85
   08:55:48.331.27-Aug-2021 4965.00 1868.66 86.62 6.00 257.91 3307.85
   08:55:48.531.27-Aug-2021 4965.00 1868.72 86.62 6.00 258.11 3307.85
   08:55:48.731.27-Aug-2021 4965.00 1868.72 86.62 6.00 258.31 3307.85
   08:55:48.931.27-Aug-2021 4965.00 1868.99 86.62 6.00 258.51 3307.85
   08:55:49.131.27-Aug-2021 4965.00 1869.43 86.62 6.00 258.71 3307.85
   08:55:49.331.27-Aug-2021 4965.00 1869.40 86.62 6.00 258.91 3307.85
   08:55:49.531.27-Aug-2021 4965.00 1869.22 86.62 6.00 259.11 3307.85
   08:55:49.731.27-Aug-2021 4965.00 1869.22 86.62 6.00 259.31 3307.85
   08:55:49.932.27-Aug-2021 4965.00 1869.74 86.62 6.00 259.51 3307.85
   08:55:50.132.27-Aug-2021 4965.00 1869.73 86.62 6.00 259.71 3307.85
   08:55:50.332.27-Aug-2021 4965.00 1869.74 86.62 6.00 259.91 3307.85
   08:55:50.532.27-Aug-2021 4965.00 1869.82 86.62 6.00 260.11 3307.85
   08:55:50.732.27-Aug-2021 4965.00 1869.82 86.62 6.00 260.31 3307.85
   08:55:50.932.27-Aug-2021 4965.00 1870.02 86.62 6.00 260.51 3307.85
   08:55:51.132.27-Aug-2021 4965.00 1870.19 86.62 6.00 260.71 3307.85
   08:55:51.332.27-Aug-2021 4965.00 1870.16 86.62 6.00 260.91 3307.85
   08:55:51.532.27-Aug-2021 4965.00 1870.20 86.62 6.00 261.11 3307.85
   08:55:51.732.27-Aug-2021 4965.00 1870.20 86.62 6.00 261.31 3307.85
   08:55:51.932.27-Aug-2021 4965.00 1869.96 86.62 6.00 261.51 3307.85
   08:55:52.132.27-Aug-2021 4965.00 1870.47 86.62 6.00 261.71 3307.85
   08:55:52.333.27-Aug-2021 4965.00 1870.68 86.62 6.00 261.91 3307.85
   08:55:52.533.27-Aug-2021 4965.00 1870.63 86.62 6.00 262.11 3307.85
   08:55:52.733.27-Aug-2021 4965.00 1870.63 86.62 6.00 262.31 3307.85
   08:55:52.933.27-Aug-2021 4965.00 1870.74 86.62 6.00 262.51 3307.85
   08:55:53.133.27-Aug-2021 4965.00 1870.79 86.62 6.00 262.71 3307.85
   08:55:53.333.27-Aug-2021 4965.00 1870.82 86.62 6.00 262.91 3307.85
   08:55:53.533.27-Aug-2021 4965.00 1870.87 86.62 6.00 263.11 3307.85
   08:55:53.733.27-Aug-2021 4965.00 1870.87 86.62 6.00 263.31 3307.85
   08:55:53.933.27-Aug-2021 4965.00 1870.97 86.62 6.00 263.51 3307.85
   08:55:54.133.27-Aug-2021 4965.00 1871.06 86.62 6.00 263.71 3307.85
   08:55:54.333.27-Aug-2021 4965.00 1871.14 86.62 6.00 263.91 3307.85
   08:55:54.533.27-Aug-2021 4965.00 1871.19 86.62 6.00 264.11 3307.85
   08:55:54.734.27-Aug-2021 4965.00 1871.19 86.62 6.00 264.31 3307.85
   08:55:54.934.27-Aug-2021 4965.00 1871.32 86.62 6.00 264.51 3307.85
   08:55:55.134.27-Aug-2021 4965.00 1871.19 86.62 6.00 264.71 3307.85
   08:55:55.334.27-Aug-2021 4965.00 1871.79 86.62 6.00 264.91 3307.85
   08:55:55.534.27-Aug-2021 4965.00 1871.92 86.62 6.00 265.11 3307.85
   08:55:55.734.27-Aug-2021 4965.00 1871.92 86.62 6.00 265.31 3307.85
   08:55:55.934.27-Aug-2021 4965.00 1871.94 86.61 6.00 265.51 3307.85
   08:55:56.134.27-Aug-2021 4965.00 1871.99 86.61 6.00 265.71 3307.85
   08:55:56.334.27-Aug-2021 4965.00 1872.03 86.61 6.00 265.91 3307.85
   08:55:56.534.27-Aug-2021 4965.00 1872.05 86.61 6.00 266.11 3307.85
   08:55:56.734.27-Aug-2021 4965.00 1872.05 86.61 6.00 266.31 3307.85
   08:55:56.934.27-Aug-2021 4965.00 1872.16 86.61 6.00 266.51 3307.85
   08:55:57.135.27-Aug-2021 4965.00 1872.24 86.61 6.00 266.71 3307.85
   08:55:57.335.27-Aug-2021 4965.00 1872.33 86.61 6.00 266.91 3307.85
   08:55:57.535.27-Aug-2021 4965.00 1872.40 86.61 6.00 267.11 3307.85
   08:55:57.735.27-Aug-2021 4965.00 1872.40 86.61 6.00 267.31 3307.85
   08:55:57.935.27-Aug-2021 4965.00 1872.53 86.61 6.00 267.51 3307.85
   08:55:58.135.27-Aug-2021 4965.00 1872.62 86.61 6.00 267.71 3307.85
   08:55:58.335.27-Aug-2021 4965.00 1872.33 86.61 6.00 267.91 3307.85
   08:55:58.535.27-Aug-2021 4965.00 1863.36 86.61 6.00 268.11 3307.85
   08:55:58.735.27-Aug-2021 4965.00 1863.36 86.61 6.00 268.31 3307.85
   08:55:58.935.27-Aug-2021 4965.00 1856.36 86.61 6.00 268.51 3307.85
   08:55:59.135.27-Aug-2021 4965.00 1854.59 86.61 6.00 268.71 3307.85
   08:55:59.335.27-Aug-2021 4965.00 1850.68 86.61 6.00 268.91 3307.85
   08:55:59.536.27-Aug-2021 4965.00 1850.01 86.61 6.00 269.11 3307.85
   08:55:59.736.27-Aug-2021 4965.00 1850.01 86.61 6.00 269.31 3307.85
   08:55:59.936.27-Aug-2021 4965.00 1849.96 86.61 6.00 269.51 3307.85
   08:56:00.136.27-Aug-2021 4965.00 1849.93 86.61 6.00 269.71 3307.85
   08:56:00.336.27-Aug-2021 4965.00 1849.31 86.61 6.00 269.91 3307.85
   08:56:00.536.27-Aug-2021 4965.00 1847.18 86.61 6.00 270.11 3307.85
   08:56:00.736.27-Aug-2021 4965.00 1847.18 86.61 6.00 270.31 3307.85
   08:56:00.936.27-Aug-2021 4965.00 1846.43 86.61 6.00 270.51 3307.85
   08:56:01.136.27-Aug-2021 4965.00 1846.33 86.61 6.00 270.71 3307.85
   08:56:01.336.27-Aug-2021 4965.00 1846.39 86.61 6.00 270.91 3307.85
   08:56:01.536.27-Aug-2021 4965.00 1846.42 86.61 6.00 271.11 3307.85
   08:56:01.736.27-Aug-2021 4965.00 1846.42 86.61 6.00 271.31 3307.85
   08:56:01.937.27-Aug-2021 4965.00 1842.30 86.61 6.00 271.51 3307.85
   08:56:02.137.27-Aug-2021 4965.00 1842.19 86.61 6.00 271.71 3307.85
   08:56:02.337.27-Aug-2021 4965.00 1842.20 86.61 6.00 271.91 3307.85
   08:56:02.537.27-Aug-2021 4965.00 1842.29 86.61 6.00 272.11 3307.85
   08:56:02.737.27-Aug-2021 4965.00 1842.29 86.61 6.00 272.31 3307.85
   08:56:02.937.27-Aug-2021 4965.00 1842.39 86.61 6.00 272.51 3307.85
   08:56:03.137.27-Aug-2021 4965.00 1842.32 86.61 6.00 272.71 3307.85
   08:56:03.337.27-Aug-2021 4965.00 1842.30 86.61 6.00 272.91 3307.85
   08:56:03.537.27-Aug-2021 4965.00 1842.30 86.61 6.00 273.11 3307.85
   08:56:03.737.27-Aug-2021 4965.00 1842.30 86.61 6.00 273.31 3307.85
   08:56:03.937.27-Aug-2021 4965.00 1842.24 86.61 6.00 273.51 3307.85
   08:56:04.137.27-Aug-2021 4965.00 1839.89 86.61 6.00 273.71 3307.85
   08:56:04.338.27-Aug-2021 4965.00 1835.42 86.61 6.00 273.91 3307.85
   08:56:04.538.27-Aug-2021 4965.00 1822.85 86.61 6.00 274.11 3307.85
   08:56:04.738.27-Aug-2021 4965.00 1822.85 86.61 6.00 274.31 3307.85
   08:56:04.938.27-Aug-2021 4965.00 1805.50 86.61 6.00 274.51 3307.85
   08:56:05.138.27-Aug-2021 4965.00 1804.09 86.61 6.00 274.71 3307.85
   08:56:05.338.27-Aug-2021 4965.00 1804.05 86.61 6.00 274.91 3307.85
   08:56:05.538.27-Aug-2021 4965.00 1803.98 86.61 6.00 275.11 3307.85
   08:56:05.738.27-Aug-2021 4965.00 1803.98 86.61 6.00 275.31 3307.85
   08:56:05.938.27-Aug-2021 4965.00 1803.91 86.61 6.00 275.51 3307.85
   08:56:06.138.27-Aug-2021 4965.00 1803.92 86.61 6.00 275.71 3307.85
   08:56:06.338.27-Aug-2021 4965.00 1803.59 86.61 6.00 275.91 3307.85
