~Version Information
 VERS.                  2.0:   CWLS log ASCII Standard -VERSION 2.0
 WRAP.                   NO:   One line per depth step
~Well Information Block
#MNEM.UNIT     VALUE/NAME     DESCRIPTION
#---------     -----------    ---------------------------
 STRT.S             06:14:43 27-Aug-21: START TIME 06:14:43 27-Aug-21
 STOP.S             06:21:54 27-Aug-21: STOP TIME  06:21:54 27-Aug-21
 STEP.S                   0.00: STEP TIME
 NULL.                 -999.25: NULL VALUE
 DFWT.                        :  DIST FWL TEXT
 DFST.                        :  DIST FSL TEXT
 DMF .             Drill Floor:  DRILL MEAS FROM
 STIM.      20.00.00 17-Aug-21:  START TIME
 DATE.      19.00.00 29-Aug-21:  END TIME
 SPUD.               15-Aug-21:  SPUD DATE
 NREF.                    Grid:  NORTH REFERENCE
 HPTY.       Minimum Curvature:  HOLE POS TYPE
 DMOD.             Drill Model:  DRILL MOD DESC
 SVYD.                  Survey:  SURVEY DESC
 ILTD.               Lithology:  INTERP LTH DESC
 FTOP.          Formation Tops:  FORM TOPS DESC
 RIG .              East Azeri:  RIG NAME
 PDAT.          Mean Sea Level:  PERMANENT DATUM
 FLD .                     ACG:  FIELD NAME
 SON .        AZ-XX-0907180857:  JOB NUMBER
 CTRY.              Azerbaijan:  COUNTRY NAME
 WELL.                    D23x:  WELL NAME
 SRVC.     Turan Drilling and Engineering:  CONTRACTOR
 COMP.     BP Exploration (Caspian Sea) Ltd.:  COMPANY
 UWI .            /AZE00000214:  UNIQUE WELL IDENTIFIER
 API .            /AZE00000214:  API NUMBER
 MDS .        Operator Entered:  MAG DATA SOURCE
 BASE.              Azerbaijan:  LOGGING EQUIPMENT BASE LOCATION
 REGN.                   EESSA:  REGION
 PROV.                    Baku:  PROVINCE
 STAT.                    Baku:  STATE NAME
 MWDS.                    Baku:  MWD SHOP
 DOE .                     N/A:  DOE NUMBER
 DCON.         Sperry Drilling:  DIRECTNL CONTR
 UNIT.                     N/A:  LOGGING EQUIPMENT ID
 WTYP.                Deviated:  WELL TYPE
 CNTY.                        :  COUNTY
 LOC .                        :  LOCATION
 LMF .             Drill Floor:  LOG MEASURED FROM
 TVDS.m                  43.60:  TVDSS CORRECTN
 LATI.deg                40.02:  LATITUDE
 LONG.deg                51.45:  LONGITUDE
 WHNS.m                  -7.04:  WELL HEAD N/S
 WHEW.m                  -0.67:  WELL HEAD E/W
 UTMX.m              538762.90:  UTM X
 UTMY.m             4431871.34:  UTM Y
 DFWL.m                   0.00:  DISTANCE FWL
 DFSL.m                   0.00:  DISTANCE FSL
 SDEP.m                4127.00:  START DEPTH
 TDD .m                5084.50:  TOTAL DEPTH (DRILLER)
 VSDR.deg               140.47:  VERT SEC DIRECT
 GVFD.g                   1.00:  GRAVITY FIELD
 MFLD.nT              50362.00:  MAGNETIC FIELD
 MDIP.deg                59.48:  MAGNETIC DIP
 MDEC.deg                 6.47:  MAGNETIC DECL
 GRDC.deg                 0.31:  GRID CORRECTION
 AZTC.deg                 6.16:  AZM TOTAL CORR
 EPD .m                   0.00:  ELEVATION
 EGL .m                   0.00:  GROUND ELEVATION
 WDMS.m                 151.80:  WD ELEV
 APD .m                  43.60:  DEPTH ABOVE PD
 DEP .m                4092.57:  DEPTH
 AGAP.m                  43.60:  AIR GAP
 VSEW.m                  -0.67:  VERT SEC E/W
 VSNS.m                  -7.04:  VERT SEC N/S
 EKB .m                  43.60:  KB ELEVATION
 EDF .m                  43.60:  DF ELEVATION
 TDL .m                 957.50:  TOTAL DEPTH (LOGGER)
 VSC .                       0:  VS TO CLOSURE
 MAGU.                 1851413:  MAGUTM CHECKSUM
~Parameter Information Block
#MNEM.UNIT       Value        Description
#---------     -----------    ---------------------------
 AV  .mps                 1.50:  Ann Velocity 
 AVMX.mps                 2.00:  Max Ann Veloc 
 AZIF.deg               184.66:  Azm, Final 
 BHAT.        Rotary Steerable:  BHA Type 
 BREV.rev               300.00:  Rev Bit Total 
 BROT.°/30m              -0.50:  Build Rotating 
 BS  .in                  8.50:  Bit Size 
 BSZ .in                  8.50:  Bit Size 
 BTPL.psig              370.00:  Bit Press Loss 
 CABU.                      No:  Customer Abuse 
 CGEO.      Behruz Shahbaliyev:  Customer Geo 
 COMM.                     4V:  Run Comments 1 
 TCS .hr                140.08:  Time Ciculation Ended 
 CV  .mps                 3.00:  Crit Velocity 
 CVMX.mps                 3.20:  Max Crit Veloc 
 DD1 .            Musa Ahmadov:  Direct Drillr 1 
 DD2 .           Hamid Ahmadov:  Direct Drillr 2 
 DDSV.               Geo-Pilot:  DD Service 
 DEFF.%                  98.40:  % Det Eff 
 DLRX.°/30m               3.40:  Dogleg Rot Max 
 DLSO.°/30m               1.45:  Dogleg Oriented 
 DLSX.°/30m               3.40:  Dogleg Str Max 
 DRET.      18.40.00 29-Aug-21:  Drill End Time 
 DRST.      21.00.00 20-Aug-21:  Drill Start Tim 
 DTIM.hr                 69.47:  Time Drilling 
 EDEP.m                5084.50:  End Depth 
 ENG1.      Artemiy Matviyanov:  Engineer 1 
 ENG2.         Almaz Almadatov:  Engineer 2 
 ETIM.      18.40.00 29-Aug-21:  End Time 
 FLOI.gpm               500.00:  Flow In 
 FLON.gpm               400.00:  Flow In Min 
 FLOS.cptm                0.00:  Fluid Loss 
 FLOX.gpm               500.00:  Flow In Max 
 DFT .        Mineral Oil Base:  Mud Type 
 HFLO.                      No:  High Flow 
 HPRE.                      No:  High Pressure 
 HTEM.                      No:  High Temp 
 HYDO.m                   1.80:  Hydro Offset 
 IFIN.deg                25.62:  Inc, Final 
 IMAX.deg                48.69:  Inc Max 
 IMIN.deg                24.01:  Inc Min 
 IMND.m                4962.57:  Inc Min Depth 
 IMXD.m                4119.01:  Inc Max Depth 
 JARR.                      No:  Jarring 
 LETM.      18.40.00 29-Aug-21:  Log End Time 
 LOST.hr                     0:  Lost Rig Time 
 LSTM.      21.00.00 20-Aug-21:  Log Start Time 
 MDCL.ppm             41500.00:  Mud Chlorides 
 MDES.     Inversion Oil/Synthetic:  Mud Desc 
 DFD .sg                  1.56:  Mud Density 
 MDMN.sg                  1.56:  Dens Mud Min 
 MDMX.sg                  1.56:  Dens Mud Max 
 MOIL.                      70:  Run Mud Oil % 
 MOWR.                   70:30:  Run Mud OWR 
 MSND.                     0.2:  Run Mud Sand % 
 MSOL.                    23.3:  Run Mud Solids% 
 DFV .spqt               78.00:  Mud Viscosity 
 MWOD.in                  6.75:  MWD Tool OD 
 MWSI.                      No:  Serv Intrp, MWD 
 OTIM.hr                218.30:  Time Operating 
 PCON.           Look Like New:  Pad Condition 
 PMAX.psia            11015.30:  Press Op, Max 
 PV  .cP                 38.00:  Mud PV 
 RUN .                     300:  Run Number 
 ROPA.m/hr               15.00:  ROP Avg 
 ROPN.m/hr                9.00:  ROP Min 
 ROPX.m/hr               17.00:  ROP Max 
 RPMA.rpm               120.00:  RPM Surface Avg 
 RPMN.rpm                90.00:  RPM Surface Min 
 RPMX.rpm               140.00:  RPM Surface Max 
 RRUN.                     300:  Rig Run Number 
 RTIM.hr                 31.53:  Time Reaming 
 SAZI.deg               331.64:  Azm, Start 
 SDEP.m                4127.00:  Start Depth 
 SIDD.                      No:  Serv Intrp, DD 
 SINC.deg                48.43:  Inc, Start 
 SPPA.psig             5830.00:  SPP Avg 
 SPPN.psig             5600.00:  SPP Min 
 SPPX.psig             5900.00:  SPP Max 
 STIM.      21.00.00 20-Aug-21:  Start Time 
 SVCS.                 DD, MWD:  Services 
 SVER.                    9.20:  Sperry Version 
 TDAT.m                 957.50:  Tot Depth Attmp 
 TDDF.                      No:  Trip for DD 
 TDLG.m                 957.50:  Tot Depth Loggd 
 TFF .                      No:  Trip for Fail 
 TQAA.f-kp               15.00:  Torque Abs Avg 
 TQAN.f-kp               12.00:  Torque Abs Min 
 TQAX.f-kp               19.00:  Torque Abs Max 
 TRRT.°/30m              -3.40:  Turn Rotating 
 MRT .                  EWR-M5:  Maximum Recorded Temperature 
 TTMX.degC              100.00:  Max Tool Temp 
 VS01.                90639251:  Virtual Str1 SN 
 VS02.                90634715:  Virtual Str2 SN 
 VS03.                90652479:  Virtual Str3 SN 
 VS04.                90642262:  Virtual Str4 SN 
 WBMN.klb                 0.00:  WOB Min 
 WITN.           Murad Guliyev:  Customer Rep 
 WITN.          Yashar Gaziyev:  Customer Rep 2 
 WOBA.klb                 9.00:  WOB Avg 
 WOBX.klb                12.00:  WOB Max 
 YP  .lhf2               30.00:  Yield Point 
~Curve Information Block
#MNEM.UNIT                 API CODE     Curve Description
#---------               -----------    ---------------------------
 TIME.HHMMSS            00 000 000 000:  GT Time & Date
 GTDEPTH.m              00 000 000 000:  GT Depth
 GTPQH.psia             00 000 000 000:  GT HR Quartz Pressure
 GTTQ.degC              00 000 000 000:  GT Quartz Temperature
 GTTN.NONE              00 000 000 000:  GT Test Number
 GTET.sec               00 000 000 000:  GT Elapsed Test Time
 GTTVD.m                00 000 000 000:  GT True Vertical Depth
#Other Information
#
#WARRANTY: Halliburton will use its best efforts to furnish customers with 
#accurate information and interpretations that are part of, and incident to, the services 
#provided.  However, Halliburton cannot and does not warrant the accuracy 
#or correctness of such information and interpretations.  Under no circumstances should any 
#such information or interpretation be relied upon as the sole basis for any drilling, 
#completion, production, or financial decision or any procedure involving any risk to the 
#safety of any drilling venture, drilling rig or its crew or any other third party.  The 
#Customer has full responsibility for all drilling, completion and production operation.  
#Halliburton makes no representations or warranties, either expressed or 
#implied, including, but not limited to, the implied warranties of merchantability or fitness 
#for a particular purpose, with respect to the services rendered.  In no event will 
#Halliburton be liable for failure to obtain any particular results or for 
#any damages, including, but not limited to, indirect, special or consequential damages, 
#resulting from the use of any information or interpretation provided by Halliburton.
#
~A           TIME           GTDEPTH  GTPQH  GTTQ  GTTN  GTET   GTTVD  
# ...
   06:20:05.675.27-Aug-2021 5020.50 8001.83 88.13 2.00 322.05 3358.11
   06:20:05.875.27-Aug-2021 5020.50 8001.83 88.13 2.00 322.25 3358.11
   06:20:06.075.27-Aug-2021 5020.50 8001.65 88.13 2.00 322.45 3358.11
   06:20:06.275.27-Aug-2021 5020.50 8005.00 88.13 2.00 322.65 3358.11
   06:20:06.475.27-Aug-2021 5020.50 8003.47 88.13 2.00 322.85 3358.11
   06:20:06.675.27-Aug-2021 5020.50 8000.45 88.13 2.00 323.05 3358.11
   06:20:06.875.27-Aug-2021 5020.50 8000.45 88.13 2.00 323.25 3358.11
   06:20:07.075.27-Aug-2021 5020.50 8002.59 88.13 2.00 323.45 3358.11
   06:20:07.276.27-Aug-2021 5020.50 8002.50 88.13 2.00 323.65 3358.11
   06:20:07.476.27-Aug-2021 5020.50 8000.47 88.13 2.00 323.85 3358.11
   06:20:07.676.27-Aug-2021 5020.50 8000.59 88.13 2.00 324.05 3358.11
   06:20:07.876.27-Aug-2021 5020.50 8000.59 88.13 2.00 324.25 3358.11
   06:20:08.076.27-Aug-2021 5020.50 8006.97 88.13 2.00 324.45 3358.11
   06:20:08.276.27-Aug-2021 5020.50 8000.37 88.13 2.00 324.65 3358.11
   06:20:08.476.27-Aug-2021 5020.50 8000.92 88.13 2.00 324.85 3358.11
   06:20:08.676.27-Aug-2021 5020.50 8001.20 88.13 2.00 325.05 3358.11
   06:20:08.876.27-Aug-2021 5020.50 8001.20 88.13 2.00 325.25 3358.11
   06:20:09.076.27-Aug-2021 5020.50 8003.95 88.13 2.00 325.45 3358.11
   06:20:09.276.27-Aug-2021 5020.50 8002.91 88.13 2.00 325.65 3358.11
   06:20:09.476.27-Aug-2021 5020.50 8001.00 88.13 2.00 325.85 3358.11
   06:20:09.676.27-Aug-2021 5020.50 8001.26 88.13 2.00 326.05 3358.11
   06:20:09.876.27-Aug-2021 5020.50 8001.26 88.13 2.00 326.25 3358.11
   06:20:10.076.27-Aug-2021 5020.50 8001.72 88.13 2.00 326.45 3358.11
   06:20:10.276.27-Aug-2021 5020.50 8000.89 88.13 2.00 326.65 3358.11
   06:20:10.476.27-Aug-2021 5020.50 8001.23 88.13 2.00 326.85 3358.11
   06:20:10.676.27-Aug-2021 5020.50 8000.64 88.13 2.00 327.05 3358.11
   06:20:10.876.27-Aug-2021 5020.50 8000.64 88.13 2.00 327.25 3358.11
   06:20:11.076.27-Aug-2021 5020.50 8001.96 88.13 2.00 327.45 3358.11
   06:20:11.276.27-Aug-2021 5020.50 8002.26 88.13 2.00 327.65 3358.11
   06:20:11.476.27-Aug-2021 5020.50 8002.46 88.13 2.00 327.85 3358.11
   06:20:11.676.27-Aug-2021 5020.50 8002.06 88.13 2.00 328.05 3358.11
   06:20:11.876.27-Aug-2021 5020.50 8002.06 88.13 2.00 328.25 3358.11
   06:20:12.076.27-Aug-2021 5020.50 8001.62 88.13 2.00 328.45 3358.11
   06:20:12.276.27-Aug-2021 5020.50 8005.19 88.13 2.00 328.65 3358.11
   06:20:12.476.27-Aug-2021 5020.50 8003.83 88.13 2.00 328.85 3358.11
   06:20:12.676.27-Aug-2021 5020.50 8000.94 88.13 2.00 329.05 3358.11
   06:20:12.876.27-Aug-2021 5020.50 8000.94 88.13 2.00 329.25 3358.11
   06:20:13.076.27-Aug-2021 5020.50 8000.67 88.13 2.00 329.45 3358.11
   06:20:13.277.27-Aug-2021 5020.50 8001.53 88.13 2.00 329.65 3358.11
   06:20:13.477.27-Aug-2021 5020.50 8000.37 88.13 2.00 329.85 3358.11
   06:20:13.677.27-Aug-2021 5020.50 8000.78 88.13 2.00 330.05 3358.11
   06:20:13.877.27-Aug-2021 5020.50 8000.78 88.13 2.00 330.25 3358.11
   06:20:14.077.27-Aug-2021 5020.50 8000.94 88.13 2.00 330.45 3358.11
   06:20:14.277.27-Aug-2021 5020.50 8001.96 88.13 2.00 330.65 3358.11
   06:20:14.477.27-Aug-2021 5020.50 8002.58 88.13 2.00 330.85 3358.11
   06:20:14.677.27-Aug-2021 5020.50 8002.67 88.13 2.00 331.05 3358.11
   06:20:14.877.27-Aug-2021 5020.50 8002.67 88.13 2.00 331.25 3358.11
   06:20:15.077.27-Aug-2021 5020.50 8002.24 88.13 2.00 331.45 3358.11
   06:20:15.277.27-Aug-2021 5020.50 8001.83 88.13 2.00 331.65 3358.11
   06:20:15.477.27-Aug-2021 5020.50 8001.83 88.13 2.00 331.85 3358.11
   06:20:15.677.27-Aug-2021 5020.50 8008.18 88.13 2.00 332.05 3358.11
   06:20:15.877.27-Aug-2021 5020.50 8008.18 88.13 2.00 332.25 3358.11
   06:20:16.077.27-Aug-2021 5020.50 8000.78 88.13 2.00 332.45 3358.11
   06:20:16.277.27-Aug-2021 5020.50 8003.44 88.13 2.00 332.65 3358.11
   06:20:16.477.27-Aug-2021 5020.50 8002.87 88.13 2.00 332.85 3358.11
   06:20:16.677.27-Aug-2021 5020.50 8001.74 88.13 2.00 333.05 3358.11
   06:20:16.877.27-Aug-2021 5020.50 8001.74 88.13 2.00 333.25 3358.11
   06:20:17.077.27-Aug-2021 5020.50 8000.40 88.13 2.00 333.45 3358.11
   06:20:17.277.27-Aug-2021 5020.50 8000.01 88.13 2.00 333.65 3358.11
   06:20:17.477.27-Aug-2021 5020.50 8008.31 88.13 2.00 333.85 3358.11
   06:20:17.677.27-Aug-2021 5020.50 7998.64 88.13 2.00 334.05 3358.11
   06:20:17.877.27-Aug-2021 5020.50 7998.64 88.13 2.00 334.25 3358.11
   06:20:18.077.27-Aug-2021 5020.50 8001.70 88.13 2.00 334.45 3358.11
   06:20:18.277.27-Aug-2021 5020.50 8009.09 88.13 2.00 334.65 3358.11
   06:20:18.477.27-Aug-2021 5020.50 7999.87 88.13 2.00 334.85 3358.11
   06:20:18.677.27-Aug-2021 5020.50 8002.18 88.13 2.00 335.06 3358.11
   06:20:18.877.27-Aug-2021 5020.50 8002.18 88.13 2.00 335.26 3358.11
   06:20:19.077.27-Aug-2021 5020.50 8000.98 88.13 2.00 335.46 3358.11
   06:20:19.277.27-Aug-2021 5020.50 8000.51 88.13 2.00 335.66 3358.11
   06:20:19.478.27-Aug-2021 5020.50 8001.07 88.13 2.00 335.86 3358.11
   06:20:19.678.27-Aug-2021 5020.50 8001.18 88.13 2.00 336.06 3358.11
   06:20:19.878.27-Aug-2021 5020.50 8001.18 88.13 2.00 336.26 3358.11
   06:20:20.078.27-Aug-2021 5020.50 8001.18 88.13 2.00 336.46 3358.11
   06:20:20.278.27-Aug-2021 5020.50 8001.36 88.13 2.00 336.66 3358.11
   06:20:20.478.27-Aug-2021 5020.50 8002.42 88.13 2.00 336.86 3358.11
   06:20:20.678.27-Aug-2021 5020.50 8002.54 88.13 2.00 337.06 3358.11
   06:20:20.878.27-Aug-2021 5020.50 8002.54 88.13 2.00 337.26 3358.11
   06:20:21.078.27-Aug-2021 5020.50 8002.36 88.13 2.00 337.46 3358.11
   06:20:21.278.27-Aug-2021 5020.50 8001.73 88.13 2.00 337.66 3358.11
   06:20:21.478.27-Aug-2021 5020.50 8004.63 88.13 2.00 337.86 3358.11
   06:20:21.678.27-Aug-2021 5020.50 8003.30 88.13 2.00 338.06 3358.11
   06:20:21.878.27-Aug-2021 5020.50 8003.30 88.13 2.00 338.26 3358.11
   06:20:22.078.27-Aug-2021 5020.50 8002.75 88.13 2.00 338.46 3358.11
   06:20:22.278.27-Aug-2021 5020.50 8001.24 88.13 2.00 338.66 3358.11
   06:20:22.478.27-Aug-2021 5020.50 8000.84 88.13 2.00 338.86 3358.11
   06:20:22.678.27-Aug-2021 5020.50 8001.23 88.13 2.00 339.06 3358.11
   06:20:22.878.27-Aug-2021 5020.50 8001.23 88.13 2.00 339.26 3358.11
   06:20:23.078.27-Aug-2021 5020.50 8000.78 88.13 2.00 339.46 3358.11
   06:20:23.278.27-Aug-2021 5020.50 8001.07 88.13 2.00 339.66 3358.11
   06:20:23.478.27-Aug-2021 5020.50 8001.12 88.13 2.00 339.86 3358.11
   06:20:23.678.27-Aug-2021 5020.50 8002.31 88.13 2.00 340.06 3358.11
   06:20:23.878.27-Aug-2021 5020.50 8002.31 88.13 2.00 340.26 3358.11
   06:20:24.078.27-Aug-2021 5020.50 8002.71 88.13 2.00 340.46 3358.11
   06:20:24.278.27-Aug-2021 5020.50 8002.52 88.13 2.00 340.66 3358.11
   06:20:24.478.27-Aug-2021 5020.50 8002.05 88.13 2.00 340.86 3358.11
   06:20:24.678.27-Aug-2021 5020.50 8002.15 88.13 2.00 341.06 3358.11
   06:20:24.878.27-Aug-2021 5020.50 8002.15 88.13 2.00 341.26 3358.11
   06:20:25.078.27-Aug-2021 5020.50 8005.69 88.13 2.00 341.46 3358.11
   06:20:25.278.27-Aug-2021 5020.50 8003.45 88.13 2.00 341.66 3358.11
   06:20:25.479.27-Aug-2021 5020.50 8001.08 88.13 2.00 341.86 3358.11
   06:20:25.679.27-Aug-2021 5020.50 8003.77 88.13 2.00 342.06 3358.11
   06:20:25.879.27-Aug-2021 5020.50 8003.77 88.13 2.00 342.26 3358.11
   06:20:26.079.27-Aug-2021 5020.50 8002.62 88.13 2.00 342.46 3358.11
   06:20:26.279.27-Aug-2021 5020.50 8000.18 88.13 2.00 342.66 3358.11
   06:20:26.479.27-Aug-2021 5020.50 8000.92 88.13 2.00 342.86 3358.11
   06:20:26.679.27-Aug-2021 5020.50 7999.96 88.13 2.00 343.06 3358.11
   06:20:26.879.27-Aug-2021 5020.50 7999.96 88.13 2.00 343.26 3358.11
   06:20:27.079.27-Aug-2021 5020.50 7999.92 88.13 2.00 343.46 3358.11
   06:20:27.279.27-Aug-2021 5020.50 8001.17 88.13 2.00 343.66 3358.11
   06:20:27.479.27-Aug-2021 5020.50 8001.10 88.13 2.00 343.86 3358.11
   06:20:27.679.27-Aug-2021 5020.50 8003.74 88.13 2.00 344.06 3358.11
   06:20:27.879.27-Aug-2021 5020.50 8003.74 88.13 2.00 344.26 3358.11
   06:20:28.079.27-Aug-2021 5020.50 8002.70 88.13 2.00 344.46 3358.11
   06:20:28.279.27-Aug-2021 5020.50 8001.30 88.13 2.00 344.66 3358.11
   06:20:28.479.27-Aug-2021 5020.50 8000.88 88.13 2.00 344.86 3358.11
