~Version Information
 VERS.                  2.0:   CWLS log ASCII Standard -VERSION 2.0
 WRAP.                   NO:   One line per depth step
~Well Information Block
#MNEM.UNIT     VALUE/NAME     DESCRIPTION
#---------     -----------    ---------------------------
 STRT.S             10:43:45 27-Aug-21: START TIME 10:43:45 27-Aug-21
 STOP.S             10:50:54 27-Aug-21: STOP TIME  10:50:54 27-Aug-21
 STEP.S                   0.00: STEP TIME
 NULL.                 -999.25: NULL VALUE
 DFWT.                        :  DIST FWL TEXT
 DFST.                        :  DIST FSL TEXT
 DMF .             Drill Floor:  DRILL MEAS FROM
 STIM.      20.00.00 17-Aug-21:  START TIME
 DATE.      19.00.00 29-Aug-21:  END TIME
 SPUD.               15-Aug-21:  SPUD DATE
 NREF.                    Grid:  NORTH REFERENCE
 HPTY.       Minimum Curvature:  HOLE POS TYPE
 DMOD.             Drill Model:  DRILL MOD DESC
 SVYD.                  Survey:  SURVEY DESC
 ILTD.               Lithology:  INTERP LTH DESC
 FTOP.          Formation Tops:  FORM TOPS DESC
 RIG .              East Azeri:  RIG NAME
 PDAT.          Mean Sea Level:  PERMANENT DATUM
 FLD .                     ACG:  FIELD NAME
 SON .        AZ-XX-0907180857:  JOB NUMBER
 CTRY.              Azerbaijan:  COUNTRY NAME
 WELL.                    D23x:  WELL NAME
 SRVC.     Turan Drilling and Engineering:  CONTRACTOR
 COMP.     BP Exploration (Caspian Sea) Ltd.:  COMPANY
 UWI .            /AZE00000214:  UNIQUE WELL IDENTIFIER
 API .            /AZE00000214:  API NUMBER
 MDS .        Operator Entered:  MAG DATA SOURCE
 BASE.              Azerbaijan:  LOGGING EQUIPMENT BASE LOCATION
 REGN.                   EESSA:  REGION
 PROV.                    Baku:  PROVINCE
 STAT.                    Baku:  STATE NAME
 MWDS.                    Baku:  MWD SHOP
 DOE .                     N/A:  DOE NUMBER
 DCON.         Sperry Drilling:  DIRECTNL CONTR
 UNIT.                     N/A:  LOGGING EQUIPMENT ID
 WTYP.                Deviated:  WELL TYPE
 CNTY.                        :  COUNTY
 LOC .                        :  LOCATION
 LMF .             Drill Floor:  LOG MEASURED FROM
 TVDS.m                  43.60:  TVDSS CORRECTN
 LATI.deg                40.02:  LATITUDE
 LONG.deg                51.45:  LONGITUDE
 WHNS.m                  -7.04:  WELL HEAD N/S
 WHEW.m                  -0.67:  WELL HEAD E/W
 UTMX.m              538762.90:  UTM X
 UTMY.m             4431871.34:  UTM Y
 DFWL.m                   0.00:  DISTANCE FWL
 DFSL.m                   0.00:  DISTANCE FSL
 SDEP.m                4127.00:  START DEPTH
 TDD .m                5084.50:  TOTAL DEPTH (DRILLER)
 VSDR.deg               140.47:  VERT SEC DIRECT
 GVFD.g                   1.00:  GRAVITY FIELD
 MFLD.nT              50362.00:  MAGNETIC FIELD
 MDIP.deg                59.48:  MAGNETIC DIP
 MDEC.deg                 6.47:  MAGNETIC DECL
 GRDC.deg                 0.31:  GRID CORRECTION
 AZTC.deg                 6.16:  AZM TOTAL CORR
 EPD .m                   0.00:  ELEVATION
 EGL .m                   0.00:  GROUND ELEVATION
 WDMS.m                 151.80:  WD ELEV
 APD .m                  43.60:  DEPTH ABOVE PD
 DEP .m                4092.57:  DEPTH
 AGAP.m                  43.60:  AIR GAP
 VSEW.m                  -0.67:  VERT SEC E/W
 VSNS.m                  -7.04:  VERT SEC N/S
 EKB .m                  43.60:  KB ELEVATION
 EDF .m                  43.60:  DF ELEVATION
 TDL .m                 957.50:  TOTAL DEPTH (LOGGER)
 VSC .                       0:  VS TO CLOSURE
 MAGU.                 1851413:  MAGUTM CHECKSUM
~Parameter Information Block
#MNEM.UNIT       Value        Description
#---------     -----------    ---------------------------
 AV  .mps                 1.50:  Ann Velocity 
 AVMX.mps                 2.00:  Max Ann Veloc 
 AZIF.deg               184.66:  Azm, Final 
 BHAT.        Rotary Steerable:  BHA Type 
 BREV.rev               300.00:  Rev Bit Total 
 BROT.°/30m              -0.50:  Build Rotating 
 BS  .in                  8.50:  Bit Size 
 BSZ .in                  8.50:  Bit Size 
 BTPL.psig              370.00:  Bit Press Loss 
 CABU.                      No:  Customer Abuse 
 CGEO.      Behruz Shahbaliyev:  Customer Geo 
 COMM.                     $K:  Run Comments 1 
 TCS .hr                140.08:  Time Ciculation Ended 
 CV  .mps                 3.00:  Crit Velocity 
 CVMX.mps                 3.20:  Max Crit Veloc 
 DD1 .            Musa Ahmadov:  Direct Drillr 1 
 DD2 .           Hamid Ahmadov:  Direct Drillr 2 
 DDSV.               Geo-Pilot:  DD Service 
 DEFF.%                  98.40:  % Det Eff 
 DLRX.°/30m               3.40:  Dogleg Rot Max 
 DLSO.°/30m               1.45:  Dogleg Oriented 
 DLSX.°/30m               3.40:  Dogleg Str Max 
 DRET.      18.40.00 29-Aug-21:  Drill End Time 
 DRST.      21.00.00 20-Aug-21:  Drill Start Tim 
 DTIM.hr                 69.47:  Time Drilling 
 EDEP.m                5084.50:  End Depth 
 ENG1.      Artemiy Matviyanov:  Engineer 1 
 ENG2.         Almaz Almadatov:  Engineer 2 
 ETIM.      18.40.00 29-Aug-21:  End Time 
 FLOI.gpm               500.00:  Flow In 
 FLON.gpm               400.00:  Flow In Min 
 FLOS.cptm                0.00:  Fluid Loss 
 FLOX.gpm               500.00:  Flow In Max 
 DFT .        Mineral Oil Base:  Mud Type 
 HFLO.                      No:  High Flow 
 HPRE.                      No:  High Pressure 
 HTEM.                      No:  High Temp 
 HYDO.m                   1.80:  Hydro Offset 
 IFIN.deg                25.62:  Inc, Final 
 IMAX.deg                48.69:  Inc Max 
 IMIN.deg                24.01:  Inc Min 
 IMND.m                4962.57:  Inc Min Depth 
 IMXD.m                4119.01:  Inc Max Depth 
 JARR.                      No:  Jarring 
 LETM.      18.40.00 29-Aug-21:  Log End Time 
 LOST.hr                     0:  Lost Rig Time 
 LSTM.      21.00.00 20-Aug-21:  Log Start Time 
 MDCL.ppm             41500.00:  Mud Chlorides 
 MDES.     Inversion Oil/Synthetic:  Mud Desc 
 DFD .sg                  1.56:  Mud Density 
 MDMN.sg                  1.56:  Dens Mud Min 
 MDMX.sg                  1.56:  Dens Mud Max 
 MOIL.                      70:  Run Mud Oil % 
 MOWR.                   70:30:  Run Mud OWR 
 MSND.                     0.2:  Run Mud Sand % 
 MSOL.                    23.3:  Run Mud Solids% 
 DFV .spqt               78.00:  Mud Viscosity 
 MWOD.in                  6.75:  MWD Tool OD 
 MWSI.                      No:  Serv Intrp, MWD 
 OTIM.hr                218.30:  Time Operating 
 PCON.           Look Like New:  Pad Condition 
 PMAX.psia            11015.30:  Press Op, Max 
 PV  .cP                 38.00:  Mud PV 
 RUN .                     300:  Run Number 
 ROPA.m/hr               15.00:  ROP Avg 
 ROPN.m/hr                9.00:  ROP Min 
 ROPX.m/hr               17.00:  ROP Max 
 RPMA.rpm               120.00:  RPM Surface Avg 
 RPMN.rpm                90.00:  RPM Surface Min 
 RPMX.rpm               140.00:  RPM Surface Max 
 RRUN.                     300:  Rig Run Number 
 RTIM.hr                 31.53:  Time Reaming 
 SAZI.deg               331.64:  Azm, Start 
 SDEP.m                4127.00:  Start Depth 
 SIDD.                      No:  Serv Intrp, DD 
 SINC.deg                48.43:  Inc, Start 
 SPPA.psig             5830.00:  SPP Avg 
 SPPN.psig             5600.00:  SPP Min 
 SPPX.psig             5900.00:  SPP Max 
 STIM.      21.00.00 20-Aug-21:  Start Time 
 SVCS.                 DD, MWD:  Services 
 SVER.                    9.20:  Sperry Version 
 TDAT.m                 957.50:  Tot Depth Attmp 
 TDDF.                      No:  Trip for DD 
 TDLG.m                 957.50:  Tot Depth Loggd 
 TFF .                      No:  Trip for Fail 
 TQAA.f-kp               15.00:  Torque Abs Avg 
 TQAN.f-kp               12.00:  Torque Abs Min 
 TQAX.f-kp               19.00:  Torque Abs Max 
 TRRT.°/30m              -3.40:  Turn Rotating 
 MRT .                  EWR-M5:  Maximum Recorded Temperature 
 TTMX.degC              100.00:  Max Tool Temp 
 VS01.                90639251:  Virtual Str1 SN 
 VS02.                90634715:  Virtual Str2 SN 
 VS03.                90652479:  Virtual Str3 SN 
 VS04.                90642262:  Virtual Str4 SN 
 WBMN.klb                 0.00:  WOB Min 
 WITN.           Murad Guliyev:  Customer Rep 
 WITN.          Yashar Gaziyev:  Customer Rep 2 
 WOBA.klb                 9.00:  WOB Avg 
 WOBX.klb                12.00:  WOB Max 
 YP  .lhf2               30.00:  Yield Point 
~Curve Information Block
#MNEM.UNIT                 API CODE     Curve Description
#---------               -----------    ---------------------------
 TIME.HHMMSS            00 000 000 000:  GT Time & Date
 GTDEPTH.m              00 000 000 000:  GT Depth
 GTPQH.psia             00 000 000 000:  GT HR Quartz Pressure
 GTTQ.degC              00 000 000 000:  GT Quartz Temperature
 GTTN.NONE              00 000 000 000:  GT Test Number
 GTET.sec               00 000 000 000:  GT Elapsed Test Time
 GTTVD.m                00 000 000 000:  GT True Vertical Depth
#Other Information
#
#WARRANTY: Halliburton will use its best efforts to furnish customers with 
#accurate information and interpretations that are part of, and incident to, the services 
#provided.  However, Halliburton cannot and does not warrant the accuracy 
#or correctness of such information and interpretations.  Under no circumstances should any 
#such information or interpretation be relied upon as the sole basis for any drilling, 
#completion, production, or financial decision or any procedure involving any risk to the 
#safety of any drilling venture, drilling rig or its crew or any other third party.  The 
#Customer has full responsibility for all drilling, completion and production operation.  
#Halliburton makes no representations or warranties, either expressed or 
#implied, including, but not limited to, the implied warranties of merchantability or fitness 
#for a particular purpose, with respect to the services rendered.  In no event will 
#Halliburton be liable for failure to obtain any particular results or for 
#any damages, including, but not limited to, indirect, special or consequential damages, 
#resulting from the use of any information or interpretation provided by Halliburton.
#
~A           TIME           GTDEPTH  GTPQH  GTTQ  GTTN  GTET   GTTVD  
# ...
   10:48:44.131.27-Aug-2021 4957.82 5167.00 85.91 9.00 298.64 3301.29
   10:48:44.330.27-Aug-2021 4957.82 5167.00 85.91 9.00 298.84 3301.29
   10:48:44.530.27-Aug-2021 4957.82 5167.10 85.91 9.00 299.04 3301.29
   10:48:44.730.27-Aug-2021 4957.82 5167.07 85.91 9.00 299.24 3301.29
   10:48:44.930.27-Aug-2021 4957.82 5167.06 85.91 9.00 299.44 3301.29
   10:48:45.129.27-Aug-2021 4957.82 5167.06 85.91 9.00 299.64 3301.29
   10:48:45.329.27-Aug-2021 4957.82 5167.06 85.91 9.00 299.84 3301.29
   10:48:45.529.27-Aug-2021 4957.82 5167.12 85.91 9.00 300.04 3301.29
   10:48:45.729.27-Aug-2021 4957.82 5167.09 85.91 9.00 300.24 3301.29
   10:48:45.929.27-Aug-2021 4957.82 5167.09 85.91 9.00 300.44 3301.29
   10:48:46.128.27-Aug-2021 4957.82 5167.10 85.91 9.00 300.64 3301.29
   10:48:46.328.27-Aug-2021 4957.82 5167.10 85.91 9.00 300.84 3301.29
   10:48:46.528.27-Aug-2021 4957.82 5167.10 85.91 9.00 301.04 3301.29
   10:48:46.728.27-Aug-2021 4957.82 5167.11 85.91 9.00 301.24 3301.29
   10:48:46.927.27-Aug-2021 4957.82 5167.12 85.91 9.00 301.44 3301.29
   10:48:47.127.27-Aug-2021 4957.82 5167.13 85.91 9.00 301.64 3301.29
   10:48:47.327.27-Aug-2021 4957.82 5167.13 85.91 9.00 301.84 3301.29
   10:48:47.527.27-Aug-2021 4957.82 5167.14 85.91 9.00 302.04 3301.29
   10:48:47.726.27-Aug-2021 4957.82 5167.13 85.91 9.00 302.24 3301.29
   10:48:47.926.27-Aug-2021 4957.82 5167.13 85.91 9.00 302.44 3301.29
   10:48:48.126.27-Aug-2021 4957.82 5167.14 85.91 9.00 302.64 3301.29
   10:48:48.326.27-Aug-2021 4957.82 5167.14 85.91 9.00 302.84 3301.29
   10:48:48.525.27-Aug-2021 4957.82 5167.21 85.91 9.00 303.04 3301.29
   10:48:48.725.27-Aug-2021 4957.82 5167.17 85.91 9.00 303.24 3301.29
   10:48:48.925.27-Aug-2021 4957.82 5167.19 85.91 9.00 303.44 3301.29
   10:48:49.125.27-Aug-2021 4957.82 5167.18 85.91 9.00 303.64 3301.29
   10:48:49.324.27-Aug-2021 4957.82 5167.18 85.91 9.00 303.84 3301.29
   10:48:49.524.27-Aug-2021 4957.82 5167.19 85.91 9.00 304.04 3301.29
   10:48:49.724.27-Aug-2021 4957.82 5167.19 85.91 9.00 304.24 3301.29
   10:48:49.924.27-Aug-2021 4957.82 5167.21 85.91 9.00 304.44 3301.29
   10:48:50.124.27-Aug-2021 4957.82 5167.20 85.91 9.00 304.64 3301.29
   10:48:50.323.27-Aug-2021 4957.82 5167.20 85.91 9.00 304.84 3301.29
   10:48:50.523.27-Aug-2021 4957.82 5167.22 85.91 9.00 305.04 3301.29
   10:48:50.723.27-Aug-2021 4957.82 5167.21 85.91 9.00 305.24 3301.29
   10:48:50.923.27-Aug-2021 4957.82 5167.23 85.91 9.00 305.44 3301.29
   10:48:51.122.27-Aug-2021 4957.82 5167.21 85.91 9.00 305.64 3301.29
   10:48:51.322.27-Aug-2021 4957.82 5167.21 85.91 9.00 305.83 3301.29
   10:48:51.522.27-Aug-2021 4957.82 5167.23 85.91 9.00 306.03 3301.29
   10:48:51.722.27-Aug-2021 4957.82 5167.28 85.91 9.00 306.23 3301.29
   10:48:51.921.27-Aug-2021 4957.82 5167.27 85.91 9.00 306.43 3301.29
   10:48:52.121.27-Aug-2021 4957.82 5167.25 85.91 9.00 306.63 3301.29
   10:48:52.321.27-Aug-2021 4957.82 5167.25 85.91 9.00 306.83 3301.29
   10:48:52.521.27-Aug-2021 4957.82 5167.26 85.91 9.00 307.03 3301.29
   10:48:52.720.27-Aug-2021 4957.82 5167.28 85.91 9.00 307.23 3301.29
   10:48:52.920.27-Aug-2021 4957.82 5167.30 85.91 9.00 307.43 3301.29
   10:48:53.120.27-Aug-2021 4957.82 5167.28 85.91 9.00 307.63 3301.29
   10:48:53.320.27-Aug-2021 4957.82 5167.28 85.91 9.00 307.83 3301.29
   10:48:53.519.27-Aug-2021 4957.82 5167.32 85.91 9.00 308.03 3301.29
   10:48:53.719.27-Aug-2021 4957.82 5167.35 85.91 9.00 308.23 3301.29
   10:48:53.919.27-Aug-2021 4957.82 5167.31 85.91 9.00 308.43 3301.29
   10:48:54.119.27-Aug-2021 4957.82 5167.30 85.91 9.00 308.63 3301.29
   10:48:54.319.27-Aug-2021 4957.82 5167.30 85.91 9.00 308.83 3301.29
   10:48:54.518.27-Aug-2021 4957.82 5167.38 85.91 9.00 309.03 3301.29
   10:48:54.718.27-Aug-2021 4957.82 5167.36 85.91 9.00 309.23 3301.29
   10:48:54.918.27-Aug-2021 4957.82 5167.32 85.91 9.00 309.43 3301.29
   10:48:55.118.27-Aug-2021 4957.82 5167.31 85.91 9.00 309.63 3301.29
   10:48:55.317.27-Aug-2021 4957.82 5167.31 85.91 9.00 309.83 3301.29
   10:48:55.517.27-Aug-2021 4957.82 5167.32 85.91 9.00 310.03 3301.29
   10:48:55.717.27-Aug-2021 4957.82 5167.33 85.91 9.00 310.23 3301.29
   10:48:55.917.27-Aug-2021 4957.82 5167.32 85.91 9.00 310.43 3301.29
   10:48:56.116.27-Aug-2021 4957.82 5167.32 85.91 9.00 310.63 3301.29
   10:48:56.316.27-Aug-2021 4957.82 5167.32 85.91 9.00 310.83 3301.29
   10:48:56.516.27-Aug-2021 4957.82 5167.34 85.91 9.00 311.03 3301.29
   10:48:56.716.27-Aug-2021 4957.82 5167.35 85.91 9.00 311.23 3301.29
   10:48:56.915.27-Aug-2021 4957.82 5167.33 85.91 9.00 311.43 3301.29
   10:48:57.115.27-Aug-2021 4957.82 5167.34 85.91 9.00 311.63 3301.29
   10:48:57.315.27-Aug-2021 4957.82 5167.34 85.91 9.00 311.83 3301.29
   10:48:57.515.27-Aug-2021 4957.82 5167.38 85.91 9.00 312.03 3301.29
   10:48:57.714.27-Aug-2021 4957.82 5167.37 85.91 9.00 312.23 3301.29
   10:48:57.914.27-Aug-2021 4957.82 5167.35 85.91 9.00 312.43 3301.29
   10:48:58.114.27-Aug-2021 4957.82 5167.35 85.91 9.00 312.63 3301.29
   10:48:58.314.27-Aug-2021 4957.82 5167.35 85.91 9.00 312.83 3301.29
   10:48:58.514.27-Aug-2021 4957.82 5167.36 85.91 9.00 313.03 3301.29
   10:48:58.713.27-Aug-2021 4957.82 5167.36 85.91 9.00 313.23 3301.29
   10:48:58.913.27-Aug-2021 4957.82 5167.36 85.91 9.00 313.43 3301.29
   10:48:59.113.27-Aug-2021 4957.82 5167.36 85.91 9.00 313.63 3301.29
   10:48:59.313.27-Aug-2021 4957.82 5167.36 85.91 9.00 313.83 3301.29
   10:48:59.512.27-Aug-2021 4957.82 5167.39 85.91 9.00 314.03 3301.29
   10:48:59.712.27-Aug-2021 4957.82 5167.38 85.91 9.00 314.22 3301.29
   10:48:59.912.27-Aug-2021 4957.82 5167.37 85.91 9.00 314.42 3301.29
   10:49:00.112.27-Aug-2021 4957.82 5167.38 85.91 9.00 314.62 3301.29
   10:49:00.311.27-Aug-2021 4957.82 5167.38 85.91 9.00 314.82 3301.29
   10:49:00.511.27-Aug-2021 4957.82 5167.38 85.91 9.00 315.02 3301.29
   10:49:00.711.27-Aug-2021 4957.82 5167.37 85.91 9.00 315.22 3301.29
   10:49:00.911.27-Aug-2021 4957.82 5167.44 85.91 9.00 315.42 3301.29
   10:49:01.110.27-Aug-2021 4957.82 5167.39 85.91 9.00 315.62 3301.29
   10:49:01.310.27-Aug-2021 4957.82 5167.39 85.91 9.00 315.82 3301.29
   10:49:01.510.27-Aug-2021 4957.82 5167.38 85.91 9.00 316.02 3301.29
   10:49:01.710.27-Aug-2021 4957.82 5167.38 85.91 9.00 316.22 3301.29
   10:49:01.909.27-Aug-2021 4957.82 5167.45 85.91 9.00 316.42 3301.29
   10:49:02.109.27-Aug-2021 4957.82 5167.42 85.91 9.00 316.62 3301.29
   10:49:02.309.27-Aug-2021 4957.82 5167.42 85.91 9.00 316.82 3301.29
   10:49:02.509.27-Aug-2021 4957.82 5167.40 85.91 9.00 317.02 3301.29
   10:49:02.709.27-Aug-2021 4957.82 5167.40 85.91 9.00 317.22 3301.29
   10:49:02.908.27-Aug-2021 4957.82 5167.47 85.91 9.00 317.42 3301.29
   10:49:03.108.27-Aug-2021 4957.82 5167.45 85.91 9.00 317.62 3301.29
   10:49:03.308.27-Aug-2021 4957.82 5167.45 85.91 9.00 317.82 3301.29
   10:49:03.508.27-Aug-2021 4957.82 5167.46 85.91 9.00 318.02 3301.29
   10:49:03.707.27-Aug-2021 4957.82 5167.45 85.91 9.00 318.22 3301.29
   10:49:03.907.27-Aug-2021 4957.82 5167.44 85.91 9.00 318.42 3301.29
   10:49:04.107.27-Aug-2021 4957.82 5167.43 85.91 9.00 318.62 3301.29
   10:49:04.307.27-Aug-2021 4957.82 5167.43 85.91 9.00 318.82 3301.29
   10:49:04.506.27-Aug-2021 4957.82 5167.43 85.91 9.00 319.02 3301.29
   10:49:04.706.27-Aug-2021 4957.82 5167.43 85.91 9.00 319.22 3301.29
   10:49:04.906.27-Aug-2021 4957.82 5167.44 85.91 9.00 319.42 3301.29
   10:49:05.106.27-Aug-2021 4957.82 5167.42 85.91 9.00 319.62 3301.29
   10:49:05.305.27-Aug-2021 4957.82 5167.42 85.91 9.00 319.82 3301.29
   10:49:05.505.27-Aug-2021 4957.82 5167.44 85.91 9.00 320.02 3301.29
   10:49:05.705.27-Aug-2021 4957.82 5167.45 85.91 9.00 320.22 3301.29
   10:49:05.905.27-Aug-2021 4957.82 5167.45 85.91 9.00 320.42 3301.29
   10:49:06.104.27-Aug-2021 4957.82 5167.44 85.91 9.00 320.62 3301.29
   10:49:06.304.27-Aug-2021 4957.82 5167.44 85.91 9.00 320.82 3301.29
   10:49:06.504.27-Aug-2021 4957.82 5167.41 85.91 9.00 321.02 3301.29
   10:49:06.704.27-Aug-2021 4957.82 5167.52 85.91 9.00 321.22 3301.29
   10:49:06.903.27-Aug-2021 4957.82 5167.47 85.91 9.00 321.42 3301.29
