~Version Information
 VERS.                  2.0:   CWLS log ASCII Standard -VERSION 2.0
 WRAP.                   NO:   One line per depth step
~Well Information Block
#MNEM.UNIT     VALUE/NAME     DESCRIPTION
#---------     -----------    ---------------------------
 STRT.S             13:52:51 27-Aug-21: START TIME 13:52:51 27-Aug-21
 STOP.S             13:59:42 27-Aug-21: STOP TIME  13:59:42 27-Aug-21
 STEP.S                   0.00: STEP TIME
 NULL.                 -999.25: NULL VALUE
 DFWT.                        :  DIST FWL TEXT
 DFST.                        :  DIST FSL TEXT
 DMF .             Drill Floor:  DRILL MEAS FROM
 STIM.      20.00.00 17-Aug-21:  START TIME
 DATE.      19.00.00 29-Aug-21:  END TIME
 SPUD.               15-Aug-21:  SPUD DATE
 NREF.                    Grid:  NORTH REFERENCE
 HPTY.       Minimum Curvature:  HOLE POS TYPE
 DMOD.             Drill Model:  DRILL MOD DESC
 SVYD.                  Survey:  SURVEY DESC
 ILTD.               Lithology:  INTERP LTH DESC
 FTOP.          Formation Tops:  FORM TOPS DESC
 RIG .              East Azeri:  RIG NAME
 PDAT.          Mean Sea Level:  PERMANENT DATUM
 FLD .                     ACG:  FIELD NAME
 SON .        AZ-XX-0907180857:  JOB NUMBER
 CTRY.              Azerbaijan:  COUNTRY NAME
 WELL.                    D23x:  WELL NAME
 SRVC.     Turan Drilling and Engineering:  CONTRACTOR
 COMP.     BP Exploration (Caspian Sea) Ltd.:  COMPANY
 UWI .            /AZE00000214:  UNIQUE WELL IDENTIFIER
 API .            /AZE00000214:  API NUMBER
 MDS .        Operator Entered:  MAG DATA SOURCE
 BASE.              Azerbaijan:  LOGGING EQUIPMENT BASE LOCATION
 REGN.                   EESSA:  REGION
 PROV.                    Baku:  PROVINCE
 STAT.                    Baku:  STATE NAME
 MWDS.                    Baku:  MWD SHOP
 DOE .                     N/A:  DOE NUMBER
 DCON.         Sperry Drilling:  DIRECTNL CONTR
 UNIT.                     N/A:  LOGGING EQUIPMENT ID
 WTYP.                Deviated:  WELL TYPE
 CNTY.                        :  COUNTY
 LOC .                        :  LOCATION
 LMF .             Drill Floor:  LOG MEASURED FROM
 TVDS.m                  43.60:  TVDSS CORRECTN
 LATI.deg                40.02:  LATITUDE
 LONG.deg                51.45:  LONGITUDE
 WHNS.m                  -7.04:  WELL HEAD N/S
 WHEW.m                  -0.67:  WELL HEAD E/W
 UTMX.m              538762.90:  UTM X
 UTMY.m             4431871.34:  UTM Y
 DFWL.m                   0.00:  DISTANCE FWL
 DFSL.m                   0.00:  DISTANCE FSL
 SDEP.m                4127.00:  START DEPTH
 TDD .m                5084.50:  TOTAL DEPTH (DRILLER)
 VSDR.deg               140.47:  VERT SEC DIRECT
 GVFD.g                   1.00:  GRAVITY FIELD
 MFLD.nT              50362.00:  MAGNETIC FIELD
 MDIP.deg                59.48:  MAGNETIC DIP
 MDEC.deg                 6.47:  MAGNETIC DECL
 GRDC.deg                 0.31:  GRID CORRECTION
 AZTC.deg                 6.16:  AZM TOTAL CORR
 EPD .m                   0.00:  ELEVATION
 EGL .m                   0.00:  GROUND ELEVATION
 WDMS.m                 151.80:  WD ELEV
 APD .m                  43.60:  DEPTH ABOVE PD
 DEP .m                4092.57:  DEPTH
 AGAP.m                  43.60:  AIR GAP
 VSEW.m                  -0.67:  VERT SEC E/W
 VSNS.m                  -7.04:  VERT SEC N/S
 EKB .m                  43.60:  KB ELEVATION
 EDF .m                  43.60:  DF ELEVATION
 TDL .m                 957.50:  TOTAL DEPTH (LOGGER)
 VSC .                       0:  VS TO CLOSURE
 MAGU.                 1851413:  MAGUTM CHECKSUM
~Parameter Information Block
#MNEM.UNIT       Value        Description
#---------     -----------    ---------------------------
 AV  .mps                 1.50:  Ann Velocity 
 AVMX.mps                 2.00:  Max Ann Veloc 
 AZIF.deg               184.66:  Azm, Final 
 BHAT.        Rotary Steerable:  BHA Type 
 BREV.rev               300.00:  Rev Bit Total 
 BROT.°/30m              -0.50:  Build Rotating 
 BS  .in                  8.50:  Bit Size 
 BSZ .in                  8.50:  Bit Size 
 BTPL.psig              370.00:  Bit Press Loss 
 CABU.                      No:  Customer Abuse 
 CGEO.      Behruz Shahbaliyev:  Customer Geo 
 COMM.                     ÄÆy:  Run Comments 1 
 TCS .hr                140.08:  Time Ciculation Ended 
 CV  .mps                 3.00:  Crit Velocity 
 CVMX.mps                 3.20:  Max Crit Veloc 
 DD1 .            Musa Ahmadov:  Direct Drillr 1 
 DD2 .           Hamid Ahmadov:  Direct Drillr 2 
 DDSV.               Geo-Pilot:  DD Service 
 DEFF.%                  98.40:  % Det Eff 
 DLRX.°/30m               3.40:  Dogleg Rot Max 
 DLSO.°/30m               1.45:  Dogleg Oriented 
 DLSX.°/30m               3.40:  Dogleg Str Max 
 DRET.      18.40.00 29-Aug-21:  Drill End Time 
 DRST.      21.00.00 20-Aug-21:  Drill Start Tim 
 DTIM.hr                 69.47:  Time Drilling 
 EDEP.m                5084.50:  End Depth 
 ENG1.      Artemiy Matviyanov:  Engineer 1 
 ENG2.         Almaz Almadatov:  Engineer 2 
 ETIM.      18.40.00 29-Aug-21:  End Time 
 FLOI.gpm               500.00:  Flow In 
 FLON.gpm               400.00:  Flow In Min 
 FLOS.cptm                0.00:  Fluid Loss 
 FLOX.gpm               500.00:  Flow In Max 
 DFT .        Mineral Oil Base:  Mud Type 
 HFLO.                      No:  High Flow 
 HPRE.                      No:  High Pressure 
 HTEM.                      No:  High Temp 
 HYDO.m                   1.80:  Hydro Offset 
 IFIN.deg                25.62:  Inc, Final 
 IMAX.deg                48.69:  Inc Max 
 IMIN.deg                24.01:  Inc Min 
 IMND.m                4962.57:  Inc Min Depth 
 IMXD.m                4119.01:  Inc Max Depth 
 JARR.                      No:  Jarring 
 LETM.      18.40.00 29-Aug-21:  Log End Time 
 LOST.hr                     0:  Lost Rig Time 
 LSTM.      21.00.00 20-Aug-21:  Log Start Time 
 MDCL.ppm             41500.00:  Mud Chlorides 
 MDES.     Inversion Oil/Synthetic:  Mud Desc 
 DFD .sg                  1.56:  Mud Density 
 MDMN.sg                  1.56:  Dens Mud Min 
 MDMX.sg                  1.56:  Dens Mud Max 
 MOIL.                      70:  Run Mud Oil % 
 MOWR.                   70:30:  Run Mud OWR 
 MSND.                     0.2:  Run Mud Sand % 
 MSOL.                    23.3:  Run Mud Solids% 
 DFV .spqt               78.00:  Mud Viscosity 
 MWOD.in                  6.75:  MWD Tool OD 
 MWSI.                      No:  Serv Intrp, MWD 
 OTIM.hr                218.30:  Time Operating 
 PCON.           Look Like New:  Pad Condition 
 PMAX.psia            11015.30:  Press Op, Max 
 PV  .cP                 38.00:  Mud PV 
 RUN .                     300:  Run Number 
 ROPA.m/hr               15.00:  ROP Avg 
 ROPN.m/hr                9.00:  ROP Min 
 ROPX.m/hr               17.00:  ROP Max 
 RPMA.rpm               120.00:  RPM Surface Avg 
 RPMN.rpm                90.00:  RPM Surface Min 
 RPMX.rpm               140.00:  RPM Surface Max 
 RRUN.                     300:  Rig Run Number 
 RTIM.hr                 31.53:  Time Reaming 
 SAZI.deg               331.64:  Azm, Start 
 SDEP.m                4127.00:  Start Depth 
 SIDD.                      No:  Serv Intrp, DD 
 SINC.deg                48.43:  Inc, Start 
 SPPA.psig             5830.00:  SPP Avg 
 SPPN.psig             5600.00:  SPP Min 
 SPPX.psig             5900.00:  SPP Max 
 STIM.      21.00.00 20-Aug-21:  Start Time 
 SVCS.                 DD, MWD:  Services 
 SVER.                    9.20:  Sperry Version 
 TDAT.m                 957.50:  Tot Depth Attmp 
 TDDF.                      No:  Trip for DD 
 TDLG.m                 957.50:  Tot Depth Loggd 
 TFF .                      No:  Trip for Fail 
 TQAA.f-kp               15.00:  Torque Abs Avg 
 TQAN.f-kp               12.00:  Torque Abs Min 
 TQAX.f-kp               19.00:  Torque Abs Max 
 TRRT.°/30m              -3.40:  Turn Rotating 
 MRT .                  EWR-M5:  Maximum Recorded Temperature 
 TTMX.degC              100.00:  Max Tool Temp 
 VS01.                90639251:  Virtual Str1 SN 
 VS02.                90634715:  Virtual Str2 SN 
 VS03.                90652479:  Virtual Str3 SN 
 VS04.                90642262:  Virtual Str4 SN 
 WBMN.klb                 0.00:  WOB Min 
 WITN.           Murad Guliyev:  Customer Rep 
 WITN.          Yashar Gaziyev:  Customer Rep 2 
 WOBA.klb                 9.00:  WOB Avg 
 WOBX.klb                12.00:  WOB Max 
 YP  .lhf2               30.00:  Yield Point 
~Curve Information Block
#MNEM.UNIT                 API CODE     Curve Description
#---------               -----------    ---------------------------
 TIME.HHMMSS            00 000 000 000:  GT Time & Date
 GTDEPTH.m              00 000 000 000:  GT Depth
 GTPQH.psia             00 000 000 000:  GT HR Quartz Pressure
 GTTQ.degC              00 000 000 000:  GT Quartz Temperature
 GTTN.NONE              00 000 000 000:  GT Test Number
 GTET.sec               00 000 000 000:  GT Elapsed Test Time
 GTTVD.m                00 000 000 000:  GT True Vertical Depth
#Other Information
#
#WARRANTY: Halliburton will use its best efforts to furnish customers with 
#accurate information and interpretations that are part of, and incident to, the services 
#provided.  However, Halliburton cannot and does not warrant the accuracy 
#or correctness of such information and interpretations.  Under no circumstances should any 
#such information or interpretation be relied upon as the sole basis for any drilling, 
#completion, production, or financial decision or any procedure involving any risk to the 
#safety of any drilling venture, drilling rig or its crew or any other third party.  The 
#Customer has full responsibility for all drilling, completion and production operation.  
#Halliburton makes no representations or warranties, either expressed or 
#implied, including, but not limited to, the implied warranties of merchantability or fitness 
#for a particular purpose, with respect to the services rendered.  In no event will 
#Halliburton be liable for failure to obtain any particular results or for 
#any damages, including, but not limited to, indirect, special or consequential damages, 
#resulting from the use of any information or interpretation provided by Halliburton.
#
~A           TIME           GTDEPTH  GTPQH  GTTQ  GTTN   GTET   GTTVD  
   13:52:51.000.27-Aug-2021 4859.00 7646.12 84.61 14.00   0.00 3211.42
   13:52:51.200.27-Aug-2021 4859.00 7646.12 84.61 14.00   0.20 3211.42
   13:52:51.400.27-Aug-2021 4859.00 7647.80 84.61 14.00   0.40 3211.42
   13:52:51.600.27-Aug-2021 4859.00 7645.80 84.61 14.00   0.60 3211.42
   13:52:51.800.27-Aug-2021 4859.00 7645.10 84.61 14.00   0.80 3211.42
   13:52:52.000.27-Aug-2021 4859.00 7645.71 84.61 14.00   1.00 3211.42
   13:52:52.200.27-Aug-2021 4859.00 7645.71 84.61 14.00   1.20 3211.42
   13:52:52.400.27-Aug-2021 4859.00 7644.36 84.61 14.00   1.40 3211.42
   13:52:52.600.27-Aug-2021 4859.00 7644.64 84.61 14.00   1.60 3211.42
   13:52:52.800.27-Aug-2021 4859.00 7644.47 84.61 14.00   1.80 3211.42
   13:52:53.000.27-Aug-2021 4859.00 7645.32 84.61 14.00   2.00 3211.42
   13:52:53.200.27-Aug-2021 4859.00 7645.32 84.61 14.00   2.20 3211.42
   13:52:53.400.27-Aug-2021 4859.00 7646.20 84.61 14.00   2.40 3211.42
   13:52:53.600.27-Aug-2021 4859.00 7646.50 84.61 14.00   2.60 3211.42
   13:52:53.800.27-Aug-2021 4859.00 7647.08 84.61 14.00   2.80 3211.42
   13:52:54.000.27-Aug-2021 4859.00 7647.07 84.61 14.00   3.00 3211.42
   13:52:54.200.27-Aug-2021 4859.00 7647.07 84.61 14.00   3.20 3211.42
   13:52:54.400.27-Aug-2021 4859.00 7647.30 84.61 14.00   3.40 3211.42
   13:52:54.600.27-Aug-2021 4859.00 7647.37 84.61 14.00   3.60 3211.42
   13:52:54.800.27-Aug-2021 4859.00 7647.46 84.61 14.00   3.80 3211.42
   13:52:55.000.27-Aug-2021 4859.00 7650.49 84.61 14.00   4.00 3211.42
   13:52:55.200.27-Aug-2021 4859.00 7650.49 84.61 14.00   4.20 3211.42
   13:52:55.400.27-Aug-2021 4859.00 7648.94 84.61 14.00   4.40 3211.42
   13:52:55.600.27-Aug-2021 4859.00 7648.38 84.61 14.00   4.60 3211.42
   13:52:55.800.27-Aug-2021 4859.00 7648.56 84.61 14.00   4.80 3211.42
   13:52:56.000.27-Aug-2021 4859.00 7651.78 84.61 14.00   5.00 3211.42
   13:52:56.200.27-Aug-2021 4859.00 7651.78 84.61 14.00   5.20 3211.42
   13:52:56.400.27-Aug-2021 4859.00 7651.78 84.61 14.00   5.40 3211.42
   13:52:56.600.27-Aug-2021 4859.00 7650.10 84.61 14.00   5.60 3211.42
   13:52:56.800.27-Aug-2021 4859.00 7650.13 84.61 14.00   5.80 3211.42
   13:52:57.000.27-Aug-2021 4859.00 7650.42 84.61 14.00   6.00 3211.42
   13:52:57.200.27-Aug-2021 4859.00 7650.42 84.61 14.00   6.20 3211.42
   13:52:57.400.27-Aug-2021 4859.00 7651.33 84.61 14.00   6.40 3211.42
   13:52:57.600.27-Aug-2021 4859.00 7652.54 84.61 14.00   6.60 3211.42
   13:52:57.800.27-Aug-2021 4859.00 7652.05 84.61 14.00   6.80 3211.42
   13:52:58.000.27-Aug-2021 4859.00 7652.18 84.61 14.00   7.00 3211.42
   13:52:58.200.27-Aug-2021 4859.00 7652.18 84.61 14.00   7.20 3211.42
   13:52:58.400.27-Aug-2021 4859.00 7652.54 84.61 14.00   7.40 3211.42
   13:52:58.600.27-Aug-2021 4859.00 7657.48 84.61 14.00   7.60 3211.42
   13:52:58.800.27-Aug-2021 4859.00 7651.58 84.61 14.00   7.80 3211.42
   13:52:59.000.27-Aug-2021 4859.00 7654.46 84.61 14.00   8.00 3211.42
   13:52:59.200.27-Aug-2021 4859.00 7654.46 84.61 14.00   8.20 3211.42
   13:52:59.400.27-Aug-2021 4859.00 7656.55 84.61 14.00   8.40 3211.42
   13:52:59.600.27-Aug-2021 4859.00 7654.58 84.61 14.00   8.60 3211.42
   13:52:59.800.27-Aug-2021 4859.00 7654.36 84.61 14.00   8.80 3211.42
   13:53:00.000.27-Aug-2021 4859.00 7655.09 84.61 14.00   9.00 3211.42
   13:53:00.200.27-Aug-2021 4859.00 7655.09 84.61 14.00   9.20 3211.42
   13:53:00.400.27-Aug-2021 4859.00 7652.50 84.61 14.00   9.40 3211.42
   13:53:00.600.27-Aug-2021 4859.00 7655.50 84.61 14.00   9.60 3211.42
   13:53:00.800.27-Aug-2021 4859.00 7654.40 84.61 14.00   9.80 3211.42
   13:53:01.000.27-Aug-2021 4859.00 7654.96 84.61 14.00  10.00 3211.42
   13:53:01.200.27-Aug-2021 4859.00 7654.96 84.61 14.00  10.20 3211.42
   13:53:01.400.27-Aug-2021 4859.00 7657.28 84.61 14.00  10.40 3211.42
   13:53:01.600.27-Aug-2021 4859.00 7655.84 84.61 14.00  10.60 3211.42
   13:53:01.800.27-Aug-2021 4859.00 7655.72 84.61 14.00  10.80 3211.42
   13:53:02.000.27-Aug-2021 4859.00 7656.85 84.61 14.00  11.00 3211.42
   13:53:02.200.27-Aug-2021 4859.00 7656.85 84.61 14.00  11.20 3211.42
   13:53:02.400.27-Aug-2021 4859.00 7656.25 84.61 14.00  11.40 3211.42
   13:53:02.600.27-Aug-2021 4859.00 7656.28 84.60 14.00  11.60 3211.42
   13:53:02.800.27-Aug-2021 4859.00 7656.18 84.60 14.00  11.80 3211.42
   13:53:03.000.27-Aug-2021 4859.00 7656.84 84.60 14.00  12.00 3211.42
   13:53:03.200.27-Aug-2021 4859.00 7656.84 84.60 14.00  12.20 3211.42
   13:53:03.400.27-Aug-2021 4859.00 7657.62 84.60 14.00  12.40 3211.42
   13:53:03.600.27-Aug-2021 4859.00 7657.84 84.60 14.00  12.60 3211.42
   13:53:03.800.27-Aug-2021 4859.00 7658.34 84.60 14.00  12.80 3211.42
   13:53:04.000.27-Aug-2021 4859.00 7658.47 84.60 14.00  13.00 3211.42
   13:53:04.200.27-Aug-2021 4859.00 7658.47 84.60 14.00  13.20 3211.42
   13:53:04.400.27-Aug-2021 4859.00 7658.92 84.60 14.00  13.40 3211.42
   13:53:04.600.27-Aug-2021 4859.00 7659.10 84.60 14.00  13.60 3211.42
   13:53:04.800.27-Aug-2021 4859.00 7659.32 84.60 14.00  13.80 3211.42
   13:53:05.000.27-Aug-2021 4859.00 7659.46 84.60 14.00  14.00 3211.42
   13:53:05.200.27-Aug-2021 4859.00 7659.46 84.60 14.00  14.20 3211.42
   13:53:05.400.27-Aug-2021 4859.00 7658.09 84.60 14.00  14.40 3211.42
   13:53:05.600.27-Aug-2021 4859.00 7661.01 84.60 14.00  14.60 3211.42
   13:53:05.800.27-Aug-2021 4859.00 7660.48 84.60 14.00  14.80 3211.42
   13:53:06.000.27-Aug-2021 4859.00 7660.70 84.60 14.00  15.00 3211.42
   13:53:06.200.27-Aug-2021 4859.00 7660.70 84.60 14.00  15.20 3211.42
   13:53:06.400.27-Aug-2021 4859.00 7660.83 84.60 14.00  15.40 3211.42
   13:53:06.600.27-Aug-2021 4859.00 7660.88 84.60 14.00  15.60 3211.42
   13:53:06.800.27-Aug-2021 4859.00 7661.33 84.60 14.00  15.80 3211.42
   13:53:07.000.27-Aug-2021 4859.00 7661.93 84.60 14.00  16.00 3211.42
   13:53:07.200.27-Aug-2021 4859.00 7661.93 84.60 14.00  16.20 3211.42
   13:53:07.400.27-Aug-2021 4859.00 7662.21 84.60 14.00  16.40 3211.42
   13:53:07.600.27-Aug-2021 4859.00 7662.68 84.60 14.00  16.60 3211.42
   13:53:07.800.27-Aug-2021 4859.00 7662.63 84.60 14.00  16.80 3211.42
   13:53:08.000.27-Aug-2021 4859.00 7662.74 84.60 14.00  17.00 3211.42
   13:53:08.200.27-Aug-2021 4859.00 7662.74 84.60 14.00  17.20 3211.42
   13:53:08.400.27-Aug-2021 4859.00 7667.85 84.60 14.00  17.40 3211.42
   13:53:08.600.27-Aug-2021 4859.00 7661.26 84.60 14.00  17.60 3211.42
   13:53:08.800.27-Aug-2021 4859.00 7664.06 84.60 14.00  17.80 3211.42
   13:53:09.000.27-Aug-2021 4859.00 7663.56 84.60 14.00  18.00 3211.42
   13:53:09.200.27-Aug-2021 4859.00 7663.56 84.60 14.00  18.20 3211.42
   13:53:09.400.27-Aug-2021 4859.00 7663.47 84.60 14.00  18.40 3211.42
   13:53:09.600.27-Aug-2021 4859.00 7668.59 84.60 14.00  18.60 3211.42
   13:53:09.800.27-Aug-2021 4859.00 7662.06 84.60 14.00  18.80 3211.42
   13:53:10.000.27-Aug-2021 4859.00 7665.13 84.60 14.00  19.00 3211.42
   13:53:10.200.27-Aug-2021 4859.00 7665.13 84.60 14.00  19.20 3211.42
   13:53:10.400.27-Aug-2021 4859.00 7665.02 84.60 14.00  19.40 3211.42
   13:53:10.600.27-Aug-2021 4859.00 7665.01 84.60 14.00  19.60 3211.42
   13:53:10.800.27-Aug-2021 4859.00 7668.02 84.60 14.00  19.80 3211.42
   13:53:11.000.27-Aug-2021 4859.00 7665.06 84.60 14.00  20.00 3211.42
   13:53:11.200.27-Aug-2021 4859.00 7665.06 84.60 14.00  20.20 3211.42
   13:53:11.400.27-Aug-2021 4859.00 7665.78 84.60 14.00  20.40 3211.42
   13:53:11.600.27-Aug-2021 4859.00 7665.73 84.60 14.00  20.60 3211.42
   13:53:11.800.27-Aug-2021 4859.00 7671.51 84.60 14.00  20.80 3211.42
   13:53:12.000.27-Aug-2021 4859.00 7663.31 84.60 14.00  21.00 3211.42
   13:53:12.200.27-Aug-2021 4859.00 7663.31 84.60 14.00  21.20 3211.42
   13:53:12.400.27-Aug-2021 4859.00 7667.18 84.60 14.00  21.40 3211.42
   13:53:12.600.27-Aug-2021 4859.00 7671.98 84.60 14.00  21.60 3211.42
   13:53:12.800.27-Aug-2021 4859.00 7664.90 84.60 14.00  21.80 3211.42
   13:53:13.000.27-Aug-2021 4859.00 7668.51 84.60 14.00  22.00 3211.42
   13:53:13.200.27-Aug-2021 4859.00 7668.51 84.60 14.00  22.20 3211.42
   13:53:13.400.27-Aug-2021 4859.00 7667.70 84.60 14.00  22.40 3211.42
