~Version Information
 VERS.                  2.0:   CWLS log ASCII Standard -VERSION 2.0
 WRAP.                   NO:   One line per depth step
~Well Information Block
#MNEM.UNIT     VALUE/NAME     DESCRIPTION
#---------     -----------    ---------------------------
 STRT.S             11:48:55 27-Aug-21: START TIME 11:48:55 27-Aug-21
 STOP.S             11:56:03 27-Aug-21: STOP TIME  11:56:03 27-Aug-21
 STEP.S                   0.00: STEP TIME
 NULL.                 -999.25: NULL VALUE
 DFWT.                        :  DIST FWL TEXT
 DFST.                        :  DIST FSL TEXT
 DMF .             Drill Floor:  DRILL MEAS FROM
 STIM.      20.00.00 17-Aug-21:  START TIME
 DATE.      19.00.00 29-Aug-21:  END TIME
 SPUD.               15-Aug-21:  SPUD DATE
 NREF.                    Grid:  NORTH REFERENCE
 HPTY.       Minimum Curvature:  HOLE POS TYPE
 DMOD.             Drill Model:  DRILL MOD DESC
 SVYD.                  Survey:  SURVEY DESC
 ILTD.               Lithology:  INTERP LTH DESC
 FTOP.          Formation Tops:  FORM TOPS DESC
 RIG .              East Azeri:  RIG NAME
 PDAT.          Mean Sea Level:  PERMANENT DATUM
 FLD .                     ACG:  FIELD NAME
 SON .        AZ-XX-0907180857:  JOB NUMBER
 CTRY.              Azerbaijan:  COUNTRY NAME
 WELL.                    D23x:  WELL NAME
 SRVC.     Turan Drilling and Engineering:  CONTRACTOR
 COMP.     BP Exploration (Caspian Sea) Ltd.:  COMPANY
 UWI .            /AZE00000214:  UNIQUE WELL IDENTIFIER
 API .            /AZE00000214:  API NUMBER
 MDS .        Operator Entered:  MAG DATA SOURCE
 BASE.              Azerbaijan:  LOGGING EQUIPMENT BASE LOCATION
 REGN.                   EESSA:  REGION
 PROV.                    Baku:  PROVINCE
 STAT.                    Baku:  STATE NAME
 MWDS.                    Baku:  MWD SHOP
 DOE .                     N/A:  DOE NUMBER
 DCON.         Sperry Drilling:  DIRECTNL CONTR
 UNIT.                     N/A:  LOGGING EQUIPMENT ID
 WTYP.                Deviated:  WELL TYPE
 CNTY.                        :  COUNTY
 LOC .                        :  LOCATION
 LMF .             Drill Floor:  LOG MEASURED FROM
 TVDS.m                  43.60:  TVDSS CORRECTN
 LATI.deg                40.02:  LATITUDE
 LONG.deg                51.45:  LONGITUDE
 WHNS.m                  -7.04:  WELL HEAD N/S
 WHEW.m                  -0.67:  WELL HEAD E/W
 UTMX.m              538762.90:  UTM X
 UTMY.m             4431871.34:  UTM Y
 DFWL.m                   0.00:  DISTANCE FWL
 DFSL.m                   0.00:  DISTANCE FSL
 SDEP.m                4127.00:  START DEPTH
 TDD .m                5084.50:  TOTAL DEPTH (DRILLER)
 VSDR.deg               140.47:  VERT SEC DIRECT
 GVFD.g                   1.00:  GRAVITY FIELD
 MFLD.nT              50362.00:  MAGNETIC FIELD
 MDIP.deg                59.48:  MAGNETIC DIP
 MDEC.deg                 6.47:  MAGNETIC DECL
 GRDC.deg                 0.31:  GRID CORRECTION
 AZTC.deg                 6.16:  AZM TOTAL CORR
 EPD .m                   0.00:  ELEVATION
 EGL .m                   0.00:  GROUND ELEVATION
 WDMS.m                 151.80:  WD ELEV
 APD .m                  43.60:  DEPTH ABOVE PD
 DEP .m                4092.57:  DEPTH
 AGAP.m                  43.60:  AIR GAP
 VSEW.m                  -0.67:  VERT SEC E/W
 VSNS.m                  -7.04:  VERT SEC N/S
 EKB .m                  43.60:  KB ELEVATION
 EDF .m                  43.60:  DF ELEVATION
 TDL .m                 957.50:  TOTAL DEPTH (LOGGER)
 VSC .                       0:  VS TO CLOSURE
 MAGU.                 1851413:  MAGUTM CHECKSUM
~Parameter Information Block
#MNEM.UNIT       Value        Description
#---------     -----------    ---------------------------
 AV  .mps                 1.50:  Ann Velocity 
 AVMX.mps                 2.00:  Max Ann Veloc 
 AZIF.deg               184.66:  Azm, Final 
 BHAT.        Rotary Steerable:  BHA Type 
 BREV.rev               300.00:  Rev Bit Total 
 BROT.°/30m              -0.50:  Build Rotating 
 BS  .in                  8.50:  Bit Size 
 BSZ .in                  8.50:  Bit Size 
 BTPL.psig              370.00:  Bit Press Loss 
 CABU.                      No:  Customer Abuse 
 CGEO.      Behruz Shahbaliyev:  Customer Geo 
 COMM.                     L*e:  Run Comments 1 
 TCS .hr                140.08:  Time Ciculation Ended 
 CV  .mps                 3.00:  Crit Velocity 
 CVMX.mps                 3.20:  Max Crit Veloc 
 DD1 .            Musa Ahmadov:  Direct Drillr 1 
 DD2 .           Hamid Ahmadov:  Direct Drillr 2 
 DDSV.               Geo-Pilot:  DD Service 
 DEFF.%                  98.40:  % Det Eff 
 DLRX.°/30m               3.40:  Dogleg Rot Max 
 DLSO.°/30m               1.45:  Dogleg Oriented 
 DLSX.°/30m               3.40:  Dogleg Str Max 
 DRET.      18.40.00 29-Aug-21:  Drill End Time 
 DRST.      21.00.00 20-Aug-21:  Drill Start Tim 
 DTIM.hr                 69.47:  Time Drilling 
 EDEP.m                5084.50:  End Depth 
 ENG1.      Artemiy Matviyanov:  Engineer 1 
 ENG2.         Almaz Almadatov:  Engineer 2 
 ETIM.      18.40.00 29-Aug-21:  End Time 
 FLOI.gpm               500.00:  Flow In 
 FLON.gpm               400.00:  Flow In Min 
 FLOS.cptm                0.00:  Fluid Loss 
 FLOX.gpm               500.00:  Flow In Max 
 DFT .        Mineral Oil Base:  Mud Type 
 HFLO.                      No:  High Flow 
 HPRE.                      No:  High Pressure 
 HTEM.                      No:  High Temp 
 HYDO.m                   1.80:  Hydro Offset 
 IFIN.deg                25.62:  Inc, Final 
 IMAX.deg                48.69:  Inc Max 
 IMIN.deg                24.01:  Inc Min 
 IMND.m                4962.57:  Inc Min Depth 
 IMXD.m                4119.01:  Inc Max Depth 
 JARR.                      No:  Jarring 
 LETM.      18.40.00 29-Aug-21:  Log End Time 
 LOST.hr                     0:  Lost Rig Time 
 LSTM.      21.00.00 20-Aug-21:  Log Start Time 
 MDCL.ppm             41500.00:  Mud Chlorides 
 MDES.     Inversion Oil/Synthetic:  Mud Desc 
 DFD .sg                  1.56:  Mud Density 
 MDMN.sg                  1.56:  Dens Mud Min 
 MDMX.sg                  1.56:  Dens Mud Max 
 MOIL.                      70:  Run Mud Oil % 
 MOWR.                   70:30:  Run Mud OWR 
 MSND.                     0.2:  Run Mud Sand % 
 MSOL.                    23.3:  Run Mud Solids% 
 DFV .spqt               78.00:  Mud Viscosity 
 MWOD.in                  6.75:  MWD Tool OD 
 MWSI.                      No:  Serv Intrp, MWD 
 OTIM.hr                218.30:  Time Operating 
 PCON.           Look Like New:  Pad Condition 
 PMAX.psia            11015.30:  Press Op, Max 
 PV  .cP                 38.00:  Mud PV 
 RUN .                     300:  Run Number 
 ROPA.m/hr               15.00:  ROP Avg 
 ROPN.m/hr                9.00:  ROP Min 
 ROPX.m/hr               17.00:  ROP Max 
 RPMA.rpm               120.00:  RPM Surface Avg 
 RPMN.rpm                90.00:  RPM Surface Min 
 RPMX.rpm               140.00:  RPM Surface Max 
 RRUN.                     300:  Rig Run Number 
 RTIM.hr                 31.53:  Time Reaming 
 SAZI.deg               331.64:  Azm, Start 
 SDEP.m                4127.00:  Start Depth 
 SIDD.                      No:  Serv Intrp, DD 
 SINC.deg                48.43:  Inc, Start 
 SPPA.psig             5830.00:  SPP Avg 
 SPPN.psig             5600.00:  SPP Min 
 SPPX.psig             5900.00:  SPP Max 
 STIM.      21.00.00 20-Aug-21:  Start Time 
 SVCS.                 DD, MWD:  Services 
 SVER.                    9.20:  Sperry Version 
 TDAT.m                 957.50:  Tot Depth Attmp 
 TDDF.                      No:  Trip for DD 
 TDLG.m                 957.50:  Tot Depth Loggd 
 TFF .                      No:  Trip for Fail 
 TQAA.f-kp               15.00:  Torque Abs Avg 
 TQAN.f-kp               12.00:  Torque Abs Min 
 TQAX.f-kp               19.00:  Torque Abs Max 
 TRRT.°/30m              -3.40:  Turn Rotating 
 MRT .                  EWR-M5:  Maximum Recorded Temperature 
 TTMX.degC              100.00:  Max Tool Temp 
 VS01.                90639251:  Virtual Str1 SN 
 VS02.                90634715:  Virtual Str2 SN 
 VS03.                90652479:  Virtual Str3 SN 
 VS04.                90642262:  Virtual Str4 SN 
 WBMN.klb                 0.00:  WOB Min 
 WITN.           Murad Guliyev:  Customer Rep 
 WITN.          Yashar Gaziyev:  Customer Rep 2 
 WOBA.klb                 9.00:  WOB Avg 
 WOBX.klb                12.00:  WOB Max 
 YP  .lhf2               30.00:  Yield Point 
~Curve Information Block
#MNEM.UNIT                 API CODE     Curve Description
#---------               -----------    ---------------------------
 TIME.HHMMSS            00 000 000 000:  GT Time & Date
 GTDEPTH.m              00 000 000 000:  GT Depth
 GTPQH.psia             00 000 000 000:  GT HR Quartz Pressure
 GTTQ.degC              00 000 000 000:  GT Quartz Temperature
 GTTN.NONE              00 000 000 000:  GT Test Number
 GTET.sec               00 000 000 000:  GT Elapsed Test Time
 GTTVD.m                00 000 000 000:  GT True Vertical Depth
#Other Information
#
#WARRANTY: Halliburton will use its best efforts to furnish customers with 
#accurate information and interpretations that are part of, and incident to, the services 
#provided.  However, Halliburton cannot and does not warrant the accuracy 
#or correctness of such information and interpretations.  Under no circumstances should any 
#such information or interpretation be relied upon as the sole basis for any drilling, 
#completion, production, or financial decision or any procedure involving any risk to the 
#safety of any drilling venture, drilling rig or its crew or any other third party.  The 
#Customer has full responsibility for all drilling, completion and production operation.  
#Halliburton makes no representations or warranties, either expressed or 
#implied, including, but not limited to, the implied warranties of merchantability or fitness 
#for a particular purpose, with respect to the services rendered.  In no event will 
#Halliburton be liable for failure to obtain any particular results or for 
#any damages, including, but not limited to, indirect, special or consequential damages, 
#resulting from the use of any information or interpretation provided by Halliburton.
#
~A           TIME           GTDEPTH  GTPQH  GTTQ  GTTN   GTET   GTTVD  
# ...
   11:50:26.080.27-Aug-2021 4914.00 7807.08 85.30 11.00  90.43 3261.31
   11:50:26.280.27-Aug-2021 4914.00 7806.55 85.30 11.00  90.63 3261.31
   11:50:26.480.27-Aug-2021 4914.00 7811.85 85.30 11.00  90.83 3261.31
   11:50:26.680.27-Aug-2021 4914.00 7804.17 85.30 11.00  91.03 3261.31
   11:50:26.880.27-Aug-2021 4914.00 7804.17 85.30 11.00  91.23 3261.31
   11:50:27.080.27-Aug-2021 4914.00 7806.92 85.30 11.00  91.43 3261.31
   11:50:27.280.27-Aug-2021 4914.00 7806.72 85.30 11.00  91.63 3261.31
   11:50:27.480.27-Aug-2021 4914.00 7807.32 85.30 11.00  91.83 3261.31
   11:50:27.680.27-Aug-2021 4914.00 7807.17 85.30 11.00  92.03 3261.31
   11:50:27.881.27-Aug-2021 4914.00 7807.17 85.30 11.00  92.23 3261.31
   11:50:28.081.27-Aug-2021 4914.00 7804.99 85.30 11.00  92.43 3261.31
   11:50:28.281.27-Aug-2021 4914.00 7808.46 85.30 11.00  92.63 3261.31
   11:50:28.481.27-Aug-2021 4914.00 7807.76 85.30 11.00  92.83 3261.31
   11:50:28.681.27-Aug-2021 4914.00 7807.40 85.30 11.00  93.03 3261.31
   11:50:28.881.27-Aug-2021 4914.00 7807.40 85.30 11.00  93.23 3261.31
   11:50:29.081.27-Aug-2021 4914.00 7811.99 85.30 11.00  93.43 3261.31
   11:50:29.281.27-Aug-2021 4914.00 7805.17 85.30 11.00  93.63 3261.31
   11:50:29.481.27-Aug-2021 4914.00 7808.04 85.30 11.00  93.83 3261.31
   11:50:29.681.27-Aug-2021 4914.00 7807.01 85.30 11.00  94.03 3261.31
   11:50:29.881.27-Aug-2021 4914.00 7807.01 85.30 11.00  94.23 3261.31
   11:50:30.081.27-Aug-2021 4914.00 7807.52 85.30 11.00  94.43 3261.31
   11:50:30.281.27-Aug-2021 4914.00 7807.37 85.30 11.00  94.63 3261.31
   11:50:30.481.27-Aug-2021 4914.00 7807.16 85.30 11.00  94.83 3261.31
   11:50:30.682.27-Aug-2021 4914.00 7807.44 85.30 11.00  95.03 3261.31
   11:50:30.882.27-Aug-2021 4914.00 7807.44 85.30 11.00  95.23 3261.31
   11:50:31.082.27-Aug-2021 4914.00 7808.23 85.30 11.00  95.43 3261.31
   11:50:31.282.27-Aug-2021 4914.00 7808.29 85.30 11.00  95.63 3261.31
   11:50:31.482.27-Aug-2021 4914.00 7808.40 85.30 11.00  95.83 3261.31
   11:50:31.682.27-Aug-2021 4914.00 7808.10 85.30 11.00  96.03 3261.31
   11:50:31.882.27-Aug-2021 4914.00 7808.10 85.30 11.00  96.23 3261.31
   11:50:32.082.27-Aug-2021 4914.00 7807.88 85.30 11.00  96.43 3261.31
   11:50:32.282.27-Aug-2021 4914.00 7812.92 85.30 11.00  96.63 3261.31
   11:50:32.482.27-Aug-2021 4914.00 7805.79 85.30 11.00  96.83 3261.31
   11:50:32.682.27-Aug-2021 4914.00 7808.96 85.30 11.00  97.03 3261.31
   11:50:32.882.27-Aug-2021 4914.00 7808.96 85.30 11.00  97.23 3261.31
   11:50:33.082.27-Aug-2021 4914.00 7807.27 85.30 11.00  97.43 3261.31
   11:50:33.282.27-Aug-2021 4914.00 7807.52 85.30 11.00  97.63 3261.31
   11:50:33.483.27-Aug-2021 4914.00 7807.34 85.30 11.00  97.83 3261.31
   11:50:33.683.27-Aug-2021 4914.00 7807.67 85.30 11.00  98.03 3261.31
   11:50:33.883.27-Aug-2021 4914.00 7807.67 85.30 11.00  98.23 3261.31
   11:50:34.083.27-Aug-2021 4914.00 7807.71 85.30 11.00  98.43 3261.31
   11:50:34.283.27-Aug-2021 4914.00 7808.54 85.30 11.00  98.64 3261.31
   11:50:34.483.27-Aug-2021 4914.00 7808.49 85.30 11.00  98.84 3261.31
   11:50:34.683.27-Aug-2021 4914.00 7808.84 85.30 11.00  99.04 3261.31
   11:50:34.883.27-Aug-2021 4914.00 7808.84 85.30 11.00  99.24 3261.31
   11:50:35.083.27-Aug-2021 4914.00 7808.47 85.30 11.00  99.44 3261.31
   11:50:35.283.27-Aug-2021 4914.00 7808.35 85.30 11.00  99.64 3261.31
   11:50:35.483.27-Aug-2021 4914.00 7807.95 85.30 11.00  99.84 3261.31
   11:50:35.683.27-Aug-2021 4914.00 7813.23 85.30 11.00 100.04 3261.31
   11:50:35.883.27-Aug-2021 4914.00 7813.23 85.30 11.00 100.24 3261.31
   11:50:36.083.27-Aug-2021 4914.00 7809.07 85.30 11.00 100.44 3261.31
   11:50:36.284.27-Aug-2021 4914.00 7807.49 85.30 11.00 100.64 3261.31
   11:50:36.484.27-Aug-2021 4914.00 7807.27 85.30 11.00 100.84 3261.31
   11:50:36.684.27-Aug-2021 4914.00 7809.02 85.30 11.00 101.04 3261.31
   11:50:36.884.27-Aug-2021 4914.00 7809.02 85.30 11.00 101.24 3261.31
   11:50:37.084.27-Aug-2021 4914.00 7808.73 85.30 11.00 101.44 3261.31
   11:50:37.284.27-Aug-2021 4914.00 7807.48 85.30 11.00 101.64 3261.31
   11:50:37.484.27-Aug-2021 4914.00 7807.35 85.30 11.00 101.84 3261.31
   11:50:37.684.27-Aug-2021 4914.00 7807.84 85.30 11.00 102.04 3261.31
   11:50:37.884.27-Aug-2021 4914.00 7807.84 85.30 11.00 102.24 3261.31
   11:50:38.084.27-Aug-2021 4914.00 7808.44 85.30 11.00 102.44 3261.31
   11:50:38.284.27-Aug-2021 4914.00 7810.98 85.30 11.00 102.64 3261.31
   11:50:38.484.27-Aug-2021 4914.00 7808.43 85.30 11.00 102.84 3261.31
   11:50:38.684.27-Aug-2021 4914.00 7809.46 85.30 11.00 103.04 3261.31
   11:50:38.884.27-Aug-2021 4914.00 7809.46 85.30 11.00 103.24 3261.31
   11:50:39.085.27-Aug-2021 4914.00 7808.34 85.30 11.00 103.44 3261.31
   11:50:39.285.27-Aug-2021 4914.00 7808.42 85.30 11.00 103.64 3261.31
   11:50:39.485.27-Aug-2021 4914.00 7813.31 85.30 11.00 103.84 3261.31
   11:50:39.685.27-Aug-2021 4914.00 7805.17 85.30 11.00 104.04 3261.31
   11:50:39.885.27-Aug-2021 4914.00 7805.17 85.30 11.00 104.24 3261.31
   11:50:40.085.27-Aug-2021 4914.00 7808.44 85.30 11.00 104.44 3261.31
   11:50:40.285.27-Aug-2021 4914.00 7808.46 85.30 11.00 104.64 3261.31
   11:50:40.485.27-Aug-2021 4914.00 7808.70 85.30 11.00 104.84 3261.31
   11:50:40.685.27-Aug-2021 4914.00 7808.22 85.30 11.00 105.04 3261.31
   11:50:40.885.27-Aug-2021 4914.00 7808.22 85.30 11.00 105.24 3261.31
   11:50:41.085.27-Aug-2021 4914.00 7808.32 85.30 11.00 105.44 3261.31
   11:50:41.285.27-Aug-2021 4914.00 7808.42 85.30 11.00 105.64 3261.31
   11:50:41.485.27-Aug-2021 4914.00 7808.99 85.30 11.00 105.84 3261.31
   11:50:41.685.27-Aug-2021 4914.00 7809.10 85.30 11.00 106.04 3261.31
   11:50:41.886.27-Aug-2021 4914.00 7809.10 85.30 11.00 106.24 3261.31
   11:50:42.086.27-Aug-2021 4914.00 7808.72 85.30 11.00 106.44 3261.31
   11:50:42.286.27-Aug-2021 4914.00 7808.49 85.30 11.00 106.64 3261.31
   11:50:42.486.27-Aug-2021 4914.00 7808.62 85.30 11.00 106.84 3261.31
   11:50:42.686.27-Aug-2021 4914.00 7813.45 85.30 11.00 107.04 3261.31
   11:50:42.886.27-Aug-2021 4914.00 7813.45 85.30 11.00 107.24 3261.31
   11:50:43.086.27-Aug-2021 4914.00 7809.61 85.30 11.00 107.44 3261.31
   11:50:43.286.27-Aug-2021 4914.00 7808.19 85.30 11.00 107.64 3261.31
   11:50:43.486.27-Aug-2021 4914.00 7807.92 85.30 11.00 107.84 3261.31
   11:50:43.686.27-Aug-2021 4914.00 7807.82 85.30 11.00 108.04 3261.31
   11:50:43.886.27-Aug-2021 4914.00 7807.82 85.30 11.00 108.24 3261.31
   11:50:44.086.27-Aug-2021 4914.00 7808.03 85.30 11.00 108.44 3261.31
   11:50:44.286.27-Aug-2021 4914.00 7807.98 85.30 11.00 108.64 3261.31
   11:50:44.486.27-Aug-2021 4914.00 7808.33 85.30 11.00 108.84 3261.31
   11:50:44.687.27-Aug-2021 4914.00 7809.21 85.30 11.00 109.04 3261.31
   11:50:44.887.27-Aug-2021 4914.00 7809.21 85.30 11.00 109.24 3261.31
   11:50:45.087.27-Aug-2021 4914.00 7809.65 85.30 11.00 109.44 3261.31
   11:50:45.287.27-Aug-2021 4914.00 7809.55 85.30 11.00 109.64 3261.31
   11:50:45.487.27-Aug-2021 4914.00 7809.37 85.30 11.00 109.84 3261.31
   11:50:45.687.27-Aug-2021 4914.00 7809.36 85.30 11.00 110.04 3261.31
   11:50:45.887.27-Aug-2021 4914.00 7809.36 85.30 11.00 110.24 3261.31
   11:50:46.087.27-Aug-2021 4914.00 7814.10 85.30 11.00 110.44 3261.31
   11:50:46.287.27-Aug-2021 4914.00 7806.72 85.30 11.00 110.64 3261.31
   11:50:46.487.27-Aug-2021 4914.00 7809.97 85.30 11.00 110.84 3261.31
   11:50:46.687.27-Aug-2021 4914.00 7808.57 85.30 11.00 111.04 3261.31
   11:50:46.887.27-Aug-2021 4914.00 7808.57 85.30 11.00 111.24 3261.31
   11:50:47.087.27-Aug-2021 4914.00 7808.36 85.30 11.00 111.44 3261.31
   11:50:47.287.27-Aug-2021 4914.00 7811.16 85.30 11.00 111.64 3261.31
   11:50:47.488.27-Aug-2021 4914.00 7808.71 85.30 11.00 111.84 3261.31
   11:50:47.688.27-Aug-2021 4914.00 7809.11 85.30 11.00 112.04 3261.31
   11:50:47.888.27-Aug-2021 4914.00 7809.11 85.30 11.00 112.24 3261.31
   11:50:48.088.27-Aug-2021 4914.00 7814.26 85.30 11.00 112.44 3261.31
   11:50:48.288.27-Aug-2021 4914.00 7807.10 85.30 11.00 112.64 3261.31
   11:50:48.488.27-Aug-2021 4914.00 7810.70 85.30 11.00 112.84 3261.31
