~Version Information
 VERS.                  2.0:   CWLS log ASCII Standard -VERSION 2.0
 WRAP.                   NO:   One line per depth step
~Well Information Block
#MNEM.UNIT     VALUE/NAME     DESCRIPTION
#---------     -----------    ---------------------------
 STRT.S             13:52:51 27-Aug-21: START TIME 13:52:51 27-Aug-21
 STOP.S             13:59:42 27-Aug-21: STOP TIME  13:59:42 27-Aug-21
 STEP.S                   0.00: STEP TIME
 NULL.                 -999.25: NULL VALUE
 DFWT.                        :  DIST FWL TEXT
 DFST.                        :  DIST FSL TEXT
 DMF .             Drill Floor:  DRILL MEAS FROM
 STIM.      20.00.00 17-Aug-21:  START TIME
 DATE.      19.00.00 29-Aug-21:  END TIME
 SPUD.               15-Aug-21:  SPUD DATE
 NREF.                    Grid:  NORTH REFERENCE
 HPTY.       Minimum Curvature:  HOLE POS TYPE
 DMOD.             Drill Model:  DRILL MOD DESC
 SVYD.                  Survey:  SURVEY DESC
 ILTD.               Lithology:  INTERP LTH DESC
 FTOP.          Formation Tops:  FORM TOPS DESC
 RIG .              East Azeri:  RIG NAME
 PDAT.          Mean Sea Level:  PERMANENT DATUM
 FLD .                     ACG:  FIELD NAME
 SON .        AZ-XX-0907180857:  JOB NUMBER
 CTRY.              Azerbaijan:  COUNTRY NAME
 WELL.                    D23x:  WELL NAME
 SRVC.     Turan Drilling and Engineering:  CONTRACTOR
 COMP.     BP Exploration (Caspian Sea) Ltd.:  COMPANY
 UWI .            /AZE00000214:  UNIQUE WELL IDENTIFIER
 API .            /AZE00000214:  API NUMBER
 MDS .        Operator Entered:  MAG DATA SOURCE
 BASE.              Azerbaijan:  LOGGING EQUIPMENT BASE LOCATION
 REGN.                   EESSA:  REGION
 PROV.                    Baku:  PROVINCE
 STAT.                    Baku:  STATE NAME
 MWDS.                    Baku:  MWD SHOP
 DOE .                     N/A:  DOE NUMBER
 DCON.         Sperry Drilling:  DIRECTNL CONTR
 UNIT.                     N/A:  LOGGING EQUIPMENT ID
 WTYP.                Deviated:  WELL TYPE
 CNTY.                        :  COUNTY
 LOC .                        :  LOCATION
 LMF .             Drill Floor:  LOG MEASURED FROM
 TVDS.m                  43.60:  TVDSS CORRECTN
 LATI.deg                40.02:  LATITUDE
 LONG.deg                51.45:  LONGITUDE
 WHNS.m                  -7.04:  WELL HEAD N/S
 WHEW.m                  -0.67:  WELL HEAD E/W
 UTMX.m              538762.90:  UTM X
 UTMY.m             4431871.34:  UTM Y
 DFWL.m                   0.00:  DISTANCE FWL
 DFSL.m                   0.00:  DISTANCE FSL
 SDEP.m                4127.00:  START DEPTH
 TDD .m                5084.50:  TOTAL DEPTH (DRILLER)
 VSDR.deg               140.47:  VERT SEC DIRECT
 GVFD.g                   1.00:  GRAVITY FIELD
 MFLD.nT              50362.00:  MAGNETIC FIELD
 MDIP.deg                59.48:  MAGNETIC DIP
 MDEC.deg                 6.47:  MAGNETIC DECL
 GRDC.deg                 0.31:  GRID CORRECTION
 AZTC.deg                 6.16:  AZM TOTAL CORR
 EPD .m                   0.00:  ELEVATION
 EGL .m                   0.00:  GROUND ELEVATION
 WDMS.m                 151.80:  WD ELEV
 APD .m                  43.60:  DEPTH ABOVE PD
 DEP .m                4092.57:  DEPTH
 AGAP.m                  43.60:  AIR GAP
 VSEW.m                  -0.67:  VERT SEC E/W
 VSNS.m                  -7.04:  VERT SEC N/S
 EKB .m                  43.60:  KB ELEVATION
 EDF .m                  43.60:  DF ELEVATION
 TDL .m                 957.50:  TOTAL DEPTH (LOGGER)
 VSC .                       0:  VS TO CLOSURE
 MAGU.                 1851413:  MAGUTM CHECKSUM
~Parameter Information Block
#MNEM.UNIT       Value        Description
#---------     -----------    ---------------------------
 AV  .mps                 1.50:  Ann Velocity 
 AVMX.mps                 2.00:  Max Ann Veloc 
 AZIF.deg               184.66:  Azm, Final 
 BHAT.        Rotary Steerable:  BHA Type 
 BREV.rev               300.00:  Rev Bit Total 
 BROT.°/30m              -0.50:  Build Rotating 
 BS  .in                  8.50:  Bit Size 
 BSZ .in                  8.50:  Bit Size 
 BTPL.psig              370.00:  Bit Press Loss 
 CABU.                      No:  Customer Abuse 
 CGEO.      Behruz Shahbaliyev:  Customer Geo 
 COMM.                     ÄÆy:  Run Comments 1 
 TCS .hr                140.08:  Time Ciculation Ended 
 CV  .mps                 3.00:  Crit Velocity 
 CVMX.mps                 3.20:  Max Crit Veloc 
 DD1 .            Musa Ahmadov:  Direct Drillr 1 
 DD2 .           Hamid Ahmadov:  Direct Drillr 2 
 DDSV.               Geo-Pilot:  DD Service 
 DEFF.%                  98.40:  % Det Eff 
 DLRX.°/30m               3.40:  Dogleg Rot Max 
 DLSO.°/30m               1.45:  Dogleg Oriented 
 DLSX.°/30m               3.40:  Dogleg Str Max 
 DRET.      18.40.00 29-Aug-21:  Drill End Time 
 DRST.      21.00.00 20-Aug-21:  Drill Start Tim 
 DTIM.hr                 69.47:  Time Drilling 
 EDEP.m                5084.50:  End Depth 
 ENG1.      Artemiy Matviyanov:  Engineer 1 
 ENG2.         Almaz Almadatov:  Engineer 2 
 ETIM.      18.40.00 29-Aug-21:  End Time 
 FLOI.gpm               500.00:  Flow In 
 FLON.gpm               400.00:  Flow In Min 
 FLOS.cptm                0.00:  Fluid Loss 
 FLOX.gpm               500.00:  Flow In Max 
 DFT .        Mineral Oil Base:  Mud Type 
 HFLO.                      No:  High Flow 
 HPRE.                      No:  High Pressure 
 HTEM.                      No:  High Temp 
 HYDO.m                   1.80:  Hydro Offset 
 IFIN.deg                25.62:  Inc, Final 
 IMAX.deg                48.69:  Inc Max 
 IMIN.deg                24.01:  Inc Min 
 IMND.m                4962.57:  Inc Min Depth 
 IMXD.m                4119.01:  Inc Max Depth 
 JARR.                      No:  Jarring 
 LETM.      18.40.00 29-Aug-21:  Log End Time 
 LOST.hr                     0:  Lost Rig Time 
 LSTM.      21.00.00 20-Aug-21:  Log Start Time 
 MDCL.ppm             41500.00:  Mud Chlorides 
 MDES.     Inversion Oil/Synthetic:  Mud Desc 
 DFD .sg                  1.56:  Mud Density 
 MDMN.sg                  1.56:  Dens Mud Min 
 MDMX.sg                  1.56:  Dens Mud Max 
 MOIL.                      70:  Run Mud Oil % 
 MOWR.                   70:30:  Run Mud OWR 
 MSND.                     0.2:  Run Mud Sand % 
 MSOL.                    23.3:  Run Mud Solids% 
 DFV .spqt               78.00:  Mud Viscosity 
 MWOD.in                  6.75:  MWD Tool OD 
 MWSI.                      No:  Serv Intrp, MWD 
 OTIM.hr                218.30:  Time Operating 
 PCON.           Look Like New:  Pad Condition 
 PMAX.psia            11015.30:  Press Op, Max 
 PV  .cP                 38.00:  Mud PV 
 RUN .                     300:  Run Number 
 ROPA.m/hr               15.00:  ROP Avg 
 ROPN.m/hr                9.00:  ROP Min 
 ROPX.m/hr               17.00:  ROP Max 
 RPMA.rpm               120.00:  RPM Surface Avg 
 RPMN.rpm                90.00:  RPM Surface Min 
 RPMX.rpm               140.00:  RPM Surface Max 
 RRUN.                     300:  Rig Run Number 
 RTIM.hr                 31.53:  Time Reaming 
 SAZI.deg               331.64:  Azm, Start 
 SDEP.m                4127.00:  Start Depth 
 SIDD.                      No:  Serv Intrp, DD 
 SINC.deg                48.43:  Inc, Start 
 SPPA.psig             5830.00:  SPP Avg 
 SPPN.psig             5600.00:  SPP Min 
 SPPX.psig             5900.00:  SPP Max 
 STIM.      21.00.00 20-Aug-21:  Start Time 
 SVCS.                 DD, MWD:  Services 
 SVER.                    9.20:  Sperry Version 
 TDAT.m                 957.50:  Tot Depth Attmp 
 TDDF.                      No:  Trip for DD 
 TDLG.m                 957.50:  Tot Depth Loggd 
 TFF .                      No:  Trip for Fail 
 TQAA.f-kp               15.00:  Torque Abs Avg 
 TQAN.f-kp               12.00:  Torque Abs Min 
 TQAX.f-kp               19.00:  Torque Abs Max 
 TRRT.°/30m              -3.40:  Turn Rotating 
 MRT .                  EWR-M5:  Maximum Recorded Temperature 
 TTMX.degC              100.00:  Max Tool Temp 
 VS01.                90639251:  Virtual Str1 SN 
 VS02.                90634715:  Virtual Str2 SN 
 VS03.                90652479:  Virtual Str3 SN 
 VS04.                90642262:  Virtual Str4 SN 
 WBMN.klb                 0.00:  WOB Min 
 WITN.           Murad Guliyev:  Customer Rep 
 WITN.          Yashar Gaziyev:  Customer Rep 2 
 WOBA.klb                 9.00:  WOB Avg 
 WOBX.klb                12.00:  WOB Max 
 YP  .lhf2               30.00:  Yield Point 
~Curve Information Block
#MNEM.UNIT                 API CODE     Curve Description
#---------               -----------    ---------------------------
 TIME.HHMMSS            00 000 000 000:  GT Time & Date
 GTDEPTH.m              00 000 000 000:  GT Depth
 GTPQH.psia             00 000 000 000:  GT HR Quartz Pressure
 GTTQ.degC              00 000 000 000:  GT Quartz Temperature
 GTTN.NONE              00 000 000 000:  GT Test Number
 GTET.sec               00 000 000 000:  GT Elapsed Test Time
 GTTVD.m                00 000 000 000:  GT True Vertical Depth
#Other Information
#
#WARRANTY: Halliburton will use its best efforts to furnish customers with 
#accurate information and interpretations that are part of, and incident to, the services 
#provided.  However, Halliburton cannot and does not warrant the accuracy 
#or correctness of such information and interpretations.  Under no circumstances should any 
#such information or interpretation be relied upon as the sole basis for any drilling, 
#completion, production, or financial decision or any procedure involving any risk to the 
#safety of any drilling venture, drilling rig or its crew or any other third party.  The 
#Customer has full responsibility for all drilling, completion and production operation.  
#Halliburton makes no representations or warranties, either expressed or 
#implied, including, but not limited to, the implied warranties of merchantability or fitness 
#for a particular purpose, with respect to the services rendered.  In no event will 
#Halliburton be liable for failure to obtain any particular results or for 
#any damages, including, but not limited to, indirect, special or consequential damages, 
#resulting from the use of any information or interpretation provided by Halliburton.
#
~A           TIME           GTDEPTH  GTPQH  GTTQ  GTTN   GTET   GTTVD  
# ...
   13:53:13.600.27-Aug-2021 4859.00 7673.06 84.60 14.00  22.60 3211.42
   13:53:13.800.27-Aug-2021 4859.00 7665.37 84.60 14.00  22.80 3211.42
   13:53:14.000.27-Aug-2021 4859.00 7668.87 84.60 14.00  23.00 3211.42
   13:53:14.200.27-Aug-2021 4859.00 7668.87 84.60 14.00  23.20 3211.42
   13:53:14.400.27-Aug-2021 4859.00 7669.05 84.60 14.00  23.40 3211.42
   13:53:14.600.27-Aug-2021 4859.00 7668.72 84.60 14.00  23.60 3211.42
   13:53:14.800.27-Aug-2021 4859.00 7669.12 84.60 14.00  23.80 3211.42
   13:53:15.000.27-Aug-2021 4859.00 7668.65 84.60 14.00  24.00 3211.42
   13:53:15.200.27-Aug-2021 4859.00 7668.65 84.60 14.00  24.20 3211.42
   13:53:15.400.27-Aug-2021 4859.00 7669.39 84.60 14.00  24.40 3211.42
   13:53:15.600.27-Aug-2021 4859.00 7669.46 84.60 14.00  24.60 3211.42
   13:53:15.800.27-Aug-2021 4859.00 7669.56 84.60 14.00  24.80 3211.42
   13:53:16.000.27-Aug-2021 4859.00 7669.72 84.60 14.00  25.00 3211.42
   13:53:16.200.27-Aug-2021 4859.00 7669.72 84.60 14.00  25.20 3211.42
   13:53:16.400.27-Aug-2021 4859.00 7669.74 84.60 14.00  25.40 3211.42
   13:53:16.600.27-Aug-2021 4859.00 7669.85 84.60 14.00  25.60 3211.42
   13:53:16.800.27-Aug-2021 4859.00 7675.63 84.60 14.00  25.80 3211.42
   13:53:17.000.27-Aug-2021 4859.00 7667.55 84.60 14.00  26.00 3211.42
   13:53:17.200.27-Aug-2021 4859.00 7667.55 84.60 14.00  26.20 3211.42
   13:53:17.400.27-Aug-2021 4859.00 7671.28 84.60 14.00  26.40 3211.42
   13:53:17.600.27-Aug-2021 4859.00 7670.97 84.60 14.00  26.60 3211.42
   13:53:17.800.27-Aug-2021 4859.00 7670.75 84.60 14.00  26.80 3211.42
   13:53:18.000.27-Aug-2021 4859.00 7671.04 84.60 14.00  27.00 3211.42
   13:53:18.200.27-Aug-2021 4859.00 7671.04 84.60 14.00  27.20 3211.42
   13:53:18.400.27-Aug-2021 4859.00 7671.38 84.60 14.00  27.40 3211.42
   13:53:18.600.27-Aug-2021 4859.00 7671.84 84.60 14.00  27.60 3211.42
   13:53:18.800.27-Aug-2021 4859.00 7672.04 84.60 14.00  27.80 3211.42
   13:53:19.000.27-Aug-2021 4859.00 7672.20 84.60 14.00  28.00 3211.42
   13:53:19.200.27-Aug-2021 4859.00 7672.20 84.60 14.00  28.20 3211.42
   13:53:19.400.27-Aug-2021 4859.00 7672.57 84.60 14.00  28.40 3211.42
   13:53:19.600.27-Aug-2021 4859.00 7672.53 84.60 14.00  28.60 3211.42
   13:53:19.800.27-Aug-2021 4859.00 7672.59 84.60 14.00  28.80 3211.42
   13:53:20.000.27-Aug-2021 4859.00 7672.57 84.60 14.00  29.00 3211.42
   13:53:20.200.27-Aug-2021 4859.00 7672.57 84.60 14.00  29.20 3211.42
   13:53:20.400.27-Aug-2021 4859.00 7673.55 84.60 14.00  29.40 3211.42
   13:53:20.600.27-Aug-2021 4859.00 7673.01 84.60 14.00  29.60 3211.42
   13:53:20.800.27-Aug-2021 4859.00 7673.96 84.60 14.00  29.80 3211.42
   13:53:21.000.27-Aug-2021 4859.00 7673.22 84.60 14.00  30.00 3211.42
   13:53:21.200.27-Aug-2021 4859.00 7673.22 84.60 14.00  30.20 3211.42
   13:53:21.400.27-Aug-2021 4859.00 7673.29 84.59 14.00  30.40 3211.42
   13:53:21.600.27-Aug-2021 4859.00 7678.11 84.59 14.00  30.60 3211.42
   13:53:21.800.27-Aug-2021 4859.00 7671.68 84.59 14.00  30.80 3211.42
   13:53:22.000.27-Aug-2021 4859.00 7675.03 84.59 14.00  31.00 3211.42
   13:53:22.200.27-Aug-2021 4859.00 7675.03 84.59 14.00  31.20 3211.42
   13:53:22.400.27-Aug-2021 4859.00 7674.68 84.59 14.00  31.40 3211.42
   13:53:22.600.27-Aug-2021 4859.00 7674.56 84.59 14.00  31.60 3211.42
   13:53:22.800.27-Aug-2021 4859.00 7674.72 84.59 14.00  31.80 3211.42
   13:53:23.000.27-Aug-2021 4859.00 7677.63 84.59 14.00  32.00 3211.42
   13:53:23.200.27-Aug-2021 4859.00 7677.63 84.59 14.00  32.20 3211.42
   13:53:23.400.27-Aug-2021 4859.00 7675.99 84.59 14.00  32.40 3211.42
   13:53:23.600.27-Aug-2021 4859.00 7675.08 84.59 14.00  32.60 3211.42
   13:53:23.800.27-Aug-2021 4859.00 7675.12 84.59 14.00  32.80 3211.42
   13:53:24.000.27-Aug-2021 4859.00 7680.43 84.59 14.00  33.00 3211.42
   13:53:24.200.27-Aug-2021 4859.00 7680.43 84.59 14.00  33.20 3211.42
   13:53:24.400.27-Aug-2021 4859.00 7675.67 84.59 14.00  33.40 3211.42
   13:53:24.600.27-Aug-2021 4859.00 7676.04 84.59 14.00  33.60 3211.42
   13:53:24.800.27-Aug-2021 4859.00 7675.77 84.59 14.00  33.80 3211.42
   13:53:25.000.27-Aug-2021 4859.00 7675.42 84.59 14.00  34.00 3211.42
   13:53:25.200.27-Aug-2021 4859.00 7675.42 84.59 14.00  34.20 3211.42
   13:53:25.400.27-Aug-2021 4859.00 7675.56 84.59 14.00  34.40 3211.42
   13:53:25.600.27-Aug-2021 4859.00 7676.14 84.59 14.00  34.60 3211.42
   13:53:25.800.27-Aug-2021 4859.00 7676.66 84.59 14.00  34.80 3211.42
   13:53:26.000.27-Aug-2021 4859.00 7678.73 84.59 14.00  35.00 3211.42
   13:53:26.200.27-Aug-2021 4859.00 7678.73 84.59 14.00  35.20 3211.42
   13:53:26.400.27-Aug-2021 4859.00 7765.59 84.59 14.00  35.40 3211.42
   13:53:26.600.27-Aug-2021 4859.00 7803.69 84.59 14.00  35.60 3211.42
   13:53:26.800.27-Aug-2021 4859.00 7848.64 84.59 14.00  35.80 3211.42
   13:53:27.000.27-Aug-2021 4859.00 7878.94 84.59 14.00  36.00 3211.42
   13:53:27.200.27-Aug-2021 4859.00 7878.94 84.59 14.00  36.20 3211.42
   13:53:27.400.27-Aug-2021 4859.00 7873.54 84.59 14.00  36.40 3211.42
   13:53:27.600.27-Aug-2021 4859.00 7869.07 84.59 14.00  36.60 3211.42
   13:53:27.800.27-Aug-2021 4859.00 7866.51 84.59 14.00  36.80 3211.42
   13:53:28.000.27-Aug-2021 4859.00 7853.82 84.59 14.00  37.00 3211.42
   13:53:28.200.27-Aug-2021 4859.00 7853.82 84.59 14.00  37.20 3211.42
   13:53:28.400.27-Aug-2021 4859.00 7844.62 84.59 14.00  37.40 3211.42
   13:53:28.600.27-Aug-2021 4859.00 7840.33 84.59 14.00  37.60 3211.42
   13:53:28.800.27-Aug-2021 4859.00 7837.14 84.59 14.00  37.80 3211.42
   13:53:29.000.27-Aug-2021 4859.00 7834.39 84.59 14.00  38.00 3211.42
   13:53:29.200.27-Aug-2021 4859.00 7834.39 84.59 14.00  38.20 3211.42
   13:53:29.400.27-Aug-2021 4859.00 7831.57 84.59 14.00  38.40 3211.42
   13:53:29.600.27-Aug-2021 4859.00 7830.62 84.59 14.00  38.60 3211.42
   13:53:29.800.27-Aug-2021 4859.00 7829.74 84.59 14.00  38.80 3211.42
   13:53:30.000.27-Aug-2021 4859.00 7829.13 84.59 14.00  39.00 3211.42
   13:53:30.200.27-Aug-2021 4859.00 7829.13 84.59 14.00  39.20 3211.42
   13:53:30.400.27-Aug-2021 4859.00 7828.66 84.59 14.00  39.40 3211.42
   13:53:30.600.27-Aug-2021 4859.00 7828.71 84.59 14.00  39.60 3211.42
   13:53:30.800.27-Aug-2021 4859.00 7828.55 84.59 14.00  39.80 3211.42
   13:53:31.000.27-Aug-2021 4859.00 7834.82 84.59 14.00  40.00 3211.42
   13:53:31.200.27-Aug-2021 4859.00 7834.82 84.59 14.00  40.20 3211.42
   13:53:31.400.27-Aug-2021 4859.00 7827.70 84.59 14.00  40.40 3211.42
   13:53:31.600.27-Aug-2021 4859.00 7826.22 84.59 14.00  40.60 3211.42
   13:53:31.800.27-Aug-2021 4859.00 7825.96 84.59 14.00  40.80 3211.42
   13:53:32.000.27-Aug-2021 4859.00 7826.45 84.59 14.00  41.00 3211.42
   13:53:32.200.27-Aug-2021 4859.00 7826.45 84.59 14.00  41.20 3211.42
   13:53:32.400.27-Aug-2021 4859.00 7827.53 84.59 14.00  41.40 3211.42
   13:53:32.600.27-Aug-2021 4859.00 7829.82 84.59 14.00  41.60 3211.42
   13:53:32.800.27-Aug-2021 4859.00 7830.57 84.59 14.00  41.80 3211.42
   13:53:33.000.27-Aug-2021 4859.00 7829.54 84.59 14.00  42.00 3211.42
   13:53:33.200.27-Aug-2021 4859.00 7829.54 84.59 14.00  42.20 3211.42
   13:53:33.400.27-Aug-2021 4859.00 7829.15 84.59 14.00  42.40 3211.42
   13:53:33.600.27-Aug-2021 4859.00 7824.92 84.59 14.00  42.60 3211.42
   13:53:33.800.27-Aug-2021 4859.00 7821.33 84.59 14.00  42.80 3211.42
   13:53:34.000.27-Aug-2021 4859.00 7818.14 84.59 14.00  43.00 3211.42
   13:53:34.200.27-Aug-2021 4859.00 7818.14 84.59 14.00  43.20 3211.42
   13:53:34.400.27-Aug-2021 4859.00 7816.67 84.59 14.00  43.40 3211.42
   13:53:34.600.27-Aug-2021 4859.00 7806.45 84.59 14.00  43.60 3211.42
   13:53:34.800.27-Aug-2021 4859.00 7809.45 84.59 14.00  43.80 3211.42
   13:53:35.000.27-Aug-2021 4859.00 7805.78 84.59 14.00  44.00 3211.42
   13:53:35.200.27-Aug-2021 4859.00 7805.78 84.59 14.00  44.20 3211.42
   13:53:35.400.27-Aug-2021 4859.00 7798.78 84.59 14.00  44.40 3211.42
   13:53:35.600.27-Aug-2021 4859.00 7798.88 84.59 14.00  44.60 3211.42
   13:53:35.800.27-Aug-2021 4859.00 7793.19 84.59 14.00  44.80 3211.42
   13:53:36.000.27-Aug-2021 4859.00 7789.19 84.59 14.00  45.00 3211.42
