~Version Information
 VERS.                  2.0:   CWLS log ASCII Standard -VERSION 2.0
 WRAP.                   NO:   One line per depth step
~Well Information Block
#MNEM.UNIT     VALUE/NAME     DESCRIPTION
#---------     -----------    ---------------------------
 STRT.S             23:43:00 27-Aug-21: START TIME 23:43:00 27-Aug-21
 STOP.S             23:50:14 27-Aug-21: STOP TIME  23:50:14 27-Aug-21
 STEP.S                   0.00: STEP TIME
 NULL.                 -999.25: NULL VALUE
 DFWT.                        :  DIST FWL TEXT
 DFST.                        :  DIST FSL TEXT
 DMF .             Drill Floor:  DRILL MEAS FROM
 STIM.      20.00.00 17-Aug-21:  START TIME
 DATE.      19.00.00 29-Aug-21:  END TIME
 SPUD.               15-Aug-21:  SPUD DATE
 NREF.                    Grid:  NORTH REFERENCE
 HPTY.       Minimum Curvature:  HOLE POS TYPE
 DMOD.             Drill Model:  DRILL MOD DESC
 SVYD.                  Survey:  SURVEY DESC
 ILTD.               Lithology:  INTERP LTH DESC
 FTOP.          Formation Tops:  FORM TOPS DESC
 RIG .              East Azeri:  RIG NAME
 PDAT.          Mean Sea Level:  PERMANENT DATUM
 FLD .                     ACG:  FIELD NAME
 SON .        AZ-XX-0907180857:  JOB NUMBER
 CTRY.              Azerbaijan:  COUNTRY NAME
 WELL.                    D23x:  WELL NAME
 SRVC.     Turan Drilling and Engineering:  CONTRACTOR
 COMP.     BP Exploration (Caspian Sea) Ltd.:  COMPANY
 UWI .            /AZE00000214:  UNIQUE WELL IDENTIFIER
 API .            /AZE00000214:  API NUMBER
 MDS .        Operator Entered:  MAG DATA SOURCE
 BASE.              Azerbaijan:  LOGGING EQUIPMENT BASE LOCATION
 REGN.                   EESSA:  REGION
 PROV.                    Baku:  PROVINCE
 STAT.                    Baku:  STATE NAME
 MWDS.                    Baku:  MWD SHOP
 DOE .                     N/A:  DOE NUMBER
 DCON.         Sperry Drilling:  DIRECTNL CONTR
 UNIT.                     N/A:  LOGGING EQUIPMENT ID
 WTYP.                Deviated:  WELL TYPE
 CNTY.                        :  COUNTY
 LOC .                        :  LOCATION
 LMF .             Drill Floor:  LOG MEASURED FROM
 TVDS.m                  43.60:  TVDSS CORRECTN
 LATI.deg                40.02:  LATITUDE
 LONG.deg                51.45:  LONGITUDE
 WHNS.m                  -7.04:  WELL HEAD N/S
 WHEW.m                  -0.67:  WELL HEAD E/W
 UTMX.m              538762.90:  UTM X
 UTMY.m             4431871.34:  UTM Y
 DFWL.m                   0.00:  DISTANCE FWL
 DFSL.m                   0.00:  DISTANCE FSL
 SDEP.m                4127.00:  START DEPTH
 TDD .m                5084.50:  TOTAL DEPTH (DRILLER)
 VSDR.deg               140.47:  VERT SEC DIRECT
 GVFD.g                   1.00:  GRAVITY FIELD
 MFLD.nT              50362.00:  MAGNETIC FIELD
 MDIP.deg                59.48:  MAGNETIC DIP
 MDEC.deg                 6.47:  MAGNETIC DECL
 GRDC.deg                 0.31:  GRID CORRECTION
 AZTC.deg                 6.16:  AZM TOTAL CORR
 EPD .m                   0.00:  ELEVATION
 EGL .m                   0.00:  GROUND ELEVATION
 WDMS.m                 151.80:  WD ELEV
 APD .m                  43.60:  DEPTH ABOVE PD
 DEP .m                4092.57:  DEPTH
 AGAP.m                  43.60:  AIR GAP
 VSEW.m                  -0.67:  VERT SEC E/W
 VSNS.m                  -7.04:  VERT SEC N/S
 EKB .m                  43.60:  KB ELEVATION
 EDF .m                  43.60:  DF ELEVATION
 TDL .m                 957.50:  TOTAL DEPTH (LOGGER)
 VSC .                       0:  VS TO CLOSURE
 MAGU.                 1851413:  MAGUTM CHECKSUM
~Parameter Information Block
#MNEM.UNIT       Value        Description
#---------     -----------    ---------------------------
 AV  .mps                 1.50:  Ann Velocity 
 AVMX.mps                 2.00:  Max Ann Veloc 
 AZIF.deg               184.66:  Azm, Final 
 BHAT.        Rotary Steerable:  BHA Type 
 BREV.rev               300.00:  Rev Bit Total 
 BROT.°/30m              -0.50:  Build Rotating 
 BS  .in                  8.50:  Bit Size 
 BSZ .in                  8.50:  Bit Size 
 BTPL.psig              370.00:  Bit Press Loss 
 CABU.                      No:  Customer Abuse 
 CGEO.      Behruz Shahbaliyev:  Customer Geo 
 COMM.                     Ì™‡:  Run Comments 1 
 TCS .hr                140.08:  Time Ciculation Ended 
 CV  .mps                 3.00:  Crit Velocity 
 CVMX.mps                 3.20:  Max Crit Veloc 
 DD1 .            Musa Ahmadov:  Direct Drillr 1 
 DD2 .           Hamid Ahmadov:  Direct Drillr 2 
 DDSV.               Geo-Pilot:  DD Service 
 DEFF.%                  98.40:  % Det Eff 
 DLRX.°/30m               3.40:  Dogleg Rot Max 
 DLSO.°/30m               1.45:  Dogleg Oriented 
 DLSX.°/30m               3.40:  Dogleg Str Max 
 DRET.      18.40.00 29-Aug-21:  Drill End Time 
 DRST.      21.00.00 20-Aug-21:  Drill Start Tim 
 DTIM.hr                 69.47:  Time Drilling 
 EDEP.m                5084.50:  End Depth 
 ENG1.      Artemiy Matviyanov:  Engineer 1 
 ENG2.         Almaz Almadatov:  Engineer 2 
 ETIM.      18.40.00 29-Aug-21:  End Time 
 FLOI.gpm               500.00:  Flow In 
 FLON.gpm               400.00:  Flow In Min 
 FLOS.cptm                0.00:  Fluid Loss 
 FLOX.gpm               500.00:  Flow In Max 
 DFT .        Mineral Oil Base:  Mud Type 
 HFLO.                      No:  High Flow 
 HPRE.                      No:  High Pressure 
 HTEM.                      No:  High Temp 
 HYDO.m                   1.80:  Hydro Offset 
 IFIN.deg                25.62:  Inc, Final 
 IMAX.deg                48.69:  Inc Max 
 IMIN.deg                24.01:  Inc Min 
 IMND.m                4962.57:  Inc Min Depth 
 IMXD.m                4119.01:  Inc Max Depth 
 JARR.                      No:  Jarring 
 LETM.      18.40.00 29-Aug-21:  Log End Time 
 LOST.hr                     0:  Lost Rig Time 
 LSTM.      21.00.00 20-Aug-21:  Log Start Time 
 MDCL.ppm             41500.00:  Mud Chlorides 
 MDES.     Inversion Oil/Synthetic:  Mud Desc 
 DFD .sg                  1.56:  Mud Density 
 MDMN.sg                  1.56:  Dens Mud Min 
 MDMX.sg                  1.56:  Dens Mud Max 
 MOIL.                      70:  Run Mud Oil % 
 MOWR.                   70:30:  Run Mud OWR 
 MSND.                     0.2:  Run Mud Sand % 
 MSOL.                    23.3:  Run Mud Solids% 
 DFV .spqt               78.00:  Mud Viscosity 
 MWOD.in                  6.75:  MWD Tool OD 
 MWSI.                      No:  Serv Intrp, MWD 
 OTIM.hr                218.30:  Time Operating 
 PCON.           Look Like New:  Pad Condition 
 PMAX.psia            11015.30:  Press Op, Max 
 PV  .cP                 38.00:  Mud PV 
 RUN .                     300:  Run Number 
 ROPA.m/hr               15.00:  ROP Avg 
 ROPN.m/hr                9.00:  ROP Min 
 ROPX.m/hr               17.00:  ROP Max 
 RPMA.rpm               120.00:  RPM Surface Avg 
 RPMN.rpm                90.00:  RPM Surface Min 
 RPMX.rpm               140.00:  RPM Surface Max 
 RRUN.                     300:  Rig Run Number 
 RTIM.hr                 31.53:  Time Reaming 
 SAZI.deg               331.64:  Azm, Start 
 SDEP.m                4127.00:  Start Depth 
 SIDD.                      No:  Serv Intrp, DD 
 SINC.deg                48.43:  Inc, Start 
 SPPA.psig             5830.00:  SPP Avg 
 SPPN.psig             5600.00:  SPP Min 
 SPPX.psig             5900.00:  SPP Max 
 STIM.      21.00.00 20-Aug-21:  Start Time 
 SVCS.                 DD, MWD:  Services 
 SVER.                    9.20:  Sperry Version 
 TDAT.m                 957.50:  Tot Depth Attmp 
 TDDF.                      No:  Trip for DD 
 TDLG.m                 957.50:  Tot Depth Loggd 
 TFF .                      No:  Trip for Fail 
 TQAA.f-kp               15.00:  Torque Abs Avg 
 TQAN.f-kp               12.00:  Torque Abs Min 
 TQAX.f-kp               19.00:  Torque Abs Max 
 TRRT.°/30m              -3.40:  Turn Rotating 
 MRT .                  EWR-M5:  Maximum Recorded Temperature 
 TTMX.degC              100.00:  Max Tool Temp 
 VS01.                90639251:  Virtual Str1 SN 
 VS02.                90634715:  Virtual Str2 SN 
 VS03.                90652479:  Virtual Str3 SN 
 VS04.                90642262:  Virtual Str4 SN 
 WBMN.klb                 0.00:  WOB Min 
 WITN.           Murad Guliyev:  Customer Rep 
 WITN.          Yashar Gaziyev:  Customer Rep 2 
 WOBA.klb                 9.00:  WOB Avg 
 WOBX.klb                12.00:  WOB Max 
 YP  .lhf2               30.00:  Yield Point 
~Curve Information Block
#MNEM.UNIT                 API CODE     Curve Description
#---------               -----------    ---------------------------
 TIME.HHMMSS            00 000 000 000:  GT Time & Date
 GTDEPTH.m              00 000 000 000:  GT Depth
 GTPQH.psia             00 000 000 000:  GT HR Quartz Pressure
 GTTQ.degC              00 000 000 000:  GT Quartz Temperature
 GTTN.NONE              00 000 000 000:  GT Test Number
 GTET.sec               00 000 000 000:  GT Elapsed Test Time
 GTTVD.m                00 000 000 000:  GT True Vertical Depth
#Other Information
#
#WARRANTY: Halliburton will use its best efforts to furnish customers with 
#accurate information and interpretations that are part of, and incident to, the services 
#provided.  However, Halliburton cannot and does not warrant the accuracy 
#or correctness of such information and interpretations.  Under no circumstances should any 
#such information or interpretation be relied upon as the sole basis for any drilling, 
#completion, production, or financial decision or any procedure involving any risk to the 
#safety of any drilling venture, drilling rig or its crew or any other third party.  The 
#Customer has full responsibility for all drilling, completion and production operation.  
#Halliburton makes no representations or warranties, either expressed or 
#implied, including, but not limited to, the implied warranties of merchantability or fitness 
#for a particular purpose, with respect to the services rendered.  In no event will 
#Halliburton be liable for failure to obtain any particular results or for 
#any damages, including, but not limited to, indirect, special or consequential damages, 
#resulting from the use of any information or interpretation provided by Halliburton.
#
~A           TIME           GTDEPTH  GTPQH  GTTQ  GTTN   GTET   GTTVD  
# ...
   23:45:38.347.27-Aug-2021 4669.00 4472.57 82.08 26.00 158.22 3039.49
   23:45:38.547.27-Aug-2021 4669.00 4472.35 82.08 26.00 158.42 3039.49
   23:45:38.747.27-Aug-2021 4669.00 4472.18 82.08 26.00 158.62 3039.49
   23:45:38.947.27-Aug-2021 4669.00 4472.32 82.08 26.00 158.82 3039.49
   23:45:39.147.27-Aug-2021 4669.00 4472.21 82.08 26.00 159.02 3039.49
   23:45:39.347.27-Aug-2021 4669.00 4472.21 82.08 26.00 159.22 3039.49
   23:45:39.547.27-Aug-2021 4669.00 4472.24 82.08 26.00 159.42 3039.49
   23:45:39.747.27-Aug-2021 4669.00 4472.30 82.08 26.00 159.62 3039.49
   23:45:39.947.27-Aug-2021 4669.00 4472.27 82.08 26.00 159.82 3039.49
   23:45:40.148.27-Aug-2021 4669.00 4472.29 82.08 26.00 160.02 3039.49
   23:45:40.348.27-Aug-2021 4669.00 4472.29 82.08 26.00 160.22 3039.49
   23:45:40.548.27-Aug-2021 4669.00 4472.32 82.08 26.00 160.42 3039.49
   23:45:40.748.27-Aug-2021 4669.00 4472.31 82.08 26.00 160.62 3039.49
   23:45:40.948.27-Aug-2021 4669.00 4472.32 82.08 26.00 160.82 3039.49
   23:45:41.148.27-Aug-2021 4669.00 4472.14 82.08 26.00 161.02 3039.49
   23:45:41.348.27-Aug-2021 4669.00 4472.14 82.08 26.00 161.22 3039.49
   23:45:41.548.27-Aug-2021 4669.00 4472.38 82.08 26.00 161.42 3039.49
   23:45:41.748.27-Aug-2021 4669.00 4472.36 82.08 26.00 161.62 3039.49
   23:45:41.948.27-Aug-2021 4669.00 4472.34 82.08 26.00 161.82 3039.49
   23:45:42.148.27-Aug-2021 4669.00 4472.28 82.08 26.00 162.02 3039.49
   23:45:42.348.27-Aug-2021 4669.00 4472.28 82.08 26.00 162.22 3039.49
   23:45:42.548.27-Aug-2021 4669.00 4472.29 82.08 26.00 162.42 3039.49
   23:45:42.748.27-Aug-2021 4669.00 4472.48 82.08 26.00 162.62 3039.49
   23:45:42.948.27-Aug-2021 4669.00 4472.33 82.08 26.00 162.82 3039.49
   23:45:43.148.27-Aug-2021 4669.00 4472.43 82.08 26.00 163.02 3039.49
   23:45:43.348.27-Aug-2021 4669.00 4472.43 82.08 26.00 163.22 3039.49
   23:45:43.548.27-Aug-2021 4669.00 4472.29 82.08 26.00 163.42 3039.49
   23:45:43.748.27-Aug-2021 4669.00 4472.50 82.08 26.00 163.62 3039.49
   23:45:43.948.27-Aug-2021 4669.00 4472.02 82.08 26.00 163.82 3039.49
   23:45:44.148.27-Aug-2021 4669.00 4374.22 82.08 26.00 164.02 3039.49
   23:45:44.348.27-Aug-2021 4669.00 4374.22 82.08 26.00 164.22 3039.49
   23:45:44.548.27-Aug-2021 4669.00 4197.07 82.08 26.00 164.42 3039.49
   23:45:44.748.27-Aug-2021 4669.00 4175.08 82.08 26.00 164.62 3039.49
   23:45:44.948.27-Aug-2021 4669.00 4162.41 82.08 26.00 164.82 3039.49
   23:45:45.148.27-Aug-2021 4669.00 4153.78 82.08 26.00 165.02 3039.49
   23:45:45.348.27-Aug-2021 4669.00 4153.78 82.08 26.00 165.22 3039.49
   23:45:45.548.27-Aug-2021 4669.00 4136.65 82.08 26.00 165.42 3039.49
   23:45:45.748.27-Aug-2021 4669.00 4130.25 82.08 26.00 165.62 3039.49
   23:45:45.948.27-Aug-2021 4669.00 4126.03 82.08 26.00 165.82 3039.49
   23:45:46.148.27-Aug-2021 4669.00 4122.34 82.08 26.00 166.02 3039.49
   23:45:46.348.27-Aug-2021 4669.00 4122.34 82.08 26.00 166.22 3039.49
   23:45:46.548.27-Aug-2021 4669.00 4115.63 82.08 26.00 166.42 3039.49
   23:45:46.748.27-Aug-2021 4669.00 4112.68 82.08 26.00 166.62 3039.49
   23:45:46.948.27-Aug-2021 4669.00 4109.00 82.08 26.00 166.82 3039.49
   23:45:47.148.27-Aug-2021 4669.00 4104.28 82.08 26.00 167.02 3039.49
   23:45:47.348.27-Aug-2021 4669.00 4104.28 82.08 26.00 167.22 3039.49
   23:45:47.548.27-Aug-2021 4669.00 4104.28 82.08 26.00 167.42 3039.49
   23:45:47.748.27-Aug-2021 4669.00 4100.65 82.07 26.00 167.62 3039.49
   23:45:47.948.27-Aug-2021 4669.00 4096.57 82.07 26.00 167.82 3039.49
   23:45:48.149.27-Aug-2021 4669.00 4094.82 82.07 26.00 168.02 3039.49
   23:45:48.349.27-Aug-2021 4669.00 4094.82 82.07 26.00 168.22 3039.49
   23:45:48.549.27-Aug-2021 4669.00 4093.37 82.07 26.00 168.42 3039.49
   23:45:48.749.27-Aug-2021 4669.00 4090.76 82.07 26.00 168.62 3039.49
   23:45:48.949.27-Aug-2021 4669.00 4089.85 82.07 26.00 168.82 3039.49
   23:45:49.149.27-Aug-2021 4669.00 4087.47 82.07 26.00 169.02 3039.49
   23:45:49.349.27-Aug-2021 4669.00 4087.47 82.07 26.00 169.22 3039.49
   23:45:49.549.27-Aug-2021 4669.00 4084.61 82.07 26.00 169.42 3039.49
   23:45:49.749.27-Aug-2021 4669.00 4083.41 82.07 26.00 169.62 3039.49
   23:45:49.949.27-Aug-2021 4669.00 4081.96 82.07 26.00 169.82 3039.49
   23:45:50.149.27-Aug-2021 4669.00 4080.79 82.07 26.00 170.02 3039.49
   23:45:50.349.27-Aug-2021 4669.00 4080.79 82.07 26.00 170.22 3039.49
   23:45:50.549.27-Aug-2021 4669.00 4079.31 82.07 26.00 170.42 3039.49
   23:45:50.749.27-Aug-2021 4669.00 4078.66 82.07 26.00 170.62 3039.49
   23:45:50.949.27-Aug-2021 4669.00 4077.08 82.07 26.00 170.82 3039.49
   23:45:51.149.27-Aug-2021 4669.00 4076.41 82.07 26.00 171.02 3039.49
   23:45:51.349.27-Aug-2021 4669.00 4076.41 82.07 26.00 171.22 3039.49
   23:45:51.549.27-Aug-2021 4669.00 4075.05 82.07 26.00 171.42 3039.49
   23:45:51.749.27-Aug-2021 4669.00 4073.30 82.07 26.00 171.62 3039.49
   23:45:51.949.27-Aug-2021 4669.00 4071.90 82.07 26.00 171.82 3039.49
   23:45:52.149.27-Aug-2021 4669.00 4071.20 82.07 26.00 172.02 3039.49
   23:45:52.349.27-Aug-2021 4669.00 4071.20 82.07 26.00 172.22 3039.49
   23:45:52.549.27-Aug-2021 4669.00 4070.66 82.07 26.00 172.42 3039.49
   23:45:52.749.27-Aug-2021 4669.00 4069.53 82.07 26.00 172.62 3039.49
   23:45:52.949.27-Aug-2021 4669.00 4068.50 82.07 26.00 172.82 3039.49
   23:45:53.149.27-Aug-2021 4669.00 4067.51 82.07 26.00 173.02 3039.49
   23:45:53.349.27-Aug-2021 4669.00 4067.51 82.07 26.00 173.22 3039.49
   23:45:53.549.27-Aug-2021 4669.00 4064.20 82.07 26.00 173.42 3039.49
   23:45:53.749.27-Aug-2021 4669.00 4064.67 82.07 26.00 173.62 3039.49
   23:45:53.949.27-Aug-2021 4669.00 4064.28 82.07 26.00 173.82 3039.49
   23:45:54.149.27-Aug-2021 4669.00 4067.94 82.07 26.00 174.02 3039.49
   23:45:54.349.27-Aug-2021 4669.00 4067.94 82.07 26.00 174.22 3039.49
   23:45:54.549.27-Aug-2021 4669.00 4308.22 82.07 26.00 174.42 3039.49
   23:45:54.749.27-Aug-2021 4669.00 4344.40 82.07 26.00 174.62 3039.49
   23:45:54.949.27-Aug-2021 4669.00 4363.73 82.07 26.00 174.82 3039.49
   23:45:55.149.27-Aug-2021 4669.00 4375.40 82.07 26.00 175.02 3039.49
   23:45:55.349.27-Aug-2021 4669.00 4375.40 82.07 26.00 175.22 3039.49
   23:45:55.549.27-Aug-2021 4669.00 4391.63 82.07 26.00 175.42 3039.49
   23:45:55.749.27-Aug-2021 4669.00 4397.84 82.07 26.00 175.62 3039.49
   23:45:55.949.27-Aug-2021 4669.00 4402.47 82.07 26.00 175.82 3039.49
   23:45:56.150.27-Aug-2021 4669.00 4406.93 82.07 26.00 176.02 3039.49
   23:45:56.350.27-Aug-2021 4669.00 4406.93 82.07 26.00 176.22 3039.49
   23:45:56.550.27-Aug-2021 4669.00 4413.80 82.07 26.00 176.42 3039.49
   23:45:56.750.27-Aug-2021 4669.00 4416.55 82.07 26.00 176.62 3039.49
   23:45:56.950.27-Aug-2021 4669.00 4419.28 82.07 26.00 176.82 3039.49
   23:45:57.150.27-Aug-2021 4669.00 4421.53 82.07 26.00 177.02 3039.49
   23:45:57.350.27-Aug-2021 4669.00 4421.53 82.07 26.00 177.22 3039.49
   23:45:57.550.27-Aug-2021 4669.00 4425.43 82.07 26.00 177.42 3039.49
   23:45:57.750.27-Aug-2021 4669.00 4428.14 82.07 26.00 177.62 3039.49
   23:45:57.950.27-Aug-2021 4669.00 4429.18 82.07 26.00 177.82 3039.49
   23:45:58.150.27-Aug-2021 4669.00 4430.69 82.07 26.00 178.02 3039.49
   23:45:58.350.27-Aug-2021 4669.00 4430.69 82.07 26.00 178.22 3039.49
   23:45:58.550.27-Aug-2021 4669.00 4433.51 82.07 26.00 178.42 3039.49
   23:45:58.750.27-Aug-2021 4669.00 4434.69 82.07 26.00 178.62 3039.49
   23:45:58.950.27-Aug-2021 4669.00 4435.98 82.07 26.00 178.82 3039.49
   23:45:59.150.27-Aug-2021 4669.00 4436.99 82.07 26.00 179.02 3039.49
   23:45:59.350.27-Aug-2021 4669.00 4436.99 82.07 26.00 179.22 3039.49
   23:45:59.550.27-Aug-2021 4669.00 4439.02 82.07 26.00 179.42 3039.49
   23:45:59.750.27-Aug-2021 4669.00 4440.00 82.07 26.00 179.62 3039.49
   23:45:59.950.27-Aug-2021 4669.00 4440.82 82.07 26.00 179.82 3039.49
   23:46:00.150.27-Aug-2021 4669.00 4441.73 82.07 26.00 180.02 3039.49
   23:46:00.350.27-Aug-2021 4669.00 4441.73 82.07 26.00 180.22 3039.49
   23:46:00.550.27-Aug-2021 4669.00 4443.28 82.07 26.00 180.42 3039.49
   23:46:00.750.27-Aug-2021 4669.00 4443.84 82.07 26.00 180.62 3039.49
