~Version Information
 VERS.                  2.0:   CWLS log ASCII Standard -VERSION 2.0
 WRAP.                   NO:   One line per depth step
~Well Information Block
#MNEM.UNIT     VALUE/NAME     DESCRIPTION
#---------     -----------    ---------------------------
 STRT.S             11:29:40 27-Aug-21: START TIME 11:29:40 27-Aug-21
 STOP.S             11:36:51 27-Aug-21: STOP TIME  11:36:51 27-Aug-21
 STEP.S                   0.00: STEP TIME
 NULL.                 -999.25: NULL VALUE
 DFWT.                        :  DIST FWL TEXT
 DFST.                        :  DIST FSL TEXT
 DMF .             Drill Floor:  DRILL MEAS FROM
 STIM.      20.00.00 17-Aug-21:  START TIME
 DATE.      19.00.00 29-Aug-21:  END TIME
 SPUD.               15-Aug-21:  SPUD DATE
 NREF.                    Grid:  NORTH REFERENCE
 HPTY.       Minimum Curvature:  HOLE POS TYPE
 DMOD.             Drill Model:  DRILL MOD DESC
 SVYD.                  Survey:  SURVEY DESC
 ILTD.               Lithology:  INTERP LTH DESC
 FTOP.          Formation Tops:  FORM TOPS DESC
 RIG .              East Azeri:  RIG NAME
 PDAT.          Mean Sea Level:  PERMANENT DATUM
 FLD .                     ACG:  FIELD NAME
 SON .        AZ-XX-0907180857:  JOB NUMBER
 CTRY.              Azerbaijan:  COUNTRY NAME
 WELL.                    D23x:  WELL NAME
 SRVC.     Turan Drilling and Engineering:  CONTRACTOR
 COMP.     BP Exploration (Caspian Sea) Ltd.:  COMPANY
 UWI .            /AZE00000214:  UNIQUE WELL IDENTIFIER
 API .            /AZE00000214:  API NUMBER
 MDS .        Operator Entered:  MAG DATA SOURCE
 BASE.              Azerbaijan:  LOGGING EQUIPMENT BASE LOCATION
 REGN.                   EESSA:  REGION
 PROV.                    Baku:  PROVINCE
 STAT.                    Baku:  STATE NAME
 MWDS.                    Baku:  MWD SHOP
 DOE .                     N/A:  DOE NUMBER
 DCON.         Sperry Drilling:  DIRECTNL CONTR
 UNIT.                     N/A:  LOGGING EQUIPMENT ID
 WTYP.                Deviated:  WELL TYPE
 CNTY.                        :  COUNTY
 LOC .                        :  LOCATION
 LMF .             Drill Floor:  LOG MEASURED FROM
 TVDS.m                  43.60:  TVDSS CORRECTN
 LATI.deg                40.02:  LATITUDE
 LONG.deg                51.45:  LONGITUDE
 WHNS.m                  -7.04:  WELL HEAD N/S
 WHEW.m                  -0.67:  WELL HEAD E/W
 UTMX.m              538762.90:  UTM X
 UTMY.m             4431871.34:  UTM Y
 DFWL.m                   0.00:  DISTANCE FWL
 DFSL.m                   0.00:  DISTANCE FSL
 SDEP.m                4127.00:  START DEPTH
 TDD .m                5084.50:  TOTAL DEPTH (DRILLER)
 VSDR.deg               140.47:  VERT SEC DIRECT
 GVFD.g                   1.00:  GRAVITY FIELD
 MFLD.nT              50362.00:  MAGNETIC FIELD
 MDIP.deg                59.48:  MAGNETIC DIP
 MDEC.deg                 6.47:  MAGNETIC DECL
 GRDC.deg                 0.31:  GRID CORRECTION
 AZTC.deg                 6.16:  AZM TOTAL CORR
 EPD .m                   0.00:  ELEVATION
 EGL .m                   0.00:  GROUND ELEVATION
 WDMS.m                 151.80:  WD ELEV
 APD .m                  43.60:  DEPTH ABOVE PD
 DEP .m                4092.57:  DEPTH
 AGAP.m                  43.60:  AIR GAP
 VSEW.m                  -0.67:  VERT SEC E/W
 VSNS.m                  -7.04:  VERT SEC N/S
 EKB .m                  43.60:  KB ELEVATION
 EDF .m                  43.60:  DF ELEVATION
 TDL .m                 957.50:  TOTAL DEPTH (LOGGER)
 VSC .                       0:  VS TO CLOSURE
 MAGU.                 1851413:  MAGUTM CHECKSUM
~Parameter Information Block
#MNEM.UNIT       Value        Description
#---------     -----------    ---------------------------
 AV  .mps                 1.50:  Ann Velocity 
 AVMX.mps                 2.00:  Max Ann Veloc 
 AZIF.deg               184.66:  Azm, Final 
 BHAT.        Rotary Steerable:  BHA Type 
 BREV.rev               300.00:  Rev Bit Total 
 BROT.°/30m              -0.50:  Build Rotating 
 BS  .in                  8.50:  Bit Size 
 BSZ .in                  8.50:  Bit Size 
 BTPL.psig              370.00:  Bit Press Loss 
 CABU.                      No:  Customer Abuse 
 CGEO.      Behruz Shahbaliyev:  Customer Geo 
 COMM.                     ,A[:  Run Comments 1 
 TCS .hr                140.08:  Time Ciculation Ended 
 CV  .mps                 3.00:  Crit Velocity 
 CVMX.mps                 3.20:  Max Crit Veloc 
 DD1 .            Musa Ahmadov:  Direct Drillr 1 
 DD2 .           Hamid Ahmadov:  Direct Drillr 2 
 DDSV.               Geo-Pilot:  DD Service 
 DEFF.%                  98.40:  % Det Eff 
 DLRX.°/30m               3.40:  Dogleg Rot Max 
 DLSO.°/30m               1.45:  Dogleg Oriented 
 DLSX.°/30m               3.40:  Dogleg Str Max 
 DRET.      18.40.00 29-Aug-21:  Drill End Time 
 DRST.      21.00.00 20-Aug-21:  Drill Start Tim 
 DTIM.hr                 69.47:  Time Drilling 
 EDEP.m                5084.50:  End Depth 
 ENG1.      Artemiy Matviyanov:  Engineer 1 
 ENG2.         Almaz Almadatov:  Engineer 2 
 ETIM.      18.40.00 29-Aug-21:  End Time 
 FLOI.gpm               500.00:  Flow In 
 FLON.gpm               400.00:  Flow In Min 
 FLOS.cptm                0.00:  Fluid Loss 
 FLOX.gpm               500.00:  Flow In Max 
 DFT .        Mineral Oil Base:  Mud Type 
 HFLO.                      No:  High Flow 
 HPRE.                      No:  High Pressure 
 HTEM.                      No:  High Temp 
 HYDO.m                   1.80:  Hydro Offset 
 IFIN.deg                25.62:  Inc, Final 
 IMAX.deg                48.69:  Inc Max 
 IMIN.deg                24.01:  Inc Min 
 IMND.m                4962.57:  Inc Min Depth 
 IMXD.m                4119.01:  Inc Max Depth 
 JARR.                      No:  Jarring 
 LETM.      18.40.00 29-Aug-21:  Log End Time 
 LOST.hr                     0:  Lost Rig Time 
 LSTM.      21.00.00 20-Aug-21:  Log Start Time 
 MDCL.ppm             41500.00:  Mud Chlorides 
 MDES.     Inversion Oil/Synthetic:  Mud Desc 
 DFD .sg                  1.56:  Mud Density 
 MDMN.sg                  1.56:  Dens Mud Min 
 MDMX.sg                  1.56:  Dens Mud Max 
 MOIL.                      70:  Run Mud Oil % 
 MOWR.                   70:30:  Run Mud OWR 
 MSND.                     0.2:  Run Mud Sand % 
 MSOL.                    23.3:  Run Mud Solids% 
 DFV .spqt               78.00:  Mud Viscosity 
 MWOD.in                  6.75:  MWD Tool OD 
 MWSI.                      No:  Serv Intrp, MWD 
 OTIM.hr                218.30:  Time Operating 
 PCON.           Look Like New:  Pad Condition 
 PMAX.psia            11015.30:  Press Op, Max 
 PV  .cP                 38.00:  Mud PV 
 RUN .                     300:  Run Number 
 ROPA.m/hr               15.00:  ROP Avg 
 ROPN.m/hr                9.00:  ROP Min 
 ROPX.m/hr               17.00:  ROP Max 
 RPMA.rpm               120.00:  RPM Surface Avg 
 RPMN.rpm                90.00:  RPM Surface Min 
 RPMX.rpm               140.00:  RPM Surface Max 
 RRUN.                     300:  Rig Run Number 
 RTIM.hr                 31.53:  Time Reaming 
 SAZI.deg               331.64:  Azm, Start 
 SDEP.m                4127.00:  Start Depth 
 SIDD.                      No:  Serv Intrp, DD 
 SINC.deg                48.43:  Inc, Start 
 SPPA.psig             5830.00:  SPP Avg 
 SPPN.psig             5600.00:  SPP Min 
 SPPX.psig             5900.00:  SPP Max 
 STIM.      21.00.00 20-Aug-21:  Start Time 
 SVCS.                 DD, MWD:  Services 
 SVER.                    9.20:  Sperry Version 
 TDAT.m                 957.50:  Tot Depth Attmp 
 TDDF.                      No:  Trip for DD 
 TDLG.m                 957.50:  Tot Depth Loggd 
 TFF .                      No:  Trip for Fail 
 TQAA.f-kp               15.00:  Torque Abs Avg 
 TQAN.f-kp               12.00:  Torque Abs Min 
 TQAX.f-kp               19.00:  Torque Abs Max 
 TRRT.°/30m              -3.40:  Turn Rotating 
 MRT .                  EWR-M5:  Maximum Recorded Temperature 
 TTMX.degC              100.00:  Max Tool Temp 
 VS01.                90639251:  Virtual Str1 SN 
 VS02.                90634715:  Virtual Str2 SN 
 VS03.                90652479:  Virtual Str3 SN 
 VS04.                90642262:  Virtual Str4 SN 
 WBMN.klb                 0.00:  WOB Min 
 WITN.           Murad Guliyev:  Customer Rep 
 WITN.          Yashar Gaziyev:  Customer Rep 2 
 WOBA.klb                 9.00:  WOB Avg 
 WOBX.klb                12.00:  WOB Max 
 YP  .lhf2               30.00:  Yield Point 
~Curve Information Block
#MNEM.UNIT                 API CODE     Curve Description
#---------               -----------    ---------------------------
 TIME.HHMMSS            00 000 000 000:  GT Time & Date
 GTDEPTH.m              00 000 000 000:  GT Depth
 GTPQH.psia             00 000 000 000:  GT HR Quartz Pressure
 GTTQ.degC              00 000 000 000:  GT Quartz Temperature
 GTTN.NONE              00 000 000 000:  GT Test Number
 GTET.sec               00 000 000 000:  GT Elapsed Test Time
 GTTVD.m                00 000 000 000:  GT True Vertical Depth
#Other Information
#
#WARRANTY: Halliburton will use its best efforts to furnish customers with 
#accurate information and interpretations that are part of, and incident to, the services 
#provided.  However, Halliburton cannot and does not warrant the accuracy 
#or correctness of such information and interpretations.  Under no circumstances should any 
#such information or interpretation be relied upon as the sole basis for any drilling, 
#completion, production, or financial decision or any procedure involving any risk to the 
#safety of any drilling venture, drilling rig or its crew or any other third party.  The 
#Customer has full responsibility for all drilling, completion and production operation.  
#Halliburton makes no representations or warranties, either expressed or 
#implied, including, but not limited to, the implied warranties of merchantability or fitness 
#for a particular purpose, with respect to the services rendered.  In no event will 
#Halliburton be liable for failure to obtain any particular results or for 
#any damages, including, but not limited to, indirect, special or consequential damages, 
#resulting from the use of any information or interpretation provided by Halliburton.
#
~A           TIME           GTDEPTH  GTPQH  GTTQ  GTTN   GTET   GTTVD  
# ...
   11:34:56.750.27-Aug-2021 4925.00 4811.23 85.52 10.00 316.51 3271.33
   11:34:56.950.27-Aug-2021 4925.00 4811.24 85.52 10.00 316.71 3271.33
   11:34:57.150.27-Aug-2021 4925.00 4811.24 85.52 10.00 316.91 3271.33
   11:34:57.350.27-Aug-2021 4925.00 4811.26 85.52 10.00 317.11 3271.33
   11:34:57.550.27-Aug-2021 4925.00 4811.26 85.52 10.00 317.31 3271.33
   11:34:57.750.27-Aug-2021 4925.00 4811.28 85.52 10.00 317.51 3271.33
   11:34:57.951.27-Aug-2021 4925.00 4811.32 85.52 10.00 317.71 3271.33
   11:34:58.151.27-Aug-2021 4925.00 4811.25 85.52 10.00 317.91 3271.33
   11:34:58.351.27-Aug-2021 4925.00 4811.25 85.52 10.00 318.11 3271.33
   11:34:58.551.27-Aug-2021 4925.00 4811.25 85.52 10.00 318.31 3271.33
   11:34:58.751.27-Aug-2021 4925.00 4811.20 85.52 10.00 318.51 3271.33
   11:34:58.951.27-Aug-2021 4925.00 4811.35 85.52 10.00 318.71 3271.33
   11:34:59.151.27-Aug-2021 4925.00 4811.26 85.52 10.00 318.91 3271.33
   11:34:59.351.27-Aug-2021 4925.00 4811.25 85.52 10.00 319.11 3271.33
   11:34:59.551.27-Aug-2021 4925.00 4811.25 85.52 10.00 319.31 3271.33
   11:34:59.751.27-Aug-2021 4925.00 4811.27 85.52 10.00 319.51 3271.33
   11:34:59.951.27-Aug-2021 4925.00 4811.27 85.52 10.00 319.71 3271.33
   11:35:00.151.27-Aug-2021 4925.00 4811.34 85.52 10.00 319.91 3271.33
   11:35:00.351.27-Aug-2021 4925.00 4811.24 85.52 10.00 320.11 3271.33
   11:35:00.551.27-Aug-2021 4925.00 4811.24 85.52 10.00 320.31 3271.33
   11:35:00.751.27-Aug-2021 4925.00 4811.28 85.52 10.00 320.51 3271.33
   11:35:00.952.27-Aug-2021 4925.00 4811.27 85.52 10.00 320.71 3271.33
   11:35:01.152.27-Aug-2021 4925.00 4811.27 85.52 10.00 320.91 3271.33
   11:35:01.352.27-Aug-2021 4925.00 4811.26 85.52 10.00 321.11 3271.33
   11:35:01.552.27-Aug-2021 4925.00 4811.26 85.52 10.00 321.31 3271.33
   11:35:01.752.27-Aug-2021 4925.00 4811.26 85.52 10.00 321.51 3271.33
   11:35:01.952.27-Aug-2021 4925.00 4811.27 85.52 10.00 321.71 3271.33
   11:35:02.152.27-Aug-2021 4925.00 4811.26 85.52 10.00 321.91 3271.33
   11:35:02.352.27-Aug-2021 4925.00 4811.26 85.52 10.00 322.11 3271.33
   11:35:02.552.27-Aug-2021 4925.00 4811.26 85.52 10.00 322.31 3271.33
   11:35:02.752.27-Aug-2021 4925.00 4811.26 85.52 10.00 322.51 3271.33
   11:35:02.952.27-Aug-2021 4925.00 4811.20 85.52 10.00 322.71 3271.33
   11:35:03.152.27-Aug-2021 4925.00 4811.35 85.52 10.00 322.91 3271.33
   11:35:03.352.27-Aug-2021 4925.00 4811.26 85.52 10.00 323.11 3271.33
   11:35:03.552.27-Aug-2021 4925.00 4811.26 85.52 10.00 323.31 3271.33
   11:35:03.753.27-Aug-2021 4925.00 4811.26 85.52 10.00 323.51 3271.33
   11:35:03.953.27-Aug-2021 4925.00 4811.27 85.52 10.00 323.71 3271.33
   11:35:04.153.27-Aug-2021 4925.00 4811.25 85.52 10.00 323.91 3271.33
   11:35:04.353.27-Aug-2021 4925.00 4811.26 85.52 10.00 324.12 3271.33
   11:35:04.553.27-Aug-2021 4925.00 4811.26 85.52 10.00 324.32 3271.33
   11:35:04.753.27-Aug-2021 4925.00 4811.25 85.52 10.00 324.52 3271.33
   11:35:04.953.27-Aug-2021 4925.00 4811.27 85.52 10.00 324.72 3271.33
   11:35:05.153.27-Aug-2021 4925.00 4811.26 85.52 10.00 324.92 3271.33
   11:35:05.353.27-Aug-2021 4925.00 4811.27 85.52 10.00 325.12 3271.33
   11:35:05.553.27-Aug-2021 4925.00 4811.27 85.52 10.00 325.32 3271.33
   11:35:05.753.27-Aug-2021 4925.00 4811.27 85.52 10.00 325.52 3271.33
   11:35:05.953.27-Aug-2021 4925.00 4811.25 85.52 10.00 325.72 3271.33
   11:35:06.153.27-Aug-2021 4925.00 4811.25 85.52 10.00 325.92 3271.33
   11:35:06.353.27-Aug-2021 4925.00 4811.27 85.52 10.00 326.12 3271.33
   11:35:06.554.27-Aug-2021 4925.00 4811.27 85.52 10.00 326.32 3271.33
   11:35:06.754.27-Aug-2021 4925.00 4811.27 85.52 10.00 326.52 3271.33
   11:35:06.954.27-Aug-2021 4925.00 4811.26 85.52 10.00 326.72 3271.33
   11:35:07.154.27-Aug-2021 4925.00 4811.25 85.52 10.00 326.92 3271.33
   11:35:07.354.27-Aug-2021 4925.00 4811.28 85.52 10.00 327.12 3271.33
   11:35:07.554.27-Aug-2021 4925.00 4811.28 85.52 10.00 327.32 3271.33
   11:35:07.754.27-Aug-2021 4925.00 4811.25 85.52 10.00 327.52 3271.33
   11:35:07.954.27-Aug-2021 4925.00 4811.26 85.52 10.00 327.72 3271.33
   11:35:08.154.27-Aug-2021 4925.00 4811.28 85.52 10.00 327.92 3271.33
   11:35:08.354.27-Aug-2021 4925.00 4811.27 85.52 10.00 328.12 3271.33
   11:35:08.554.27-Aug-2021 4925.00 4811.27 85.52 10.00 328.32 3271.33
   11:35:08.754.27-Aug-2021 4925.00 4811.28 85.52 10.00 328.52 3271.33
   11:35:08.954.27-Aug-2021 4925.00 4811.27 85.52 10.00 328.72 3271.33
   11:35:09.154.27-Aug-2021 4925.00 4811.29 85.52 10.00 328.92 3271.33
   11:35:09.355.27-Aug-2021 4925.00 4811.27 85.52 10.00 329.12 3271.33
   11:35:09.555.27-Aug-2021 4925.00 4811.27 85.52 10.00 329.32 3271.33
   11:35:09.755.27-Aug-2021 4925.00 4811.27 85.52 10.00 329.52 3271.33
   11:35:09.955.27-Aug-2021 4925.00 4811.29 85.52 10.00 329.72 3271.33
   11:35:10.155.27-Aug-2021 4925.00 4811.26 85.52 10.00 329.92 3271.33
   11:35:10.355.27-Aug-2021 4925.00 4811.28 85.52 10.00 330.12 3271.33
   11:35:10.555.27-Aug-2021 4925.00 4811.28 85.52 10.00 330.32 3271.33
   11:35:10.755.27-Aug-2021 4925.00 4811.28 85.52 10.00 330.52 3271.33
   11:35:10.955.27-Aug-2021 4925.00 4811.28 85.52 10.00 330.72 3271.33
   11:35:11.155.27-Aug-2021 4925.00 4811.28 85.52 10.00 330.92 3271.33
   11:35:11.355.27-Aug-2021 4925.00 4811.28 85.52 10.00 331.12 3271.33
   11:35:11.555.27-Aug-2021 4925.00 4811.28 85.52 10.00 331.32 3271.33
   11:35:11.755.27-Aug-2021 4925.00 4811.27 85.52 10.00 331.52 3271.33
   11:35:11.955.27-Aug-2021 4925.00 4811.27 85.52 10.00 331.72 3271.33
   11:35:12.156.27-Aug-2021 4925.00 4811.28 85.52 10.00 331.92 3271.33
   11:35:12.356.27-Aug-2021 4925.00 4811.27 85.52 10.00 332.12 3271.33
   11:35:12.556.27-Aug-2021 4925.00 4811.27 85.52 10.00 332.32 3271.33
   11:35:12.756.27-Aug-2021 4925.00 4811.27 85.52 10.00 332.52 3271.33
   11:35:12.956.27-Aug-2021 4925.00 4811.28 85.52 10.00 332.72 3271.33
   11:35:13.156.27-Aug-2021 4925.00 4811.28 85.52 10.00 332.92 3271.33
   11:35:13.356.27-Aug-2021 4925.00 4811.29 85.52 10.00 333.12 3271.33
   11:35:13.556.27-Aug-2021 4925.00 4811.29 85.52 10.00 333.32 3271.33
   11:35:13.756.27-Aug-2021 4925.00 4811.27 85.52 10.00 333.52 3271.33
   11:35:13.956.27-Aug-2021 4925.00 4811.27 85.52 10.00 333.72 3271.33
   11:35:14.156.27-Aug-2021 4925.00 4811.29 85.52 10.00 333.92 3271.33
   11:35:14.356.27-Aug-2021 4925.00 4811.26 85.52 10.00 334.12 3271.33
   11:35:14.556.27-Aug-2021 4925.00 4811.26 85.52 10.00 334.32 3271.33
   11:35:14.756.27-Aug-2021 4925.00 4811.27 85.52 10.00 334.52 3271.33
   11:35:14.957.27-Aug-2021 4925.00 4811.29 85.52 10.00 334.72 3271.33
   11:35:15.157.27-Aug-2021 4925.00 4811.27 85.52 10.00 334.92 3271.33
   11:35:15.357.27-Aug-2021 4925.00 4811.27 85.52 10.00 335.12 3271.33
   11:35:15.557.27-Aug-2021 4925.00 4811.27 85.52 10.00 335.32 3271.33
   11:35:15.757.27-Aug-2021 4925.00 4811.27 85.52 10.00 335.52 3271.33
   11:35:15.957.27-Aug-2021 4925.00 4811.27 85.52 10.00 335.72 3271.33
   11:35:16.157.27-Aug-2021 4925.00 4811.22 85.52 10.00 335.92 3271.33
   11:35:16.357.27-Aug-2021 4925.00 4811.35 85.52 10.00 336.12 3271.33
   11:35:16.557.27-Aug-2021 4925.00 4811.35 85.52 10.00 336.32 3271.33
   11:35:16.757.27-Aug-2021 4925.00 4811.25 85.52 10.00 336.52 3271.33
   11:35:16.957.27-Aug-2021 4925.00 4811.26 85.52 10.00 336.72 3271.33
   11:35:17.157.27-Aug-2021 4925.00 4811.27 85.52 10.00 336.92 3271.33
   11:35:17.357.27-Aug-2021 4925.00 4811.22 85.52 10.00 337.12 3271.33
   11:35:17.557.27-Aug-2021 4925.00 4811.22 85.52 10.00 337.32 3271.33
   11:35:17.758.27-Aug-2021 4925.00 4811.34 85.52 10.00 337.52 3271.33
   11:35:17.958.27-Aug-2021 4925.00 4811.27 85.52 10.00 337.72 3271.33
   11:35:18.158.27-Aug-2021 4925.00 4811.27 85.52 10.00 337.92 3271.33
   11:35:18.358.27-Aug-2021 4925.00 4811.28 85.52 10.00 338.12 3271.33
   11:35:18.558.27-Aug-2021 4925.00 4811.28 85.52 10.00 338.32 3271.33
   11:35:18.758.27-Aug-2021 4925.00 4811.36 85.52 10.00 338.52 3271.33
   11:35:18.958.27-Aug-2021 4925.00 4811.26 85.52 10.00 338.72 3271.33
   11:35:19.158.27-Aug-2021 4925.00 4811.27 85.52 10.00 338.92 3271.33
