~Version Information
 VERS.                  2.0:   CWLS log ASCII Standard -VERSION 2.0
 WRAP.                   NO:   One line per depth step
~Well Information Block
#MNEM.UNIT     VALUE/NAME     DESCRIPTION
#---------     -----------    ---------------------------
 STRT.S             10:06:49 27-Aug-21: START TIME 10:06:49 27-Aug-21
 STOP.S             10:13:57 27-Aug-21: STOP TIME  10:13:57 27-Aug-21
 STEP.S                   0.00: STEP TIME
 NULL.                 -999.25: NULL VALUE
 DFWT.                        :  DIST FWL TEXT
 DFST.                        :  DIST FSL TEXT
 DMF .             Drill Floor:  DRILL MEAS FROM
 STIM.      20.00.00 17-Aug-21:  START TIME
 DATE.      19.00.00 29-Aug-21:  END TIME
 SPUD.               15-Aug-21:  SPUD DATE
 NREF.                    Grid:  NORTH REFERENCE
 HPTY.       Minimum Curvature:  HOLE POS TYPE
 DMOD.             Drill Model:  DRILL MOD DESC
 SVYD.                  Survey:  SURVEY DESC
 ILTD.               Lithology:  INTERP LTH DESC
 FTOP.          Formation Tops:  FORM TOPS DESC
 RIG .              East Azeri:  RIG NAME
 PDAT.          Mean Sea Level:  PERMANENT DATUM
 FLD .                     ACG:  FIELD NAME
 SON .        AZ-XX-0907180857:  JOB NUMBER
 CTRY.              Azerbaijan:  COUNTRY NAME
 WELL.                    D23x:  WELL NAME
 SRVC.     Turan Drilling and Engineering:  CONTRACTOR
 COMP.     BP Exploration (Caspian Sea) Ltd.:  COMPANY
 UWI .            /AZE00000214:  UNIQUE WELL IDENTIFIER
 API .            /AZE00000214:  API NUMBER
 MDS .        Operator Entered:  MAG DATA SOURCE
 BASE.              Azerbaijan:  LOGGING EQUIPMENT BASE LOCATION
 REGN.                   EESSA:  REGION
 PROV.                    Baku:  PROVINCE
 STAT.                    Baku:  STATE NAME
 MWDS.                    Baku:  MWD SHOP
 DOE .                     N/A:  DOE NUMBER
 DCON.         Sperry Drilling:  DIRECTNL CONTR
 UNIT.                     N/A:  LOGGING EQUIPMENT ID
 WTYP.                Deviated:  WELL TYPE
 CNTY.                        :  COUNTY
 LOC .                        :  LOCATION
 LMF .             Drill Floor:  LOG MEASURED FROM
 TVDS.m                  43.60:  TVDSS CORRECTN
 LATI.deg                40.02:  LATITUDE
 LONG.deg                51.45:  LONGITUDE
 WHNS.m                  -7.04:  WELL HEAD N/S
 WHEW.m                  -0.67:  WELL HEAD E/W
 UTMX.m              538762.90:  UTM X
 UTMY.m             4431871.34:  UTM Y
 DFWL.m                   0.00:  DISTANCE FWL
 DFSL.m                   0.00:  DISTANCE FSL
 SDEP.m                4127.00:  START DEPTH
 TDD .m                5084.50:  TOTAL DEPTH (DRILLER)
 VSDR.deg               140.47:  VERT SEC DIRECT
 GVFD.g                   1.00:  GRAVITY FIELD
 MFLD.nT              50362.00:  MAGNETIC FIELD
 MDIP.deg                59.48:  MAGNETIC DIP
 MDEC.deg                 6.47:  MAGNETIC DECL
 GRDC.deg                 0.31:  GRID CORRECTION
 AZTC.deg                 6.16:  AZM TOTAL CORR
 EPD .m                   0.00:  ELEVATION
 EGL .m                   0.00:  GROUND ELEVATION
 WDMS.m                 151.80:  WD ELEV
 APD .m                  43.60:  DEPTH ABOVE PD
 DEP .m                4092.57:  DEPTH
 AGAP.m                  43.60:  AIR GAP
 VSEW.m                  -0.67:  VERT SEC E/W
 VSNS.m                  -7.04:  VERT SEC N/S
 EKB .m                  43.60:  KB ELEVATION
 EDF .m                  43.60:  DF ELEVATION
 TDL .m                 957.50:  TOTAL DEPTH (LOGGER)
 VSC .                       0:  VS TO CLOSURE
 MAGU.                 1851413:  MAGUTM CHECKSUM
~Parameter Information Block
#MNEM.UNIT       Value        Description
#---------     -----------    ---------------------------
 AV  .mps                 1.50:  Ann Velocity 
 AVMX.mps                 2.00:  Max Ann Veloc 
 AZIF.deg               184.66:  Azm, Final 
 BHAT.        Rotary Steerable:  BHA Type 
 BREV.rev               300.00:  Rev Bit Total 
 BROT.°/30m              -0.50:  Build Rotating 
 BS  .in                  8.50:  Bit Size 
 BSZ .in                  8.50:  Bit Size 
 BTPL.psig              370.00:  Bit Press Loss 
 CABU.                      No:  Customer Abuse 
 CGEO.      Behruz Shahbaliyev:  Customer Geo 
 COMM.                     Ììg:  Run Comments 1 
 TCS .hr                140.08:  Time Ciculation Ended 
 CV  .mps                 3.00:  Crit Velocity 
 CVMX.mps                 3.20:  Max Crit Veloc 
 DD1 .            Musa Ahmadov:  Direct Drillr 1 
 DD2 .           Hamid Ahmadov:  Direct Drillr 2 
 DDSV.               Geo-Pilot:  DD Service 
 DEFF.%                  98.40:  % Det Eff 
 DLRX.°/30m               3.40:  Dogleg Rot Max 
 DLSO.°/30m               1.45:  Dogleg Oriented 
 DLSX.°/30m               3.40:  Dogleg Str Max 
 DRET.      18.40.00 29-Aug-21:  Drill End Time 
 DRST.      21.00.00 20-Aug-21:  Drill Start Tim 
 DTIM.hr                 69.47:  Time Drilling 
 EDEP.m                5084.50:  End Depth 
 ENG1.      Artemiy Matviyanov:  Engineer 1 
 ENG2.         Almaz Almadatov:  Engineer 2 
 ETIM.      18.40.00 29-Aug-21:  End Time 
 FLOI.gpm               500.00:  Flow In 
 FLON.gpm               400.00:  Flow In Min 
 FLOS.cptm                0.00:  Fluid Loss 
 FLOX.gpm               500.00:  Flow In Max 
 DFT .        Mineral Oil Base:  Mud Type 
 HFLO.                      No:  High Flow 
 HPRE.                      No:  High Pressure 
 HTEM.                      No:  High Temp 
 HYDO.m                   1.80:  Hydro Offset 
 IFIN.deg                25.62:  Inc, Final 
 IMAX.deg                48.69:  Inc Max 
 IMIN.deg                24.01:  Inc Min 
 IMND.m                4962.57:  Inc Min Depth 
 IMXD.m                4119.01:  Inc Max Depth 
 JARR.                      No:  Jarring 
 LETM.      18.40.00 29-Aug-21:  Log End Time 
 LOST.hr                     0:  Lost Rig Time 
 LSTM.      21.00.00 20-Aug-21:  Log Start Time 
 MDCL.ppm             41500.00:  Mud Chlorides 
 MDES.     Inversion Oil/Synthetic:  Mud Desc 
 DFD .sg                  1.56:  Mud Density 
 MDMN.sg                  1.56:  Dens Mud Min 
 MDMX.sg                  1.56:  Dens Mud Max 
 MOIL.                      70:  Run Mud Oil % 
 MOWR.                   70:30:  Run Mud OWR 
 MSND.                     0.2:  Run Mud Sand % 
 MSOL.                    23.3:  Run Mud Solids% 
 DFV .spqt               78.00:  Mud Viscosity 
 MWOD.in                  6.75:  MWD Tool OD 
 MWSI.                      No:  Serv Intrp, MWD 
 OTIM.hr                218.30:  Time Operating 
 PCON.           Look Like New:  Pad Condition 
 PMAX.psia            11015.30:  Press Op, Max 
 PV  .cP                 38.00:  Mud PV 
 RUN .                     300:  Run Number 
 ROPA.m/hr               15.00:  ROP Avg 
 ROPN.m/hr                9.00:  ROP Min 
 ROPX.m/hr               17.00:  ROP Max 
 RPMA.rpm               120.00:  RPM Surface Avg 
 RPMN.rpm                90.00:  RPM Surface Min 
 RPMX.rpm               140.00:  RPM Surface Max 
 RRUN.                     300:  Rig Run Number 
 RTIM.hr                 31.53:  Time Reaming 
 SAZI.deg               331.64:  Azm, Start 
 SDEP.m                4127.00:  Start Depth 
 SIDD.                      No:  Serv Intrp, DD 
 SINC.deg                48.43:  Inc, Start 
 SPPA.psig             5830.00:  SPP Avg 
 SPPN.psig             5600.00:  SPP Min 
 SPPX.psig             5900.00:  SPP Max 
 STIM.      21.00.00 20-Aug-21:  Start Time 
 SVCS.                 DD, MWD:  Services 
 SVER.                    9.20:  Sperry Version 
 TDAT.m                 957.50:  Tot Depth Attmp 
 TDDF.                      No:  Trip for DD 
 TDLG.m                 957.50:  Tot Depth Loggd 
 TFF .                      No:  Trip for Fail 
 TQAA.f-kp               15.00:  Torque Abs Avg 
 TQAN.f-kp               12.00:  Torque Abs Min 
 TQAX.f-kp               19.00:  Torque Abs Max 
 TRRT.°/30m              -3.40:  Turn Rotating 
 MRT .                  EWR-M5:  Maximum Recorded Temperature 
 TTMX.degC              100.00:  Max Tool Temp 
 VS01.                90639251:  Virtual Str1 SN 
 VS02.                90634715:  Virtual Str2 SN 
 VS03.                90652479:  Virtual Str3 SN 
 VS04.                90642262:  Virtual Str4 SN 
 WBMN.klb                 0.00:  WOB Min 
 WITN.           Murad Guliyev:  Customer Rep 
 WITN.          Yashar Gaziyev:  Customer Rep 2 
 WOBA.klb                 9.00:  WOB Avg 
 WOBX.klb                12.00:  WOB Max 
 YP  .lhf2               30.00:  Yield Point 
~Curve Information Block
#MNEM.UNIT                 API CODE     Curve Description
#---------               -----------    ---------------------------
 TIME.HHMMSS            00 000 000 000:  GT Time & Date
 GTDEPTH.m              00 000 000 000:  GT Depth
 GTPQH.psia             00 000 000 000:  GT HR Quartz Pressure
 GTTQ.degC              00 000 000 000:  GT Quartz Temperature
 GTTN.NONE              00 000 000 000:  GT Test Number
 GTET.sec               00 000 000 000:  GT Elapsed Test Time
 GTTVD.m                00 000 000 000:  GT True Vertical Depth
#Other Information
#
#WARRANTY: Halliburton will use its best efforts to furnish customers with 
#accurate information and interpretations that are part of, and incident to, the services 
#provided.  However, Halliburton cannot and does not warrant the accuracy 
#or correctness of such information and interpretations.  Under no circumstances should any 
#such information or interpretation be relied upon as the sole basis for any drilling, 
#completion, production, or financial decision or any procedure involving any risk to the 
#safety of any drilling venture, drilling rig or its crew or any other third party.  The 
#Customer has full responsibility for all drilling, completion and production operation.  
#Halliburton makes no representations or warranties, either expressed or 
#implied, including, but not limited to, the implied warranties of merchantability or fitness 
#for a particular purpose, with respect to the services rendered.  In no event will 
#Halliburton be liable for failure to obtain any particular results or for 
#any damages, including, but not limited to, indirect, special or consequential damages, 
#resulting from the use of any information or interpretation provided by Halliburton.
#
~A           TIME           GTDEPTH  GTPQH  GTTQ  GTTN  GTET   GTTVD  
# ...
   10:12:10.750.27-Aug-2021 4958.50 7889.45 86.03 8.00 321.62 3301.91
   10:12:10.949.27-Aug-2021 4958.50 7889.45 86.03 8.00 321.82 3301.91
   10:12:11.149.27-Aug-2021 4958.50 7888.92 86.03 8.00 322.02 3301.91
   10:12:11.349.27-Aug-2021 4958.50 7892.30 86.03 8.00 322.22 3301.91
   10:12:11.549.27-Aug-2021 4958.50 7890.09 86.03 8.00 322.42 3301.91
   10:12:11.748.27-Aug-2021 4958.50 7888.76 86.03 8.00 322.61 3301.91
   10:12:11.948.27-Aug-2021 4958.50 7888.76 86.03 8.00 322.81 3301.91
   10:12:12.148.27-Aug-2021 4958.50 7888.04 86.03 8.00 323.01 3301.91
   10:12:12.348.27-Aug-2021 4958.50 7890.91 86.03 8.00 323.21 3301.91
   10:12:12.548.27-Aug-2021 4958.50 7888.46 86.03 8.00 323.41 3301.91
   10:12:12.747.27-Aug-2021 4958.50 7889.34 86.03 8.00 323.61 3301.91
   10:12:12.947.27-Aug-2021 4958.50 7889.34 86.03 8.00 323.81 3301.91
   10:12:13.147.27-Aug-2021 4958.50 7888.27 86.03 8.00 324.01 3301.91
   10:12:13.347.27-Aug-2021 4958.50 7888.64 86.03 8.00 324.21 3301.91
   10:12:13.546.27-Aug-2021 4958.50 7888.87 86.03 8.00 324.41 3301.91
   10:12:13.746.27-Aug-2021 4958.50 7893.44 86.03 8.00 324.61 3301.91
   10:12:13.946.27-Aug-2021 4958.50 7893.44 86.03 8.00 324.81 3301.91
   10:12:14.146.27-Aug-2021 4958.50 7888.86 86.03 8.00 325.01 3301.91
   10:12:14.345.27-Aug-2021 4958.50 7888.58 86.03 8.00 325.21 3301.91
   10:12:14.545.27-Aug-2021 4958.50 7888.76 86.03 8.00 325.41 3301.91
   10:12:14.745.27-Aug-2021 4958.50 7893.67 86.03 8.00 325.61 3301.91
   10:12:14.945.27-Aug-2021 4958.50 7893.67 86.03 8.00 325.81 3301.91
   10:12:15.144.27-Aug-2021 4958.50 7888.57 86.03 8.00 326.01 3301.91
   10:12:15.344.27-Aug-2021 4958.50 7887.58 86.03 8.00 326.21 3301.91
   10:12:15.544.27-Aug-2021 4958.50 7887.64 86.03 8.00 326.41 3301.91
   10:12:15.744.27-Aug-2021 4958.50 7888.46 86.03 8.00 326.61 3301.91
   10:12:15.943.27-Aug-2021 4958.50 7888.46 86.03 8.00 326.81 3301.91
   10:12:16.143.27-Aug-2021 4958.50 7888.47 86.03 8.00 327.01 3301.91
   10:12:16.343.27-Aug-2021 4958.50 7888.25 86.03 8.00 327.21 3301.91
   10:12:16.543.27-Aug-2021 4958.50 7888.40 86.03 8.00 327.41 3301.91
   10:12:16.742.27-Aug-2021 4958.50 7889.26 86.03 8.00 327.61 3301.91
   10:12:16.942.27-Aug-2021 4958.50 7889.26 86.03 8.00 327.81 3301.91
   10:12:17.142.27-Aug-2021 4958.50 7889.56 86.03 8.00 328.01 3301.91
   10:12:17.342.27-Aug-2021 4958.50 7889.28 86.03 8.00 328.21 3301.91
   10:12:17.542.27-Aug-2021 4958.50 7888.87 86.03 8.00 328.41 3301.91
   10:12:17.741.27-Aug-2021 4958.50 7888.48 86.03 8.00 328.61 3301.91
   10:12:17.941.27-Aug-2021 4958.50 7888.48 86.03 8.00 328.81 3301.91
   10:12:18.141.27-Aug-2021 4958.50 7894.30 86.03 8.00 329.01 3301.91
   10:12:18.341.27-Aug-2021 4958.50 7889.54 86.03 8.00 329.21 3301.91
   10:12:18.540.27-Aug-2021 4958.50 7888.37 86.03 8.00 329.41 3301.91
   10:12:18.740.27-Aug-2021 4958.50 7887.94 86.03 8.00 329.61 3301.91
   10:12:18.940.27-Aug-2021 4958.50 7887.94 86.03 8.00 329.81 3301.91
   10:12:19.140.27-Aug-2021 4958.50 7888.40 86.03 8.00 330.01 3301.91
   10:12:19.339.27-Aug-2021 4958.50 7888.14 86.03 8.00 330.21 3301.91
   10:12:19.539.27-Aug-2021 4958.50 7888.23 86.03 8.00 330.41 3301.91
   10:12:19.739.27-Aug-2021 4958.50 7888.47 86.03 8.00 330.61 3301.91
   10:12:19.939.27-Aug-2021 4958.50 7888.47 86.03 8.00 330.81 3301.91
   10:12:20.138.27-Aug-2021 4958.50 7889.58 86.03 8.00 331.00 3301.91
   10:12:20.338.27-Aug-2021 4958.50 7889.84 86.03 8.00 331.20 3301.91
   10:12:20.538.27-Aug-2021 4958.50 7889.37 86.03 8.00 331.40 3301.91
   10:12:20.738.27-Aug-2021 4958.50 7889.20 86.03 8.00 331.60 3301.91
   10:12:20.937.27-Aug-2021 4958.50 7889.20 86.03 8.00 331.80 3301.91
   10:12:21.137.27-Aug-2021 4958.50 7888.56 86.03 8.00 332.00 3301.91
   10:12:21.337.27-Aug-2021 4958.50 7894.37 86.03 8.00 332.20 3301.91
   10:12:21.537.27-Aug-2021 4958.50 7886.08 86.03 8.00 332.40 3301.91
   10:12:21.737.27-Aug-2021 4958.50 7889.66 86.03 8.00 332.60 3301.91
   10:12:21.936.27-Aug-2021 4958.50 7889.66 86.03 8.00 332.80 3301.91
   10:12:22.136.27-Aug-2021 4958.50 7887.77 86.03 8.00 333.00 3301.91
   10:12:22.336.27-Aug-2021 4958.50 7888.01 86.03 8.00 333.20 3301.91
   10:12:22.536.27-Aug-2021 4958.50 7891.45 86.03 8.00 333.40 3301.91
   10:12:22.735.27-Aug-2021 4958.50 7889.48 86.03 8.00 333.60 3301.91
   10:12:22.935.27-Aug-2021 4958.50 7889.48 86.03 8.00 333.80 3301.91
   10:12:23.135.27-Aug-2021 4958.50 7887.86 86.03 8.00 334.00 3301.91
   10:12:23.335.27-Aug-2021 4958.50 7888.43 86.03 8.00 334.20 3301.91
   10:12:23.534.27-Aug-2021 4958.50 7888.84 86.03 8.00 334.40 3301.91
   10:12:23.734.27-Aug-2021 4958.50 7894.86 86.03 8.00 334.60 3301.91
   10:12:23.934.27-Aug-2021 4958.50 7894.86 86.03 8.00 334.80 3301.91
   10:12:24.134.27-Aug-2021 4958.50 7889.89 86.03 8.00 335.00 3301.91
   10:12:24.333.27-Aug-2021 4958.50 7888.28 86.03 8.00 335.20 3301.91
   10:12:24.533.27-Aug-2021 4958.50 7894.50 86.03 8.00 335.40 3301.91
   10:12:24.733.27-Aug-2021 4958.50 7886.62 86.03 8.00 335.60 3301.91
   10:12:24.933.27-Aug-2021 4958.50 7886.62 86.03 8.00 335.80 3301.91
   10:12:25.132.27-Aug-2021 4958.50 7888.29 86.03 8.00 336.00 3301.91
   10:12:25.332.27-Aug-2021 4958.50 7887.22 86.03 8.00 336.20 3301.91
   10:12:25.532.27-Aug-2021 4958.50 7887.40 86.03 8.00 336.40 3301.91
   10:12:25.732.27-Aug-2021 4958.50 7888.13 86.03 8.00 336.60 3301.91
   10:12:25.932.27-Aug-2021 4958.50 7888.13 86.03 8.00 336.80 3301.91
   10:12:26.131.27-Aug-2021 4958.50 7888.16 86.03 8.00 337.00 3301.91
   10:12:26.331.27-Aug-2021 4958.50 7888.36 86.03 8.00 337.20 3301.91
   10:12:26.531.27-Aug-2021 4958.50 7888.83 86.03 8.00 337.40 3301.91
   10:12:26.731.27-Aug-2021 4958.50 7889.36 86.03 8.00 337.60 3301.91
   10:12:26.930.27-Aug-2021 4958.50 7889.36 86.03 8.00 337.80 3301.91
   10:12:27.130.27-Aug-2021 4958.50 7889.43 86.03 8.00 338.00 3301.91
   10:12:27.330.27-Aug-2021 4958.50 7889.19 86.03 8.00 338.20 3301.91
   10:12:27.530.27-Aug-2021 4958.50 7888.73 86.03 8.00 338.40 3301.91
   10:12:27.729.27-Aug-2021 4958.50 7891.09 86.03 8.00 338.60 3301.91
   10:12:27.929.27-Aug-2021 4958.50 7891.09 86.03 8.00 338.80 3301.91
   10:12:28.129.27-Aug-2021 4958.50 7889.94 86.03 8.00 339.00 3301.91
   10:12:28.329.27-Aug-2021 4958.50 7888.70 86.03 8.00 339.19 3301.91
   10:12:28.528.27-Aug-2021 4958.50 7888.20 86.03 8.00 339.39 3301.91
   10:12:28.728.27-Aug-2021 4958.50 7888.02 86.03 8.00 339.59 3301.91
   10:12:28.928.27-Aug-2021 4958.50 7888.02 86.03 8.00 339.79 3301.91
   10:12:29.128.27-Aug-2021 4958.50 7888.19 86.03 8.00 339.99 3301.91
   10:12:29.327.27-Aug-2021 4958.50 7887.74 86.03 8.00 340.19 3301.91
   10:12:29.527.27-Aug-2021 4958.50 7888.19 86.03 8.00 340.39 3301.91
   10:12:29.727.27-Aug-2021 4958.50 7888.63 86.03 8.00 340.59 3301.91
   10:12:29.927.27-Aug-2021 4958.50 7888.63 86.03 8.00 340.79 3301.91
   10:12:30.127.27-Aug-2021 4958.50 7889.37 86.03 8.00 340.99 3301.91
   10:12:30.326.27-Aug-2021 4958.50 7889.19 86.03 8.00 341.19 3301.91
   10:12:30.526.27-Aug-2021 4958.50 7888.97 86.03 8.00 341.39 3301.91
   10:12:30.726.27-Aug-2021 4958.50 7888.80 86.03 8.00 341.59 3301.91
   10:12:30.926.27-Aug-2021 4958.50 7888.80 86.03 8.00 341.79 3301.91
   10:12:31.125.27-Aug-2021 4958.50 7891.00 86.03 8.00 341.99 3301.91
   10:12:31.325.27-Aug-2021 4958.50 7889.41 86.03 8.00 342.19 3301.91
   10:12:31.525.27-Aug-2021 4958.50 7889.52 86.03 8.00 342.39 3301.91
   10:12:31.725.27-Aug-2021 4958.50 7888.36 86.03 8.00 342.59 3301.91
   10:12:31.924.27-Aug-2021 4958.50 7888.36 86.03 8.00 342.79 3301.91
   10:12:32.124.27-Aug-2021 4958.50 7887.79 86.03 8.00 342.99 3301.91
   10:12:32.324.27-Aug-2021 4958.50 7887.89 86.03 8.00 343.19 3301.91
   10:12:32.524.27-Aug-2021 4958.50 7891.18 86.03 8.00 343.39 3301.91
   10:12:32.723.27-Aug-2021 4958.50 7889.05 86.03 8.00 343.59 3301.91
   10:12:32.923.27-Aug-2021 4958.50 7889.05 86.03 8.00 343.79 3301.91
   10:12:33.123.27-Aug-2021 4958.50 7888.33 86.03 8.00 343.99 3301.91
   10:12:33.323.27-Aug-2021 4958.50 7888.64 86.03 8.00 344.19 3301.91
   10:12:33.522.27-Aug-2021 4958.50 7888.81 86.03 8.00 344.39 3301.91
