~Version Information
 VERS.                  2.0:   CWLS log ASCII Standard -VERSION 2.0
 WRAP.                   NO:   One line per depth step
~Well Information Block
#MNEM.UNIT     VALUE/NAME     DESCRIPTION
#---------     -----------    ---------------------------
 STRT.S             10:43:45 27-Aug-21: START TIME 10:43:45 27-Aug-21
 STOP.S             10:50:54 27-Aug-21: STOP TIME  10:50:54 27-Aug-21
 STEP.S                   0.00: STEP TIME
 NULL.                 -999.25: NULL VALUE
 DFWT.                        :  DIST FWL TEXT
 DFST.                        :  DIST FSL TEXT
 DMF .             Drill Floor:  DRILL MEAS FROM
 STIM.      20.00.00 17-Aug-21:  START TIME
 DATE.      19.00.00 29-Aug-21:  END TIME
 SPUD.               15-Aug-21:  SPUD DATE
 NREF.                    Grid:  NORTH REFERENCE
 HPTY.       Minimum Curvature:  HOLE POS TYPE
 DMOD.             Drill Model:  DRILL MOD DESC
 SVYD.                  Survey:  SURVEY DESC
 ILTD.               Lithology:  INTERP LTH DESC
 FTOP.          Formation Tops:  FORM TOPS DESC
 RIG .              East Azeri:  RIG NAME
 PDAT.          Mean Sea Level:  PERMANENT DATUM
 FLD .                     ACG:  FIELD NAME
 SON .        AZ-XX-0907180857:  JOB NUMBER
 CTRY.              Azerbaijan:  COUNTRY NAME
 WELL.                    D23x:  WELL NAME
 SRVC.     Turan Drilling and Engineering:  CONTRACTOR
 COMP.     BP Exploration (Caspian Sea) Ltd.:  COMPANY
 UWI .            /AZE00000214:  UNIQUE WELL IDENTIFIER
 API .            /AZE00000214:  API NUMBER
 MDS .        Operator Entered:  MAG DATA SOURCE
 BASE.              Azerbaijan:  LOGGING EQUIPMENT BASE LOCATION
 REGN.                   EESSA:  REGION
 PROV.                    Baku:  PROVINCE
 STAT.                    Baku:  STATE NAME
 MWDS.                    Baku:  MWD SHOP
 DOE .                     N/A:  DOE NUMBER
 DCON.         Sperry Drilling:  DIRECTNL CONTR
 UNIT.                     N/A:  LOGGING EQUIPMENT ID
 WTYP.                Deviated:  WELL TYPE
 CNTY.                        :  COUNTY
 LOC .                        :  LOCATION
 LMF .             Drill Floor:  LOG MEASURED FROM
 TVDS.m                  43.60:  TVDSS CORRECTN
 LATI.deg                40.02:  LATITUDE
 LONG.deg                51.45:  LONGITUDE
 WHNS.m                  -7.04:  WELL HEAD N/S
 WHEW.m                  -0.67:  WELL HEAD E/W
 UTMX.m              538762.90:  UTM X
 UTMY.m             4431871.34:  UTM Y
 DFWL.m                   0.00:  DISTANCE FWL
 DFSL.m                   0.00:  DISTANCE FSL
 SDEP.m                4127.00:  START DEPTH
 TDD .m                5084.50:  TOTAL DEPTH (DRILLER)
 VSDR.deg               140.47:  VERT SEC DIRECT
 GVFD.g                   1.00:  GRAVITY FIELD
 MFLD.nT              50362.00:  MAGNETIC FIELD
 MDIP.deg                59.48:  MAGNETIC DIP
 MDEC.deg                 6.47:  MAGNETIC DECL
 GRDC.deg                 0.31:  GRID CORRECTION
 AZTC.deg                 6.16:  AZM TOTAL CORR
 EPD .m                   0.00:  ELEVATION
 EGL .m                   0.00:  GROUND ELEVATION
 WDMS.m                 151.80:  WD ELEV
 APD .m                  43.60:  DEPTH ABOVE PD
 DEP .m                4092.57:  DEPTH
 AGAP.m                  43.60:  AIR GAP
 VSEW.m                  -0.67:  VERT SEC E/W
 VSNS.m                  -7.04:  VERT SEC N/S
 EKB .m                  43.60:  KB ELEVATION
 EDF .m                  43.60:  DF ELEVATION
 TDL .m                 957.50:  TOTAL DEPTH (LOGGER)
 VSC .                       0:  VS TO CLOSURE
 MAGU.                 1851413:  MAGUTM CHECKSUM
~Parameter Information Block
#MNEM.UNIT       Value        Description
#---------     -----------    ---------------------------
 AV  .mps                 1.50:  Ann Velocity 
 AVMX.mps                 2.00:  Max Ann Veloc 
 AZIF.deg               184.66:  Azm, Final 
 BHAT.        Rotary Steerable:  BHA Type 
 BREV.rev               300.00:  Rev Bit Total 
 BROT.°/30m              -0.50:  Build Rotating 
 BS  .in                  8.50:  Bit Size 
 BSZ .in                  8.50:  Bit Size 
 BTPL.psig              370.00:  Bit Press Loss 
 CABU.                      No:  Customer Abuse 
 CGEO.      Behruz Shahbaliyev:  Customer Geo 
 COMM.                     $K:  Run Comments 1 
 TCS .hr                140.08:  Time Ciculation Ended 
 CV  .mps                 3.00:  Crit Velocity 
 CVMX.mps                 3.20:  Max Crit Veloc 
 DD1 .            Musa Ahmadov:  Direct Drillr 1 
 DD2 .           Hamid Ahmadov:  Direct Drillr 2 
 DDSV.               Geo-Pilot:  DD Service 
 DEFF.%                  98.40:  % Det Eff 
 DLRX.°/30m               3.40:  Dogleg Rot Max 
 DLSO.°/30m               1.45:  Dogleg Oriented 
 DLSX.°/30m               3.40:  Dogleg Str Max 
 DRET.      18.40.00 29-Aug-21:  Drill End Time 
 DRST.      21.00.00 20-Aug-21:  Drill Start Tim 
 DTIM.hr                 69.47:  Time Drilling 
 EDEP.m                5084.50:  End Depth 
 ENG1.      Artemiy Matviyanov:  Engineer 1 
 ENG2.         Almaz Almadatov:  Engineer 2 
 ETIM.      18.40.00 29-Aug-21:  End Time 
 FLOI.gpm               500.00:  Flow In 
 FLON.gpm               400.00:  Flow In Min 
 FLOS.cptm                0.00:  Fluid Loss 
 FLOX.gpm               500.00:  Flow In Max 
 DFT .        Mineral Oil Base:  Mud Type 
 HFLO.                      No:  High Flow 
 HPRE.                      No:  High Pressure 
 HTEM.                      No:  High Temp 
 HYDO.m                   1.80:  Hydro Offset 
 IFIN.deg                25.62:  Inc, Final 
 IMAX.deg                48.69:  Inc Max 
 IMIN.deg                24.01:  Inc Min 
 IMND.m                4962.57:  Inc Min Depth 
 IMXD.m                4119.01:  Inc Max Depth 
 JARR.                      No:  Jarring 
 LETM.      18.40.00 29-Aug-21:  Log End Time 
 LOST.hr                     0:  Lost Rig Time 
 LSTM.      21.00.00 20-Aug-21:  Log Start Time 
 MDCL.ppm             41500.00:  Mud Chlorides 
 MDES.     Inversion Oil/Synthetic:  Mud Desc 
 DFD .sg                  1.56:  Mud Density 
 MDMN.sg                  1.56:  Dens Mud Min 
 MDMX.sg                  1.56:  Dens Mud Max 
 MOIL.                      70:  Run Mud Oil % 
 MOWR.                   70:30:  Run Mud OWR 
 MSND.                     0.2:  Run Mud Sand % 
 MSOL.                    23.3:  Run Mud Solids% 
 DFV .spqt               78.00:  Mud Viscosity 
 MWOD.in                  6.75:  MWD Tool OD 
 MWSI.                      No:  Serv Intrp, MWD 
 OTIM.hr                218.30:  Time Operating 
 PCON.           Look Like New:  Pad Condition 
 PMAX.psia            11015.30:  Press Op, Max 
 PV  .cP                 38.00:  Mud PV 
 RUN .                     300:  Run Number 
 ROPA.m/hr               15.00:  ROP Avg 
 ROPN.m/hr                9.00:  ROP Min 
 ROPX.m/hr               17.00:  ROP Max 
 RPMA.rpm               120.00:  RPM Surface Avg 
 RPMN.rpm                90.00:  RPM Surface Min 
 RPMX.rpm               140.00:  RPM Surface Max 
 RRUN.                     300:  Rig Run Number 
 RTIM.hr                 31.53:  Time Reaming 
 SAZI.deg               331.64:  Azm, Start 
 SDEP.m                4127.00:  Start Depth 
 SIDD.                      No:  Serv Intrp, DD 
 SINC.deg                48.43:  Inc, Start 
 SPPA.psig             5830.00:  SPP Avg 
 SPPN.psig             5600.00:  SPP Min 
 SPPX.psig             5900.00:  SPP Max 
 STIM.      21.00.00 20-Aug-21:  Start Time 
 SVCS.                 DD, MWD:  Services 
 SVER.                    9.20:  Sperry Version 
 TDAT.m                 957.50:  Tot Depth Attmp 
 TDDF.                      No:  Trip for DD 
 TDLG.m                 957.50:  Tot Depth Loggd 
 TFF .                      No:  Trip for Fail 
 TQAA.f-kp               15.00:  Torque Abs Avg 
 TQAN.f-kp               12.00:  Torque Abs Min 
 TQAX.f-kp               19.00:  Torque Abs Max 
 TRRT.°/30m              -3.40:  Turn Rotating 
 MRT .                  EWR-M5:  Maximum Recorded Temperature 
 TTMX.degC              100.00:  Max Tool Temp 
 VS01.                90639251:  Virtual Str1 SN 
 VS02.                90634715:  Virtual Str2 SN 
 VS03.                90652479:  Virtual Str3 SN 
 VS04.                90642262:  Virtual Str4 SN 
 WBMN.klb                 0.00:  WOB Min 
 WITN.           Murad Guliyev:  Customer Rep 
 WITN.          Yashar Gaziyev:  Customer Rep 2 
 WOBA.klb                 9.00:  WOB Avg 
 WOBX.klb                12.00:  WOB Max 
 YP  .lhf2               30.00:  Yield Point 
~Curve Information Block
#MNEM.UNIT                 API CODE     Curve Description
#---------               -----------    ---------------------------
 TIME.HHMMSS            00 000 000 000:  GT Time & Date
 GTDEPTH.m              00 000 000 000:  GT Depth
 GTPQH.psia             00 000 000 000:  GT HR Quartz Pressure
 GTTQ.degC              00 000 000 000:  GT Quartz Temperature
 GTTN.NONE              00 000 000 000:  GT Test Number
 GTET.sec               00 000 000 000:  GT Elapsed Test Time
 GTTVD.m                00 000 000 000:  GT True Vertical Depth
#Other Information
#
#WARRANTY: Halliburton will use its best efforts to furnish customers with 
#accurate information and interpretations that are part of, and incident to, the services 
#provided.  However, Halliburton cannot and does not warrant the accuracy 
#or correctness of such information and interpretations.  Under no circumstances should any 
#such information or interpretation be relied upon as the sole basis for any drilling, 
#completion, production, or financial decision or any procedure involving any risk to the 
#safety of any drilling venture, drilling rig or its crew or any other third party.  The 
#Customer has full responsibility for all drilling, completion and production operation.  
#Halliburton makes no representations or warranties, either expressed or 
#implied, including, but not limited to, the implied warranties of merchantability or fitness 
#for a particular purpose, with respect to the services rendered.  In no event will 
#Halliburton be liable for failure to obtain any particular results or for 
#any damages, including, but not limited to, indirect, special or consequential damages, 
#resulting from the use of any information or interpretation provided by Halliburton.
#
~A           TIME           GTDEPTH  GTPQH  GTTQ  GTTN  GTET   GTTVD  
# ...
   10:50:38.994.27-Aug-2021 4957.82 7897.44 85.95 9.00 413.51 3301.29
   10:50:39.193.27-Aug-2021 4957.82 7897.44 85.95 9.00 413.71 3301.29
   10:50:39.393.27-Aug-2021 4957.82 7897.38 85.95 9.00 413.91 3301.29
   10:50:39.593.27-Aug-2021 4957.82 7896.70 85.95 9.00 414.11 3301.29
   10:50:39.793.27-Aug-2021 4957.82 7897.00 85.95 9.00 414.31 3301.29
   10:50:39.992.27-Aug-2021 4957.82 7897.46 85.95 9.00 414.51 3301.29
   10:50:40.192.27-Aug-2021 4957.82 7897.46 85.95 9.00 414.70 3301.29
   10:50:40.392.27-Aug-2021 4957.82 7898.14 85.95 9.00 414.90 3301.29
   10:50:40.592.27-Aug-2021 4957.82 7897.75 85.95 9.00 415.10 3301.29
   10:50:40.791.27-Aug-2021 4957.82 7897.30 85.95 9.00 415.30 3301.29
   10:50:40.991.27-Aug-2021 4957.82 7897.07 85.95 9.00 415.50 3301.29
   10:50:41.191.27-Aug-2021 4957.82 7897.07 85.95 9.00 415.70 3301.29
   10:50:41.391.27-Aug-2021 4957.82 7901.38 85.95 9.00 415.90 3301.29
   10:50:41.590.27-Aug-2021 4957.82 7897.50 85.95 9.00 416.10 3301.29
   10:50:41.790.27-Aug-2021 4957.82 7897.30 85.95 9.00 416.30 3301.29
   10:50:41.990.27-Aug-2021 4957.82 7896.46 85.95 9.00 416.50 3301.29
   10:50:42.190.27-Aug-2021 4957.82 7896.46 85.95 9.00 416.70 3301.29
   10:50:42.389.27-Aug-2021 4957.82 7896.96 85.95 9.00 416.90 3301.29
   10:50:42.589.27-Aug-2021 4957.82 7896.95 85.95 9.00 417.10 3301.29
   10:50:42.789.27-Aug-2021 4957.82 7896.87 85.95 9.00 417.30 3301.29
   10:50:42.989.27-Aug-2021 4957.82 7897.02 85.95 9.00 417.50 3301.29
   10:50:43.189.27-Aug-2021 4957.82 7897.02 85.95 9.00 417.70 3301.29
   10:50:43.388.27-Aug-2021 4957.82 7898.11 85.95 9.00 417.90 3301.29
   10:50:43.588.27-Aug-2021 4957.82 7898.44 85.95 9.00 418.10 3301.29
   10:50:43.788.27-Aug-2021 4957.82 7898.29 85.95 9.00 418.30 3301.29
   10:50:43.988.27-Aug-2021 4957.82 7897.93 85.95 9.00 418.50 3301.29
   10:50:44.187.27-Aug-2021 4957.82 7897.93 85.95 9.00 418.70 3301.29
   10:50:44.387.27-Aug-2021 4957.82 7897.53 85.95 9.00 418.90 3301.29
   10:50:44.587.27-Aug-2021 4957.82 7897.10 85.95 9.00 419.10 3301.29
   10:50:44.787.27-Aug-2021 4957.82 7901.44 85.95 9.00 419.30 3301.29
   10:50:44.986.27-Aug-2021 4957.82 7897.41 85.95 9.00 419.50 3301.29
   10:50:45.186.27-Aug-2021 4957.82 7897.41 85.95 9.00 419.70 3301.29
   10:50:45.386.27-Aug-2021 4957.82 7896.42 85.95 9.00 419.90 3301.29
   10:50:45.586.27-Aug-2021 4957.82 7896.60 85.95 9.00 420.10 3301.29
   10:50:45.785.27-Aug-2021 4957.82 7897.05 85.95 9.00 420.30 3301.29
   10:50:45.985.27-Aug-2021 4957.82 7900.85 85.95 9.00 420.50 3301.29
   10:50:46.185.27-Aug-2021 4957.82 7900.85 85.95 9.00 420.70 3301.29
   10:50:46.385.27-Aug-2021 4957.82 7896.78 85.95 9.00 420.90 3301.29
   10:50:46.584.27-Aug-2021 4957.82 7896.44 85.95 9.00 421.10 3301.29
   10:50:46.784.27-Aug-2021 4957.82 7897.34 85.95 9.00 421.30 3301.29
   10:50:46.984.27-Aug-2021 4957.82 7897.82 85.94 9.00 421.50 3301.29
   10:50:47.184.27-Aug-2021 4957.82 7897.82 85.94 9.00 421.70 3301.29
   10:50:47.384.27-Aug-2021 4957.82 7896.56 85.94 9.00 421.90 3301.29
   10:50:47.583.27-Aug-2021 4957.82 7898.01 85.94 9.00 422.10 3301.29
   10:50:47.783.27-Aug-2021 4957.82 7896.79 85.94 9.00 422.30 3301.29
   10:50:47.983.27-Aug-2021 4957.82 7897.43 85.94 9.00 422.50 3301.29
   10:50:48.183.27-Aug-2021 4957.82 7897.43 85.94 9.00 422.70 3301.29
   10:50:48.382.27-Aug-2021 4957.82 7900.91 85.94 9.00 422.90 3301.29
   10:50:48.582.27-Aug-2021 4957.82 7896.79 85.94 9.00 423.09 3301.29
   10:50:48.782.27-Aug-2021 4957.82 7897.44 85.94 9.00 423.29 3301.29
   10:50:48.982.27-Aug-2021 4957.82 7896.75 85.94 9.00 423.49 3301.29
   10:50:49.181.27-Aug-2021 4957.82 7896.75 85.94 9.00 423.69 3301.29
   10:50:49.381.27-Aug-2021 4957.82 7897.80 85.94 9.00 423.89 3301.29
   10:50:49.581.27-Aug-2021 4957.82 7897.95 85.94 9.00 424.09 3301.29
   10:50:49.781.27-Aug-2021 4957.82 7897.72 85.94 9.00 424.29 3301.29
   10:50:49.980.27-Aug-2021 4957.82 7896.93 85.94 9.00 424.49 3301.29
   10:50:50.180.27-Aug-2021 4957.82 7896.93 85.94 9.00 424.69 3301.29
   10:50:50.380.27-Aug-2021 4957.82 7898.32 85.94 9.00 424.89 3301.29
   10:50:50.580.27-Aug-2021 4957.82 7898.73 85.94 9.00 425.09 3301.29
   10:50:50.779.27-Aug-2021 4957.82 7898.87 85.94 9.00 425.29 3301.29
   10:50:50.979.27-Aug-2021 4957.82 7898.44 85.94 9.00 425.49 3301.29
   10:50:51.179.27-Aug-2021 4957.82 7898.44 85.94 9.00 425.69 3301.29
   10:50:51.379.27-Aug-2021 4957.82 7897.82 85.94 9.00 425.89 3301.29
   10:50:51.579.27-Aug-2021 4957.82 7897.96 85.94 9.00 426.09 3301.29
   10:50:51.778.27-Aug-2021 4957.82 7901.37 85.94 9.00 426.29 3301.29
   10:50:51.978.27-Aug-2021 4957.82 7899.18 85.94 9.00 426.49 3301.29
   10:50:52.178.27-Aug-2021 4957.82 7899.18 85.94 9.00 426.69 3301.29
   10:50:52.378.27-Aug-2021 4957.82 7896.83 85.94 9.00 426.89 3301.29
   10:50:52.577.27-Aug-2021 4957.82 7896.90 85.94 9.00 427.09 3301.29
   10:50:52.777.27-Aug-2021 4957.82 7897.10 85.94 9.00 427.29 3301.29
   10:50:52.977.27-Aug-2021 4957.82 7898.44 85.94 9.00 427.49 3301.29
   10:50:53.177.27-Aug-2021 4957.82 7897.16 85.94 9.00 427.69 3301.29
   10:50:53.376.27-Aug-2021 4957.82 7897.16 85.94 9.00 427.89 3301.29
   10:50:53.576.27-Aug-2021 4957.82 7897.16 85.94 9.00 428.09 3301.29
   10:50:53.776.27-Aug-2021 4957.82 7898.18 85.94 9.00 428.29 3301.29
   10:50:53.976.27-Aug-2021 4957.82 7898.45 85.94 9.00 428.49 3301.29
   10:50:54.175.27-Aug-2021 4957.82 7898.45 85.94 9.00 428.69 3301.29
   10:50:54.375.27-Aug-2021 4957.82 7897.88 85.94 9.00 428.89 3301.29
   10:50:54.575.27-Aug-2021 4957.82 7897.42 85.94 9.00 429.09 3301.29
   10:50:54.775.27-Aug-2021 4957.82 7897.37 85.94 9.00 429.29 3301.29
