~Version Information
 VERS.                  2.0:   CWLS log ASCII Standard -VERSION 2.0
 WRAP.                   NO:   One line per depth step
~Well Information Block
#MNEM.UNIT     VALUE/NAME     DESCRIPTION
#---------     -----------    ---------------------------
 STRT.S             10:43:45 27-Aug-21: START TIME 10:43:45 27-Aug-21
 STOP.S             10:50:54 27-Aug-21: STOP TIME  10:50:54 27-Aug-21
 STEP.S                   0.00: STEP TIME
 NULL.                 -999.25: NULL VALUE
 DFWT.                        :  DIST FWL TEXT
 DFST.                        :  DIST FSL TEXT
 DMF .             Drill Floor:  DRILL MEAS FROM
 STIM.      20.00.00 17-Aug-21:  START TIME
 DATE.      19.00.00 29-Aug-21:  END TIME
 SPUD.               15-Aug-21:  SPUD DATE
 NREF.                    Grid:  NORTH REFERENCE
 HPTY.       Minimum Curvature:  HOLE POS TYPE
 DMOD.             Drill Model:  DRILL MOD DESC
 SVYD.                  Survey:  SURVEY DESC
 ILTD.               Lithology:  INTERP LTH DESC
 FTOP.          Formation Tops:  FORM TOPS DESC
 RIG .              East Azeri:  RIG NAME
 PDAT.          Mean Sea Level:  PERMANENT DATUM
 FLD .                     ACG:  FIELD NAME
 SON .        AZ-XX-0907180857:  JOB NUMBER
 CTRY.              Azerbaijan:  COUNTRY NAME
 WELL.                    D23x:  WELL NAME
 SRVC.     Turan Drilling and Engineering:  CONTRACTOR
 COMP.     BP Exploration (Caspian Sea) Ltd.:  COMPANY
 UWI .            /AZE00000214:  UNIQUE WELL IDENTIFIER
 API .            /AZE00000214:  API NUMBER
 MDS .        Operator Entered:  MAG DATA SOURCE
 BASE.              Azerbaijan:  LOGGING EQUIPMENT BASE LOCATION
 REGN.                   EESSA:  REGION
 PROV.                    Baku:  PROVINCE
 STAT.                    Baku:  STATE NAME
 MWDS.                    Baku:  MWD SHOP
 DOE .                     N/A:  DOE NUMBER
 DCON.         Sperry Drilling:  DIRECTNL CONTR
 UNIT.                     N/A:  LOGGING EQUIPMENT ID
 WTYP.                Deviated:  WELL TYPE
 CNTY.                        :  COUNTY
 LOC .                        :  LOCATION
 LMF .             Drill Floor:  LOG MEASURED FROM
 TVDS.m                  43.60:  TVDSS CORRECTN
 LATI.deg                40.02:  LATITUDE
 LONG.deg                51.45:  LONGITUDE
 WHNS.m                  -7.04:  WELL HEAD N/S
 WHEW.m                  -0.67:  WELL HEAD E/W
 UTMX.m              538762.90:  UTM X
 UTMY.m             4431871.34:  UTM Y
 DFWL.m                   0.00:  DISTANCE FWL
 DFSL.m                   0.00:  DISTANCE FSL
 SDEP.m                4127.00:  START DEPTH
 TDD .m                5084.50:  TOTAL DEPTH (DRILLER)
 VSDR.deg               140.47:  VERT SEC DIRECT
 GVFD.g                   1.00:  GRAVITY FIELD
 MFLD.nT              50362.00:  MAGNETIC FIELD
 MDIP.deg                59.48:  MAGNETIC DIP
 MDEC.deg                 6.47:  MAGNETIC DECL
 GRDC.deg                 0.31:  GRID CORRECTION
 AZTC.deg                 6.16:  AZM TOTAL CORR
 EPD .m                   0.00:  ELEVATION
 EGL .m                   0.00:  GROUND ELEVATION
 WDMS.m                 151.80:  WD ELEV
 APD .m                  43.60:  DEPTH ABOVE PD
 DEP .m                4092.57:  DEPTH
 AGAP.m                  43.60:  AIR GAP
 VSEW.m                  -0.67:  VERT SEC E/W
 VSNS.m                  -7.04:  VERT SEC N/S
 EKB .m                  43.60:  KB ELEVATION
 EDF .m                  43.60:  DF ELEVATION
 TDL .m                 957.50:  TOTAL DEPTH (LOGGER)
 VSC .                       0:  VS TO CLOSURE
 MAGU.                 1851413:  MAGUTM CHECKSUM
~Parameter Information Block
#MNEM.UNIT       Value        Description
#---------     -----------    ---------------------------
 AV  .mps                 1.50:  Ann Velocity 
 AVMX.mps                 2.00:  Max Ann Veloc 
 AZIF.deg               184.66:  Azm, Final 
 BHAT.        Rotary Steerable:  BHA Type 
 BREV.rev               300.00:  Rev Bit Total 
 BROT.°/30m              -0.50:  Build Rotating 
 BS  .in                  8.50:  Bit Size 
 BSZ .in                  8.50:  Bit Size 
 BTPL.psig              370.00:  Bit Press Loss 
 CABU.                      No:  Customer Abuse 
 CGEO.      Behruz Shahbaliyev:  Customer Geo 
 COMM.                     $K:  Run Comments 1 
 TCS .hr                140.08:  Time Ciculation Ended 
 CV  .mps                 3.00:  Crit Velocity 
 CVMX.mps                 3.20:  Max Crit Veloc 
 DD1 .            Musa Ahmadov:  Direct Drillr 1 
 DD2 .           Hamid Ahmadov:  Direct Drillr 2 
 DDSV.               Geo-Pilot:  DD Service 
 DEFF.%                  98.40:  % Det Eff 
 DLRX.°/30m               3.40:  Dogleg Rot Max 
 DLSO.°/30m               1.45:  Dogleg Oriented 
 DLSX.°/30m               3.40:  Dogleg Str Max 
 DRET.      18.40.00 29-Aug-21:  Drill End Time 
 DRST.      21.00.00 20-Aug-21:  Drill Start Tim 
 DTIM.hr                 69.47:  Time Drilling 
 EDEP.m                5084.50:  End Depth 
 ENG1.      Artemiy Matviyanov:  Engineer 1 
 ENG2.         Almaz Almadatov:  Engineer 2 
 ETIM.      18.40.00 29-Aug-21:  End Time 
 FLOI.gpm               500.00:  Flow In 
 FLON.gpm               400.00:  Flow In Min 
 FLOS.cptm                0.00:  Fluid Loss 
 FLOX.gpm               500.00:  Flow In Max 
 DFT .        Mineral Oil Base:  Mud Type 
 HFLO.                      No:  High Flow 
 HPRE.                      No:  High Pressure 
 HTEM.                      No:  High Temp 
 HYDO.m                   1.80:  Hydro Offset 
 IFIN.deg                25.62:  Inc, Final 
 IMAX.deg                48.69:  Inc Max 
 IMIN.deg                24.01:  Inc Min 
 IMND.m                4962.57:  Inc Min Depth 
 IMXD.m                4119.01:  Inc Max Depth 
 JARR.                      No:  Jarring 
 LETM.      18.40.00 29-Aug-21:  Log End Time 
 LOST.hr                     0:  Lost Rig Time 
 LSTM.      21.00.00 20-Aug-21:  Log Start Time 
 MDCL.ppm             41500.00:  Mud Chlorides 
 MDES.     Inversion Oil/Synthetic:  Mud Desc 
 DFD .sg                  1.56:  Mud Density 
 MDMN.sg                  1.56:  Dens Mud Min 
 MDMX.sg                  1.56:  Dens Mud Max 
 MOIL.                      70:  Run Mud Oil % 
 MOWR.                   70:30:  Run Mud OWR 
 MSND.                     0.2:  Run Mud Sand % 
 MSOL.                    23.3:  Run Mud Solids% 
 DFV .spqt               78.00:  Mud Viscosity 
 MWOD.in                  6.75:  MWD Tool OD 
 MWSI.                      No:  Serv Intrp, MWD 
 OTIM.hr                218.30:  Time Operating 
 PCON.           Look Like New:  Pad Condition 
 PMAX.psia            11015.30:  Press Op, Max 
 PV  .cP                 38.00:  Mud PV 
 RUN .                     300:  Run Number 
 ROPA.m/hr               15.00:  ROP Avg 
 ROPN.m/hr                9.00:  ROP Min 
 ROPX.m/hr               17.00:  ROP Max 
 RPMA.rpm               120.00:  RPM Surface Avg 
 RPMN.rpm                90.00:  RPM Surface Min 
 RPMX.rpm               140.00:  RPM Surface Max 
 RRUN.                     300:  Rig Run Number 
 RTIM.hr                 31.53:  Time Reaming 
 SAZI.deg               331.64:  Azm, Start 
 SDEP.m                4127.00:  Start Depth 
 SIDD.                      No:  Serv Intrp, DD 
 SINC.deg                48.43:  Inc, Start 
 SPPA.psig             5830.00:  SPP Avg 
 SPPN.psig             5600.00:  SPP Min 
 SPPX.psig             5900.00:  SPP Max 
 STIM.      21.00.00 20-Aug-21:  Start Time 
 SVCS.                 DD, MWD:  Services 
 SVER.                    9.20:  Sperry Version 
 TDAT.m                 957.50:  Tot Depth Attmp 
 TDDF.                      No:  Trip for DD 
 TDLG.m                 957.50:  Tot Depth Loggd 
 TFF .                      No:  Trip for Fail 
 TQAA.f-kp               15.00:  Torque Abs Avg 
 TQAN.f-kp               12.00:  Torque Abs Min 
 TQAX.f-kp               19.00:  Torque Abs Max 
 TRRT.°/30m              -3.40:  Turn Rotating 
 MRT .                  EWR-M5:  Maximum Recorded Temperature 
 TTMX.degC              100.00:  Max Tool Temp 
 VS01.                90639251:  Virtual Str1 SN 
 VS02.                90634715:  Virtual Str2 SN 
 VS03.                90652479:  Virtual Str3 SN 
 VS04.                90642262:  Virtual Str4 SN 
 WBMN.klb                 0.00:  WOB Min 
 WITN.           Murad Guliyev:  Customer Rep 
 WITN.          Yashar Gaziyev:  Customer Rep 2 
 WOBA.klb                 9.00:  WOB Avg 
 WOBX.klb                12.00:  WOB Max 
 YP  .lhf2               30.00:  Yield Point 
~Curve Information Block
#MNEM.UNIT                 API CODE     Curve Description
#---------               -----------    ---------------------------
 TIME.HHMMSS            00 000 000 000:  GT Time & Date
 GTDEPTH.m              00 000 000 000:  GT Depth
 GTPQH.psia             00 000 000 000:  GT HR Quartz Pressure
 GTTQ.degC              00 000 000 000:  GT Quartz Temperature
 GTTN.NONE              00 000 000 000:  GT Test Number
 GTET.sec               00 000 000 000:  GT Elapsed Test Time
 GTTVD.m                00 000 000 000:  GT True Vertical Depth
#Other Information
#
#WARRANTY: Halliburton will use its best efforts to furnish customers with 
#accurate information and interpretations that are part of, and incident to, the services 
#provided.  However, Halliburton cannot and does not warrant the accuracy 
#or correctness of such information and interpretations.  Under no circumstances should any 
#such information or interpretation be relied upon as the sole basis for any drilling, 
#completion, production, or financial decision or any procedure involving any risk to the 
#safety of any drilling venture, drilling rig or its crew or any other third party.  The 
#Customer has full responsibility for all drilling, completion and production operation.  
#Halliburton makes no representations or warranties, either expressed or 
#implied, including, but not limited to, the implied warranties of merchantability or fitness 
#for a particular purpose, with respect to the services rendered.  In no event will 
#Halliburton be liable for failure to obtain any particular results or for 
#any damages, including, but not limited to, indirect, special or consequential damages, 
#resulting from the use of any information or interpretation provided by Halliburton.
#
~A           TIME           GTDEPTH  GTPQH  GTTQ  GTTN  GTET   GTTVD  
# ...
   10:48:21.158.27-Aug-2021 4957.82 5094.02 85.91 9.00 275.67 3301.29
   10:48:21.358.27-Aug-2021 4957.82 5094.02 85.91 9.00 275.87 3301.29
   10:48:21.558.27-Aug-2021 4957.82 5094.20 85.91 9.00 276.07 3301.29
   10:48:21.757.27-Aug-2021 4957.82 5127.99 85.91 9.00 276.27 3301.29
   10:48:21.957.27-Aug-2021 4957.82 5152.77 85.91 9.00 276.47 3301.29
   10:48:22.157.27-Aug-2021 4957.82 5155.67 85.91 9.00 276.67 3301.29
   10:48:22.357.27-Aug-2021 4957.82 5155.67 85.91 9.00 276.87 3301.29
   10:48:22.556.27-Aug-2021 4957.82 5157.71 85.91 9.00 277.07 3301.29
   10:48:22.756.27-Aug-2021 4957.82 5159.06 85.91 9.00 277.27 3301.29
   10:48:22.956.27-Aug-2021 4957.82 5159.64 85.91 9.00 277.47 3301.29
   10:48:23.156.27-Aug-2021 4957.82 5159.90 85.91 9.00 277.67 3301.29
   10:48:23.355.27-Aug-2021 4957.82 5159.90 85.91 9.00 277.87 3301.29
   10:48:23.555.27-Aug-2021 4957.82 5160.57 85.91 9.00 278.07 3301.29
   10:48:23.755.27-Aug-2021 4957.82 5160.91 85.91 9.00 278.27 3301.29
   10:48:23.955.27-Aug-2021 4957.82 5161.25 85.91 9.00 278.47 3301.29
   10:48:24.155.27-Aug-2021 4957.82 5162.07 85.91 9.00 278.67 3301.29
   10:48:24.354.27-Aug-2021 4957.82 5162.07 85.91 9.00 278.87 3301.29
   10:48:24.554.27-Aug-2021 4957.82 5162.35 85.91 9.00 279.07 3301.29
   10:48:24.754.27-Aug-2021 4957.82 5162.46 85.91 9.00 279.27 3301.29
   10:48:24.954.27-Aug-2021 4957.82 5162.61 85.91 9.00 279.47 3301.29
   10:48:25.153.27-Aug-2021 4957.82 5162.75 85.91 9.00 279.67 3301.29
   10:48:25.353.27-Aug-2021 4957.82 5162.75 85.91 9.00 279.87 3301.29
   10:48:25.553.27-Aug-2021 4957.82 5163.54 85.91 9.00 280.07 3301.29
   10:48:25.753.27-Aug-2021 4957.82 5163.60 85.91 9.00 280.27 3301.29
   10:48:25.952.27-Aug-2021 4957.82 5163.67 85.91 9.00 280.47 3301.29
   10:48:26.152.27-Aug-2021 4957.82 5163.74 85.91 9.00 280.66 3301.29
   10:48:26.352.27-Aug-2021 4957.82 5163.74 85.91 9.00 280.86 3301.29
   10:48:26.552.27-Aug-2021 4957.82 5163.86 85.91 9.00 281.06 3301.29
   10:48:26.751.27-Aug-2021 4957.82 5164.39 85.91 9.00 281.26 3301.29
   10:48:26.951.27-Aug-2021 4957.82 5164.45 85.91 9.00 281.46 3301.29
   10:48:27.151.27-Aug-2021 4957.82 5164.43 85.91 9.00 281.66 3301.29
   10:48:27.351.27-Aug-2021 4957.82 5164.43 85.91 9.00 281.86 3301.29
   10:48:27.550.27-Aug-2021 4957.82 5164.56 85.91 9.00 282.06 3301.29
   10:48:27.750.27-Aug-2021 4957.82 5164.60 85.91 9.00 282.26 3301.29
   10:48:27.950.27-Aug-2021 4957.82 5164.65 85.91 9.00 282.46 3301.29
   10:48:28.150.27-Aug-2021 4957.82 5164.70 85.91 9.00 282.66 3301.29
   10:48:28.350.27-Aug-2021 4957.82 5164.70 85.91 9.00 282.86 3301.29
   10:48:28.549.27-Aug-2021 4957.82 5164.82 85.91 9.00 283.06 3301.29
   10:48:28.749.27-Aug-2021 4957.82 5164.86 85.91 9.00 283.26 3301.29
   10:48:28.949.27-Aug-2021 4957.82 5164.92 85.91 9.00 283.46 3301.29
   10:48:29.149.27-Aug-2021 4957.82 5164.96 85.91 9.00 283.66 3301.29
   10:48:29.348.27-Aug-2021 4957.82 5164.96 85.91 9.00 283.86 3301.29
   10:48:29.548.27-Aug-2021 4957.82 5165.07 85.91 9.00 284.06 3301.29
   10:48:29.748.27-Aug-2021 4957.82 5165.34 85.91 9.00 284.26 3301.29
   10:48:29.948.27-Aug-2021 4957.82 5165.55 85.91 9.00 284.46 3301.29
   10:48:30.147.27-Aug-2021 4957.82 5165.52 85.91 9.00 284.66 3301.29
   10:48:30.347.27-Aug-2021 4957.82 5165.52 85.91 9.00 284.86 3301.29
   10:48:30.547.27-Aug-2021 4957.82 5165.57 85.91 9.00 285.06 3301.29
   10:48:30.747.27-Aug-2021 4957.82 5165.59 85.91 9.00 285.26 3301.29
   10:48:30.946.27-Aug-2021 4957.82 5165.62 85.91 9.00 285.46 3301.29
   10:48:31.146.27-Aug-2021 4957.82 5165.64 85.91 9.00 285.66 3301.29
   10:48:31.346.27-Aug-2021 4957.82 5165.64 85.91 9.00 285.86 3301.29
   10:48:31.546.27-Aug-2021 4957.82 5165.69 85.91 9.00 286.06 3301.29
   10:48:31.745.27-Aug-2021 4957.82 5165.75 85.91 9.00 286.26 3301.29
   10:48:31.945.27-Aug-2021 4957.82 5165.76 85.91 9.00 286.46 3301.29
   10:48:32.145.27-Aug-2021 4957.82 5165.79 85.91 9.00 286.66 3301.29
   10:48:32.345.27-Aug-2021 4957.82 5165.79 85.91 9.00 286.86 3301.29
   10:48:32.545.27-Aug-2021 4957.82 5165.83 85.91 9.00 287.06 3301.29
   10:48:32.744.27-Aug-2021 4957.82 5165.86 85.91 9.00 287.26 3301.29
   10:48:32.944.27-Aug-2021 4957.82 5165.88 85.91 9.00 287.46 3301.29
   10:48:33.144.27-Aug-2021 4957.82 5166.03 85.91 9.00 287.66 3301.29
   10:48:33.344.27-Aug-2021 4957.82 5166.03 85.91 9.00 287.86 3301.29
   10:48:33.543.27-Aug-2021 4957.82 5166.18 85.91 9.00 288.06 3301.29
   10:48:33.743.27-Aug-2021 4957.82 5166.19 85.91 9.00 288.26 3301.29
   10:48:33.943.27-Aug-2021 4957.82 5166.21 85.91 9.00 288.46 3301.29
   10:48:34.143.27-Aug-2021 4957.82 5166.27 85.91 9.00 288.66 3301.29
   10:48:34.342.27-Aug-2021 4957.82 5166.27 85.91 9.00 288.86 3301.29
   10:48:34.542.27-Aug-2021 4957.82 5166.36 85.91 9.00 289.05 3301.29
   10:48:34.742.27-Aug-2021 4957.82 5166.32 85.91 9.00 289.25 3301.29
   10:48:34.942.27-Aug-2021 4957.82 5166.49 85.91 9.00 289.45 3301.29
   10:48:35.141.27-Aug-2021 4957.82 5166.50 85.91 9.00 289.65 3301.29
   10:48:35.341.27-Aug-2021 4957.82 5166.50 85.91 9.00 289.85 3301.29
   10:48:35.541.27-Aug-2021 4957.82 5166.46 85.91 9.00 290.05 3301.29
   10:48:35.741.27-Aug-2021 4957.82 5166.47 85.91 9.00 290.25 3301.29
   10:48:35.940.27-Aug-2021 4957.82 5166.55 85.91 9.00 290.45 3301.29
   10:48:36.140.27-Aug-2021 4957.82 5166.59 85.91 9.00 290.65 3301.29
   10:48:36.340.27-Aug-2021 4957.82 5166.59 85.91 9.00 290.85 3301.29
   10:48:36.540.27-Aug-2021 4957.82 5166.56 85.91 9.00 291.05 3301.29
   10:48:36.740.27-Aug-2021 4957.82 5166.58 85.91 9.00 291.25 3301.29
   10:48:36.939.27-Aug-2021 4957.82 5166.60 85.91 9.00 291.45 3301.29
   10:48:37.139.27-Aug-2021 4957.82 5166.60 85.91 9.00 291.65 3301.29
   10:48:37.339.27-Aug-2021 4957.82 5166.60 85.91 9.00 291.85 3301.29
   10:48:37.539.27-Aug-2021 4957.82 5166.61 85.91 9.00 292.05 3301.29
   10:48:37.738.27-Aug-2021 4957.82 5166.62 85.91 9.00 292.25 3301.29
   10:48:37.938.27-Aug-2021 4957.82 5166.65 85.91 9.00 292.45 3301.29
   10:48:38.138.27-Aug-2021 4957.82 5166.65 85.91 9.00 292.65 3301.29
   10:48:38.338.27-Aug-2021 4957.82 5166.65 85.91 9.00 292.85 3301.29
   10:48:38.537.27-Aug-2021 4957.82 5166.66 85.91 9.00 293.05 3301.29
   10:48:38.737.27-Aug-2021 4957.82 5166.67 85.91 9.00 293.25 3301.29
   10:48:38.937.27-Aug-2021 4957.82 5166.64 85.91 9.00 293.45 3301.29
   10:48:39.137.27-Aug-2021 4957.82 5166.85 85.91 9.00 293.65 3301.29
   10:48:39.336.27-Aug-2021 4957.82 5166.85 85.91 9.00 293.85 3301.29
   10:48:39.536.27-Aug-2021 4957.82 5166.81 85.91 9.00 294.05 3301.29
   10:48:39.736.27-Aug-2021 4957.82 5166.80 85.91 9.00 294.25 3301.29
   10:48:39.936.27-Aug-2021 4957.82 5166.81 85.91 9.00 294.45 3301.29
   10:48:40.135.27-Aug-2021 4957.82 5166.81 85.91 9.00 294.65 3301.29
   10:48:40.335.27-Aug-2021 4957.82 5166.81 85.91 9.00 294.85 3301.29
   10:48:40.535.27-Aug-2021 4957.82 5166.81 85.91 9.00 295.05 3301.29
   10:48:40.735.27-Aug-2021 4957.82 5166.83 85.91 9.00 295.25 3301.29
   10:48:40.935.27-Aug-2021 4957.82 5166.85 85.91 9.00 295.45 3301.29
   10:48:41.134.27-Aug-2021 4957.82 5166.86 85.91 9.00 295.65 3301.29
   10:48:41.334.27-Aug-2021 4957.82 5166.86 85.91 9.00 295.85 3301.29
   10:48:41.534.27-Aug-2021 4957.82 5166.87 85.91 9.00 296.05 3301.29
   10:48:41.734.27-Aug-2021 4957.82 5166.88 85.91 9.00 296.25 3301.29
   10:48:41.933.27-Aug-2021 4957.82 5166.88 85.91 9.00 296.45 3301.29
   10:48:42.133.27-Aug-2021 4957.82 5166.89 85.91 9.00 296.65 3301.29
   10:48:42.333.27-Aug-2021 4957.82 5166.89 85.91 9.00 296.85 3301.29
   10:48:42.533.27-Aug-2021 4957.82 5166.99 85.91 9.00 297.05 3301.29
   10:48:42.732.27-Aug-2021 4957.82 5167.01 85.91 9.00 297.25 3301.29
   10:48:42.932.27-Aug-2021 4957.82 5166.96 85.91 9.00 297.44 3301.29
   10:48:43.132.27-Aug-2021 4957.82 5166.98 85.91 9.00 297.64 3301.29
   10:48:43.332.27-Aug-2021 4957.82 5166.98 85.91 9.00 297.84 3301.29
   10:48:43.531.27-Aug-2021 4957.82 5167.06 85.91 9.00 298.04 3301.29
   10:48:43.731.27-Aug-2021 4957.82 5167.05 85.91 9.00 298.24 3301.29
   10:48:43.931.27-Aug-2021 4957.82 5167.01 85.91 9.00 298.44 3301.29
