~Version Information
 VERS.                  2.0:   CWLS log ASCII Standard -VERSION 2.0
 WRAP.                   NO:   One line per depth step
~Well Information Block
#MNEM.UNIT     VALUE/NAME     DESCRIPTION
#---------     -----------    ---------------------------
 STRT.S             08:51:30 27-Aug-21: START TIME 08:51:30 27-Aug-21
 STOP.S             08:58:20 27-Aug-21: STOP TIME  08:58:20 27-Aug-21
 STEP.S                   0.00: STEP TIME
 NULL.                 -999.25: NULL VALUE
 DFWT.                        :  DIST FWL TEXT
 DFST.                        :  DIST FSL TEXT
 DMF .             Drill Floor:  DRILL MEAS FROM
 STIM.      20.00.00 17-Aug-21:  START TIME
 DATE.      19.00.00 29-Aug-21:  END TIME
 SPUD.               15-Aug-21:  SPUD DATE
 NREF.                    Grid:  NORTH REFERENCE
 HPTY.       Minimum Curvature:  HOLE POS TYPE
 DMOD.             Drill Model:  DRILL MOD DESC
 SVYD.                  Survey:  SURVEY DESC
 ILTD.               Lithology:  INTERP LTH DESC
 FTOP.          Formation Tops:  FORM TOPS DESC
 RIG .              East Azeri:  RIG NAME
 PDAT.          Mean Sea Level:  PERMANENT DATUM
 FLD .                     ACG:  FIELD NAME
 SON .        AZ-XX-0907180857:  JOB NUMBER
 CTRY.              Azerbaijan:  COUNTRY NAME
 WELL.                    D23x:  WELL NAME
 SRVC.     Turan Drilling and Engineering:  CONTRACTOR
 COMP.     BP Exploration (Caspian Sea) Ltd.:  COMPANY
 UWI .            /AZE00000214:  UNIQUE WELL IDENTIFIER
 API .            /AZE00000214:  API NUMBER
 MDS .        Operator Entered:  MAG DATA SOURCE
 BASE.              Azerbaijan:  LOGGING EQUIPMENT BASE LOCATION
 REGN.                   EESSA:  REGION
 PROV.                    Baku:  PROVINCE
 STAT.                    Baku:  STATE NAME
 MWDS.                    Baku:  MWD SHOP
 DOE .                     N/A:  DOE NUMBER
 DCON.         Sperry Drilling:  DIRECTNL CONTR
 UNIT.                     N/A:  LOGGING EQUIPMENT ID
 WTYP.                Deviated:  WELL TYPE
 CNTY.                        :  COUNTY
 LOC .                        :  LOCATION
 LMF .             Drill Floor:  LOG MEASURED FROM
 TVDS.m                  43.60:  TVDSS CORRECTN
 LATI.deg                40.02:  LATITUDE
 LONG.deg                51.45:  LONGITUDE
 WHNS.m                  -7.04:  WELL HEAD N/S
 WHEW.m                  -0.67:  WELL HEAD E/W
 UTMX.m              538762.90:  UTM X
 UTMY.m             4431871.34:  UTM Y
 DFWL.m                   0.00:  DISTANCE FWL
 DFSL.m                   0.00:  DISTANCE FSL
 SDEP.m                4127.00:  START DEPTH
 TDD .m                5084.50:  TOTAL DEPTH (DRILLER)
 VSDR.deg               140.47:  VERT SEC DIRECT
 GVFD.g                   1.00:  GRAVITY FIELD
 MFLD.nT              50362.00:  MAGNETIC FIELD
 MDIP.deg                59.48:  MAGNETIC DIP
 MDEC.deg                 6.47:  MAGNETIC DECL
 GRDC.deg                 0.31:  GRID CORRECTION
 AZTC.deg                 6.16:  AZM TOTAL CORR
 EPD .m                   0.00:  ELEVATION
 EGL .m                   0.00:  GROUND ELEVATION
 WDMS.m                 151.80:  WD ELEV
 APD .m                  43.60:  DEPTH ABOVE PD
 DEP .m                4092.57:  DEPTH
 AGAP.m                  43.60:  AIR GAP
 VSEW.m                  -0.67:  VERT SEC E/W
 VSNS.m                  -7.04:  VERT SEC N/S
 EKB .m                  43.60:  KB ELEVATION
 EDF .m                  43.60:  DF ELEVATION
 TDL .m                 957.50:  TOTAL DEPTH (LOGGER)
 VSC .                       0:  VS TO CLOSURE
 MAGU.                 1851413:  MAGUTM CHECKSUM
~Parameter Information Block
#MNEM.UNIT       Value        Description
#---------     -----------    ---------------------------
 AV  .mps                 1.50:  Ann Velocity 
 AVMX.mps                 2.00:  Max Ann Veloc 
 AZIF.deg               184.66:  Azm, Final 
 BHAT.        Rotary Steerable:  BHA Type 
 BREV.rev               300.00:  Rev Bit Total 
 BROT.°/30m              -0.50:  Build Rotating 
 BS  .in                  8.50:  Bit Size 
 BSZ .in                  8.50:  Bit Size 
 BTPL.psig              370.00:  Bit Press Loss 
 CABU.                      No:  Customer Abuse 
 CGEO.      Behruz Shahbaliyev:  Customer Geo 
 COMM.                     <w:  Run Comments 1 
 TCS .hr                140.08:  Time Ciculation Ended 
 CV  .mps                 3.00:  Crit Velocity 
 CVMX.mps                 3.20:  Max Crit Veloc 
 DD1 .            Musa Ahmadov:  Direct Drillr 1 
 DD2 .           Hamid Ahmadov:  Direct Drillr 2 
 DDSV.               Geo-Pilot:  DD Service 
 DEFF.%                  98.40:  % Det Eff 
 DLRX.°/30m               3.40:  Dogleg Rot Max 
 DLSO.°/30m               1.45:  Dogleg Oriented 
 DLSX.°/30m               3.40:  Dogleg Str Max 
 DRET.      18.40.00 29-Aug-21:  Drill End Time 
 DRST.      21.00.00 20-Aug-21:  Drill Start Tim 
 DTIM.hr                 69.47:  Time Drilling 
 EDEP.m                5084.50:  End Depth 
 ENG1.      Artemiy Matviyanov:  Engineer 1 
 ENG2.         Almaz Almadatov:  Engineer 2 
 ETIM.      18.40.00 29-Aug-21:  End Time 
 FLOI.gpm               500.00:  Flow In 
 FLON.gpm               400.00:  Flow In Min 
 FLOS.cptm                0.00:  Fluid Loss 
 FLOX.gpm               500.00:  Flow In Max 
 DFT .        Mineral Oil Base:  Mud Type 
 HFLO.                      No:  High Flow 
 HPRE.                      No:  High Pressure 
 HTEM.                      No:  High Temp 
 HYDO.m                   1.80:  Hydro Offset 
 IFIN.deg                25.62:  Inc, Final 
 IMAX.deg                48.69:  Inc Max 
 IMIN.deg                24.01:  Inc Min 
 IMND.m                4962.57:  Inc Min Depth 
 IMXD.m                4119.01:  Inc Max Depth 
 JARR.                      No:  Jarring 
 LETM.      18.40.00 29-Aug-21:  Log End Time 
 LOST.hr                     0:  Lost Rig Time 
 LSTM.      21.00.00 20-Aug-21:  Log Start Time 
 MDCL.ppm             41500.00:  Mud Chlorides 
 MDES.     Inversion Oil/Synthetic:  Mud Desc 
 DFD .sg                  1.56:  Mud Density 
 MDMN.sg                  1.56:  Dens Mud Min 
 MDMX.sg                  1.56:  Dens Mud Max 
 MOIL.                      70:  Run Mud Oil % 
 MOWR.                   70:30:  Run Mud OWR 
 MSND.                     0.2:  Run Mud Sand % 
 MSOL.                    23.3:  Run Mud Solids% 
 DFV .spqt               78.00:  Mud Viscosity 
 MWOD.in                  6.75:  MWD Tool OD 
 MWSI.                      No:  Serv Intrp, MWD 
 OTIM.hr                218.30:  Time Operating 
 PCON.           Look Like New:  Pad Condition 
 PMAX.psia            11015.30:  Press Op, Max 
 PV  .cP                 38.00:  Mud PV 
 RUN .                     300:  Run Number 
 ROPA.m/hr               15.00:  ROP Avg 
 ROPN.m/hr                9.00:  ROP Min 
 ROPX.m/hr               17.00:  ROP Max 
 RPMA.rpm               120.00:  RPM Surface Avg 
 RPMN.rpm                90.00:  RPM Surface Min 
 RPMX.rpm               140.00:  RPM Surface Max 
 RRUN.                     300:  Rig Run Number 
 RTIM.hr                 31.53:  Time Reaming 
 SAZI.deg               331.64:  Azm, Start 
 SDEP.m                4127.00:  Start Depth 
 SIDD.                      No:  Serv Intrp, DD 
 SINC.deg                48.43:  Inc, Start 
 SPPA.psig             5830.00:  SPP Avg 
 SPPN.psig             5600.00:  SPP Min 
 SPPX.psig             5900.00:  SPP Max 
 STIM.      21.00.00 20-Aug-21:  Start Time 
 SVCS.                 DD, MWD:  Services 
 SVER.                    9.20:  Sperry Version 
 TDAT.m                 957.50:  Tot Depth Attmp 
 TDDF.                      No:  Trip for DD 
 TDLG.m                 957.50:  Tot Depth Loggd 
 TFF .                      No:  Trip for Fail 
 TQAA.f-kp               15.00:  Torque Abs Avg 
 TQAN.f-kp               12.00:  Torque Abs Min 
 TQAX.f-kp               19.00:  Torque Abs Max 
 TRRT.°/30m              -3.40:  Turn Rotating 
 MRT .                  EWR-M5:  Maximum Recorded Temperature 
 TTMX.degC              100.00:  Max Tool Temp 
 VS01.                90639251:  Virtual Str1 SN 
 VS02.                90634715:  Virtual Str2 SN 
 VS03.                90652479:  Virtual Str3 SN 
 VS04.                90642262:  Virtual Str4 SN 
 WBMN.klb                 0.00:  WOB Min 
 WITN.           Murad Guliyev:  Customer Rep 
 WITN.          Yashar Gaziyev:  Customer Rep 2 
 WOBA.klb                 9.00:  WOB Avg 
 WOBX.klb                12.00:  WOB Max 
 YP  .lhf2               30.00:  Yield Point 
~Curve Information Block
#MNEM.UNIT                 API CODE     Curve Description
#---------               -----------    ---------------------------
 TIME.HHMMSS            00 000 000 000:  GT Time & Date
 GTDEPTH.m              00 000 000 000:  GT Depth
 GTPQH.psia             00 000 000 000:  GT HR Quartz Pressure
 GTTQ.degC              00 000 000 000:  GT Quartz Temperature
 GTTN.NONE              00 000 000 000:  GT Test Number
 GTET.sec               00 000 000 000:  GT Elapsed Test Time
 GTTVD.m                00 000 000 000:  GT True Vertical Depth
#Other Information
#
#WARRANTY: Halliburton will use its best efforts to furnish customers with 
#accurate information and interpretations that are part of, and incident to, the services 
#provided.  However, Halliburton cannot and does not warrant the accuracy 
#or correctness of such information and interpretations.  Under no circumstances should any 
#such information or interpretation be relied upon as the sole basis for any drilling, 
#completion, production, or financial decision or any procedure involving any risk to the 
#safety of any drilling venture, drilling rig or its crew or any other third party.  The 
#Customer has full responsibility for all drilling, completion and production operation.  
#Halliburton makes no representations or warranties, either expressed or 
#implied, including, but not limited to, the implied warranties of merchantability or fitness 
#for a particular purpose, with respect to the services rendered.  In no event will 
#Halliburton be liable for failure to obtain any particular results or for 
#any damages, including, but not limited to, indirect, special or consequential damages, 
#resulting from the use of any information or interpretation provided by Halliburton.
#
~A           TIME           GTDEPTH  GTPQH  GTTQ  GTTN  GTET   GTTVD  
   08:51:30.424.27-Aug-2021 4965.00 7859.99 86.79 6.00   0.00 3307.85
   08:51:30.624.27-Aug-2021 4965.00 7859.99 86.79 6.00   0.20 3307.85
   08:51:30.824.27-Aug-2021 4965.00 7860.85 86.79 6.00   0.40 3307.85
   08:51:31.024.27-Aug-2021 4965.00 7861.50 86.79 6.00   0.60 3307.85
   08:51:31.224.27-Aug-2021 4965.00 7862.85 86.79 6.00   0.80 3307.85
   08:51:31.424.27-Aug-2021 4965.00 7866.91 86.79 6.00   1.00 3307.85
   08:51:31.624.27-Aug-2021 4965.00 7866.91 86.79 6.00   1.20 3307.85
   08:51:31.824.27-Aug-2021 4965.00 7864.70 86.79 6.00   1.40 3307.85
   08:51:32.024.27-Aug-2021 4965.00 7865.16 86.79 6.00   1.60 3307.85
   08:51:32.225.27-Aug-2021 4965.00 7865.84 86.79 6.00   1.80 3307.85
   08:51:32.425.27-Aug-2021 4965.00 7866.30 86.79 6.00   2.00 3307.85
   08:51:32.625.27-Aug-2021 4965.00 7866.30 86.79 6.00   2.20 3307.85
   08:51:32.825.27-Aug-2021 4965.00 7865.53 86.79 6.00   2.40 3307.85
   08:51:33.025.27-Aug-2021 4965.00 7865.18 86.79 6.00   2.60 3307.85
   08:51:33.225.27-Aug-2021 4965.00 7864.81 86.79 6.00   2.80 3307.85
   08:51:33.425.27-Aug-2021 4965.00 7865.21 86.79 6.00   3.00 3307.85
   08:51:33.625.27-Aug-2021 4965.00 7865.21 86.79 6.00   3.20 3307.85
   08:51:33.825.27-Aug-2021 4965.00 7864.69 86.79 6.00   3.40 3307.85
   08:51:34.025.27-Aug-2021 4965.00 7864.29 86.78 6.00   3.60 3307.85
   08:51:34.225.27-Aug-2021 4965.00 7864.03 86.78 6.00   3.80 3307.85
   08:51:34.425.27-Aug-2021 4965.00 7864.13 86.78 6.00   4.00 3307.85
   08:51:34.626.27-Aug-2021 4965.00 7864.13 86.78 6.00   4.20 3307.85
   08:51:34.826.27-Aug-2021 4965.00 7865.28 86.78 6.00   4.40 3307.85
   08:51:35.026.27-Aug-2021 4965.00 7870.93 86.78 6.00   4.60 3307.85
   08:51:35.226.27-Aug-2021 4965.00 7863.98 86.78 6.00   4.80 3307.85
   08:51:35.426.27-Aug-2021 4965.00 7866.90 86.78 6.00   5.00 3307.85
   08:51:35.626.27-Aug-2021 4965.00 7866.90 86.78 6.00   5.20 3307.85
   08:51:35.826.27-Aug-2021 4965.00 7866.41 86.78 6.00   5.40 3307.85
   08:51:36.026.27-Aug-2021 4965.00 7866.46 86.78 6.00   5.60 3307.85
   08:51:36.226.27-Aug-2021 4965.00 7866.58 86.78 6.00   5.80 3307.85
   08:51:36.426.27-Aug-2021 4965.00 7866.17 86.78 6.00   6.00 3307.85
   08:51:36.626.27-Aug-2021 4965.00 7866.17 86.78 6.00   6.20 3307.85
   08:51:36.826.27-Aug-2021 4965.00 7866.17 86.78 6.00   6.40 3307.85
   08:51:37.027.27-Aug-2021 4965.00 7867.42 86.78 6.00   6.60 3307.85
   08:51:37.227.27-Aug-2021 4965.00 7868.15 86.78 6.00   6.80 3307.85
   08:51:37.427.27-Aug-2021 4965.00 7868.47 86.78 6.00   7.00 3307.85
   08:51:37.627.27-Aug-2021 4965.00 7868.47 86.78 6.00   7.20 3307.85
   08:51:37.827.27-Aug-2021 4965.00 7868.73 86.78 6.00   7.40 3307.85
   08:51:38.027.27-Aug-2021 4965.00 7869.10 86.78 6.00   7.60 3307.85
   08:51:38.227.27-Aug-2021 4965.00 7874.72 86.78 6.00   7.80 3307.85
   08:51:38.427.27-Aug-2021 4965.00 7867.81 86.78 6.00   8.00 3307.85
   08:51:38.627.27-Aug-2021 4965.00 7867.81 86.78 6.00   8.20 3307.85
   08:51:38.827.27-Aug-2021 4965.00 7869.84 86.78 6.00   8.40 3307.85
   08:51:39.027.27-Aug-2021 4965.00 7870.03 86.78 6.00   8.60 3307.85
   08:51:39.227.27-Aug-2021 4965.00 7870.21 86.78 6.00   8.80 3307.85
   08:51:39.428.27-Aug-2021 4965.00 7876.05 86.78 6.00   9.00 3307.85
   08:51:39.628.27-Aug-2021 4965.00 7876.05 86.78 6.00   9.20 3307.85
   08:51:39.828.27-Aug-2021 4965.00 7871.82 86.78 6.00   9.40 3307.85
   08:51:40.028.27-Aug-2021 4965.00 7871.39 86.78 6.00   9.60 3307.85
   08:51:40.228.27-Aug-2021 4965.00 7872.30 86.78 6.00   9.80 3307.85
   08:51:40.428.27-Aug-2021 4965.00 7873.06 86.78 6.00  10.00 3307.85
   08:51:40.628.27-Aug-2021 4965.00 7873.06 86.78 6.00  10.20 3307.85
   08:51:40.828.27-Aug-2021 4965.00 7873.28 86.78 6.00  10.40 3307.85
   08:51:41.028.27-Aug-2021 4965.00 7872.94 86.78 6.00  10.60 3307.85
   08:51:41.228.27-Aug-2021 4965.00 7873.02 86.78 6.00  10.80 3307.85
   08:51:41.428.27-Aug-2021 4965.00 7873.71 86.78 6.00  11.00 3307.85
   08:51:41.628.27-Aug-2021 4965.00 7873.71 86.78 6.00  11.20 3307.85
   08:51:41.829.27-Aug-2021 4965.00 7874.83 86.78 6.00  11.40 3307.85
   08:51:42.029.27-Aug-2021 4965.00 7874.60 86.78 6.00  11.60 3307.85
   08:51:42.229.27-Aug-2021 4965.00 7873.05 86.78 6.00  11.80 3307.85
   08:51:42.429.27-Aug-2021 4965.00 7878.28 86.78 6.00  12.00 3307.85
   08:51:42.629.27-Aug-2021 4965.00 7878.28 86.78 6.00  12.21 3307.85
   08:51:42.829.27-Aug-2021 4965.00 7875.43 86.78 6.00  12.41 3307.85
   08:51:43.029.27-Aug-2021 4965.00 7874.43 86.78 6.00  12.61 3307.85
   08:51:43.229.27-Aug-2021 4965.00 7873.55 86.78 6.00  12.81 3307.85
   08:51:43.429.27-Aug-2021 4965.00 7873.71 86.78 6.00  13.01 3307.85
   08:51:43.629.27-Aug-2021 4965.00 7876.25 86.78 6.00  13.21 3307.85
   08:51:43.829.27-Aug-2021 4965.00 7876.25 86.78 6.00  13.41 3307.85
   08:51:44.029.27-Aug-2021 4965.00 7876.25 86.78 6.00  13.61 3307.85
   08:51:44.230.27-Aug-2021 4965.00 7875.44 86.78 6.00  13.81 3307.85
   08:51:44.430.27-Aug-2021 4965.00 7875.98 86.78 6.00  14.01 3307.85
   08:51:44.630.27-Aug-2021 4965.00 7875.98 86.78 6.00  14.21 3307.85
   08:51:44.830.27-Aug-2021 4965.00 7876.57 86.78 6.00  14.41 3307.85
   08:51:45.030.27-Aug-2021 4965.00 7876.12 86.78 6.00  14.61 3307.85
   08:51:45.230.27-Aug-2021 4965.00 7876.70 86.78 6.00  14.81 3307.85
   08:51:45.430.27-Aug-2021 4965.00 7877.13 86.78 6.00  15.01 3307.85
   08:51:45.630.27-Aug-2021 4965.00 7877.13 86.78 6.00  15.21 3307.85
   08:51:45.830.27-Aug-2021 4965.00 7877.88 86.78 6.00  15.41 3307.85
   08:51:46.030.27-Aug-2021 4965.00 7878.14 86.78 6.00  15.61 3307.85
   08:51:46.230.27-Aug-2021 4965.00 7878.36 86.78 6.00  15.81 3307.85
   08:51:46.430.27-Aug-2021 4965.00 7878.37 86.78 6.00  16.01 3307.85
   08:51:46.630.27-Aug-2021 4965.00 7878.37 86.78 6.00  16.21 3307.85
   08:51:46.831.27-Aug-2021 4965.00 7882.15 86.78 6.00  16.41 3307.85
   08:51:47.031.27-Aug-2021 4965.00 7880.70 86.78 6.00  16.61 3307.85
   08:51:47.231.27-Aug-2021 4965.00 7879.78 86.78 6.00  16.81 3307.85
   08:51:47.431.27-Aug-2021 4965.00 7879.43 86.78 6.00  17.01 3307.85
   08:51:47.631.27-Aug-2021 4965.00 7879.43 86.78 6.00  17.21 3307.85
   08:51:47.831.27-Aug-2021 4965.00 7880.07 86.78 6.00  17.41 3307.85
   08:51:48.031.27-Aug-2021 4965.00 7880.21 86.78 6.00  17.61 3307.85
   08:51:48.231.27-Aug-2021 4965.00 7880.24 86.78 6.00  17.81 3307.85
   08:51:48.431.27-Aug-2021 4965.00 7880.62 86.78 6.00  18.01 3307.85
   08:51:48.631.27-Aug-2021 4965.00 7880.62 86.78 6.00  18.21 3307.85
   08:51:48.831.27-Aug-2021 4965.00 7881.82 86.77 6.00  18.41 3307.85
   08:51:49.031.27-Aug-2021 4965.00 7882.19 86.77 6.00  18.61 3307.85
   08:51:49.232.27-Aug-2021 4965.00 7882.23 86.77 6.00  18.81 3307.85
   08:51:49.432.27-Aug-2021 4965.00 7882.20 86.77 6.00  19.01 3307.85
   08:51:49.632.27-Aug-2021 4965.00 7882.20 86.77 6.00  19.21 3307.85
   08:51:49.832.27-Aug-2021 4965.00 7882.26 86.77 6.00  19.41 3307.85
   08:51:50.032.27-Aug-2021 4965.00 7882.25 86.77 6.00  19.61 3307.85
   08:51:50.232.27-Aug-2021 4965.00 7885.64 86.77 6.00  19.81 3307.85
   08:51:50.432.27-Aug-2021 4965.00 7883.85 86.77 6.00  20.01 3307.85
   08:51:50.632.27-Aug-2021 4965.00 7883.85 86.77 6.00  20.21 3307.85
   08:51:50.832.27-Aug-2021 4965.00 7882.63 86.77 6.00  20.41 3307.85
   08:51:51.032.27-Aug-2021 4965.00 7882.79 86.77 6.00  20.61 3307.85
   08:51:51.232.27-Aug-2021 4965.00 7888.54 86.77 6.00  20.81 3307.85
   08:51:51.432.27-Aug-2021 4965.00 7881.19 86.77 6.00  21.01 3307.85
   08:51:51.633.27-Aug-2021 4965.00 7881.19 86.77 6.00  21.21 3307.85
   08:51:51.833.27-Aug-2021 4965.00 7883.01 86.77 6.00  21.41 3307.85
   08:51:52.033.27-Aug-2021 4965.00 7883.42 86.77 6.00  21.61 3307.85
   08:51:52.233.27-Aug-2021 4965.00 7884.36 86.77 6.00  21.81 3307.85
   08:51:52.433.27-Aug-2021 4965.00 7890.35 86.77 6.00  22.01 3307.85
   08:51:52.633.27-Aug-2021 4965.00 7890.35 86.77 6.00  22.21 3307.85
   08:51:52.833.27-Aug-2021 4965.00 7885.06 86.77 6.00  22.41 3307.85
   08:51:53.033.27-Aug-2021 4965.00 7884.31 86.77 6.00  22.61 3307.85
   08:51:53.233.27-Aug-2021 4965.00 7885.03 86.77 6.00  22.81 3307.85
