~Version Information
 VERS.                  2.0:   CWLS log ASCII Standard -VERSION 2.0
 WRAP.                   NO:   One line per depth step
~Well Information Block
#MNEM.UNIT     VALUE/NAME     DESCRIPTION
#---------     -----------    ---------------------------
 STRT.S             10:06:49 27-Aug-21: START TIME 10:06:49 27-Aug-21
 STOP.S             10:13:57 27-Aug-21: STOP TIME  10:13:57 27-Aug-21
 STEP.S                   0.00: STEP TIME
 NULL.                 -999.25: NULL VALUE
 DFWT.                        :  DIST FWL TEXT
 DFST.                        :  DIST FSL TEXT
 DMF .             Drill Floor:  DRILL MEAS FROM
 STIM.      20.00.00 17-Aug-21:  START TIME
 DATE.      19.00.00 29-Aug-21:  END TIME
 SPUD.               15-Aug-21:  SPUD DATE
 NREF.                    Grid:  NORTH REFERENCE
 HPTY.       Minimum Curvature:  HOLE POS TYPE
 DMOD.             Drill Model:  DRILL MOD DESC
 SVYD.                  Survey:  SURVEY DESC
 ILTD.               Lithology:  INTERP LTH DESC
 FTOP.          Formation Tops:  FORM TOPS DESC
 RIG .              East Azeri:  RIG NAME
 PDAT.          Mean Sea Level:  PERMANENT DATUM
 FLD .                     ACG:  FIELD NAME
 SON .        AZ-XX-0907180857:  JOB NUMBER
 CTRY.              Azerbaijan:  COUNTRY NAME
 WELL.                    D23x:  WELL NAME
 SRVC.     Turan Drilling and Engineering:  CONTRACTOR
 COMP.     BP Exploration (Caspian Sea) Ltd.:  COMPANY
 UWI .            /AZE00000214:  UNIQUE WELL IDENTIFIER
 API .            /AZE00000214:  API NUMBER
 MDS .        Operator Entered:  MAG DATA SOURCE
 BASE.              Azerbaijan:  LOGGING EQUIPMENT BASE LOCATION
 REGN.                   EESSA:  REGION
 PROV.                    Baku:  PROVINCE
 STAT.                    Baku:  STATE NAME
 MWDS.                    Baku:  MWD SHOP
 DOE .                     N/A:  DOE NUMBER
 DCON.         Sperry Drilling:  DIRECTNL CONTR
 UNIT.                     N/A:  LOGGING EQUIPMENT ID
 WTYP.                Deviated:  WELL TYPE
 CNTY.                        :  COUNTY
 LOC .                        :  LOCATION
 LMF .             Drill Floor:  LOG MEASURED FROM
 TVDS.m                  43.60:  TVDSS CORRECTN
 LATI.deg                40.02:  LATITUDE
 LONG.deg                51.45:  LONGITUDE
 WHNS.m                  -7.04:  WELL HEAD N/S
 WHEW.m                  -0.67:  WELL HEAD E/W
 UTMX.m              538762.90:  UTM X
 UTMY.m             4431871.34:  UTM Y
 DFWL.m                   0.00:  DISTANCE FWL
 DFSL.m                   0.00:  DISTANCE FSL
 SDEP.m                4127.00:  START DEPTH
 TDD .m                5084.50:  TOTAL DEPTH (DRILLER)
 VSDR.deg               140.47:  VERT SEC DIRECT
 GVFD.g                   1.00:  GRAVITY FIELD
 MFLD.nT              50362.00:  MAGNETIC FIELD
 MDIP.deg                59.48:  MAGNETIC DIP
 MDEC.deg                 6.47:  MAGNETIC DECL
 GRDC.deg                 0.31:  GRID CORRECTION
 AZTC.deg                 6.16:  AZM TOTAL CORR
 EPD .m                   0.00:  ELEVATION
 EGL .m                   0.00:  GROUND ELEVATION
 WDMS.m                 151.80:  WD ELEV
 APD .m                  43.60:  DEPTH ABOVE PD
 DEP .m                4092.57:  DEPTH
 AGAP.m                  43.60:  AIR GAP
 VSEW.m                  -0.67:  VERT SEC E/W
 VSNS.m                  -7.04:  VERT SEC N/S
 EKB .m                  43.60:  KB ELEVATION
 EDF .m                  43.60:  DF ELEVATION
 TDL .m                 957.50:  TOTAL DEPTH (LOGGER)
 VSC .                       0:  VS TO CLOSURE
 MAGU.                 1851413:  MAGUTM CHECKSUM
~Parameter Information Block
#MNEM.UNIT       Value        Description
#---------     -----------    ---------------------------
 AV  .mps                 1.50:  Ann Velocity 
 AVMX.mps                 2.00:  Max Ann Veloc 
 AZIF.deg               184.66:  Azm, Final 
 BHAT.        Rotary Steerable:  BHA Type 
 BREV.rev               300.00:  Rev Bit Total 
 BROT.°/30m              -0.50:  Build Rotating 
 BS  .in                  8.50:  Bit Size 
 BSZ .in                  8.50:  Bit Size 
 BTPL.psig              370.00:  Bit Press Loss 
 CABU.                      No:  Customer Abuse 
 CGEO.      Behruz Shahbaliyev:  Customer Geo 
 COMM.                     Ììg:  Run Comments 1 
 TCS .hr                140.08:  Time Ciculation Ended 
 CV  .mps                 3.00:  Crit Velocity 
 CVMX.mps                 3.20:  Max Crit Veloc 
 DD1 .            Musa Ahmadov:  Direct Drillr 1 
 DD2 .           Hamid Ahmadov:  Direct Drillr 2 
 DDSV.               Geo-Pilot:  DD Service 
 DEFF.%                  98.40:  % Det Eff 
 DLRX.°/30m               3.40:  Dogleg Rot Max 
 DLSO.°/30m               1.45:  Dogleg Oriented 
 DLSX.°/30m               3.40:  Dogleg Str Max 
 DRET.      18.40.00 29-Aug-21:  Drill End Time 
 DRST.      21.00.00 20-Aug-21:  Drill Start Tim 
 DTIM.hr                 69.47:  Time Drilling 
 EDEP.m                5084.50:  End Depth 
 ENG1.      Artemiy Matviyanov:  Engineer 1 
 ENG2.         Almaz Almadatov:  Engineer 2 
 ETIM.      18.40.00 29-Aug-21:  End Time 
 FLOI.gpm               500.00:  Flow In 
 FLON.gpm               400.00:  Flow In Min 
 FLOS.cptm                0.00:  Fluid Loss 
 FLOX.gpm               500.00:  Flow In Max 
 DFT .        Mineral Oil Base:  Mud Type 
 HFLO.                      No:  High Flow 
 HPRE.                      No:  High Pressure 
 HTEM.                      No:  High Temp 
 HYDO.m                   1.80:  Hydro Offset 
 IFIN.deg                25.62:  Inc, Final 
 IMAX.deg                48.69:  Inc Max 
 IMIN.deg                24.01:  Inc Min 
 IMND.m                4962.57:  Inc Min Depth 
 IMXD.m                4119.01:  Inc Max Depth 
 JARR.                      No:  Jarring 
 LETM.      18.40.00 29-Aug-21:  Log End Time 
 LOST.hr                     0:  Lost Rig Time 
 LSTM.      21.00.00 20-Aug-21:  Log Start Time 
 MDCL.ppm             41500.00:  Mud Chlorides 
 MDES.     Inversion Oil/Synthetic:  Mud Desc 
 DFD .sg                  1.56:  Mud Density 
 MDMN.sg                  1.56:  Dens Mud Min 
 MDMX.sg                  1.56:  Dens Mud Max 
 MOIL.                      70:  Run Mud Oil % 
 MOWR.                   70:30:  Run Mud OWR 
 MSND.                     0.2:  Run Mud Sand % 
 MSOL.                    23.3:  Run Mud Solids% 
 DFV .spqt               78.00:  Mud Viscosity 
 MWOD.in                  6.75:  MWD Tool OD 
 MWSI.                      No:  Serv Intrp, MWD 
 OTIM.hr                218.30:  Time Operating 
 PCON.           Look Like New:  Pad Condition 
 PMAX.psia            11015.30:  Press Op, Max 
 PV  .cP                 38.00:  Mud PV 
 RUN .                     300:  Run Number 
 ROPA.m/hr               15.00:  ROP Avg 
 ROPN.m/hr                9.00:  ROP Min 
 ROPX.m/hr               17.00:  ROP Max 
 RPMA.rpm               120.00:  RPM Surface Avg 
 RPMN.rpm                90.00:  RPM Surface Min 
 RPMX.rpm               140.00:  RPM Surface Max 
 RRUN.                     300:  Rig Run Number 
 RTIM.hr                 31.53:  Time Reaming 
 SAZI.deg               331.64:  Azm, Start 
 SDEP.m                4127.00:  Start Depth 
 SIDD.                      No:  Serv Intrp, DD 
 SINC.deg                48.43:  Inc, Start 
 SPPA.psig             5830.00:  SPP Avg 
 SPPN.psig             5600.00:  SPP Min 
 SPPX.psig             5900.00:  SPP Max 
 STIM.      21.00.00 20-Aug-21:  Start Time 
 SVCS.                 DD, MWD:  Services 
 SVER.                    9.20:  Sperry Version 
 TDAT.m                 957.50:  Tot Depth Attmp 
 TDDF.                      No:  Trip for DD 
 TDLG.m                 957.50:  Tot Depth Loggd 
 TFF .                      No:  Trip for Fail 
 TQAA.f-kp               15.00:  Torque Abs Avg 
 TQAN.f-kp               12.00:  Torque Abs Min 
 TQAX.f-kp               19.00:  Torque Abs Max 
 TRRT.°/30m              -3.40:  Turn Rotating 
 MRT .                  EWR-M5:  Maximum Recorded Temperature 
 TTMX.degC              100.00:  Max Tool Temp 
 VS01.                90639251:  Virtual Str1 SN 
 VS02.                90634715:  Virtual Str2 SN 
 VS03.                90652479:  Virtual Str3 SN 
 VS04.                90642262:  Virtual Str4 SN 
 WBMN.klb                 0.00:  WOB Min 
 WITN.           Murad Guliyev:  Customer Rep 
 WITN.          Yashar Gaziyev:  Customer Rep 2 
 WOBA.klb                 9.00:  WOB Avg 
 WOBX.klb                12.00:  WOB Max 
 YP  .lhf2               30.00:  Yield Point 
~Curve Information Block
#MNEM.UNIT                 API CODE     Curve Description
#---------               -----------    ---------------------------
 TIME.HHMMSS            00 000 000 000:  GT Time & Date
 GTDEPTH.m              00 000 000 000:  GT Depth
 GTPQH.psia             00 000 000 000:  GT HR Quartz Pressure
 GTTQ.degC              00 000 000 000:  GT Quartz Temperature
 GTTN.NONE              00 000 000 000:  GT Test Number
 GTET.sec               00 000 000 000:  GT Elapsed Test Time
 GTTVD.m                00 000 000 000:  GT True Vertical Depth
#Other Information
#
#WARRANTY: Halliburton will use its best efforts to furnish customers with 
#accurate information and interpretations that are part of, and incident to, the services 
#provided.  However, Halliburton cannot and does not warrant the accuracy 
#or correctness of such information and interpretations.  Under no circumstances should any 
#such information or interpretation be relied upon as the sole basis for any drilling, 
#completion, production, or financial decision or any procedure involving any risk to the 
#safety of any drilling venture, drilling rig or its crew or any other third party.  The 
#Customer has full responsibility for all drilling, completion and production operation.  
#Halliburton makes no representations or warranties, either expressed or 
#implied, including, but not limited to, the implied warranties of merchantability or fitness 
#for a particular purpose, with respect to the services rendered.  In no event will 
#Halliburton be liable for failure to obtain any particular results or for 
#any damages, including, but not limited to, indirect, special or consequential damages, 
#resulting from the use of any information or interpretation provided by Halliburton.
#
~A           TIME           GTDEPTH  GTPQH  GTTQ  GTTN  GTET   GTTVD  
# ...
   10:09:29.942.27-Aug-2021 4958.50 7889.20 86.07 8.00 160.81 3301.91
   10:09:30.141.27-Aug-2021 4958.50 7889.20 86.07 8.00 161.01 3301.91
   10:09:30.341.27-Aug-2021 4958.50 7889.83 86.07 8.00 161.21 3301.91
   10:09:30.541.27-Aug-2021 4958.50 7889.71 86.07 8.00 161.41 3301.91
   10:09:30.741.27-Aug-2021 4958.50 7889.56 86.07 8.00 161.61 3301.91
   10:09:30.940.27-Aug-2021 4958.50 7889.23 86.07 8.00 161.81 3301.91
   10:09:31.140.27-Aug-2021 4958.50 7889.23 86.07 8.00 162.01 3301.91
   10:09:31.340.27-Aug-2021 4958.50 7893.23 86.07 8.00 162.21 3301.91
   10:09:31.540.27-Aug-2021 4958.50 7887.81 86.07 8.00 162.41 3301.91
   10:09:31.740.27-Aug-2021 4958.50 7890.10 86.07 8.00 162.61 3301.91
   10:09:31.939.27-Aug-2021 4958.50 7888.76 86.07 8.00 162.81 3301.91
   10:09:32.139.27-Aug-2021 4958.50 7888.76 86.07 8.00 163.01 3301.91
   10:09:32.339.27-Aug-2021 4958.50 7888.24 86.07 8.00 163.21 3301.91
   10:09:32.539.27-Aug-2021 4958.50 7894.21 86.07 8.00 163.40 3301.91
   10:09:32.738.27-Aug-2021 4958.50 7886.57 86.07 8.00 163.60 3301.91
   10:09:32.938.27-Aug-2021 4958.50 7888.83 86.07 8.00 163.80 3301.91
   10:09:33.138.27-Aug-2021 4958.50 7888.83 86.07 8.00 164.00 3301.91
   10:09:33.338.27-Aug-2021 4958.50 7888.73 86.07 8.00 164.20 3301.91
   10:09:33.537.27-Aug-2021 4958.50 7889.11 86.07 8.00 164.40 3301.91
   10:09:33.737.27-Aug-2021 4958.50 7888.88 86.07 8.00 164.60 3301.91
   10:09:33.937.27-Aug-2021 4958.50 7892.42 86.07 8.00 164.80 3301.91
   10:09:34.137.27-Aug-2021 4958.50 7892.42 86.07 8.00 165.00 3301.91
   10:09:34.336.27-Aug-2021 4958.50 7888.76 86.07 8.00 165.20 3301.91
   10:09:34.536.27-Aug-2021 4958.50 7888.69 86.07 8.00 165.40 3301.91
   10:09:34.736.27-Aug-2021 4958.50 7893.37 86.07 8.00 165.60 3301.91
   10:09:34.936.27-Aug-2021 4958.50 7887.99 86.07 8.00 165.80 3301.91
   10:09:35.135.27-Aug-2021 4958.50 7887.99 86.07 8.00 166.00 3301.91
   10:09:35.335.27-Aug-2021 4958.50 7887.87 86.07 8.00 166.20 3301.91
   10:09:35.535.27-Aug-2021 4958.50 7887.51 86.07 8.00 166.40 3301.91
   10:09:35.735.27-Aug-2021 4958.50 7887.77 86.07 8.00 166.60 3301.91
   10:09:35.935.27-Aug-2021 4958.50 7888.42 86.07 8.00 166.80 3301.91
   10:09:36.134.27-Aug-2021 4958.50 7888.42 86.07 8.00 167.00 3301.91
   10:09:36.334.27-Aug-2021 4958.50 7889.69 86.07 8.00 167.20 3301.91
   10:09:36.534.27-Aug-2021 4958.50 7890.16 86.07 8.00 167.40 3301.91
   10:09:36.734.27-Aug-2021 4958.50 7890.36 86.07 8.00 167.60 3301.91
   10:09:36.933.27-Aug-2021 4958.50 7891.07 86.07 8.00 167.80 3301.91
   10:09:37.133.27-Aug-2021 4958.50 7891.07 86.07 8.00 168.00 3301.91
   10:09:37.333.27-Aug-2021 4958.50 7891.15 86.07 8.00 168.20 3301.91
   10:09:37.533.27-Aug-2021 4958.50 7890.74 86.07 8.00 168.40 3301.91
   10:09:37.732.27-Aug-2021 4958.50 7890.40 86.07 8.00 168.60 3301.91
   10:09:37.932.27-Aug-2021 4958.50 7890.91 86.07 8.00 168.80 3301.91
   10:09:38.132.27-Aug-2021 4958.50 7890.91 86.07 8.00 169.00 3301.91
   10:09:38.332.27-Aug-2021 4958.50 7891.43 86.07 8.00 169.20 3301.91
   10:09:38.531.27-Aug-2021 4958.50 7890.47 86.07 8.00 169.40 3301.91
   10:09:38.731.27-Aug-2021 4958.50 7889.70 86.07 8.00 169.60 3301.91
   10:09:38.931.27-Aug-2021 4958.50 7889.65 86.07 8.00 169.80 3301.91
   10:09:39.131.27-Aug-2021 4958.50 7889.65 86.07 8.00 170.00 3301.91
   10:09:39.330.27-Aug-2021 4958.50 7889.98 86.07 8.00 170.20 3301.91
   10:09:39.530.27-Aug-2021 4958.50 7889.59 86.07 8.00 170.40 3301.91
   10:09:39.730.27-Aug-2021 4958.50 7890.19 86.07 8.00 170.60 3301.91
   10:09:39.930.27-Aug-2021 4958.50 7890.46 86.07 8.00 170.80 3301.91
   10:09:40.129.27-Aug-2021 4958.50 7890.46 86.07 8.00 171.00 3301.91
   10:09:40.329.27-Aug-2021 4958.50 7891.40 86.07 8.00 171.20 3301.91
   10:09:40.529.27-Aug-2021 4958.50 7891.36 86.07 8.00 171.40 3301.91
   10:09:40.729.27-Aug-2021 4958.50 7890.98 86.07 8.00 171.60 3301.91
   10:09:40.929.27-Aug-2021 4958.50 7890.56 86.07 8.00 171.79 3301.91
   10:09:41.128.27-Aug-2021 4958.50 7890.56 86.07 8.00 171.99 3301.91
   10:09:41.328.27-Aug-2021 4958.50 7890.49 86.07 8.00 172.19 3301.91
   10:09:41.528.27-Aug-2021 4958.50 7893.11 86.07 8.00 172.39 3301.91
   10:09:41.728.27-Aug-2021 4958.50 7891.28 86.07 8.00 172.59 3301.91
   10:09:41.927.27-Aug-2021 4958.50 7890.20 86.07 8.00 172.79 3301.91
   10:09:42.127.27-Aug-2021 4958.50 7890.20 86.07 8.00 172.99 3301.91
   10:09:42.327.27-Aug-2021 4958.50 7889.48 86.07 8.00 173.19 3301.91
   10:09:42.527.27-Aug-2021 4958.50 7895.72 86.07 8.00 173.39 3301.91
   10:09:42.726.27-Aug-2021 4958.50 7887.99 86.07 8.00 173.59 3301.91
   10:09:42.926.27-Aug-2021 4958.50 7890.25 86.07 8.00 173.79 3301.91
   10:09:43.126.27-Aug-2021 4958.50 7890.25 86.07 8.00 173.99 3301.91
   10:09:43.326.27-Aug-2021 4958.50 7889.71 86.07 8.00 174.19 3301.91
   10:09:43.525.27-Aug-2021 4958.50 7890.40 86.07 8.00 174.39 3301.91
   10:09:43.725.27-Aug-2021 4958.50 7891.12 86.07 8.00 174.59 3301.91
   10:09:43.925.27-Aug-2021 4958.50 7893.02 86.07 8.00 174.79 3301.91
   10:09:44.125.27-Aug-2021 4958.50 7893.02 86.07 8.00 174.99 3301.91
   10:09:44.324.27-Aug-2021 4958.50 7890.28 86.07 8.00 175.19 3301.91
   10:09:44.524.27-Aug-2021 4958.50 7890.71 86.07 8.00 175.39 3301.91
   10:09:44.724.27-Aug-2021 4958.50 7893.28 86.07 8.00 175.59 3301.91
   10:09:44.924.27-Aug-2021 4958.50 7891.56 86.07 8.00 175.79 3301.91
   10:09:45.124.27-Aug-2021 4958.50 7891.56 86.07 8.00 175.99 3301.91
   10:09:45.323.27-Aug-2021 4958.50 7888.98 86.07 8.00 176.19 3301.91
   10:09:45.523.27-Aug-2021 4958.50 7889.10 86.07 8.00 176.39 3301.91
   10:09:45.723.27-Aug-2021 4958.50 7889.36 86.07 8.00 176.59 3301.91
   10:09:45.923.27-Aug-2021 4958.50 7889.89 86.07 8.00 176.79 3301.91
   10:09:46.122.27-Aug-2021 4958.50 7889.89 86.07 8.00 176.99 3301.91
   10:09:46.322.27-Aug-2021 4958.50 7890.06 86.07 8.00 177.19 3301.91
   10:09:46.522.27-Aug-2021 4958.50 7890.23 86.07 8.00 177.39 3301.91
   10:09:46.722.27-Aug-2021 4958.50 7890.86 86.07 8.00 177.59 3301.91
   10:09:46.921.27-Aug-2021 4958.50 7891.13 86.07 8.00 177.79 3301.91
   10:09:47.121.27-Aug-2021 4958.50 7891.13 86.07 8.00 177.99 3301.91
   10:09:47.321.27-Aug-2021 4958.50 7890.92 86.07 8.00 178.19 3301.91
   10:09:47.521.27-Aug-2021 4958.50 7890.72 86.06 8.00 178.39 3301.91
   10:09:47.720.27-Aug-2021 4958.50 7890.30 86.07 8.00 178.59 3301.91
   10:09:47.920.27-Aug-2021 4958.50 7894.15 86.06 8.00 178.79 3301.91
   10:09:48.120.27-Aug-2021 4958.50 7894.15 86.06 8.00 178.99 3301.91
   10:09:48.320.27-Aug-2021 4958.50 7890.74 86.06 8.00 179.19 3301.91
   10:09:48.519.27-Aug-2021 4958.50 7890.07 86.06 8.00 179.39 3301.91
   10:09:48.719.27-Aug-2021 4958.50 7889.94 86.06 8.00 179.59 3301.91
   10:09:48.919.27-Aug-2021 4958.50 7890.21 86.06 8.00 179.79 3301.91
   10:09:49.119.27-Aug-2021 4958.50 7890.21 86.06 8.00 179.99 3301.91
   10:09:49.319.27-Aug-2021 4958.50 7890.13 86.06 8.00 180.18 3301.91
   10:09:49.518.27-Aug-2021 4958.50 7890.00 86.06 8.00 180.38 3301.91
   10:09:49.718.27-Aug-2021 4958.50 7890.39 86.06 8.00 180.58 3301.91
   10:09:49.918.27-Aug-2021 4958.50 7891.19 86.06 8.00 180.78 3301.91
   10:09:50.118.27-Aug-2021 4958.50 7891.19 86.06 8.00 180.98 3301.91
   10:09:50.317.27-Aug-2021 4958.50 7891.49 86.06 8.00 181.18 3301.91
   10:09:50.517.27-Aug-2021 4958.50 7891.30 86.06 8.00 181.38 3301.91
   10:09:50.717.27-Aug-2021 4958.50 7891.14 86.06 8.00 181.58 3301.91
   10:09:50.917.27-Aug-2021 4958.50 7890.72 86.06 8.00 181.78 3301.91
   10:09:51.116.27-Aug-2021 4958.50 7890.72 86.06 8.00 181.98 3301.91
   10:09:51.316.27-Aug-2021 4958.50 7894.45 86.06 8.00 182.18 3301.91
   10:09:51.516.27-Aug-2021 4958.50 7891.25 86.06 8.00 182.38 3301.91
   10:09:51.716.27-Aug-2021 4958.50 7890.45 86.06 8.00 182.58 3301.91
   10:09:51.915.27-Aug-2021 4958.50 7889.80 86.06 8.00 182.78 3301.91
   10:09:52.115.27-Aug-2021 4958.50 7889.80 86.06 8.00 182.98 3301.91
   10:09:52.315.27-Aug-2021 4958.50 7894.23 86.06 8.00 183.18 3301.91
   10:09:52.515.27-Aug-2021 4958.50 7889.12 86.06 8.00 183.38 3301.91
   10:09:52.714.27-Aug-2021 4958.50 7891.32 86.06 8.00 183.58 3301.91
