~Version Information
 VERS.                  2.0:   CWLS log ASCII Standard -VERSION 2.0
 WRAP.                   NO:   One line per depth step
~Well Information Block
#MNEM.UNIT     VALUE/NAME     DESCRIPTION
#---------     -----------    ---------------------------
 STRT.S             11:48:55 27-Aug-21: START TIME 11:48:55 27-Aug-21
 STOP.S             11:56:03 27-Aug-21: STOP TIME  11:56:03 27-Aug-21
 STEP.S                   0.00: STEP TIME
 NULL.                 -999.25: NULL VALUE
 DFWT.                        :  DIST FWL TEXT
 DFST.                        :  DIST FSL TEXT
 DMF .             Drill Floor:  DRILL MEAS FROM
 STIM.      20.00.00 17-Aug-21:  START TIME
 DATE.      19.00.00 29-Aug-21:  END TIME
 SPUD.               15-Aug-21:  SPUD DATE
 NREF.                    Grid:  NORTH REFERENCE
 HPTY.       Minimum Curvature:  HOLE POS TYPE
 DMOD.             Drill Model:  DRILL MOD DESC
 SVYD.                  Survey:  SURVEY DESC
 ILTD.               Lithology:  INTERP LTH DESC
 FTOP.          Formation Tops:  FORM TOPS DESC
 RIG .              East Azeri:  RIG NAME
 PDAT.          Mean Sea Level:  PERMANENT DATUM
 FLD .                     ACG:  FIELD NAME
 SON .        AZ-XX-0907180857:  JOB NUMBER
 CTRY.              Azerbaijan:  COUNTRY NAME
 WELL.                    D23x:  WELL NAME
 SRVC.     Turan Drilling and Engineering:  CONTRACTOR
 COMP.     BP Exploration (Caspian Sea) Ltd.:  COMPANY
 UWI .            /AZE00000214:  UNIQUE WELL IDENTIFIER
 API .            /AZE00000214:  API NUMBER
 MDS .        Operator Entered:  MAG DATA SOURCE
 BASE.              Azerbaijan:  LOGGING EQUIPMENT BASE LOCATION
 REGN.                   EESSA:  REGION
 PROV.                    Baku:  PROVINCE
 STAT.                    Baku:  STATE NAME
 MWDS.                    Baku:  MWD SHOP
 DOE .                     N/A:  DOE NUMBER
 DCON.         Sperry Drilling:  DIRECTNL CONTR
 UNIT.                     N/A:  LOGGING EQUIPMENT ID
 WTYP.                Deviated:  WELL TYPE
 CNTY.                        :  COUNTY
 LOC .                        :  LOCATION
 LMF .             Drill Floor:  LOG MEASURED FROM
 TVDS.m                  43.60:  TVDSS CORRECTN
 LATI.deg                40.02:  LATITUDE
 LONG.deg                51.45:  LONGITUDE
 WHNS.m                  -7.04:  WELL HEAD N/S
 WHEW.m                  -0.67:  WELL HEAD E/W
 UTMX.m              538762.90:  UTM X
 UTMY.m             4431871.34:  UTM Y
 DFWL.m                   0.00:  DISTANCE FWL
 DFSL.m                   0.00:  DISTANCE FSL
 SDEP.m                4127.00:  START DEPTH
 TDD .m                5084.50:  TOTAL DEPTH (DRILLER)
 VSDR.deg               140.47:  VERT SEC DIRECT
 GVFD.g                   1.00:  GRAVITY FIELD
 MFLD.nT              50362.00:  MAGNETIC FIELD
 MDIP.deg                59.48:  MAGNETIC DIP
 MDEC.deg                 6.47:  MAGNETIC DECL
 GRDC.deg                 0.31:  GRID CORRECTION
 AZTC.deg                 6.16:  AZM TOTAL CORR
 EPD .m                   0.00:  ELEVATION
 EGL .m                   0.00:  GROUND ELEVATION
 WDMS.m                 151.80:  WD ELEV
 APD .m                  43.60:  DEPTH ABOVE PD
 DEP .m                4092.57:  DEPTH
 AGAP.m                  43.60:  AIR GAP
 VSEW.m                  -0.67:  VERT SEC E/W
 VSNS.m                  -7.04:  VERT SEC N/S
 EKB .m                  43.60:  KB ELEVATION
 EDF .m                  43.60:  DF ELEVATION
 TDL .m                 957.50:  TOTAL DEPTH (LOGGER)
 VSC .                       0:  VS TO CLOSURE
 MAGU.                 1851413:  MAGUTM CHECKSUM
~Parameter Information Block
#MNEM.UNIT       Value        Description
#---------     -----------    ---------------------------
 AV  .mps                 1.50:  Ann Velocity 
 AVMX.mps                 2.00:  Max Ann Veloc 
 AZIF.deg               184.66:  Azm, Final 
 BHAT.        Rotary Steerable:  BHA Type 
 BREV.rev               300.00:  Rev Bit Total 
 BROT.°/30m              -0.50:  Build Rotating 
 BS  .in                  8.50:  Bit Size 
 BSZ .in                  8.50:  Bit Size 
 BTPL.psig              370.00:  Bit Press Loss 
 CABU.                      No:  Customer Abuse 
 CGEO.      Behruz Shahbaliyev:  Customer Geo 
 COMM.                     L*e:  Run Comments 1 
 TCS .hr                140.08:  Time Ciculation Ended 
 CV  .mps                 3.00:  Crit Velocity 
 CVMX.mps                 3.20:  Max Crit Veloc 
 DD1 .            Musa Ahmadov:  Direct Drillr 1 
 DD2 .           Hamid Ahmadov:  Direct Drillr 2 
 DDSV.               Geo-Pilot:  DD Service 
 DEFF.%                  98.40:  % Det Eff 
 DLRX.°/30m               3.40:  Dogleg Rot Max 
 DLSO.°/30m               1.45:  Dogleg Oriented 
 DLSX.°/30m               3.40:  Dogleg Str Max 
 DRET.      18.40.00 29-Aug-21:  Drill End Time 
 DRST.      21.00.00 20-Aug-21:  Drill Start Tim 
 DTIM.hr                 69.47:  Time Drilling 
 EDEP.m                5084.50:  End Depth 
 ENG1.      Artemiy Matviyanov:  Engineer 1 
 ENG2.         Almaz Almadatov:  Engineer 2 
 ETIM.      18.40.00 29-Aug-21:  End Time 
 FLOI.gpm               500.00:  Flow In 
 FLON.gpm               400.00:  Flow In Min 
 FLOS.cptm                0.00:  Fluid Loss 
 FLOX.gpm               500.00:  Flow In Max 
 DFT .        Mineral Oil Base:  Mud Type 
 HFLO.                      No:  High Flow 
 HPRE.                      No:  High Pressure 
 HTEM.                      No:  High Temp 
 HYDO.m                   1.80:  Hydro Offset 
 IFIN.deg                25.62:  Inc, Final 
 IMAX.deg                48.69:  Inc Max 
 IMIN.deg                24.01:  Inc Min 
 IMND.m                4962.57:  Inc Min Depth 
 IMXD.m                4119.01:  Inc Max Depth 
 JARR.                      No:  Jarring 
 LETM.      18.40.00 29-Aug-21:  Log End Time 
 LOST.hr                     0:  Lost Rig Time 
 LSTM.      21.00.00 20-Aug-21:  Log Start Time 
 MDCL.ppm             41500.00:  Mud Chlorides 
 MDES.     Inversion Oil/Synthetic:  Mud Desc 
 DFD .sg                  1.56:  Mud Density 
 MDMN.sg                  1.56:  Dens Mud Min 
 MDMX.sg                  1.56:  Dens Mud Max 
 MOIL.                      70:  Run Mud Oil % 
 MOWR.                   70:30:  Run Mud OWR 
 MSND.                     0.2:  Run Mud Sand % 
 MSOL.                    23.3:  Run Mud Solids% 
 DFV .spqt               78.00:  Mud Viscosity 
 MWOD.in                  6.75:  MWD Tool OD 
 MWSI.                      No:  Serv Intrp, MWD 
 OTIM.hr                218.30:  Time Operating 
 PCON.           Look Like New:  Pad Condition 
 PMAX.psia            11015.30:  Press Op, Max 
 PV  .cP                 38.00:  Mud PV 
 RUN .                     300:  Run Number 
 ROPA.m/hr               15.00:  ROP Avg 
 ROPN.m/hr                9.00:  ROP Min 
 ROPX.m/hr               17.00:  ROP Max 
 RPMA.rpm               120.00:  RPM Surface Avg 
 RPMN.rpm                90.00:  RPM Surface Min 
 RPMX.rpm               140.00:  RPM Surface Max 
 RRUN.                     300:  Rig Run Number 
 RTIM.hr                 31.53:  Time Reaming 
 SAZI.deg               331.64:  Azm, Start 
 SDEP.m                4127.00:  Start Depth 
 SIDD.                      No:  Serv Intrp, DD 
 SINC.deg                48.43:  Inc, Start 
 SPPA.psig             5830.00:  SPP Avg 
 SPPN.psig             5600.00:  SPP Min 
 SPPX.psig             5900.00:  SPP Max 
 STIM.      21.00.00 20-Aug-21:  Start Time 
 SVCS.                 DD, MWD:  Services 
 SVER.                    9.20:  Sperry Version 
 TDAT.m                 957.50:  Tot Depth Attmp 
 TDDF.                      No:  Trip for DD 
 TDLG.m                 957.50:  Tot Depth Loggd 
 TFF .                      No:  Trip for Fail 
 TQAA.f-kp               15.00:  Torque Abs Avg 
 TQAN.f-kp               12.00:  Torque Abs Min 
 TQAX.f-kp               19.00:  Torque Abs Max 
 TRRT.°/30m              -3.40:  Turn Rotating 
 MRT .                  EWR-M5:  Maximum Recorded Temperature 
 TTMX.degC              100.00:  Max Tool Temp 
 VS01.                90639251:  Virtual Str1 SN 
 VS02.                90634715:  Virtual Str2 SN 
 VS03.                90652479:  Virtual Str3 SN 
 VS04.                90642262:  Virtual Str4 SN 
 WBMN.klb                 0.00:  WOB Min 
 WITN.           Murad Guliyev:  Customer Rep 
 WITN.          Yashar Gaziyev:  Customer Rep 2 
 WOBA.klb                 9.00:  WOB Avg 
 WOBX.klb                12.00:  WOB Max 
 YP  .lhf2               30.00:  Yield Point 
~Curve Information Block
#MNEM.UNIT                 API CODE     Curve Description
#---------               -----------    ---------------------------
 TIME.HHMMSS            00 000 000 000:  GT Time & Date
 GTDEPTH.m              00 000 000 000:  GT Depth
 GTPQH.psia             00 000 000 000:  GT HR Quartz Pressure
 GTTQ.degC              00 000 000 000:  GT Quartz Temperature
 GTTN.NONE              00 000 000 000:  GT Test Number
 GTET.sec               00 000 000 000:  GT Elapsed Test Time
 GTTVD.m                00 000 000 000:  GT True Vertical Depth
#Other Information
#
#WARRANTY: Halliburton will use its best efforts to furnish customers with 
#accurate information and interpretations that are part of, and incident to, the services 
#provided.  However, Halliburton cannot and does not warrant the accuracy 
#or correctness of such information and interpretations.  Under no circumstances should any 
#such information or interpretation be relied upon as the sole basis for any drilling, 
#completion, production, or financial decision or any procedure involving any risk to the 
#safety of any drilling venture, drilling rig or its crew or any other third party.  The 
#Customer has full responsibility for all drilling, completion and production operation.  
#Halliburton makes no representations or warranties, either expressed or 
#implied, including, but not limited to, the implied warranties of merchantability or fitness 
#for a particular purpose, with respect to the services rendered.  In no event will 
#Halliburton be liable for failure to obtain any particular results or for 
#any damages, including, but not limited to, indirect, special or consequential damages, 
#resulting from the use of any information or interpretation provided by Halliburton.
#
~A           TIME           GTDEPTH  GTPQH  GTTQ  GTTN   GTET   GTTVD  
# ...
   11:51:11.296.27-Aug-2021 4914.00 7809.75 85.29 11.00 135.65 3261.31
   11:51:11.496.27-Aug-2021 4914.00 7809.92 85.29 11.00 135.85 3261.31
   11:51:11.696.27-Aug-2021 4914.00 7809.68 85.29 11.00 136.05 3261.31
   11:51:11.896.27-Aug-2021 4914.00 7809.68 85.29 11.00 136.25 3261.31
   11:51:12.096.27-Aug-2021 4914.00 7809.71 85.29 11.00 136.45 3261.31
   11:51:12.296.27-Aug-2021 4914.00 7814.35 85.29 11.00 136.65 3261.31
   11:51:12.496.27-Aug-2021 4914.00 7808.08 85.29 11.00 136.85 3261.31
   11:51:12.696.27-Aug-2021 4914.00 7810.85 85.29 11.00 137.05 3261.31
   11:51:12.897.27-Aug-2021 4914.00 7810.85 85.29 11.00 137.25 3261.31
   11:51:13.097.27-Aug-2021 4914.00 7808.93 85.29 11.00 137.45 3261.31
   11:51:13.297.27-Aug-2021 4914.00 7808.95 85.29 11.00 137.65 3261.31
   11:51:13.497.27-Aug-2021 4914.00 7808.73 85.29 11.00 137.85 3261.31
   11:51:13.697.27-Aug-2021 4914.00 7808.99 85.29 11.00 138.05 3261.31
   11:51:13.897.27-Aug-2021 4914.00 7808.99 85.29 11.00 138.25 3261.31
   11:51:14.097.27-Aug-2021 4914.00 7809.11 85.29 11.00 138.45 3261.31
   11:51:14.297.27-Aug-2021 4914.00 7810.01 85.29 11.00 138.65 3261.31
   11:51:14.497.27-Aug-2021 4914.00 7810.06 85.29 11.00 138.85 3261.31
   11:51:14.697.27-Aug-2021 4914.00 7810.41 85.29 11.00 139.05 3261.31
   11:51:14.897.27-Aug-2021 4914.00 7810.41 85.29 11.00 139.25 3261.31
   11:51:15.097.27-Aug-2021 4914.00 7810.06 85.29 11.00 139.45 3261.31
   11:51:15.297.27-Aug-2021 4914.00 7809.85 85.29 11.00 139.65 3261.31
   11:51:15.497.27-Aug-2021 4914.00 7809.55 85.29 11.00 139.85 3261.31
   11:51:15.698.27-Aug-2021 4914.00 7814.37 85.29 11.00 140.05 3261.31
   11:51:15.898.27-Aug-2021 4914.00 7814.37 85.29 11.00 140.25 3261.31
   11:51:16.098.27-Aug-2021 4914.00 7810.80 85.29 11.00 140.45 3261.31
   11:51:16.298.27-Aug-2021 4914.00 7809.04 85.29 11.00 140.65 3261.31
   11:51:16.498.27-Aug-2021 4914.00 7808.82 85.29 11.00 140.85 3261.31
   11:51:16.698.27-Aug-2021 4914.00 7808.75 85.29 11.00 141.05 3261.31
   11:51:16.898.27-Aug-2021 4914.00 7808.75 85.29 11.00 141.25 3261.31
   11:51:17.098.27-Aug-2021 4914.00 7806.61 85.29 11.00 141.45 3261.31
   11:51:17.298.27-Aug-2021 4914.00 7809.72 85.29 11.00 141.65 3261.31
   11:51:17.498.27-Aug-2021 4914.00 7809.01 85.29 11.00 141.85 3261.31
   11:51:17.698.27-Aug-2021 4914.00 7812.59 85.29 11.00 142.05 3261.31
   11:51:17.898.27-Aug-2021 4914.00 7812.59 85.29 11.00 142.25 3261.31
   11:51:18.098.27-Aug-2021 4914.00 7809.96 85.29 11.00 142.45 3261.31
   11:51:18.298.27-Aug-2021 4914.00 7808.67 85.29 11.00 142.65 3261.31
   11:51:18.499.27-Aug-2021 4914.00 7808.51 85.29 11.00 142.85 3261.31
   11:51:18.699.27-Aug-2021 4914.00 7808.35 85.29 11.00 143.05 3261.31
   11:51:18.899.27-Aug-2021 4914.00 7808.35 85.29 11.00 143.25 3261.31
   11:51:19.099.27-Aug-2021 4914.00 7810.50 85.29 11.00 143.45 3261.31
   11:51:19.299.27-Aug-2021 4914.00 7810.31 85.29 11.00 143.65 3261.31
   11:51:19.499.27-Aug-2021 4914.00 7809.83 85.29 11.00 143.85 3261.31
   11:51:19.699.27-Aug-2021 4914.00 7809.25 85.29 11.00 144.05 3261.31
   11:51:19.899.27-Aug-2021 4914.00 7809.25 85.29 11.00 144.25 3261.31
   11:51:20.099.27-Aug-2021 4914.00 7809.16 85.29 11.00 144.45 3261.31
   11:51:20.299.27-Aug-2021 4914.00 7809.47 85.29 11.00 144.65 3261.31
   11:51:20.499.27-Aug-2021 4914.00 7808.44 85.29 11.00 144.85 3261.31
   11:51:20.699.27-Aug-2021 4914.00 7809.05 85.29 11.00 145.05 3261.31
   11:51:20.899.27-Aug-2021 4914.00 7809.05 85.29 11.00 145.25 3261.31
   11:51:21.099.27-Aug-2021 4914.00 7809.46 85.29 11.00 145.45 3261.31
   11:51:21.300.27-Aug-2021 4914.00 7809.64 85.29 11.00 145.65 3261.31
   11:51:21.500.27-Aug-2021 4914.00 7809.66 85.29 11.00 145.85 3261.31
   11:51:21.700.27-Aug-2021 4914.00 7809.60 85.29 11.00 146.05 3261.31
   11:51:21.900.27-Aug-2021 4914.00 7809.60 85.29 11.00 146.25 3261.31
   11:51:22.100.27-Aug-2021 4914.00 7809.43 85.29 11.00 146.45 3261.31
   11:51:22.300.27-Aug-2021 4914.00 7812.75 85.29 11.00 146.65 3261.31
   11:51:22.500.27-Aug-2021 4914.00 7809.25 85.29 11.00 146.85 3261.31
   11:51:22.700.27-Aug-2021 4914.00 7810.13 85.29 11.00 147.05 3261.31
   11:51:22.900.27-Aug-2021 4914.00 7810.13 85.29 11.00 147.25 3261.31
   11:51:23.100.27-Aug-2021 4914.00 7810.13 85.29 11.00 147.45 3261.31
   11:51:23.300.27-Aug-2021 4914.00 7808.68 85.29 11.00 147.65 3261.31
   11:51:23.500.27-Aug-2021 4914.00 7808.76 85.29 11.00 147.85 3261.31
   11:51:23.700.27-Aug-2021 4914.00 7808.28 85.29 11.00 148.05 3261.31
   11:51:23.900.27-Aug-2021 4914.00 7808.28 85.29 11.00 148.25 3261.31
   11:51:24.101.27-Aug-2021 4914.00 7809.21 85.29 11.00 148.45 3261.31
   11:51:24.301.27-Aug-2021 4914.00 7809.86 85.29 11.00 148.65 3261.31
   11:51:24.501.27-Aug-2021 4914.00 7809.98 85.29 11.00 148.85 3261.31
   11:51:24.701.27-Aug-2021 4914.00 7810.12 85.29 11.00 149.05 3261.31
   11:51:24.901.27-Aug-2021 4914.00 7810.12 85.29 11.00 149.25 3261.31
   11:51:25.101.27-Aug-2021 4914.00 7809.84 85.29 11.00 149.45 3261.31
   11:51:25.301.27-Aug-2021 4914.00 7809.76 85.29 11.00 149.65 3261.31
   11:51:25.501.27-Aug-2021 4914.00 7809.47 85.29 11.00 149.85 3261.31
   11:51:25.701.27-Aug-2021 4914.00 7813.06 85.29 11.00 150.05 3261.31
   11:51:25.901.27-Aug-2021 4914.00 7813.06 85.29 11.00 150.25 3261.31
   11:51:26.101.27-Aug-2021 4914.00 7810.29 85.29 11.00 150.45 3261.31
   11:51:26.301.27-Aug-2021 4914.00 7808.99 85.29 11.00 150.65 3261.31
   11:51:26.501.27-Aug-2021 4914.00 7808.66 85.29 11.00 150.85 3261.31
   11:51:26.701.27-Aug-2021 4914.00 7814.31 85.29 11.00 151.05 3261.31
   11:51:26.902.27-Aug-2021 4914.00 7814.31 85.29 11.00 151.25 3261.31
   11:51:27.102.27-Aug-2021 4914.00 7809.60 85.29 11.00 151.45 3261.31
   11:51:27.302.27-Aug-2021 4914.00 7808.90 85.29 11.00 151.65 3261.31
   11:51:27.502.27-Aug-2021 4914.00 7809.03 85.29 11.00 151.85 3261.31
   11:51:27.702.27-Aug-2021 4914.00 7809.19 85.29 11.00 152.05 3261.31
   11:51:27.902.27-Aug-2021 4914.00 7809.19 85.29 11.00 152.25 3261.31
   11:51:28.102.27-Aug-2021 4914.00 7813.79 85.29 11.00 152.45 3261.31
   11:51:28.302.27-Aug-2021 4914.00 7807.33 85.29 11.00 152.65 3261.31
   11:51:28.502.27-Aug-2021 4914.00 7810.57 85.29 11.00 152.85 3261.31
   11:51:28.702.27-Aug-2021 4914.00 7809.38 85.29 11.00 153.05 3261.31
   11:51:28.902.27-Aug-2021 4914.00 7809.38 85.29 11.00 153.25 3261.31
   11:51:29.102.27-Aug-2021 4914.00 7809.22 85.29 11.00 153.45 3261.31
   11:51:29.302.27-Aug-2021 4914.00 7809.76 85.29 11.00 153.65 3261.31
   11:51:29.502.27-Aug-2021 4914.00 7810.93 85.29 11.00 153.85 3261.31
   11:51:29.703.27-Aug-2021 4914.00 7809.43 85.29 11.00 154.05 3261.31
   11:51:29.903.27-Aug-2021 4914.00 7809.43 85.29 11.00 154.25 3261.31
   11:51:30.103.27-Aug-2021 4914.00 7809.01 85.29 11.00 154.45 3261.31
   11:51:30.303.27-Aug-2021 4914.00 7809.26 85.29 11.00 154.65 3261.31
   11:51:30.503.27-Aug-2021 4914.00 7809.14 85.29 11.00 154.85 3261.31
   11:51:30.703.27-Aug-2021 4914.00 7809.38 85.29 11.00 155.06 3261.31
   11:51:30.903.27-Aug-2021 4914.00 7809.38 85.29 11.00 155.26 3261.31
   11:51:31.103.27-Aug-2021 4914.00 7809.13 85.29 11.00 155.46 3261.31
   11:51:31.303.27-Aug-2021 4914.00 7809.56 85.29 11.00 155.66 3261.31
   11:51:31.503.27-Aug-2021 4914.00 7809.67 85.29 11.00 155.86 3261.31
   11:51:31.703.27-Aug-2021 4914.00 7809.86 85.29 11.00 156.06 3261.31
   11:51:31.903.27-Aug-2021 4914.00 7809.86 85.29 11.00 156.26 3261.31
   11:51:32.103.27-Aug-2021 4914.00 7808.32 85.29 11.00 156.46 3261.31
   11:51:32.303.27-Aug-2021 4914.00 7807.42 85.29 11.00 156.66 3261.31
   11:51:32.503.27-Aug-2021 4914.00 7807.69 85.29 11.00 156.86 3261.31
   11:51:32.704.27-Aug-2021 4914.00 7811.09 85.29 11.00 157.06 3261.31
   11:51:32.904.27-Aug-2021 4914.00 7811.09 85.29 11.00 157.26 3261.31
   11:51:33.104.27-Aug-2021 4914.00 7808.60 85.29 11.00 157.46 3261.31
   11:51:33.304.27-Aug-2021 4914.00 7807.29 85.29 11.00 157.66 3261.31
   11:51:33.504.27-Aug-2021 4914.00 7807.28 85.29 11.00 157.86 3261.31
   11:51:33.704.27-Aug-2021 4914.00 7807.28 85.29 11.00 158.06 3261.31
