~Version Information
 VERS.                  2.0:   CWLS log ASCII Standard -VERSION 2.0
 WRAP.                   NO:   One line per depth step
~Well Information Block
#MNEM.UNIT     VALUE/NAME     DESCRIPTION
#---------     -----------    ---------------------------
 STRT.S             16:56:36 27-Aug-21: START TIME 16:56:36 27-Aug-21
 STOP.S             17:03:52 27-Aug-21: STOP TIME  17:03:52 27-Aug-21
 STEP.S                   0.00: STEP TIME
 NULL.                 -999.25: NULL VALUE
 DFWT.                        :  DIST FWL TEXT
 DFST.                        :  DIST FSL TEXT
 DMF .             Drill Floor:  DRILL MEAS FROM
 STIM.      20.00.00 17-Aug-21:  START TIME
 DATE.      19.00.00 29-Aug-21:  END TIME
 SPUD.               15-Aug-21:  SPUD DATE
 NREF.                    Grid:  NORTH REFERENCE
 HPTY.       Minimum Curvature:  HOLE POS TYPE
 DMOD.             Drill Model:  DRILL MOD DESC
 SVYD.                  Survey:  SURVEY DESC
 ILTD.               Lithology:  INTERP LTH DESC
 FTOP.          Formation Tops:  FORM TOPS DESC
 RIG .              East Azeri:  RIG NAME
 PDAT.          Mean Sea Level:  PERMANENT DATUM
 FLD .                     ACG:  FIELD NAME
 SON .        AZ-XX-0907180857:  JOB NUMBER
 CTRY.              Azerbaijan:  COUNTRY NAME
 WELL.                    D23x:  WELL NAME
 SRVC.     Turan Drilling and Engineering:  CONTRACTOR
 COMP.     BP Exploration (Caspian Sea) Ltd.:  COMPANY
 UWI .            /AZE00000214:  UNIQUE WELL IDENTIFIER
 API .            /AZE00000214:  API NUMBER
 MDS .        Operator Entered:  MAG DATA SOURCE
 BASE.              Azerbaijan:  LOGGING EQUIPMENT BASE LOCATION
 REGN.                   EESSA:  REGION
 PROV.                    Baku:  PROVINCE
 STAT.                    Baku:  STATE NAME
 MWDS.                    Baku:  MWD SHOP
 DOE .                     N/A:  DOE NUMBER
 DCON.         Sperry Drilling:  DIRECTNL CONTR
 UNIT.                     N/A:  LOGGING EQUIPMENT ID
 WTYP.                Deviated:  WELL TYPE
 CNTY.                        :  COUNTY
 LOC .                        :  LOCATION
 LMF .             Drill Floor:  LOG MEASURED FROM
 TVDS.m                  43.60:  TVDSS CORRECTN
 LATI.deg                40.02:  LATITUDE
 LONG.deg                51.45:  LONGITUDE
 WHNS.m                  -7.04:  WELL HEAD N/S
 WHEW.m                  -0.67:  WELL HEAD E/W
 UTMX.m              538762.90:  UTM X
 UTMY.m             4431871.34:  UTM Y
 DFWL.m                   0.00:  DISTANCE FWL
 DFSL.m                   0.00:  DISTANCE FSL
 SDEP.m                4127.00:  START DEPTH
 TDD .m                5084.50:  TOTAL DEPTH (DRILLER)
 VSDR.deg               140.47:  VERT SEC DIRECT
 GVFD.g                   1.00:  GRAVITY FIELD
 MFLD.nT              50362.00:  MAGNETIC FIELD
 MDIP.deg                59.48:  MAGNETIC DIP
 MDEC.deg                 6.47:  MAGNETIC DECL
 GRDC.deg                 0.31:  GRID CORRECTION
 AZTC.deg                 6.16:  AZM TOTAL CORR
 EPD .m                   0.00:  ELEVATION
 EGL .m                   0.00:  GROUND ELEVATION
 WDMS.m                 151.80:  WD ELEV
 APD .m                  43.60:  DEPTH ABOVE PD
 DEP .m                4092.57:  DEPTH
 AGAP.m                  43.60:  AIR GAP
 VSEW.m                  -0.67:  VERT SEC E/W
 VSNS.m                  -7.04:  VERT SEC N/S
 EKB .m                  43.60:  KB ELEVATION
 EDF .m                  43.60:  DF ELEVATION
 TDL .m                 957.50:  TOTAL DEPTH (LOGGER)
 VSC .                       0:  VS TO CLOSURE
 MAGU.                 1851413:  MAGUTM CHECKSUM
~Parameter Information Block
#MNEM.UNIT       Value        Description
#---------     -----------    ---------------------------
 AV  .mps                 1.50:  Ann Velocity 
 AVMX.mps                 2.00:  Max Ann Veloc 
 AZIF.deg               184.66:  Azm, Final 
 BHAT.        Rotary Steerable:  BHA Type 
 BREV.rev               300.00:  Rev Bit Total 
 BROT.°/30m              -0.50:  Build Rotating 
 BS  .in                  8.50:  Bit Size 
 BSZ .in                  8.50:  Bit Size 
 BTPL.psig              370.00:  Bit Press Loss 
 CABU.                      No:  Customer Abuse 
 CGEO.      Behruz Shahbaliyev:  Customer Geo 
 COMM.                     T
k:  Run Comments 1 
 TCS .hr                140.08:  Time Ciculation Ended 
 CV  .mps                 3.00:  Crit Velocity 
 CVMX.mps                 3.20:  Max Crit Veloc 
 DD1 .            Musa Ahmadov:  Direct Drillr 1 
 DD2 .           Hamid Ahmadov:  Direct Drillr 2 
 DDSV.               Geo-Pilot:  DD Service 
 DEFF.%                  98.40:  % Det Eff 
 DLRX.°/30m               3.40:  Dogleg Rot Max 
 DLSO.°/30m               1.45:  Dogleg Oriented 
 DLSX.°/30m               3.40:  Dogleg Str Max 
 DRET.      18.40.00 29-Aug-21:  Drill End Time 
 DRST.      21.00.00 20-Aug-21:  Drill Start Tim 
 DTIM.hr                 69.47:  Time Drilling 
 EDEP.m                5084.50:  End Depth 
 ENG1.      Artemiy Matviyanov:  Engineer 1 
 ENG2.         Almaz Almadatov:  Engineer 2 
 ETIM.      18.40.00 29-Aug-21:  End Time 
 FLOI.gpm               500.00:  Flow In 
 FLON.gpm               400.00:  Flow In Min 
 FLOS.cptm                0.00:  Fluid Loss 
 FLOX.gpm               500.00:  Flow In Max 
 DFT .        Mineral Oil Base:  Mud Type 
 HFLO.                      No:  High Flow 
 HPRE.                      No:  High Pressure 
 HTEM.                      No:  High Temp 
 HYDO.m                   1.80:  Hydro Offset 
 IFIN.deg                25.62:  Inc, Final 
 IMAX.deg                48.69:  Inc Max 
 IMIN.deg                24.01:  Inc Min 
 IMND.m                4962.57:  Inc Min Depth 
 IMXD.m                4119.01:  Inc Max Depth 
 JARR.                      No:  Jarring 
 LETM.      18.40.00 29-Aug-21:  Log End Time 
 LOST.hr                     0:  Lost Rig Time 
 LSTM.      21.00.00 20-Aug-21:  Log Start Time 
 MDCL.ppm             41500.00:  Mud Chlorides 
 MDES.     Inversion Oil/Synthetic:  Mud Desc 
 DFD .sg                  1.56:  Mud Density 
 MDMN.sg                  1.56:  Dens Mud Min 
 MDMX.sg                  1.56:  Dens Mud Max 
 MOIL.                      70:  Run Mud Oil % 
 MOWR.                   70:30:  Run Mud OWR 
 MSND.                     0.2:  Run Mud Sand % 
 MSOL.                    23.3:  Run Mud Solids% 
 DFV .spqt               78.00:  Mud Viscosity 
 MWOD.in                  6.75:  MWD Tool OD 
 MWSI.                      No:  Serv Intrp, MWD 
 OTIM.hr                218.30:  Time Operating 
 PCON.           Look Like New:  Pad Condition 
 PMAX.psia            11015.30:  Press Op, Max 
 PV  .cP                 38.00:  Mud PV 
 RUN .                     300:  Run Number 
 ROPA.m/hr               15.00:  ROP Avg 
 ROPN.m/hr                9.00:  ROP Min 
 ROPX.m/hr               17.00:  ROP Max 
 RPMA.rpm               120.00:  RPM Surface Avg 
 RPMN.rpm                90.00:  RPM Surface Min 
 RPMX.rpm               140.00:  RPM Surface Max 
 RRUN.                     300:  Rig Run Number 
 RTIM.hr                 31.53:  Time Reaming 
 SAZI.deg               331.64:  Azm, Start 
 SDEP.m                4127.00:  Start Depth 
 SIDD.                      No:  Serv Intrp, DD 
 SINC.deg                48.43:  Inc, Start 
 SPPA.psig             5830.00:  SPP Avg 
 SPPN.psig             5600.00:  SPP Min 
 SPPX.psig             5900.00:  SPP Max 
 STIM.      21.00.00 20-Aug-21:  Start Time 
 SVCS.                 DD, MWD:  Services 
 SVER.                    9.20:  Sperry Version 
 TDAT.m                 957.50:  Tot Depth Attmp 
 TDDF.                      No:  Trip for DD 
 TDLG.m                 957.50:  Tot Depth Loggd 
 TFF .                      No:  Trip for Fail 
 TQAA.f-kp               15.00:  Torque Abs Avg 
 TQAN.f-kp               12.00:  Torque Abs Min 
 TQAX.f-kp               19.00:  Torque Abs Max 
 TRRT.°/30m              -3.40:  Turn Rotating 
 MRT .                  EWR-M5:  Maximum Recorded Temperature 
 TTMX.degC              100.00:  Max Tool Temp 
 VS01.                90639251:  Virtual Str1 SN 
 VS02.                90634715:  Virtual Str2 SN 
 VS03.                90652479:  Virtual Str3 SN 
 VS04.                90642262:  Virtual Str4 SN 
 WBMN.klb                 0.00:  WOB Min 
 WITN.           Murad Guliyev:  Customer Rep 
 WITN.          Yashar Gaziyev:  Customer Rep 2 
 WOBA.klb                 9.00:  WOB Avg 
 WOBX.klb                12.00:  WOB Max 
 YP  .lhf2               30.00:  Yield Point 
~Curve Information Block
#MNEM.UNIT                 API CODE     Curve Description
#---------               -----------    ---------------------------
 TIME.HHMMSS            00 000 000 000:  GT Time & Date
 GTDEPTH.m              00 000 000 000:  GT Depth
 GTPQH.psia             00 000 000 000:  GT HR Quartz Pressure
 GTTQ.degC              00 000 000 000:  GT Quartz Temperature
 GTTN.NONE              00 000 000 000:  GT Test Number
 GTET.sec               00 000 000 000:  GT Elapsed Test Time
 GTTVD.m                00 000 000 000:  GT True Vertical Depth
#Other Information
#
#WARRANTY: Halliburton will use its best efforts to furnish customers with 
#accurate information and interpretations that are part of, and incident to, the services 
#provided.  However, Halliburton cannot and does not warrant the accuracy 
#or correctness of such information and interpretations.  Under no circumstances should any 
#such information or interpretation be relied upon as the sole basis for any drilling, 
#completion, production, or financial decision or any procedure involving any risk to the 
#safety of any drilling venture, drilling rig or its crew or any other third party.  The 
#Customer has full responsibility for all drilling, completion and production operation.  
#Halliburton makes no representations or warranties, either expressed or 
#implied, including, but not limited to, the implied warranties of merchantability or fitness 
#for a particular purpose, with respect to the services rendered.  In no event will 
#Halliburton be liable for failure to obtain any particular results or for 
#any damages, including, but not limited to, indirect, special or consequential damages, 
#resulting from the use of any information or interpretation provided by Halliburton.
#
~A           TIME           GTDEPTH  GTPQH  GTTQ  GTTN   GTET   GTTVD  
# ...
   16:57:21.323.27-Aug-2021 4788.50 7564.10 83.19 18.00  45.15 3147.67
   16:57:21.523.27-Aug-2021 4788.50 7564.34 83.19 18.00  45.35 3147.67
   16:57:21.723.27-Aug-2021 4788.50 7565.82 83.19 18.00  45.55 3147.67
   16:57:21.923.27-Aug-2021 4788.50 7569.31 83.19 18.00  45.75 3147.67
   16:57:22.123.27-Aug-2021 4788.50 7566.99 83.19 18.00  45.95 3147.67
   16:57:22.322.27-Aug-2021 4788.50 7566.99 83.19 18.00  46.15 3147.67
   16:57:22.522.27-Aug-2021 4788.50 7568.06 83.19 18.00  46.35 3147.67
   16:57:22.722.27-Aug-2021 4788.50 7568.02 83.19 18.00  46.55 3147.67
   16:57:22.922.27-Aug-2021 4788.50 7569.94 83.19 18.00  46.75 3147.67
   16:57:23.122.27-Aug-2021 4788.50 7573.45 83.19 18.00  46.95 3147.67
   16:57:23.321.27-Aug-2021 4788.50 7573.45 83.19 18.00  47.15 3147.67
   16:57:23.521.27-Aug-2021 4788.50 7572.02 83.19 18.00  47.35 3147.67
   16:57:23.721.27-Aug-2021 4788.50 7572.26 83.19 18.00  47.55 3147.67
   16:57:23.921.27-Aug-2021 4788.50 7572.44 83.19 18.00  47.75 3147.67
   16:57:24.121.27-Aug-2021 4788.50 7576.06 83.19 18.00  47.95 3147.67
   16:57:24.320.27-Aug-2021 4788.50 7576.06 83.19 18.00  48.15 3147.67
   16:57:24.520.27-Aug-2021 4788.50 7575.06 83.19 18.00  48.35 3147.67
   16:57:24.720.27-Aug-2021 4788.50 7575.66 83.19 18.00  48.55 3147.67
   16:57:24.920.27-Aug-2021 4788.50 7575.44 83.19 18.00  48.75 3147.67
   16:57:25.120.27-Aug-2021 4788.50 7575.66 83.19 18.00  48.95 3147.67
   16:57:25.319.27-Aug-2021 4788.50 7575.66 83.19 18.00  49.15 3147.67
   16:57:25.519.27-Aug-2021 4788.50 7578.02 83.19 18.00  49.35 3147.67
   16:57:25.719.27-Aug-2021 4788.50 7578.63 83.19 18.00  49.55 3147.67
   16:57:25.919.27-Aug-2021 4788.50 7580.54 83.19 18.00  49.75 3147.67
   16:57:26.119.27-Aug-2021 4788.50 7584.21 83.19 18.00  49.95 3147.67
   16:57:26.318.27-Aug-2021 4788.50 7584.21 83.19 18.00  50.15 3147.67
   16:57:26.518.27-Aug-2021 4788.50 7582.20 83.19 18.00  50.35 3147.67
   16:57:26.718.27-Aug-2021 4788.50 7583.01 83.19 18.00  50.55 3147.67
   16:57:26.918.27-Aug-2021 4788.50 7583.48 83.19 18.00  50.75 3147.67
   16:57:27.118.27-Aug-2021 4788.50 7590.49 83.19 18.00  50.95 3147.67
   16:57:27.317.27-Aug-2021 4788.50 7590.49 83.19 18.00  51.15 3147.67
   16:57:27.517.27-Aug-2021 4788.50 7587.21 83.19 18.00  51.35 3147.67
   16:57:27.717.27-Aug-2021 4788.50 7587.94 83.19 18.00  51.55 3147.67
   16:57:27.917.27-Aug-2021 4788.50 7587.55 83.19 18.00  51.75 3147.67
   16:57:28.117.27-Aug-2021 4788.50 7588.34 83.19 18.00  51.95 3147.67
   16:57:28.316.27-Aug-2021 4788.50 7588.34 83.19 18.00  52.15 3147.67
   16:57:28.516.27-Aug-2021 4788.50 7588.61 83.19 18.00  52.35 3147.67
   16:57:28.716.27-Aug-2021 4788.50 7589.27 83.19 18.00  52.55 3147.67
   16:57:28.916.27-Aug-2021 4788.50 7589.48 83.19 18.00  52.75 3147.67
   16:57:29.116.27-Aug-2021 4788.50 7589.98 83.18 18.00  52.95 3147.67
   16:57:29.315.27-Aug-2021 4788.50 7589.98 83.18 18.00  53.15 3147.67
   16:57:29.515.27-Aug-2021 4788.50 7591.65 83.18 18.00  53.35 3147.67
   16:57:29.715.27-Aug-2021 4788.50 7593.71 83.18 18.00  53.55 3147.67
   16:57:29.915.27-Aug-2021 4788.50 7595.62 83.18 18.00  53.75 3147.67
   16:57:30.115.27-Aug-2021 4788.50 7597.76 83.18 18.00  53.95 3147.67
   16:57:30.314.27-Aug-2021 4788.50 7597.76 83.18 18.00  54.15 3147.67
   16:57:30.514.27-Aug-2021 4788.50 7604.13 83.18 18.00  54.35 3147.67
   16:57:30.714.27-Aug-2021 4788.50 7605.01 83.18 18.00  54.55 3147.67
   16:57:30.914.27-Aug-2021 4788.50 7606.74 83.18 18.00  54.75 3147.67
   16:57:31.114.27-Aug-2021 4788.50 7610.93 83.18 18.00  54.95 3147.67
   16:57:31.313.27-Aug-2021 4788.50 7610.93 83.18 18.00  55.14 3147.67
   16:57:31.513.27-Aug-2021 4788.50 7614.02 83.18 18.00  55.34 3147.67
   16:57:31.713.27-Aug-2021 4788.50 7614.59 83.18 18.00  55.54 3147.67
   16:57:31.913.27-Aug-2021 4788.50 7615.13 83.18 18.00  55.74 3147.67
   16:57:32.113.27-Aug-2021 4788.50 7615.31 83.18 18.00  55.94 3147.67
   16:57:32.312.27-Aug-2021 4788.50 7615.31 83.18 18.00  56.14 3147.67
   16:57:32.512.27-Aug-2021 4788.50 7615.74 83.18 18.00  56.34 3147.67
   16:57:32.712.27-Aug-2021 4788.50 7615.81 83.18 18.00  56.54 3147.67
   16:57:32.912.27-Aug-2021 4788.50 7615.97 83.18 18.00  56.74 3147.67
   16:57:33.112.27-Aug-2021 4788.50 7616.00 83.18 18.00  56.94 3147.67
   16:57:33.311.27-Aug-2021 4788.50 7616.00 83.18 18.00  57.14 3147.67
   16:57:33.511.27-Aug-2021 4788.50 7616.10 83.18 18.00  57.34 3147.67
   16:57:33.711.27-Aug-2021 4788.50 7618.00 83.18 18.00  57.54 3147.67
   16:57:33.911.27-Aug-2021 4788.50 7620.07 83.18 18.00  57.74 3147.67
   16:57:34.111.27-Aug-2021 4788.50 7620.28 83.18 18.00  57.94 3147.67
   16:57:34.310.27-Aug-2021 4788.50 7620.28 83.18 18.00  58.14 3147.67
   16:57:34.510.27-Aug-2021 4788.50 7620.16 83.18 18.00  58.34 3147.67
   16:57:34.710.27-Aug-2021 4788.50 7604.38 83.18 18.00  58.54 3147.67
   16:57:34.910.27-Aug-2021 4788.50 7284.40 83.18 18.00  58.74 3147.67
   16:57:35.110.27-Aug-2021 4788.50 6858.50 83.18 18.00  58.94 3147.67
   16:57:35.309.27-Aug-2021 4788.50 6858.50 83.18 18.00  59.14 3147.67
   16:57:35.509.27-Aug-2021 4788.50 6616.29 83.18 18.00  59.34 3147.67
   16:57:35.709.27-Aug-2021 4788.50 6258.13 83.18 18.00  59.54 3147.67
   16:57:35.909.27-Aug-2021 4788.50 5769.75 83.18 18.00  59.74 3147.67
   16:57:36.109.27-Aug-2021 4788.50 5526.01 83.18 18.00  59.94 3147.67
   16:57:36.309.27-Aug-2021 4788.50 5526.01 83.18 18.00  60.14 3147.67
   16:57:36.508.27-Aug-2021 4788.50 4588.25 83.18 18.00  60.34 3147.67
   16:57:36.708.27-Aug-2021 4788.50 4524.68 83.18 18.00  60.54 3147.67
   16:57:36.908.27-Aug-2021 4788.50 6900.54 83.18 18.00  60.74 3147.67
   16:57:37.108.27-Aug-2021 4788.50 7210.17 83.18 18.00  60.94 3147.67
   16:57:37.308.27-Aug-2021 4788.50 7210.17 83.18 18.00  61.14 3147.67
   16:57:37.507.27-Aug-2021 4788.50 7489.36 83.17 18.00  61.34 3147.67
   16:57:37.707.27-Aug-2021 4788.50 7518.15 83.17 18.00  61.54 3147.67
   16:57:37.907.27-Aug-2021 4788.50 7517.40 83.17 18.00  61.74 3147.67
   16:57:38.107.27-Aug-2021 4788.50 7516.01 83.17 18.00  61.94 3147.67
   16:57:38.307.27-Aug-2021 4788.50 7516.01 83.17 18.00  62.14 3147.67
   16:57:38.506.27-Aug-2021 4788.50 7505.89 83.17 18.00  62.34 3147.67
   16:57:38.706.27-Aug-2021 4788.50 7484.83 83.17 18.00  62.54 3147.67
   16:57:38.906.27-Aug-2021 4788.50 7479.67 83.17 18.00  62.74 3147.67
   16:57:39.106.27-Aug-2021 4788.50 7487.92 83.17 18.00  62.94 3147.67
   16:57:39.306.27-Aug-2021 4788.50 7487.92 83.17 18.00  63.14 3147.67
   16:57:39.505.27-Aug-2021 4788.50 7377.32 83.17 18.00  63.34 3147.67
   16:57:39.705.27-Aug-2021 4788.50 7373.49 83.17 18.00  63.54 3147.67
   16:57:39.905.27-Aug-2021 4788.50 7454.59 83.17 18.00  63.74 3147.67
   16:57:40.105.27-Aug-2021 4788.50 7523.78 83.17 18.00  63.94 3147.67
   16:57:40.305.27-Aug-2021 4788.50 7523.78 83.17 18.00  64.14 3147.67
   16:57:40.504.27-Aug-2021 4788.50 7504.05 83.17 18.00  64.34 3147.67
   16:57:40.704.27-Aug-2021 4788.50 7500.92 83.17 18.00  64.54 3147.67
   16:57:40.904.27-Aug-2021 4788.50 7496.48 83.17 18.00  64.74 3147.67
   16:57:41.104.27-Aug-2021 4788.50 7511.02 83.17 18.00  64.94 3147.67
   16:57:41.304.27-Aug-2021 4788.50 7511.02 83.17 18.00  65.13 3147.67
   16:57:41.503.27-Aug-2021 4788.50 7519.83 83.17 18.00  65.33 3147.67
   16:57:41.703.27-Aug-2021 4788.50 7520.96 83.17 18.00  65.53 3147.67
   16:57:41.903.27-Aug-2021 4788.50 7522.34 83.17 18.00  65.73 3147.67
   16:57:42.103.27-Aug-2021 4788.50 7523.35 83.17 18.00  65.93 3147.67
   16:57:42.303.27-Aug-2021 4788.50 7523.35 83.17 18.00  66.13 3147.67
   16:57:42.502.27-Aug-2021 4788.50 7523.54 83.17 18.00  66.33 3147.67
   16:57:42.702.27-Aug-2021 4788.50 7523.67 83.17 18.00  66.53 3147.67
   16:57:42.902.27-Aug-2021 4788.50 7523.37 83.17 18.00  66.73 3147.67
   16:57:43.102.27-Aug-2021 4788.50 7523.41 83.17 18.00  66.93 3147.67
   16:57:43.302.27-Aug-2021 4788.50 7523.41 83.17 18.00  67.13 3147.67
   16:57:43.501.27-Aug-2021 4788.50 7527.81 83.17 18.00  67.33 3147.67
   16:57:43.701.27-Aug-2021 4788.50 7522.59 83.17 18.00  67.53 3147.67
