~Version Information
 VERS.                  2.0:   CWLS log ASCII Standard -VERSION 2.0
 WRAP.                   NO:   One line per depth step
~Well Information Block
#MNEM.UNIT     VALUE/NAME     DESCRIPTION
#---------     -----------    ---------------------------
 STRT.S             06:14:43 27-Aug-21: START TIME 06:14:43 27-Aug-21
 STOP.S             06:21:54 27-Aug-21: STOP TIME  06:21:54 27-Aug-21
 STEP.S                   0.00: STEP TIME
 NULL.                 -999.25: NULL VALUE
 DFWT.                        :  DIST FWL TEXT
 DFST.                        :  DIST FSL TEXT
 DMF .             Drill Floor:  DRILL MEAS FROM
 STIM.      20.00.00 17-Aug-21:  START TIME
 DATE.      19.00.00 29-Aug-21:  END TIME
 SPUD.               15-Aug-21:  SPUD DATE
 NREF.                    Grid:  NORTH REFERENCE
 HPTY.       Minimum Curvature:  HOLE POS TYPE
 DMOD.             Drill Model:  DRILL MOD DESC
 SVYD.                  Survey:  SURVEY DESC
 ILTD.               Lithology:  INTERP LTH DESC
 FTOP.          Formation Tops:  FORM TOPS DESC
 RIG .              East Azeri:  RIG NAME
 PDAT.          Mean Sea Level:  PERMANENT DATUM
 FLD .                     ACG:  FIELD NAME
 SON .        AZ-XX-0907180857:  JOB NUMBER
 CTRY.              Azerbaijan:  COUNTRY NAME
 WELL.                    D23x:  WELL NAME
 SRVC.     Turan Drilling and Engineering:  CONTRACTOR
 COMP.     BP Exploration (Caspian Sea) Ltd.:  COMPANY
 UWI .            /AZE00000214:  UNIQUE WELL IDENTIFIER
 API .            /AZE00000214:  API NUMBER
 MDS .        Operator Entered:  MAG DATA SOURCE
 BASE.              Azerbaijan:  LOGGING EQUIPMENT BASE LOCATION
 REGN.                   EESSA:  REGION
 PROV.                    Baku:  PROVINCE
 STAT.                    Baku:  STATE NAME
 MWDS.                    Baku:  MWD SHOP
 DOE .                     N/A:  DOE NUMBER
 DCON.         Sperry Drilling:  DIRECTNL CONTR
 UNIT.                     N/A:  LOGGING EQUIPMENT ID
 WTYP.                Deviated:  WELL TYPE
 CNTY.                        :  COUNTY
 LOC .                        :  LOCATION
 LMF .             Drill Floor:  LOG MEASURED FROM
 TVDS.m                  43.60:  TVDSS CORRECTN
 LATI.deg                40.02:  LATITUDE
 LONG.deg                51.45:  LONGITUDE
 WHNS.m                  -7.04:  WELL HEAD N/S
 WHEW.m                  -0.67:  WELL HEAD E/W
 UTMX.m              538762.90:  UTM X
 UTMY.m             4431871.34:  UTM Y
 DFWL.m                   0.00:  DISTANCE FWL
 DFSL.m                   0.00:  DISTANCE FSL
 SDEP.m                4127.00:  START DEPTH
 TDD .m                5084.50:  TOTAL DEPTH (DRILLER)
 VSDR.deg               140.47:  VERT SEC DIRECT
 GVFD.g                   1.00:  GRAVITY FIELD
 MFLD.nT              50362.00:  MAGNETIC FIELD
 MDIP.deg                59.48:  MAGNETIC DIP
 MDEC.deg                 6.47:  MAGNETIC DECL
 GRDC.deg                 0.31:  GRID CORRECTION
 AZTC.deg                 6.16:  AZM TOTAL CORR
 EPD .m                   0.00:  ELEVATION
 EGL .m                   0.00:  GROUND ELEVATION
 WDMS.m                 151.80:  WD ELEV
 APD .m                  43.60:  DEPTH ABOVE PD
 DEP .m                4092.57:  DEPTH
 AGAP.m                  43.60:  AIR GAP
 VSEW.m                  -0.67:  VERT SEC E/W
 VSNS.m                  -7.04:  VERT SEC N/S
 EKB .m                  43.60:  KB ELEVATION
 EDF .m                  43.60:  DF ELEVATION
 TDL .m                 957.50:  TOTAL DEPTH (LOGGER)
 VSC .                       0:  VS TO CLOSURE
 MAGU.                 1851413:  MAGUTM CHECKSUM
~Parameter Information Block
#MNEM.UNIT       Value        Description
#---------     -----------    ---------------------------
 AV  .mps                 1.50:  Ann Velocity 
 AVMX.mps                 2.00:  Max Ann Veloc 
 AZIF.deg               184.66:  Azm, Final 
 BHAT.        Rotary Steerable:  BHA Type 
 BREV.rev               300.00:  Rev Bit Total 
 BROT.°/30m              -0.50:  Build Rotating 
 BS  .in                  8.50:  Bit Size 
 BSZ .in                  8.50:  Bit Size 
 BTPL.psig              370.00:  Bit Press Loss 
 CABU.                      No:  Customer Abuse 
 CGEO.      Behruz Shahbaliyev:  Customer Geo 
 COMM.                     4V:  Run Comments 1 
 TCS .hr                140.08:  Time Ciculation Ended 
 CV  .mps                 3.00:  Crit Velocity 
 CVMX.mps                 3.20:  Max Crit Veloc 
 DD1 .            Musa Ahmadov:  Direct Drillr 1 
 DD2 .           Hamid Ahmadov:  Direct Drillr 2 
 DDSV.               Geo-Pilot:  DD Service 
 DEFF.%                  98.40:  % Det Eff 
 DLRX.°/30m               3.40:  Dogleg Rot Max 
 DLSO.°/30m               1.45:  Dogleg Oriented 
 DLSX.°/30m               3.40:  Dogleg Str Max 
 DRET.      18.40.00 29-Aug-21:  Drill End Time 
 DRST.      21.00.00 20-Aug-21:  Drill Start Tim 
 DTIM.hr                 69.47:  Time Drilling 
 EDEP.m                5084.50:  End Depth 
 ENG1.      Artemiy Matviyanov:  Engineer 1 
 ENG2.         Almaz Almadatov:  Engineer 2 
 ETIM.      18.40.00 29-Aug-21:  End Time 
 FLOI.gpm               500.00:  Flow In 
 FLON.gpm               400.00:  Flow In Min 
 FLOS.cptm                0.00:  Fluid Loss 
 FLOX.gpm               500.00:  Flow In Max 
 DFT .        Mineral Oil Base:  Mud Type 
 HFLO.                      No:  High Flow 
 HPRE.                      No:  High Pressure 
 HTEM.                      No:  High Temp 
 HYDO.m                   1.80:  Hydro Offset 
 IFIN.deg                25.62:  Inc, Final 
 IMAX.deg                48.69:  Inc Max 
 IMIN.deg                24.01:  Inc Min 
 IMND.m                4962.57:  Inc Min Depth 
 IMXD.m                4119.01:  Inc Max Depth 
 JARR.                      No:  Jarring 
 LETM.      18.40.00 29-Aug-21:  Log End Time 
 LOST.hr                     0:  Lost Rig Time 
 LSTM.      21.00.00 20-Aug-21:  Log Start Time 
 MDCL.ppm             41500.00:  Mud Chlorides 
 MDES.     Inversion Oil/Synthetic:  Mud Desc 
 DFD .sg                  1.56:  Mud Density 
 MDMN.sg                  1.56:  Dens Mud Min 
 MDMX.sg                  1.56:  Dens Mud Max 
 MOIL.                      70:  Run Mud Oil % 
 MOWR.                   70:30:  Run Mud OWR 
 MSND.                     0.2:  Run Mud Sand % 
 MSOL.                    23.3:  Run Mud Solids% 
 DFV .spqt               78.00:  Mud Viscosity 
 MWOD.in                  6.75:  MWD Tool OD 
 MWSI.                      No:  Serv Intrp, MWD 
 OTIM.hr                218.30:  Time Operating 
 PCON.           Look Like New:  Pad Condition 
 PMAX.psia            11015.30:  Press Op, Max 
 PV  .cP                 38.00:  Mud PV 
 RUN .                     300:  Run Number 
 ROPA.m/hr               15.00:  ROP Avg 
 ROPN.m/hr                9.00:  ROP Min 
 ROPX.m/hr               17.00:  ROP Max 
 RPMA.rpm               120.00:  RPM Surface Avg 
 RPMN.rpm                90.00:  RPM Surface Min 
 RPMX.rpm               140.00:  RPM Surface Max 
 RRUN.                     300:  Rig Run Number 
 RTIM.hr                 31.53:  Time Reaming 
 SAZI.deg               331.64:  Azm, Start 
 SDEP.m                4127.00:  Start Depth 
 SIDD.                      No:  Serv Intrp, DD 
 SINC.deg                48.43:  Inc, Start 
 SPPA.psig             5830.00:  SPP Avg 
 SPPN.psig             5600.00:  SPP Min 
 SPPX.psig             5900.00:  SPP Max 
 STIM.      21.00.00 20-Aug-21:  Start Time 
 SVCS.                 DD, MWD:  Services 
 SVER.                    9.20:  Sperry Version 
 TDAT.m                 957.50:  Tot Depth Attmp 
 TDDF.                      No:  Trip for DD 
 TDLG.m                 957.50:  Tot Depth Loggd 
 TFF .                      No:  Trip for Fail 
 TQAA.f-kp               15.00:  Torque Abs Avg 
 TQAN.f-kp               12.00:  Torque Abs Min 
 TQAX.f-kp               19.00:  Torque Abs Max 
 TRRT.°/30m              -3.40:  Turn Rotating 
 MRT .                  EWR-M5:  Maximum Recorded Temperature 
 TTMX.degC              100.00:  Max Tool Temp 
 VS01.                90639251:  Virtual Str1 SN 
 VS02.                90634715:  Virtual Str2 SN 
 VS03.                90652479:  Virtual Str3 SN 
 VS04.                90642262:  Virtual Str4 SN 
 WBMN.klb                 0.00:  WOB Min 
 WITN.           Murad Guliyev:  Customer Rep 
 WITN.          Yashar Gaziyev:  Customer Rep 2 
 WOBA.klb                 9.00:  WOB Avg 
 WOBX.klb                12.00:  WOB Max 
 YP  .lhf2               30.00:  Yield Point 
~Curve Information Block
#MNEM.UNIT                 API CODE     Curve Description
#---------               -----------    ---------------------------
 TIME.HHMMSS            00 000 000 000:  GT Time & Date
 GTDEPTH.m              00 000 000 000:  GT Depth
 GTPQH.psia             00 000 000 000:  GT HR Quartz Pressure
 GTTQ.degC              00 000 000 000:  GT Quartz Temperature
 GTTN.NONE              00 000 000 000:  GT Test Number
 GTET.sec               00 000 000 000:  GT Elapsed Test Time
 GTTVD.m                00 000 000 000:  GT True Vertical Depth
#Other Information
#
#WARRANTY: Halliburton will use its best efforts to furnish customers with 
#accurate information and interpretations that are part of, and incident to, the services 
#provided.  However, Halliburton cannot and does not warrant the accuracy 
#or correctness of such information and interpretations.  Under no circumstances should any 
#such information or interpretation be relied upon as the sole basis for any drilling, 
#completion, production, or financial decision or any procedure involving any risk to the 
#safety of any drilling venture, drilling rig or its crew or any other third party.  The 
#Customer has full responsibility for all drilling, completion and production operation.  
#Halliburton makes no representations or warranties, either expressed or 
#implied, including, but not limited to, the implied warranties of merchantability or fitness 
#for a particular purpose, with respect to the services rendered.  In no event will 
#Halliburton be liable for failure to obtain any particular results or for 
#any damages, including, but not limited to, indirect, special or consequential damages, 
#resulting from the use of any information or interpretation provided by Halliburton.
#
~A           TIME           GTDEPTH  GTPQH  GTTQ  GTTN  GTET   GTTVD  
# ...
   06:17:24.649.27-Aug-2021 5020.50 7998.53 88.17 2.00 161.03 3358.11
   06:17:24.849.27-Aug-2021 5020.50 7998.53 88.17 2.00 161.23 3358.11
   06:17:25.049.27-Aug-2021 5020.50 7998.79 88.17 2.00 161.43 3358.11
   06:17:25.249.27-Aug-2021 5020.50 7999.60 88.17 2.00 161.63 3358.11
   06:17:25.449.27-Aug-2021 5020.50 8000.36 88.17 2.00 161.83 3358.11
   06:17:25.649.27-Aug-2021 5020.50 8000.01 88.17 2.00 162.03 3358.11
   06:17:25.849.27-Aug-2021 5020.50 8000.01 88.17 2.00 162.23 3358.11
   06:17:26.049.27-Aug-2021 5020.50 7999.61 88.17 2.00 162.43 3358.11
   06:17:26.249.27-Aug-2021 5020.50 7998.96 88.17 2.00 162.63 3358.11
   06:17:26.449.27-Aug-2021 5020.50 7999.46 88.17 2.00 162.83 3358.11
   06:17:26.649.27-Aug-2021 5020.50 8004.25 88.17 2.00 163.03 3358.11
   06:17:26.849.27-Aug-2021 5020.50 8004.25 88.17 2.00 163.23 3358.11
   06:17:27.049.27-Aug-2021 5020.50 7998.48 88.17 2.00 163.43 3358.11
   06:17:27.249.27-Aug-2021 5020.50 8003.85 88.17 2.00 163.63 3358.11
   06:17:27.449.27-Aug-2021 5020.50 7998.68 88.17 2.00 163.83 3358.11
   06:17:27.649.27-Aug-2021 5020.50 7999.22 88.17 2.00 164.03 3358.11
   06:17:27.849.27-Aug-2021 5020.50 7999.22 88.17 2.00 164.23 3358.11
   06:17:28.049.27-Aug-2021 5020.50 7998.44 88.17 2.00 164.43 3358.11
   06:17:28.249.27-Aug-2021 5020.50 7997.83 88.17 2.00 164.63 3358.11
   06:17:28.449.27-Aug-2021 5020.50 8006.46 88.16 2.00 164.83 3358.11
   06:17:28.649.27-Aug-2021 5020.50 7996.37 88.16 2.00 165.03 3358.11
   06:17:28.850.27-Aug-2021 5020.50 7996.37 88.16 2.00 165.23 3358.11
   06:17:29.050.27-Aug-2021 5020.50 7998.76 88.16 2.00 165.43 3358.11
   06:17:29.250.27-Aug-2021 5020.50 8007.23 88.16 2.00 165.63 3358.11
   06:17:29.450.27-Aug-2021 5020.50 7997.45 88.16 2.00 165.83 3358.11
   06:17:29.650.27-Aug-2021 5020.50 7999.59 88.16 2.00 166.03 3358.11
   06:17:29.850.27-Aug-2021 5020.50 7999.59 88.16 2.00 166.23 3358.11
   06:17:30.050.27-Aug-2021 5020.50 7998.72 88.16 2.00 166.43 3358.11
   06:17:30.250.27-Aug-2021 5020.50 7998.30 88.16 2.00 166.63 3358.11
   06:17:30.450.27-Aug-2021 5020.50 7998.94 88.16 2.00 166.83 3358.11
   06:17:30.650.27-Aug-2021 5020.50 7999.05 88.16 2.00 167.03 3358.11
   06:17:30.850.27-Aug-2021 5020.50 7999.05 88.16 2.00 167.23 3358.11
   06:17:31.050.27-Aug-2021 5020.50 7999.22 88.16 2.00 167.43 3358.11
   06:17:31.250.27-Aug-2021 5020.50 7999.44 88.16 2.00 167.63 3358.11
   06:17:31.450.27-Aug-2021 5020.50 8000.71 88.16 2.00 167.83 3358.11
   06:17:31.650.27-Aug-2021 5020.50 8000.34 88.16 2.00 168.03 3358.11
   06:17:31.850.27-Aug-2021 5020.50 8000.34 88.16 2.00 168.23 3358.11
   06:17:32.050.27-Aug-2021 5020.50 8000.09 88.16 2.00 168.43 3358.11
   06:17:32.250.27-Aug-2021 5020.50 7999.74 88.16 2.00 168.63 3358.11
   06:17:32.450.27-Aug-2021 5020.50 8004.77 88.16 2.00 168.83 3358.11
   06:17:32.650.27-Aug-2021 5020.50 8000.32 88.16 2.00 169.03 3358.11
   06:17:32.850.27-Aug-2021 5020.50 8000.32 88.16 2.00 169.23 3358.11
   06:17:33.050.27-Aug-2021 5020.50 8000.50 88.16 2.00 169.43 3358.11
   06:17:33.250.27-Aug-2021 5020.50 8001.03 88.16 2.00 169.63 3358.11
   06:17:33.450.27-Aug-2021 5020.50 8000.36 88.16 2.00 169.83 3358.11
   06:17:33.650.27-Aug-2021 5020.50 8001.22 88.16 2.00 170.03 3358.11
   06:17:33.850.27-Aug-2021 5020.50 8001.22 88.16 2.00 170.23 3358.11
   06:17:34.050.27-Aug-2021 5020.50 8000.33 88.16 2.00 170.43 3358.11
   06:17:34.250.27-Aug-2021 5020.50 8000.58 88.16 2.00 170.63 3358.11
   06:17:34.450.27-Aug-2021 5020.50 8000.82 88.16 2.00 170.83 3358.11
   06:17:34.650.27-Aug-2021 5020.50 8002.16 88.16 2.00 171.03 3358.11
   06:17:34.850.27-Aug-2021 5020.50 8002.16 88.16 2.00 171.23 3358.11
   06:17:35.051.27-Aug-2021 5020.50 8002.30 88.16 2.00 171.43 3358.11
   06:17:35.251.27-Aug-2021 5020.50 8001.82 88.16 2.00 171.63 3358.11
   06:17:35.451.27-Aug-2021 5020.50 8001.74 88.16 2.00 171.83 3358.11
   06:17:35.651.27-Aug-2021 5020.50 8001.62 88.16 2.00 172.03 3358.11
   06:17:35.851.27-Aug-2021 5020.50 8001.62 88.16 2.00 172.23 3358.11
   06:17:36.051.27-Aug-2021 5020.50 8005.05 88.16 2.00 172.43 3358.11
   06:17:36.251.27-Aug-2021 5020.50 8002.79 88.16 2.00 172.63 3358.11
   06:17:36.451.27-Aug-2021 5020.50 8001.10 88.16 2.00 172.83 3358.11
   06:17:36.651.27-Aug-2021 5020.50 8008.91 88.16 2.00 173.03 3358.11
   06:17:36.851.27-Aug-2021 5020.50 8008.91 88.16 2.00 173.23 3358.11
   06:17:37.051.27-Aug-2021 5020.50 8001.12 88.16 2.00 173.43 3358.11
   06:17:37.251.27-Aug-2021 5020.50 8000.44 88.16 2.00 173.63 3358.11
   06:17:37.451.27-Aug-2021 5020.50 8000.70 88.16 2.00 173.83 3358.11
   06:17:37.651.27-Aug-2021 5020.50 8000.51 88.16 2.00 174.03 3358.11
   06:17:37.851.27-Aug-2021 5020.50 8000.51 88.16 2.00 174.23 3358.11
   06:17:38.051.27-Aug-2021 5020.50 8002.46 88.16 2.00 174.43 3358.11
   06:17:38.251.27-Aug-2021 5020.50 8001.36 88.16 2.00 174.63 3358.11
   06:17:38.451.27-Aug-2021 5020.50 8009.04 88.16 2.00 174.83 3358.11
   06:17:38.651.27-Aug-2021 5020.50 7999.20 88.16 2.00 175.03 3358.11
   06:17:38.851.27-Aug-2021 5020.50 7999.20 88.16 2.00 175.23 3358.11
   06:17:39.051.27-Aug-2021 5020.50 8000.90 88.16 2.00 175.43 3358.11
   06:17:39.251.27-Aug-2021 5020.50 8001.02 88.16 2.00 175.63 3358.11
   06:17:39.451.27-Aug-2021 5020.50 7999.98 88.16 2.00 175.83 3358.11
   06:17:39.651.27-Aug-2021 5020.50 8000.65 88.16 2.00 176.03 3358.11
   06:17:39.851.27-Aug-2021 5020.50 8000.65 88.16 2.00 176.23 3358.11
   06:17:40.051.27-Aug-2021 5020.50 8001.15 88.16 2.00 176.43 3358.11
   06:17:40.251.27-Aug-2021 5020.50 8000.63 88.16 2.00 176.63 3358.11
   06:17:40.451.27-Aug-2021 5020.50 8001.17 88.16 2.00 176.83 3358.11
   06:17:40.651.27-Aug-2021 5020.50 8002.04 88.16 2.00 177.03 3358.11
   06:17:40.851.27-Aug-2021 5020.50 8002.04 88.16 2.00 177.23 3358.11
   06:17:41.052.27-Aug-2021 5020.50 8001.92 88.16 2.00 177.43 3358.11
   06:17:41.252.27-Aug-2021 5020.50 8001.61 88.16 2.00 177.63 3358.11
   06:17:41.452.27-Aug-2021 5020.50 8001.74 88.16 2.00 177.83 3358.11
   06:17:41.652.27-Aug-2021 5020.50 8006.16 88.16 2.00 178.03 3358.11
   06:17:41.852.27-Aug-2021 5020.50 8006.16 88.16 2.00 178.23 3358.11
   06:17:42.052.27-Aug-2021 5020.50 8001.67 88.16 2.00 178.43 3358.11
   06:17:42.252.27-Aug-2021 5020.50 8000.86 88.16 2.00 178.63 3358.11
   06:17:42.452.27-Aug-2021 5020.50 8001.24 88.16 2.00 178.83 3358.11
   06:17:42.652.27-Aug-2021 5020.50 8000.57 88.16 2.00 179.03 3358.11
   06:17:42.852.27-Aug-2021 5020.50 8000.57 88.16 2.00 179.23 3358.11
   06:17:43.052.27-Aug-2021 5020.50 8000.22 88.16 2.00 179.43 3358.11
   06:17:43.252.27-Aug-2021 5020.50 8000.90 88.16 2.00 179.63 3358.11
   06:17:43.452.27-Aug-2021 5020.50 8000.46 88.16 2.00 179.83 3358.11
   06:17:43.652.27-Aug-2021 5020.50 8001.19 88.16 2.00 180.03 3358.11
   06:17:43.852.27-Aug-2021 5020.50 8001.19 88.16 2.00 180.23 3358.11
   06:17:44.052.27-Aug-2021 5020.50 8002.52 88.16 2.00 180.43 3358.11
   06:17:44.252.27-Aug-2021 5020.50 8002.25 88.16 2.00 180.63 3358.11
   06:17:44.452.27-Aug-2021 5020.50 8001.75 88.16 2.00 180.83 3358.11
   06:17:44.652.27-Aug-2021 5020.50 8001.98 88.16 2.00 181.03 3358.11
   06:17:44.852.27-Aug-2021 5020.50 8001.98 88.16 2.00 181.23 3358.11
   06:17:45.052.27-Aug-2021 5020.50 8002.28 88.16 2.00 181.43 3358.11
   06:17:45.252.27-Aug-2021 5020.50 8004.86 88.16 2.00 181.63 3358.11
   06:17:45.452.27-Aug-2021 5020.50 8003.14 88.16 2.00 181.83 3358.11
   06:17:45.652.27-Aug-2021 5020.50 8000.91 88.16 2.00 182.03 3358.11
   06:17:45.852.27-Aug-2021 5020.50 8000.91 88.16 2.00 182.23 3358.11
   06:17:46.052.27-Aug-2021 5020.50 8005.73 88.16 2.00 182.43 3358.11
   06:17:46.252.27-Aug-2021 5020.50 8001.52 88.16 2.00 182.63 3358.11
   06:17:46.452.27-Aug-2021 5020.50 8000.34 88.16 2.00 182.83 3358.11
   06:17:46.652.27-Aug-2021 5020.50 8000.28 88.16 2.00 183.03 3358.11
   06:17:46.852.27-Aug-2021 5020.50 8000.28 88.16 2.00 183.23 3358.11
   06:17:47.052.27-Aug-2021 5020.50 8005.68 88.16 2.00 183.43 3358.11
   06:17:47.253.27-Aug-2021 5020.50 8001.07 88.16 2.00 183.63 3358.11
   06:17:47.453.27-Aug-2021 5020.50 8000.86 88.16 2.00 183.83 3358.11
