~Version Information
 VERS.                  2.0:   CWLS log ASCII Standard -VERSION 2.0
 WRAP.                   NO:   One line per depth step
~Well Information Block
#MNEM.UNIT     VALUE/NAME     DESCRIPTION
#---------     -----------    ---------------------------
 STRT.S             06:14:43 27-Aug-21: START TIME 06:14:43 27-Aug-21
 STOP.S             06:21:54 27-Aug-21: STOP TIME  06:21:54 27-Aug-21
 STEP.S                   0.00: STEP TIME
 NULL.                 -999.25: NULL VALUE
 DFWT.                        :  DIST FWL TEXT
 DFST.                        :  DIST FSL TEXT
 DMF .             Drill Floor:  DRILL MEAS FROM
 STIM.      20.00.00 17-Aug-21:  START TIME
 DATE.      19.00.00 29-Aug-21:  END TIME
 SPUD.               15-Aug-21:  SPUD DATE
 NREF.                    Grid:  NORTH REFERENCE
 HPTY.       Minimum Curvature:  HOLE POS TYPE
 DMOD.             Drill Model:  DRILL MOD DESC
 SVYD.                  Survey:  SURVEY DESC
 ILTD.               Lithology:  INTERP LTH DESC
 FTOP.          Formation Tops:  FORM TOPS DESC
 RIG .              East Azeri:  RIG NAME
 PDAT.          Mean Sea Level:  PERMANENT DATUM
 FLD .                     ACG:  FIELD NAME
 SON .        AZ-XX-0907180857:  JOB NUMBER
 CTRY.              Azerbaijan:  COUNTRY NAME
 WELL.                    D23x:  WELL NAME
 SRVC.     Turan Drilling and Engineering:  CONTRACTOR
 COMP.     BP Exploration (Caspian Sea) Ltd.:  COMPANY
 UWI .            /AZE00000214:  UNIQUE WELL IDENTIFIER
 API .            /AZE00000214:  API NUMBER
 MDS .        Operator Entered:  MAG DATA SOURCE
 BASE.              Azerbaijan:  LOGGING EQUIPMENT BASE LOCATION
 REGN.                   EESSA:  REGION
 PROV.                    Baku:  PROVINCE
 STAT.                    Baku:  STATE NAME
 MWDS.                    Baku:  MWD SHOP
 DOE .                     N/A:  DOE NUMBER
 DCON.         Sperry Drilling:  DIRECTNL CONTR
 UNIT.                     N/A:  LOGGING EQUIPMENT ID
 WTYP.                Deviated:  WELL TYPE
 CNTY.                        :  COUNTY
 LOC .                        :  LOCATION
 LMF .             Drill Floor:  LOG MEASURED FROM
 TVDS.m                  43.60:  TVDSS CORRECTN
 LATI.deg                40.02:  LATITUDE
 LONG.deg                51.45:  LONGITUDE
 WHNS.m                  -7.04:  WELL HEAD N/S
 WHEW.m                  -0.67:  WELL HEAD E/W
 UTMX.m              538762.90:  UTM X
 UTMY.m             4431871.34:  UTM Y
 DFWL.m                   0.00:  DISTANCE FWL
 DFSL.m                   0.00:  DISTANCE FSL
 SDEP.m                4127.00:  START DEPTH
 TDD .m                5084.50:  TOTAL DEPTH (DRILLER)
 VSDR.deg               140.47:  VERT SEC DIRECT
 GVFD.g                   1.00:  GRAVITY FIELD
 MFLD.nT              50362.00:  MAGNETIC FIELD
 MDIP.deg                59.48:  MAGNETIC DIP
 MDEC.deg                 6.47:  MAGNETIC DECL
 GRDC.deg                 0.31:  GRID CORRECTION
 AZTC.deg                 6.16:  AZM TOTAL CORR
 EPD .m                   0.00:  ELEVATION
 EGL .m                   0.00:  GROUND ELEVATION
 WDMS.m                 151.80:  WD ELEV
 APD .m                  43.60:  DEPTH ABOVE PD
 DEP .m                4092.57:  DEPTH
 AGAP.m                  43.60:  AIR GAP
 VSEW.m                  -0.67:  VERT SEC E/W
 VSNS.m                  -7.04:  VERT SEC N/S
 EKB .m                  43.60:  KB ELEVATION
 EDF .m                  43.60:  DF ELEVATION
 TDL .m                 957.50:  TOTAL DEPTH (LOGGER)
 VSC .                       0:  VS TO CLOSURE
 MAGU.                 1851413:  MAGUTM CHECKSUM
~Parameter Information Block
#MNEM.UNIT       Value        Description
#---------     -----------    ---------------------------
 AV  .mps                 1.50:  Ann Velocity 
 AVMX.mps                 2.00:  Max Ann Veloc 
 AZIF.deg               184.66:  Azm, Final 
 BHAT.        Rotary Steerable:  BHA Type 
 BREV.rev               300.00:  Rev Bit Total 
 BROT.°/30m              -0.50:  Build Rotating 
 BS  .in                  8.50:  Bit Size 
 BSZ .in                  8.50:  Bit Size 
 BTPL.psig              370.00:  Bit Press Loss 
 CABU.                      No:  Customer Abuse 
 CGEO.      Behruz Shahbaliyev:  Customer Geo 
 COMM.                     4V:  Run Comments 1 
 TCS .hr                140.08:  Time Ciculation Ended 
 CV  .mps                 3.00:  Crit Velocity 
 CVMX.mps                 3.20:  Max Crit Veloc 
 DD1 .            Musa Ahmadov:  Direct Drillr 1 
 DD2 .           Hamid Ahmadov:  Direct Drillr 2 
 DDSV.               Geo-Pilot:  DD Service 
 DEFF.%                  98.40:  % Det Eff 
 DLRX.°/30m               3.40:  Dogleg Rot Max 
 DLSO.°/30m               1.45:  Dogleg Oriented 
 DLSX.°/30m               3.40:  Dogleg Str Max 
 DRET.      18.40.00 29-Aug-21:  Drill End Time 
 DRST.      21.00.00 20-Aug-21:  Drill Start Tim 
 DTIM.hr                 69.47:  Time Drilling 
 EDEP.m                5084.50:  End Depth 
 ENG1.      Artemiy Matviyanov:  Engineer 1 
 ENG2.         Almaz Almadatov:  Engineer 2 
 ETIM.      18.40.00 29-Aug-21:  End Time 
 FLOI.gpm               500.00:  Flow In 
 FLON.gpm               400.00:  Flow In Min 
 FLOS.cptm                0.00:  Fluid Loss 
 FLOX.gpm               500.00:  Flow In Max 
 DFT .        Mineral Oil Base:  Mud Type 
 HFLO.                      No:  High Flow 
 HPRE.                      No:  High Pressure 
 HTEM.                      No:  High Temp 
 HYDO.m                   1.80:  Hydro Offset 
 IFIN.deg                25.62:  Inc, Final 
 IMAX.deg                48.69:  Inc Max 
 IMIN.deg                24.01:  Inc Min 
 IMND.m                4962.57:  Inc Min Depth 
 IMXD.m                4119.01:  Inc Max Depth 
 JARR.                      No:  Jarring 
 LETM.      18.40.00 29-Aug-21:  Log End Time 
 LOST.hr                     0:  Lost Rig Time 
 LSTM.      21.00.00 20-Aug-21:  Log Start Time 
 MDCL.ppm             41500.00:  Mud Chlorides 
 MDES.     Inversion Oil/Synthetic:  Mud Desc 
 DFD .sg                  1.56:  Mud Density 
 MDMN.sg                  1.56:  Dens Mud Min 
 MDMX.sg                  1.56:  Dens Mud Max 
 MOIL.                      70:  Run Mud Oil % 
 MOWR.                   70:30:  Run Mud OWR 
 MSND.                     0.2:  Run Mud Sand % 
 MSOL.                    23.3:  Run Mud Solids% 
 DFV .spqt               78.00:  Mud Viscosity 
 MWOD.in                  6.75:  MWD Tool OD 
 MWSI.                      No:  Serv Intrp, MWD 
 OTIM.hr                218.30:  Time Operating 
 PCON.           Look Like New:  Pad Condition 
 PMAX.psia            11015.30:  Press Op, Max 
 PV  .cP                 38.00:  Mud PV 
 RUN .                     300:  Run Number 
 ROPA.m/hr               15.00:  ROP Avg 
 ROPN.m/hr                9.00:  ROP Min 
 ROPX.m/hr               17.00:  ROP Max 
 RPMA.rpm               120.00:  RPM Surface Avg 
 RPMN.rpm                90.00:  RPM Surface Min 
 RPMX.rpm               140.00:  RPM Surface Max 
 RRUN.                     300:  Rig Run Number 
 RTIM.hr                 31.53:  Time Reaming 
 SAZI.deg               331.64:  Azm, Start 
 SDEP.m                4127.00:  Start Depth 
 SIDD.                      No:  Serv Intrp, DD 
 SINC.deg                48.43:  Inc, Start 
 SPPA.psig             5830.00:  SPP Avg 
 SPPN.psig             5600.00:  SPP Min 
 SPPX.psig             5900.00:  SPP Max 
 STIM.      21.00.00 20-Aug-21:  Start Time 
 SVCS.                 DD, MWD:  Services 
 SVER.                    9.20:  Sperry Version 
 TDAT.m                 957.50:  Tot Depth Attmp 
 TDDF.                      No:  Trip for DD 
 TDLG.m                 957.50:  Tot Depth Loggd 
 TFF .                      No:  Trip for Fail 
 TQAA.f-kp               15.00:  Torque Abs Avg 
 TQAN.f-kp               12.00:  Torque Abs Min 
 TQAX.f-kp               19.00:  Torque Abs Max 
 TRRT.°/30m              -3.40:  Turn Rotating 
 MRT .                  EWR-M5:  Maximum Recorded Temperature 
 TTMX.degC              100.00:  Max Tool Temp 
 VS01.                90639251:  Virtual Str1 SN 
 VS02.                90634715:  Virtual Str2 SN 
 VS03.                90652479:  Virtual Str3 SN 
 VS04.                90642262:  Virtual Str4 SN 
 WBMN.klb                 0.00:  WOB Min 
 WITN.           Murad Guliyev:  Customer Rep 
 WITN.          Yashar Gaziyev:  Customer Rep 2 
 WOBA.klb                 9.00:  WOB Avg 
 WOBX.klb                12.00:  WOB Max 
 YP  .lhf2               30.00:  Yield Point 
~Curve Information Block
#MNEM.UNIT                 API CODE     Curve Description
#---------               -----------    ---------------------------
 TIME.HHMMSS            00 000 000 000:  GT Time & Date
 GTDEPTH.m              00 000 000 000:  GT Depth
 GTPQH.psia             00 000 000 000:  GT HR Quartz Pressure
 GTTQ.degC              00 000 000 000:  GT Quartz Temperature
 GTTN.NONE              00 000 000 000:  GT Test Number
 GTET.sec               00 000 000 000:  GT Elapsed Test Time
 GTTVD.m                00 000 000 000:  GT True Vertical Depth
#Other Information
#
#WARRANTY: Halliburton will use its best efforts to furnish customers with 
#accurate information and interpretations that are part of, and incident to, the services 
#provided.  However, Halliburton cannot and does not warrant the accuracy 
#or correctness of such information and interpretations.  Under no circumstances should any 
#such information or interpretation be relied upon as the sole basis for any drilling, 
#completion, production, or financial decision or any procedure involving any risk to the 
#safety of any drilling venture, drilling rig or its crew or any other third party.  The 
#Customer has full responsibility for all drilling, completion and production operation.  
#Halliburton makes no representations or warranties, either expressed or 
#implied, including, but not limited to, the implied warranties of merchantability or fitness 
#for a particular purpose, with respect to the services rendered.  In no event will 
#Halliburton be liable for failure to obtain any particular results or for 
#any damages, including, but not limited to, indirect, special or consequential damages, 
#resulting from the use of any information or interpretation provided by Halliburton.
#
~A           TIME           GTDEPTH  GTPQH  GTTQ  GTTN  GTET   GTTVD  
# ...
   06:15:29.630.27-Aug-2021 5020.50 7986.56 88.21 2.00  46.01 3358.11
   06:15:29.830.27-Aug-2021 5020.50 7986.56 88.21 2.00  46.21 3358.11
   06:15:30.030.27-Aug-2021 5020.50 7983.66 88.21 2.00  46.41 3358.11
   06:15:30.230.27-Aug-2021 5020.50 7983.09 88.21 2.00  46.61 3358.11
   06:15:30.430.27-Aug-2021 5020.50 7983.42 88.21 2.00  46.81 3358.11
   06:15:30.630.27-Aug-2021 5020.50 7985.77 88.21 2.00  47.01 3358.11
   06:15:30.830.27-Aug-2021 5020.50 7985.77 88.21 2.00  47.21 3358.11
   06:15:31.030.27-Aug-2021 5020.50 7985.21 88.21 2.00  47.41 3358.11
   06:15:31.230.27-Aug-2021 5020.50 7983.23 88.21 2.00  47.61 3358.11
   06:15:31.430.27-Aug-2021 5020.50 7984.39 88.21 2.00  47.81 3358.11
   06:15:31.630.27-Aug-2021 5020.50 7984.70 88.21 2.00  48.01 3358.11
   06:15:31.830.27-Aug-2021 5020.50 7984.70 88.21 2.00  48.21 3358.11
   06:15:32.030.27-Aug-2021 5020.50 7983.17 88.21 2.00  48.41 3358.11
   06:15:32.230.27-Aug-2021 5020.50 7984.65 88.21 2.00  48.61 3358.11
   06:15:32.430.27-Aug-2021 5020.50 7984.11 88.21 2.00  48.81 3358.11
   06:15:32.630.27-Aug-2021 5020.50 7984.42 88.21 2.00  49.01 3358.11
   06:15:32.830.27-Aug-2021 5020.50 7984.42 88.21 2.00  49.21 3358.11
   06:15:33.030.27-Aug-2021 5020.50 7989.63 88.21 2.00  49.41 3358.11
   06:15:33.231.27-Aug-2021 5020.50 7986.71 88.21 2.00  49.61 3358.11
   06:15:33.431.27-Aug-2021 5020.50 7984.55 88.21 2.00  49.81 3358.11
   06:15:33.631.27-Aug-2021 5020.50 7986.80 88.21 2.00  50.01 3358.11
   06:15:33.831.27-Aug-2021 5020.50 7986.80 88.21 2.00  50.21 3358.11
   06:15:34.031.27-Aug-2021 5020.50 7987.99 88.21 2.00  50.41 3358.11
   06:15:34.231.27-Aug-2021 5020.50 7985.98 88.21 2.00  50.61 3358.11
   06:15:34.431.27-Aug-2021 5020.50 7985.91 88.21 2.00  50.81 3358.11
   06:15:34.631.27-Aug-2021 5020.50 7985.58 88.21 2.00  51.01 3358.11
   06:15:34.831.27-Aug-2021 5020.50 7985.58 88.21 2.00  51.21 3358.11
   06:15:35.031.27-Aug-2021 5020.50 7987.91 88.21 2.00  51.41 3358.11
   06:15:35.231.27-Aug-2021 5020.50 7986.50 88.21 2.00  51.61 3358.11
   06:15:35.431.27-Aug-2021 5020.50 7986.70 88.21 2.00  51.81 3358.11
   06:15:35.631.27-Aug-2021 5020.50 7986.50 88.21 2.00  52.01 3358.11
   06:15:35.831.27-Aug-2021 5020.50 7986.50 88.21 2.00  52.21 3358.11
   06:15:36.031.27-Aug-2021 5020.50 7984.14 88.21 2.00  52.41 3358.11
   06:15:36.231.27-Aug-2021 5020.50 7983.90 88.21 2.00  52.61 3358.11
   06:15:36.431.27-Aug-2021 5020.50 7984.39 88.21 2.00  52.81 3358.11
   06:15:36.631.27-Aug-2021 5020.50 7984.36 88.21 2.00  53.01 3358.11
   06:15:36.831.27-Aug-2021 5020.50 7984.36 88.21 2.00  53.21 3358.11
   06:15:37.031.27-Aug-2021 5020.50 7985.77 88.21 2.00  53.41 3358.11
   06:15:37.231.27-Aug-2021 5020.50 7985.60 88.21 2.00  53.61 3358.11
   06:15:37.431.27-Aug-2021 5020.50 7985.61 88.21 2.00  53.81 3358.11
   06:15:37.631.27-Aug-2021 5020.50 7985.33 88.21 2.00  54.01 3358.11
   06:15:37.831.27-Aug-2021 5020.50 7985.33 88.21 2.00  54.21 3358.11
   06:15:38.031.27-Aug-2021 5020.50 7992.49 88.21 2.00  54.41 3358.11
   06:15:38.231.27-Aug-2021 5020.50 7984.55 88.21 2.00  54.61 3358.11
   06:15:38.431.27-Aug-2021 5020.50 7985.18 88.21 2.00  54.81 3358.11
   06:15:38.631.27-Aug-2021 5020.50 7985.77 88.21 2.00  55.01 3358.11
   06:15:38.831.27-Aug-2021 5020.50 7985.77 88.21 2.00  55.21 3358.11
   06:15:39.031.27-Aug-2021 5020.50 7985.74 88.21 2.00  55.41 3358.11
   06:15:39.231.27-Aug-2021 5020.50 7986.10 88.21 2.00  55.61 3358.11
   06:15:39.432.27-Aug-2021 5020.50 7985.54 88.21 2.00  55.81 3358.11
   06:15:39.632.27-Aug-2021 5020.50 7986.22 88.21 2.00  56.01 3358.11
   06:15:39.832.27-Aug-2021 5020.50 7986.22 88.21 2.00  56.21 3358.11
   06:15:40.032.27-Aug-2021 5020.50 7986.97 88.21 2.00  56.41 3358.11
   06:15:40.232.27-Aug-2021 5020.50 7987.70 88.21 2.00  56.61 3358.11
   06:15:40.432.27-Aug-2021 5020.50 7987.71 88.21 2.00  56.81 3358.11
   06:15:40.632.27-Aug-2021 5020.50 7987.35 88.21 2.00  57.01 3358.11
   06:15:40.832.27-Aug-2021 5020.50 7987.35 88.21 2.00  57.21 3358.11
   06:15:41.032.27-Aug-2021 5020.50 7987.17 88.21 2.00  57.41 3358.11
   06:15:41.232.27-Aug-2021 5020.50 7986.96 88.21 2.00  57.61 3358.11
   06:15:41.432.27-Aug-2021 5020.50 7993.94 88.21 2.00  57.81 3358.11
   06:15:41.632.27-Aug-2021 5020.50 7985.90 88.21 2.00  58.01 3358.11
   06:15:41.832.27-Aug-2021 5020.50 7985.90 88.21 2.00  58.21 3358.11
   06:15:42.032.27-Aug-2021 5020.50 7986.91 88.21 2.00  58.41 3358.11
   06:15:42.232.27-Aug-2021 5020.50 7987.03 88.21 2.00  58.61 3358.11
   06:15:42.432.27-Aug-2021 5020.50 7991.14 88.21 2.00  58.81 3358.11
   06:15:42.632.27-Aug-2021 5020.50 7988.90 88.21 2.00  59.01 3358.11
   06:15:42.832.27-Aug-2021 5020.50 7988.90 88.21 2.00  59.21 3358.11
   06:15:43.032.27-Aug-2021 5020.50 7986.67 88.21 2.00  59.41 3358.11
   06:15:43.232.27-Aug-2021 5020.50 7988.53 88.21 2.00  59.61 3358.11
   06:15:43.432.27-Aug-2021 5020.50 7989.98 88.21 2.00  59.81 3358.11
   06:15:43.632.27-Aug-2021 5020.50 7989.01 88.21 2.00  60.01 3358.11
   06:15:43.832.27-Aug-2021 5020.50 7989.01 88.21 2.00  60.21 3358.11
   06:15:44.032.27-Aug-2021 5020.50 7987.27 88.21 2.00  60.41 3358.11
   06:15:44.232.27-Aug-2021 5020.50 7987.47 88.21 2.00  60.61 3358.11
   06:15:44.432.27-Aug-2021 5020.50 7990.11 88.21 2.00  60.81 3358.11
   06:15:44.632.27-Aug-2021 5020.50 7990.71 88.20 2.00  61.01 3358.11
   06:15:44.832.27-Aug-2021 5020.50 7990.71 88.20 2.00  61.21 3358.11
   06:15:45.032.27-Aug-2021 5020.50 7987.60 88.20 2.00  61.41 3358.11
   06:15:45.232.27-Aug-2021 5020.50 7987.79 88.20 2.00  61.61 3358.11
   06:15:45.433.27-Aug-2021 5020.50 7988.41 88.20 2.00  61.81 3358.11
   06:15:45.633.27-Aug-2021 5020.50 7990.69 88.20 2.00  62.01 3358.11
   06:15:45.833.27-Aug-2021 5020.50 7990.69 88.20 2.00  62.21 3358.11
   06:15:46.033.27-Aug-2021 5020.50 7989.95 88.20 2.00  62.41 3358.11
   06:15:46.233.27-Aug-2021 5020.50 7989.27 88.20 2.00  62.61 3358.11
   06:15:46.433.27-Aug-2021 5020.50 7990.06 88.20 2.00  62.81 3358.11
   06:15:46.633.27-Aug-2021 5020.50 7990.75 88.20 2.00  63.01 3358.11
   06:15:46.833.27-Aug-2021 5020.50 7990.75 88.20 2.00  63.21 3358.11
   06:15:47.033.27-Aug-2021 5020.50 7991.40 88.20 2.00  63.41 3358.11
   06:15:47.233.27-Aug-2021 5020.50 7991.04 88.20 2.00  63.61 3358.11
   06:15:47.433.27-Aug-2021 5020.50 7991.02 88.20 2.00  63.81 3358.11
   06:15:47.633.27-Aug-2021 5020.50 7990.74 88.20 2.00  64.01 3358.11
   06:15:47.833.27-Aug-2021 5020.50 7990.74 88.20 2.00  64.21 3358.11
   06:15:48.033.27-Aug-2021 5020.50 7992.51 88.20 2.00  64.41 3358.11
   06:15:48.233.27-Aug-2021 5020.50 7990.63 88.20 2.00  64.61 3358.11
   06:15:48.433.27-Aug-2021 5020.50 7990.73 88.20 2.00  64.81 3358.11
   06:15:48.633.27-Aug-2021 5020.50 7990.50 88.20 2.00  65.01 3358.11
   06:15:48.833.27-Aug-2021 5020.50 7990.50 88.20 2.00  65.21 3358.11
   06:15:49.033.27-Aug-2021 5020.50 7990.22 88.20 2.00  65.41 3358.11
   06:15:49.233.27-Aug-2021 5020.50 7990.64 88.20 2.00  65.61 3358.11
   06:15:49.433.27-Aug-2021 5020.50 7990.37 88.20 2.00  65.81 3358.11
   06:15:49.633.27-Aug-2021 5020.50 7991.13 88.20 2.00  66.01 3358.11
   06:15:49.833.27-Aug-2021 5020.50 7991.13 88.20 2.00  66.21 3358.11
   06:15:50.033.27-Aug-2021 5020.50 7993.01 88.20 2.00  66.41 3358.11
   06:15:50.233.27-Aug-2021 5020.50 7992.61 88.20 2.00  66.61 3358.11
   06:15:50.433.27-Aug-2021 5020.50 7992.52 88.20 2.00  66.81 3358.11
   06:15:50.633.27-Aug-2021 5020.50 7992.23 88.20 2.00  67.01 3358.11
   06:15:50.833.27-Aug-2021 5020.50 7992.23 88.20 2.00  67.21 3358.11
   06:15:51.033.27-Aug-2021 5020.50 7992.06 88.20 2.00  67.41 3358.11
   06:15:51.233.27-Aug-2021 5020.50 7998.87 88.20 2.00  67.61 3358.11
   06:15:51.434.27-Aug-2021 5020.50 7990.36 88.20 2.00  67.81 3358.11
   06:15:51.634.27-Aug-2021 5020.50 7990.80 88.20 2.00  68.01 3358.11
   06:15:51.834.27-Aug-2021 5020.50 7990.80 88.20 2.00  68.21 3358.11
   06:15:52.034.27-Aug-2021 5020.50 7991.27 88.20 2.00  68.41 3358.11
   06:15:52.234.27-Aug-2021 5020.50 7995.58 88.20 2.00  68.61 3358.11
   06:15:52.434.27-Aug-2021 5020.50 7993.24 88.20 2.00  68.81 3358.11
