~Version Information
 VERS.                  2.0:   CWLS log ASCII Standard -VERSION 2.0
 WRAP.                   NO:   One line per depth step
~Well Information Block
#MNEM.UNIT     VALUE/NAME     DESCRIPTION
#---------     -----------    ---------------------------
 STRT.S             13:07:39 27-Aug-21: START TIME 13:07:39 27-Aug-21
 STOP.S             13:14:54 27-Aug-21: STOP TIME  13:14:54 27-Aug-21
 STEP.S                   0.00: STEP TIME
 NULL.                 -999.25: NULL VALUE
 DFWT.                        :  DIST FWL TEXT
 DFST.                        :  DIST FSL TEXT
 DMF .             Drill Floor:  DRILL MEAS FROM
 STIM.      20.00.00 17-Aug-21:  START TIME
 DATE.      19.00.00 29-Aug-21:  END TIME
 SPUD.               15-Aug-21:  SPUD DATE
 NREF.                    Grid:  NORTH REFERENCE
 HPTY.       Minimum Curvature:  HOLE POS TYPE
 DMOD.             Drill Model:  DRILL MOD DESC
 SVYD.                  Survey:  SURVEY DESC
 ILTD.               Lithology:  INTERP LTH DESC
 FTOP.          Formation Tops:  FORM TOPS DESC
 RIG .              East Azeri:  RIG NAME
 PDAT.          Mean Sea Level:  PERMANENT DATUM
 FLD .                     ACG:  FIELD NAME
 SON .        AZ-XX-0907180857:  JOB NUMBER
 CTRY.              Azerbaijan:  COUNTRY NAME
 WELL.                    D23x:  WELL NAME
 SRVC.     Turan Drilling and Engineering:  CONTRACTOR
 COMP.     BP Exploration (Caspian Sea) Ltd.:  COMPANY
 UWI .            /AZE00000214:  UNIQUE WELL IDENTIFIER
 API .            /AZE00000214:  API NUMBER
 MDS .        Operator Entered:  MAG DATA SOURCE
 BASE.              Azerbaijan:  LOGGING EQUIPMENT BASE LOCATION
 REGN.                   EESSA:  REGION
 PROV.                    Baku:  PROVINCE
 STAT.                    Baku:  STATE NAME
 MWDS.                    Baku:  MWD SHOP
 DOE .                     N/A:  DOE NUMBER
 DCON.         Sperry Drilling:  DIRECTNL CONTR
 UNIT.                     N/A:  LOGGING EQUIPMENT ID
 WTYP.                Deviated:  WELL TYPE
 CNTY.                        :  COUNTY
 LOC .                        :  LOCATION
 LMF .             Drill Floor:  LOG MEASURED FROM
 TVDS.m                  43.60:  TVDSS CORRECTN
 LATI.deg                40.02:  LATITUDE
 LONG.deg                51.45:  LONGITUDE
 WHNS.m                  -7.04:  WELL HEAD N/S
 WHEW.m                  -0.67:  WELL HEAD E/W
 UTMX.m              538762.90:  UTM X
 UTMY.m             4431871.34:  UTM Y
 DFWL.m                   0.00:  DISTANCE FWL
 DFSL.m                   0.00:  DISTANCE FSL
 SDEP.m                4127.00:  START DEPTH
 TDD .m                5084.50:  TOTAL DEPTH (DRILLER)
 VSDR.deg               140.47:  VERT SEC DIRECT
 GVFD.g                   1.00:  GRAVITY FIELD
 MFLD.nT              50362.00:  MAGNETIC FIELD
 MDIP.deg                59.48:  MAGNETIC DIP
 MDEC.deg                 6.47:  MAGNETIC DECL
 GRDC.deg                 0.31:  GRID CORRECTION
 AZTC.deg                 6.16:  AZM TOTAL CORR
 EPD .m                   0.00:  ELEVATION
 EGL .m                   0.00:  GROUND ELEVATION
 WDMS.m                 151.80:  WD ELEV
 APD .m                  43.60:  DEPTH ABOVE PD
 DEP .m                4092.57:  DEPTH
 AGAP.m                  43.60:  AIR GAP
 VSEW.m                  -0.67:  VERT SEC E/W
 VSNS.m                  -7.04:  VERT SEC N/S
 EKB .m                  43.60:  KB ELEVATION
 EDF .m                  43.60:  DF ELEVATION
 TDL .m                 957.50:  TOTAL DEPTH (LOGGER)
 VSC .                       0:  VS TO CLOSURE
 MAGU.                 1851413:  MAGUTM CHECKSUM
~Parameter Information Block
#MNEM.UNIT       Value        Description
#---------     -----------    ---------------------------
 AV  .mps                 1.50:  Ann Velocity 
 AVMX.mps                 2.00:  Max Ann Veloc 
 AZIF.deg               184.66:  Azm, Final 
 BHAT.        Rotary Steerable:  BHA Type 
 BREV.rev               300.00:  Rev Bit Total 
 BROT.°/30m              -0.50:  Build Rotating 
 BS  .in                  8.50:  Bit Size 
 BSZ .in                  8.50:  Bit Size 
 BTPL.psig              370.00:  Bit Press Loss 
 CABU.                      No:  Customer Abuse 
 CGEO.      Behruz Shahbaliyev:  Customer Geo 
 COMM.                     ¤R:  Run Comments 1 
 TCS .hr                140.08:  Time Ciculation Ended 
 CV  .mps                 3.00:  Crit Velocity 
 CVMX.mps                 3.20:  Max Crit Veloc 
 DD1 .            Musa Ahmadov:  Direct Drillr 1 
 DD2 .           Hamid Ahmadov:  Direct Drillr 2 
 DDSV.               Geo-Pilot:  DD Service 
 DEFF.%                  98.40:  % Det Eff 
 DLRX.°/30m               3.40:  Dogleg Rot Max 
 DLSO.°/30m               1.45:  Dogleg Oriented 
 DLSX.°/30m               3.40:  Dogleg Str Max 
 DRET.      18.40.00 29-Aug-21:  Drill End Time 
 DRST.      21.00.00 20-Aug-21:  Drill Start Tim 
 DTIM.hr                 69.47:  Time Drilling 
 EDEP.m                5084.50:  End Depth 
 ENG1.      Artemiy Matviyanov:  Engineer 1 
 ENG2.         Almaz Almadatov:  Engineer 2 
 ETIM.      18.40.00 29-Aug-21:  End Time 
 FLOI.gpm               500.00:  Flow In 
 FLON.gpm               400.00:  Flow In Min 
 FLOS.cptm                0.00:  Fluid Loss 
 FLOX.gpm               500.00:  Flow In Max 
 DFT .        Mineral Oil Base:  Mud Type 
 HFLO.                      No:  High Flow 
 HPRE.                      No:  High Pressure 
 HTEM.                      No:  High Temp 
 HYDO.m                   1.80:  Hydro Offset 
 IFIN.deg                25.62:  Inc, Final 
 IMAX.deg                48.69:  Inc Max 
 IMIN.deg                24.01:  Inc Min 
 IMND.m                4962.57:  Inc Min Depth 
 IMXD.m                4119.01:  Inc Max Depth 
 JARR.                      No:  Jarring 
 LETM.      18.40.00 29-Aug-21:  Log End Time 
 LOST.hr                     0:  Lost Rig Time 
 LSTM.      21.00.00 20-Aug-21:  Log Start Time 
 MDCL.ppm             41500.00:  Mud Chlorides 
 MDES.     Inversion Oil/Synthetic:  Mud Desc 
 DFD .sg                  1.56:  Mud Density 
 MDMN.sg                  1.56:  Dens Mud Min 
 MDMX.sg                  1.56:  Dens Mud Max 
 MOIL.                      70:  Run Mud Oil % 
 MOWR.                   70:30:  Run Mud OWR 
 MSND.                     0.2:  Run Mud Sand % 
 MSOL.                    23.3:  Run Mud Solids% 
 DFV .spqt               78.00:  Mud Viscosity 
 MWOD.in                  6.75:  MWD Tool OD 
 MWSI.                      No:  Serv Intrp, MWD 
 OTIM.hr                218.30:  Time Operating 
 PCON.           Look Like New:  Pad Condition 
 PMAX.psia            11015.30:  Press Op, Max 
 PV  .cP                 38.00:  Mud PV 
 RUN .                     300:  Run Number 
 ROPA.m/hr               15.00:  ROP Avg 
 ROPN.m/hr                9.00:  ROP Min 
 ROPX.m/hr               17.00:  ROP Max 
 RPMA.rpm               120.00:  RPM Surface Avg 
 RPMN.rpm                90.00:  RPM Surface Min 
 RPMX.rpm               140.00:  RPM Surface Max 
 RRUN.                     300:  Rig Run Number 
 RTIM.hr                 31.53:  Time Reaming 
 SAZI.deg               331.64:  Azm, Start 
 SDEP.m                4127.00:  Start Depth 
 SIDD.                      No:  Serv Intrp, DD 
 SINC.deg                48.43:  Inc, Start 
 SPPA.psig             5830.00:  SPP Avg 
 SPPN.psig             5600.00:  SPP Min 
 SPPX.psig             5900.00:  SPP Max 
 STIM.      21.00.00 20-Aug-21:  Start Time 
 SVCS.                 DD, MWD:  Services 
 SVER.                    9.20:  Sperry Version 
 TDAT.m                 957.50:  Tot Depth Attmp 
 TDDF.                      No:  Trip for DD 
 TDLG.m                 957.50:  Tot Depth Loggd 
 TFF .                      No:  Trip for Fail 
 TQAA.f-kp               15.00:  Torque Abs Avg 
 TQAN.f-kp               12.00:  Torque Abs Min 
 TQAX.f-kp               19.00:  Torque Abs Max 
 TRRT.°/30m              -3.40:  Turn Rotating 
 MRT .                  EWR-M5:  Maximum Recorded Temperature 
 TTMX.degC              100.00:  Max Tool Temp 
 VS01.                90639251:  Virtual Str1 SN 
 VS02.                90634715:  Virtual Str2 SN 
 VS03.                90652479:  Virtual Str3 SN 
 VS04.                90642262:  Virtual Str4 SN 
 WBMN.klb                 0.00:  WOB Min 
 WITN.           Murad Guliyev:  Customer Rep 
 WITN.          Yashar Gaziyev:  Customer Rep 2 
 WOBA.klb                 9.00:  WOB Avg 
 WOBX.klb                12.00:  WOB Max 
 YP  .lhf2               30.00:  Yield Point 
~Curve Information Block
#MNEM.UNIT                 API CODE     Curve Description
#---------               -----------    ---------------------------
 TIME.HHMMSS            00 000 000 000:  GT Time & Date
 GTDEPTH.m              00 000 000 000:  GT Depth
 GTPQH.psia             00 000 000 000:  GT HR Quartz Pressure
 GTTQ.degC              00 000 000 000:  GT Quartz Temperature
 GTTN.NONE              00 000 000 000:  GT Test Number
 GTET.sec               00 000 000 000:  GT Elapsed Test Time
 GTTVD.m                00 000 000 000:  GT True Vertical Depth
#Other Information
#
#WARRANTY: Halliburton will use its best efforts to furnish customers with 
#accurate information and interpretations that are part of, and incident to, the services 
#provided.  However, Halliburton cannot and does not warrant the accuracy 
#or correctness of such information and interpretations.  Under no circumstances should any 
#such information or interpretation be relied upon as the sole basis for any drilling, 
#completion, production, or financial decision or any procedure involving any risk to the 
#safety of any drilling venture, drilling rig or its crew or any other third party.  The 
#Customer has full responsibility for all drilling, completion and production operation.  
#Halliburton makes no representations or warranties, either expressed or 
#implied, including, but not limited to, the implied warranties of merchantability or fitness 
#for a particular purpose, with respect to the services rendered.  In no event will 
#Halliburton be liable for failure to obtain any particular results or for 
#any damages, including, but not limited to, indirect, special or consequential damages, 
#resulting from the use of any information or interpretation provided by Halliburton.
#
~A           TIME           GTDEPTH  GTPQH  GTTQ  GTTN   GTET   GTTVD  
# ...
   13:09:33.046.27-Aug-2021 4901.50 5051.70 84.97 13.00 113.12 3249.95
   13:09:33.246.27-Aug-2021 4901.50 5051.70 84.97 13.00 113.32 3249.95
   13:09:33.446.27-Aug-2021 4901.50 5051.68 84.97 13.00 113.52 3249.95
   13:09:33.647.27-Aug-2021 4901.50 5051.69 84.97 13.00 113.72 3249.95
   13:09:33.847.27-Aug-2021 4901.50 5051.70 84.97 13.00 113.92 3249.95
   13:09:34.047.27-Aug-2021 4901.50 5051.72 84.97 13.00 114.12 3249.95
   13:09:34.247.27-Aug-2021 4901.50 5051.72 84.97 13.00 114.32 3249.95
   13:09:34.447.27-Aug-2021 4901.50 5051.74 84.97 13.00 114.52 3249.95
   13:09:34.648.27-Aug-2021 4901.50 5051.76 84.97 13.00 114.72 3249.95
   13:09:34.848.27-Aug-2021 4901.50 5051.76 84.97 13.00 114.92 3249.95
   13:09:35.048.27-Aug-2021 4901.50 5051.78 84.97 13.00 115.12 3249.95
   13:09:35.248.27-Aug-2021 4901.50 5051.78 84.97 13.00 115.32 3249.95
   13:09:35.448.27-Aug-2021 4901.50 5051.79 84.97 13.00 115.52 3249.95
   13:09:35.649.27-Aug-2021 4901.50 5051.79 84.97 13.00 115.72 3249.95
   13:09:35.849.27-Aug-2021 4901.50 5051.71 84.97 13.00 115.92 3249.95
   13:09:36.049.27-Aug-2021 4901.50 5051.85 84.97 13.00 116.12 3249.95
   13:09:36.249.27-Aug-2021 4901.50 5051.85 84.97 13.00 116.32 3249.95
   13:09:36.449.27-Aug-2021 4901.50 5051.69 84.97 13.00 116.52 3249.95
   13:09:36.650.27-Aug-2021 4901.50 5051.69 84.97 13.00 116.72 3249.95
   13:09:36.850.27-Aug-2021 4901.50 5051.72 84.97 13.00 116.92 3249.95
   13:09:37.050.27-Aug-2021 4901.50 5051.72 84.97 13.00 117.12 3249.95
   13:09:37.250.27-Aug-2021 4901.50 5051.72 84.97 13.00 117.32 3249.95
   13:09:37.450.27-Aug-2021 4901.50 5051.75 84.97 13.00 117.52 3249.95
   13:09:37.651.27-Aug-2021 4901.50 5051.76 84.97 13.00 117.72 3249.95
   13:09:37.851.27-Aug-2021 4901.50 5051.77 84.97 13.00 117.92 3249.95
   13:09:38.051.27-Aug-2021 4901.50 5051.79 84.97 13.00 118.12 3249.95
   13:09:38.251.27-Aug-2021 4901.50 5051.79 84.97 13.00 118.32 3249.95
   13:09:38.451.27-Aug-2021 4901.50 5051.81 84.97 13.00 118.52 3249.95
   13:09:38.652.27-Aug-2021 4901.50 5051.80 84.97 13.00 118.72 3249.95
   13:09:38.852.27-Aug-2021 4901.50 5051.82 84.97 13.00 118.92 3249.95
   13:09:39.052.27-Aug-2021 4901.50 5051.83 84.97 13.00 119.12 3249.95
   13:09:39.252.27-Aug-2021 4901.50 5051.83 84.97 13.00 119.32 3249.95
   13:09:39.453.27-Aug-2021 4901.50 5051.77 84.97 13.00 119.52 3249.95
   13:09:39.653.27-Aug-2021 4901.50 5051.70 84.97 13.00 119.72 3249.95
   13:09:39.853.27-Aug-2021 4901.50 5051.69 84.97 13.00 119.92 3249.95
   13:09:40.053.27-Aug-2021 4901.50 5051.71 84.97 13.00 120.12 3249.95
   13:09:40.253.27-Aug-2021 4901.50 5051.71 84.97 13.00 120.32 3249.95
   13:09:40.454.27-Aug-2021 4901.50 5051.73 84.97 13.00 120.52 3249.95
   13:09:40.654.27-Aug-2021 4901.50 5051.65 84.97 13.00 120.72 3249.95
   13:09:40.854.27-Aug-2021 4901.50 5051.84 84.97 13.00 120.92 3249.95
   13:09:41.054.27-Aug-2021 4901.50 5051.67 84.97 13.00 121.12 3249.95
   13:09:41.254.27-Aug-2021 4901.50 5051.67 84.97 13.00 121.32 3249.95
   13:09:41.455.27-Aug-2021 4901.50 5051.68 84.97 13.00 121.52 3249.95
   13:09:41.655.27-Aug-2021 4901.50 5051.68 84.97 13.00 121.72 3249.95
   13:09:41.855.27-Aug-2021 4901.50 5051.71 84.97 13.00 121.92 3249.95
   13:09:42.055.27-Aug-2021 4901.50 5051.68 84.97 13.00 122.12 3249.95
   13:09:42.255.27-Aug-2021 4901.50 5051.68 84.97 13.00 122.32 3249.95
   13:09:42.456.27-Aug-2021 4901.50 5051.69 84.97 13.00 122.52 3249.95
   13:09:42.656.27-Aug-2021 4901.50 5051.59 84.97 13.00 122.72 3249.95
   13:09:42.856.27-Aug-2021 4901.50 5051.80 84.97 13.00 122.93 3249.95
   13:09:43.056.27-Aug-2021 4901.50 5051.65 84.97 13.00 123.13 3249.95
   13:09:43.256.27-Aug-2021 4901.50 5051.65 84.97 13.00 123.33 3249.95
   13:09:43.457.27-Aug-2021 4901.50 5051.67 84.97 13.00 123.53 3249.95
   13:09:43.657.27-Aug-2021 4901.50 5051.70 84.97 13.00 123.73 3249.95
   13:09:43.857.27-Aug-2021 4901.50 5051.68 84.97 13.00 123.93 3249.95
   13:09:44.057.27-Aug-2021 4901.50 5051.71 84.97 13.00 124.13 3249.95
   13:09:44.257.27-Aug-2021 4901.50 5051.71 84.97 13.00 124.33 3249.95
   13:09:44.458.27-Aug-2021 4901.50 5051.72 84.97 13.00 124.53 3249.95
   13:09:44.658.27-Aug-2021 4901.50 5051.73 84.97 13.00 124.73 3249.95
   13:09:44.858.27-Aug-2021 4901.50 5051.74 84.97 13.00 124.93 3249.95
   13:09:45.058.27-Aug-2021 4901.50 5051.75 84.97 13.00 125.13 3249.95
   13:09:45.258.27-Aug-2021 4901.50 5051.75 84.97 13.00 125.33 3249.95
   13:09:45.459.27-Aug-2021 4901.50 5051.75 84.97 13.00 125.53 3249.95
   13:09:45.659.27-Aug-2021 4901.50 5051.77 84.97 13.00 125.73 3249.95
   13:09:45.859.27-Aug-2021 4901.50 5051.72 84.97 13.00 125.93 3249.95
   13:09:46.059.27-Aug-2021 4901.50 5051.75 84.97 13.00 126.13 3249.95
   13:09:46.259.27-Aug-2021 4901.50 5051.75 84.97 13.00 126.33 3249.95
   13:09:46.460.27-Aug-2021 4901.50 5051.68 84.97 13.00 126.53 3249.95
   13:09:46.660.27-Aug-2021 4901.50 5051.69 84.97 13.00 126.73 3249.95
   13:09:46.860.27-Aug-2021 4901.50 5051.70 84.97 13.00 126.93 3249.95
   13:09:47.060.27-Aug-2021 4901.50 5051.71 84.97 13.00 127.13 3249.95
   13:09:47.260.27-Aug-2021 4901.50 5051.71 84.97 13.00 127.33 3249.95
   13:09:47.461.27-Aug-2021 4901.50 5051.73 84.97 13.00 127.53 3249.95
   13:09:47.661.27-Aug-2021 4901.50 5051.73 84.97 13.00 127.73 3249.95
   13:09:47.861.27-Aug-2021 4901.50 5051.74 84.97 13.00 127.93 3249.95
   13:09:48.061.27-Aug-2021 4901.50 5051.75 84.97 13.00 128.13 3249.95
   13:09:48.261.27-Aug-2021 4901.50 5051.75 84.97 13.00 128.33 3249.95
   13:09:48.462.27-Aug-2021 4901.50 5051.76 84.97 13.00 128.53 3249.95
   13:09:48.662.27-Aug-2021 4901.50 5051.77 84.97 13.00 128.73 3249.95
   13:09:48.862.27-Aug-2021 4901.50 5051.78 84.97 13.00 128.93 3249.95
   13:09:49.062.27-Aug-2021 4901.50 5051.77 84.97 13.00 129.13 3249.95
   13:09:49.262.27-Aug-2021 4901.50 5051.77 84.97 13.00 129.33 3249.95
   13:09:49.463.27-Aug-2021 4901.50 5051.68 84.97 13.00 129.53 3249.95
   13:09:49.663.27-Aug-2021 4901.50 5051.69 84.97 13.00 129.73 3249.95
   13:09:49.863.27-Aug-2021 4901.50 5051.68 84.97 13.00 129.93 3249.95
   13:09:50.063.27-Aug-2021 4901.50 5051.69 84.97 13.00 130.13 3249.95
   13:09:50.263.27-Aug-2021 4901.50 5051.69 84.97 13.00 130.33 3249.95
   13:09:50.464.27-Aug-2021 4901.50 5051.71 84.97 13.00 130.53 3249.95
   13:09:50.664.27-Aug-2021 4901.50 5051.68 84.97 13.00 130.73 3249.95
   13:09:50.864.27-Aug-2021 4901.50 5051.73 84.97 13.00 130.93 3249.95
   13:09:51.064.27-Aug-2021 4901.50 5051.69 84.97 13.00 131.13 3249.95
   13:09:51.265.27-Aug-2021 4901.50 5051.69 84.97 13.00 131.33 3249.95
   13:09:51.465.27-Aug-2021 4901.50 5051.68 84.97 13.00 131.53 3249.95
   13:09:51.665.27-Aug-2021 4901.50 5051.73 84.97 13.00 131.73 3249.95
   13:09:51.865.27-Aug-2021 4901.50 5051.64 84.97 13.00 131.93 3249.95
   13:09:52.065.27-Aug-2021 4901.50 5051.67 84.97 13.00 132.13 3249.95
   13:09:52.266.27-Aug-2021 4901.50 5051.67 84.97 13.00 132.33 3249.95
   13:09:52.466.27-Aug-2021 4901.50 5051.67 84.97 13.00 132.53 3249.95
   13:09:52.666.27-Aug-2021 4901.50 5051.64 84.97 13.00 132.73 3249.95
   13:09:52.866.27-Aug-2021 4901.50 5051.71 84.97 13.00 132.94 3249.95
   13:09:53.066.27-Aug-2021 4901.50 5051.67 84.97 13.00 133.14 3249.95
   13:09:53.267.27-Aug-2021 4901.50 5051.67 84.97 13.00 133.34 3249.95
   13:09:53.467.27-Aug-2021 4901.50 5051.67 84.97 13.00 133.54 3249.95
   13:09:53.667.27-Aug-2021 4901.50 5051.68 84.97 13.00 133.74 3249.95
   13:09:53.867.27-Aug-2021 4901.50 5051.68 84.97 13.00 133.94 3249.95
   13:09:54.067.27-Aug-2021 4901.50 5051.68 84.97 13.00 134.14 3249.95
   13:09:54.268.27-Aug-2021 4901.50 5051.68 84.97 13.00 134.34 3249.95
   13:09:54.468.27-Aug-2021 4901.50 5051.70 84.97 13.00 134.54 3249.95
   13:09:54.668.27-Aug-2021 4901.50 5051.71 84.97 13.00 134.74 3249.95
   13:09:54.868.27-Aug-2021 4901.50 5051.72 84.97 13.00 134.94 3249.95
   13:09:55.068.27-Aug-2021 4901.50 5051.72 84.97 13.00 135.14 3249.95
   13:09:55.269.27-Aug-2021 4901.50 5051.72 84.97 13.00 135.34 3249.95
   13:09:55.469.27-Aug-2021 4901.50 5051.73 84.97 13.00 135.54 3249.95
