~Version Information
 VERS.                  2.0:   CWLS log ASCII Standard -VERSION 2.0
 WRAP.                   NO:   One line per depth step
~Well Information Block
#MNEM.UNIT     VALUE/NAME     DESCRIPTION
#---------     -----------    ---------------------------
 STRT.S             04:10:22 28-Aug-21: START TIME 04:10:22 28-Aug-21
 STOP.S             04:17:14 28-Aug-21: STOP TIME  04:17:14 28-Aug-21
 STEP.S                   0.00: STEP TIME
 NULL.                 -999.25: NULL VALUE
 DFWT.                        :  DIST FWL TEXT
 DFST.                        :  DIST FSL TEXT
 DMF .             Drill Floor:  DRILL MEAS FROM
 STIM.      20.00.00 17-Aug-21:  START TIME
 DATE.      19.00.00 29-Aug-21:  END TIME
 SPUD.               15-Aug-21:  SPUD DATE
 NREF.                    Grid:  NORTH REFERENCE
 HPTY.       Minimum Curvature:  HOLE POS TYPE
 DMOD.             Drill Model:  DRILL MOD DESC
 SVYD.                  Survey:  SURVEY DESC
 ILTD.               Lithology:  INTERP LTH DESC
 FTOP.          Formation Tops:  FORM TOPS DESC
 RIG .              East Azeri:  RIG NAME
 PDAT.          Mean Sea Level:  PERMANENT DATUM
 FLD .                     ACG:  FIELD NAME
 SON .        AZ-XX-0907180857:  JOB NUMBER
 CTRY.              Azerbaijan:  COUNTRY NAME
 WELL.                    D23x:  WELL NAME
 SRVC.     Turan Drilling and Engineering:  CONTRACTOR
 COMP.     BP Exploration (Caspian Sea) Ltd.:  COMPANY
 UWI .            /AZE00000214:  UNIQUE WELL IDENTIFIER
 API .            /AZE00000214:  API NUMBER
 MDS .        Operator Entered:  MAG DATA SOURCE
 BASE.              Azerbaijan:  LOGGING EQUIPMENT BASE LOCATION
 REGN.                   EESSA:  REGION
 PROV.                    Baku:  PROVINCE
 STAT.                    Baku:  STATE NAME
 MWDS.                    Baku:  MWD SHOP
 DOE .                     N/A:  DOE NUMBER
 DCON.         Sperry Drilling:  DIRECTNL CONTR
 UNIT.                     N/A:  LOGGING EQUIPMENT ID
 WTYP.                Deviated:  WELL TYPE
 CNTY.                        :  COUNTY
 LOC .                        :  LOCATION
 LMF .             Drill Floor:  LOG MEASURED FROM
 TVDS.m                  43.60:  TVDSS CORRECTN
 LATI.deg                40.02:  LATITUDE
 LONG.deg                51.45:  LONGITUDE
 WHNS.m                  -7.04:  WELL HEAD N/S
 WHEW.m                  -0.67:  WELL HEAD E/W
 UTMX.m              538762.90:  UTM X
 UTMY.m             4431871.34:  UTM Y
 DFWL.m                   0.00:  DISTANCE FWL
 DFSL.m                   0.00:  DISTANCE FSL
 SDEP.m                4127.00:  START DEPTH
 TDD .m                5084.50:  TOTAL DEPTH (DRILLER)
 VSDR.deg               140.47:  VERT SEC DIRECT
 GVFD.g                   1.00:  GRAVITY FIELD
 MFLD.nT              50362.00:  MAGNETIC FIELD
 MDIP.deg                59.48:  MAGNETIC DIP
 MDEC.deg                 6.47:  MAGNETIC DECL
 GRDC.deg                 0.31:  GRID CORRECTION
 AZTC.deg                 6.16:  AZM TOTAL CORR
 EPD .m                   0.00:  ELEVATION
 EGL .m                   0.00:  GROUND ELEVATION
 WDMS.m                 151.80:  WD ELEV
 APD .m                  43.60:  DEPTH ABOVE PD
 DEP .m                4092.57:  DEPTH
 AGAP.m                  43.60:  AIR GAP
 VSEW.m                  -0.67:  VERT SEC E/W
 VSNS.m                  -7.04:  VERT SEC N/S
 EKB .m                  43.60:  KB ELEVATION
 EDF .m                  43.60:  DF ELEVATION
 TDL .m                 957.50:  TOTAL DEPTH (LOGGER)
 VSC .                       0:  VS TO CLOSURE
 MAGU.                 1851413:  MAGUTM CHECKSUM
~Parameter Information Block
#MNEM.UNIT       Value        Description
#---------     -----------    ---------------------------
 AV  .mps                 1.50:  Ann Velocity 
 AVMX.mps                 2.00:  Max Ann Veloc 
 AZIF.deg               184.66:  Azm, Final 
 BHAT.        Rotary Steerable:  BHA Type 
 BREV.rev               300.00:  Rev Bit Total 
 BROT.°/30m              -0.50:  Build Rotating 
 BS  .in                  8.50:  Bit Size 
 BSZ .in                  8.50:  Bit Size 
 BTPL.psig              370.00:  Bit Press Loss 
 CABU.                      No:  Customer Abuse 
 CGEO.      Behruz Shahbaliyev:  Customer Geo 
 COMM.                     LÁp:  Run Comments 1 
 TCS .hr                140.08:  Time Ciculation Ended 
 CV  .mps                 3.00:  Crit Velocity 
 CVMX.mps                 3.20:  Max Crit Veloc 
 DD1 .            Musa Ahmadov:  Direct Drillr 1 
 DD2 .           Hamid Ahmadov:  Direct Drillr 2 
 DDSV.               Geo-Pilot:  DD Service 
 DEFF.%                  98.40:  % Det Eff 
 DLRX.°/30m               3.40:  Dogleg Rot Max 
 DLSO.°/30m               1.45:  Dogleg Oriented 
 DLSX.°/30m               3.40:  Dogleg Str Max 
 DRET.      18.40.00 29-Aug-21:  Drill End Time 
 DRST.      21.00.00 20-Aug-21:  Drill Start Tim 
 DTIM.hr                 69.47:  Time Drilling 
 EDEP.m                5084.50:  End Depth 
 ENG1.      Artemiy Matviyanov:  Engineer 1 
 ENG2.         Almaz Almadatov:  Engineer 2 
 ETIM.      18.40.00 29-Aug-21:  End Time 
 FLOI.gpm               500.00:  Flow In 
 FLON.gpm               400.00:  Flow In Min 
 FLOS.cptm                0.00:  Fluid Loss 
 FLOX.gpm               500.00:  Flow In Max 
 DFT .        Mineral Oil Base:  Mud Type 
 HFLO.                      No:  High Flow 
 HPRE.                      No:  High Pressure 
 HTEM.                      No:  High Temp 
 HYDO.m                   1.80:  Hydro Offset 
 IFIN.deg                25.62:  Inc, Final 
 IMAX.deg                48.69:  Inc Max 
 IMIN.deg                24.01:  Inc Min 
 IMND.m                4962.57:  Inc Min Depth 
 IMXD.m                4119.01:  Inc Max Depth 
 JARR.                      No:  Jarring 
 LETM.      18.40.00 29-Aug-21:  Log End Time 
 LOST.hr                     0:  Lost Rig Time 
 LSTM.      21.00.00 20-Aug-21:  Log Start Time 
 MDCL.ppm             41500.00:  Mud Chlorides 
 MDES.     Inversion Oil/Synthetic:  Mud Desc 
 DFD .sg                  1.56:  Mud Density 
 MDMN.sg                  1.56:  Dens Mud Min 
 MDMX.sg                  1.56:  Dens Mud Max 
 MOIL.                      70:  Run Mud Oil % 
 MOWR.                   70:30:  Run Mud OWR 
 MSND.                     0.2:  Run Mud Sand % 
 MSOL.                    23.3:  Run Mud Solids% 
 DFV .spqt               78.00:  Mud Viscosity 
 MWOD.in                  6.75:  MWD Tool OD 
 MWSI.                      No:  Serv Intrp, MWD 
 OTIM.hr                218.30:  Time Operating 
 PCON.           Look Like New:  Pad Condition 
 PMAX.psia            11015.30:  Press Op, Max 
 PV  .cP                 38.00:  Mud PV 
 RUN .                     300:  Run Number 
 ROPA.m/hr               15.00:  ROP Avg 
 ROPN.m/hr                9.00:  ROP Min 
 ROPX.m/hr               17.00:  ROP Max 
 RPMA.rpm               120.00:  RPM Surface Avg 
 RPMN.rpm                90.00:  RPM Surface Min 
 RPMX.rpm               140.00:  RPM Surface Max 
 RRUN.                     300:  Rig Run Number 
 RTIM.hr                 31.53:  Time Reaming 
 SAZI.deg               331.64:  Azm, Start 
 SDEP.m                4127.00:  Start Depth 
 SIDD.                      No:  Serv Intrp, DD 
 SINC.deg                48.43:  Inc, Start 
 SPPA.psig             5830.00:  SPP Avg 
 SPPN.psig             5600.00:  SPP Min 
 SPPX.psig             5900.00:  SPP Max 
 STIM.      21.00.00 20-Aug-21:  Start Time 
 SVCS.                 DD, MWD:  Services 
 SVER.                    9.20:  Sperry Version 
 TDAT.m                 957.50:  Tot Depth Attmp 
 TDDF.                      No:  Trip for DD 
 TDLG.m                 957.50:  Tot Depth Loggd 
 TFF .                      No:  Trip for Fail 
 TQAA.f-kp               15.00:  Torque Abs Avg 
 TQAN.f-kp               12.00:  Torque Abs Min 
 TQAX.f-kp               19.00:  Torque Abs Max 
 TRRT.°/30m              -3.40:  Turn Rotating 
 MRT .                  EWR-M5:  Maximum Recorded Temperature 
 TTMX.degC              100.00:  Max Tool Temp 
 VS01.                90639251:  Virtual Str1 SN 
 VS02.                90634715:  Virtual Str2 SN 
 VS03.                90652479:  Virtual Str3 SN 
 VS04.                90642262:  Virtual Str4 SN 
 WBMN.klb                 0.00:  WOB Min 
 WITN.           Murad Guliyev:  Customer Rep 
 WITN.          Yashar Gaziyev:  Customer Rep 2 
 WOBA.klb                 9.00:  WOB Avg 
 WOBX.klb                12.00:  WOB Max 
 YP  .lhf2               30.00:  Yield Point 
~Curve Information Block
#MNEM.UNIT                 API CODE     Curve Description
#---------               -----------    ---------------------------
 TIME.HHMMSS            00 000 000 000:  GT Time & Date
 GTDEPTH.m              00 000 000 000:  GT Depth
 GTPQH.psia             00 000 000 000:  GT HR Quartz Pressure
 GTTQ.degC              00 000 000 000:  GT Quartz Temperature
 GTTN.NONE              00 000 000 000:  GT Test Number
 GTET.sec               00 000 000 000:  GT Elapsed Test Time
 GTTVD.m                00 000 000 000:  GT True Vertical Depth
#Other Information
#
#WARRANTY: Halliburton will use its best efforts to furnish customers with 
#accurate information and interpretations that are part of, and incident to, the services 
#provided.  However, Halliburton cannot and does not warrant the accuracy 
#or correctness of such information and interpretations.  Under no circumstances should any 
#such information or interpretation be relied upon as the sole basis for any drilling, 
#completion, production, or financial decision or any procedure involving any risk to the 
#safety of any drilling venture, drilling rig or its crew or any other third party.  The 
#Customer has full responsibility for all drilling, completion and production operation.  
#Halliburton makes no representations or warranties, either expressed or 
#implied, including, but not limited to, the implied warranties of merchantability or fitness 
#for a particular purpose, with respect to the services rendered.  In no event will 
#Halliburton be liable for failure to obtain any particular results or for 
#any damages, including, but not limited to, indirect, special or consequential damages, 
#resulting from the use of any information or interpretation provided by Halliburton.
#
~A           TIME           GTDEPTH  GTPQH  GTTQ  GTTN   GTET   GTTVD  
# ...
   04:12:15.980.28-Aug-2021 4978.00 7968.10 80.47 29.00 113.16 3319.69
   04:12:16.180.28-Aug-2021 4978.00 7968.10 80.47 29.00 113.36 3319.69
   04:12:16.380.28-Aug-2021 4978.00 7968.62 80.47 29.00 113.56 3319.69
   04:12:16.581.28-Aug-2021 4978.00 7968.35 80.47 29.00 113.76 3319.69
   04:12:16.781.28-Aug-2021 4978.00 7968.41 80.47 29.00 113.96 3319.69
   04:12:16.981.28-Aug-2021 4978.00 7968.18 80.47 29.00 114.16 3319.69
   04:12:17.181.28-Aug-2021 4978.00 7968.18 80.47 29.00 114.36 3319.69
   04:12:17.382.28-Aug-2021 4978.00 7970.81 80.47 29.00 114.56 3319.69
   04:12:17.582.28-Aug-2021 4978.00 7969.32 80.47 29.00 114.76 3319.69
   04:12:17.782.28-Aug-2021 4978.00 7968.09 80.47 29.00 114.96 3319.69
   04:12:17.983.28-Aug-2021 4978.00 7967.92 80.47 29.00 115.16 3319.69
   04:12:18.183.28-Aug-2021 4978.00 7967.92 80.47 29.00 115.36 3319.69
   04:12:18.383.28-Aug-2021 4978.00 7968.05 80.47 29.00 115.56 3319.69
   04:12:18.583.28-Aug-2021 4978.00 7967.69 80.47 29.00 115.76 3319.69
   04:12:18.784.28-Aug-2021 4978.00 7967.23 80.47 29.00 115.96 3319.69
   04:12:18.984.28-Aug-2021 4978.00 7967.77 80.47 29.00 116.16 3319.69
   04:12:19.184.28-Aug-2021 4978.00 7967.77 80.47 29.00 116.36 3319.69
   04:12:19.385.28-Aug-2021 4978.00 7968.94 80.47 29.00 116.56 3319.69
   04:12:19.585.28-Aug-2021 4978.00 7969.10 80.47 29.00 116.76 3319.69
   04:12:19.785.28-Aug-2021 4978.00 7968.82 80.47 29.00 116.96 3319.69
   04:12:19.985.28-Aug-2021 4978.00 7968.55 80.47 29.00 117.16 3319.69
   04:12:20.186.28-Aug-2021 4978.00 7968.55 80.47 29.00 117.36 3319.69
   04:12:20.386.28-Aug-2021 4978.00 7968.61 80.47 29.00 117.57 3319.69
   04:12:20.586.28-Aug-2021 4978.00 7968.52 80.47 29.00 117.77 3319.69
   04:12:20.787.28-Aug-2021 4978.00 7972.25 80.47 29.00 117.97 3319.69
   04:12:20.987.28-Aug-2021 4978.00 7969.05 80.47 29.00 118.17 3319.69
   04:12:21.187.28-Aug-2021 4978.00 7969.05 80.47 29.00 118.37 3319.69
   04:12:21.387.28-Aug-2021 4978.00 7968.17 80.47 29.00 118.57 3319.69
   04:12:21.588.28-Aug-2021 4978.00 7973.81 80.47 29.00 118.77 3319.69
   04:12:21.788.28-Aug-2021 4978.00 7967.68 80.47 29.00 118.97 3319.69
   04:12:21.988.28-Aug-2021 4978.00 7968.38 80.47 29.00 119.17 3319.69
   04:12:22.189.28-Aug-2021 4978.00 7968.38 80.47 29.00 119.37 3319.69
   04:12:22.389.28-Aug-2021 4978.00 7967.94 80.47 29.00 119.57 3319.69
   04:12:22.589.28-Aug-2021 4978.00 7972.57 80.46 29.00 119.77 3319.69
   04:12:22.789.28-Aug-2021 4978.00 7968.37 80.46 29.00 119.97 3319.69
   04:12:22.990.28-Aug-2021 4978.00 7969.67 80.46 29.00 120.17 3319.69
   04:12:23.190.28-Aug-2021 4978.00 7969.67 80.46 29.00 120.37 3319.69
   04:12:23.390.28-Aug-2021 4978.00 7969.25 80.46 29.00 120.57 3319.69
   04:12:23.590.28-Aug-2021 4978.00 7972.02 80.46 29.00 120.77 3319.69
   04:12:23.791.28-Aug-2021 4978.00 7970.99 80.46 29.00 120.97 3319.69
   04:12:23.991.28-Aug-2021 4978.00 7968.82 80.46 29.00 121.17 3319.69
   04:12:24.191.28-Aug-2021 4978.00 7968.82 80.46 29.00 121.37 3319.69
   04:12:24.392.28-Aug-2021 4978.00 7968.43 80.46 29.00 121.57 3319.69
   04:12:24.592.28-Aug-2021 4978.00 7969.11 80.46 29.00 121.77 3319.69
   04:12:24.792.28-Aug-2021 4978.00 7968.81 80.46 29.00 121.97 3319.69
   04:12:24.992.28-Aug-2021 4978.00 7968.50 80.46 29.00 122.17 3319.69
   04:12:25.193.28-Aug-2021 4978.00 7968.50 80.46 29.00 122.37 3319.69
   04:12:25.393.28-Aug-2021 4978.00 7968.91 80.46 29.00 122.57 3319.69
   04:12:25.593.28-Aug-2021 4978.00 7969.68 80.46 29.00 122.77 3319.69
   04:12:25.794.28-Aug-2021 4978.00 7969.91 80.46 29.00 122.97 3319.69
   04:12:25.994.28-Aug-2021 4978.00 7969.68 80.46 29.00 123.17 3319.69
   04:12:26.194.28-Aug-2021 4978.00 7969.68 80.46 29.00 123.37 3319.69
   04:12:26.394.28-Aug-2021 4978.00 7969.25 80.46 29.00 123.57 3319.69
   04:12:26.595.28-Aug-2021 4978.00 7969.01 80.46 29.00 123.77 3319.69
   04:12:26.795.28-Aug-2021 4978.00 7972.74 80.46 29.00 123.97 3319.69
   04:12:26.995.28-Aug-2021 4978.00 7969.52 80.46 29.00 124.17 3319.69
   04:12:27.196.28-Aug-2021 4978.00 7969.52 80.46 29.00 124.37 3319.69
   04:12:27.396.28-Aug-2021 4978.00 7968.47 80.46 29.00 124.58 3319.69
   04:12:27.596.28-Aug-2021 4978.00 7968.41 80.46 29.00 124.78 3319.69
   04:12:27.796.28-Aug-2021 4978.00 7968.59 80.46 29.00 124.98 3319.69
   04:12:27.997.28-Aug-2021 4978.00 7968.41 80.46 29.00 125.18 3319.69
   04:12:28.197.28-Aug-2021 4978.00 7968.41 80.46 29.00 125.38 3319.69
   04:12:28.397.28-Aug-2021 4978.00 7968.16 80.46 29.00 125.58 3319.69
   04:12:28.598.28-Aug-2021 4978.00 7968.52 80.46 29.00 125.78 3319.69
   04:12:28.798.28-Aug-2021 4978.00 7969.45 80.46 29.00 125.98 3319.69
   04:12:28.998.28-Aug-2021 4978.00 7969.73 80.46 29.00 126.18 3319.69
   04:12:29.198.28-Aug-2021 4978.00 7969.73 80.46 29.00 126.38 3319.69
   04:12:29.399.28-Aug-2021 4978.00 7969.39 80.46 29.00 126.58 3319.69
   04:12:29.599.28-Aug-2021 4978.00 7969.29 80.46 29.00 126.78 3319.69
   04:12:29.799.28-Aug-2021 4978.00 7969.23 80.46 29.00 126.98 3319.69
   04:12:30.000.28-Aug-2021 4978.00 7969.12 80.46 29.00 127.18 3319.69
   04:12:30.200.28-Aug-2021 4978.00 7969.12 80.46 29.00 127.38 3319.69
   04:12:30.400.28-Aug-2021 4978.00 7967.89 80.46 29.00 127.58 3319.69
   04:12:30.600.28-Aug-2021 4978.00 7968.69 80.46 29.00 127.78 3319.69
   04:12:30.801.28-Aug-2021 4978.00 7968.66 80.46 29.00 127.98 3319.69
   04:12:31.001.28-Aug-2021 4978.00 7969.58 80.46 29.00 128.18 3319.69
   04:12:31.201.28-Aug-2021 4978.00 7969.58 80.46 29.00 128.38 3319.69
   04:12:31.401.28-Aug-2021 4978.00 7970.02 80.46 29.00 128.58 3319.69
   04:12:31.602.28-Aug-2021 4978.00 7968.45 80.46 29.00 128.78 3319.69
   04:12:31.802.28-Aug-2021 4978.00 7973.52 80.46 29.00 128.98 3319.69
   04:12:32.002.28-Aug-2021 4978.00 7967.71 80.46 29.00 129.18 3319.69
   04:12:32.203.28-Aug-2021 4978.00 7967.71 80.46 29.00 129.38 3319.69
   04:12:32.403.28-Aug-2021 4978.00 7970.14 80.46 29.00 129.58 3319.69
   04:12:32.603.28-Aug-2021 4978.00 7971.50 80.46 29.00 129.78 3319.69
   04:12:32.803.28-Aug-2021 4978.00 7970.43 80.46 29.00 129.98 3319.69
   04:12:33.004.28-Aug-2021 4978.00 7968.99 80.46 29.00 130.18 3319.69
   04:12:33.204.28-Aug-2021 4978.00 7968.99 80.46 29.00 130.38 3319.69
   04:12:33.404.28-Aug-2021 4978.00 7968.97 80.46 29.00 130.58 3319.69
   04:12:33.605.28-Aug-2021 4978.00 7968.97 80.46 29.00 130.78 3319.69
   04:12:33.805.28-Aug-2021 4978.00 7969.36 80.46 29.00 130.98 3319.69
   04:12:34.005.28-Aug-2021 4978.00 7968.94 80.46 29.00 131.18 3319.69
   04:12:34.205.28-Aug-2021 4978.00 7968.94 80.46 29.00 131.38 3319.69
   04:12:34.406.28-Aug-2021 4978.00 7969.20 80.46 29.00 131.58 3319.69
   04:12:34.606.28-Aug-2021 4978.00 7969.87 80.46 29.00 131.79 3319.69
   04:12:34.806.28-Aug-2021 4978.00 7969.83 80.46 29.00 131.99 3319.69
   04:12:35.007.28-Aug-2021 4978.00 7969.47 80.46 29.00 132.19 3319.69
   04:12:35.207.28-Aug-2021 4978.00 7969.47 80.46 29.00 132.39 3319.69
   04:12:35.407.28-Aug-2021 4978.00 7969.13 80.46 29.00 132.59 3319.69
   04:12:35.607.28-Aug-2021 4978.00 7969.03 80.46 29.00 132.79 3319.69
   04:12:35.808.28-Aug-2021 4978.00 7972.69 80.46 29.00 132.99 3319.69
   04:12:36.008.28-Aug-2021 4978.00 7969.54 80.46 29.00 133.19 3319.69
   04:12:36.208.28-Aug-2021 4978.00 7969.54 80.46 29.00 133.39 3319.69
   04:12:36.409.28-Aug-2021 4978.00 7968.70 80.46 29.00 133.59 3319.69
   04:12:36.609.28-Aug-2021 4978.00 7968.74 80.46 29.00 133.79 3319.69
   04:12:36.809.28-Aug-2021 4978.00 7968.90 80.46 29.00 133.99 3319.69
   04:12:37.009.28-Aug-2021 4978.00 7968.88 80.46 29.00 134.19 3319.69
   04:12:37.210.28-Aug-2021 4978.00 7968.88 80.46 29.00 134.39 3319.69
   04:12:37.410.28-Aug-2021 4978.00 7968.46 80.46 29.00 134.59 3319.69
   04:12:37.610.28-Aug-2021 4978.00 7968.74 80.46 29.00 134.79 3319.69
   04:12:37.810.28-Aug-2021 4978.00 7969.65 80.46 29.00 134.99 3319.69
   04:12:38.011.28-Aug-2021 4978.00 7969.97 80.46 29.00 135.19 3319.69
   04:12:38.211.28-Aug-2021 4978.00 7969.97 80.46 29.00 135.39 3319.69
   04:12:38.411.28-Aug-2021 4978.00 7969.49 80.46 29.00 135.59 3319.69
