~Version Information
 VERS.                  2.0:   CWLS log ASCII Standard -VERSION 2.0
 WRAP.                   NO:   One line per depth step
~Well Information Block
#MNEM.UNIT     VALUE/NAME     DESCRIPTION
#---------     -----------    ---------------------------
 STRT.S             02:31:31 28-Aug-21: START TIME 02:31:31 28-Aug-21
 STOP.S             02:38:23 28-Aug-21: STOP TIME  02:38:23 28-Aug-21
 STEP.S                   0.00: STEP TIME
 NULL.                 -999.25: NULL VALUE
 DFWT.                        :  DIST FWL TEXT
 DFST.                        :  DIST FSL TEXT
 DMF .             Drill Floor:  DRILL MEAS FROM
 STIM.      20.00.00 17-Aug-21:  START TIME
 DATE.      19.00.00 29-Aug-21:  END TIME
 SPUD.               15-Aug-21:  SPUD DATE
 NREF.                    Grid:  NORTH REFERENCE
 HPTY.       Minimum Curvature:  HOLE POS TYPE
 DMOD.             Drill Model:  DRILL MOD DESC
 SVYD.                  Survey:  SURVEY DESC
 ILTD.               Lithology:  INTERP LTH DESC
 FTOP.          Formation Tops:  FORM TOPS DESC
 RIG .              East Azeri:  RIG NAME
 PDAT.          Mean Sea Level:  PERMANENT DATUM
 FLD .                     ACG:  FIELD NAME
 SON .        AZ-XX-0907180857:  JOB NUMBER
 CTRY.              Azerbaijan:  COUNTRY NAME
 WELL.                    D23x:  WELL NAME
 SRVC.     Turan Drilling and Engineering:  CONTRACTOR
 COMP.     BP Exploration (Caspian Sea) Ltd.:  COMPANY
 UWI .            /AZE00000214:  UNIQUE WELL IDENTIFIER
 API .            /AZE00000214:  API NUMBER
 MDS .        Operator Entered:  MAG DATA SOURCE
 BASE.              Azerbaijan:  LOGGING EQUIPMENT BASE LOCATION
 REGN.                   EESSA:  REGION
 PROV.                    Baku:  PROVINCE
 STAT.                    Baku:  STATE NAME
 MWDS.                    Baku:  MWD SHOP
 DOE .                     N/A:  DOE NUMBER
 DCON.         Sperry Drilling:  DIRECTNL CONTR
 UNIT.                     N/A:  LOGGING EQUIPMENT ID
 WTYP.                Deviated:  WELL TYPE
 CNTY.                        :  COUNTY
 LOC .                        :  LOCATION
 LMF .             Drill Floor:  LOG MEASURED FROM
 TVDS.m                  43.60:  TVDSS CORRECTN
 LATI.deg                40.02:  LATITUDE
 LONG.deg                51.45:  LONGITUDE
 WHNS.m                  -7.04:  WELL HEAD N/S
 WHEW.m                  -0.67:  WELL HEAD E/W
 UTMX.m              538762.90:  UTM X
 UTMY.m             4431871.34:  UTM Y
 DFWL.m                   0.00:  DISTANCE FWL
 DFSL.m                   0.00:  DISTANCE FSL
 SDEP.m                4127.00:  START DEPTH
 TDD .m                5084.50:  TOTAL DEPTH (DRILLER)
 VSDR.deg               140.47:  VERT SEC DIRECT
 GVFD.g                   1.00:  GRAVITY FIELD
 MFLD.nT              50362.00:  MAGNETIC FIELD
 MDIP.deg                59.48:  MAGNETIC DIP
 MDEC.deg                 6.47:  MAGNETIC DECL
 GRDC.deg                 0.31:  GRID CORRECTION
 AZTC.deg                 6.16:  AZM TOTAL CORR
 EPD .m                   0.00:  ELEVATION
 EGL .m                   0.00:  GROUND ELEVATION
 WDMS.m                 151.80:  WD ELEV
 APD .m                  43.60:  DEPTH ABOVE PD
 DEP .m                4092.57:  DEPTH
 AGAP.m                  43.60:  AIR GAP
 VSEW.m                  -0.67:  VERT SEC E/W
 VSNS.m                  -7.04:  VERT SEC N/S
 EKB .m                  43.60:  KB ELEVATION
 EDF .m                  43.60:  DF ELEVATION
 TDL .m                 957.50:  TOTAL DEPTH (LOGGER)
 VSC .                       0:  VS TO CLOSURE
 MAGU.                 1851413:  MAGUTM CHECKSUM
~Parameter Information Block
#MNEM.UNIT       Value        Description
#---------     -----------    ---------------------------
 AV  .mps                 1.50:  Ann Velocity 
 AVMX.mps                 2.00:  Max Ann Veloc 
 AZIF.deg               184.66:  Azm, Final 
 BHAT.        Rotary Steerable:  BHA Type 
 BREV.rev               300.00:  Rev Bit Total 
 BROT.°/30m              -0.50:  Build Rotating 
 BS  .in                  8.50:  Bit Size 
 BSZ .in                  8.50:  Bit Size 
 BTPL.psig              370.00:  Bit Press Loss 
 CABU.                      No:  Customer Abuse 
 CGEO.      Behruz Shahbaliyev:  Customer Geo 
 COMM.                     Œjp:  Run Comments 1 
 TCS .hr                140.08:  Time Ciculation Ended 
 CV  .mps                 3.00:  Crit Velocity 
 CVMX.mps                 3.20:  Max Crit Veloc 
 DD1 .            Musa Ahmadov:  Direct Drillr 1 
 DD2 .           Hamid Ahmadov:  Direct Drillr 2 
 DDSV.               Geo-Pilot:  DD Service 
 DEFF.%                  98.40:  % Det Eff 
 DLRX.°/30m               3.40:  Dogleg Rot Max 
 DLSO.°/30m               1.45:  Dogleg Oriented 
 DLSX.°/30m               3.40:  Dogleg Str Max 
 DRET.      18.40.00 29-Aug-21:  Drill End Time 
 DRST.      21.00.00 20-Aug-21:  Drill Start Tim 
 DTIM.hr                 69.47:  Time Drilling 
 EDEP.m                5084.50:  End Depth 
 ENG1.      Artemiy Matviyanov:  Engineer 1 
 ENG2.         Almaz Almadatov:  Engineer 2 
 ETIM.      18.40.00 29-Aug-21:  End Time 
 FLOI.gpm               500.00:  Flow In 
 FLON.gpm               400.00:  Flow In Min 
 FLOS.cptm                0.00:  Fluid Loss 
 FLOX.gpm               500.00:  Flow In Max 
 DFT .        Mineral Oil Base:  Mud Type 
 HFLO.                      No:  High Flow 
 HPRE.                      No:  High Pressure 
 HTEM.                      No:  High Temp 
 HYDO.m                   1.80:  Hydro Offset 
 IFIN.deg                25.62:  Inc, Final 
 IMAX.deg                48.69:  Inc Max 
 IMIN.deg                24.01:  Inc Min 
 IMND.m                4962.57:  Inc Min Depth 
 IMXD.m                4119.01:  Inc Max Depth 
 JARR.                      No:  Jarring 
 LETM.      18.40.00 29-Aug-21:  Log End Time 
 LOST.hr                     0:  Lost Rig Time 
 LSTM.      21.00.00 20-Aug-21:  Log Start Time 
 MDCL.ppm             41500.00:  Mud Chlorides 
 MDES.     Inversion Oil/Synthetic:  Mud Desc 
 DFD .sg                  1.56:  Mud Density 
 MDMN.sg                  1.56:  Dens Mud Min 
 MDMX.sg                  1.56:  Dens Mud Max 
 MOIL.                      70:  Run Mud Oil % 
 MOWR.                   70:30:  Run Mud OWR 
 MSND.                     0.2:  Run Mud Sand % 
 MSOL.                    23.3:  Run Mud Solids% 
 DFV .spqt               78.00:  Mud Viscosity 
 MWOD.in                  6.75:  MWD Tool OD 
 MWSI.                      No:  Serv Intrp, MWD 
 OTIM.hr                218.30:  Time Operating 
 PCON.           Look Like New:  Pad Condition 
 PMAX.psia            11015.30:  Press Op, Max 
 PV  .cP                 38.00:  Mud PV 
 RUN .                     300:  Run Number 
 ROPA.m/hr               15.00:  ROP Avg 
 ROPN.m/hr                9.00:  ROP Min 
 ROPX.m/hr               17.00:  ROP Max 
 RPMA.rpm               120.00:  RPM Surface Avg 
 RPMN.rpm                90.00:  RPM Surface Min 
 RPMX.rpm               140.00:  RPM Surface Max 
 RRUN.                     300:  Rig Run Number 
 RTIM.hr                 31.53:  Time Reaming 
 SAZI.deg               331.64:  Azm, Start 
 SDEP.m                4127.00:  Start Depth 
 SIDD.                      No:  Serv Intrp, DD 
 SINC.deg                48.43:  Inc, Start 
 SPPA.psig             5830.00:  SPP Avg 
 SPPN.psig             5600.00:  SPP Min 
 SPPX.psig             5900.00:  SPP Max 
 STIM.      21.00.00 20-Aug-21:  Start Time 
 SVCS.                 DD, MWD:  Services 
 SVER.                    9.20:  Sperry Version 
 TDAT.m                 957.50:  Tot Depth Attmp 
 TDDF.                      No:  Trip for DD 
 TDLG.m                 957.50:  Tot Depth Loggd 
 TFF .                      No:  Trip for Fail 
 TQAA.f-kp               15.00:  Torque Abs Avg 
 TQAN.f-kp               12.00:  Torque Abs Min 
 TQAX.f-kp               19.00:  Torque Abs Max 
 TRRT.°/30m              -3.40:  Turn Rotating 
 MRT .                  EWR-M5:  Maximum Recorded Temperature 
 TTMX.degC              100.00:  Max Tool Temp 
 VS01.                90639251:  Virtual Str1 SN 
 VS02.                90634715:  Virtual Str2 SN 
 VS03.                90652479:  Virtual Str3 SN 
 VS04.                90642262:  Virtual Str4 SN 
 WBMN.klb                 0.00:  WOB Min 
 WITN.           Murad Guliyev:  Customer Rep 
 WITN.          Yashar Gaziyev:  Customer Rep 2 
 WOBA.klb                 9.00:  WOB Avg 
 WOBX.klb                12.00:  WOB Max 
 YP  .lhf2               30.00:  Yield Point 
~Curve Information Block
#MNEM.UNIT                 API CODE     Curve Description
#---------               -----------    ---------------------------
 TIME.HHMMSS            00 000 000 000:  GT Time & Date
 GTDEPTH.m              00 000 000 000:  GT Depth
 GTPQH.psia             00 000 000 000:  GT HR Quartz Pressure
 GTTQ.degC              00 000 000 000:  GT Quartz Temperature
 GTTN.NONE              00 000 000 000:  GT Test Number
 GTET.sec               00 000 000 000:  GT Elapsed Test Time
 GTTVD.m                00 000 000 000:  GT True Vertical Depth
#Other Information
#
#WARRANTY: Halliburton will use its best efforts to furnish customers with 
#accurate information and interpretations that are part of, and incident to, the services 
#provided.  However, Halliburton cannot and does not warrant the accuracy 
#or correctness of such information and interpretations.  Under no circumstances should any 
#such information or interpretation be relied upon as the sole basis for any drilling, 
#completion, production, or financial decision or any procedure involving any risk to the 
#safety of any drilling venture, drilling rig or its crew or any other third party.  The 
#Customer has full responsibility for all drilling, completion and production operation.  
#Halliburton makes no representations or warranties, either expressed or 
#implied, including, but not limited to, the implied warranties of merchantability or fitness 
#for a particular purpose, with respect to the services rendered.  In no event will 
#Halliburton be liable for failure to obtain any particular results or for 
#any damages, including, but not limited to, indirect, special or consequential damages, 
#resulting from the use of any information or interpretation provided by Halliburton.
#
~A           TIME           GTDEPTH  GTPQH  GTTQ  GTTN   GTET   GTTVD  
# ...
   02:34:55.452.28-Aug-2021 4891.00 7794.04 80.66 28.00 203.46 3240.41
   02:34:55.652.28-Aug-2021 4891.00 7788.99 80.66 28.00 203.66 3240.41
   02:34:55.853.28-Aug-2021 4891.00 7790.83 80.66 28.00 203.86 3240.41
   02:34:56.053.28-Aug-2021 4891.00 7790.51 80.66 28.00 204.06 3240.41
   02:34:56.253.28-Aug-2021 4891.00 7790.51 80.66 28.00 204.26 3240.41
   02:34:56.453.28-Aug-2021 4891.00 7790.41 80.66 28.00 204.46 3240.41
   02:34:56.653.28-Aug-2021 4891.00 7794.15 80.66 28.00 204.66 3240.41
   02:34:56.853.28-Aug-2021 4891.00 7789.44 80.66 28.00 204.86 3240.41
   02:34:57.053.28-Aug-2021 4891.00 7791.46 80.66 28.00 205.06 3240.41
   02:34:57.253.28-Aug-2021 4891.00 7791.46 80.66 28.00 205.26 3240.41
   02:34:57.453.28-Aug-2021 4891.00 7796.77 80.66 28.00 205.46 3240.41
   02:34:57.653.28-Aug-2021 4891.00 7787.46 80.66 28.00 205.66 3240.41
   02:34:57.853.28-Aug-2021 4891.00 7791.51 80.66 28.00 205.86 3240.41
   02:34:58.053.28-Aug-2021 4891.00 7790.19 80.66 28.00 206.06 3240.41
   02:34:58.253.28-Aug-2021 4891.00 7790.19 80.66 28.00 206.26 3240.41
   02:34:58.453.28-Aug-2021 4891.00 7789.86 80.66 28.00 206.46 3240.41
   02:34:58.653.28-Aug-2021 4891.00 7789.87 80.66 28.00 206.67 3240.41
   02:34:58.853.28-Aug-2021 4891.00 7789.61 80.66 28.00 206.87 3240.41
   02:34:59.054.28-Aug-2021 4891.00 7790.15 80.66 28.00 207.07 3240.41
   02:34:59.254.28-Aug-2021 4891.00 7790.15 80.66 28.00 207.27 3240.41
   02:34:59.454.28-Aug-2021 4891.00 7790.47 80.66 28.00 207.47 3240.41
   02:34:59.654.28-Aug-2021 4891.00 7790.74 80.66 28.00 207.67 3240.41
   02:34:59.854.28-Aug-2021 4891.00 7790.72 80.66 28.00 207.87 3240.41
   02:35:00.054.28-Aug-2021 4891.00 7790.52 80.66 28.00 208.07 3240.41
   02:35:00.254.28-Aug-2021 4891.00 7790.52 80.66 28.00 208.27 3240.41
   02:35:00.454.28-Aug-2021 4891.00 7790.44 80.66 28.00 208.47 3240.41
   02:35:00.654.28-Aug-2021 4891.00 7794.19 80.66 28.00 208.67 3240.41
   02:35:00.854.28-Aug-2021 4891.00 7789.62 80.66 28.00 208.87 3240.41
   02:35:01.054.28-Aug-2021 4891.00 7791.37 80.66 28.00 209.07 3240.41
   02:35:01.254.28-Aug-2021 4891.00 7791.37 80.66 28.00 209.27 3240.41
   02:35:01.454.28-Aug-2021 4891.00 7790.51 80.66 28.00 209.47 3240.41
   02:35:01.654.28-Aug-2021 4891.00 7790.45 80.66 28.00 209.67 3240.41
   02:35:01.854.28-Aug-2021 4891.00 7790.04 80.66 28.00 209.87 3240.41
   02:35:02.054.28-Aug-2021 4891.00 7790.26 80.66 28.00 210.07 3240.41
   02:35:02.255.28-Aug-2021 4891.00 7790.26 80.66 28.00 210.27 3240.41
   02:35:02.455.28-Aug-2021 4891.00 7790.57 80.66 28.00 210.47 3240.41
   02:35:02.655.28-Aug-2021 4891.00 7791.01 80.66 28.00 210.67 3240.41
   02:35:02.855.28-Aug-2021 4891.00 7791.17 80.66 28.00 210.87 3240.41
   02:35:03.055.28-Aug-2021 4891.00 7791.12 80.66 28.00 211.07 3240.41
   02:35:03.255.28-Aug-2021 4891.00 7791.12 80.66 28.00 211.27 3240.41
   02:35:03.455.28-Aug-2021 4891.00 7790.79 80.66 28.00 211.47 3240.41
   02:35:03.655.28-Aug-2021 4891.00 7790.53 80.66 28.00 211.67 3240.41
   02:35:03.855.28-Aug-2021 4891.00 7790.42 80.66 28.00 211.87 3240.41
   02:35:04.055.28-Aug-2021 4891.00 7793.87 80.66 28.00 212.07 3240.41
   02:35:04.255.28-Aug-2021 4891.00 7793.87 80.66 28.00 212.27 3240.41
   02:35:04.455.28-Aug-2021 4891.00 7791.10 80.66 28.00 212.47 3240.41
   02:35:04.655.28-Aug-2021 4891.00 7790.52 80.66 28.00 212.67 3240.41
   02:35:04.855.28-Aug-2021 4891.00 7790.16 80.66 28.00 212.87 3240.41
   02:35:05.055.28-Aug-2021 4891.00 7789.92 80.66 28.00 213.07 3240.41
   02:35:05.255.28-Aug-2021 4891.00 7789.92 80.66 28.00 213.27 3240.41
   02:35:05.456.28-Aug-2021 4891.00 7790.39 80.66 28.00 213.47 3240.41
   02:35:05.656.28-Aug-2021 4891.00 7791.01 80.66 28.00 213.67 3240.41
   02:35:05.856.28-Aug-2021 4891.00 7790.22 80.66 28.00 213.87 3240.41
   02:35:06.056.28-Aug-2021 4891.00 7790.41 80.66 28.00 214.07 3240.41
   02:35:06.256.28-Aug-2021 4891.00 7790.41 80.66 28.00 214.27 3240.41
   02:35:06.456.28-Aug-2021 4891.00 7793.65 80.66 28.00 214.47 3240.41
   02:35:06.656.28-Aug-2021 4891.00 7790.42 80.66 28.00 214.67 3240.41
   02:35:06.856.28-Aug-2021 4891.00 7791.31 80.66 28.00 214.87 3240.41
   02:35:07.056.28-Aug-2021 4891.00 7794.74 80.66 28.00 215.07 3240.41
   02:35:07.256.28-Aug-2021 4891.00 7794.74 80.66 28.00 215.27 3240.41
   02:35:07.456.28-Aug-2021 4891.00 7791.34 80.66 28.00 215.47 3240.41
   02:35:07.656.28-Aug-2021 4891.00 7790.79 80.66 28.00 215.67 3240.41
   02:35:07.856.28-Aug-2021 4891.00 7789.99 80.66 28.00 215.87 3240.41
   02:35:08.056.28-Aug-2021 4891.00 7789.79 80.66 28.00 216.07 3240.41
   02:35:08.256.28-Aug-2021 4891.00 7789.79 80.66 28.00 216.27 3240.41
   02:35:08.456.28-Aug-2021 4891.00 7789.81 80.66 28.00 216.47 3240.41
   02:35:08.657.28-Aug-2021 4891.00 7790.34 80.66 28.00 216.67 3240.41
   02:35:08.857.28-Aug-2021 4891.00 7790.23 80.66 28.00 216.87 3240.41
   02:35:09.057.28-Aug-2021 4891.00 7790.90 80.66 28.00 217.07 3240.41
   02:35:09.257.28-Aug-2021 4891.00 7790.90 80.66 28.00 217.27 3240.41
   02:35:09.457.28-Aug-2021 4891.00 7791.14 80.66 28.00 217.47 3240.41
   02:35:09.657.28-Aug-2021 4891.00 7790.88 80.66 28.00 217.67 3240.41
   02:35:09.857.28-Aug-2021 4891.00 7791.00 80.66 28.00 217.87 3240.41
   02:35:10.057.28-Aug-2021 4891.00 7790.82 80.66 28.00 218.07 3240.41
   02:35:10.257.28-Aug-2021 4891.00 7790.82 80.66 28.00 218.27 3240.41
   02:35:10.457.28-Aug-2021 4891.00 7793.77 80.66 28.00 218.47 3240.41
   02:35:10.657.28-Aug-2021 4891.00 7791.00 80.66 28.00 218.67 3240.41
   02:35:10.857.28-Aug-2021 4891.00 7791.47 80.66 28.00 218.87 3240.41
   02:35:11.057.28-Aug-2021 4891.00 7790.59 80.66 28.00 219.07 3240.41
   02:35:11.257.28-Aug-2021 4891.00 7790.59 80.66 28.00 219.27 3240.41
   02:35:11.457.28-Aug-2021 4891.00 7789.94 80.66 28.00 219.47 3240.41
   02:35:11.657.28-Aug-2021 4891.00 7790.46 80.66 28.00 219.67 3240.41
   02:35:11.858.28-Aug-2021 4891.00 7790.00 80.66 28.00 219.87 3240.41
   02:35:12.058.28-Aug-2021 4891.00 7790.41 80.66 28.00 220.07 3240.41
   02:35:12.258.28-Aug-2021 4891.00 7790.41 80.66 28.00 220.27 3240.41
   02:35:12.458.28-Aug-2021 4891.00 7791.07 80.66 28.00 220.47 3240.41
   02:35:12.658.28-Aug-2021 4891.00 7791.19 80.66 28.00 220.67 3240.41
   02:35:12.858.28-Aug-2021 4891.00 7791.15 80.66 28.00 220.87 3240.41
   02:35:13.058.28-Aug-2021 4891.00 7791.02 80.66 28.00 221.07 3240.41
   02:35:13.258.28-Aug-2021 4891.00 7791.02 80.66 28.00 221.27 3240.41
   02:35:13.458.28-Aug-2021 4891.00 7790.66 80.66 28.00 221.47 3240.41
   02:35:13.658.28-Aug-2021 4891.00 7790.42 80.66 28.00 221.67 3240.41
   02:35:13.858.28-Aug-2021 4891.00 7793.74 80.66 28.00 221.87 3240.41
   02:35:14.058.28-Aug-2021 4891.00 7790.75 80.66 28.00 222.07 3240.41
   02:35:14.258.28-Aug-2021 4891.00 7790.75 80.66 28.00 222.27 3240.41
   02:35:14.458.28-Aug-2021 4891.00 7790.57 80.66 28.00 222.47 3240.41
   02:35:14.658.28-Aug-2021 4891.00 7790.37 80.66 28.00 222.67 3240.41
   02:35:14.858.28-Aug-2021 4891.00 7793.75 80.66 28.00 222.87 3240.41
   02:35:15.059.28-Aug-2021 4891.00 7789.83 80.66 28.00 223.07 3240.41
   02:35:15.259.28-Aug-2021 4891.00 7789.83 80.66 28.00 223.27 3240.41
   02:35:15.459.28-Aug-2021 4891.00 7790.60 80.66 28.00 223.47 3240.41
   02:35:15.659.28-Aug-2021 4891.00 7790.74 80.66 28.00 223.67 3240.41
   02:35:15.859.28-Aug-2021 4891.00 7790.46 80.66 28.00 223.87 3240.41
   02:35:16.059.28-Aug-2021 4891.00 7796.90 80.66 28.00 224.07 3240.41
   02:35:16.259.28-Aug-2021 4891.00 7796.90 80.66 28.00 224.27 3240.41
   02:35:16.459.28-Aug-2021 4891.00 7792.12 80.66 28.00 224.47 3240.41
   02:35:16.659.28-Aug-2021 4891.00 7791.10 80.66 28.00 224.67 3240.41
   02:35:16.859.28-Aug-2021 4891.00 7794.61 80.66 28.00 224.87 3240.41
   02:35:17.059.28-Aug-2021 4891.00 7790.26 80.66 28.00 225.07 3240.41
   02:35:17.259.28-Aug-2021 4891.00 7790.26 80.66 28.00 225.27 3240.41
   02:35:17.459.28-Aug-2021 4891.00 7790.42 80.66 28.00 225.47 3240.41
   02:35:17.659.28-Aug-2021 4891.00 7790.66 80.66 28.00 225.67 3240.41
   02:35:17.859.28-Aug-2021 4891.00 7790.46 80.66 28.00 225.87 3240.41
