~Version Information
 VERS.                  2.0:   CWLS log ASCII Standard -VERSION 2.0
 WRAP.                   NO:   One line per depth step
~Well Information Block
#MNEM.UNIT     VALUE/NAME     DESCRIPTION
#---------     -----------    ---------------------------
 STRT.S             16:56:36 27-Aug-21: START TIME 16:56:36 27-Aug-21
 STOP.S             17:03:52 27-Aug-21: STOP TIME  17:03:52 27-Aug-21
 STEP.S                   0.00: STEP TIME
 NULL.                 -999.25: NULL VALUE
 DFWT.                        :  DIST FWL TEXT
 DFST.                        :  DIST FSL TEXT
 DMF .             Drill Floor:  DRILL MEAS FROM
 STIM.      20.00.00 17-Aug-21:  START TIME
 DATE.      19.00.00 29-Aug-21:  END TIME
 SPUD.               15-Aug-21:  SPUD DATE
 NREF.                    Grid:  NORTH REFERENCE
 HPTY.       Minimum Curvature:  HOLE POS TYPE
 DMOD.             Drill Model:  DRILL MOD DESC
 SVYD.                  Survey:  SURVEY DESC
 ILTD.               Lithology:  INTERP LTH DESC
 FTOP.          Formation Tops:  FORM TOPS DESC
 RIG .              East Azeri:  RIG NAME
 PDAT.          Mean Sea Level:  PERMANENT DATUM
 FLD .                     ACG:  FIELD NAME
 SON .        AZ-XX-0907180857:  JOB NUMBER
 CTRY.              Azerbaijan:  COUNTRY NAME
 WELL.                    D23x:  WELL NAME
 SRVC.     Turan Drilling and Engineering:  CONTRACTOR
 COMP.     BP Exploration (Caspian Sea) Ltd.:  COMPANY
 UWI .            /AZE00000214:  UNIQUE WELL IDENTIFIER
 API .            /AZE00000214:  API NUMBER
 MDS .        Operator Entered:  MAG DATA SOURCE
 BASE.              Azerbaijan:  LOGGING EQUIPMENT BASE LOCATION
 REGN.                   EESSA:  REGION
 PROV.                    Baku:  PROVINCE
 STAT.                    Baku:  STATE NAME
 MWDS.                    Baku:  MWD SHOP
 DOE .                     N/A:  DOE NUMBER
 DCON.         Sperry Drilling:  DIRECTNL CONTR
 UNIT.                     N/A:  LOGGING EQUIPMENT ID
 WTYP.                Deviated:  WELL TYPE
 CNTY.                        :  COUNTY
 LOC .                        :  LOCATION
 LMF .             Drill Floor:  LOG MEASURED FROM
 TVDS.m                  43.60:  TVDSS CORRECTN
 LATI.deg                40.02:  LATITUDE
 LONG.deg                51.45:  LONGITUDE
 WHNS.m                  -7.04:  WELL HEAD N/S
 WHEW.m                  -0.67:  WELL HEAD E/W
 UTMX.m              538762.90:  UTM X
 UTMY.m             4431871.34:  UTM Y
 DFWL.m                   0.00:  DISTANCE FWL
 DFSL.m                   0.00:  DISTANCE FSL
 SDEP.m                4127.00:  START DEPTH
 TDD .m                5084.50:  TOTAL DEPTH (DRILLER)
 VSDR.deg               140.47:  VERT SEC DIRECT
 GVFD.g                   1.00:  GRAVITY FIELD
 MFLD.nT              50362.00:  MAGNETIC FIELD
 MDIP.deg                59.48:  MAGNETIC DIP
 MDEC.deg                 6.47:  MAGNETIC DECL
 GRDC.deg                 0.31:  GRID CORRECTION
 AZTC.deg                 6.16:  AZM TOTAL CORR
 EPD .m                   0.00:  ELEVATION
 EGL .m                   0.00:  GROUND ELEVATION
 WDMS.m                 151.80:  WD ELEV
 APD .m                  43.60:  DEPTH ABOVE PD
 DEP .m                4092.57:  DEPTH
 AGAP.m                  43.60:  AIR GAP
 VSEW.m                  -0.67:  VERT SEC E/W
 VSNS.m                  -7.04:  VERT SEC N/S
 EKB .m                  43.60:  KB ELEVATION
 EDF .m                  43.60:  DF ELEVATION
 TDL .m                 957.50:  TOTAL DEPTH (LOGGER)
 VSC .                       0:  VS TO CLOSURE
 MAGU.                 1851413:  MAGUTM CHECKSUM
~Parameter Information Block
#MNEM.UNIT       Value        Description
#---------     -----------    ---------------------------
 AV  .mps                 1.50:  Ann Velocity 
 AVMX.mps                 2.00:  Max Ann Veloc 
 AZIF.deg               184.66:  Azm, Final 
 BHAT.        Rotary Steerable:  BHA Type 
 BREV.rev               300.00:  Rev Bit Total 
 BROT.°/30m              -0.50:  Build Rotating 
 BS  .in                  8.50:  Bit Size 
 BSZ .in                  8.50:  Bit Size 
 BTPL.psig              370.00:  Bit Press Loss 
 CABU.                      No:  Customer Abuse 
 CGEO.      Behruz Shahbaliyev:  Customer Geo 
 COMM.                     T
k:  Run Comments 1 
 TCS .hr                140.08:  Time Ciculation Ended 
 CV  .mps                 3.00:  Crit Velocity 
 CVMX.mps                 3.20:  Max Crit Veloc 
 DD1 .            Musa Ahmadov:  Direct Drillr 1 
 DD2 .           Hamid Ahmadov:  Direct Drillr 2 
 DDSV.               Geo-Pilot:  DD Service 
 DEFF.%                  98.40:  % Det Eff 
 DLRX.°/30m               3.40:  Dogleg Rot Max 
 DLSO.°/30m               1.45:  Dogleg Oriented 
 DLSX.°/30m               3.40:  Dogleg Str Max 
 DRET.      18.40.00 29-Aug-21:  Drill End Time 
 DRST.      21.00.00 20-Aug-21:  Drill Start Tim 
 DTIM.hr                 69.47:  Time Drilling 
 EDEP.m                5084.50:  End Depth 
 ENG1.      Artemiy Matviyanov:  Engineer 1 
 ENG2.         Almaz Almadatov:  Engineer 2 
 ETIM.      18.40.00 29-Aug-21:  End Time 
 FLOI.gpm               500.00:  Flow In 
 FLON.gpm               400.00:  Flow In Min 
 FLOS.cptm                0.00:  Fluid Loss 
 FLOX.gpm               500.00:  Flow In Max 
 DFT .        Mineral Oil Base:  Mud Type 
 HFLO.                      No:  High Flow 
 HPRE.                      No:  High Pressure 
 HTEM.                      No:  High Temp 
 HYDO.m                   1.80:  Hydro Offset 
 IFIN.deg                25.62:  Inc, Final 
 IMAX.deg                48.69:  Inc Max 
 IMIN.deg                24.01:  Inc Min 
 IMND.m                4962.57:  Inc Min Depth 
 IMXD.m                4119.01:  Inc Max Depth 
 JARR.                      No:  Jarring 
 LETM.      18.40.00 29-Aug-21:  Log End Time 
 LOST.hr                     0:  Lost Rig Time 
 LSTM.      21.00.00 20-Aug-21:  Log Start Time 
 MDCL.ppm             41500.00:  Mud Chlorides 
 MDES.     Inversion Oil/Synthetic:  Mud Desc 
 DFD .sg                  1.56:  Mud Density 
 MDMN.sg                  1.56:  Dens Mud Min 
 MDMX.sg                  1.56:  Dens Mud Max 
 MOIL.                      70:  Run Mud Oil % 
 MOWR.                   70:30:  Run Mud OWR 
 MSND.                     0.2:  Run Mud Sand % 
 MSOL.                    23.3:  Run Mud Solids% 
 DFV .spqt               78.00:  Mud Viscosity 
 MWOD.in                  6.75:  MWD Tool OD 
 MWSI.                      No:  Serv Intrp, MWD 
 OTIM.hr                218.30:  Time Operating 
 PCON.           Look Like New:  Pad Condition 
 PMAX.psia            11015.30:  Press Op, Max 
 PV  .cP                 38.00:  Mud PV 
 RUN .                     300:  Run Number 
 ROPA.m/hr               15.00:  ROP Avg 
 ROPN.m/hr                9.00:  ROP Min 
 ROPX.m/hr               17.00:  ROP Max 
 RPMA.rpm               120.00:  RPM Surface Avg 
 RPMN.rpm                90.00:  RPM Surface Min 
 RPMX.rpm               140.00:  RPM Surface Max 
 RRUN.                     300:  Rig Run Number 
 RTIM.hr                 31.53:  Time Reaming 
 SAZI.deg               331.64:  Azm, Start 
 SDEP.m                4127.00:  Start Depth 
 SIDD.                      No:  Serv Intrp, DD 
 SINC.deg                48.43:  Inc, Start 
 SPPA.psig             5830.00:  SPP Avg 
 SPPN.psig             5600.00:  SPP Min 
 SPPX.psig             5900.00:  SPP Max 
 STIM.      21.00.00 20-Aug-21:  Start Time 
 SVCS.                 DD, MWD:  Services 
 SVER.                    9.20:  Sperry Version 
 TDAT.m                 957.50:  Tot Depth Attmp 
 TDDF.                      No:  Trip for DD 
 TDLG.m                 957.50:  Tot Depth Loggd 
 TFF .                      No:  Trip for Fail 
 TQAA.f-kp               15.00:  Torque Abs Avg 
 TQAN.f-kp               12.00:  Torque Abs Min 
 TQAX.f-kp               19.00:  Torque Abs Max 
 TRRT.°/30m              -3.40:  Turn Rotating 
 MRT .                  EWR-M5:  Maximum Recorded Temperature 
 TTMX.degC              100.00:  Max Tool Temp 
 VS01.                90639251:  Virtual Str1 SN 
 VS02.                90634715:  Virtual Str2 SN 
 VS03.                90652479:  Virtual Str3 SN 
 VS04.                90642262:  Virtual Str4 SN 
 WBMN.klb                 0.00:  WOB Min 
 WITN.           Murad Guliyev:  Customer Rep 
 WITN.          Yashar Gaziyev:  Customer Rep 2 
 WOBA.klb                 9.00:  WOB Avg 
 WOBX.klb                12.00:  WOB Max 
 YP  .lhf2               30.00:  Yield Point 
~Curve Information Block
#MNEM.UNIT                 API CODE     Curve Description
#---------               -----------    ---------------------------
 TIME.HHMMSS            00 000 000 000:  GT Time & Date
 GTDEPTH.m              00 000 000 000:  GT Depth
 GTPQH.psia             00 000 000 000:  GT HR Quartz Pressure
 GTTQ.degC              00 000 000 000:  GT Quartz Temperature
 GTTN.NONE              00 000 000 000:  GT Test Number
 GTET.sec               00 000 000 000:  GT Elapsed Test Time
 GTTVD.m                00 000 000 000:  GT True Vertical Depth
#Other Information
#
#WARRANTY: Halliburton will use its best efforts to furnish customers with 
#accurate information and interpretations that are part of, and incident to, the services 
#provided.  However, Halliburton cannot and does not warrant the accuracy 
#or correctness of such information and interpretations.  Under no circumstances should any 
#such information or interpretation be relied upon as the sole basis for any drilling, 
#completion, production, or financial decision or any procedure involving any risk to the 
#safety of any drilling venture, drilling rig or its crew or any other third party.  The 
#Customer has full responsibility for all drilling, completion and production operation.  
#Halliburton makes no representations or warranties, either expressed or 
#implied, including, but not limited to, the implied warranties of merchantability or fitness 
#for a particular purpose, with respect to the services rendered.  In no event will 
#Halliburton be liable for failure to obtain any particular results or for 
#any damages, including, but not limited to, indirect, special or consequential damages, 
#resulting from the use of any information or interpretation provided by Halliburton.
#
~A           TIME           GTDEPTH  GTPQH  GTTQ  GTTN   GTET   GTTVD  
# ...
   16:59:14.211.27-Aug-2021 4788.50 7534.98 83.16 18.00 158.04 3147.67
   16:59:14.411.27-Aug-2021 4788.50 7535.69 83.16 18.00 158.24 3147.67
   16:59:14.610.27-Aug-2021 4788.50 7534.62 83.16 18.00 158.44 3147.67
   16:59:14.810.27-Aug-2021 4788.50 7535.85 83.16 18.00 158.64 3147.67
   16:59:15.010.27-Aug-2021 4788.50 7535.67 83.16 18.00 158.84 3147.67
   16:59:15.210.27-Aug-2021 4788.50 7535.67 83.16 18.00 159.04 3147.67
   16:59:15.410.27-Aug-2021 4788.50 7537.83 83.16 18.00 159.24 3147.67
   16:59:15.609.27-Aug-2021 4788.50 7536.47 83.16 18.00 159.44 3147.67
   16:59:15.809.27-Aug-2021 4788.50 7535.33 83.16 18.00 159.64 3147.67
   16:59:16.009.27-Aug-2021 4788.50 7536.08 83.16 18.00 159.84 3147.67
   16:59:16.209.27-Aug-2021 4788.50 7536.08 83.16 18.00 160.04 3147.67
   16:59:16.409.27-Aug-2021 4788.50 7535.05 83.16 18.00 160.24 3147.67
   16:59:16.608.27-Aug-2021 4788.50 7540.38 83.16 18.00 160.44 3147.67
   16:59:16.808.27-Aug-2021 4788.50 7533.23 83.16 18.00 160.64 3147.67
   16:59:17.008.27-Aug-2021 4788.50 7535.59 83.16 18.00 160.84 3147.67
   16:59:17.208.27-Aug-2021 4788.50 7535.59 83.16 18.00 161.04 3147.67
   16:59:17.408.27-Aug-2021 4788.50 7535.09 83.16 18.00 161.24 3147.67
   16:59:17.607.27-Aug-2021 4788.50 7535.69 83.16 18.00 161.44 3147.67
   16:59:17.807.27-Aug-2021 4788.50 7534.81 83.16 18.00 161.64 3147.67
   16:59:18.007.27-Aug-2021 4788.50 7535.17 83.16 18.00 161.84 3147.67
   16:59:18.207.27-Aug-2021 4788.50 7535.17 83.16 18.00 162.04 3147.67
   16:59:18.407.27-Aug-2021 4788.50 7535.30 83.16 18.00 162.24 3147.67
   16:59:18.606.27-Aug-2021 4788.50 7535.49 83.16 18.00 162.44 3147.67
   16:59:18.806.27-Aug-2021 4788.50 7535.67 83.16 18.00 162.64 3147.67
   16:59:19.006.27-Aug-2021 4788.50 7535.60 83.16 18.00 162.84 3147.67
   16:59:19.206.27-Aug-2021 4788.50 7535.60 83.16 18.00 163.04 3147.67
   16:59:19.406.27-Aug-2021 4788.50 7535.70 83.16 18.00 163.24 3147.67
   16:59:19.605.27-Aug-2021 4788.50 7535.65 83.16 18.00 163.44 3147.67
   16:59:19.805.27-Aug-2021 4788.50 7540.55 83.16 18.00 163.64 3147.67
   16:59:20.005.27-Aug-2021 4788.50 7533.59 83.16 18.00 163.84 3147.67
   16:59:20.205.27-Aug-2021 4788.50 7533.59 83.16 18.00 164.04 3147.67
   16:59:20.405.27-Aug-2021 4788.50 7536.39 83.16 18.00 164.24 3147.67
   16:59:20.604.27-Aug-2021 4788.50 7535.19 83.16 18.00 164.44 3147.67
   16:59:20.804.27-Aug-2021 4788.50 7535.48 83.16 18.00 164.64 3147.67
   16:59:21.004.27-Aug-2021 4788.50 7533.62 83.16 18.00 164.84 3147.67
   16:59:21.204.27-Aug-2021 4788.50 7533.62 83.16 18.00 165.04 3147.67
   16:59:21.404.27-Aug-2021 4788.50 7420.79 83.16 18.00 165.24 3147.67
   16:59:21.603.27-Aug-2021 4788.50 7489.95 83.16 18.00 165.43 3147.67
   16:59:21.803.27-Aug-2021 4788.50 7525.76 83.16 18.00 165.63 3147.67
   16:59:22.003.27-Aug-2021 4788.50 7528.85 83.16 18.00 165.83 3147.67
   16:59:22.203.27-Aug-2021 4788.50 7528.85 83.16 18.00 166.03 3147.67
   16:59:22.403.27-Aug-2021 4788.50 7528.90 83.16 18.00 166.23 3147.67
   16:59:22.602.27-Aug-2021 4788.50 7528.74 83.16 18.00 166.43 3147.67
   16:59:22.802.27-Aug-2021 4788.50 7525.54 83.16 18.00 166.63 3147.67
   16:59:23.002.27-Aug-2021 4788.50 7521.15 83.16 18.00 166.83 3147.67
   16:59:23.202.27-Aug-2021 4788.50 7521.15 83.16 18.00 167.03 3147.67
   16:59:23.402.27-Aug-2021 4788.50 7519.18 83.16 18.00 167.23 3147.67
   16:59:23.601.27-Aug-2021 4788.50 7525.19 83.16 18.00 167.43 3147.67
   16:59:23.801.27-Aug-2021 4788.50 7521.27 83.16 18.00 167.63 3147.67
   16:59:24.001.27-Aug-2021 4788.50 7526.96 83.16 18.00 167.83 3147.67
   16:59:24.201.27-Aug-2021 4788.50 7526.96 83.16 18.00 168.03 3147.67
   16:59:24.401.27-Aug-2021 4788.50 7517.52 83.16 18.00 168.23 3147.67
   16:59:24.600.27-Aug-2021 4788.50 7526.92 83.16 18.00 168.43 3147.67
   16:59:24.800.27-Aug-2021 4788.50 7529.15 83.16 18.00 168.63 3147.67
   16:59:25.000.27-Aug-2021 4788.50 7523.26 83.16 18.00 168.83 3147.67
   16:59:25.200.27-Aug-2021 4788.50 7523.26 83.16 18.00 169.03 3147.67
   16:59:25.400.27-Aug-2021 4788.50 7499.80 83.16 18.00 169.23 3147.67
   16:59:25.599.27-Aug-2021 4788.50 7494.08 83.16 18.00 169.43 3147.67
   16:59:25.799.27-Aug-2021 4788.50 7506.38 83.16 18.00 169.63 3147.67
   16:59:25.999.27-Aug-2021 4788.50 7512.14 83.16 18.00 169.83 3147.67
   16:59:26.199.27-Aug-2021 4788.50 7512.14 83.16 18.00 170.03 3147.67
   16:59:26.399.27-Aug-2021 4788.50 7518.25 83.16 18.00 170.23 3147.67
   16:59:26.598.27-Aug-2021 4788.50 7526.84 83.16 18.00 170.43 3147.67
   16:59:26.798.27-Aug-2021 4788.50 7534.16 83.16 18.00 170.63 3147.67
   16:59:26.998.27-Aug-2021 4788.50 7531.20 83.16 18.00 170.83 3147.67
   16:59:27.198.27-Aug-2021 4788.50 7531.20 83.16 18.00 171.03 3147.67
   16:59:27.398.27-Aug-2021 4788.50 7532.03 83.16 18.00 171.23 3147.67
   16:59:27.597.27-Aug-2021 4788.50 7530.96 83.16 18.00 171.43 3147.67
   16:59:27.797.27-Aug-2021 4788.50 7531.65 83.16 18.00 171.63 3147.67
   16:59:27.997.27-Aug-2021 4788.50 7530.87 83.16 18.00 171.83 3147.67
   16:59:28.197.27-Aug-2021 4788.50 7530.87 83.16 18.00 172.03 3147.67
   16:59:28.397.27-Aug-2021 4788.50 7531.87 83.16 18.00 172.23 3147.67
   16:59:28.596.27-Aug-2021 4788.50 7529.78 83.16 18.00 172.43 3147.67
   16:59:28.796.27-Aug-2021 4788.50 7529.32 83.16 18.00 172.63 3147.67
   16:59:28.996.27-Aug-2021 4788.50 7523.38 83.16 18.00 172.83 3147.67
   16:59:29.196.27-Aug-2021 4788.50 7523.38 83.16 18.00 173.03 3147.67
   16:59:29.396.27-Aug-2021 4788.50 7531.81 83.16 18.00 173.23 3147.67
   16:59:29.595.27-Aug-2021 4788.50 7516.34 83.16 18.00 173.43 3147.67
   16:59:29.795.27-Aug-2021 4788.50 7531.59 83.16 18.00 173.63 3147.67
   16:59:29.995.27-Aug-2021 4788.50 7534.83 83.16 18.00 173.83 3147.67
   16:59:30.195.27-Aug-2021 4788.50 7534.83 83.16 18.00 174.03 3147.67
   16:59:30.395.27-Aug-2021 4788.50 7531.19 83.16 18.00 174.23 3147.67
   16:59:30.594.27-Aug-2021 4788.50 7530.99 83.16 18.00 174.43 3147.67
   16:59:30.794.27-Aug-2021 4788.50 7526.87 83.16 18.00 174.63 3147.67
   16:59:30.994.27-Aug-2021 4788.50 7531.82 83.16 18.00 174.83 3147.67
   16:59:31.194.27-Aug-2021 4788.50 7531.82 83.16 18.00 175.03 3147.67
   16:59:31.394.27-Aug-2021 4788.50 7534.97 83.16 18.00 175.23 3147.67
   16:59:31.593.27-Aug-2021 4788.50 7535.72 83.16 18.00 175.42 3147.67
   16:59:31.793.27-Aug-2021 4788.50 7535.41 83.16 18.00 175.62 3147.67
   16:59:31.993.27-Aug-2021 4788.50 7535.65 83.16 18.00 175.82 3147.67
   16:59:32.193.27-Aug-2021 4788.50 7535.65 83.16 18.00 176.02 3147.67
   16:59:32.393.27-Aug-2021 4788.50 7535.65 83.16 18.00 176.22 3147.67
   16:59:32.592.27-Aug-2021 4788.50 7535.61 83.16 18.00 176.42 3147.67
   16:59:32.792.27-Aug-2021 4788.50 7535.60 83.16 18.00 176.62 3147.67
   16:59:32.992.27-Aug-2021 4788.50 7535.49 83.16 18.00 176.82 3147.67
   16:59:33.192.27-Aug-2021 4788.50 7535.49 83.16 18.00 177.02 3147.67
   16:59:33.392.27-Aug-2021 4788.50 7540.27 83.16 18.00 177.22 3147.67
   16:59:33.591.27-Aug-2021 4788.50 7533.32 83.16 18.00 177.42 3147.67
   16:59:33.791.27-Aug-2021 4788.50 7535.46 83.16 18.00 177.62 3147.67
   16:59:33.991.27-Aug-2021 4788.50 7536.28 83.16 18.00 177.82 3147.67
   16:59:34.191.27-Aug-2021 4788.50 7536.28 83.16 18.00 178.02 3147.67
   16:59:34.391.27-Aug-2021 4788.50 7533.48 83.16 18.00 178.22 3147.67
   16:59:34.590.27-Aug-2021 4788.50 7534.58 83.16 18.00 178.42 3147.67
   16:59:34.790.27-Aug-2021 4788.50 7536.02 83.16 18.00 178.62 3147.67
   16:59:34.990.27-Aug-2021 4788.50 7535.40 83.16 18.00 178.82 3147.67
   16:59:35.190.27-Aug-2021 4788.50 7535.40 83.16 18.00 179.02 3147.67
   16:59:35.390.27-Aug-2021 4788.50 7534.74 83.16 18.00 179.22 3147.67
   16:59:35.589.27-Aug-2021 4788.50 7540.51 83.16 18.00 179.42 3147.67
   16:59:35.789.27-Aug-2021 4788.50 7534.03 83.16 18.00 179.62 3147.67
   16:59:35.989.27-Aug-2021 4788.50 7535.44 83.16 18.00 179.82 3147.67
   16:59:36.189.27-Aug-2021 4788.50 7535.44 83.16 18.00 180.02 3147.67
   16:59:36.389.27-Aug-2021 4788.50 7535.72 83.16 18.00 180.22 3147.67
   16:59:36.588.27-Aug-2021 4788.50 7539.06 83.16 18.00 180.42 3147.67
