~Version Information
 VERS.                  2.0:   CWLS log ASCII Standard -VERSION 2.0
 WRAP.                   NO:   One line per depth step
~Well Information Block
#MNEM.UNIT     VALUE/NAME     DESCRIPTION
#---------     -----------    ---------------------------
 STRT.S             12:21:31 27-Aug-21: START TIME 12:21:31 27-Aug-21
 STOP.S             12:28:48 27-Aug-21: STOP TIME  12:28:48 27-Aug-21
 STEP.S                   0.00: STEP TIME
 NULL.                 -999.25: NULL VALUE
 DFWT.                        :  DIST FWL TEXT
 DFST.                        :  DIST FSL TEXT
 DMF .             Drill Floor:  DRILL MEAS FROM
 STIM.      20.00.00 17-Aug-21:  START TIME
 DATE.      19.00.00 29-Aug-21:  END TIME
 SPUD.               15-Aug-21:  SPUD DATE
 NREF.                    Grid:  NORTH REFERENCE
 HPTY.       Minimum Curvature:  HOLE POS TYPE
 DMOD.             Drill Model:  DRILL MOD DESC
 SVYD.                  Survey:  SURVEY DESC
 ILTD.               Lithology:  INTERP LTH DESC
 FTOP.          Formation Tops:  FORM TOPS DESC
 RIG .              East Azeri:  RIG NAME
 PDAT.          Mean Sea Level:  PERMANENT DATUM
 FLD .                     ACG:  FIELD NAME
 SON .        AZ-XX-0907180857:  JOB NUMBER
 CTRY.              Azerbaijan:  COUNTRY NAME
 WELL.                    D23x:  WELL NAME
 SRVC.     Turan Drilling and Engineering:  CONTRACTOR
 COMP.     BP Exploration (Caspian Sea) Ltd.:  COMPANY
 UWI .            /AZE00000214:  UNIQUE WELL IDENTIFIER
 API .            /AZE00000214:  API NUMBER
 MDS .        Operator Entered:  MAG DATA SOURCE
 BASE.              Azerbaijan:  LOGGING EQUIPMENT BASE LOCATION
 REGN.                   EESSA:  REGION
 PROV.                    Baku:  PROVINCE
 STAT.                    Baku:  STATE NAME
 MWDS.                    Baku:  MWD SHOP
 DOE .                     N/A:  DOE NUMBER
 DCON.         Sperry Drilling:  DIRECTNL CONTR
 UNIT.                     N/A:  LOGGING EQUIPMENT ID
 WTYP.                Deviated:  WELL TYPE
 CNTY.                        :  COUNTY
 LOC .                        :  LOCATION
 LMF .             Drill Floor:  LOG MEASURED FROM
 TVDS.m                  43.60:  TVDSS CORRECTN
 LATI.deg                40.02:  LATITUDE
 LONG.deg                51.45:  LONGITUDE
 WHNS.m                  -7.04:  WELL HEAD N/S
 WHEW.m                  -0.67:  WELL HEAD E/W
 UTMX.m              538762.90:  UTM X
 UTMY.m             4431871.34:  UTM Y
 DFWL.m                   0.00:  DISTANCE FWL
 DFSL.m                   0.00:  DISTANCE FSL
 SDEP.m                4127.00:  START DEPTH
 TDD .m                5084.50:  TOTAL DEPTH (DRILLER)
 VSDR.deg               140.47:  VERT SEC DIRECT
 GVFD.g                   1.00:  GRAVITY FIELD
 MFLD.nT              50362.00:  MAGNETIC FIELD
 MDIP.deg                59.48:  MAGNETIC DIP
 MDEC.deg                 6.47:  MAGNETIC DECL
 GRDC.deg                 0.31:  GRID CORRECTION
 AZTC.deg                 6.16:  AZM TOTAL CORR
 EPD .m                   0.00:  ELEVATION
 EGL .m                   0.00:  GROUND ELEVATION
 WDMS.m                 151.80:  WD ELEV
 APD .m                  43.60:  DEPTH ABOVE PD
 DEP .m                4092.57:  DEPTH
 AGAP.m                  43.60:  AIR GAP
 VSEW.m                  -0.67:  VERT SEC E/W
 VSNS.m                  -7.04:  VERT SEC N/S
 EKB .m                  43.60:  KB ELEVATION
 EDF .m                  43.60:  DF ELEVATION
 TDL .m                 957.50:  TOTAL DEPTH (LOGGER)
 VSC .                       0:  VS TO CLOSURE
 MAGU.                 1851413:  MAGUTM CHECKSUM
~Parameter Information Block
#MNEM.UNIT       Value        Description
#---------     -----------    ---------------------------
 AV  .mps                 1.50:  Ann Velocity 
 AVMX.mps                 2.00:  Max Ann Veloc 
 AZIF.deg               184.66:  Azm, Final 
 BHAT.        Rotary Steerable:  BHA Type 
 BREV.rev               300.00:  Rev Bit Total 
 BROT.°/30m              -0.50:  Build Rotating 
 BS  .in                  8.50:  Bit Size 
 BSZ .in                  8.50:  Bit Size 
 BTPL.psig              370.00:  Bit Press Loss 
 CABU.                      No:  Customer Abuse 
 CGEO.      Behruz Shahbaliyev:  Customer Geo 
 TCS .hr                140.08:  Time Ciculation Ended 
 CV  .mps                 3.00:  Crit Velocity 
 CVMX.mps                 3.20:  Max Crit Veloc 
 DD1 .            Musa Ahmadov:  Direct Drillr 1 
 DD2 .           Hamid Ahmadov:  Direct Drillr 2 
 DDSV.               Geo-Pilot:  DD Service 
 DEFF.%                  98.40:  % Det Eff 
 DLRX.°/30m               3.40:  Dogleg Rot Max 
 DLSO.°/30m               1.45:  Dogleg Oriented 
 DLSX.°/30m               3.40:  Dogleg Str Max 
 DRET.      18.40.00 29-Aug-21:  Drill End Time 
 DRST.      21.00.00 20-Aug-21:  Drill Start Tim 
 DTIM.hr                 69.47:  Time Drilling 
 EDEP.m                5084.50:  End Depth 
 ENG1.      Artemiy Matviyanov:  Engineer 1 
 ENG2.         Almaz Almadatov:  Engineer 2 
 ETIM.      18.40.00 29-Aug-21:  End Time 
 FLOI.gpm               500.00:  Flow In 
 FLON.gpm               400.00:  Flow In Min 
 FLOS.cptm                0.00:  Fluid Loss 
 FLOX.gpm               500.00:  Flow In Max 
 DFT .        Mineral Oil Base:  Mud Type 
 HFLO.                      No:  High Flow 
 HPRE.                      No:  High Pressure 
 HTEM.                      No:  High Temp 
 HYDO.m                   1.80:  Hydro Offset 
 IFIN.deg                25.62:  Inc, Final 
 IMAX.deg                48.69:  Inc Max 
 IMIN.deg                24.01:  Inc Min 
 IMND.m                4962.57:  Inc Min Depth 
 IMXD.m                4119.01:  Inc Max Depth 
 JARR.                      No:  Jarring 
 LETM.      18.40.00 29-Aug-21:  Log End Time 
 LOST.hr                     0:  Lost Rig Time 
 LSTM.      21.00.00 20-Aug-21:  Log Start Time 
 MDCL.ppm             41500.00:  Mud Chlorides 
 MDES.     Inversion Oil/Synthetic:  Mud Desc 
 DFD .sg                  1.56:  Mud Density 
 MDMN.sg                  1.56:  Dens Mud Min 
 MDMX.sg                  1.56:  Dens Mud Max 
 MOIL.                      70:  Run Mud Oil % 
 MOWR.                   70:30:  Run Mud OWR 
 MSND.                     0.2:  Run Mud Sand % 
 MSOL.                    23.3:  Run Mud Solids% 
 DFV .spqt               78.00:  Mud Viscosity 
 MWOD.in                  6.75:  MWD Tool OD 
 MWSI.                      No:  Serv Intrp, MWD 
 OTIM.hr                218.30:  Time Operating 
 PCON.           Look Like New:  Pad Condition 
 PMAX.psia            11015.30:  Press Op, Max 
 PV  .cP                 38.00:  Mud PV 
 RUN .                     300:  Run Number 
 ROPA.m/hr               15.00:  ROP Avg 
 ROPN.m/hr                9.00:  ROP Min 
 ROPX.m/hr               17.00:  ROP Max 
 RPMA.rpm               120.00:  RPM Surface Avg 
 RPMN.rpm                90.00:  RPM Surface Min 
 RPMX.rpm               140.00:  RPM Surface Max 
 RRUN.                     300:  Rig Run Number 
 RTIM.hr                 31.53:  Time Reaming 
 SAZI.deg               331.64:  Azm, Start 
 SDEP.m                4127.00:  Start Depth 
 SIDD.                      No:  Serv Intrp, DD 
 SINC.deg                48.43:  Inc, Start 
 SPPA.psig             5830.00:  SPP Avg 
 SPPN.psig             5600.00:  SPP Min 
 SPPX.psig             5900.00:  SPP Max 
 STIM.      21.00.00 20-Aug-21:  Start Time 
 SVCS.                 DD, MWD:  Services 
 SVER.                    9.20:  Sperry Version 
 TDAT.m                 957.50:  Tot Depth Attmp 
 TDDF.                      No:  Trip for DD 
 TDLG.m                 957.50:  Tot Depth Loggd 
 TFF .                      No:  Trip for Fail 
 TQAA.f-kp               15.00:  Torque Abs Avg 
 TQAN.f-kp               12.00:  Torque Abs Min 
 TQAX.f-kp               19.00:  Torque Abs Max 
 TRRT.°/30m              -3.40:  Turn Rotating 
 MRT .                  EWR-M5:  Maximum Recorded Temperature 
 TTMX.degC              100.00:  Max Tool Temp 
 VS01.                90639251:  Virtual Str1 SN 
 VS02.                90634715:  Virtual Str2 SN 
 VS03.                90652479:  Virtual Str3 SN 
 VS04.                90642262:  Virtual Str4 SN 
 WBMN.klb                 0.00:  WOB Min 
 WITN.           Murad Guliyev:  Customer Rep 
 WITN.          Yashar Gaziyev:  Customer Rep 2 
 WOBA.klb                 9.00:  WOB Avg 
 WOBX.klb                12.00:  WOB Max 
 YP  .lhf2               30.00:  Yield Point 
~Curve Information Block
#MNEM.UNIT                 API CODE     Curve Description
#---------               -----------    ---------------------------
 TIME.HHMMSS            00 000 000 000:  GT Time & Date
 GTDEPTH.m              00 000 000 000:  GT Depth
 GTPQH.psia             00 000 000 000:  GT HR Quartz Pressure
 GTTQ.degC              00 000 000 000:  GT Quartz Temperature
 GTTN.NONE              00 000 000 000:  GT Test Number
 GTET.sec               00 000 000 000:  GT Elapsed Test Time
 GTTVD.m                00 000 000 000:  GT True Vertical Depth
#Other Information
#
#WARRANTY: Halliburton will use its best efforts to furnish customers with 
#accurate information and interpretations that are part of, and incident to, the services 
#provided.  However, Halliburton cannot and does not warrant the accuracy 
#or correctness of such information and interpretations.  Under no circumstances should any 
#such information or interpretation be relied upon as the sole basis for any drilling, 
#completion, production, or financial decision or any procedure involving any risk to the 
#safety of any drilling venture, drilling rig or its crew or any other third party.  The 
#Customer has full responsibility for all drilling, completion and production operation.  
#Halliburton makes no representations or warranties, either expressed or 
#implied, including, but not limited to, the implied warranties of merchantability or fitness 
#for a particular purpose, with respect to the services rendered.  In no event will 
#Halliburton be liable for failure to obtain any particular results or for 
#any damages, including, but not limited to, indirect, special or consequential damages, 
#resulting from the use of any information or interpretation provided by Halliburton.
#
~A           TIME           GTDEPTH  GTPQH  GTTQ  GTTN   GTET   GTTVD  
# ...
   12:27:33.070.27-Aug-2021 4914.80 7772.41 85.32 12.00 361.73 3262.04
   12:27:33.270.27-Aug-2021 4914.80 7771.74 85.32 12.00 361.93 3262.04
   12:27:33.470.27-Aug-2021 4914.80 7771.53 85.32 12.00 362.13 3262.04
   12:27:33.671.27-Aug-2021 4914.80 7771.53 85.32 12.00 362.33 3262.04
   12:27:33.871.27-Aug-2021 4914.80 7771.53 85.32 12.00 362.53 3262.04
   12:27:34.071.27-Aug-2021 4914.80 7771.69 85.32 12.00 362.73 3262.04
   12:27:34.271.27-Aug-2021 4914.80 7771.38 85.32 12.00 362.93 3262.04
   12:27:34.471.27-Aug-2021 4914.80 7771.56 85.32 12.00 363.13 3262.04
   12:27:34.671.27-Aug-2021 4914.80 7771.56 85.32 12.00 363.33 3262.04
   12:27:34.871.27-Aug-2021 4914.80 7772.04 85.32 12.00 363.53 3262.04
   12:27:35.071.27-Aug-2021 4914.80 7772.31 85.32 12.00 363.73 3262.04
   12:27:35.271.27-Aug-2021 4914.80 7772.17 85.32 12.00 363.93 3262.04
   12:27:35.471.27-Aug-2021 4914.80 7772.19 85.32 12.00 364.13 3262.04
   12:27:35.671.27-Aug-2021 4914.80 7772.19 85.32 12.00 364.33 3262.04
   12:27:35.871.27-Aug-2021 4914.80 7771.91 85.32 12.00 364.53 3262.04
   12:27:36.071.27-Aug-2021 4914.80 7773.36 85.32 12.00 364.73 3262.04
   12:27:36.271.27-Aug-2021 4914.80 7772.39 85.32 12.00 364.93 3262.04
   12:27:36.472.27-Aug-2021 4914.80 7772.55 85.32 12.00 365.13 3262.04
   12:27:36.672.27-Aug-2021 4914.80 7772.55 85.32 12.00 365.33 3262.04
   12:27:36.872.27-Aug-2021 4914.80 7771.91 85.32 12.00 365.53 3262.04
   12:27:37.072.27-Aug-2021 4914.80 7771.81 85.32 12.00 365.73 3262.04
   12:27:37.272.27-Aug-2021 4914.80 7772.05 85.32 12.00 365.93 3262.04
   12:27:37.472.27-Aug-2021 4914.80 7771.78 85.32 12.00 366.13 3262.04
   12:27:37.672.27-Aug-2021 4914.80 7771.78 85.32 12.00 366.33 3262.04
   12:27:37.872.27-Aug-2021 4914.80 7772.36 85.32 12.00 366.53 3262.04
   12:27:38.072.27-Aug-2021 4914.80 7772.49 85.32 12.00 366.73 3262.04
   12:27:38.272.27-Aug-2021 4914.80 7772.82 85.32 12.00 366.93 3262.04
   12:27:38.472.27-Aug-2021 4914.80 7772.75 85.32 12.00 367.13 3262.04
   12:27:38.672.27-Aug-2021 4914.80 7772.75 85.32 12.00 367.33 3262.04
   12:27:38.872.27-Aug-2021 4914.80 7772.60 85.32 12.00 367.53 3262.04
   12:27:39.072.27-Aug-2021 4914.80 7772.58 85.32 12.00 367.73 3262.04
   12:27:39.273.27-Aug-2021 4914.80 7772.40 85.32 12.00 367.93 3262.04
   12:27:39.473.27-Aug-2021 4914.80 7773.78 85.32 12.00 368.13 3262.04
   12:27:39.673.27-Aug-2021 4914.80 7773.78 85.32 12.00 368.33 3262.04
   12:27:39.873.27-Aug-2021 4914.80 7772.80 85.32 12.00 368.53 3262.04
   12:27:40.073.27-Aug-2021 4914.80 7772.54 85.32 12.00 368.73 3262.04
   12:27:40.273.27-Aug-2021 4914.80 7774.26 85.32 12.00 368.93 3262.04
   12:27:40.473.27-Aug-2021 4914.80 7771.81 85.32 12.00 369.13 3262.04
   12:27:40.673.27-Aug-2021 4914.80 7771.81 85.32 12.00 369.33 3262.04
   12:27:40.873.27-Aug-2021 4914.80 7772.39 85.32 12.00 369.53 3262.04
   12:27:41.073.27-Aug-2021 4914.80 7772.51 85.32 12.00 369.73 3262.04
   12:27:41.273.27-Aug-2021 4914.80 7772.77 85.32 12.00 369.93 3262.04
   12:27:41.473.27-Aug-2021 4914.80 7772.80 85.32 12.00 370.13 3262.04
   12:27:41.673.27-Aug-2021 4914.80 7772.80 85.32 12.00 370.33 3262.04
   12:27:41.873.27-Aug-2021 4914.80 7773.68 85.32 12.00 370.53 3262.04
   12:27:42.074.27-Aug-2021 4914.80 7773.72 85.32 12.00 370.73 3262.04
   12:27:42.274.27-Aug-2021 4914.80 7773.71 85.32 12.00 370.93 3262.04
   12:27:42.474.27-Aug-2021 4914.80 7773.48 85.32 12.00 371.13 3262.04
   12:27:42.674.27-Aug-2021 4914.80 7773.48 85.32 12.00 371.33 3262.04
   12:27:42.874.27-Aug-2021 4914.80 7773.47 85.32 12.00 371.53 3262.04
   12:27:43.074.27-Aug-2021 4914.80 7774.21 85.32 12.00 371.73 3262.04
   12:27:43.274.27-Aug-2021 4914.80 7773.66 85.32 12.00 371.93 3262.04
   12:27:43.474.27-Aug-2021 4914.80 7773.84 85.32 12.00 372.13 3262.04
   12:27:43.674.27-Aug-2021 4914.80 7773.84 85.32 12.00 372.33 3262.04
   12:27:43.874.27-Aug-2021 4914.80 7773.63 85.32 12.00 372.53 3262.04
   12:27:44.074.27-Aug-2021 4914.80 7773.67 85.32 12.00 372.73 3262.04
   12:27:44.274.27-Aug-2021 4914.80 7773.75 85.32 12.00 372.93 3262.04
   12:27:44.474.27-Aug-2021 4914.80 7773.37 85.32 12.00 373.13 3262.04
   12:27:44.674.27-Aug-2021 4914.80 7773.37 85.32 12.00 373.33 3262.04
   12:27:44.875.27-Aug-2021 4914.80 7773.85 85.32 12.00 373.53 3262.04
   12:27:45.075.27-Aug-2021 4914.80 7774.01 85.32 12.00 373.73 3262.04
   12:27:45.275.27-Aug-2021 4914.80 7773.97 85.32 12.00 373.93 3262.04
   12:27:45.475.27-Aug-2021 4914.80 7774.06 85.32 12.00 374.13 3262.04
   12:27:45.675.27-Aug-2021 4914.80 7774.06 85.32 12.00 374.33 3262.04
   12:27:45.875.27-Aug-2021 4914.80 7773.80 85.32 12.00 374.53 3262.04
   12:27:46.075.27-Aug-2021 4914.80 7773.77 85.32 12.00 374.73 3262.04
   12:27:46.275.27-Aug-2021 4914.80 7775.67 85.32 12.00 374.93 3262.04
   12:27:46.475.27-Aug-2021 4914.80 7773.08 85.32 12.00 375.13 3262.04
   12:27:46.675.27-Aug-2021 4914.80 7773.08 85.32 12.00 375.33 3262.04
   12:27:46.875.27-Aug-2021 4914.80 7773.78 85.32 12.00 375.53 3262.04
   12:27:47.075.27-Aug-2021 4914.80 7773.44 85.32 12.00 375.73 3262.04
   12:27:47.275.27-Aug-2021 4914.80 7773.62 85.32 12.00 375.93 3262.04
   12:27:47.475.27-Aug-2021 4914.80 7773.48 85.32 12.00 376.13 3262.04
   12:27:47.676.27-Aug-2021 4914.80 7773.48 85.32 12.00 376.33 3262.04
   12:27:47.876.27-Aug-2021 4914.80 7773.66 85.32 12.00 376.53 3262.04
   12:27:48.076.27-Aug-2021 4914.80 7773.75 85.32 12.00 376.73 3262.04
   12:27:48.276.27-Aug-2021 4914.80 7774.18 85.32 12.00 376.93 3262.04
   12:27:48.476.27-Aug-2021 4914.80 7774.21 85.32 12.00 377.13 3262.04
   12:27:48.676.27-Aug-2021 4914.80 7774.21 85.32 12.00 377.33 3262.04
   12:27:48.876.27-Aug-2021 4914.80 7774.33 85.32 12.00 377.53 3262.04
   12:27:49.076.27-Aug-2021 4914.80 7774.30 85.32 12.00 377.73 3262.04
   12:27:49.276.27-Aug-2021 4914.80 7774.15 85.32 12.00 377.93 3262.04
   12:27:49.476.27-Aug-2021 4914.80 7774.08 85.32 12.00 378.13 3262.04
   12:27:49.676.27-Aug-2021 4914.80 7774.08 85.32 12.00 378.33 3262.04
   12:27:49.876.27-Aug-2021 4914.80 7773.26 85.32 12.00 378.53 3262.04
   12:27:50.076.27-Aug-2021 4914.80 7775.08 85.32 12.00 378.73 3262.04
   12:27:50.276.27-Aug-2021 4914.80 7774.07 85.32 12.00 378.93 3262.04
   12:27:50.477.27-Aug-2021 4914.80 7788.29 85.32 12.00 379.13 3262.04
   12:27:50.677.27-Aug-2021 4914.80 7788.29 85.32 12.00 379.33 3262.04
   12:27:50.877.27-Aug-2021 4914.80 7812.24 85.32 12.00 379.53 3262.04
   12:27:51.077.27-Aug-2021 4914.80 7840.50 85.32 12.00 379.73 3262.04
   12:27:51.277.27-Aug-2021 4914.80 7804.42 85.32 12.00 379.93 3262.04
   12:27:51.477.27-Aug-2021 4914.80 7804.66 85.32 12.00 380.13 3262.04
   12:27:51.677.27-Aug-2021 4914.80 7804.66 85.32 12.00 380.33 3262.04
   12:27:51.877.27-Aug-2021 4914.80 7811.09 85.32 12.00 380.54 3262.04
   12:27:52.077.27-Aug-2021 4914.80 7801.50 85.32 12.00 380.74 3262.04
   12:27:52.277.27-Aug-2021 4914.80 7806.29 85.32 12.00 380.94 3262.04
   12:27:52.477.27-Aug-2021 4914.80 7805.21 85.32 12.00 381.14 3262.04
   12:27:52.677.27-Aug-2021 4914.80 7805.21 85.32 12.00 381.34 3262.04
   12:27:52.877.27-Aug-2021 4914.80 7804.86 85.32 12.00 381.54 3262.04
   12:27:53.077.27-Aug-2021 4914.80 7804.19 85.32 12.00 381.74 3262.04
   12:27:53.278.27-Aug-2021 4914.80 7810.70 85.32 12.00 381.94 3262.04
   12:27:53.478.27-Aug-2021 4914.80 7800.73 85.32 12.00 382.14 3262.04
   12:27:53.678.27-Aug-2021 4914.80 7800.73 85.32 12.00 382.34 3262.04
   12:27:53.878.27-Aug-2021 4914.80 7804.74 85.32 12.00 382.54 3262.04
   12:27:54.078.27-Aug-2021 4914.80 7804.64 85.32 12.00 382.74 3262.04
   12:27:54.278.27-Aug-2021 4914.80 7804.72 85.32 12.00 382.94 3262.04
   12:27:54.478.27-Aug-2021 4914.80 7804.23 85.32 12.00 383.14 3262.04
   12:27:54.678.27-Aug-2021 4914.80 7804.23 85.32 12.00 383.34 3262.04
   12:27:54.878.27-Aug-2021 4914.80 7803.82 85.32 12.00 383.54 3262.04
   12:27:55.078.27-Aug-2021 4914.80 7803.90 85.32 12.00 383.74 3262.04
   12:27:55.278.27-Aug-2021 4914.80 7804.47 85.32 12.00 383.94 3262.04
   12:27:55.478.27-Aug-2021 4914.80 7804.76 85.32 12.00 384.14 3262.04
