~Version Information
 VERS.                  2.0:   CWLS log ASCII Standard -VERSION 2.0
 WRAP.                   NO:   One line per depth step
~Well Information Block
#MNEM.UNIT     VALUE/NAME     DESCRIPTION
#---------     -----------    ---------------------------
 STRT.S             13:07:39 27-Aug-21: START TIME 13:07:39 27-Aug-21
 STOP.S             13:14:54 27-Aug-21: STOP TIME  13:14:54 27-Aug-21
 STEP.S                   0.00: STEP TIME
 NULL.                 -999.25: NULL VALUE
 DFWT.                        :  DIST FWL TEXT
 DFST.                        :  DIST FSL TEXT
 DMF .             Drill Floor:  DRILL MEAS FROM
 STIM.      20.00.00 17-Aug-21:  START TIME
 DATE.      19.00.00 29-Aug-21:  END TIME
 SPUD.               15-Aug-21:  SPUD DATE
 NREF.                    Grid:  NORTH REFERENCE
 HPTY.       Minimum Curvature:  HOLE POS TYPE
 DMOD.             Drill Model:  DRILL MOD DESC
 SVYD.                  Survey:  SURVEY DESC
 ILTD.               Lithology:  INTERP LTH DESC
 FTOP.          Formation Tops:  FORM TOPS DESC
 RIG .              East Azeri:  RIG NAME
 PDAT.          Mean Sea Level:  PERMANENT DATUM
 FLD .                     ACG:  FIELD NAME
 SON .        AZ-XX-0907180857:  JOB NUMBER
 CTRY.              Azerbaijan:  COUNTRY NAME
 WELL.                    D23x:  WELL NAME
 SRVC.     Turan Drilling and Engineering:  CONTRACTOR
 COMP.     BP Exploration (Caspian Sea) Ltd.:  COMPANY
 UWI .            /AZE00000214:  UNIQUE WELL IDENTIFIER
 API .            /AZE00000214:  API NUMBER
 MDS .        Operator Entered:  MAG DATA SOURCE
 BASE.              Azerbaijan:  LOGGING EQUIPMENT BASE LOCATION
 REGN.                   EESSA:  REGION
 PROV.                    Baku:  PROVINCE
 STAT.                    Baku:  STATE NAME
 MWDS.                    Baku:  MWD SHOP
 DOE .                     N/A:  DOE NUMBER
 DCON.         Sperry Drilling:  DIRECTNL CONTR
 UNIT.                     N/A:  LOGGING EQUIPMENT ID
 WTYP.                Deviated:  WELL TYPE
 CNTY.                        :  COUNTY
 LOC .                        :  LOCATION
 LMF .             Drill Floor:  LOG MEASURED FROM
 TVDS.m                  43.60:  TVDSS CORRECTN
 LATI.deg                40.02:  LATITUDE
 LONG.deg                51.45:  LONGITUDE
 WHNS.m                  -7.04:  WELL HEAD N/S
 WHEW.m                  -0.67:  WELL HEAD E/W
 UTMX.m              538762.90:  UTM X
 UTMY.m             4431871.34:  UTM Y
 DFWL.m                   0.00:  DISTANCE FWL
 DFSL.m                   0.00:  DISTANCE FSL
 SDEP.m                4127.00:  START DEPTH
 TDD .m                5084.50:  TOTAL DEPTH (DRILLER)
 VSDR.deg               140.47:  VERT SEC DIRECT
 GVFD.g                   1.00:  GRAVITY FIELD
 MFLD.nT              50362.00:  MAGNETIC FIELD
 MDIP.deg                59.48:  MAGNETIC DIP
 MDEC.deg                 6.47:  MAGNETIC DECL
 GRDC.deg                 0.31:  GRID CORRECTION
 AZTC.deg                 6.16:  AZM TOTAL CORR
 EPD .m                   0.00:  ELEVATION
 EGL .m                   0.00:  GROUND ELEVATION
 WDMS.m                 151.80:  WD ELEV
 APD .m                  43.60:  DEPTH ABOVE PD
 DEP .m                4092.57:  DEPTH
 AGAP.m                  43.60:  AIR GAP
 VSEW.m                  -0.67:  VERT SEC E/W
 VSNS.m                  -7.04:  VERT SEC N/S
 EKB .m                  43.60:  KB ELEVATION
 EDF .m                  43.60:  DF ELEVATION
 TDL .m                 957.50:  TOTAL DEPTH (LOGGER)
 VSC .                       0:  VS TO CLOSURE
 MAGU.                 1851413:  MAGUTM CHECKSUM
~Parameter Information Block
#MNEM.UNIT       Value        Description
#---------     -----------    ---------------------------
 AV  .mps                 1.50:  Ann Velocity 
 AVMX.mps                 2.00:  Max Ann Veloc 
 AZIF.deg               184.66:  Azm, Final 
 BHAT.        Rotary Steerable:  BHA Type 
 BREV.rev               300.00:  Rev Bit Total 
 BROT.°/30m              -0.50:  Build Rotating 
 BS  .in                  8.50:  Bit Size 
 BSZ .in                  8.50:  Bit Size 
 BTPL.psig              370.00:  Bit Press Loss 
 CABU.                      No:  Customer Abuse 
 CGEO.      Behruz Shahbaliyev:  Customer Geo 
 COMM.                     ¤R:  Run Comments 1 
 TCS .hr                140.08:  Time Ciculation Ended 
 CV  .mps                 3.00:  Crit Velocity 
 CVMX.mps                 3.20:  Max Crit Veloc 
 DD1 .            Musa Ahmadov:  Direct Drillr 1 
 DD2 .           Hamid Ahmadov:  Direct Drillr 2 
 DDSV.               Geo-Pilot:  DD Service 
 DEFF.%                  98.40:  % Det Eff 
 DLRX.°/30m               3.40:  Dogleg Rot Max 
 DLSO.°/30m               1.45:  Dogleg Oriented 
 DLSX.°/30m               3.40:  Dogleg Str Max 
 DRET.      18.40.00 29-Aug-21:  Drill End Time 
 DRST.      21.00.00 20-Aug-21:  Drill Start Tim 
 DTIM.hr                 69.47:  Time Drilling 
 EDEP.m                5084.50:  End Depth 
 ENG1.      Artemiy Matviyanov:  Engineer 1 
 ENG2.         Almaz Almadatov:  Engineer 2 
 ETIM.      18.40.00 29-Aug-21:  End Time 
 FLOI.gpm               500.00:  Flow In 
 FLON.gpm               400.00:  Flow In Min 
 FLOS.cptm                0.00:  Fluid Loss 
 FLOX.gpm               500.00:  Flow In Max 
 DFT .        Mineral Oil Base:  Mud Type 
 HFLO.                      No:  High Flow 
 HPRE.                      No:  High Pressure 
 HTEM.                      No:  High Temp 
 HYDO.m                   1.80:  Hydro Offset 
 IFIN.deg                25.62:  Inc, Final 
 IMAX.deg                48.69:  Inc Max 
 IMIN.deg                24.01:  Inc Min 
 IMND.m                4962.57:  Inc Min Depth 
 IMXD.m                4119.01:  Inc Max Depth 
 JARR.                      No:  Jarring 
 LETM.      18.40.00 29-Aug-21:  Log End Time 
 LOST.hr                     0:  Lost Rig Time 
 LSTM.      21.00.00 20-Aug-21:  Log Start Time 
 MDCL.ppm             41500.00:  Mud Chlorides 
 MDES.     Inversion Oil/Synthetic:  Mud Desc 
 DFD .sg                  1.56:  Mud Density 
 MDMN.sg                  1.56:  Dens Mud Min 
 MDMX.sg                  1.56:  Dens Mud Max 
 MOIL.                      70:  Run Mud Oil % 
 MOWR.                   70:30:  Run Mud OWR 
 MSND.                     0.2:  Run Mud Sand % 
 MSOL.                    23.3:  Run Mud Solids% 
 DFV .spqt               78.00:  Mud Viscosity 
 MWOD.in                  6.75:  MWD Tool OD 
 MWSI.                      No:  Serv Intrp, MWD 
 OTIM.hr                218.30:  Time Operating 
 PCON.           Look Like New:  Pad Condition 
 PMAX.psia            11015.30:  Press Op, Max 
 PV  .cP                 38.00:  Mud PV 
 RUN .                     300:  Run Number 
 ROPA.m/hr               15.00:  ROP Avg 
 ROPN.m/hr                9.00:  ROP Min 
 ROPX.m/hr               17.00:  ROP Max 
 RPMA.rpm               120.00:  RPM Surface Avg 
 RPMN.rpm                90.00:  RPM Surface Min 
 RPMX.rpm               140.00:  RPM Surface Max 
 RRUN.                     300:  Rig Run Number 
 RTIM.hr                 31.53:  Time Reaming 
 SAZI.deg               331.64:  Azm, Start 
 SDEP.m                4127.00:  Start Depth 
 SIDD.                      No:  Serv Intrp, DD 
 SINC.deg                48.43:  Inc, Start 
 SPPA.psig             5830.00:  SPP Avg 
 SPPN.psig             5600.00:  SPP Min 
 SPPX.psig             5900.00:  SPP Max 
 STIM.      21.00.00 20-Aug-21:  Start Time 
 SVCS.                 DD, MWD:  Services 
 SVER.                    9.20:  Sperry Version 
 TDAT.m                 957.50:  Tot Depth Attmp 
 TDDF.                      No:  Trip for DD 
 TDLG.m                 957.50:  Tot Depth Loggd 
 TFF .                      No:  Trip for Fail 
 TQAA.f-kp               15.00:  Torque Abs Avg 
 TQAN.f-kp               12.00:  Torque Abs Min 
 TQAX.f-kp               19.00:  Torque Abs Max 
 TRRT.°/30m              -3.40:  Turn Rotating 
 MRT .                  EWR-M5:  Maximum Recorded Temperature 
 TTMX.degC              100.00:  Max Tool Temp 
 VS01.                90639251:  Virtual Str1 SN 
 VS02.                90634715:  Virtual Str2 SN 
 VS03.                90652479:  Virtual Str3 SN 
 VS04.                90642262:  Virtual Str4 SN 
 WBMN.klb                 0.00:  WOB Min 
 WITN.           Murad Guliyev:  Customer Rep 
 WITN.          Yashar Gaziyev:  Customer Rep 2 
 WOBA.klb                 9.00:  WOB Avg 
 WOBX.klb                12.00:  WOB Max 
 YP  .lhf2               30.00:  Yield Point 
~Curve Information Block
#MNEM.UNIT                 API CODE     Curve Description
#---------               -----------    ---------------------------
 TIME.HHMMSS            00 000 000 000:  GT Time & Date
 GTDEPTH.m              00 000 000 000:  GT Depth
 GTPQH.psia             00 000 000 000:  GT HR Quartz Pressure
 GTTQ.degC              00 000 000 000:  GT Quartz Temperature
 GTTN.NONE              00 000 000 000:  GT Test Number
 GTET.sec               00 000 000 000:  GT Elapsed Test Time
 GTTVD.m                00 000 000 000:  GT True Vertical Depth
#Other Information
#
#WARRANTY: Halliburton will use its best efforts to furnish customers with 
#accurate information and interpretations that are part of, and incident to, the services 
#provided.  However, Halliburton cannot and does not warrant the accuracy 
#or correctness of such information and interpretations.  Under no circumstances should any 
#such information or interpretation be relied upon as the sole basis for any drilling, 
#completion, production, or financial decision or any procedure involving any risk to the 
#safety of any drilling venture, drilling rig or its crew or any other third party.  The 
#Customer has full responsibility for all drilling, completion and production operation.  
#Halliburton makes no representations or warranties, either expressed or 
#implied, including, but not limited to, the implied warranties of merchantability or fitness 
#for a particular purpose, with respect to the services rendered.  In no event will 
#Halliburton be liable for failure to obtain any particular results or for 
#any damages, including, but not limited to, indirect, special or consequential damages, 
#resulting from the use of any information or interpretation provided by Halliburton.
#
~A           TIME           GTDEPTH  GTPQH  GTTQ  GTTN   GTET   GTTVD  
# ...
   13:14:27.145.27-Aug-2021 4901.50 7767.67 84.95 13.00 407.21 3249.95
   13:14:27.345.27-Aug-2021 4901.50 7767.49 84.95 13.00 407.41 3249.95
   13:14:27.545.27-Aug-2021 4901.50 7767.49 84.95 13.00 407.61 3249.95
   13:14:27.746.27-Aug-2021 4901.50 7767.75 84.95 13.00 407.81 3249.95
   13:14:27.946.27-Aug-2021 4901.50 7768.40 84.95 13.00 408.01 3249.95
   13:14:28.146.27-Aug-2021 4901.50 7770.44 84.95 13.00 408.22 3249.95
   13:14:28.346.27-Aug-2021 4901.50 7767.31 84.95 13.00 408.42 3249.95
   13:14:28.546.27-Aug-2021 4901.50 7767.31 84.95 13.00 408.62 3249.95
   13:14:28.747.27-Aug-2021 4901.50 7767.67 84.95 13.00 408.82 3249.95
   13:14:28.947.27-Aug-2021 4901.50 7766.75 84.95 13.00 409.02 3249.95
   13:14:29.147.27-Aug-2021 4901.50 7766.92 84.95 13.00 409.22 3249.95
   13:14:29.347.27-Aug-2021 4901.50 7767.35 84.95 13.00 409.42 3249.95
   13:14:29.548.27-Aug-2021 4901.50 7767.35 84.95 13.00 409.62 3249.95
   13:14:29.748.27-Aug-2021 4901.50 7771.17 84.95 13.00 409.82 3249.95
   13:14:29.948.27-Aug-2021 4901.50 7768.62 84.95 13.00 410.02 3249.95
   13:14:30.148.27-Aug-2021 4901.50 7769.50 84.95 13.00 410.22 3249.95
   13:14:30.348.27-Aug-2021 4901.50 7768.48 84.95 13.00 410.42 3249.95
   13:14:30.549.27-Aug-2021 4901.50 7768.48 84.95 13.00 410.62 3249.95
   13:14:30.749.27-Aug-2021 4901.50 7768.29 84.95 13.00 410.82 3249.95
   13:14:30.949.27-Aug-2021 4901.50 7768.97 84.95 13.00 411.02 3249.95
   13:14:31.149.27-Aug-2021 4901.50 7767.14 84.95 13.00 411.22 3249.95
   13:14:31.349.27-Aug-2021 4901.50 7767.01 84.95 13.00 411.42 3249.95
   13:14:31.550.27-Aug-2021 4901.50 7767.01 84.95 13.00 411.62 3249.95
   13:14:31.750.27-Aug-2021 4901.50 7767.54 84.95 13.00 411.82 3249.95
   13:14:31.950.27-Aug-2021 4901.50 7767.33 84.95 13.00 412.02 3249.95
   13:14:32.150.27-Aug-2021 4901.50 7767.80 84.95 13.00 412.22 3249.95
   13:14:32.350.27-Aug-2021 4901.50 7768.35 84.95 13.00 412.42 3249.95
   13:14:32.551.27-Aug-2021 4901.50 7768.35 84.95 13.00 412.62 3249.95
   13:14:32.751.27-Aug-2021 4901.50 7768.82 84.95 13.00 412.82 3249.95
   13:14:32.951.27-Aug-2021 4901.50 7768.73 84.95 13.00 413.02 3249.95
   13:14:33.151.27-Aug-2021 4901.50 7768.56 84.95 13.00 413.22 3249.95
   13:14:33.351.27-Aug-2021 4901.50 7768.35 84.95 13.00 413.42 3249.95
   13:14:33.552.27-Aug-2021 4901.50 7768.35 84.95 13.00 413.62 3249.95
   13:14:33.752.27-Aug-2021 4901.50 7772.22 84.95 13.00 413.82 3249.95
   13:14:33.952.27-Aug-2021 4901.50 7766.62 84.95 13.00 414.02 3249.95
   13:14:34.152.27-Aug-2021 4901.50 7769.00 84.95 13.00 414.22 3249.95
   13:14:34.352.27-Aug-2021 4901.50 7767.95 84.94 13.00 414.42 3249.95
   13:14:34.553.27-Aug-2021 4901.50 7767.95 84.94 13.00 414.62 3249.95
   13:14:34.753.27-Aug-2021 4901.50 7767.39 84.94 13.00 414.82 3249.95
   13:14:34.953.27-Aug-2021 4901.50 7767.09 84.94 13.00 415.02 3249.95
   13:14:35.153.27-Aug-2021 4901.50 7767.13 84.94 13.00 415.22 3249.95
   13:14:35.353.27-Aug-2021 4901.50 7767.38 84.94 13.00 415.42 3249.95
   13:14:35.554.27-Aug-2021 4901.50 7767.38 84.94 13.00 415.62 3249.95
   13:14:35.754.27-Aug-2021 4901.50 7768.11 84.94 13.00 415.82 3249.95
   13:14:35.954.27-Aug-2021 4901.50 7768.34 84.94 13.00 416.02 3249.95
   13:14:36.154.27-Aug-2021 4901.50 7768.38 84.94 13.00 416.22 3249.95
   13:14:36.354.27-Aug-2021 4901.50 7768.24 84.94 13.00 416.42 3249.95
   13:14:36.555.27-Aug-2021 4901.50 7768.24 84.94 13.00 416.62 3249.95
   13:14:36.755.27-Aug-2021 4901.50 7768.03 84.94 13.00 416.82 3249.95
   13:14:36.955.27-Aug-2021 4901.50 7767.97 84.94 13.00 417.02 3249.95
   13:14:37.155.27-Aug-2021 4901.50 7772.23 84.94 13.00 417.22 3249.95
   13:14:37.355.27-Aug-2021 4901.50 7766.56 84.94 13.00 417.42 3249.95
   13:14:37.556.27-Aug-2021 4901.50 7766.56 84.94 13.00 417.62 3249.95
   13:14:37.756.27-Aug-2021 4901.50 7767.99 84.94 13.00 417.82 3249.95
   13:14:37.956.27-Aug-2021 4901.50 7770.45 84.94 13.00 418.03 3249.95
   13:14:38.156.27-Aug-2021 4901.50 7767.95 84.94 13.00 418.23 3249.95
   13:14:38.356.27-Aug-2021 4901.50 7768.30 84.94 13.00 418.43 3249.95
   13:14:38.557.27-Aug-2021 4901.50 7768.30 84.94 13.00 418.63 3249.95
   13:14:38.757.27-Aug-2021 4901.50 7766.98 84.94 13.00 418.83 3249.95
   13:14:38.957.27-Aug-2021 4901.50 7767.06 84.94 13.00 419.03 3249.95
   13:14:39.157.27-Aug-2021 4901.50 7767.60 84.94 13.00 419.23 3249.95
   13:14:39.357.27-Aug-2021 4901.50 7771.63 84.94 13.00 419.43 3249.95
   13:14:39.558.27-Aug-2021 4901.50 7771.63 84.94 13.00 419.63 3249.95
   13:14:39.758.27-Aug-2021 4901.50 7769.71 84.94 13.00 419.83 3249.95
   13:14:39.958.27-Aug-2021 4901.50 7768.73 84.94 13.00 420.03 3249.95
   13:14:40.158.27-Aug-2021 4901.50 7772.78 84.94 13.00 420.23 3249.95
   13:14:40.359.27-Aug-2021 4901.50 7766.93 84.94 13.00 420.43 3249.95
   13:14:40.559.27-Aug-2021 4901.50 7766.93 84.94 13.00 420.63 3249.95
   13:14:40.759.27-Aug-2021 4901.50 7767.61 84.94 13.00 420.83 3249.95
   13:14:40.959.27-Aug-2021 4901.50 7767.19 84.94 13.00 421.03 3249.95
   13:14:41.159.27-Aug-2021 4901.50 7767.21 84.94 13.00 421.23 3249.95
   13:14:41.360.27-Aug-2021 4901.50 7767.08 84.94 13.00 421.43 3249.95
   13:14:41.560.27-Aug-2021 4901.50 7767.08 84.94 13.00 421.63 3249.95
   13:14:41.760.27-Aug-2021 4901.50 7767.56 84.94 13.00 421.83 3249.95
   13:14:41.960.27-Aug-2021 4901.50 7767.79 84.94 13.00 422.03 3249.95
   13:14:42.160.27-Aug-2021 4901.50 7768.23 84.94 13.00 422.23 3249.95
   13:14:42.361.27-Aug-2021 4901.50 7768.54 84.94 13.00 422.43 3249.95
   13:14:42.561.27-Aug-2021 4901.50 7768.54 84.94 13.00 422.63 3249.95
   13:14:42.761.27-Aug-2021 4901.50 7768.47 84.94 13.00 422.83 3249.95
   13:14:42.961.27-Aug-2021 4901.50 7768.12 84.94 13.00 423.03 3249.95
   13:14:43.161.27-Aug-2021 4901.50 7767.99 84.94 13.00 423.23 3249.95
   13:14:43.362.27-Aug-2021 4901.50 7773.64 84.94 13.00 423.43 3249.95
   13:14:43.562.27-Aug-2021 4901.50 7773.64 84.94 13.00 423.63 3249.95
   13:14:43.762.27-Aug-2021 4901.50 7768.95 84.94 13.00 423.83 3249.95
   13:14:43.962.27-Aug-2021 4901.50 7767.53 84.94 13.00 424.03 3249.95
   13:14:44.162.27-Aug-2021 4901.50 7767.19 84.94 13.00 424.23 3249.95
   13:14:44.363.27-Aug-2021 4901.50 7767.16 84.94 13.00 424.43 3249.95
   13:14:44.563.27-Aug-2021 4901.50 7767.16 84.94 13.00 424.63 3249.95
   13:14:44.763.27-Aug-2021 4901.50 7767.15 84.93 13.00 424.83 3249.95
   13:14:44.963.27-Aug-2021 4901.50 7767.17 84.93 13.00 425.03 3249.95
   13:14:45.163.27-Aug-2021 4901.50 7767.44 84.93 13.00 425.23 3249.95
   13:14:45.364.27-Aug-2021 4901.50 7768.06 84.93 13.00 425.43 3249.95
   13:14:45.564.27-Aug-2021 4901.50 7768.06 84.93 13.00 425.63 3249.95
   13:14:45.764.27-Aug-2021 4901.50 7768.51 84.93 13.00 425.83 3249.95
   13:14:45.964.27-Aug-2021 4901.50 7768.26 84.93 13.00 426.03 3249.95
   13:14:46.164.27-Aug-2021 4901.50 7768.25 84.93 13.00 426.23 3249.95
   13:14:46.365.27-Aug-2021 4901.50 7768.00 84.93 13.00 426.43 3249.95
   13:14:46.565.27-Aug-2021 4901.50 7768.00 84.93 13.00 426.63 3249.95
   13:14:46.765.27-Aug-2021 4901.50 7773.57 84.93 13.00 426.83 3249.95
   13:14:46.965.27-Aug-2021 4901.50 7764.63 84.93 13.00 427.03 3249.95
   13:14:47.165.27-Aug-2021 4901.50 7769.03 84.93 13.00 427.23 3249.95
   13:14:47.366.27-Aug-2021 4901.50 7767.46 84.93 13.00 427.43 3249.95
   13:14:47.566.27-Aug-2021 4901.50 7767.46 84.93 13.00 427.63 3249.95
   13:14:47.766.27-Aug-2021 4901.50 7764.35 84.93 13.00 427.84 3249.95
   13:14:47.966.27-Aug-2021 4901.50 7768.36 84.93 13.00 428.04 3249.95
   13:14:48.166.27-Aug-2021 4901.50 7767.14 84.93 13.00 428.24 3249.95
   13:14:48.367.27-Aug-2021 4901.50 7767.04 84.93 13.00 428.44 3249.95
   13:14:48.567.27-Aug-2021 4901.50 7767.04 84.93 13.00 428.64 3249.95
   13:14:48.767.27-Aug-2021 4901.50 7767.02 84.93 13.00 428.84 3249.95
   13:14:48.967.27-Aug-2021 4901.50 7770.75 84.93 13.00 429.04 3249.95
   13:14:49.167.27-Aug-2021 4901.50 7768.28 84.93 13.00 429.24 3249.95
   13:14:49.368.27-Aug-2021 4901.50 7769.11 84.93 13.00 429.44 3249.95
   13:14:49.568.27-Aug-2021 4901.50 7769.11 84.93 13.00 429.64 3249.95
