~Version Information
 VERS.                  2.0:   CWLS log ASCII Standard -VERSION 2.0
 WRAP.                   NO:   One line per depth step
~Well Information Block
#MNEM.UNIT     VALUE/NAME     DESCRIPTION
#---------     -----------    ---------------------------
 STRT.S             07:19:48 27-Aug-21: START TIME 07:19:48 27-Aug-21
 STOP.S             07:26:57 27-Aug-21: STOP TIME  07:26:57 27-Aug-21
 STEP.S                   0.00: STEP TIME
 NULL.                 -999.25: NULL VALUE
 DFWT.                        :  DIST FWL TEXT
 DFST.                        :  DIST FSL TEXT
 DMF .             Drill Floor:  DRILL MEAS FROM
 STIM.      20.00.00 17-Aug-21:  START TIME
 DATE.      19.00.00 29-Aug-21:  END TIME
 SPUD.               15-Aug-21:  SPUD DATE
 NREF.                    Grid:  NORTH REFERENCE
 HPTY.       Minimum Curvature:  HOLE POS TYPE
 DMOD.             Drill Model:  DRILL MOD DESC
 SVYD.                  Survey:  SURVEY DESC
 ILTD.               Lithology:  INTERP LTH DESC
 FTOP.          Formation Tops:  FORM TOPS DESC
 RIG .              East Azeri:  RIG NAME
 PDAT.          Mean Sea Level:  PERMANENT DATUM
 FLD .                     ACG:  FIELD NAME
 SON .        AZ-XX-0907180857:  JOB NUMBER
 CTRY.              Azerbaijan:  COUNTRY NAME
 WELL.                    D23x:  WELL NAME
 SRVC.     Turan Drilling and Engineering:  CONTRACTOR
 COMP.     BP Exploration (Caspian Sea) Ltd.:  COMPANY
 UWI .            /AZE00000214:  UNIQUE WELL IDENTIFIER
 API .            /AZE00000214:  API NUMBER
 MDS .        Operator Entered:  MAG DATA SOURCE
 BASE.              Azerbaijan:  LOGGING EQUIPMENT BASE LOCATION
 REGN.                   EESSA:  REGION
 PROV.                    Baku:  PROVINCE
 STAT.                    Baku:  STATE NAME
 MWDS.                    Baku:  MWD SHOP
 DOE .                     N/A:  DOE NUMBER
 DCON.         Sperry Drilling:  DIRECTNL CONTR
 UNIT.                     N/A:  LOGGING EQUIPMENT ID
 WTYP.                Deviated:  WELL TYPE
 CNTY.                        :  COUNTY
 LOC .                        :  LOCATION
 LMF .             Drill Floor:  LOG MEASURED FROM
 TVDS.m                  43.60:  TVDSS CORRECTN
 LATI.deg                40.02:  LATITUDE
 LONG.deg                51.45:  LONGITUDE
 WHNS.m                  -7.04:  WELL HEAD N/S
 WHEW.m                  -0.67:  WELL HEAD E/W
 UTMX.m              538762.90:  UTM X
 UTMY.m             4431871.34:  UTM Y
 DFWL.m                   0.00:  DISTANCE FWL
 DFSL.m                   0.00:  DISTANCE FSL
 SDEP.m                4127.00:  START DEPTH
 TDD .m                5084.50:  TOTAL DEPTH (DRILLER)
 VSDR.deg               140.47:  VERT SEC DIRECT
 GVFD.g                   1.00:  GRAVITY FIELD
 MFLD.nT              50362.00:  MAGNETIC FIELD
 MDIP.deg                59.48:  MAGNETIC DIP
 MDEC.deg                 6.47:  MAGNETIC DECL
 GRDC.deg                 0.31:  GRID CORRECTION
 AZTC.deg                 6.16:  AZM TOTAL CORR
 EPD .m                   0.00:  ELEVATION
 EGL .m                   0.00:  GROUND ELEVATION
 WDMS.m                 151.80:  WD ELEV
 APD .m                  43.60:  DEPTH ABOVE PD
 DEP .m                4092.57:  DEPTH
 AGAP.m                  43.60:  AIR GAP
 VSEW.m                  -0.67:  VERT SEC E/W
 VSNS.m                  -7.04:  VERT SEC N/S
 EKB .m                  43.60:  KB ELEVATION
 EDF .m                  43.60:  DF ELEVATION
 TDL .m                 957.50:  TOTAL DEPTH (LOGGER)
 VSC .                       0:  VS TO CLOSURE
 MAGU.                 1851413:  MAGUTM CHECKSUM
~Parameter Information Block
#MNEM.UNIT       Value        Description
#---------     -----------    ---------------------------
 AV  .mps                 1.50:  Ann Velocity 
 AVMX.mps                 2.00:  Max Ann Veloc 
 AZIF.deg               184.66:  Azm, Final 
 BHAT.        Rotary Steerable:  BHA Type 
 BREV.rev               300.00:  Rev Bit Total 
 BROT.°/30m              -0.50:  Build Rotating 
 BS  .in                  8.50:  Bit Size 
 BSZ .in                  8.50:  Bit Size 
 BTPL.psig              370.00:  Bit Press Loss 
 CABU.                      No:  Customer Abuse 
 CGEO.      Behruz Shahbaliyev:  Customer Geo 
 COMM.                     Ô‘[:  Run Comments 1 
 TCS .hr                140.08:  Time Ciculation Ended 
 CV  .mps                 3.00:  Crit Velocity 
 CVMX.mps                 3.20:  Max Crit Veloc 
 DD1 .            Musa Ahmadov:  Direct Drillr 1 
 DD2 .           Hamid Ahmadov:  Direct Drillr 2 
 DDSV.               Geo-Pilot:  DD Service 
 DEFF.%                  98.40:  % Det Eff 
 DLRX.°/30m               3.40:  Dogleg Rot Max 
 DLSO.°/30m               1.45:  Dogleg Oriented 
 DLSX.°/30m               3.40:  Dogleg Str Max 
 DRET.      18.40.00 29-Aug-21:  Drill End Time 
 DRST.      21.00.00 20-Aug-21:  Drill Start Tim 
 DTIM.hr                 69.47:  Time Drilling 
 EDEP.m                5084.50:  End Depth 
 ENG1.      Artemiy Matviyanov:  Engineer 1 
 ENG2.         Almaz Almadatov:  Engineer 2 
 ETIM.      18.40.00 29-Aug-21:  End Time 
 FLOI.gpm               500.00:  Flow In 
 FLON.gpm               400.00:  Flow In Min 
 FLOS.cptm                0.00:  Fluid Loss 
 FLOX.gpm               500.00:  Flow In Max 
 DFT .        Mineral Oil Base:  Mud Type 
 HFLO.                      No:  High Flow 
 HPRE.                      No:  High Pressure 
 HTEM.                      No:  High Temp 
 HYDO.m                   1.80:  Hydro Offset 
 IFIN.deg                25.62:  Inc, Final 
 IMAX.deg                48.69:  Inc Max 
 IMIN.deg                24.01:  Inc Min 
 IMND.m                4962.57:  Inc Min Depth 
 IMXD.m                4119.01:  Inc Max Depth 
 JARR.                      No:  Jarring 
 LETM.      18.40.00 29-Aug-21:  Log End Time 
 LOST.hr                     0:  Lost Rig Time 
 LSTM.      21.00.00 20-Aug-21:  Log Start Time 
 MDCL.ppm             41500.00:  Mud Chlorides 
 MDES.     Inversion Oil/Synthetic:  Mud Desc 
 DFD .sg                  1.56:  Mud Density 
 MDMN.sg                  1.56:  Dens Mud Min 
 MDMX.sg                  1.56:  Dens Mud Max 
 MOIL.                      70:  Run Mud Oil % 
 MOWR.                   70:30:  Run Mud OWR 
 MSND.                     0.2:  Run Mud Sand % 
 MSOL.                    23.3:  Run Mud Solids% 
 DFV .spqt               78.00:  Mud Viscosity 
 MWOD.in                  6.75:  MWD Tool OD 
 MWSI.                      No:  Serv Intrp, MWD 
 OTIM.hr                218.30:  Time Operating 
 PCON.           Look Like New:  Pad Condition 
 PMAX.psia            11015.30:  Press Op, Max 
 PV  .cP                 38.00:  Mud PV 
 RUN .                     300:  Run Number 
 ROPA.m/hr               15.00:  ROP Avg 
 ROPN.m/hr                9.00:  ROP Min 
 ROPX.m/hr               17.00:  ROP Max 
 RPMA.rpm               120.00:  RPM Surface Avg 
 RPMN.rpm                90.00:  RPM Surface Min 
 RPMX.rpm               140.00:  RPM Surface Max 
 RRUN.                     300:  Rig Run Number 
 RTIM.hr                 31.53:  Time Reaming 
 SAZI.deg               331.64:  Azm, Start 
 SDEP.m                4127.00:  Start Depth 
 SIDD.                      No:  Serv Intrp, DD 
 SINC.deg                48.43:  Inc, Start 
 SPPA.psig             5830.00:  SPP Avg 
 SPPN.psig             5600.00:  SPP Min 
 SPPX.psig             5900.00:  SPP Max 
 STIM.      21.00.00 20-Aug-21:  Start Time 
 SVCS.                 DD, MWD:  Services 
 SVER.                    9.20:  Sperry Version 
 TDAT.m                 957.50:  Tot Depth Attmp 
 TDDF.                      No:  Trip for DD 
 TDLG.m                 957.50:  Tot Depth Loggd 
 TFF .                      No:  Trip for Fail 
 TQAA.f-kp               15.00:  Torque Abs Avg 
 TQAN.f-kp               12.00:  Torque Abs Min 
 TQAX.f-kp               19.00:  Torque Abs Max 
 TRRT.°/30m              -3.40:  Turn Rotating 
 MRT .                  EWR-M5:  Maximum Recorded Temperature 
 TTMX.degC              100.00:  Max Tool Temp 
 VS01.                90639251:  Virtual Str1 SN 
 VS02.                90634715:  Virtual Str2 SN 
 VS03.                90652479:  Virtual Str3 SN 
 VS04.                90642262:  Virtual Str4 SN 
 WBMN.klb                 0.00:  WOB Min 
 WITN.           Murad Guliyev:  Customer Rep 
 WITN.          Yashar Gaziyev:  Customer Rep 2 
 WOBA.klb                 9.00:  WOB Avg 
 WOBX.klb                12.00:  WOB Max 
 YP  .lhf2               30.00:  Yield Point 
~Curve Information Block
#MNEM.UNIT                 API CODE     Curve Description
#---------               -----------    ---------------------------
 TIME.HHMMSS            00 000 000 000:  GT Time & Date
 GTDEPTH.m              00 000 000 000:  GT Depth
 GTPQH.psia             00 000 000 000:  GT HR Quartz Pressure
 GTTQ.degC              00 000 000 000:  GT Quartz Temperature
 GTTN.NONE              00 000 000 000:  GT Test Number
 GTET.sec               00 000 000 000:  GT Elapsed Test Time
 GTTVD.m                00 000 000 000:  GT True Vertical Depth
#Other Information
#
#WARRANTY: Halliburton will use its best efforts to furnish customers with 
#accurate information and interpretations that are part of, and incident to, the services 
#provided.  However, Halliburton cannot and does not warrant the accuracy 
#or correctness of such information and interpretations.  Under no circumstances should any 
#such information or interpretation be relied upon as the sole basis for any drilling, 
#completion, production, or financial decision or any procedure involving any risk to the 
#safety of any drilling venture, drilling rig or its crew or any other third party.  The 
#Customer has full responsibility for all drilling, completion and production operation.  
#Halliburton makes no representations or warranties, either expressed or 
#implied, including, but not limited to, the implied warranties of merchantability or fitness 
#for a particular purpose, with respect to the services rendered.  In no event will 
#Halliburton be liable for failure to obtain any particular results or for 
#any damages, including, but not limited to, indirect, special or consequential damages, 
#resulting from the use of any information or interpretation provided by Halliburton.
#
~A           TIME           GTDEPTH  GTPQH  GTTQ  GTTN  GTET   GTTVD  
# ...
   07:22:52.294.27-Aug-2021 5010.50 4281.60 87.57 3.00 184.03 3349.10
   07:22:52.494.27-Aug-2021 5010.50 4281.60 87.57 3.00 184.23 3349.10
   07:22:52.694.27-Aug-2021 5010.50 4281.61 87.57 3.00 184.43 3349.10
   07:22:52.894.27-Aug-2021 5010.50 4281.58 87.57 3.00 184.63 3349.10
   07:22:53.094.27-Aug-2021 5010.50 4281.60 87.57 3.00 184.83 3349.10
   07:22:53.294.27-Aug-2021 5010.50 4281.62 87.57 3.00 185.03 3349.10
   07:22:53.494.27-Aug-2021 5010.50 4281.62 87.57 3.00 185.23 3349.10
   07:22:53.694.27-Aug-2021 5010.50 4281.60 87.57 3.00 185.43 3349.10
   07:22:53.894.27-Aug-2021 5010.50 4281.61 87.57 3.00 185.63 3349.10
   07:22:54.094.27-Aug-2021 5010.50 4281.60 87.57 3.00 185.83 3349.10
   07:22:54.294.27-Aug-2021 5010.50 4281.60 87.57 3.00 186.03 3349.10
   07:22:54.494.27-Aug-2021 5010.50 4281.60 87.57 3.00 186.23 3349.10
   07:22:54.694.27-Aug-2021 5010.50 4281.61 87.57 3.00 186.43 3349.10
   07:22:54.894.27-Aug-2021 5010.50 4281.61 87.57 3.00 186.63 3349.10
   07:22:55.094.27-Aug-2021 5010.50 4281.61 87.57 3.00 186.83 3349.10
   07:22:55.294.27-Aug-2021 5010.50 4281.61 87.57 3.00 187.03 3349.10
   07:22:55.494.27-Aug-2021 5010.50 4281.61 87.57 3.00 187.23 3349.10
   07:22:55.694.27-Aug-2021 5010.50 4281.60 87.57 3.00 187.43 3349.10
   07:22:55.894.27-Aug-2021 5010.50 4281.60 87.57 3.00 187.63 3349.10
   07:22:56.094.27-Aug-2021 5010.50 4281.59 87.57 3.00 187.83 3349.10
   07:22:56.295.27-Aug-2021 5010.50 4281.60 87.57 3.00 188.03 3349.10
   07:22:56.495.27-Aug-2021 5010.50 4281.60 87.57 3.00 188.23 3349.10
   07:22:56.695.27-Aug-2021 5010.50 4281.60 87.57 3.00 188.43 3349.10
   07:22:56.895.27-Aug-2021 5010.50 4281.61 87.57 3.00 188.63 3349.10
   07:22:57.095.27-Aug-2021 5010.50 4281.60 87.57 3.00 188.83 3349.10
   07:22:57.295.27-Aug-2021 5010.50 4281.60 87.57 3.00 189.03 3349.10
   07:22:57.495.27-Aug-2021 5010.50 4281.60 87.57 3.00 189.23 3349.10
   07:22:57.695.27-Aug-2021 5010.50 4281.60 87.57 3.00 189.43 3349.10
   07:22:57.895.27-Aug-2021 5010.50 4281.60 87.56 3.00 189.63 3349.10
   07:22:58.095.27-Aug-2021 5010.50 4281.60 87.56 3.00 189.83 3349.10
   07:22:58.295.27-Aug-2021 5010.50 4281.60 87.56 3.00 190.03 3349.10
   07:22:58.495.27-Aug-2021 5010.50 4281.60 87.56 3.00 190.23 3349.10
   07:22:58.695.27-Aug-2021 5010.50 4281.61 87.56 3.00 190.43 3349.10
   07:22:58.895.27-Aug-2021 5010.50 4281.59 87.56 3.00 190.63 3349.10
   07:22:59.095.27-Aug-2021 5010.50 4281.60 87.56 3.00 190.83 3349.10
   07:22:59.295.27-Aug-2021 5010.50 4281.59 87.56 3.00 191.03 3349.10
   07:22:59.495.27-Aug-2021 5010.50 4281.59 87.56 3.00 191.23 3349.10
   07:22:59.695.27-Aug-2021 5010.50 4281.56 87.56 3.00 191.43 3349.10
   07:22:59.895.27-Aug-2021 5010.50 4281.60 87.56 3.00 191.63 3349.10
   07:23:00.095.27-Aug-2021 5010.50 4281.60 87.56 3.00 191.83 3349.10
   07:23:00.295.27-Aug-2021 5010.50 4281.59 87.56 3.00 192.03 3349.10
   07:23:00.495.27-Aug-2021 5010.50 4281.59 87.56 3.00 192.23 3349.10
   07:23:00.695.27-Aug-2021 5010.50 4281.59 87.56 3.00 192.43 3349.10
   07:23:00.895.27-Aug-2021 5010.50 4281.58 87.56 3.00 192.63 3349.10
   07:23:01.095.27-Aug-2021 5010.50 4281.58 87.56 3.00 192.83 3349.10
   07:23:01.295.27-Aug-2021 5010.50 4281.58 87.56 3.00 193.03 3349.10
   07:23:01.495.27-Aug-2021 5010.50 4281.58 87.56 3.00 193.23 3349.10
   07:23:01.695.27-Aug-2021 5010.50 4281.57 87.56 3.00 193.43 3349.10
   07:23:01.895.27-Aug-2021 5010.50 4281.57 87.56 3.00 193.63 3349.10
   07:23:02.095.27-Aug-2021 5010.50 4281.57 87.56 3.00 193.83 3349.10
   07:23:02.295.27-Aug-2021 5010.50 4281.57 87.56 3.00 194.03 3349.10
   07:23:02.496.27-Aug-2021 5010.50 4281.57 87.56 3.00 194.23 3349.10
   07:23:02.696.27-Aug-2021 5010.50 4281.58 87.56 3.00 194.43 3349.10
   07:23:02.896.27-Aug-2021 5010.50 4281.54 87.56 3.00 194.63 3349.10
   07:23:03.096.27-Aug-2021 5010.50 4281.58 87.56 3.00 194.83 3349.10
   07:23:03.296.27-Aug-2021 5010.50 4281.57 87.56 3.00 195.03 3349.10
   07:23:03.496.27-Aug-2021 5010.50 4281.57 87.56 3.00 195.23 3349.10
   07:23:03.696.27-Aug-2021 5010.50 4281.57 87.56 3.00 195.43 3349.10
   07:23:03.896.27-Aug-2021 5010.50 4281.56 87.56 3.00 195.63 3349.10
   07:23:04.096.27-Aug-2021 5010.50 4281.56 87.56 3.00 195.83 3349.10
   07:23:04.296.27-Aug-2021 5010.50 4281.56 87.56 3.00 196.03 3349.10
   07:23:04.496.27-Aug-2021 5010.50 4281.56 87.56 3.00 196.23 3349.10
   07:23:04.696.27-Aug-2021 5010.50 4281.55 87.56 3.00 196.43 3349.10
   07:23:04.896.27-Aug-2021 5010.50 4281.55 87.56 3.00 196.63 3349.10
   07:23:05.096.27-Aug-2021 5010.50 4281.55 87.56 3.00 196.83 3349.10
   07:23:05.296.27-Aug-2021 5010.50 4281.55 87.56 3.00 197.03 3349.10
   07:23:05.496.27-Aug-2021 5010.50 4281.55 87.56 3.00 197.23 3349.10
   07:23:05.696.27-Aug-2021 5010.50 4281.53 87.56 3.00 197.43 3349.10
   07:23:05.896.27-Aug-2021 5010.50 4281.54 87.56 3.00 197.63 3349.10
   07:23:06.096.27-Aug-2021 5010.50 4281.53 87.56 3.00 197.83 3349.10
   07:23:06.296.27-Aug-2021 5010.50 4281.55 87.56 3.00 198.03 3349.10
   07:23:06.496.27-Aug-2021 5010.50 4281.55 87.56 3.00 198.23 3349.10
   07:23:06.696.27-Aug-2021 5010.50 4281.54 87.56 3.00 198.43 3349.10
   07:23:06.896.27-Aug-2021 5010.50 4281.54 87.56 3.00 198.63 3349.10
   07:23:07.096.27-Aug-2021 5010.50 4281.55 87.56 3.00 198.83 3349.10
   07:23:07.296.27-Aug-2021 5010.50 4281.55 87.56 3.00 199.03 3349.10
   07:23:07.496.27-Aug-2021 5010.50 4281.55 87.56 3.00 199.23 3349.10
   07:23:07.696.27-Aug-2021 5010.50 4281.56 87.56 3.00 199.43 3349.10
   07:23:07.896.27-Aug-2021 5010.50 4281.53 87.56 3.00 199.63 3349.10
   07:23:08.096.27-Aug-2021 5010.50 4281.54 87.56 3.00 199.83 3349.10
   07:23:08.296.27-Aug-2021 5010.50 4281.54 87.56 3.00 200.03 3349.10
   07:23:08.497.27-Aug-2021 5010.50 4281.54 87.56 3.00 200.23 3349.10
   07:23:08.697.27-Aug-2021 5010.50 4281.54 87.56 3.00 200.43 3349.10
   07:23:08.897.27-Aug-2021 5010.50 4281.54 87.56 3.00 200.63 3349.10
   07:23:09.097.27-Aug-2021 5010.50 4281.54 87.56 3.00 200.83 3349.10
   07:23:09.297.27-Aug-2021 5010.50 4281.54 87.56 3.00 201.03 3349.10
   07:23:09.497.27-Aug-2021 5010.50 4281.54 87.56 3.00 201.23 3349.10
   07:23:09.697.27-Aug-2021 5010.50 4281.51 87.56 3.00 201.43 3349.10
   07:23:09.897.27-Aug-2021 5010.50 4281.53 87.56 3.00 201.63 3349.10
   07:23:10.097.27-Aug-2021 5010.50 4281.53 87.56 3.00 201.83 3349.10
   07:23:10.297.27-Aug-2021 5010.50 4281.54 87.56 3.00 202.03 3349.10
   07:23:10.497.27-Aug-2021 5010.50 4281.54 87.56 3.00 202.23 3349.10
   07:23:10.697.27-Aug-2021 5010.50 4281.53 87.56 3.00 202.43 3349.10
   07:23:10.897.27-Aug-2021 5010.50 4281.52 87.56 3.00 202.63 3349.10
   07:23:11.097.27-Aug-2021 5010.50 4281.51 87.56 3.00 202.83 3349.10
   07:23:11.297.27-Aug-2021 5010.50 4281.52 87.56 3.00 203.03 3349.10
   07:23:11.497.27-Aug-2021 5010.50 4281.52 87.56 3.00 203.23 3349.10
   07:23:11.697.27-Aug-2021 5010.50 4281.50 87.56 3.00 203.43 3349.10
   07:23:11.897.27-Aug-2021 5010.50 4281.50 87.56 3.00 203.63 3349.10
   07:23:12.097.27-Aug-2021 5010.50 4281.50 87.56 3.00 203.83 3349.10
   07:23:12.297.27-Aug-2021 5010.50 4281.50 87.56 3.00 204.03 3349.10
   07:23:12.497.27-Aug-2021 5010.50 4281.50 87.56 3.00 204.23 3349.10
   07:23:12.697.27-Aug-2021 5010.50 4281.48 87.56 3.00 204.43 3349.10
   07:23:12.897.27-Aug-2021 5010.50 4281.51 87.56 3.00 204.63 3349.10
   07:23:13.097.27-Aug-2021 5010.50 4281.51 87.56 3.00 204.83 3349.10
   07:23:13.297.27-Aug-2021 5010.50 4281.50 87.56 3.00 205.03 3349.10
   07:23:13.497.27-Aug-2021 5010.50 4281.50 87.56 3.00 205.23 3349.10
   07:23:13.697.27-Aug-2021 5010.50 4281.50 87.55 3.00 205.43 3349.10
   07:23:13.897.27-Aug-2021 5010.50 4281.49 87.55 3.00 205.63 3349.10
   07:23:14.097.27-Aug-2021 5010.50 4281.49 87.55 3.00 205.83 3349.10
   07:23:14.297.27-Aug-2021 5010.50 4281.48 87.55 3.00 206.03 3349.10
   07:23:14.497.27-Aug-2021 5010.50 4281.48 87.55 3.00 206.23 3349.10
   07:23:14.698.27-Aug-2021 5010.50 4281.48 87.55 3.00 206.43 3349.10
   07:23:14.898.27-Aug-2021 5010.50 4281.47 87.55 3.00 206.63 3349.10
   07:23:15.098.27-Aug-2021 5010.50 4281.48 87.55 3.00 206.83 3349.10
