~Version Information
 VERS.                  2.0:   CWLS log ASCII Standard -VERSION 2.0
 WRAP.                   NO:   One line per depth step
~Well Information Block
#MNEM.UNIT     VALUE/NAME     DESCRIPTION
#---------     -----------    ---------------------------
 STRT.S             21:02:56 27-Aug-21: START TIME 21:02:56 27-Aug-21
 STOP.S             21:10:06 27-Aug-21: STOP TIME  21:10:06 27-Aug-21
 STEP.S                   0.00: STEP TIME
 NULL.                 -999.25: NULL VALUE
 DFWT.                        :  DIST FWL TEXT
 DFST.                        :  DIST FSL TEXT
 DMF .             Drill Floor:  DRILL MEAS FROM
 STIM.      20.00.00 17-Aug-21:  START TIME
 DATE.      19.00.00 29-Aug-21:  END TIME
 SPUD.               15-Aug-21:  SPUD DATE
 NREF.                    Grid:  NORTH REFERENCE
 HPTY.       Minimum Curvature:  HOLE POS TYPE
 DMOD.             Drill Model:  DRILL MOD DESC
 SVYD.                  Survey:  SURVEY DESC
 ILTD.               Lithology:  INTERP LTH DESC
 FTOP.          Formation Tops:  FORM TOPS DESC
 RIG .              East Azeri:  RIG NAME
 PDAT.          Mean Sea Level:  PERMANENT DATUM
 FLD .                     ACG:  FIELD NAME
 SON .        AZ-XX-0907180857:  JOB NUMBER
 CTRY.              Azerbaijan:  COUNTRY NAME
 WELL.                    D23x:  WELL NAME
 SRVC.     Turan Drilling and Engineering:  CONTRACTOR
 COMP.     BP Exploration (Caspian Sea) Ltd.:  COMPANY
 UWI .            /AZE00000214:  UNIQUE WELL IDENTIFIER
 API .            /AZE00000214:  API NUMBER
 MDS .        Operator Entered:  MAG DATA SOURCE
 BASE.              Azerbaijan:  LOGGING EQUIPMENT BASE LOCATION
 REGN.                   EESSA:  REGION
 PROV.                    Baku:  PROVINCE
 STAT.                    Baku:  STATE NAME
 MWDS.                    Baku:  MWD SHOP
 DOE .                     N/A:  DOE NUMBER
 DCON.         Sperry Drilling:  DIRECTNL CONTR
 UNIT.                     N/A:  LOGGING EQUIPMENT ID
 WTYP.                Deviated:  WELL TYPE
 CNTY.                        :  COUNTY
 LOC .                        :  LOCATION
 LMF .             Drill Floor:  LOG MEASURED FROM
 TVDS.m                  43.60:  TVDSS CORRECTN
 LATI.deg                40.02:  LATITUDE
 LONG.deg                51.45:  LONGITUDE
 WHNS.m                  -7.04:  WELL HEAD N/S
 WHEW.m                  -0.67:  WELL HEAD E/W
 UTMX.m              538762.90:  UTM X
 UTMY.m             4431871.34:  UTM Y
 DFWL.m                   0.00:  DISTANCE FWL
 DFSL.m                   0.00:  DISTANCE FSL
 SDEP.m                4127.00:  START DEPTH
 TDD .m                5084.50:  TOTAL DEPTH (DRILLER)
 VSDR.deg               140.47:  VERT SEC DIRECT
 GVFD.g                   1.00:  GRAVITY FIELD
 MFLD.nT              50362.00:  MAGNETIC FIELD
 MDIP.deg                59.48:  MAGNETIC DIP
 MDEC.deg                 6.47:  MAGNETIC DECL
 GRDC.deg                 0.31:  GRID CORRECTION
 AZTC.deg                 6.16:  AZM TOTAL CORR
 EPD .m                   0.00:  ELEVATION
 EGL .m                   0.00:  GROUND ELEVATION
 WDMS.m                 151.80:  WD ELEV
 APD .m                  43.60:  DEPTH ABOVE PD
 DEP .m                4092.57:  DEPTH
 AGAP.m                  43.60:  AIR GAP
 VSEW.m                  -0.67:  VERT SEC E/W
 VSNS.m                  -7.04:  VERT SEC N/S
 EKB .m                  43.60:  KB ELEVATION
 EDF .m                  43.60:  DF ELEVATION
 TDL .m                 957.50:  TOTAL DEPTH (LOGGER)
 VSC .                       0:  VS TO CLOSURE
 MAGU.                 1851413:  MAGUTM CHECKSUM
~Parameter Information Block
#MNEM.UNIT       Value        Description
#---------     -----------    ---------------------------
 AV  .mps                 1.50:  Ann Velocity 
 AVMX.mps                 2.00:  Max Ann Veloc 
 AZIF.deg               184.66:  Azm, Final 
 BHAT.        Rotary Steerable:  BHA Type 
 BREV.rev               300.00:  Rev Bit Total 
 BROT.°/30m              -0.50:  Build Rotating 
 BS  .in                  8.50:  Bit Size 
 BSZ .in                  8.50:  Bit Size 
 BTPL.psig              370.00:  Bit Press Loss 
 CABU.                      No:  Customer Abuse 
 CGEO.      Behruz Shahbaliyev:  Customer Geo 
 COMM.                     <]h:  Run Comments 1 
 TCS .hr                140.08:  Time Ciculation Ended 
 CV  .mps                 3.00:  Crit Velocity 
 CVMX.mps                 3.20:  Max Crit Veloc 
 DD1 .            Musa Ahmadov:  Direct Drillr 1 
 DD2 .           Hamid Ahmadov:  Direct Drillr 2 
 DDSV.               Geo-Pilot:  DD Service 
 DEFF.%                  98.40:  % Det Eff 
 DLRX.°/30m               3.40:  Dogleg Rot Max 
 DLSO.°/30m               1.45:  Dogleg Oriented 
 DLSX.°/30m               3.40:  Dogleg Str Max 
 DRET.      18.40.00 29-Aug-21:  Drill End Time 
 DRST.      21.00.00 20-Aug-21:  Drill Start Tim 
 DTIM.hr                 69.47:  Time Drilling 
 EDEP.m                5084.50:  End Depth 
 ENG1.      Artemiy Matviyanov:  Engineer 1 
 ENG2.         Almaz Almadatov:  Engineer 2 
 ETIM.      18.40.00 29-Aug-21:  End Time 
 FLOI.gpm               500.00:  Flow In 
 FLON.gpm               400.00:  Flow In Min 
 FLOS.cptm                0.00:  Fluid Loss 
 FLOX.gpm               500.00:  Flow In Max 
 DFT .        Mineral Oil Base:  Mud Type 
 HFLO.                      No:  High Flow 
 HPRE.                      No:  High Pressure 
 HTEM.                      No:  High Temp 
 HYDO.m                   1.80:  Hydro Offset 
 IFIN.deg                25.62:  Inc, Final 
 IMAX.deg                48.69:  Inc Max 
 IMIN.deg                24.01:  Inc Min 
 IMND.m                4962.57:  Inc Min Depth 
 IMXD.m                4119.01:  Inc Max Depth 
 JARR.                      No:  Jarring 
 LETM.      18.40.00 29-Aug-21:  Log End Time 
 LOST.hr                     0:  Lost Rig Time 
 LSTM.      21.00.00 20-Aug-21:  Log Start Time 
 MDCL.ppm             41500.00:  Mud Chlorides 
 MDES.     Inversion Oil/Synthetic:  Mud Desc 
 DFD .sg                  1.56:  Mud Density 
 MDMN.sg                  1.56:  Dens Mud Min 
 MDMX.sg                  1.56:  Dens Mud Max 
 MOIL.                      70:  Run Mud Oil % 
 MOWR.                   70:30:  Run Mud OWR 
 MSND.                     0.2:  Run Mud Sand % 
 MSOL.                    23.3:  Run Mud Solids% 
 DFV .spqt               78.00:  Mud Viscosity 
 MWOD.in                  6.75:  MWD Tool OD 
 MWSI.                      No:  Serv Intrp, MWD 
 OTIM.hr                218.30:  Time Operating 
 PCON.           Look Like New:  Pad Condition 
 PMAX.psia            11015.30:  Press Op, Max 
 PV  .cP                 38.00:  Mud PV 
 RUN .                     300:  Run Number 
 ROPA.m/hr               15.00:  ROP Avg 
 ROPN.m/hr                9.00:  ROP Min 
 ROPX.m/hr               17.00:  ROP Max 
 RPMA.rpm               120.00:  RPM Surface Avg 
 RPMN.rpm                90.00:  RPM Surface Min 
 RPMX.rpm               140.00:  RPM Surface Max 
 RRUN.                     300:  Rig Run Number 
 RTIM.hr                 31.53:  Time Reaming 
 SAZI.deg               331.64:  Azm, Start 
 SDEP.m                4127.00:  Start Depth 
 SIDD.                      No:  Serv Intrp, DD 
 SINC.deg                48.43:  Inc, Start 
 SPPA.psig             5830.00:  SPP Avg 
 SPPN.psig             5600.00:  SPP Min 
 SPPX.psig             5900.00:  SPP Max 
 STIM.      21.00.00 20-Aug-21:  Start Time 
 SVCS.                 DD, MWD:  Services 
 SVER.                    9.20:  Sperry Version 
 TDAT.m                 957.50:  Tot Depth Attmp 
 TDDF.                      No:  Trip for DD 
 TDLG.m                 957.50:  Tot Depth Loggd 
 TFF .                      No:  Trip for Fail 
 TQAA.f-kp               15.00:  Torque Abs Avg 
 TQAN.f-kp               12.00:  Torque Abs Min 
 TQAX.f-kp               19.00:  Torque Abs Max 
 TRRT.°/30m              -3.40:  Turn Rotating 
 MRT .                  EWR-M5:  Maximum Recorded Temperature 
 TTMX.degC              100.00:  Max Tool Temp 
 VS01.                90639251:  Virtual Str1 SN 
 VS02.                90634715:  Virtual Str2 SN 
 VS03.                90652479:  Virtual Str3 SN 
 VS04.                90642262:  Virtual Str4 SN 
 WBMN.klb                 0.00:  WOB Min 
 WITN.           Murad Guliyev:  Customer Rep 
 WITN.          Yashar Gaziyev:  Customer Rep 2 
 WOBA.klb                 9.00:  WOB Avg 
 WOBX.klb                12.00:  WOB Max 
 YP  .lhf2               30.00:  Yield Point 
~Curve Information Block
#MNEM.UNIT                 API CODE     Curve Description
#---------               -----------    ---------------------------
 TIME.HHMMSS            00 000 000 000:  GT Time & Date
 GTDEPTH.m              00 000 000 000:  GT Depth
 GTPQH.psia             00 000 000 000:  GT HR Quartz Pressure
 GTTQ.degC              00 000 000 000:  GT Quartz Temperature
 GTTN.NONE              00 000 000 000:  GT Test Number
 GTET.sec               00 000 000 000:  GT Elapsed Test Time
 GTTVD.m                00 000 000 000:  GT True Vertical Depth
#Other Information
#
#WARRANTY: Halliburton will use its best efforts to furnish customers with 
#accurate information and interpretations that are part of, and incident to, the services 
#provided.  However, Halliburton cannot and does not warrant the accuracy 
#or correctness of such information and interpretations.  Under no circumstances should any 
#such information or interpretation be relied upon as the sole basis for any drilling, 
#completion, production, or financial decision or any procedure involving any risk to the 
#safety of any drilling venture, drilling rig or its crew or any other third party.  The 
#Customer has full responsibility for all drilling, completion and production operation.  
#Halliburton makes no representations or warranties, either expressed or 
#implied, including, but not limited to, the implied warranties of merchantability or fitness 
#for a particular purpose, with respect to the services rendered.  In no event will 
#Halliburton be liable for failure to obtain any particular results or for 
#any damages, including, but not limited to, indirect, special or consequential damages, 
#resulting from the use of any information or interpretation provided by Halliburton.
#
~A           TIME           GTDEPTH  GTPQH  GTTQ  GTTN   GTET   GTTVD  
# ...
   21:07:04.748.27-Aug-2021 4647.50 4517.88 82.36 22.00 248.63 3019.99
   21:07:04.948.27-Aug-2021 4647.50 4517.86 82.36 22.00 248.83 3019.99
   21:07:05.148.27-Aug-2021 4647.50 4517.83 82.36 22.00 249.03 3019.99
   21:07:05.348.27-Aug-2021 4647.50 4517.83 82.36 22.00 249.23 3019.99
   21:07:05.548.27-Aug-2021 4647.50 4517.84 82.36 22.00 249.43 3019.99
   21:07:05.748.27-Aug-2021 4647.50 4517.83 82.36 22.00 249.63 3019.99
   21:07:05.948.27-Aug-2021 4647.50 4517.84 82.36 22.00 249.83 3019.99
   21:07:06.148.27-Aug-2021 4647.50 4517.82 82.36 22.00 250.03 3019.99
   21:07:06.348.27-Aug-2021 4647.50 4517.82 82.36 22.00 250.23 3019.99
   21:07:06.548.27-Aug-2021 4647.50 4517.84 82.36 22.00 250.43 3019.99
   21:07:06.748.27-Aug-2021 4647.50 4517.84 82.36 22.00 250.63 3019.99
   21:07:06.948.27-Aug-2021 4647.50 4517.67 82.36 22.00 250.83 3019.99
   21:07:07.148.27-Aug-2021 4647.50 4517.99 82.36 22.00 251.03 3019.99
   21:07:07.348.27-Aug-2021 4647.50 4517.99 82.36 22.00 251.23 3019.99
   21:07:07.548.27-Aug-2021 4647.50 4517.84 82.36 22.00 251.43 3019.99
   21:07:07.748.27-Aug-2021 4647.50 4517.86 82.36 22.00 251.63 3019.99
   21:07:07.948.27-Aug-2021 4647.50 4517.83 82.36 22.00 251.83 3019.99
   21:07:08.148.27-Aug-2021 4647.50 4517.84 82.36 22.00 252.03 3019.99
   21:07:08.348.27-Aug-2021 4647.50 4517.84 82.36 22.00 252.23 3019.99
   21:07:08.548.27-Aug-2021 4647.50 4517.85 82.36 22.00 252.43 3019.99
   21:07:08.748.27-Aug-2021 4647.50 4517.86 82.36 22.00 252.63 3019.99
   21:07:08.948.27-Aug-2021 4647.50 4517.84 82.36 22.00 252.83 3019.99
   21:07:09.148.27-Aug-2021 4647.50 4517.85 82.36 22.00 253.03 3019.99
   21:07:09.348.27-Aug-2021 4647.50 4517.85 82.36 22.00 253.23 3019.99
   21:07:09.548.27-Aug-2021 4647.50 4517.85 82.36 22.00 253.43 3019.99
   21:07:09.748.27-Aug-2021 4647.50 4517.86 82.36 22.00 253.63 3019.99
   21:07:09.948.27-Aug-2021 4647.50 4517.84 82.36 22.00 253.83 3019.99
   21:07:10.148.27-Aug-2021 4647.50 4517.85 82.36 22.00 254.03 3019.99
   21:07:10.348.27-Aug-2021 4647.50 4517.85 82.36 22.00 254.23 3019.99
   21:07:10.548.27-Aug-2021 4647.50 4518.05 82.36 22.00 254.43 3019.99
   21:07:10.748.27-Aug-2021 4647.50 4517.87 82.36 22.00 254.63 3019.99
   21:07:10.948.27-Aug-2021 4647.50 4517.83 82.36 22.00 254.83 3019.99
   21:07:11.148.27-Aug-2021 4647.50 4517.88 82.36 22.00 255.03 3019.99
   21:07:11.348.27-Aug-2021 4647.50 4517.88 82.36 22.00 255.23 3019.99
   21:07:11.548.27-Aug-2021 4647.50 4517.84 82.36 22.00 255.43 3019.99
   21:07:11.748.27-Aug-2021 4647.50 4517.81 82.36 22.00 255.63 3019.99
   21:07:11.948.27-Aug-2021 4647.50 4517.89 82.36 22.00 255.83 3019.99
   21:07:12.148.27-Aug-2021 4647.50 4517.88 82.36 22.00 256.03 3019.99
   21:07:12.348.27-Aug-2021 4647.50 4517.88 82.36 22.00 256.23 3019.99
   21:07:12.549.27-Aug-2021 4647.50 4517.74 82.36 22.00 256.43 3019.99
   21:07:12.749.27-Aug-2021 4647.50 4517.90 82.36 22.00 256.63 3019.99
   21:07:12.949.27-Aug-2021 4647.50 4517.85 82.36 22.00 256.83 3019.99
   21:07:13.149.27-Aug-2021 4647.50 4517.88 82.36 22.00 257.03 3019.99
   21:07:13.349.27-Aug-2021 4647.50 4517.88 82.36 22.00 257.23 3019.99
   21:07:13.549.27-Aug-2021 4647.50 4517.82 82.36 22.00 257.43 3019.99
   21:07:13.749.27-Aug-2021 4647.50 4517.89 82.36 22.00 257.63 3019.99
   21:07:13.949.27-Aug-2021 4647.50 4517.88 82.36 22.00 257.83 3019.99
   21:07:14.149.27-Aug-2021 4647.50 4517.85 82.36 22.00 258.03 3019.99
   21:07:14.349.27-Aug-2021 4647.50 4517.85 82.36 22.00 258.23 3019.99
   21:07:14.549.27-Aug-2021 4647.50 4517.90 82.36 22.00 258.43 3019.99
   21:07:14.749.27-Aug-2021 4647.50 4517.84 82.36 22.00 258.63 3019.99
   21:07:14.949.27-Aug-2021 4647.50 4517.88 82.36 22.00 258.83 3019.99
   21:07:15.149.27-Aug-2021 4647.50 4517.87 82.36 22.00 259.03 3019.99
   21:07:15.349.27-Aug-2021 4647.50 4517.87 82.36 22.00 259.23 3019.99
   21:07:15.549.27-Aug-2021 4647.50 4517.87 82.36 22.00 259.43 3019.99
   21:07:15.749.27-Aug-2021 4647.50 4517.86 82.36 22.00 259.63 3019.99
   21:07:15.949.27-Aug-2021 4647.50 4517.87 82.36 22.00 259.83 3019.99
   21:07:16.149.27-Aug-2021 4647.50 4517.87 82.36 22.00 260.03 3019.99
   21:07:16.349.27-Aug-2021 4647.50 4517.87 82.36 22.00 260.23 3019.99
   21:07:16.549.27-Aug-2021 4647.50 4517.71 82.36 22.00 260.43 3019.99
   21:07:16.749.27-Aug-2021 4647.50 4518.02 82.36 22.00 260.63 3019.99
   21:07:16.949.27-Aug-2021 4647.50 4517.92 82.36 22.00 260.83 3019.99
   21:07:17.149.27-Aug-2021 4647.50 4517.87 82.36 22.00 261.03 3019.99
   21:07:17.349.27-Aug-2021 4647.50 4517.87 82.36 22.00 261.23 3019.99
   21:07:17.549.27-Aug-2021 4647.50 4517.90 82.36 22.00 261.43 3019.99
   21:07:17.749.27-Aug-2021 4647.50 4517.86 82.36 22.00 261.63 3019.99
   21:07:17.949.27-Aug-2021 4647.50 4517.89 82.36 22.00 261.83 3019.99
   21:07:18.149.27-Aug-2021 4647.50 4517.89 82.36 22.00 262.03 3019.99
   21:07:18.349.27-Aug-2021 4647.50 4517.89 82.36 22.00 262.23 3019.99
   21:07:18.549.27-Aug-2021 4647.50 4517.89 82.36 22.00 262.43 3019.99
   21:07:18.749.27-Aug-2021 4647.50 4517.89 82.36 22.00 262.63 3019.99
   21:07:18.949.27-Aug-2021 4647.50 4517.89 82.36 22.00 262.83 3019.99
   21:07:19.149.27-Aug-2021 4647.50 4517.87 82.36 22.00 263.03 3019.99
   21:07:19.349.27-Aug-2021 4647.50 4517.87 82.36 22.00 263.23 3019.99
   21:07:19.549.27-Aug-2021 4647.50 4517.89 82.36 22.00 263.43 3019.99
   21:07:19.749.27-Aug-2021 4647.50 4517.90 82.36 22.00 263.63 3019.99
   21:07:19.949.27-Aug-2021 4647.50 4517.67 82.36 22.00 263.83 3019.99
   21:07:20.149.27-Aug-2021 4647.50 4518.04 82.36 22.00 264.03 3019.99
   21:07:20.349.27-Aug-2021 4647.50 4518.04 82.36 22.00 264.23 3019.99
   21:07:20.549.27-Aug-2021 4647.50 4517.89 82.36 22.00 264.43 3019.99
   21:07:20.749.27-Aug-2021 4647.50 4517.90 82.36 22.00 264.63 3019.99
   21:07:20.949.27-Aug-2021 4647.50 4517.91 82.36 22.00 264.83 3019.99
   21:07:21.149.27-Aug-2021 4647.50 4517.86 82.36 22.00 265.03 3019.99
   21:07:21.349.27-Aug-2021 4647.50 4517.86 82.36 22.00 265.23 3019.99
   21:07:21.549.27-Aug-2021 4647.50 4517.93 82.36 22.00 265.43 3019.99
   21:07:21.749.27-Aug-2021 4647.50 4517.91 82.36 22.00 265.63 3019.99
   21:07:21.949.27-Aug-2021 4647.50 4517.90 82.36 22.00 265.83 3019.99
   21:07:22.149.27-Aug-2021 4647.50 4517.81 82.36 22.00 266.03 3019.99
   21:07:22.350.27-Aug-2021 4647.50 4517.81 82.36 22.00 266.23 3019.99
   21:07:22.550.27-Aug-2021 4647.50 4517.90 82.36 22.00 266.43 3019.99
   21:07:22.750.27-Aug-2021 4647.50 4517.93 82.36 22.00 266.63 3019.99
   21:07:22.950.27-Aug-2021 4647.50 4516.05 82.36 22.00 266.83 3019.99
   21:07:23.150.27-Aug-2021 4647.50 4392.67 82.36 22.00 267.03 3019.99
   21:07:23.350.27-Aug-2021 4647.50 4392.67 82.36 22.00 267.23 3019.99
   21:07:23.550.27-Aug-2021 4647.50 4252.98 82.36 22.00 267.43 3019.99
   21:07:23.750.27-Aug-2021 4647.50 4203.24 82.36 22.00 267.63 3019.99
   21:07:23.950.27-Aug-2021 4647.50 4201.60 82.36 22.00 267.83 3019.99
   21:07:24.150.27-Aug-2021 4647.50 4201.57 82.36 22.00 268.03 3019.99
   21:07:24.350.27-Aug-2021 4647.50 4201.57 82.36 22.00 268.23 3019.99
   21:07:24.550.27-Aug-2021 4647.50 4201.29 82.36 22.00 268.43 3019.99
   21:07:24.750.27-Aug-2021 4647.50 4200.81 82.36 22.00 268.63 3019.99
   21:07:24.950.27-Aug-2021 4647.50 4201.43 82.36 22.00 268.83 3019.99
   21:07:25.150.27-Aug-2021 4647.50 4200.53 82.36 22.00 269.03 3019.99
   21:07:25.350.27-Aug-2021 4647.50 4200.53 82.36 22.00 269.23 3019.99
   21:07:25.550.27-Aug-2021 4647.50 4198.87 82.36 22.00 269.43 3019.99
   21:07:25.750.27-Aug-2021 4647.50 4199.93 82.36 22.00 269.63 3019.99
   21:07:25.950.27-Aug-2021 4647.50 4200.26 82.36 22.00 269.83 3019.99
   21:07:26.150.27-Aug-2021 4647.50 4201.75 82.36 22.00 270.03 3019.99
   21:07:26.350.27-Aug-2021 4647.50 4201.75 82.36 22.00 270.23 3019.99
   21:07:26.550.27-Aug-2021 4647.50 4201.51 82.36 22.00 270.43 3019.99
   21:07:26.750.27-Aug-2021 4647.50 4202.42 82.36 22.00 270.63 3019.99
   21:07:26.950.27-Aug-2021 4647.50 4201.73 82.36 22.00 270.83 3019.99
   21:07:27.150.27-Aug-2021 4647.50 4201.47 82.36 22.00 271.03 3019.99
