~Version Information
 VERS.                  2.0:   CWLS log ASCII Standard -VERSION 2.0
 WRAP.                   NO:   One line per depth step
~Well Information Block
#MNEM.UNIT     VALUE/NAME     DESCRIPTION
#---------     -----------    ---------------------------
 STRT.S             06:14:43 27-Aug-21: START TIME 06:14:43 27-Aug-21
 STOP.S             06:21:54 27-Aug-21: STOP TIME  06:21:54 27-Aug-21
 STEP.S                   0.00: STEP TIME
 NULL.                 -999.25: NULL VALUE
 DFWT.                        :  DIST FWL TEXT
 DFST.                        :  DIST FSL TEXT
 DMF .             Drill Floor:  DRILL MEAS FROM
 STIM.      20.00.00 17-Aug-21:  START TIME
 DATE.      19.00.00 29-Aug-21:  END TIME
 SPUD.               15-Aug-21:  SPUD DATE
 NREF.                    Grid:  NORTH REFERENCE
 HPTY.       Minimum Curvature:  HOLE POS TYPE
 DMOD.             Drill Model:  DRILL MOD DESC
 SVYD.                  Survey:  SURVEY DESC
 ILTD.               Lithology:  INTERP LTH DESC
 FTOP.          Formation Tops:  FORM TOPS DESC
 RIG .              East Azeri:  RIG NAME
 PDAT.          Mean Sea Level:  PERMANENT DATUM
 FLD .                     ACG:  FIELD NAME
 SON .        AZ-XX-0907180857:  JOB NUMBER
 CTRY.              Azerbaijan:  COUNTRY NAME
 WELL.                    D23x:  WELL NAME
 SRVC.     Turan Drilling and Engineering:  CONTRACTOR
 COMP.     BP Exploration (Caspian Sea) Ltd.:  COMPANY
 UWI .            /AZE00000214:  UNIQUE WELL IDENTIFIER
 API .            /AZE00000214:  API NUMBER
 MDS .        Operator Entered:  MAG DATA SOURCE
 BASE.              Azerbaijan:  LOGGING EQUIPMENT BASE LOCATION
 REGN.                   EESSA:  REGION
 PROV.                    Baku:  PROVINCE
 STAT.                    Baku:  STATE NAME
 MWDS.                    Baku:  MWD SHOP
 DOE .                     N/A:  DOE NUMBER
 DCON.         Sperry Drilling:  DIRECTNL CONTR
 UNIT.                     N/A:  LOGGING EQUIPMENT ID
 WTYP.                Deviated:  WELL TYPE
 CNTY.                        :  COUNTY
 LOC .                        :  LOCATION
 LMF .             Drill Floor:  LOG MEASURED FROM
 TVDS.m                  43.60:  TVDSS CORRECTN
 LATI.deg                40.02:  LATITUDE
 LONG.deg                51.45:  LONGITUDE
 WHNS.m                  -7.04:  WELL HEAD N/S
 WHEW.m                  -0.67:  WELL HEAD E/W
 UTMX.m              538762.90:  UTM X
 UTMY.m             4431871.34:  UTM Y
 DFWL.m                   0.00:  DISTANCE FWL
 DFSL.m                   0.00:  DISTANCE FSL
 SDEP.m                4127.00:  START DEPTH
 TDD .m                5084.50:  TOTAL DEPTH (DRILLER)
 VSDR.deg               140.47:  VERT SEC DIRECT
 GVFD.g                   1.00:  GRAVITY FIELD
 MFLD.nT              50362.00:  MAGNETIC FIELD
 MDIP.deg                59.48:  MAGNETIC DIP
 MDEC.deg                 6.47:  MAGNETIC DECL
 GRDC.deg                 0.31:  GRID CORRECTION
 AZTC.deg                 6.16:  AZM TOTAL CORR
 EPD .m                   0.00:  ELEVATION
 EGL .m                   0.00:  GROUND ELEVATION
 WDMS.m                 151.80:  WD ELEV
 APD .m                  43.60:  DEPTH ABOVE PD
 DEP .m                4092.57:  DEPTH
 AGAP.m                  43.60:  AIR GAP
 VSEW.m                  -0.67:  VERT SEC E/W
 VSNS.m                  -7.04:  VERT SEC N/S
 EKB .m                  43.60:  KB ELEVATION
 EDF .m                  43.60:  DF ELEVATION
 TDL .m                 957.50:  TOTAL DEPTH (LOGGER)
 VSC .                       0:  VS TO CLOSURE
 MAGU.                 1851413:  MAGUTM CHECKSUM
~Parameter Information Block
#MNEM.UNIT       Value        Description
#---------     -----------    ---------------------------
 AV  .mps                 1.50:  Ann Velocity 
 AVMX.mps                 2.00:  Max Ann Veloc 
 AZIF.deg               184.66:  Azm, Final 
 BHAT.        Rotary Steerable:  BHA Type 
 BREV.rev               300.00:  Rev Bit Total 
 BROT.°/30m              -0.50:  Build Rotating 
 BS  .in                  8.50:  Bit Size 
 BSZ .in                  8.50:  Bit Size 
 BTPL.psig              370.00:  Bit Press Loss 
 CABU.                      No:  Customer Abuse 
 CGEO.      Behruz Shahbaliyev:  Customer Geo 
 COMM.                     4V:  Run Comments 1 
 TCS .hr                140.08:  Time Ciculation Ended 
 CV  .mps                 3.00:  Crit Velocity 
 CVMX.mps                 3.20:  Max Crit Veloc 
 DD1 .            Musa Ahmadov:  Direct Drillr 1 
 DD2 .           Hamid Ahmadov:  Direct Drillr 2 
 DDSV.               Geo-Pilot:  DD Service 
 DEFF.%                  98.40:  % Det Eff 
 DLRX.°/30m               3.40:  Dogleg Rot Max 
 DLSO.°/30m               1.45:  Dogleg Oriented 
 DLSX.°/30m               3.40:  Dogleg Str Max 
 DRET.      18.40.00 29-Aug-21:  Drill End Time 
 DRST.      21.00.00 20-Aug-21:  Drill Start Tim 
 DTIM.hr                 69.47:  Time Drilling 
 EDEP.m                5084.50:  End Depth 
 ENG1.      Artemiy Matviyanov:  Engineer 1 
 ENG2.         Almaz Almadatov:  Engineer 2 
 ETIM.      18.40.00 29-Aug-21:  End Time 
 FLOI.gpm               500.00:  Flow In 
 FLON.gpm               400.00:  Flow In Min 
 FLOS.cptm                0.00:  Fluid Loss 
 FLOX.gpm               500.00:  Flow In Max 
 DFT .        Mineral Oil Base:  Mud Type 
 HFLO.                      No:  High Flow 
 HPRE.                      No:  High Pressure 
 HTEM.                      No:  High Temp 
 HYDO.m                   1.80:  Hydro Offset 
 IFIN.deg                25.62:  Inc, Final 
 IMAX.deg                48.69:  Inc Max 
 IMIN.deg                24.01:  Inc Min 
 IMND.m                4962.57:  Inc Min Depth 
 IMXD.m                4119.01:  Inc Max Depth 
 JARR.                      No:  Jarring 
 LETM.      18.40.00 29-Aug-21:  Log End Time 
 LOST.hr                     0:  Lost Rig Time 
 LSTM.      21.00.00 20-Aug-21:  Log Start Time 
 MDCL.ppm             41500.00:  Mud Chlorides 
 MDES.     Inversion Oil/Synthetic:  Mud Desc 
 DFD .sg                  1.56:  Mud Density 
 MDMN.sg                  1.56:  Dens Mud Min 
 MDMX.sg                  1.56:  Dens Mud Max 
 MOIL.                      70:  Run Mud Oil % 
 MOWR.                   70:30:  Run Mud OWR 
 MSND.                     0.2:  Run Mud Sand % 
 MSOL.                    23.3:  Run Mud Solids% 
 DFV .spqt               78.00:  Mud Viscosity 
 MWOD.in                  6.75:  MWD Tool OD 
 MWSI.                      No:  Serv Intrp, MWD 
 OTIM.hr                218.30:  Time Operating 
 PCON.           Look Like New:  Pad Condition 
 PMAX.psia            11015.30:  Press Op, Max 
 PV  .cP                 38.00:  Mud PV 
 RUN .                     300:  Run Number 
 ROPA.m/hr               15.00:  ROP Avg 
 ROPN.m/hr                9.00:  ROP Min 
 ROPX.m/hr               17.00:  ROP Max 
 RPMA.rpm               120.00:  RPM Surface Avg 
 RPMN.rpm                90.00:  RPM Surface Min 
 RPMX.rpm               140.00:  RPM Surface Max 
 RRUN.                     300:  Rig Run Number 
 RTIM.hr                 31.53:  Time Reaming 
 SAZI.deg               331.64:  Azm, Start 
 SDEP.m                4127.00:  Start Depth 
 SIDD.                      No:  Serv Intrp, DD 
 SINC.deg                48.43:  Inc, Start 
 SPPA.psig             5830.00:  SPP Avg 
 SPPN.psig             5600.00:  SPP Min 
 SPPX.psig             5900.00:  SPP Max 
 STIM.      21.00.00 20-Aug-21:  Start Time 
 SVCS.                 DD, MWD:  Services 
 SVER.                    9.20:  Sperry Version 
 TDAT.m                 957.50:  Tot Depth Attmp 
 TDDF.                      No:  Trip for DD 
 TDLG.m                 957.50:  Tot Depth Loggd 
 TFF .                      No:  Trip for Fail 
 TQAA.f-kp               15.00:  Torque Abs Avg 
 TQAN.f-kp               12.00:  Torque Abs Min 
 TQAX.f-kp               19.00:  Torque Abs Max 
 TRRT.°/30m              -3.40:  Turn Rotating 
 MRT .                  EWR-M5:  Maximum Recorded Temperature 
 TTMX.degC              100.00:  Max Tool Temp 
 VS01.                90639251:  Virtual Str1 SN 
 VS02.                90634715:  Virtual Str2 SN 
 VS03.                90652479:  Virtual Str3 SN 
 VS04.                90642262:  Virtual Str4 SN 
 WBMN.klb                 0.00:  WOB Min 
 WITN.           Murad Guliyev:  Customer Rep 
 WITN.          Yashar Gaziyev:  Customer Rep 2 
 WOBA.klb                 9.00:  WOB Avg 
 WOBX.klb                12.00:  WOB Max 
 YP  .lhf2               30.00:  Yield Point 
~Curve Information Block
#MNEM.UNIT                 API CODE     Curve Description
#---------               -----------    ---------------------------
 TIME.HHMMSS            00 000 000 000:  GT Time & Date
 GTDEPTH.m              00 000 000 000:  GT Depth
 GTPQH.psia             00 000 000 000:  GT HR Quartz Pressure
 GTTQ.degC              00 000 000 000:  GT Quartz Temperature
 GTTN.NONE              00 000 000 000:  GT Test Number
 GTET.sec               00 000 000 000:  GT Elapsed Test Time
 GTTVD.m                00 000 000 000:  GT True Vertical Depth
#Other Information
#
#WARRANTY: Halliburton will use its best efforts to furnish customers with 
#accurate information and interpretations that are part of, and incident to, the services 
#provided.  However, Halliburton cannot and does not warrant the accuracy 
#or correctness of such information and interpretations.  Under no circumstances should any 
#such information or interpretation be relied upon as the sole basis for any drilling, 
#completion, production, or financial decision or any procedure involving any risk to the 
#safety of any drilling venture, drilling rig or its crew or any other third party.  The 
#Customer has full responsibility for all drilling, completion and production operation.  
#Halliburton makes no representations or warranties, either expressed or 
#implied, including, but not limited to, the implied warranties of merchantability or fitness 
#for a particular purpose, with respect to the services rendered.  In no event will 
#Halliburton be liable for failure to obtain any particular results or for 
#any damages, including, but not limited to, indirect, special or consequential damages, 
#resulting from the use of any information or interpretation provided by Halliburton.
#
~A           TIME           GTDEPTH  GTPQH  GTTQ  GTTN  GTET   GTTVD  
   06:14:43.622.27-Aug-2021 5020.50 7945.31 88.24 2.00   0.00 3358.11
   06:14:43.822.27-Aug-2021 5020.50 7945.31 88.24 2.00   0.20 3358.11
   06:14:44.022.27-Aug-2021 5020.50 7948.57 88.24 2.00   0.40 3358.11
   06:14:44.222.27-Aug-2021 5020.50 7948.43 88.24 2.00   0.60 3358.11
   06:14:44.422.27-Aug-2021 5020.50 7948.04 88.24 2.00   0.80 3358.11
   06:14:44.623.27-Aug-2021 5020.50 7949.15 88.24 2.00   1.00 3358.11
   06:14:44.823.27-Aug-2021 5020.50 7949.15 88.24 2.00   1.20 3358.11
   06:14:45.023.27-Aug-2021 5020.50 7953.24 88.24 2.00   1.40 3358.11
   06:14:45.223.27-Aug-2021 5020.50 7950.25 88.24 2.00   1.60 3358.11
   06:14:45.423.27-Aug-2021 5020.50 7948.56 88.24 2.00   1.80 3358.11
   06:14:45.623.27-Aug-2021 5020.50 7955.08 88.24 2.00   2.00 3358.11
   06:14:45.823.27-Aug-2021 5020.50 7955.08 88.24 2.00   2.20 3358.11
   06:14:46.023.27-Aug-2021 5020.50 7949.15 88.24 2.00   2.40 3358.11
   06:14:46.223.27-Aug-2021 5020.50 7947.67 88.24 2.00   2.60 3358.11
   06:14:46.423.27-Aug-2021 5020.50 7954.26 88.24 2.00   2.80 3358.11
   06:14:46.623.27-Aug-2021 5020.50 7944.44 88.24 2.00   3.00 3358.11
   06:14:46.823.27-Aug-2021 5020.50 7944.44 88.24 2.00   3.20 3358.11
   06:14:47.023.27-Aug-2021 5020.50 7947.01 88.24 2.00   3.40 3358.11
   06:14:47.223.27-Aug-2021 5020.50 7948.01 88.24 2.00   3.60 3358.11
   06:14:47.423.27-Aug-2021 5020.50 7949.96 88.24 2.00   3.80 3358.11
   06:14:47.623.27-Aug-2021 5020.50 7950.24 88.24 2.00   4.00 3358.11
   06:14:47.823.27-Aug-2021 5020.50 7950.24 88.24 2.00   4.20 3358.11
   06:14:48.023.27-Aug-2021 5020.50 7948.82 88.24 2.00   4.40 3358.11
   06:14:48.223.27-Aug-2021 5020.50 7949.50 88.24 2.00   4.60 3358.11
   06:14:48.423.27-Aug-2021 5020.50 7949.67 88.24 2.00   4.80 3358.11
   06:14:48.623.27-Aug-2021 5020.50 7954.43 88.24 2.00   5.00 3358.11
   06:14:48.823.27-Aug-2021 5020.50 7954.43 88.24 2.00   5.20 3358.11
   06:14:49.023.27-Aug-2021 5020.50 7949.78 88.24 2.00   5.40 3358.11
   06:14:49.223.27-Aug-2021 5020.50 7950.02 88.24 2.00   5.60 3358.11
   06:14:49.423.27-Aug-2021 5020.50 7950.06 88.24 2.00   5.80 3358.11
   06:14:49.623.27-Aug-2021 5020.50 7951.81 88.24 2.00   6.00 3358.11
   06:14:49.823.27-Aug-2021 5020.50 7951.81 88.24 2.00   6.20 3358.11
   06:14:50.023.27-Aug-2021 5020.50 7951.81 88.24 2.00   6.40 3358.11
   06:14:50.223.27-Aug-2021 5020.50 7950.81 88.24 2.00   6.60 3358.11
   06:14:50.423.27-Aug-2021 5020.50 7954.56 88.24 2.00   6.80 3358.11
   06:14:50.624.27-Aug-2021 5020.50 7954.76 88.24 2.00   7.00 3358.11
   06:14:50.824.27-Aug-2021 5020.50 7954.76 88.24 2.00   7.20 3358.11
   06:14:51.024.27-Aug-2021 5020.50 7953.27 88.24 2.00   7.40 3358.11
   06:14:51.224.27-Aug-2021 5020.50 7953.43 88.24 2.00   7.60 3358.11
   06:14:51.424.27-Aug-2021 5020.50 7953.25 88.24 2.00   7.80 3358.11
   06:14:51.624.27-Aug-2021 5020.50 7960.02 88.24 2.00   8.00 3358.11
   06:14:51.824.27-Aug-2021 5020.50 7960.02 88.24 2.00   8.20 3358.11
   06:14:52.024.27-Aug-2021 5020.50 7960.02 88.24 2.00   8.40 3358.11
   06:14:52.224.27-Aug-2021 5020.50 7960.02 88.24 2.00   8.60 3358.11
   06:14:52.424.27-Aug-2021 5020.50 7955.20 88.24 2.00   8.80 3358.11
   06:14:52.624.27-Aug-2021 5020.50 7955.91 88.24 2.00   9.00 3358.11
   06:14:52.824.27-Aug-2021 5020.50 7956.37 88.24 2.00   9.20 3358.11
   06:14:53.024.27-Aug-2021 5020.50 7955.81 88.24 2.00   9.40 3358.11
   06:14:53.224.27-Aug-2021 5020.50 7956.44 88.24 2.00   9.60 3358.11
   06:14:53.424.27-Aug-2021 5020.50 7956.38 88.24 2.00   9.80 3358.11
   06:14:53.624.27-Aug-2021 5020.50 7957.25 88.24 2.00  10.00 3358.11
   06:14:53.824.27-Aug-2021 5020.50 7957.25 88.24 2.00  10.20 3358.11
   06:14:54.024.27-Aug-2021 5020.50 7958.16 88.23 2.00  10.40 3358.11
   06:14:54.224.27-Aug-2021 5020.50 7958.18 88.23 2.00  10.60 3358.11
   06:14:54.424.27-Aug-2021 5020.50 7958.04 88.23 2.00  10.80 3358.11
   06:14:54.624.27-Aug-2021 5020.50 7958.09 88.23 2.00  11.00 3358.11
   06:14:54.824.27-Aug-2021 5020.50 7958.09 88.23 2.00  11.20 3358.11
   06:14:55.024.27-Aug-2021 5020.50 7958.11 88.23 2.00  11.40 3358.11
   06:14:55.224.27-Aug-2021 5020.50 7960.22 88.23 2.00  11.60 3358.11
   06:14:55.424.27-Aug-2021 5020.50 7959.69 88.23 2.00  11.80 3358.11
   06:14:55.624.27-Aug-2021 5020.50 7958.79 88.23 2.00  12.00 3358.11
   06:14:55.824.27-Aug-2021 5020.50 7958.79 88.23 2.00  12.20 3358.11
   06:14:56.024.27-Aug-2021 5020.50 7958.31 88.23 2.00  12.40 3358.11
   06:14:56.224.27-Aug-2021 5020.50 7958.10 88.23 2.00  12.60 3358.11
   06:14:56.424.27-Aug-2021 5020.50 7959.12 88.23 2.00  12.80 3358.11
   06:14:56.625.27-Aug-2021 5020.50 7957.91 88.23 2.00  13.00 3358.11
   06:14:56.825.27-Aug-2021 5020.50 7957.91 88.23 2.00  13.20 3358.11
   06:14:57.025.27-Aug-2021 5020.50 7958.77 88.23 2.00  13.40 3358.11
   06:14:57.225.27-Aug-2021 5020.50 7959.57 88.23 2.00  13.60 3358.11
   06:14:57.425.27-Aug-2021 5020.50 7960.68 88.23 2.00  13.80 3358.11
   06:14:57.625.27-Aug-2021 5020.50 7961.26 88.23 2.00  14.00 3358.11
   06:14:57.825.27-Aug-2021 5020.50 7961.26 88.23 2.00  14.20 3358.11
   06:14:58.025.27-Aug-2021 5020.50 7961.12 88.23 2.00  14.40 3358.11
   06:14:58.225.27-Aug-2021 5020.50 7961.37 88.23 2.00  14.60 3358.11
   06:14:58.425.27-Aug-2021 5020.50 7963.42 88.23 2.00  14.80 3358.11
   06:14:58.625.27-Aug-2021 5020.50 7963.52 88.23 2.00  15.00 3358.11
   06:14:58.825.27-Aug-2021 5020.50 7963.52 88.23 2.00  15.20 3358.11
   06:14:59.025.27-Aug-2021 5020.50 7961.36 88.23 2.00  15.40 3358.11
   06:14:59.225.27-Aug-2021 5020.50 7961.88 88.23 2.00  15.60 3358.11
   06:14:59.425.27-Aug-2021 5020.50 7961.33 88.23 2.00  15.80 3358.11
   06:14:59.625.27-Aug-2021 5020.50 7964.66 88.23 2.00  16.00 3358.11
   06:14:59.825.27-Aug-2021 5020.50 7964.66 88.23 2.00  16.20 3358.11
   06:15:00.025.27-Aug-2021 5020.50 7963.46 88.23 2.00  16.40 3358.11
   06:15:00.225.27-Aug-2021 5020.50 7961.90 88.23 2.00  16.60 3358.11
   06:15:00.425.27-Aug-2021 5020.50 7963.04 88.23 2.00  16.80 3358.11
   06:15:00.625.27-Aug-2021 5020.50 7963.63 88.23 2.00  17.00 3358.11
   06:15:00.825.27-Aug-2021 5020.50 7963.63 88.23 2.00  17.20 3358.11
   06:15:01.025.27-Aug-2021 5020.50 7961.91 88.23 2.00  17.40 3358.11
   06:15:01.225.27-Aug-2021 5020.50 7963.43 88.23 2.00  17.60 3358.11
   06:15:01.425.27-Aug-2021 5020.50 7963.41 88.23 2.00  17.80 3358.11
   06:15:01.625.27-Aug-2021 5020.50 7963.60 88.23 2.00  18.00 3358.11
   06:15:01.825.27-Aug-2021 5020.50 7963.60 88.23 2.00  18.20 3358.11
   06:15:02.025.27-Aug-2021 5020.50 7968.63 88.23 2.00  18.40 3358.11
   06:15:02.225.27-Aug-2021 5020.50 7965.99 88.23 2.00  18.60 3358.11
   06:15:02.425.27-Aug-2021 5020.50 7963.91 88.23 2.00  18.80 3358.11
   06:15:02.625.27-Aug-2021 5020.50 7966.48 88.23 2.00  19.00 3358.11
   06:15:02.826.27-Aug-2021 5020.50 7966.48 88.23 2.00  19.20 3358.11
   06:15:03.026.27-Aug-2021 5020.50 7967.00 88.23 2.00  19.40 3358.11
   06:15:03.226.27-Aug-2021 5020.50 7965.50 88.23 2.00  19.60 3358.11
   06:15:03.426.27-Aug-2021 5020.50 7965.55 88.23 2.00  19.80 3358.11
   06:15:03.626.27-Aug-2021 5020.50 7965.18 88.23 2.00  20.00 3358.11
   06:15:03.826.27-Aug-2021 5020.50 7965.18 88.23 2.00  20.20 3358.11
   06:15:04.026.27-Aug-2021 5020.50 7967.69 88.23 2.00  20.40 3358.11
   06:15:04.226.27-Aug-2021 5020.50 7966.59 88.23 2.00  20.60 3358.11
   06:15:04.426.27-Aug-2021 5020.50 7966.50 88.23 2.00  20.80 3358.11
   06:15:04.626.27-Aug-2021 5020.50 7966.77 88.23 2.00  21.00 3358.11
   06:15:04.826.27-Aug-2021 5020.50 7966.77 88.23 2.00  21.20 3358.11
   06:15:05.026.27-Aug-2021 5020.50 7967.55 88.23 2.00  21.40 3358.11
   06:15:05.226.27-Aug-2021 5020.50 7967.25 88.23 2.00  21.60 3358.11
   06:15:05.426.27-Aug-2021 5020.50 7967.41 88.23 2.00  21.80 3358.11
   06:15:05.626.27-Aug-2021 5020.50 7967.64 88.23 2.00  22.00 3358.11
   06:15:05.826.27-Aug-2021 5020.50 7967.64 88.23 2.00  22.20 3358.11
   06:15:06.026.27-Aug-2021 5020.50 7969.14 88.23 2.00  22.40 3358.11
   06:15:06.226.27-Aug-2021 5020.50 7968.73 88.23 2.00  22.60 3358.11
   06:15:06.426.27-Aug-2021 5020.50 7968.96 88.23 2.00  22.80 3358.11
