~Version Information
 VERS.                  2.0:   CWLS log ASCII Standard -VERSION 2.0
 WRAP.                   NO:   One line per depth step
~Well Information Block
#MNEM.UNIT     VALUE/NAME     DESCRIPTION
#---------     -----------    ---------------------------
 STRT.S             15:52:10 27-Aug-21: START TIME 15:52:10 27-Aug-21
 STOP.S             15:59:26 27-Aug-21: STOP TIME  15:59:26 27-Aug-21
 STEP.S                   0.00: STEP TIME
 NULL.                 -999.25: NULL VALUE
 DFWT.                        :  DIST FWL TEXT
 DFST.                        :  DIST FSL TEXT
 DMF .             Drill Floor:  DRILL MEAS FROM
 STIM.      20.00.00 17-Aug-21:  START TIME
 DATE.      19.00.00 29-Aug-21:  END TIME
 SPUD.               15-Aug-21:  SPUD DATE
 NREF.                    Grid:  NORTH REFERENCE
 HPTY.       Minimum Curvature:  HOLE POS TYPE
 DMOD.             Drill Model:  DRILL MOD DESC
 SVYD.                  Survey:  SURVEY DESC
 ILTD.               Lithology:  INTERP LTH DESC
 FTOP.          Formation Tops:  FORM TOPS DESC
 RIG .              East Azeri:  RIG NAME
 PDAT.          Mean Sea Level:  PERMANENT DATUM
 FLD .                     ACG:  FIELD NAME
 SON .        AZ-XX-0907180857:  JOB NUMBER
 CTRY.              Azerbaijan:  COUNTRY NAME
 WELL.                    D23x:  WELL NAME
 SRVC.     Turan Drilling and Engineering:  CONTRACTOR
 COMP.     BP Exploration (Caspian Sea) Ltd.:  COMPANY
 UWI .            /AZE00000214:  UNIQUE WELL IDENTIFIER
 API .            /AZE00000214:  API NUMBER
 MDS .        Operator Entered:  MAG DATA SOURCE
 BASE.              Azerbaijan:  LOGGING EQUIPMENT BASE LOCATION
 REGN.                   EESSA:  REGION
 PROV.                    Baku:  PROVINCE
 STAT.                    Baku:  STATE NAME
 MWDS.                    Baku:  MWD SHOP
 DOE .                     N/A:  DOE NUMBER
 DCON.         Sperry Drilling:  DIRECTNL CONTR
 UNIT.                     N/A:  LOGGING EQUIPMENT ID
 WTYP.                Deviated:  WELL TYPE
 CNTY.                        :  COUNTY
 LOC .                        :  LOCATION
 LMF .             Drill Floor:  LOG MEASURED FROM
 TVDS.m                  43.60:  TVDSS CORRECTN
 LATI.deg                40.02:  LATITUDE
 LONG.deg                51.45:  LONGITUDE
 WHNS.m                  -7.04:  WELL HEAD N/S
 WHEW.m                  -0.67:  WELL HEAD E/W
 UTMX.m              538762.90:  UTM X
 UTMY.m             4431871.34:  UTM Y
 DFWL.m                   0.00:  DISTANCE FWL
 DFSL.m                   0.00:  DISTANCE FSL
 SDEP.m                4127.00:  START DEPTH
 TDD .m                5084.50:  TOTAL DEPTH (DRILLER)
 VSDR.deg               140.47:  VERT SEC DIRECT
 GVFD.g                   1.00:  GRAVITY FIELD
 MFLD.nT              50362.00:  MAGNETIC FIELD
 MDIP.deg                59.48:  MAGNETIC DIP
 MDEC.deg                 6.47:  MAGNETIC DECL
 GRDC.deg                 0.31:  GRID CORRECTION
 AZTC.deg                 6.16:  AZM TOTAL CORR
 EPD .m                   0.00:  ELEVATION
 EGL .m                   0.00:  GROUND ELEVATION
 WDMS.m                 151.80:  WD ELEV
 APD .m                  43.60:  DEPTH ABOVE PD
 DEP .m                4092.57:  DEPTH
 AGAP.m                  43.60:  AIR GAP
 VSEW.m                  -0.67:  VERT SEC E/W
 VSNS.m                  -7.04:  VERT SEC N/S
 EKB .m                  43.60:  KB ELEVATION
 EDF .m                  43.60:  DF ELEVATION
 TDL .m                 957.50:  TOTAL DEPTH (LOGGER)
 VSC .                       0:  VS TO CLOSURE
 MAGU.                 1851413:  MAGUTM CHECKSUM
~Parameter Information Block
#MNEM.UNIT       Value        Description
#---------     -----------    ---------------------------
 AV  .mps                 1.50:  Ann Velocity 
 AVMX.mps                 2.00:  Max Ann Veloc 
 AZIF.deg               184.66:  Azm, Final 
 BHAT.        Rotary Steerable:  BHA Type 
 BREV.rev               300.00:  Rev Bit Total 
 BROT.°/30m              -0.50:  Build Rotating 
 BS  .in                  8.50:  Bit Size 
 BSZ .in                  8.50:  Bit Size 
 BTPL.psig              370.00:  Bit Press Loss 
 CABU.                      No:  Customer Abuse 
 CGEO.      Behruz Shahbaliyev:  Customer Geo 
 COMM.                     Ìu:  Run Comments 1 
 TCS .hr                140.08:  Time Ciculation Ended 
 CV  .mps                 3.00:  Crit Velocity 
 CVMX.mps                 3.20:  Max Crit Veloc 
 DD1 .            Musa Ahmadov:  Direct Drillr 1 
 DD2 .           Hamid Ahmadov:  Direct Drillr 2 
 DDSV.               Geo-Pilot:  DD Service 
 DEFF.%                  98.40:  % Det Eff 
 DLRX.°/30m               3.40:  Dogleg Rot Max 
 DLSO.°/30m               1.45:  Dogleg Oriented 
 DLSX.°/30m               3.40:  Dogleg Str Max 
 DRET.      18.40.00 29-Aug-21:  Drill End Time 
 DRST.      21.00.00 20-Aug-21:  Drill Start Tim 
 DTIM.hr                 69.47:  Time Drilling 
 EDEP.m                5084.50:  End Depth 
 ENG1.      Artemiy Matviyanov:  Engineer 1 
 ENG2.         Almaz Almadatov:  Engineer 2 
 ETIM.      18.40.00 29-Aug-21:  End Time 
 FLOI.gpm               500.00:  Flow In 
 FLON.gpm               400.00:  Flow In Min 
 FLOS.cptm                0.00:  Fluid Loss 
 FLOX.gpm               500.00:  Flow In Max 
 DFT .        Mineral Oil Base:  Mud Type 
 HFLO.                      No:  High Flow 
 HPRE.                      No:  High Pressure 
 HTEM.                      No:  High Temp 
 HYDO.m                   1.80:  Hydro Offset 
 IFIN.deg                25.62:  Inc, Final 
 IMAX.deg                48.69:  Inc Max 
 IMIN.deg                24.01:  Inc Min 
 IMND.m                4962.57:  Inc Min Depth 
 IMXD.m                4119.01:  Inc Max Depth 
 JARR.                      No:  Jarring 
 LETM.      18.40.00 29-Aug-21:  Log End Time 
 LOST.hr                     0:  Lost Rig Time 
 LSTM.      21.00.00 20-Aug-21:  Log Start Time 
 MDCL.ppm             41500.00:  Mud Chlorides 
 MDES.     Inversion Oil/Synthetic:  Mud Desc 
 DFD .sg                  1.56:  Mud Density 
 MDMN.sg                  1.56:  Dens Mud Min 
 MDMX.sg                  1.56:  Dens Mud Max 
 MOIL.                      70:  Run Mud Oil % 
 MOWR.                   70:30:  Run Mud OWR 
 MSND.                     0.2:  Run Mud Sand % 
 MSOL.                    23.3:  Run Mud Solids% 
 DFV .spqt               78.00:  Mud Viscosity 
 MWOD.in                  6.75:  MWD Tool OD 
 MWSI.                      No:  Serv Intrp, MWD 
 OTIM.hr                218.30:  Time Operating 
 PCON.           Look Like New:  Pad Condition 
 PMAX.psia            11015.30:  Press Op, Max 
 PV  .cP                 38.00:  Mud PV 
 RUN .                     300:  Run Number 
 ROPA.m/hr               15.00:  ROP Avg 
 ROPN.m/hr                9.00:  ROP Min 
 ROPX.m/hr               17.00:  ROP Max 
 RPMA.rpm               120.00:  RPM Surface Avg 
 RPMN.rpm                90.00:  RPM Surface Min 
 RPMX.rpm               140.00:  RPM Surface Max 
 RRUN.                     300:  Rig Run Number 
 RTIM.hr                 31.53:  Time Reaming 
 SAZI.deg               331.64:  Azm, Start 
 SDEP.m                4127.00:  Start Depth 
 SIDD.                      No:  Serv Intrp, DD 
 SINC.deg                48.43:  Inc, Start 
 SPPA.psig             5830.00:  SPP Avg 
 SPPN.psig             5600.00:  SPP Min 
 SPPX.psig             5900.00:  SPP Max 
 STIM.      21.00.00 20-Aug-21:  Start Time 
 SVCS.                 DD, MWD:  Services 
 SVER.                    9.20:  Sperry Version 
 TDAT.m                 957.50:  Tot Depth Attmp 
 TDDF.                      No:  Trip for DD 
 TDLG.m                 957.50:  Tot Depth Loggd 
 TFF .                      No:  Trip for Fail 
 TQAA.f-kp               15.00:  Torque Abs Avg 
 TQAN.f-kp               12.00:  Torque Abs Min 
 TQAX.f-kp               19.00:  Torque Abs Max 
 TRRT.°/30m              -3.40:  Turn Rotating 
 MRT .                  EWR-M5:  Maximum Recorded Temperature 
 TTMX.degC              100.00:  Max Tool Temp 
 VS01.                90639251:  Virtual Str1 SN 
 VS02.                90634715:  Virtual Str2 SN 
 VS03.                90652479:  Virtual Str3 SN 
 VS04.                90642262:  Virtual Str4 SN 
 WBMN.klb                 0.00:  WOB Min 
 WITN.           Murad Guliyev:  Customer Rep 
 WITN.          Yashar Gaziyev:  Customer Rep 2 
 WOBA.klb                 9.00:  WOB Avg 
 WOBX.klb                12.00:  WOB Max 
 YP  .lhf2               30.00:  Yield Point 
~Curve Information Block
#MNEM.UNIT                 API CODE     Curve Description
#---------               -----------    ---------------------------
 TIME.HHMMSS            00 000 000 000:  GT Time & Date
 GTDEPTH.m              00 000 000 000:  GT Depth
 GTPQH.psia             00 000 000 000:  GT HR Quartz Pressure
 GTTQ.degC              00 000 000 000:  GT Quartz Temperature
 GTTN.NONE              00 000 000 000:  GT Test Number
 GTET.sec               00 000 000 000:  GT Elapsed Test Time
 GTTVD.m                00 000 000 000:  GT True Vertical Depth
#Other Information
#
#WARRANTY: Halliburton will use its best efforts to furnish customers with 
#accurate information and interpretations that are part of, and incident to, the services 
#provided.  However, Halliburton cannot and does not warrant the accuracy 
#or correctness of such information and interpretations.  Under no circumstances should any 
#such information or interpretation be relied upon as the sole basis for any drilling, 
#completion, production, or financial decision or any procedure involving any risk to the 
#safety of any drilling venture, drilling rig or its crew or any other third party.  The 
#Customer has full responsibility for all drilling, completion and production operation.  
#Halliburton makes no representations or warranties, either expressed or 
#implied, including, but not limited to, the implied warranties of merchantability or fitness 
#for a particular purpose, with respect to the services rendered.  In no event will 
#Halliburton be liable for failure to obtain any particular results or for 
#any damages, including, but not limited to, indirect, special or consequential damages, 
#resulting from the use of any information or interpretation provided by Halliburton.
#
~A           TIME           GTDEPTH  GTPQH  GTTQ  GTTN   GTET   GTTVD  
# ...
   15:52:33.407.27-Aug-2021 4817.00 7621.55 83.74 16.00  22.64 3173.43
   15:52:33.607.27-Aug-2021 4817.00 7622.22 83.74 16.00  22.84 3173.43
   15:52:33.808.27-Aug-2021 4817.00 7622.76 83.74 16.00  23.04 3173.43
   15:52:34.008.27-Aug-2021 4817.00 7622.76 83.74 16.00  23.24 3173.43
   15:52:34.208.27-Aug-2021 4817.00 7622.72 83.74 16.00  23.44 3173.43
   15:52:34.409.27-Aug-2021 4817.00 7622.96 83.74 16.00  23.64 3173.43
   15:52:34.609.27-Aug-2021 4817.00 7622.88 83.74 16.00  23.84 3173.43
   15:52:34.809.27-Aug-2021 4817.00 7623.00 83.74 16.00  24.04 3173.43
   15:52:35.010.27-Aug-2021 4817.00 7623.00 83.74 16.00  24.24 3173.43
   15:52:35.210.27-Aug-2021 4817.00 7623.19 83.74 16.00  24.44 3173.43
   15:52:35.410.27-Aug-2021 4817.00 7626.73 83.74 16.00  24.64 3173.43
   15:52:35.611.27-Aug-2021 4817.00 7623.30 83.74 16.00  24.84 3173.43
   15:52:35.811.27-Aug-2021 4817.00 7624.24 83.74 16.00  25.04 3173.43
   15:52:36.011.27-Aug-2021 4817.00 7624.24 83.74 16.00  25.24 3173.43
   15:52:36.211.27-Aug-2021 4817.00 7624.69 83.74 16.00  25.44 3173.43
   15:52:36.412.27-Aug-2021 4817.00 7624.31 83.73 16.00  25.64 3173.43
   15:52:36.612.27-Aug-2021 4817.00 7623.84 83.73 16.00  25.84 3173.43
   15:52:36.812.27-Aug-2021 4817.00 7624.66 83.73 16.00  26.04 3173.43
   15:52:37.013.27-Aug-2021 4817.00 7624.66 83.73 16.00  26.24 3173.43
   15:52:37.213.27-Aug-2021 4817.00 7625.21 83.73 16.00  26.44 3173.43
   15:52:37.413.27-Aug-2021 4817.00 7625.39 83.73 16.00  26.64 3173.43
   15:52:37.614.27-Aug-2021 4817.00 7625.59 83.73 16.00  26.84 3173.43
   15:52:37.814.27-Aug-2021 4817.00 7625.62 83.73 16.00  27.04 3173.43
   15:52:38.014.27-Aug-2021 4817.00 7625.62 83.73 16.00  27.24 3173.43
   15:52:38.215.27-Aug-2021 4817.00 7625.66 83.73 16.00  27.44 3173.43
   15:52:38.415.27-Aug-2021 4817.00 7625.56 83.73 16.00  27.64 3173.43
   15:52:38.615.27-Aug-2021 4817.00 7625.55 83.73 16.00  27.84 3173.43
   15:52:38.816.27-Aug-2021 4817.00 7630.67 83.73 16.00  28.04 3173.43
   15:52:39.016.27-Aug-2021 4817.00 7630.67 83.73 16.00  28.24 3173.43
   15:52:39.216.27-Aug-2021 4817.00 7626.06 83.73 16.00  28.45 3173.43
   15:52:39.417.27-Aug-2021 4817.00 7626.77 83.73 16.00  28.65 3173.43
   15:52:39.617.27-Aug-2021 4817.00 7626.04 83.73 16.00  28.85 3173.43
   15:52:39.817.27-Aug-2021 4817.00 7626.84 83.73 16.00  29.05 3173.43
   15:52:40.018.27-Aug-2021 4817.00 7626.84 83.73 16.00  29.25 3173.43
   15:52:40.218.27-Aug-2021 4817.00 7626.33 83.73 16.00  29.45 3173.43
   15:52:40.418.27-Aug-2021 4817.00 7627.68 83.73 16.00  29.65 3173.43
   15:52:40.618.27-Aug-2021 4817.00 7627.42 83.73 16.00  29.85 3173.43
   15:52:40.819.27-Aug-2021 4817.00 7626.78 83.73 16.00  30.05 3173.43
   15:52:41.019.27-Aug-2021 4817.00 7626.78 83.73 16.00  30.25 3173.43
   15:52:41.219.27-Aug-2021 4817.00 7625.77 83.73 16.00  30.45 3173.43
   15:52:41.420.27-Aug-2021 4817.00 7627.44 83.73 16.00  30.65 3173.43
   15:52:41.620.27-Aug-2021 4817.00 7628.77 83.73 16.00  30.85 3173.43
   15:52:41.820.27-Aug-2021 4817.00 7632.91 83.73 16.00  31.05 3173.43
   15:52:42.021.27-Aug-2021 4817.00 7632.91 83.73 16.00  31.25 3173.43
   15:52:42.221.27-Aug-2021 4817.00 7628.53 83.73 16.00  31.45 3173.43
   15:52:42.421.27-Aug-2021 4817.00 7628.76 83.73 16.00  31.65 3173.43
   15:52:42.622.27-Aug-2021 4817.00 7628.32 83.73 16.00  31.85 3173.43
   15:52:42.822.27-Aug-2021 4817.00 7628.39 83.73 16.00  32.05 3173.43
   15:52:43.022.27-Aug-2021 4817.00 7628.39 83.73 16.00  32.25 3173.43
   15:52:43.223.27-Aug-2021 4817.00 7628.92 83.73 16.00  32.45 3173.43
   15:52:43.423.27-Aug-2021 4817.00 7629.16 83.73 16.00  32.65 3173.43
   15:52:43.623.27-Aug-2021 4817.00 7629.19 83.73 16.00  32.85 3173.43
   15:52:43.824.27-Aug-2021 4817.00 7629.43 83.73 16.00  33.05 3173.43
   15:52:44.024.27-Aug-2021 4817.00 7629.43 83.73 16.00  33.25 3173.43
   15:52:44.224.27-Aug-2021 4817.00 7629.55 83.73 16.00  33.45 3173.43
   15:52:44.425.27-Aug-2021 4817.00 7629.46 83.73 16.00  33.65 3173.43
   15:52:44.625.27-Aug-2021 4817.00 7629.59 83.73 16.00  33.85 3173.43
   15:52:44.825.27-Aug-2021 4817.00 7629.58 83.73 16.00  34.05 3173.43
   15:52:45.026.27-Aug-2021 4817.00 7629.58 83.73 16.00  34.25 3173.43
   15:52:45.226.27-Aug-2021 4817.00 7629.71 83.73 16.00  34.45 3173.43
   15:52:45.426.27-Aug-2021 4817.00 7630.86 83.73 16.00  34.66 3173.43
   15:52:45.626.27-Aug-2021 4817.00 7632.46 83.73 16.00  34.86 3173.43
   15:52:45.827.27-Aug-2021 4817.00 7630.12 83.73 16.00  35.06 3173.43
   15:52:46.027.27-Aug-2021 4817.00 7630.12 83.73 16.00  35.26 3173.43
   15:52:46.227.27-Aug-2021 4817.00 7630.80 83.73 16.00  35.46 3173.43
   15:52:46.428.27-Aug-2021 4817.00 7630.28 83.73 16.00  35.66 3173.43
   15:52:46.628.27-Aug-2021 4817.00 7630.92 83.73 16.00  35.86 3173.43
   15:52:46.828.27-Aug-2021 4817.00 7630.36 83.72 16.00  36.06 3173.43
   15:52:47.029.27-Aug-2021 4817.00 7630.36 83.72 16.00  36.26 3173.43
   15:52:47.229.27-Aug-2021 4817.00 7631.77 83.72 16.00  36.46 3173.43
   15:52:47.429.27-Aug-2021 4817.00 7631.96 83.72 16.00  36.66 3173.43
   15:52:47.630.27-Aug-2021 4817.00 7634.30 83.72 16.00  36.86 3173.43
   15:52:47.830.27-Aug-2021 4817.00 7639.26 83.72 16.00  37.06 3173.43
   15:52:48.030.27-Aug-2021 4817.00 7639.26 83.72 16.00  37.26 3173.43
   15:52:48.231.27-Aug-2021 4817.00 7685.74 83.72 16.00  37.46 3173.43
   15:52:48.431.27-Aug-2021 4817.00 7710.74 83.72 16.00  37.66 3173.43
   15:52:48.631.27-Aug-2021 4817.00 7732.63 83.72 16.00  37.86 3173.43
   15:52:48.832.27-Aug-2021 4817.00 7750.65 83.72 16.00  38.06 3173.43
   15:52:49.032.27-Aug-2021 4817.00 7750.65 83.72 16.00  38.26 3173.43
   15:52:49.232.27-Aug-2021 4817.00 7765.93 83.72 16.00  38.46 3173.43
   15:52:49.433.27-Aug-2021 4817.00 7771.68 83.72 16.00  38.66 3173.43
   15:52:49.633.27-Aug-2021 4817.00 7775.15 83.72 16.00  38.86 3173.43
   15:52:49.833.27-Aug-2021 4817.00 7778.88 83.72 16.00  39.06 3173.43
   15:52:50.033.27-Aug-2021 4817.00 7778.88 83.72 16.00  39.26 3173.43
   15:52:50.234.27-Aug-2021 4817.00 7776.94 83.72 16.00  39.46 3173.43
   15:52:50.434.27-Aug-2021 4817.00 7776.97 83.72 16.00  39.66 3173.43
   15:52:50.634.27-Aug-2021 4817.00 7775.51 83.72 16.00  39.86 3173.43
   15:52:50.835.27-Aug-2021 4817.00 7773.61 83.72 16.00  40.06 3173.43
   15:52:51.035.27-Aug-2021 4817.00 7773.61 83.72 16.00  40.26 3173.43
   15:52:51.235.27-Aug-2021 4817.00 7769.99 83.72 16.00  40.46 3173.43
   15:52:51.436.27-Aug-2021 4817.00 7771.48 83.72 16.00  40.66 3173.43
   15:52:51.636.27-Aug-2021 4817.00 7772.83 83.72 16.00  40.86 3173.43
   15:52:51.836.27-Aug-2021 4817.00 7771.96 83.72 16.00  41.07 3173.43
   15:52:52.037.27-Aug-2021 4817.00 7771.96 83.72 16.00  41.27 3173.43
   15:52:52.237.27-Aug-2021 4817.00 7776.87 83.72 16.00  41.47 3173.43
   15:52:52.437.27-Aug-2021 4817.00 7772.34 83.72 16.00  41.67 3173.43
   15:52:52.638.27-Aug-2021 4817.00 7774.89 83.72 16.00  41.87 3173.43
   15:52:52.838.27-Aug-2021 4817.00 7776.13 83.72 16.00  42.07 3173.43
   15:52:53.038.27-Aug-2021 4817.00 7776.13 83.72 16.00  42.27 3173.43
   15:52:53.239.27-Aug-2021 4817.00 7772.89 83.72 16.00  42.47 3173.43
   15:52:53.439.27-Aug-2021 4817.00 7772.84 83.72 16.00  42.67 3173.43
   15:52:53.639.27-Aug-2021 4817.00 7773.12 83.72 16.00  42.87 3173.43
   15:52:53.840.27-Aug-2021 4817.00 7773.42 83.72 16.00  43.07 3173.43
   15:52:54.040.27-Aug-2021 4817.00 7773.42 83.72 16.00  43.27 3173.43
   15:52:54.240.27-Aug-2021 4817.00 7773.67 83.72 16.00  43.47 3173.43
   15:52:54.440.27-Aug-2021 4817.00 7776.33 83.72 16.00  43.67 3173.43
   15:52:54.641.27-Aug-2021 4817.00 7777.55 83.72 16.00  43.87 3173.43
   15:52:54.841.27-Aug-2021 4817.00 7777.32 83.72 16.00  44.07 3173.43
   15:52:55.041.27-Aug-2021 4817.00 7777.32 83.72 16.00  44.27 3173.43
   15:52:55.242.27-Aug-2021 4817.00 7779.74 83.72 16.00  44.47 3173.43
   15:52:55.442.27-Aug-2021 4817.00 7781.56 83.72 16.00  44.67 3173.43
   15:52:55.642.27-Aug-2021 4817.00 7783.18 83.72 16.00  44.87 3173.43
   15:52:55.843.27-Aug-2021 4817.00 7783.90 83.72 16.00  45.07 3173.43
