~Version Information
 VERS.                  2.0:   CWLS log ASCII Standard -VERSION 2.0
 WRAP.                   NO:   One line per depth step
~Well Information Block
#MNEM.UNIT     VALUE/NAME     DESCRIPTION
#---------     -----------    ---------------------------
 STRT.S             13:52:51 27-Aug-21: START TIME 13:52:51 27-Aug-21
 STOP.S             13:59:42 27-Aug-21: STOP TIME  13:59:42 27-Aug-21
 STEP.S                   0.00: STEP TIME
 NULL.                 -999.25: NULL VALUE
 DFWT.                        :  DIST FWL TEXT
 DFST.                        :  DIST FSL TEXT
 DMF .             Drill Floor:  DRILL MEAS FROM
 STIM.      20.00.00 17-Aug-21:  START TIME
 DATE.      19.00.00 29-Aug-21:  END TIME
 SPUD.               15-Aug-21:  SPUD DATE
 NREF.                    Grid:  NORTH REFERENCE
 HPTY.       Minimum Curvature:  HOLE POS TYPE
 DMOD.             Drill Model:  DRILL MOD DESC
 SVYD.                  Survey:  SURVEY DESC
 ILTD.               Lithology:  INTERP LTH DESC
 FTOP.          Formation Tops:  FORM TOPS DESC
 RIG .              East Azeri:  RIG NAME
 PDAT.          Mean Sea Level:  PERMANENT DATUM
 FLD .                     ACG:  FIELD NAME
 SON .        AZ-XX-0907180857:  JOB NUMBER
 CTRY.              Azerbaijan:  COUNTRY NAME
 WELL.                    D23x:  WELL NAME
 SRVC.     Turan Drilling and Engineering:  CONTRACTOR
 COMP.     BP Exploration (Caspian Sea) Ltd.:  COMPANY
 UWI .            /AZE00000214:  UNIQUE WELL IDENTIFIER
 API .            /AZE00000214:  API NUMBER
 MDS .        Operator Entered:  MAG DATA SOURCE
 BASE.              Azerbaijan:  LOGGING EQUIPMENT BASE LOCATION
 REGN.                   EESSA:  REGION
 PROV.                    Baku:  PROVINCE
 STAT.                    Baku:  STATE NAME
 MWDS.                    Baku:  MWD SHOP
 DOE .                     N/A:  DOE NUMBER
 DCON.         Sperry Drilling:  DIRECTNL CONTR
 UNIT.                     N/A:  LOGGING EQUIPMENT ID
 WTYP.                Deviated:  WELL TYPE
 CNTY.                        :  COUNTY
 LOC .                        :  LOCATION
 LMF .             Drill Floor:  LOG MEASURED FROM
 TVDS.m                  43.60:  TVDSS CORRECTN
 LATI.deg                40.02:  LATITUDE
 LONG.deg                51.45:  LONGITUDE
 WHNS.m                  -7.04:  WELL HEAD N/S
 WHEW.m                  -0.67:  WELL HEAD E/W
 UTMX.m              538762.90:  UTM X
 UTMY.m             4431871.34:  UTM Y
 DFWL.m                   0.00:  DISTANCE FWL
 DFSL.m                   0.00:  DISTANCE FSL
 SDEP.m                4127.00:  START DEPTH
 TDD .m                5084.50:  TOTAL DEPTH (DRILLER)
 VSDR.deg               140.47:  VERT SEC DIRECT
 GVFD.g                   1.00:  GRAVITY FIELD
 MFLD.nT              50362.00:  MAGNETIC FIELD
 MDIP.deg                59.48:  MAGNETIC DIP
 MDEC.deg                 6.47:  MAGNETIC DECL
 GRDC.deg                 0.31:  GRID CORRECTION
 AZTC.deg                 6.16:  AZM TOTAL CORR
 EPD .m                   0.00:  ELEVATION
 EGL .m                   0.00:  GROUND ELEVATION
 WDMS.m                 151.80:  WD ELEV
 APD .m                  43.60:  DEPTH ABOVE PD
 DEP .m                4092.57:  DEPTH
 AGAP.m                  43.60:  AIR GAP
 VSEW.m                  -0.67:  VERT SEC E/W
 VSNS.m                  -7.04:  VERT SEC N/S
 EKB .m                  43.60:  KB ELEVATION
 EDF .m                  43.60:  DF ELEVATION
 TDL .m                 957.50:  TOTAL DEPTH (LOGGER)
 VSC .                       0:  VS TO CLOSURE
 MAGU.                 1851413:  MAGUTM CHECKSUM
~Parameter Information Block
#MNEM.UNIT       Value        Description
#---------     -----------    ---------------------------
 AV  .mps                 1.50:  Ann Velocity 
 AVMX.mps                 2.00:  Max Ann Veloc 
 AZIF.deg               184.66:  Azm, Final 
 BHAT.        Rotary Steerable:  BHA Type 
 BREV.rev               300.00:  Rev Bit Total 
 BROT.°/30m              -0.50:  Build Rotating 
 BS  .in                  8.50:  Bit Size 
 BSZ .in                  8.50:  Bit Size 
 BTPL.psig              370.00:  Bit Press Loss 
 CABU.                      No:  Customer Abuse 
 CGEO.      Behruz Shahbaliyev:  Customer Geo 
 COMM.                     ÄÆy:  Run Comments 1 
 TCS .hr                140.08:  Time Ciculation Ended 
 CV  .mps                 3.00:  Crit Velocity 
 CVMX.mps                 3.20:  Max Crit Veloc 
 DD1 .            Musa Ahmadov:  Direct Drillr 1 
 DD2 .           Hamid Ahmadov:  Direct Drillr 2 
 DDSV.               Geo-Pilot:  DD Service 
 DEFF.%                  98.40:  % Det Eff 
 DLRX.°/30m               3.40:  Dogleg Rot Max 
 DLSO.°/30m               1.45:  Dogleg Oriented 
 DLSX.°/30m               3.40:  Dogleg Str Max 
 DRET.      18.40.00 29-Aug-21:  Drill End Time 
 DRST.      21.00.00 20-Aug-21:  Drill Start Tim 
 DTIM.hr                 69.47:  Time Drilling 
 EDEP.m                5084.50:  End Depth 
 ENG1.      Artemiy Matviyanov:  Engineer 1 
 ENG2.         Almaz Almadatov:  Engineer 2 
 ETIM.      18.40.00 29-Aug-21:  End Time 
 FLOI.gpm               500.00:  Flow In 
 FLON.gpm               400.00:  Flow In Min 
 FLOS.cptm                0.00:  Fluid Loss 
 FLOX.gpm               500.00:  Flow In Max 
 DFT .        Mineral Oil Base:  Mud Type 
 HFLO.                      No:  High Flow 
 HPRE.                      No:  High Pressure 
 HTEM.                      No:  High Temp 
 HYDO.m                   1.80:  Hydro Offset 
 IFIN.deg                25.62:  Inc, Final 
 IMAX.deg                48.69:  Inc Max 
 IMIN.deg                24.01:  Inc Min 
 IMND.m                4962.57:  Inc Min Depth 
 IMXD.m                4119.01:  Inc Max Depth 
 JARR.                      No:  Jarring 
 LETM.      18.40.00 29-Aug-21:  Log End Time 
 LOST.hr                     0:  Lost Rig Time 
 LSTM.      21.00.00 20-Aug-21:  Log Start Time 
 MDCL.ppm             41500.00:  Mud Chlorides 
 MDES.     Inversion Oil/Synthetic:  Mud Desc 
 DFD .sg                  1.56:  Mud Density 
 MDMN.sg                  1.56:  Dens Mud Min 
 MDMX.sg                  1.56:  Dens Mud Max 
 MOIL.                      70:  Run Mud Oil % 
 MOWR.                   70:30:  Run Mud OWR 
 MSND.                     0.2:  Run Mud Sand % 
 MSOL.                    23.3:  Run Mud Solids% 
 DFV .spqt               78.00:  Mud Viscosity 
 MWOD.in                  6.75:  MWD Tool OD 
 MWSI.                      No:  Serv Intrp, MWD 
 OTIM.hr                218.30:  Time Operating 
 PCON.           Look Like New:  Pad Condition 
 PMAX.psia            11015.30:  Press Op, Max 
 PV  .cP                 38.00:  Mud PV 
 RUN .                     300:  Run Number 
 ROPA.m/hr               15.00:  ROP Avg 
 ROPN.m/hr                9.00:  ROP Min 
 ROPX.m/hr               17.00:  ROP Max 
 RPMA.rpm               120.00:  RPM Surface Avg 
 RPMN.rpm                90.00:  RPM Surface Min 
 RPMX.rpm               140.00:  RPM Surface Max 
 RRUN.                     300:  Rig Run Number 
 RTIM.hr                 31.53:  Time Reaming 
 SAZI.deg               331.64:  Azm, Start 
 SDEP.m                4127.00:  Start Depth 
 SIDD.                      No:  Serv Intrp, DD 
 SINC.deg                48.43:  Inc, Start 
 SPPA.psig             5830.00:  SPP Avg 
 SPPN.psig             5600.00:  SPP Min 
 SPPX.psig             5900.00:  SPP Max 
 STIM.      21.00.00 20-Aug-21:  Start Time 
 SVCS.                 DD, MWD:  Services 
 SVER.                    9.20:  Sperry Version 
 TDAT.m                 957.50:  Tot Depth Attmp 
 TDDF.                      No:  Trip for DD 
 TDLG.m                 957.50:  Tot Depth Loggd 
 TFF .                      No:  Trip for Fail 
 TQAA.f-kp               15.00:  Torque Abs Avg 
 TQAN.f-kp               12.00:  Torque Abs Min 
 TQAX.f-kp               19.00:  Torque Abs Max 
 TRRT.°/30m              -3.40:  Turn Rotating 
 MRT .                  EWR-M5:  Maximum Recorded Temperature 
 TTMX.degC              100.00:  Max Tool Temp 
 VS01.                90639251:  Virtual Str1 SN 
 VS02.                90634715:  Virtual Str2 SN 
 VS03.                90652479:  Virtual Str3 SN 
 VS04.                90642262:  Virtual Str4 SN 
 WBMN.klb                 0.00:  WOB Min 
 WITN.           Murad Guliyev:  Customer Rep 
 WITN.          Yashar Gaziyev:  Customer Rep 2 
 WOBA.klb                 9.00:  WOB Avg 
 WOBX.klb                12.00:  WOB Max 
 YP  .lhf2               30.00:  Yield Point 
~Curve Information Block
#MNEM.UNIT                 API CODE     Curve Description
#---------               -----------    ---------------------------
 TIME.HHMMSS            00 000 000 000:  GT Time & Date
 GTDEPTH.m              00 000 000 000:  GT Depth
 GTPQH.psia             00 000 000 000:  GT HR Quartz Pressure
 GTTQ.degC              00 000 000 000:  GT Quartz Temperature
 GTTN.NONE              00 000 000 000:  GT Test Number
 GTET.sec               00 000 000 000:  GT Elapsed Test Time
 GTTVD.m                00 000 000 000:  GT True Vertical Depth
#Other Information
#
#WARRANTY: Halliburton will use its best efforts to furnish customers with 
#accurate information and interpretations that are part of, and incident to, the services 
#provided.  However, Halliburton cannot and does not warrant the accuracy 
#or correctness of such information and interpretations.  Under no circumstances should any 
#such information or interpretation be relied upon as the sole basis for any drilling, 
#completion, production, or financial decision or any procedure involving any risk to the 
#safety of any drilling venture, drilling rig or its crew or any other third party.  The 
#Customer has full responsibility for all drilling, completion and production operation.  
#Halliburton makes no representations or warranties, either expressed or 
#implied, including, but not limited to, the implied warranties of merchantability or fitness 
#for a particular purpose, with respect to the services rendered.  In no event will 
#Halliburton be liable for failure to obtain any particular results or for 
#any damages, including, but not limited to, indirect, special or consequential damages, 
#resulting from the use of any information or interpretation provided by Halliburton.
#
~A           TIME           GTDEPTH  GTPQH  GTTQ  GTTN   GTET   GTTVD  
# ...
   13:55:06.600.27-Aug-2021 4859.00 5174.52 84.55 14.00 135.60 3211.42
   13:55:06.800.27-Aug-2021 4859.00 5176.44 84.55 14.00 135.80 3211.42
   13:55:07.000.27-Aug-2021 4859.00 5177.79 84.55 14.00 136.00 3211.42
   13:55:07.200.27-Aug-2021 4859.00 5177.79 84.55 14.00 136.20 3211.42
   13:55:07.400.27-Aug-2021 4859.00 5181.83 84.55 14.00 136.40 3211.42
   13:55:07.600.27-Aug-2021 4859.00 5183.48 84.55 14.00 136.60 3211.42
   13:55:07.800.27-Aug-2021 4859.00 5185.73 84.55 14.00 136.80 3211.42
   13:55:08.000.27-Aug-2021 4859.00 5187.10 84.55 14.00 137.00 3211.42
   13:55:08.200.27-Aug-2021 4859.00 5187.10 84.55 14.00 137.20 3211.42
   13:55:08.400.27-Aug-2021 4859.00 5190.93 84.55 14.00 137.40 3211.42
   13:55:08.600.27-Aug-2021 4859.00 5192.74 84.55 14.00 137.60 3211.42
   13:55:08.800.27-Aug-2021 4859.00 5194.71 84.55 14.00 137.80 3211.42
   13:55:09.000.27-Aug-2021 4859.00 5196.32 84.55 14.00 138.00 3211.42
   13:55:09.200.27-Aug-2021 4859.00 5196.32 84.55 14.00 138.20 3211.42
   13:55:09.400.27-Aug-2021 4859.00 5198.45 84.55 14.00 138.40 3211.42
   13:55:09.600.27-Aug-2021 4859.00 5199.91 84.55 14.00 138.60 3211.42
   13:55:09.800.27-Aug-2021 4859.00 5201.74 84.55 14.00 138.80 3211.42
   13:55:10.000.27-Aug-2021 4859.00 5203.45 84.55 14.00 139.00 3211.42
   13:55:10.200.27-Aug-2021 4859.00 5203.45 84.55 14.00 139.20 3211.42
   13:55:10.400.27-Aug-2021 4859.00 5206.23 84.55 14.00 139.40 3211.42
   13:55:10.600.27-Aug-2021 4859.00 5208.21 84.55 14.00 139.60 3211.42
   13:55:10.800.27-Aug-2021 4859.00 5210.48 84.55 14.00 139.80 3211.42
   13:55:11.000.27-Aug-2021 4859.00 5211.43 84.55 14.00 140.00 3211.42
   13:55:11.200.27-Aug-2021 4859.00 5211.43 84.55 14.00 140.20 3211.42
   13:55:11.400.27-Aug-2021 4859.00 5214.97 84.55 14.00 140.40 3211.42
   13:55:11.600.27-Aug-2021 4859.00 5216.66 84.55 14.00 140.60 3211.42
   13:55:11.800.27-Aug-2021 4859.00 5217.87 84.55 14.00 140.80 3211.42
   13:55:12.000.27-Aug-2021 4859.00 5219.64 84.55 14.00 141.00 3211.42
   13:55:12.200.27-Aug-2021 4859.00 5219.64 84.55 14.00 141.20 3211.42
   13:55:12.400.27-Aug-2021 4859.00 5222.54 84.55 14.00 141.40 3211.42
   13:55:12.600.27-Aug-2021 4859.00 5224.75 84.55 14.00 141.60 3211.42
   13:55:12.800.27-Aug-2021 4859.00 5225.95 84.55 14.00 141.80 3211.42
   13:55:13.000.27-Aug-2021 4859.00 5227.54 84.55 14.00 142.00 3211.42
   13:55:13.200.27-Aug-2021 4859.00 5227.54 84.55 14.00 142.20 3211.42
   13:55:13.400.27-Aug-2021 4859.00 5229.94 84.55 14.00 142.40 3211.42
   13:55:13.600.27-Aug-2021 4859.00 5231.90 84.55 14.00 142.60 3211.42
   13:55:13.800.27-Aug-2021 4859.00 5232.61 84.55 14.00 142.80 3211.42
   13:55:14.000.27-Aug-2021 4859.00 5234.60 84.55 14.00 143.00 3211.42
   13:55:14.200.27-Aug-2021 4859.00 5234.60 84.55 14.00 143.20 3211.42
   13:55:14.400.27-Aug-2021 4859.00 5236.79 84.55 14.00 143.40 3211.42
   13:55:14.600.27-Aug-2021 4859.00 5239.03 84.55 14.00 143.60 3211.42
   13:55:14.800.27-Aug-2021 4859.00 5240.05 84.55 14.00 143.80 3211.42
   13:55:15.000.27-Aug-2021 4859.00 5241.56 84.55 14.00 144.00 3211.42
   13:55:15.200.27-Aug-2021 4859.00 5241.56 84.55 14.00 144.20 3211.42
   13:55:15.400.27-Aug-2021 4859.00 5244.48 84.55 14.00 144.40 3211.42
   13:55:15.600.27-Aug-2021 4859.00 5246.23 84.55 14.00 144.60 3211.42
   13:55:15.800.27-Aug-2021 4859.00 5247.45 84.55 14.00 144.80 3211.42
   13:55:16.000.27-Aug-2021 4859.00 5248.90 84.55 14.00 145.00 3211.42
   13:55:16.200.27-Aug-2021 4859.00 5248.90 84.55 14.00 145.20 3211.42
   13:55:16.400.27-Aug-2021 4859.00 5251.79 84.55 14.00 145.40 3211.42
   13:55:16.600.27-Aug-2021 4859.00 5253.27 84.55 14.00 145.60 3211.42
   13:55:16.800.27-Aug-2021 4859.00 5254.64 84.55 14.00 145.80 3211.42
   13:55:17.000.27-Aug-2021 4859.00 5256.04 84.55 14.00 146.00 3211.42
   13:55:17.200.27-Aug-2021 4859.00 5256.04 84.55 14.00 146.20 3211.42
   13:55:17.400.27-Aug-2021 4859.00 5258.54 84.55 14.00 146.40 3211.42
   13:55:17.600.27-Aug-2021 4859.00 5260.31 84.55 14.00 146.60 3211.42
   13:55:17.800.27-Aug-2021 4859.00 5261.05 84.55 14.00 146.80 3211.42
   13:55:18.000.27-Aug-2021 4859.00 5262.88 84.55 14.00 147.00 3211.42
   13:55:18.200.27-Aug-2021 4859.00 5262.88 84.55 14.00 147.20 3211.42
   13:55:18.400.27-Aug-2021 4859.00 5265.23 84.55 14.00 147.40 3211.42
   13:55:18.600.27-Aug-2021 4859.00 5266.61 84.55 14.00 147.60 3211.42
   13:55:18.800.27-Aug-2021 4859.00 5266.92 84.55 14.00 147.80 3211.42
   13:55:19.000.27-Aug-2021 4859.00 5266.97 84.55 14.00 148.00 3211.42
   13:55:19.200.27-Aug-2021 4859.00 5266.97 84.55 14.00 148.20 3211.42
   13:55:19.400.27-Aug-2021 4859.00 5269.33 84.55 14.00 148.40 3211.42
   13:55:19.600.27-Aug-2021 4859.00 5270.65 84.55 14.00 148.60 3211.42
   13:55:19.800.27-Aug-2021 4859.00 5271.94 84.55 14.00 148.80 3211.42
   13:55:20.000.27-Aug-2021 4859.00 5273.21 84.55 14.00 149.00 3211.42
   13:55:20.200.27-Aug-2021 4859.00 5273.21 84.55 14.00 149.20 3211.42
   13:55:20.400.27-Aug-2021 4859.00 5275.79 84.55 14.00 149.40 3211.42
   13:55:20.600.27-Aug-2021 4859.00 5276.41 84.55 14.00 149.60 3211.42
   13:55:20.800.27-Aug-2021 4859.00 5278.10 84.55 14.00 149.80 3211.42
   13:55:21.000.27-Aug-2021 4859.00 5279.79 84.55 14.00 150.00 3211.42
   13:55:21.200.27-Aug-2021 4859.00 5279.79 84.55 14.00 150.20 3211.42
   13:55:21.400.27-Aug-2021 4859.00 5281.57 84.55 14.00 150.40 3211.42
   13:55:21.600.27-Aug-2021 4859.00 5283.02 84.55 14.00 150.60 3211.42
   13:55:21.800.27-Aug-2021 4859.00 5284.15 84.55 14.00 150.80 3211.42
   13:55:22.000.27-Aug-2021 4859.00 5285.30 84.55 14.00 151.00 3211.42
   13:55:22.200.27-Aug-2021 4859.00 5285.30 84.55 14.00 151.20 3211.42
   13:55:22.400.27-Aug-2021 4859.00 5287.63 84.55 14.00 151.40 3211.42
   13:55:22.600.27-Aug-2021 4859.00 5287.63 84.55 14.00 151.60 3211.42
   13:55:22.800.27-Aug-2021 4859.00 5289.59 84.55 14.00 151.80 3211.42
   13:55:23.000.27-Aug-2021 4859.00 5291.06 84.55 14.00 152.00 3211.42
   13:55:23.200.27-Aug-2021 4859.00 5291.06 84.55 14.00 152.20 3211.42
   13:55:23.400.27-Aug-2021 4859.00 5292.87 84.55 14.00 152.40 3211.42
   13:55:23.600.27-Aug-2021 4859.00 5294.56 84.55 14.00 152.60 3211.42
   13:55:23.800.27-Aug-2021 4859.00 5295.39 84.55 14.00 152.80 3211.42
   13:55:24.000.27-Aug-2021 4859.00 5296.45 84.54 14.00 153.00 3211.42
   13:55:24.200.27-Aug-2021 4859.00 5296.45 84.54 14.00 153.20 3211.42
   13:55:24.400.27-Aug-2021 4859.00 5297.61 84.55 14.00 153.40 3211.42
   13:55:24.600.27-Aug-2021 4859.00 5299.75 84.54 14.00 153.60 3211.42
   13:55:24.800.27-Aug-2021 4859.00 5300.06 84.55 14.00 153.80 3211.42
   13:55:25.000.27-Aug-2021 4859.00 5301.46 84.55 14.00 154.00 3211.42
   13:55:25.200.27-Aug-2021 4859.00 5301.46 84.55 14.00 154.20 3211.42
   13:55:25.400.27-Aug-2021 4859.00 5303.31 84.54 14.00 154.40 3211.42
   13:55:25.600.27-Aug-2021 4859.00 5304.67 84.54 14.00 154.60 3211.42
   13:55:25.800.27-Aug-2021 4859.00 5305.49 84.54 14.00 154.80 3211.42
   13:55:26.000.27-Aug-2021 4859.00 5306.68 84.54 14.00 155.00 3211.42
   13:55:26.200.27-Aug-2021 4859.00 5306.68 84.54 14.00 155.20 3211.42
   13:55:26.400.27-Aug-2021 4859.00 5308.82 84.54 14.00 155.40 3211.42
   13:55:26.600.27-Aug-2021 4859.00 5309.90 84.55 14.00 155.60 3211.42
   13:55:26.800.27-Aug-2021 4859.00 5310.90 84.54 14.00 155.80 3211.42
   13:55:27.000.27-Aug-2021 4859.00 5311.97 84.54 14.00 156.00 3211.42
   13:55:27.200.27-Aug-2021 4859.00 5311.97 84.54 14.00 156.20 3211.42
   13:55:27.400.27-Aug-2021 4859.00 5313.81 84.54 14.00 156.40 3211.42
   13:55:27.600.27-Aug-2021 4859.00 5314.83 84.54 14.00 156.60 3211.42
   13:55:27.800.27-Aug-2021 4859.00 5315.76 84.54 14.00 156.80 3211.42
   13:55:28.000.27-Aug-2021 4859.00 5317.05 84.54 14.00 157.00 3211.42
   13:55:28.200.27-Aug-2021 4859.00 5317.05 84.54 14.00 157.20 3211.42
   13:55:28.400.27-Aug-2021 4859.00 5318.85 84.54 14.00 157.40 3211.42
   13:55:28.600.27-Aug-2021 4859.00 5319.61 84.54 14.00 157.60 3211.42
   13:55:28.800.27-Aug-2021 4859.00 5320.59 84.54 14.00 157.80 3211.42
   13:55:29.000.27-Aug-2021 4859.00 5321.66 84.54 14.00 158.00 3211.42
