~Version Information
 VERS.                  2.0:   CWLS log ASCII Standard -VERSION 2.0
 WRAP.                   NO:   One line per depth step
~Well Information Block
#MNEM.UNIT     VALUE/NAME     DESCRIPTION
#---------     -----------    ---------------------------
 STRT.S             01:57:49 28-Aug-21: START TIME 01:57:49 28-Aug-21
 STOP.S             02:04:41 28-Aug-21: STOP TIME  02:04:41 28-Aug-21
 STEP.S                   0.00: STEP TIME
 NULL.                 -999.25: NULL VALUE
 DFWT.                        :  DIST FWL TEXT
 DFST.                        :  DIST FSL TEXT
 DMF .             Drill Floor:  DRILL MEAS FROM
 STIM.      20.00.00 17-Aug-21:  START TIME
 DATE.      19.00.00 29-Aug-21:  END TIME
 SPUD.               15-Aug-21:  SPUD DATE
 NREF.                    Grid:  NORTH REFERENCE
 HPTY.       Minimum Curvature:  HOLE POS TYPE
 DMOD.             Drill Model:  DRILL MOD DESC
 SVYD.                  Survey:  SURVEY DESC
 ILTD.               Lithology:  INTERP LTH DESC
 FTOP.          Formation Tops:  FORM TOPS DESC
 RIG .              East Azeri:  RIG NAME
 PDAT.          Mean Sea Level:  PERMANENT DATUM
 FLD .                     ACG:  FIELD NAME
 SON .        AZ-XX-0907180857:  JOB NUMBER
 CTRY.              Azerbaijan:  COUNTRY NAME
 WELL.                    D23x:  WELL NAME
 SRVC.     Turan Drilling and Engineering:  CONTRACTOR
 COMP.     BP Exploration (Caspian Sea) Ltd.:  COMPANY
 UWI .            /AZE00000214:  UNIQUE WELL IDENTIFIER
 API .            /AZE00000214:  API NUMBER
 MDS .        Operator Entered:  MAG DATA SOURCE
 BASE.              Azerbaijan:  LOGGING EQUIPMENT BASE LOCATION
 REGN.                   EESSA:  REGION
 PROV.                    Baku:  PROVINCE
 STAT.                    Baku:  STATE NAME
 MWDS.                    Baku:  MWD SHOP
 DOE .                     N/A:  DOE NUMBER
 DCON.         Sperry Drilling:  DIRECTNL CONTR
 UNIT.                     N/A:  LOGGING EQUIPMENT ID
 WTYP.                Deviated:  WELL TYPE
 CNTY.                        :  COUNTY
 LOC .                        :  LOCATION
 LMF .             Drill Floor:  LOG MEASURED FROM
 TVDS.m                  43.60:  TVDSS CORRECTN
 LATI.deg                40.02:  LATITUDE
 LONG.deg                51.45:  LONGITUDE
 WHNS.m                  -7.04:  WELL HEAD N/S
 WHEW.m                  -0.67:  WELL HEAD E/W
 UTMX.m              538762.90:  UTM X
 UTMY.m             4431871.34:  UTM Y
 DFWL.m                   0.00:  DISTANCE FWL
 DFSL.m                   0.00:  DISTANCE FSL
 SDEP.m                4127.00:  START DEPTH
 TDD .m                5084.50:  TOTAL DEPTH (DRILLER)
 VSDR.deg               140.47:  VERT SEC DIRECT
 GVFD.g                   1.00:  GRAVITY FIELD
 MFLD.nT              50362.00:  MAGNETIC FIELD
 MDIP.deg                59.48:  MAGNETIC DIP
 MDEC.deg                 6.47:  MAGNETIC DECL
 GRDC.deg                 0.31:  GRID CORRECTION
 AZTC.deg                 6.16:  AZM TOTAL CORR
 EPD .m                   0.00:  ELEVATION
 EGL .m                   0.00:  GROUND ELEVATION
 WDMS.m                 151.80:  WD ELEV
 APD .m                  43.60:  DEPTH ABOVE PD
 DEP .m                4092.57:  DEPTH
 AGAP.m                  43.60:  AIR GAP
 VSEW.m                  -0.67:  VERT SEC E/W
 VSNS.m                  -7.04:  VERT SEC N/S
 EKB .m                  43.60:  KB ELEVATION
 EDF .m                  43.60:  DF ELEVATION
 TDL .m                 957.50:  TOTAL DEPTH (LOGGER)
 VSC .                       0:  VS TO CLOSURE
 MAGU.                 1851413:  MAGUTM CHECKSUM
~Parameter Information Block
#MNEM.UNIT       Value        Description
#---------     -----------    ---------------------------
 AV  .mps                 1.50:  Ann Velocity 
 AVMX.mps                 2.00:  Max Ann Veloc 
 AZIF.deg               184.66:  Azm, Final 
 BHAT.        Rotary Steerable:  BHA Type 
 BREV.rev               300.00:  Rev Bit Total 
 BROT.°/30m              -0.50:  Build Rotating 
 BS  .in                  8.50:  Bit Size 
 BSZ .in                  8.50:  Bit Size 
 BTPL.psig              370.00:  Bit Press Loss 
 CABU.                      No:  Customer Abuse 
 CGEO.      Behruz Shahbaliyev:  Customer Geo 
 COMM.                     Äi}:  Run Comments 1 
 TCS .hr                140.08:  Time Ciculation Ended 
 CV  .mps                 3.00:  Crit Velocity 
 CVMX.mps                 3.20:  Max Crit Veloc 
 DD1 .            Musa Ahmadov:  Direct Drillr 1 
 DD2 .           Hamid Ahmadov:  Direct Drillr 2 
 DDSV.               Geo-Pilot:  DD Service 
 DEFF.%                  98.40:  % Det Eff 
 DLRX.°/30m               3.40:  Dogleg Rot Max 
 DLSO.°/30m               1.45:  Dogleg Oriented 
 DLSX.°/30m               3.40:  Dogleg Str Max 
 DRET.      18.40.00 29-Aug-21:  Drill End Time 
 DRST.      21.00.00 20-Aug-21:  Drill Start Tim 
 DTIM.hr                 69.47:  Time Drilling 
 EDEP.m                5084.50:  End Depth 
 ENG1.      Artemiy Matviyanov:  Engineer 1 
 ENG2.         Almaz Almadatov:  Engineer 2 
 ETIM.      18.40.00 29-Aug-21:  End Time 
 FLOI.gpm               500.00:  Flow In 
 FLON.gpm               400.00:  Flow In Min 
 FLOS.cptm                0.00:  Fluid Loss 
 FLOX.gpm               500.00:  Flow In Max 
 DFT .        Mineral Oil Base:  Mud Type 
 HFLO.                      No:  High Flow 
 HPRE.                      No:  High Pressure 
 HTEM.                      No:  High Temp 
 HYDO.m                   1.80:  Hydro Offset 
 IFIN.deg                25.62:  Inc, Final 
 IMAX.deg                48.69:  Inc Max 
 IMIN.deg                24.01:  Inc Min 
 IMND.m                4962.57:  Inc Min Depth 
 IMXD.m                4119.01:  Inc Max Depth 
 JARR.                      No:  Jarring 
 LETM.      18.40.00 29-Aug-21:  Log End Time 
 LOST.hr                     0:  Lost Rig Time 
 LSTM.      21.00.00 20-Aug-21:  Log Start Time 
 MDCL.ppm             41500.00:  Mud Chlorides 
 MDES.     Inversion Oil/Synthetic:  Mud Desc 
 DFD .sg                  1.56:  Mud Density 
 MDMN.sg                  1.56:  Dens Mud Min 
 MDMX.sg                  1.56:  Dens Mud Max 
 MOIL.                      70:  Run Mud Oil % 
 MOWR.                   70:30:  Run Mud OWR 
 MSND.                     0.2:  Run Mud Sand % 
 MSOL.                    23.3:  Run Mud Solids% 
 DFV .spqt               78.00:  Mud Viscosity 
 MWOD.in                  6.75:  MWD Tool OD 
 MWSI.                      No:  Serv Intrp, MWD 
 OTIM.hr                218.30:  Time Operating 
 PCON.           Look Like New:  Pad Condition 
 PMAX.psia            11015.30:  Press Op, Max 
 PV  .cP                 38.00:  Mud PV 
 RUN .                     300:  Run Number 
 ROPA.m/hr               15.00:  ROP Avg 
 ROPN.m/hr                9.00:  ROP Min 
 ROPX.m/hr               17.00:  ROP Max 
 RPMA.rpm               120.00:  RPM Surface Avg 
 RPMN.rpm                90.00:  RPM Surface Min 
 RPMX.rpm               140.00:  RPM Surface Max 
 RRUN.                     300:  Rig Run Number 
 RTIM.hr                 31.53:  Time Reaming 
 SAZI.deg               331.64:  Azm, Start 
 SDEP.m                4127.00:  Start Depth 
 SIDD.                      No:  Serv Intrp, DD 
 SINC.deg                48.43:  Inc, Start 
 SPPA.psig             5830.00:  SPP Avg 
 SPPN.psig             5600.00:  SPP Min 
 SPPX.psig             5900.00:  SPP Max 
 STIM.      21.00.00 20-Aug-21:  Start Time 
 SVCS.                 DD, MWD:  Services 
 SVER.                    9.20:  Sperry Version 
 TDAT.m                 957.50:  Tot Depth Attmp 
 TDDF.                      No:  Trip for DD 
 TDLG.m                 957.50:  Tot Depth Loggd 
 TFF .                      No:  Trip for Fail 
 TQAA.f-kp               15.00:  Torque Abs Avg 
 TQAN.f-kp               12.00:  Torque Abs Min 
 TQAX.f-kp               19.00:  Torque Abs Max 
 TRRT.°/30m              -3.40:  Turn Rotating 
 MRT .                  EWR-M5:  Maximum Recorded Temperature 
 TTMX.degC              100.00:  Max Tool Temp 
 VS01.                90639251:  Virtual Str1 SN 
 VS02.                90634715:  Virtual Str2 SN 
 VS03.                90652479:  Virtual Str3 SN 
 VS04.                90642262:  Virtual Str4 SN 
 WBMN.klb                 0.00:  WOB Min 
 WITN.           Murad Guliyev:  Customer Rep 
 WITN.          Yashar Gaziyev:  Customer Rep 2 
 WOBA.klb                 9.00:  WOB Avg 
 WOBX.klb                12.00:  WOB Max 
 YP  .lhf2               30.00:  Yield Point 
~Curve Information Block
#MNEM.UNIT                 API CODE     Curve Description
#---------               -----------    ---------------------------
 TIME.HHMMSS            00 000 000 000:  GT Time & Date
 GTDEPTH.m              00 000 000 000:  GT Depth
 GTPQH.psia             00 000 000 000:  GT HR Quartz Pressure
 GTTQ.degC              00 000 000 000:  GT Quartz Temperature
 GTTN.NONE              00 000 000 000:  GT Test Number
 GTET.sec               00 000 000 000:  GT Elapsed Test Time
 GTTVD.m                00 000 000 000:  GT True Vertical Depth
#Other Information
#
#WARRANTY: Halliburton will use its best efforts to furnish customers with 
#accurate information and interpretations that are part of, and incident to, the services 
#provided.  However, Halliburton cannot and does not warrant the accuracy 
#or correctness of such information and interpretations.  Under no circumstances should any 
#such information or interpretation be relied upon as the sole basis for any drilling, 
#completion, production, or financial decision or any procedure involving any risk to the 
#safety of any drilling venture, drilling rig or its crew or any other third party.  The 
#Customer has full responsibility for all drilling, completion and production operation.  
#Halliburton makes no representations or warranties, either expressed or 
#implied, including, but not limited to, the implied warranties of merchantability or fitness 
#for a particular purpose, with respect to the services rendered.  In no event will 
#Halliburton be liable for failure to obtain any particular results or for 
#any damages, including, but not limited to, indirect, special or consequential damages, 
#resulting from the use of any information or interpretation provided by Halliburton.
#
~A           TIME           GTDEPTH  GTPQH  GTTQ  GTTN   GTET   GTTVD  
# ...
   02:03:28.458.28-Aug-2021 4879.00 7758.80 81.10 27.00 339.11 3229.53
   02:03:28.658.28-Aug-2021 4879.00 7758.80 81.10 27.00 339.31 3229.53
   02:03:28.858.28-Aug-2021 4879.00 7758.66 81.10 27.00 339.51 3229.53
   02:03:29.059.28-Aug-2021 4879.00 7758.57 81.10 27.00 339.71 3229.53
   02:03:29.259.28-Aug-2021 4879.00 7758.34 81.10 27.00 339.91 3229.53
   02:03:29.459.28-Aug-2021 4879.00 7760.34 81.10 27.00 340.11 3229.53
   02:03:29.659.28-Aug-2021 4879.00 7760.34 81.10 27.00 340.31 3229.53
   02:03:29.859.28-Aug-2021 4879.00 7758.69 81.10 27.00 340.51 3229.53
   02:03:30.059.28-Aug-2021 4879.00 7758.92 81.10 27.00 340.71 3229.53
   02:03:30.259.28-Aug-2021 4879.00 7758.29 81.10 27.00 340.91 3229.53
   02:03:30.459.28-Aug-2021 4879.00 7760.82 81.10 27.00 341.11 3229.53
   02:03:30.659.28-Aug-2021 4879.00 7760.82 81.10 27.00 341.31 3229.53
   02:03:30.859.28-Aug-2021 4879.00 7758.86 81.10 27.00 341.51 3229.53
   02:03:31.059.28-Aug-2021 4879.00 7757.94 81.10 27.00 341.71 3229.53
   02:03:31.259.28-Aug-2021 4879.00 7757.79 81.10 27.00 341.91 3229.53
   02:03:31.459.28-Aug-2021 4879.00 7757.86 81.10 27.00 342.11 3229.53
   02:03:31.659.28-Aug-2021 4879.00 7757.86 81.10 27.00 342.31 3229.53
   02:03:31.859.28-Aug-2021 4879.00 7758.30 81.10 27.00 342.51 3229.53
   02:03:32.059.28-Aug-2021 4879.00 7759.38 81.10 27.00 342.71 3229.53
   02:03:32.260.28-Aug-2021 4879.00 7764.14 81.10 27.00 342.91 3229.53
   02:03:32.460.28-Aug-2021 4879.00 7756.08 81.10 27.00 343.11 3229.53
   02:03:32.660.28-Aug-2021 4879.00 7756.08 81.10 27.00 343.31 3229.53
   02:03:32.860.28-Aug-2021 4879.00 7758.80 81.10 27.00 343.51 3229.53
   02:03:33.060.28-Aug-2021 4879.00 7758.29 81.10 27.00 343.71 3229.53
   02:03:33.260.28-Aug-2021 4879.00 7757.99 81.10 27.00 343.91 3229.53
   02:03:33.460.28-Aug-2021 4879.00 7758.02 81.10 27.00 344.11 3229.53
   02:03:33.660.28-Aug-2021 4879.00 7758.02 81.10 27.00 344.31 3229.53
   02:03:33.860.28-Aug-2021 4879.00 7758.22 81.10 27.00 344.51 3229.53
   02:03:34.060.28-Aug-2021 4879.00 7758.21 81.10 27.00 344.71 3229.53
   02:03:34.260.28-Aug-2021 4879.00 7758.52 81.10 27.00 344.91 3229.53
   02:03:34.460.28-Aug-2021 4879.00 7758.59 81.10 27.00 345.11 3229.53
   02:03:34.660.28-Aug-2021 4879.00 7758.59 81.10 27.00 345.31 3229.53
   02:03:34.860.28-Aug-2021 4879.00 7758.61 81.10 27.00 345.51 3229.53
   02:03:35.060.28-Aug-2021 4879.00 7758.70 81.10 27.00 345.71 3229.53
   02:03:35.260.28-Aug-2021 4879.00 7758.47 81.10 27.00 345.91 3229.53
   02:03:35.461.28-Aug-2021 4879.00 7760.29 81.10 27.00 346.11 3229.53
   02:03:35.661.28-Aug-2021 4879.00 7760.29 81.10 27.00 346.31 3229.53
   02:03:35.861.28-Aug-2021 4879.00 7758.57 81.10 27.00 346.51 3229.53
   02:03:36.061.28-Aug-2021 4879.00 7759.13 81.10 27.00 346.71 3229.53
   02:03:36.261.28-Aug-2021 4879.00 7758.23 81.10 27.00 346.91 3229.53
   02:03:36.461.28-Aug-2021 4879.00 7757.99 81.10 27.00 347.11 3229.53
   02:03:36.661.28-Aug-2021 4879.00 7757.99 81.10 27.00 347.31 3229.53
   02:03:36.861.28-Aug-2021 4879.00 7757.94 81.10 27.00 347.51 3229.53
   02:03:37.061.28-Aug-2021 4879.00 7757.86 81.10 27.00 347.71 3229.53
   02:03:37.261.28-Aug-2021 4879.00 7758.15 81.10 27.00 347.91 3229.53
   02:03:37.461.28-Aug-2021 4879.00 7758.46 81.10 27.00 348.11 3229.53
   02:03:37.661.28-Aug-2021 4879.00 7758.46 81.10 27.00 348.31 3229.53
   02:03:37.861.28-Aug-2021 4879.00 7758.62 81.10 27.00 348.51 3229.53
   02:03:38.061.28-Aug-2021 4879.00 7758.56 81.10 27.00 348.71 3229.53
   02:03:38.261.28-Aug-2021 4879.00 7758.57 81.10 27.00 348.91 3229.53
   02:03:38.461.28-Aug-2021 4879.00 7758.32 81.10 27.00 349.11 3229.53
   02:03:38.662.28-Aug-2021 4879.00 7758.32 81.10 27.00 349.31 3229.53
   02:03:38.862.28-Aug-2021 4879.00 7759.94 81.10 27.00 349.51 3229.53
   02:03:39.062.28-Aug-2021 4879.00 7759.20 81.10 27.00 349.71 3229.53
   02:03:39.262.28-Aug-2021 4879.00 7758.43 81.10 27.00 349.91 3229.53
   02:03:39.462.28-Aug-2021 4879.00 7758.98 81.10 27.00 350.11 3229.53
   02:03:39.662.28-Aug-2021 4879.00 7758.98 81.10 27.00 350.31 3229.53
   02:03:39.862.28-Aug-2021 4879.00 7760.83 81.10 27.00 350.51 3229.53
   02:03:40.062.28-Aug-2021 4879.00 7757.92 81.10 27.00 350.71 3229.53
   02:03:40.262.28-Aug-2021 4879.00 7758.98 81.10 27.00 350.91 3229.53
   02:03:40.462.28-Aug-2021 4879.00 7758.15 81.10 27.00 351.11 3229.53
   02:03:40.662.28-Aug-2021 4879.00 7758.15 81.10 27.00 351.31 3229.53
   02:03:40.862.28-Aug-2021 4879.00 7758.04 81.10 27.00 351.51 3229.53
   02:03:41.062.28-Aug-2021 4879.00 7761.18 81.09 27.00 351.71 3229.53
   02:03:41.262.28-Aug-2021 4879.00 7758.44 81.09 27.00 351.91 3229.53
   02:03:41.462.28-Aug-2021 4879.00 7759.39 81.09 27.00 352.11 3229.53
   02:03:41.662.28-Aug-2021 4879.00 7759.39 81.09 27.00 352.31 3229.53
   02:03:41.863.28-Aug-2021 4879.00 7755.99 81.09 27.00 352.51 3229.53
   02:03:42.063.28-Aug-2021 4879.00 7759.57 81.09 27.00 352.71 3229.53
   02:03:42.263.28-Aug-2021 4879.00 7758.75 81.09 27.00 352.91 3229.53
   02:03:42.463.28-Aug-2021 4879.00 7758.25 81.09 27.00 353.11 3229.53
   02:03:42.663.28-Aug-2021 4879.00 7758.25 81.09 27.00 353.31 3229.53
   02:03:42.863.28-Aug-2021 4879.00 7757.98 81.09 27.00 353.51 3229.53
   02:03:43.063.28-Aug-2021 4879.00 7757.55 81.09 27.00 353.71 3229.53
   02:03:43.263.28-Aug-2021 4879.00 7758.13 81.09 27.00 353.91 3229.53
   02:03:43.463.28-Aug-2021 4879.00 7758.24 81.09 27.00 354.11 3229.53
   02:03:43.663.28-Aug-2021 4879.00 7758.24 81.09 27.00 354.31 3229.53
   02:03:43.863.28-Aug-2021 4879.00 7758.66 81.09 27.00 354.51 3229.53
   02:03:44.063.28-Aug-2021 4879.00 7758.54 81.09 27.00 354.71 3229.53
   02:03:44.263.28-Aug-2021 4879.00 7758.68 81.09 27.00 354.91 3229.53
   02:03:44.463.28-Aug-2021 4879.00 7756.54 81.09 27.00 355.11 3229.53
   02:03:44.663.28-Aug-2021 4879.00 7756.54 81.09 27.00 355.31 3229.53
   02:03:44.863.28-Aug-2021 4879.00 7760.75 81.09 27.00 355.51 3229.53
   02:03:45.064.28-Aug-2021 4879.00 7759.36 81.09 27.00 355.71 3229.53
   02:03:45.264.28-Aug-2021 4879.00 7759.29 81.09 27.00 355.91 3229.53
   02:03:45.464.28-Aug-2021 4879.00 7759.68 81.09 27.00 356.11 3229.53
   02:03:45.664.28-Aug-2021 4879.00 7759.68 81.09 27.00 356.31 3229.53
   02:03:45.864.28-Aug-2021 4879.00 7758.47 81.09 27.00 356.51 3229.53
   02:03:46.064.28-Aug-2021 4879.00 7758.19 81.09 27.00 356.71 3229.53
   02:03:46.264.28-Aug-2021 4879.00 7757.73 81.09 27.00 356.91 3229.53
   02:03:46.464.28-Aug-2021 4879.00 7758.20 81.09 27.00 357.11 3229.53
   02:03:46.664.28-Aug-2021 4879.00 7758.20 81.09 27.00 357.31 3229.53
   02:03:46.864.28-Aug-2021 4879.00 7758.90 81.09 27.00 357.51 3229.53
   02:03:47.064.28-Aug-2021 4879.00 7758.79 81.09 27.00 357.71 3229.53
   02:03:47.264.28-Aug-2021 4879.00 7759.11 81.09 27.00 357.91 3229.53
   02:03:47.464.28-Aug-2021 4879.00 7758.89 81.09 27.00 358.11 3229.53
   02:03:47.664.28-Aug-2021 4879.00 7758.89 81.09 27.00 358.31 3229.53
   02:03:47.864.28-Aug-2021 4879.00 7758.96 81.09 27.00 358.51 3229.53
   02:03:48.064.28-Aug-2021 4879.00 7759.10 81.09 27.00 358.71 3229.53
   02:03:48.265.28-Aug-2021 4879.00 7760.61 81.09 27.00 358.91 3229.53
   02:03:48.465.28-Aug-2021 4879.00 7759.66 81.09 27.00 359.11 3229.53
   02:03:48.665.28-Aug-2021 4879.00 7759.66 81.09 27.00 359.31 3229.53
   02:03:48.865.28-Aug-2021 4879.00 7759.39 81.09 27.00 359.51 3229.53
   02:03:49.065.28-Aug-2021 4879.00 7758.81 81.09 27.00 359.71 3229.53
   02:03:49.265.28-Aug-2021 4879.00 7761.08 81.09 27.00 359.91 3229.53
   02:03:49.465.28-Aug-2021 4879.00 7758.18 81.09 27.00 360.11 3229.53
   02:03:49.665.28-Aug-2021 4879.00 7758.18 81.09 27.00 360.31 3229.53
   02:03:49.865.28-Aug-2021 4879.00 7758.56 81.09 27.00 360.51 3229.53
   02:03:50.065.28-Aug-2021 4879.00 7757.58 81.09 27.00 360.71 3229.53
   02:03:50.265.28-Aug-2021 4879.00 7757.62 81.09 27.00 360.91 3229.53
   02:03:50.465.28-Aug-2021 4879.00 7760.95 81.09 27.00 361.11 3229.53
   02:03:50.665.28-Aug-2021 4879.00 7760.95 81.09 27.00 361.31 3229.53
   02:03:50.865.28-Aug-2021 4879.00 7759.08 81.09 27.00 361.51 3229.53
