~Version Information
 VERS.                  2.0:   CWLS log ASCII Standard -VERSION 2.0
 WRAP.                   NO:   One line per depth step
~Well Information Block
#MNEM.UNIT     VALUE/NAME     DESCRIPTION
#---------     -----------    ---------------------------
 STRT.S             07:19:48 27-Aug-21: START TIME 07:19:48 27-Aug-21
 STOP.S             07:26:57 27-Aug-21: STOP TIME  07:26:57 27-Aug-21
 STEP.S                   0.00: STEP TIME
 NULL.                 -999.25: NULL VALUE
 DFWT.                        :  DIST FWL TEXT
 DFST.                        :  DIST FSL TEXT
 DMF .             Drill Floor:  DRILL MEAS FROM
 STIM.      20.00.00 17-Aug-21:  START TIME
 DATE.      19.00.00 29-Aug-21:  END TIME
 SPUD.               15-Aug-21:  SPUD DATE
 NREF.                    Grid:  NORTH REFERENCE
 HPTY.       Minimum Curvature:  HOLE POS TYPE
 DMOD.             Drill Model:  DRILL MOD DESC
 SVYD.                  Survey:  SURVEY DESC
 ILTD.               Lithology:  INTERP LTH DESC
 FTOP.          Formation Tops:  FORM TOPS DESC
 RIG .              East Azeri:  RIG NAME
 PDAT.          Mean Sea Level:  PERMANENT DATUM
 FLD .                     ACG:  FIELD NAME
 SON .        AZ-XX-0907180857:  JOB NUMBER
 CTRY.              Azerbaijan:  COUNTRY NAME
 WELL.                    D23x:  WELL NAME
 SRVC.     Turan Drilling and Engineering:  CONTRACTOR
 COMP.     BP Exploration (Caspian Sea) Ltd.:  COMPANY
 UWI .            /AZE00000214:  UNIQUE WELL IDENTIFIER
 API .            /AZE00000214:  API NUMBER
 MDS .        Operator Entered:  MAG DATA SOURCE
 BASE.              Azerbaijan:  LOGGING EQUIPMENT BASE LOCATION
 REGN.                   EESSA:  REGION
 PROV.                    Baku:  PROVINCE
 STAT.                    Baku:  STATE NAME
 MWDS.                    Baku:  MWD SHOP
 DOE .                     N/A:  DOE NUMBER
 DCON.         Sperry Drilling:  DIRECTNL CONTR
 UNIT.                     N/A:  LOGGING EQUIPMENT ID
 WTYP.                Deviated:  WELL TYPE
 CNTY.                        :  COUNTY
 LOC .                        :  LOCATION
 LMF .             Drill Floor:  LOG MEASURED FROM
 TVDS.m                  43.60:  TVDSS CORRECTN
 LATI.deg                40.02:  LATITUDE
 LONG.deg                51.45:  LONGITUDE
 WHNS.m                  -7.04:  WELL HEAD N/S
 WHEW.m                  -0.67:  WELL HEAD E/W
 UTMX.m              538762.90:  UTM X
 UTMY.m             4431871.34:  UTM Y
 DFWL.m                   0.00:  DISTANCE FWL
 DFSL.m                   0.00:  DISTANCE FSL
 SDEP.m                4127.00:  START DEPTH
 TDD .m                5084.50:  TOTAL DEPTH (DRILLER)
 VSDR.deg               140.47:  VERT SEC DIRECT
 GVFD.g                   1.00:  GRAVITY FIELD
 MFLD.nT              50362.00:  MAGNETIC FIELD
 MDIP.deg                59.48:  MAGNETIC DIP
 MDEC.deg                 6.47:  MAGNETIC DECL
 GRDC.deg                 0.31:  GRID CORRECTION
 AZTC.deg                 6.16:  AZM TOTAL CORR
 EPD .m                   0.00:  ELEVATION
 EGL .m                   0.00:  GROUND ELEVATION
 WDMS.m                 151.80:  WD ELEV
 APD .m                  43.60:  DEPTH ABOVE PD
 DEP .m                4092.57:  DEPTH
 AGAP.m                  43.60:  AIR GAP
 VSEW.m                  -0.67:  VERT SEC E/W
 VSNS.m                  -7.04:  VERT SEC N/S
 EKB .m                  43.60:  KB ELEVATION
 EDF .m                  43.60:  DF ELEVATION
 TDL .m                 957.50:  TOTAL DEPTH (LOGGER)
 VSC .                       0:  VS TO CLOSURE
 MAGU.                 1851413:  MAGUTM CHECKSUM
~Parameter Information Block
#MNEM.UNIT       Value        Description
#---------     -----------    ---------------------------
 AV  .mps                 1.50:  Ann Velocity 
 AVMX.mps                 2.00:  Max Ann Veloc 
 AZIF.deg               184.66:  Azm, Final 
 BHAT.        Rotary Steerable:  BHA Type 
 BREV.rev               300.00:  Rev Bit Total 
 BROT.°/30m              -0.50:  Build Rotating 
 BS  .in                  8.50:  Bit Size 
 BSZ .in                  8.50:  Bit Size 
 BTPL.psig              370.00:  Bit Press Loss 
 CABU.                      No:  Customer Abuse 
 CGEO.      Behruz Shahbaliyev:  Customer Geo 
 COMM.                     Ô‘[:  Run Comments 1 
 TCS .hr                140.08:  Time Ciculation Ended 
 CV  .mps                 3.00:  Crit Velocity 
 CVMX.mps                 3.20:  Max Crit Veloc 
 DD1 .            Musa Ahmadov:  Direct Drillr 1 
 DD2 .           Hamid Ahmadov:  Direct Drillr 2 
 DDSV.               Geo-Pilot:  DD Service 
 DEFF.%                  98.40:  % Det Eff 
 DLRX.°/30m               3.40:  Dogleg Rot Max 
 DLSO.°/30m               1.45:  Dogleg Oriented 
 DLSX.°/30m               3.40:  Dogleg Str Max 
 DRET.      18.40.00 29-Aug-21:  Drill End Time 
 DRST.      21.00.00 20-Aug-21:  Drill Start Tim 
 DTIM.hr                 69.47:  Time Drilling 
 EDEP.m                5084.50:  End Depth 
 ENG1.      Artemiy Matviyanov:  Engineer 1 
 ENG2.         Almaz Almadatov:  Engineer 2 
 ETIM.      18.40.00 29-Aug-21:  End Time 
 FLOI.gpm               500.00:  Flow In 
 FLON.gpm               400.00:  Flow In Min 
 FLOS.cptm                0.00:  Fluid Loss 
 FLOX.gpm               500.00:  Flow In Max 
 DFT .        Mineral Oil Base:  Mud Type 
 HFLO.                      No:  High Flow 
 HPRE.                      No:  High Pressure 
 HTEM.                      No:  High Temp 
 HYDO.m                   1.80:  Hydro Offset 
 IFIN.deg                25.62:  Inc, Final 
 IMAX.deg                48.69:  Inc Max 
 IMIN.deg                24.01:  Inc Min 
 IMND.m                4962.57:  Inc Min Depth 
 IMXD.m                4119.01:  Inc Max Depth 
 JARR.                      No:  Jarring 
 LETM.      18.40.00 29-Aug-21:  Log End Time 
 LOST.hr                     0:  Lost Rig Time 
 LSTM.      21.00.00 20-Aug-21:  Log Start Time 
 MDCL.ppm             41500.00:  Mud Chlorides 
 MDES.     Inversion Oil/Synthetic:  Mud Desc 
 DFD .sg                  1.56:  Mud Density 
 MDMN.sg                  1.56:  Dens Mud Min 
 MDMX.sg                  1.56:  Dens Mud Max 
 MOIL.                      70:  Run Mud Oil % 
 MOWR.                   70:30:  Run Mud OWR 
 MSND.                     0.2:  Run Mud Sand % 
 MSOL.                    23.3:  Run Mud Solids% 
 DFV .spqt               78.00:  Mud Viscosity 
 MWOD.in                  6.75:  MWD Tool OD 
 MWSI.                      No:  Serv Intrp, MWD 
 OTIM.hr                218.30:  Time Operating 
 PCON.           Look Like New:  Pad Condition 
 PMAX.psia            11015.30:  Press Op, Max 
 PV  .cP                 38.00:  Mud PV 
 RUN .                     300:  Run Number 
 ROPA.m/hr               15.00:  ROP Avg 
 ROPN.m/hr                9.00:  ROP Min 
 ROPX.m/hr               17.00:  ROP Max 
 RPMA.rpm               120.00:  RPM Surface Avg 
 RPMN.rpm                90.00:  RPM Surface Min 
 RPMX.rpm               140.00:  RPM Surface Max 
 RRUN.                     300:  Rig Run Number 
 RTIM.hr                 31.53:  Time Reaming 
 SAZI.deg               331.64:  Azm, Start 
 SDEP.m                4127.00:  Start Depth 
 SIDD.                      No:  Serv Intrp, DD 
 SINC.deg                48.43:  Inc, Start 
 SPPA.psig             5830.00:  SPP Avg 
 SPPN.psig             5600.00:  SPP Min 
 SPPX.psig             5900.00:  SPP Max 
 STIM.      21.00.00 20-Aug-21:  Start Time 
 SVCS.                 DD, MWD:  Services 
 SVER.                    9.20:  Sperry Version 
 TDAT.m                 957.50:  Tot Depth Attmp 
 TDDF.                      No:  Trip for DD 
 TDLG.m                 957.50:  Tot Depth Loggd 
 TFF .                      No:  Trip for Fail 
 TQAA.f-kp               15.00:  Torque Abs Avg 
 TQAN.f-kp               12.00:  Torque Abs Min 
 TQAX.f-kp               19.00:  Torque Abs Max 
 TRRT.°/30m              -3.40:  Turn Rotating 
 MRT .                  EWR-M5:  Maximum Recorded Temperature 
 TTMX.degC              100.00:  Max Tool Temp 
 VS01.                90639251:  Virtual Str1 SN 
 VS02.                90634715:  Virtual Str2 SN 
 VS03.                90652479:  Virtual Str3 SN 
 VS04.                90642262:  Virtual Str4 SN 
 WBMN.klb                 0.00:  WOB Min 
 WITN.           Murad Guliyev:  Customer Rep 
 WITN.          Yashar Gaziyev:  Customer Rep 2 
 WOBA.klb                 9.00:  WOB Avg 
 WOBX.klb                12.00:  WOB Max 
 YP  .lhf2               30.00:  Yield Point 
~Curve Information Block
#MNEM.UNIT                 API CODE     Curve Description
#---------               -----------    ---------------------------
 TIME.HHMMSS            00 000 000 000:  GT Time & Date
 GTDEPTH.m              00 000 000 000:  GT Depth
 GTPQH.psia             00 000 000 000:  GT HR Quartz Pressure
 GTTQ.degC              00 000 000 000:  GT Quartz Temperature
 GTTN.NONE              00 000 000 000:  GT Test Number
 GTET.sec               00 000 000 000:  GT Elapsed Test Time
 GTTVD.m                00 000 000 000:  GT True Vertical Depth
#Other Information
#
#WARRANTY: Halliburton will use its best efforts to furnish customers with 
#accurate information and interpretations that are part of, and incident to, the services 
#provided.  However, Halliburton cannot and does not warrant the accuracy 
#or correctness of such information and interpretations.  Under no circumstances should any 
#such information or interpretation be relied upon as the sole basis for any drilling, 
#completion, production, or financial decision or any procedure involving any risk to the 
#safety of any drilling venture, drilling rig or its crew or any other third party.  The 
#Customer has full responsibility for all drilling, completion and production operation.  
#Halliburton makes no representations or warranties, either expressed or 
#implied, including, but not limited to, the implied warranties of merchantability or fitness 
#for a particular purpose, with respect to the services rendered.  In no event will 
#Halliburton be liable for failure to obtain any particular results or for 
#any damages, including, but not limited to, indirect, special or consequential damages, 
#resulting from the use of any information or interpretation provided by Halliburton.
#
~A           TIME           GTDEPTH  GTPQH  GTTQ  GTTN  GTET   GTTVD  
# ...
   07:22:29.290.27-Aug-2021 5010.50 4278.43 87.58 3.00 161.03 3349.10
   07:22:29.490.27-Aug-2021 5010.50 4278.43 87.58 3.00 161.23 3349.10
   07:22:29.690.27-Aug-2021 5010.50 4278.45 87.58 3.00 161.43 3349.10
   07:22:29.890.27-Aug-2021 5010.50 4278.43 87.58 3.00 161.63 3349.10
   07:22:30.090.27-Aug-2021 5010.50 4278.38 87.58 3.00 161.83 3349.10
   07:22:30.290.27-Aug-2021 5010.50 4278.33 87.58 3.00 162.03 3349.10
   07:22:30.490.27-Aug-2021 5010.50 4278.33 87.58 3.00 162.23 3349.10
   07:22:30.690.27-Aug-2021 5010.50 4278.35 87.58 3.00 162.43 3349.10
   07:22:30.890.27-Aug-2021 5010.50 4278.35 87.58 3.00 162.63 3349.10
   07:22:31.090.27-Aug-2021 5010.50 4278.35 87.58 3.00 162.83 3349.10
   07:22:31.290.27-Aug-2021 5010.50 4278.36 87.58 3.00 163.03 3349.10
   07:22:31.490.27-Aug-2021 5010.50 4278.36 87.58 3.00 163.23 3349.10
   07:22:31.690.27-Aug-2021 5010.50 4278.37 87.58 3.00 163.43 3349.10
   07:22:31.890.27-Aug-2021 5010.50 4278.38 87.58 3.00 163.63 3349.10
   07:22:32.091.27-Aug-2021 5010.50 4278.39 87.58 3.00 163.83 3349.10
   07:22:32.291.27-Aug-2021 5010.50 4278.41 87.58 3.00 164.03 3349.10
   07:22:32.491.27-Aug-2021 5010.50 4278.41 87.58 3.00 164.23 3349.10
   07:22:32.691.27-Aug-2021 5010.50 4278.43 87.58 3.00 164.43 3349.10
   07:22:32.891.27-Aug-2021 5010.50 4278.42 87.58 3.00 164.63 3349.10
   07:22:33.091.27-Aug-2021 5010.50 4278.43 87.58 3.00 164.83 3349.10
   07:22:33.291.27-Aug-2021 5010.50 4278.34 87.58 3.00 165.03 3349.10
   07:22:33.491.27-Aug-2021 5010.50 4278.34 87.58 3.00 165.23 3349.10
   07:22:33.691.27-Aug-2021 5010.50 4278.35 87.58 3.00 165.43 3349.10
   07:22:33.891.27-Aug-2021 5010.50 4278.35 87.58 3.00 165.63 3349.10
   07:22:34.091.27-Aug-2021 5010.50 4278.36 87.58 3.00 165.83 3349.10
   07:22:34.291.27-Aug-2021 5010.50 4278.37 87.58 3.00 166.03 3349.10
   07:22:34.491.27-Aug-2021 5010.50 4278.37 87.58 3.00 166.23 3349.10
   07:22:34.691.27-Aug-2021 5010.50 4278.36 87.58 3.00 166.43 3349.10
   07:22:34.891.27-Aug-2021 5010.50 4278.36 87.58 3.00 166.63 3349.10
   07:22:35.091.27-Aug-2021 5010.50 4278.37 87.58 3.00 166.83 3349.10
   07:22:35.291.27-Aug-2021 5010.50 4278.36 87.58 3.00 167.03 3349.10
   07:22:35.491.27-Aug-2021 5010.50 4278.36 87.58 3.00 167.23 3349.10
   07:22:35.691.27-Aug-2021 5010.50 4278.38 87.58 3.00 167.43 3349.10
   07:22:35.891.27-Aug-2021 5010.50 4278.37 87.58 3.00 167.63 3349.10
   07:22:36.091.27-Aug-2021 5010.50 4278.38 87.58 3.00 167.83 3349.10
   07:22:36.291.27-Aug-2021 5010.50 4278.38 87.58 3.00 168.03 3349.10
   07:22:36.491.27-Aug-2021 5010.50 4278.38 87.58 3.00 168.23 3349.10
   07:22:36.691.27-Aug-2021 5010.50 4278.32 87.58 3.00 168.43 3349.10
   07:22:36.891.27-Aug-2021 5010.50 4278.32 87.58 3.00 168.63 3349.10
   07:22:37.091.27-Aug-2021 5010.50 4279.21 87.58 3.00 168.83 3349.10
   07:22:37.291.27-Aug-2021 5010.50 4280.79 87.58 3.00 169.03 3349.10
   07:22:37.491.27-Aug-2021 5010.50 4280.79 87.58 3.00 169.23 3349.10
   07:22:37.691.27-Aug-2021 5010.50 4281.02 87.58 3.00 169.43 3349.10
   07:22:37.891.27-Aug-2021 5010.50 4281.20 87.58 3.00 169.63 3349.10
   07:22:38.092.27-Aug-2021 5010.50 4281.37 87.58 3.00 169.83 3349.10
   07:22:38.292.27-Aug-2021 5010.50 4281.40 87.58 3.00 170.03 3349.10
   07:22:38.492.27-Aug-2021 5010.50 4281.40 87.58 3.00 170.23 3349.10
   07:22:38.692.27-Aug-2021 5010.50 4281.39 87.58 3.00 170.43 3349.10
   07:22:38.892.27-Aug-2021 5010.50 4281.43 87.58 3.00 170.63 3349.10
   07:22:39.092.27-Aug-2021 5010.50 4281.50 87.58 3.00 170.83 3349.10
   07:22:39.292.27-Aug-2021 5010.50 4281.48 87.58 3.00 171.03 3349.10
   07:22:39.492.27-Aug-2021 5010.50 4281.48 87.58 3.00 171.23 3349.10
   07:22:39.692.27-Aug-2021 5010.50 4281.49 87.58 3.00 171.43 3349.10
   07:22:39.892.27-Aug-2021 5010.50 4281.50 87.58 3.00 171.63 3349.10
   07:22:40.092.27-Aug-2021 5010.50 4281.50 87.58 3.00 171.83 3349.10
   07:22:40.292.27-Aug-2021 5010.50 4281.50 87.58 3.00 172.03 3349.10
   07:22:40.492.27-Aug-2021 5010.50 4281.50 87.58 3.00 172.23 3349.10
   07:22:40.692.27-Aug-2021 5010.50 4281.54 87.58 3.00 172.43 3349.10
   07:22:40.892.27-Aug-2021 5010.50 4281.55 87.58 3.00 172.63 3349.10
   07:22:41.092.27-Aug-2021 5010.50 4281.55 87.58 3.00 172.83 3349.10
   07:22:41.292.27-Aug-2021 5010.50 4281.55 87.58 3.00 173.03 3349.10
   07:22:41.492.27-Aug-2021 5010.50 4281.55 87.58 3.00 173.23 3349.10
   07:22:41.692.27-Aug-2021 5010.50 4281.55 87.57 3.00 173.43 3349.10
   07:22:41.892.27-Aug-2021 5010.50 4281.56 87.57 3.00 173.63 3349.10
   07:22:42.092.27-Aug-2021 5010.50 4281.56 87.57 3.00 173.83 3349.10
   07:22:42.292.27-Aug-2021 5010.50 4281.56 87.57 3.00 174.03 3349.10
   07:22:42.492.27-Aug-2021 5010.50 4281.56 87.57 3.00 174.23 3349.10
   07:22:42.692.27-Aug-2021 5010.50 4281.56 87.57 3.00 174.43 3349.10
   07:22:42.892.27-Aug-2021 5010.50 4281.56 87.57 3.00 174.63 3349.10
   07:22:43.092.27-Aug-2021 5010.50 4281.57 87.57 3.00 174.83 3349.10
   07:22:43.292.27-Aug-2021 5010.50 4281.59 87.57 3.00 175.03 3349.10
   07:22:43.492.27-Aug-2021 5010.50 4281.59 87.57 3.00 175.23 3349.10
   07:22:43.692.27-Aug-2021 5010.50 4281.58 87.57 3.00 175.43 3349.10
   07:22:43.892.27-Aug-2021 5010.50 4281.58 87.57 3.00 175.63 3349.10
   07:22:44.093.27-Aug-2021 5010.50 4281.58 87.57 3.00 175.83 3349.10
   07:22:44.293.27-Aug-2021 5010.50 4281.58 87.57 3.00 176.03 3349.10
   07:22:44.493.27-Aug-2021 5010.50 4281.58 87.57 3.00 176.23 3349.10
   07:22:44.693.27-Aug-2021 5010.50 4281.58 87.57 3.00 176.43 3349.10
   07:22:44.893.27-Aug-2021 5010.50 4281.59 87.57 3.00 176.63 3349.10
   07:22:45.093.27-Aug-2021 5010.50 4281.58 87.57 3.00 176.83 3349.10
   07:22:45.293.27-Aug-2021 5010.50 4281.59 87.57 3.00 177.03 3349.10
   07:22:45.493.27-Aug-2021 5010.50 4281.59 87.57 3.00 177.23 3349.10
   07:22:45.693.27-Aug-2021 5010.50 4281.59 87.57 3.00 177.43 3349.10
   07:22:45.893.27-Aug-2021 5010.50 4281.59 87.57 3.00 177.63 3349.10
   07:22:46.093.27-Aug-2021 5010.50 4281.59 87.57 3.00 177.83 3349.10
   07:22:46.293.27-Aug-2021 5010.50 4281.59 87.57 3.00 178.03 3349.10
   07:22:46.493.27-Aug-2021 5010.50 4281.59 87.57 3.00 178.23 3349.10
   07:22:46.693.27-Aug-2021 5010.50 4281.56 87.57 3.00 178.43 3349.10
   07:22:46.893.27-Aug-2021 5010.50 4281.59 87.57 3.00 178.63 3349.10
   07:22:47.093.27-Aug-2021 5010.50 4281.59 87.57 3.00 178.83 3349.10
   07:22:47.293.27-Aug-2021 5010.50 4281.59 87.57 3.00 179.03 3349.10
   07:22:47.493.27-Aug-2021 5010.50 4281.59 87.57 3.00 179.23 3349.10
   07:22:47.693.27-Aug-2021 5010.50 4281.60 87.57 3.00 179.43 3349.10
   07:22:47.893.27-Aug-2021 5010.50 4281.60 87.57 3.00 179.63 3349.10
   07:22:48.093.27-Aug-2021 5010.50 4281.58 87.57 3.00 179.83 3349.10
   07:22:48.293.27-Aug-2021 5010.50 4281.60 87.57 3.00 180.03 3349.10
   07:22:48.493.27-Aug-2021 5010.50 4281.60 87.57 3.00 180.23 3349.10
   07:22:48.693.27-Aug-2021 5010.50 4281.60 87.57 3.00 180.43 3349.10
   07:22:48.893.27-Aug-2021 5010.50 4281.62 87.57 3.00 180.63 3349.10
   07:22:49.093.27-Aug-2021 5010.50 4281.58 87.57 3.00 180.83 3349.10
   07:22:49.293.27-Aug-2021 5010.50 4281.61 87.57 3.00 181.03 3349.10
   07:22:49.493.27-Aug-2021 5010.50 4281.61 87.57 3.00 181.23 3349.10
   07:22:49.693.27-Aug-2021 5010.50 4281.59 87.57 3.00 181.43 3349.10
   07:22:49.893.27-Aug-2021 5010.50 4281.61 87.57 3.00 181.63 3349.10
   07:22:50.093.27-Aug-2021 5010.50 4281.61 87.57 3.00 181.83 3349.10
   07:22:50.294.27-Aug-2021 5010.50 4281.61 87.57 3.00 182.03 3349.10
   07:22:50.494.27-Aug-2021 5010.50 4281.61 87.57 3.00 182.23 3349.10
   07:22:50.694.27-Aug-2021 5010.50 4281.62 87.57 3.00 182.43 3349.10
   07:22:50.894.27-Aug-2021 5010.50 4281.61 87.57 3.00 182.63 3349.10
   07:22:51.094.27-Aug-2021 5010.50 4281.61 87.57 3.00 182.83 3349.10
   07:22:51.294.27-Aug-2021 5010.50 4281.61 87.57 3.00 183.03 3349.10
   07:22:51.494.27-Aug-2021 5010.50 4281.61 87.57 3.00 183.23 3349.10
   07:22:51.694.27-Aug-2021 5010.50 4281.61 87.57 3.00 183.43 3349.10
   07:22:51.894.27-Aug-2021 5010.50 4281.61 87.57 3.00 183.63 3349.10
   07:22:52.094.27-Aug-2021 5010.50 4281.61 87.57 3.00 183.83 3349.10
