~Version Information
 VERS.                  2.0:   CWLS log ASCII Standard -VERSION 2.0
 WRAP.                   NO:   One line per depth step
~Well Information Block
#MNEM.UNIT     VALUE/NAME     DESCRIPTION
#---------     -----------    ---------------------------
 STRT.S             10:06:49 27-Aug-21: START TIME 10:06:49 27-Aug-21
 STOP.S             10:13:57 27-Aug-21: STOP TIME  10:13:57 27-Aug-21
 STEP.S                   0.00: STEP TIME
 NULL.                 -999.25: NULL VALUE
 DFWT.                        :  DIST FWL TEXT
 DFST.                        :  DIST FSL TEXT
 DMF .             Drill Floor:  DRILL MEAS FROM
 STIM.      20.00.00 17-Aug-21:  START TIME
 DATE.      19.00.00 29-Aug-21:  END TIME
 SPUD.               15-Aug-21:  SPUD DATE
 NREF.                    Grid:  NORTH REFERENCE
 HPTY.       Minimum Curvature:  HOLE POS TYPE
 DMOD.             Drill Model:  DRILL MOD DESC
 SVYD.                  Survey:  SURVEY DESC
 ILTD.               Lithology:  INTERP LTH DESC
 FTOP.          Formation Tops:  FORM TOPS DESC
 RIG .              East Azeri:  RIG NAME
 PDAT.          Mean Sea Level:  PERMANENT DATUM
 FLD .                     ACG:  FIELD NAME
 SON .        AZ-XX-0907180857:  JOB NUMBER
 CTRY.              Azerbaijan:  COUNTRY NAME
 WELL.                    D23x:  WELL NAME
 SRVC.     Turan Drilling and Engineering:  CONTRACTOR
 COMP.     BP Exploration (Caspian Sea) Ltd.:  COMPANY
 UWI .            /AZE00000214:  UNIQUE WELL IDENTIFIER
 API .            /AZE00000214:  API NUMBER
 MDS .        Operator Entered:  MAG DATA SOURCE
 BASE.              Azerbaijan:  LOGGING EQUIPMENT BASE LOCATION
 REGN.                   EESSA:  REGION
 PROV.                    Baku:  PROVINCE
 STAT.                    Baku:  STATE NAME
 MWDS.                    Baku:  MWD SHOP
 DOE .                     N/A:  DOE NUMBER
 DCON.         Sperry Drilling:  DIRECTNL CONTR
 UNIT.                     N/A:  LOGGING EQUIPMENT ID
 WTYP.                Deviated:  WELL TYPE
 CNTY.                        :  COUNTY
 LOC .                        :  LOCATION
 LMF .             Drill Floor:  LOG MEASURED FROM
 TVDS.m                  43.60:  TVDSS CORRECTN
 LATI.deg                40.02:  LATITUDE
 LONG.deg                51.45:  LONGITUDE
 WHNS.m                  -7.04:  WELL HEAD N/S
 WHEW.m                  -0.67:  WELL HEAD E/W
 UTMX.m              538762.90:  UTM X
 UTMY.m             4431871.34:  UTM Y
 DFWL.m                   0.00:  DISTANCE FWL
 DFSL.m                   0.00:  DISTANCE FSL
 SDEP.m                4127.00:  START DEPTH
 TDD .m                5084.50:  TOTAL DEPTH (DRILLER)
 VSDR.deg               140.47:  VERT SEC DIRECT
 GVFD.g                   1.00:  GRAVITY FIELD
 MFLD.nT              50362.00:  MAGNETIC FIELD
 MDIP.deg                59.48:  MAGNETIC DIP
 MDEC.deg                 6.47:  MAGNETIC DECL
 GRDC.deg                 0.31:  GRID CORRECTION
 AZTC.deg                 6.16:  AZM TOTAL CORR
 EPD .m                   0.00:  ELEVATION
 EGL .m                   0.00:  GROUND ELEVATION
 WDMS.m                 151.80:  WD ELEV
 APD .m                  43.60:  DEPTH ABOVE PD
 DEP .m                4092.57:  DEPTH
 AGAP.m                  43.60:  AIR GAP
 VSEW.m                  -0.67:  VERT SEC E/W
 VSNS.m                  -7.04:  VERT SEC N/S
 EKB .m                  43.60:  KB ELEVATION
 EDF .m                  43.60:  DF ELEVATION
 TDL .m                 957.50:  TOTAL DEPTH (LOGGER)
 VSC .                       0:  VS TO CLOSURE
 MAGU.                 1851413:  MAGUTM CHECKSUM
~Parameter Information Block
#MNEM.UNIT       Value        Description
#---------     -----------    ---------------------------
 AV  .mps                 1.50:  Ann Velocity 
 AVMX.mps                 2.00:  Max Ann Veloc 
 AZIF.deg               184.66:  Azm, Final 
 BHAT.        Rotary Steerable:  BHA Type 
 BREV.rev               300.00:  Rev Bit Total 
 BROT.°/30m              -0.50:  Build Rotating 
 BS  .in                  8.50:  Bit Size 
 BSZ .in                  8.50:  Bit Size 
 BTPL.psig              370.00:  Bit Press Loss 
 CABU.                      No:  Customer Abuse 
 CGEO.      Behruz Shahbaliyev:  Customer Geo 
 COMM.                     Ììg:  Run Comments 1 
 TCS .hr                140.08:  Time Ciculation Ended 
 CV  .mps                 3.00:  Crit Velocity 
 CVMX.mps                 3.20:  Max Crit Veloc 
 DD1 .            Musa Ahmadov:  Direct Drillr 1 
 DD2 .           Hamid Ahmadov:  Direct Drillr 2 
 DDSV.               Geo-Pilot:  DD Service 
 DEFF.%                  98.40:  % Det Eff 
 DLRX.°/30m               3.40:  Dogleg Rot Max 
 DLSO.°/30m               1.45:  Dogleg Oriented 
 DLSX.°/30m               3.40:  Dogleg Str Max 
 DRET.      18.40.00 29-Aug-21:  Drill End Time 
 DRST.      21.00.00 20-Aug-21:  Drill Start Tim 
 DTIM.hr                 69.47:  Time Drilling 
 EDEP.m                5084.50:  End Depth 
 ENG1.      Artemiy Matviyanov:  Engineer 1 
 ENG2.         Almaz Almadatov:  Engineer 2 
 ETIM.      18.40.00 29-Aug-21:  End Time 
 FLOI.gpm               500.00:  Flow In 
 FLON.gpm               400.00:  Flow In Min 
 FLOS.cptm                0.00:  Fluid Loss 
 FLOX.gpm               500.00:  Flow In Max 
 DFT .        Mineral Oil Base:  Mud Type 
 HFLO.                      No:  High Flow 
 HPRE.                      No:  High Pressure 
 HTEM.                      No:  High Temp 
 HYDO.m                   1.80:  Hydro Offset 
 IFIN.deg                25.62:  Inc, Final 
 IMAX.deg                48.69:  Inc Max 
 IMIN.deg                24.01:  Inc Min 
 IMND.m                4962.57:  Inc Min Depth 
 IMXD.m                4119.01:  Inc Max Depth 
 JARR.                      No:  Jarring 
 LETM.      18.40.00 29-Aug-21:  Log End Time 
 LOST.hr                     0:  Lost Rig Time 
 LSTM.      21.00.00 20-Aug-21:  Log Start Time 
 MDCL.ppm             41500.00:  Mud Chlorides 
 MDES.     Inversion Oil/Synthetic:  Mud Desc 
 DFD .sg                  1.56:  Mud Density 
 MDMN.sg                  1.56:  Dens Mud Min 
 MDMX.sg                  1.56:  Dens Mud Max 
 MOIL.                      70:  Run Mud Oil % 
 MOWR.                   70:30:  Run Mud OWR 
 MSND.                     0.2:  Run Mud Sand % 
 MSOL.                    23.3:  Run Mud Solids% 
 DFV .spqt               78.00:  Mud Viscosity 
 MWOD.in                  6.75:  MWD Tool OD 
 MWSI.                      No:  Serv Intrp, MWD 
 OTIM.hr                218.30:  Time Operating 
 PCON.           Look Like New:  Pad Condition 
 PMAX.psia            11015.30:  Press Op, Max 
 PV  .cP                 38.00:  Mud PV 
 RUN .                     300:  Run Number 
 ROPA.m/hr               15.00:  ROP Avg 
 ROPN.m/hr                9.00:  ROP Min 
 ROPX.m/hr               17.00:  ROP Max 
 RPMA.rpm               120.00:  RPM Surface Avg 
 RPMN.rpm                90.00:  RPM Surface Min 
 RPMX.rpm               140.00:  RPM Surface Max 
 RRUN.                     300:  Rig Run Number 
 RTIM.hr                 31.53:  Time Reaming 
 SAZI.deg               331.64:  Azm, Start 
 SDEP.m                4127.00:  Start Depth 
 SIDD.                      No:  Serv Intrp, DD 
 SINC.deg                48.43:  Inc, Start 
 SPPA.psig             5830.00:  SPP Avg 
 SPPN.psig             5600.00:  SPP Min 
 SPPX.psig             5900.00:  SPP Max 
 STIM.      21.00.00 20-Aug-21:  Start Time 
 SVCS.                 DD, MWD:  Services 
 SVER.                    9.20:  Sperry Version 
 TDAT.m                 957.50:  Tot Depth Attmp 
 TDDF.                      No:  Trip for DD 
 TDLG.m                 957.50:  Tot Depth Loggd 
 TFF .                      No:  Trip for Fail 
 TQAA.f-kp               15.00:  Torque Abs Avg 
 TQAN.f-kp               12.00:  Torque Abs Min 
 TQAX.f-kp               19.00:  Torque Abs Max 
 TRRT.°/30m              -3.40:  Turn Rotating 
 MRT .                  EWR-M5:  Maximum Recorded Temperature 
 TTMX.degC              100.00:  Max Tool Temp 
 VS01.                90639251:  Virtual Str1 SN 
 VS02.                90634715:  Virtual Str2 SN 
 VS03.                90652479:  Virtual Str3 SN 
 VS04.                90642262:  Virtual Str4 SN 
 WBMN.klb                 0.00:  WOB Min 
 WITN.           Murad Guliyev:  Customer Rep 
 WITN.          Yashar Gaziyev:  Customer Rep 2 
 WOBA.klb                 9.00:  WOB Avg 
 WOBX.klb                12.00:  WOB Max 
 YP  .lhf2               30.00:  Yield Point 
~Curve Information Block
#MNEM.UNIT                 API CODE     Curve Description
#---------               -----------    ---------------------------
 TIME.HHMMSS            00 000 000 000:  GT Time & Date
 GTDEPTH.m              00 000 000 000:  GT Depth
 GTPQH.psia             00 000 000 000:  GT HR Quartz Pressure
 GTTQ.degC              00 000 000 000:  GT Quartz Temperature
 GTTN.NONE              00 000 000 000:  GT Test Number
 GTET.sec               00 000 000 000:  GT Elapsed Test Time
 GTTVD.m                00 000 000 000:  GT True Vertical Depth
#Other Information
#
#WARRANTY: Halliburton will use its best efforts to furnish customers with 
#accurate information and interpretations that are part of, and incident to, the services 
#provided.  However, Halliburton cannot and does not warrant the accuracy 
#or correctness of such information and interpretations.  Under no circumstances should any 
#such information or interpretation be relied upon as the sole basis for any drilling, 
#completion, production, or financial decision or any procedure involving any risk to the 
#safety of any drilling venture, drilling rig or its crew or any other third party.  The 
#Customer has full responsibility for all drilling, completion and production operation.  
#Halliburton makes no representations or warranties, either expressed or 
#implied, including, but not limited to, the implied warranties of merchantability or fitness 
#for a particular purpose, with respect to the services rendered.  In no event will 
#Halliburton be liable for failure to obtain any particular results or for 
#any damages, including, but not limited to, indirect, special or consequential damages, 
#resulting from the use of any information or interpretation provided by Halliburton.
#
~A           TIME           GTDEPTH  GTPQH  GTTQ  GTTN  GTET   GTTVD  
# ...
   10:11:47.777.27-Aug-2021 4958.50 7889.15 86.04 8.00 298.64 3301.91
   10:11:47.977.27-Aug-2021 4958.50 7889.15 86.04 8.00 298.84 3301.91
   10:11:48.177.27-Aug-2021 4958.50 7886.63 86.04 8.00 299.04 3301.91
   10:11:48.376.27-Aug-2021 4958.50 7890.18 86.04 8.00 299.24 3301.91
   10:11:48.576.27-Aug-2021 4958.50 7888.78 86.04 8.00 299.44 3301.91
   10:11:48.776.27-Aug-2021 4958.50 7888.22 86.04 8.00 299.64 3301.91
   10:11:48.976.27-Aug-2021 4958.50 7888.22 86.04 8.00 299.84 3301.91
   10:11:49.175.27-Aug-2021 4958.50 7888.65 86.04 8.00 300.04 3301.91
   10:11:49.375.27-Aug-2021 4958.50 7888.48 86.04 8.00 300.24 3301.91
   10:11:49.575.27-Aug-2021 4958.50 7888.40 86.04 8.00 300.44 3301.91
   10:11:49.775.27-Aug-2021 4958.50 7888.78 86.04 8.00 300.64 3301.91
   10:11:49.974.27-Aug-2021 4958.50 7888.78 86.04 8.00 300.84 3301.91
   10:11:50.174.27-Aug-2021 4958.50 7889.79 86.04 8.00 301.04 3301.91
   10:11:50.374.27-Aug-2021 4958.50 7890.12 86.04 8.00 301.24 3301.91
   10:11:50.574.27-Aug-2021 4958.50 7889.81 86.04 8.00 301.44 3301.91
   10:11:50.774.27-Aug-2021 4958.50 7889.59 86.04 8.00 301.64 3301.91
   10:11:50.973.27-Aug-2021 4958.50 7889.59 86.04 8.00 301.84 3301.91
   10:11:51.173.27-Aug-2021 4958.50 7889.13 86.04 8.00 302.04 3301.91
   10:11:51.373.27-Aug-2021 4958.50 7895.16 86.04 8.00 302.24 3301.91
   10:11:51.573.27-Aug-2021 4958.50 7886.62 86.04 8.00 302.44 3301.91
   10:11:51.772.27-Aug-2021 4958.50 7889.96 86.04 8.00 302.64 3301.91
   10:11:51.972.27-Aug-2021 4958.50 7889.96 86.04 8.00 302.84 3301.91
   10:11:52.172.27-Aug-2021 4958.50 7888.41 86.04 8.00 303.04 3301.91
   10:11:52.372.27-Aug-2021 4958.50 7888.63 86.04 8.00 303.24 3301.91
   10:11:52.571.27-Aug-2021 4958.50 7893.19 86.04 8.00 303.44 3301.91
   10:11:52.771.27-Aug-2021 4958.50 7888.76 86.04 8.00 303.64 3301.91
   10:11:52.971.27-Aug-2021 4958.50 7888.76 86.04 8.00 303.84 3301.91
   10:11:53.171.27-Aug-2021 4958.50 7888.52 86.04 8.00 304.04 3301.91
   10:11:53.370.27-Aug-2021 4958.50 7888.87 86.04 8.00 304.24 3301.91
   10:11:53.570.27-Aug-2021 4958.50 7889.46 86.04 8.00 304.44 3301.91
   10:11:53.770.27-Aug-2021 4958.50 7892.14 86.04 8.00 304.64 3301.91
   10:11:53.970.27-Aug-2021 4958.50 7892.14 86.04 8.00 304.84 3301.91
   10:11:54.169.27-Aug-2021 4958.50 7890.11 86.04 8.00 305.04 3301.91
   10:11:54.369.27-Aug-2021 4958.50 7888.79 86.04 8.00 305.24 3301.91
   10:11:54.569.27-Aug-2021 4958.50 7888.99 86.04 8.00 305.44 3301.91
   10:11:54.769.27-Aug-2021 4958.50 7891.90 86.04 8.00 305.64 3301.91
   10:11:54.968.27-Aug-2021 4958.50 7891.90 86.04 8.00 305.83 3301.91
   10:11:55.168.27-Aug-2021 4958.50 7890.16 86.04 8.00 306.03 3301.91
   10:11:55.368.27-Aug-2021 4958.50 7888.10 86.04 8.00 306.23 3301.91
   10:11:55.568.27-Aug-2021 4958.50 7887.90 86.04 8.00 306.43 3301.91
   10:11:55.768.27-Aug-2021 4958.50 7888.25 86.04 8.00 306.63 3301.91
   10:11:55.967.27-Aug-2021 4958.50 7888.25 86.04 8.00 306.83 3301.91
   10:11:56.167.27-Aug-2021 4958.50 7888.25 86.04 8.00 307.03 3301.91
   10:11:56.367.27-Aug-2021 4958.50 7888.42 86.04 8.00 307.23 3301.91
   10:11:56.567.27-Aug-2021 4958.50 7888.66 86.04 8.00 307.43 3301.91
   10:11:56.766.27-Aug-2021 4958.50 7889.08 86.04 8.00 307.63 3301.91
   10:11:56.966.27-Aug-2021 4958.50 7889.08 86.04 8.00 307.83 3301.91
   10:11:57.166.27-Aug-2021 4958.50 7889.83 86.04 8.00 308.03 3301.91
   10:11:57.366.27-Aug-2021 4958.50 7889.75 86.04 8.00 308.23 3301.91
   10:11:57.565.27-Aug-2021 4958.50 7889.34 86.04 8.00 308.43 3301.91
   10:11:57.765.27-Aug-2021 4958.50 7888.95 86.04 8.00 308.63 3301.91
   10:11:57.965.27-Aug-2021 4958.50 7888.95 86.04 8.00 308.83 3301.91
   10:11:58.165.27-Aug-2021 4958.50 7892.16 86.04 8.00 309.03 3301.91
   10:11:58.364.27-Aug-2021 4958.50 7890.15 86.04 8.00 309.23 3301.91
   10:11:58.564.27-Aug-2021 4958.50 7889.07 86.04 8.00 309.43 3301.91
   10:11:58.764.27-Aug-2021 4958.50 7888.26 86.04 8.00 309.63 3301.91
   10:11:58.964.27-Aug-2021 4958.50 7888.26 86.04 8.00 309.83 3301.91
   10:11:59.163.27-Aug-2021 4958.50 7888.33 86.04 8.00 310.03 3301.91
   10:11:59.363.27-Aug-2021 4958.50 7888.28 86.04 8.00 310.23 3301.91
   10:11:59.563.27-Aug-2021 4958.50 7888.24 86.04 8.00 310.43 3301.91
   10:11:59.763.27-Aug-2021 4958.50 7888.34 86.04 8.00 310.63 3301.91
   10:11:59.963.27-Aug-2021 4958.50 7888.34 86.04 8.00 310.83 3301.91
   10:12:00.162.27-Aug-2021 4958.50 7889.43 86.04 8.00 311.03 3301.91
   10:12:00.362.27-Aug-2021 4958.50 7889.82 86.04 8.00 311.23 3301.91
   10:12:00.562.27-Aug-2021 4958.50 7889.83 86.04 8.00 311.43 3301.91
   10:12:00.762.27-Aug-2021 4958.50 7889.60 86.04 8.00 311.63 3301.91
   10:12:00.961.27-Aug-2021 4958.50 7889.60 86.04 8.00 311.83 3301.91
   10:12:01.161.27-Aug-2021 4958.50 7889.23 86.04 8.00 312.03 3301.91
   10:12:01.361.27-Aug-2021 4958.50 7889.14 86.04 8.00 312.23 3301.91
   10:12:01.561.27-Aug-2021 4958.50 7892.35 86.04 8.00 312.43 3301.91
   10:12:01.760.27-Aug-2021 4958.50 7890.32 86.04 8.00 312.63 3301.91
   10:12:01.960.27-Aug-2021 4958.50 7890.32 86.04 8.00 312.83 3301.91
   10:12:02.160.27-Aug-2021 4958.50 7888.28 86.04 8.00 313.03 3301.91
   10:12:02.360.27-Aug-2021 4958.50 7888.22 86.04 8.00 313.23 3301.91
   10:12:02.559.27-Aug-2021 4958.50 7894.37 86.04 8.00 313.43 3301.91
   10:12:02.759.27-Aug-2021 4958.50 7886.12 86.04 8.00 313.63 3301.91
   10:12:02.959.27-Aug-2021 4958.50 7886.12 86.04 8.00 313.83 3301.91
   10:12:03.159.27-Aug-2021 4958.50 7888.27 86.04 8.00 314.03 3301.91
   10:12:03.358.27-Aug-2021 4958.50 7888.26 86.04 8.00 314.22 3301.91
   10:12:03.558.27-Aug-2021 4958.50 7888.77 86.04 8.00 314.42 3301.91
   10:12:03.758.27-Aug-2021 4958.50 7889.20 86.04 8.00 314.62 3301.91
   10:12:03.958.27-Aug-2021 4958.50 7889.20 86.04 8.00 314.82 3301.91
   10:12:04.158.27-Aug-2021 4958.50 7888.38 86.04 8.00 315.02 3301.91
   10:12:04.357.27-Aug-2021 4958.50 7888.75 86.04 8.00 315.22 3301.91
   10:12:04.557.27-Aug-2021 4958.50 7891.61 86.04 8.00 315.42 3301.91
   10:12:04.757.27-Aug-2021 4958.50 7889.40 86.04 8.00 315.62 3301.91
   10:12:04.957.27-Aug-2021 4958.50 7889.40 86.04 8.00 315.82 3301.91
   10:12:05.156.27-Aug-2021 4958.50 7889.00 86.04 8.00 316.02 3301.91
   10:12:05.356.27-Aug-2021 4958.50 7887.98 86.04 8.00 316.22 3301.91
   10:12:05.556.27-Aug-2021 4958.50 7887.49 86.04 8.00 316.42 3301.91
   10:12:05.756.27-Aug-2021 4958.50 7887.61 86.04 8.00 316.62 3301.91
   10:12:05.955.27-Aug-2021 4958.50 7887.61 86.04 8.00 316.82 3301.91
   10:12:06.155.27-Aug-2021 4958.50 7888.29 86.04 8.00 317.02 3301.91
   10:12:06.355.27-Aug-2021 4958.50 7889.00 86.04 8.00 317.22 3301.91
   10:12:06.555.27-Aug-2021 4958.50 7889.13 86.04 8.00 317.42 3301.91
   10:12:06.754.27-Aug-2021 4958.50 7889.49 86.04 8.00 317.62 3301.91
   10:12:06.954.27-Aug-2021 4958.50 7889.49 86.04 8.00 317.82 3301.91
   10:12:07.154.27-Aug-2021 4958.50 7889.54 86.04 8.00 318.02 3301.91
   10:12:07.354.27-Aug-2021 4958.50 7889.53 86.04 8.00 318.22 3301.91
   10:12:07.553.27-Aug-2021 4958.50 7889.17 86.04 8.00 318.42 3301.91
   10:12:07.753.27-Aug-2021 4958.50 7888.87 86.04 8.00 318.62 3301.91
   10:12:07.953.27-Aug-2021 4958.50 7888.87 86.04 8.00 318.82 3301.91
   10:12:08.153.27-Aug-2021 4958.50 7889.92 86.04 8.00 319.02 3301.91
   10:12:08.353.27-Aug-2021 4958.50 7888.84 86.04 8.00 319.22 3301.91
   10:12:08.552.27-Aug-2021 4958.50 7888.30 86.04 8.00 319.42 3301.91
   10:12:08.752.27-Aug-2021 4958.50 7888.40 86.04 8.00 319.62 3301.91
   10:12:08.952.27-Aug-2021 4958.50 7888.40 86.04 8.00 319.82 3301.91
   10:12:09.152.27-Aug-2021 4958.50 7888.36 86.04 8.00 320.02 3301.91
   10:12:09.351.27-Aug-2021 4958.50 7888.24 86.03 8.00 320.22 3301.91
   10:12:09.551.27-Aug-2021 4958.50 7888.70 86.04 8.00 320.42 3301.91
   10:12:09.751.27-Aug-2021 4958.50 7888.86 86.03 8.00 320.62 3301.91
   10:12:09.951.27-Aug-2021 4958.50 7888.86 86.03 8.00 320.82 3301.91
   10:12:10.150.27-Aug-2021 4958.50 7889.84 86.04 8.00 321.02 3301.91
   10:12:10.350.27-Aug-2021 4958.50 7889.86 86.03 8.00 321.22 3301.91
   10:12:10.550.27-Aug-2021 4958.50 7889.64 86.03 8.00 321.42 3301.91
