~Version Information
 VERS.                  2.0:   CWLS log ASCII Standard -VERSION 2.0
 WRAP.                   NO:   One line per depth step
~Well Information Block
#MNEM.UNIT     VALUE/NAME     DESCRIPTION
#---------     -----------    ---------------------------
 STRT.S             02:31:31 28-Aug-21: START TIME 02:31:31 28-Aug-21
 STOP.S             02:38:23 28-Aug-21: STOP TIME  02:38:23 28-Aug-21
 STEP.S                   0.00: STEP TIME
 NULL.                 -999.25: NULL VALUE
 DFWT.                        :  DIST FWL TEXT
 DFST.                        :  DIST FSL TEXT
 DMF .             Drill Floor:  DRILL MEAS FROM
 STIM.      20.00.00 17-Aug-21:  START TIME
 DATE.      19.00.00 29-Aug-21:  END TIME
 SPUD.               15-Aug-21:  SPUD DATE
 NREF.                    Grid:  NORTH REFERENCE
 HPTY.       Minimum Curvature:  HOLE POS TYPE
 DMOD.             Drill Model:  DRILL MOD DESC
 SVYD.                  Survey:  SURVEY DESC
 ILTD.               Lithology:  INTERP LTH DESC
 FTOP.          Formation Tops:  FORM TOPS DESC
 RIG .              East Azeri:  RIG NAME
 PDAT.          Mean Sea Level:  PERMANENT DATUM
 FLD .                     ACG:  FIELD NAME
 SON .        AZ-XX-0907180857:  JOB NUMBER
 CTRY.              Azerbaijan:  COUNTRY NAME
 WELL.                    D23x:  WELL NAME
 SRVC.     Turan Drilling and Engineering:  CONTRACTOR
 COMP.     BP Exploration (Caspian Sea) Ltd.:  COMPANY
 UWI .            /AZE00000214:  UNIQUE WELL IDENTIFIER
 API .            /AZE00000214:  API NUMBER
 MDS .        Operator Entered:  MAG DATA SOURCE
 BASE.              Azerbaijan:  LOGGING EQUIPMENT BASE LOCATION
 REGN.                   EESSA:  REGION
 PROV.                    Baku:  PROVINCE
 STAT.                    Baku:  STATE NAME
 MWDS.                    Baku:  MWD SHOP
 DOE .                     N/A:  DOE NUMBER
 DCON.         Sperry Drilling:  DIRECTNL CONTR
 UNIT.                     N/A:  LOGGING EQUIPMENT ID
 WTYP.                Deviated:  WELL TYPE
 CNTY.                        :  COUNTY
 LOC .                        :  LOCATION
 LMF .             Drill Floor:  LOG MEASURED FROM
 TVDS.m                  43.60:  TVDSS CORRECTN
 LATI.deg                40.02:  LATITUDE
 LONG.deg                51.45:  LONGITUDE
 WHNS.m                  -7.04:  WELL HEAD N/S
 WHEW.m                  -0.67:  WELL HEAD E/W
 UTMX.m              538762.90:  UTM X
 UTMY.m             4431871.34:  UTM Y
 DFWL.m                   0.00:  DISTANCE FWL
 DFSL.m                   0.00:  DISTANCE FSL
 SDEP.m                4127.00:  START DEPTH
 TDD .m                5084.50:  TOTAL DEPTH (DRILLER)
 VSDR.deg               140.47:  VERT SEC DIRECT
 GVFD.g                   1.00:  GRAVITY FIELD
 MFLD.nT              50362.00:  MAGNETIC FIELD
 MDIP.deg                59.48:  MAGNETIC DIP
 MDEC.deg                 6.47:  MAGNETIC DECL
 GRDC.deg                 0.31:  GRID CORRECTION
 AZTC.deg                 6.16:  AZM TOTAL CORR
 EPD .m                   0.00:  ELEVATION
 EGL .m                   0.00:  GROUND ELEVATION
 WDMS.m                 151.80:  WD ELEV
 APD .m                  43.60:  DEPTH ABOVE PD
 DEP .m                4092.57:  DEPTH
 AGAP.m                  43.60:  AIR GAP
 VSEW.m                  -0.67:  VERT SEC E/W
 VSNS.m                  -7.04:  VERT SEC N/S
 EKB .m                  43.60:  KB ELEVATION
 EDF .m                  43.60:  DF ELEVATION
 TDL .m                 957.50:  TOTAL DEPTH (LOGGER)
 VSC .                       0:  VS TO CLOSURE
 MAGU.                 1851413:  MAGUTM CHECKSUM
~Parameter Information Block
#MNEM.UNIT       Value        Description
#---------     -----------    ---------------------------
 AV  .mps                 1.50:  Ann Velocity 
 AVMX.mps                 2.00:  Max Ann Veloc 
 AZIF.deg               184.66:  Azm, Final 
 BHAT.        Rotary Steerable:  BHA Type 
 BREV.rev               300.00:  Rev Bit Total 
 BROT.°/30m              -0.50:  Build Rotating 
 BS  .in                  8.50:  Bit Size 
 BSZ .in                  8.50:  Bit Size 
 BTPL.psig              370.00:  Bit Press Loss 
 CABU.                      No:  Customer Abuse 
 CGEO.      Behruz Shahbaliyev:  Customer Geo 
 COMM.                     Œjp:  Run Comments 1 
 TCS .hr                140.08:  Time Ciculation Ended 
 CV  .mps                 3.00:  Crit Velocity 
 CVMX.mps                 3.20:  Max Crit Veloc 
 DD1 .            Musa Ahmadov:  Direct Drillr 1 
 DD2 .           Hamid Ahmadov:  Direct Drillr 2 
 DDSV.               Geo-Pilot:  DD Service 
 DEFF.%                  98.40:  % Det Eff 
 DLRX.°/30m               3.40:  Dogleg Rot Max 
 DLSO.°/30m               1.45:  Dogleg Oriented 
 DLSX.°/30m               3.40:  Dogleg Str Max 
 DRET.      18.40.00 29-Aug-21:  Drill End Time 
 DRST.      21.00.00 20-Aug-21:  Drill Start Tim 
 DTIM.hr                 69.47:  Time Drilling 
 EDEP.m                5084.50:  End Depth 
 ENG1.      Artemiy Matviyanov:  Engineer 1 
 ENG2.         Almaz Almadatov:  Engineer 2 
 ETIM.      18.40.00 29-Aug-21:  End Time 
 FLOI.gpm               500.00:  Flow In 
 FLON.gpm               400.00:  Flow In Min 
 FLOS.cptm                0.00:  Fluid Loss 
 FLOX.gpm               500.00:  Flow In Max 
 DFT .        Mineral Oil Base:  Mud Type 
 HFLO.                      No:  High Flow 
 HPRE.                      No:  High Pressure 
 HTEM.                      No:  High Temp 
 HYDO.m                   1.80:  Hydro Offset 
 IFIN.deg                25.62:  Inc, Final 
 IMAX.deg                48.69:  Inc Max 
 IMIN.deg                24.01:  Inc Min 
 IMND.m                4962.57:  Inc Min Depth 
 IMXD.m                4119.01:  Inc Max Depth 
 JARR.                      No:  Jarring 
 LETM.      18.40.00 29-Aug-21:  Log End Time 
 LOST.hr                     0:  Lost Rig Time 
 LSTM.      21.00.00 20-Aug-21:  Log Start Time 
 MDCL.ppm             41500.00:  Mud Chlorides 
 MDES.     Inversion Oil/Synthetic:  Mud Desc 
 DFD .sg                  1.56:  Mud Density 
 MDMN.sg                  1.56:  Dens Mud Min 
 MDMX.sg                  1.56:  Dens Mud Max 
 MOIL.                      70:  Run Mud Oil % 
 MOWR.                   70:30:  Run Mud OWR 
 MSND.                     0.2:  Run Mud Sand % 
 MSOL.                    23.3:  Run Mud Solids% 
 DFV .spqt               78.00:  Mud Viscosity 
 MWOD.in                  6.75:  MWD Tool OD 
 MWSI.                      No:  Serv Intrp, MWD 
 OTIM.hr                218.30:  Time Operating 
 PCON.           Look Like New:  Pad Condition 
 PMAX.psia            11015.30:  Press Op, Max 
 PV  .cP                 38.00:  Mud PV 
 RUN .                     300:  Run Number 
 ROPA.m/hr               15.00:  ROP Avg 
 ROPN.m/hr                9.00:  ROP Min 
 ROPX.m/hr               17.00:  ROP Max 
 RPMA.rpm               120.00:  RPM Surface Avg 
 RPMN.rpm                90.00:  RPM Surface Min 
 RPMX.rpm               140.00:  RPM Surface Max 
 RRUN.                     300:  Rig Run Number 
 RTIM.hr                 31.53:  Time Reaming 
 SAZI.deg               331.64:  Azm, Start 
 SDEP.m                4127.00:  Start Depth 
 SIDD.                      No:  Serv Intrp, DD 
 SINC.deg                48.43:  Inc, Start 
 SPPA.psig             5830.00:  SPP Avg 
 SPPN.psig             5600.00:  SPP Min 
 SPPX.psig             5900.00:  SPP Max 
 STIM.      21.00.00 20-Aug-21:  Start Time 
 SVCS.                 DD, MWD:  Services 
 SVER.                    9.20:  Sperry Version 
 TDAT.m                 957.50:  Tot Depth Attmp 
 TDDF.                      No:  Trip for DD 
 TDLG.m                 957.50:  Tot Depth Loggd 
 TFF .                      No:  Trip for Fail 
 TQAA.f-kp               15.00:  Torque Abs Avg 
 TQAN.f-kp               12.00:  Torque Abs Min 
 TQAX.f-kp               19.00:  Torque Abs Max 
 TRRT.°/30m              -3.40:  Turn Rotating 
 MRT .                  EWR-M5:  Maximum Recorded Temperature 
 TTMX.degC              100.00:  Max Tool Temp 
 VS01.                90639251:  Virtual Str1 SN 
 VS02.                90634715:  Virtual Str2 SN 
 VS03.                90652479:  Virtual Str3 SN 
 VS04.                90642262:  Virtual Str4 SN 
 WBMN.klb                 0.00:  WOB Min 
 WITN.           Murad Guliyev:  Customer Rep 
 WITN.          Yashar Gaziyev:  Customer Rep 2 
 WOBA.klb                 9.00:  WOB Avg 
 WOBX.klb                12.00:  WOB Max 
 YP  .lhf2               30.00:  Yield Point 
~Curve Information Block
#MNEM.UNIT                 API CODE     Curve Description
#---------               -----------    ---------------------------
 TIME.HHMMSS            00 000 000 000:  GT Time & Date
 GTDEPTH.m              00 000 000 000:  GT Depth
 GTPQH.psia             00 000 000 000:  GT HR Quartz Pressure
 GTTQ.degC              00 000 000 000:  GT Quartz Temperature
 GTTN.NONE              00 000 000 000:  GT Test Number
 GTET.sec               00 000 000 000:  GT Elapsed Test Time
 GTTVD.m                00 000 000 000:  GT True Vertical Depth
#Other Information
#
#WARRANTY: Halliburton will use its best efforts to furnish customers with 
#accurate information and interpretations that are part of, and incident to, the services 
#provided.  However, Halliburton cannot and does not warrant the accuracy 
#or correctness of such information and interpretations.  Under no circumstances should any 
#such information or interpretation be relied upon as the sole basis for any drilling, 
#completion, production, or financial decision or any procedure involving any risk to the 
#safety of any drilling venture, drilling rig or its crew or any other third party.  The 
#Customer has full responsibility for all drilling, completion and production operation.  
#Halliburton makes no representations or warranties, either expressed or 
#implied, including, but not limited to, the implied warranties of merchantability or fitness 
#for a particular purpose, with respect to the services rendered.  In no event will 
#Halliburton be liable for failure to obtain any particular results or for 
#any damages, including, but not limited to, indirect, special or consequential damages, 
#resulting from the use of any information or interpretation provided by Halliburton.
#
~A           TIME           GTDEPTH  GTPQH  GTTQ  GTTN   GTET   GTTVD  
# ...
   02:34:10.238.28-Aug-2021 4891.00 7789.12 80.66 28.00 158.25 3240.41
   02:34:10.438.28-Aug-2021 4891.00 7789.52 80.66 28.00 158.45 3240.41
   02:34:10.638.28-Aug-2021 4891.00 7789.57 80.66 28.00 158.65 3240.41
   02:34:10.838.28-Aug-2021 4891.00 7790.11 80.66 28.00 158.85 3240.41
   02:34:11.038.28-Aug-2021 4891.00 7790.10 80.66 28.00 159.05 3240.41
   02:34:11.238.28-Aug-2021 4891.00 7790.10 80.66 28.00 159.25 3240.41
   02:34:11.439.28-Aug-2021 4891.00 7789.98 80.66 28.00 159.45 3240.41
   02:34:11.639.28-Aug-2021 4891.00 7790.03 80.66 28.00 159.65 3240.41
   02:34:11.839.28-Aug-2021 4891.00 7789.70 80.66 28.00 159.85 3240.41
   02:34:12.039.28-Aug-2021 4891.00 7790.59 80.66 28.00 160.05 3240.41
   02:34:12.239.28-Aug-2021 4891.00 7790.59 80.66 28.00 160.25 3240.41
   02:34:12.439.28-Aug-2021 4891.00 7790.14 80.66 28.00 160.45 3240.41
   02:34:12.639.28-Aug-2021 4891.00 7790.39 80.66 28.00 160.65 3240.41
   02:34:12.839.28-Aug-2021 4891.00 7789.75 80.66 28.00 160.85 3240.41
   02:34:13.039.28-Aug-2021 4891.00 7789.37 80.66 28.00 161.05 3240.41
   02:34:13.239.28-Aug-2021 4891.00 7789.37 80.66 28.00 161.25 3240.41
   02:34:13.439.28-Aug-2021 4891.00 7789.49 80.66 28.00 161.45 3240.41
   02:34:13.639.28-Aug-2021 4891.00 7789.27 80.66 28.00 161.65 3240.41
   02:34:13.839.28-Aug-2021 4891.00 7789.60 80.66 28.00 161.85 3240.41
   02:34:14.039.28-Aug-2021 4891.00 7790.13 80.66 28.00 162.05 3240.41
   02:34:14.239.28-Aug-2021 4891.00 7790.13 80.66 28.00 162.25 3240.41
   02:34:14.439.28-Aug-2021 4891.00 7790.35 80.66 28.00 162.45 3240.41
   02:34:14.640.28-Aug-2021 4891.00 7790.42 80.66 28.00 162.65 3240.41
   02:34:14.840.28-Aug-2021 4891.00 7790.12 80.66 28.00 162.85 3240.41
   02:34:15.040.28-Aug-2021 4891.00 7790.18 80.66 28.00 163.05 3240.41
   02:34:15.240.28-Aug-2021 4891.00 7790.18 80.66 28.00 163.25 3240.41
   02:34:15.440.28-Aug-2021 4891.00 7790.55 80.66 28.00 163.45 3240.41
   02:34:15.640.28-Aug-2021 4891.00 7792.22 80.66 28.00 163.65 3240.41
   02:34:15.840.28-Aug-2021 4891.00 7790.21 80.66 28.00 163.85 3240.41
   02:34:16.040.28-Aug-2021 4891.00 7790.41 80.66 28.00 164.05 3240.41
   02:34:16.240.28-Aug-2021 4891.00 7790.41 80.66 28.00 164.25 3240.41
   02:34:16.440.28-Aug-2021 4891.00 7790.07 80.66 28.00 164.45 3240.41
   02:34:16.640.28-Aug-2021 4891.00 7791.64 80.66 28.00 164.65 3240.41
   02:34:16.840.28-Aug-2021 4891.00 7790.09 80.66 28.00 164.85 3240.41
   02:34:17.040.28-Aug-2021 4891.00 7790.03 80.66 28.00 165.05 3240.41
   02:34:17.240.28-Aug-2021 4891.00 7790.03 80.66 28.00 165.25 3240.41
   02:34:17.440.28-Aug-2021 4891.00 7789.75 80.66 28.00 165.45 3240.41
   02:34:17.640.28-Aug-2021 4891.00 7789.49 80.66 28.00 165.65 3240.41
   02:34:17.841.28-Aug-2021 4891.00 7793.56 80.66 28.00 165.85 3240.41
   02:34:18.041.28-Aug-2021 4891.00 7788.89 80.66 28.00 166.05 3240.41
   02:34:18.241.28-Aug-2021 4891.00 7788.89 80.66 28.00 166.25 3240.41
   02:34:18.441.28-Aug-2021 4891.00 7790.50 80.66 28.00 166.45 3240.41
   02:34:18.641.28-Aug-2021 4891.00 7789.81 80.66 28.00 166.65 3240.41
   02:34:18.841.28-Aug-2021 4891.00 7795.23 80.66 28.00 166.85 3240.41
   02:34:19.041.28-Aug-2021 4891.00 7787.08 80.66 28.00 167.05 3240.41
   02:34:19.241.28-Aug-2021 4891.00 7787.08 80.66 28.00 167.25 3240.41
   02:34:19.441.28-Aug-2021 4891.00 7789.88 80.66 28.00 167.45 3240.41
   02:34:19.641.28-Aug-2021 4891.00 7789.99 80.66 28.00 167.65 3240.41
   02:34:19.841.28-Aug-2021 4891.00 7789.74 80.66 28.00 167.85 3240.41
   02:34:20.041.28-Aug-2021 4891.00 7789.74 80.66 28.00 168.05 3240.41
   02:34:20.241.28-Aug-2021 4891.00 7789.74 80.66 28.00 168.25 3240.41
   02:34:20.441.28-Aug-2021 4891.00 7789.82 80.66 28.00 168.45 3240.41
   02:34:20.641.28-Aug-2021 4891.00 7790.11 80.66 28.00 168.65 3240.41
   02:34:20.841.28-Aug-2021 4891.00 7790.10 80.66 28.00 168.85 3240.41
   02:34:21.042.28-Aug-2021 4891.00 7790.36 80.66 28.00 169.05 3240.41
   02:34:21.242.28-Aug-2021 4891.00 7790.36 80.66 28.00 169.25 3240.41
   02:34:21.442.28-Aug-2021 4891.00 7790.01 80.66 28.00 169.45 3240.41
   02:34:21.642.28-Aug-2021 4891.00 7790.07 80.66 28.00 169.65 3240.41
   02:34:21.842.28-Aug-2021 4891.00 7789.84 80.66 28.00 169.85 3240.41
   02:34:22.042.28-Aug-2021 4891.00 7794.12 80.66 28.00 170.05 3240.41
   02:34:22.242.28-Aug-2021 4891.00 7794.12 80.66 28.00 170.25 3240.41
   02:34:22.442.28-Aug-2021 4891.00 7791.00 80.66 28.00 170.45 3240.41
   02:34:22.642.28-Aug-2021 4891.00 7790.01 80.66 28.00 170.65 3240.41
   02:34:22.842.28-Aug-2021 4891.00 7789.88 80.66 28.00 170.85 3240.41
   02:34:23.042.28-Aug-2021 4891.00 7789.62 80.66 28.00 171.05 3240.41
   02:34:23.242.28-Aug-2021 4891.00 7789.62 80.66 28.00 171.25 3240.41
   02:34:23.442.28-Aug-2021 4891.00 7789.47 80.66 28.00 171.45 3240.41
   02:34:23.642.28-Aug-2021 4891.00 7789.68 80.66 28.00 171.65 3240.41
   02:34:23.842.28-Aug-2021 4891.00 7789.80 80.66 28.00 171.85 3240.41
   02:34:24.042.28-Aug-2021 4891.00 7790.25 80.66 28.00 172.05 3240.41
   02:34:24.243.28-Aug-2021 4891.00 7790.25 80.66 28.00 172.25 3240.41
   02:34:24.443.28-Aug-2021 4891.00 7790.43 80.66 28.00 172.45 3240.41
   02:34:24.643.28-Aug-2021 4891.00 7790.58 80.66 28.00 172.65 3240.41
   02:34:24.843.28-Aug-2021 4891.00 7790.27 80.66 28.00 172.85 3240.41
   02:34:25.043.28-Aug-2021 4891.00 7790.44 80.66 28.00 173.05 3240.41
   02:34:25.243.28-Aug-2021 4891.00 7790.44 80.66 28.00 173.25 3240.41
   02:34:25.443.28-Aug-2021 4891.00 7794.21 80.66 28.00 173.45 3240.41
   02:34:25.643.28-Aug-2021 4891.00 7788.93 80.66 28.00 173.65 3240.41
   02:34:25.843.28-Aug-2021 4891.00 7791.06 80.66 28.00 173.85 3240.41
   02:34:26.043.28-Aug-2021 4891.00 7790.08 80.66 28.00 174.05 3240.41
   02:34:26.243.28-Aug-2021 4891.00 7790.08 80.66 28.00 174.25 3240.41
   02:34:26.443.28-Aug-2021 4891.00 7790.27 80.66 28.00 174.45 3240.41
   02:34:26.643.28-Aug-2021 4891.00 7791.98 80.66 28.00 174.65 3240.41
   02:34:26.843.28-Aug-2021 4891.00 7790.03 80.66 28.00 174.86 3240.41
   02:34:27.043.28-Aug-2021 4891.00 7790.39 80.66 28.00 175.06 3240.41
   02:34:27.243.28-Aug-2021 4891.00 7790.39 80.66 28.00 175.26 3240.41
   02:34:27.444.28-Aug-2021 4891.00 7789.83 80.66 28.00 175.46 3240.41
   02:34:27.644.28-Aug-2021 4891.00 7790.35 80.66 28.00 175.66 3240.41
   02:34:27.844.28-Aug-2021 4891.00 7792.67 80.66 28.00 175.86 3240.41
   02:34:28.044.28-Aug-2021 4891.00 7790.20 80.66 28.00 176.06 3240.41
   02:34:28.244.28-Aug-2021 4891.00 7790.20 80.66 28.00 176.26 3240.41
   02:34:28.444.28-Aug-2021 4891.00 7794.64 80.66 28.00 176.46 3240.41
   02:34:28.644.28-Aug-2021 4891.00 7789.04 80.66 28.00 176.66 3240.41
   02:34:28.844.28-Aug-2021 4891.00 7791.05 80.66 28.00 176.86 3240.41
   02:34:29.044.28-Aug-2021 4891.00 7790.57 80.66 28.00 177.06 3240.41
   02:34:29.244.28-Aug-2021 4891.00 7790.57 80.66 28.00 177.26 3240.41
   02:34:29.444.28-Aug-2021 4891.00 7789.76 80.66 28.00 177.46 3240.41
   02:34:29.644.28-Aug-2021 4891.00 7790.01 80.66 28.00 177.66 3240.41
   02:34:29.844.28-Aug-2021 4891.00 7789.82 80.66 28.00 177.86 3240.41
   02:34:30.044.28-Aug-2021 4891.00 7790.21 80.66 28.00 178.06 3240.41
   02:34:30.244.28-Aug-2021 4891.00 7790.21 80.66 28.00 178.26 3240.41
   02:34:30.445.28-Aug-2021 4891.00 7790.61 80.66 28.00 178.46 3240.41
   02:34:30.645.28-Aug-2021 4891.00 7790.66 80.66 28.00 178.66 3240.41
   02:34:30.845.28-Aug-2021 4891.00 7790.68 80.66 28.00 178.86 3240.41
   02:34:31.045.28-Aug-2021 4891.00 7790.40 80.66 28.00 179.06 3240.41
   02:34:31.245.28-Aug-2021 4891.00 7790.40 80.66 28.00 179.26 3240.41
   02:34:31.445.28-Aug-2021 4891.00 7790.16 80.66 28.00 179.46 3240.41
   02:34:31.645.28-Aug-2021 4891.00 7790.61 80.66 28.00 179.66 3240.41
   02:34:31.845.28-Aug-2021 4891.00 7792.60 80.66 28.00 179.86 3240.41
   02:34:32.045.28-Aug-2021 4891.00 7790.51 80.66 28.00 180.06 3240.41
   02:34:32.245.28-Aug-2021 4891.00 7790.51 80.66 28.00 180.26 3240.41
   02:34:32.445.28-Aug-2021 4891.00 7790.24 80.66 28.00 180.46 3240.41
   02:34:32.645.28-Aug-2021 4891.00 7789.74 80.66 28.00 180.66 3240.41
