~Version Information
 VERS.                  2.0:   CWLS log ASCII Standard -VERSION 2.0
 WRAP.                   NO:   One line per depth step
~Well Information Block
#MNEM.UNIT     VALUE/NAME     DESCRIPTION
#---------     -----------    ---------------------------
 STRT.S             23:43:00 27-Aug-21: START TIME 23:43:00 27-Aug-21
 STOP.S             23:50:14 27-Aug-21: STOP TIME  23:50:14 27-Aug-21
 STEP.S                   0.00: STEP TIME
 NULL.                 -999.25: NULL VALUE
 DFWT.                        :  DIST FWL TEXT
 DFST.                        :  DIST FSL TEXT
 DMF .             Drill Floor:  DRILL MEAS FROM
 STIM.      20.00.00 17-Aug-21:  START TIME
 DATE.      19.00.00 29-Aug-21:  END TIME
 SPUD.               15-Aug-21:  SPUD DATE
 NREF.                    Grid:  NORTH REFERENCE
 HPTY.       Minimum Curvature:  HOLE POS TYPE
 DMOD.             Drill Model:  DRILL MOD DESC
 SVYD.                  Survey:  SURVEY DESC
 ILTD.               Lithology:  INTERP LTH DESC
 FTOP.          Formation Tops:  FORM TOPS DESC
 RIG .              East Azeri:  RIG NAME
 PDAT.          Mean Sea Level:  PERMANENT DATUM
 FLD .                     ACG:  FIELD NAME
 SON .        AZ-XX-0907180857:  JOB NUMBER
 CTRY.              Azerbaijan:  COUNTRY NAME
 WELL.                    D23x:  WELL NAME
 SRVC.     Turan Drilling and Engineering:  CONTRACTOR
 COMP.     BP Exploration (Caspian Sea) Ltd.:  COMPANY
 UWI .            /AZE00000214:  UNIQUE WELL IDENTIFIER
 API .            /AZE00000214:  API NUMBER
 MDS .        Operator Entered:  MAG DATA SOURCE
 BASE.              Azerbaijan:  LOGGING EQUIPMENT BASE LOCATION
 REGN.                   EESSA:  REGION
 PROV.                    Baku:  PROVINCE
 STAT.                    Baku:  STATE NAME
 MWDS.                    Baku:  MWD SHOP
 DOE .                     N/A:  DOE NUMBER
 DCON.         Sperry Drilling:  DIRECTNL CONTR
 UNIT.                     N/A:  LOGGING EQUIPMENT ID
 WTYP.                Deviated:  WELL TYPE
 CNTY.                        :  COUNTY
 LOC .                        :  LOCATION
 LMF .             Drill Floor:  LOG MEASURED FROM
 TVDS.m                  43.60:  TVDSS CORRECTN
 LATI.deg                40.02:  LATITUDE
 LONG.deg                51.45:  LONGITUDE
 WHNS.m                  -7.04:  WELL HEAD N/S
 WHEW.m                  -0.67:  WELL HEAD E/W
 UTMX.m              538762.90:  UTM X
 UTMY.m             4431871.34:  UTM Y
 DFWL.m                   0.00:  DISTANCE FWL
 DFSL.m                   0.00:  DISTANCE FSL
 SDEP.m                4127.00:  START DEPTH
 TDD .m                5084.50:  TOTAL DEPTH (DRILLER)
 VSDR.deg               140.47:  VERT SEC DIRECT
 GVFD.g                   1.00:  GRAVITY FIELD
 MFLD.nT              50362.00:  MAGNETIC FIELD
 MDIP.deg                59.48:  MAGNETIC DIP
 MDEC.deg                 6.47:  MAGNETIC DECL
 GRDC.deg                 0.31:  GRID CORRECTION
 AZTC.deg                 6.16:  AZM TOTAL CORR
 EPD .m                   0.00:  ELEVATION
 EGL .m                   0.00:  GROUND ELEVATION
 WDMS.m                 151.80:  WD ELEV
 APD .m                  43.60:  DEPTH ABOVE PD
 DEP .m                4092.57:  DEPTH
 AGAP.m                  43.60:  AIR GAP
 VSEW.m                  -0.67:  VERT SEC E/W
 VSNS.m                  -7.04:  VERT SEC N/S
 EKB .m                  43.60:  KB ELEVATION
 EDF .m                  43.60:  DF ELEVATION
 TDL .m                 957.50:  TOTAL DEPTH (LOGGER)
 VSC .                       0:  VS TO CLOSURE
 MAGU.                 1851413:  MAGUTM CHECKSUM
~Parameter Information Block
#MNEM.UNIT       Value        Description
#---------     -----------    ---------------------------
 AV  .mps                 1.50:  Ann Velocity 
 AVMX.mps                 2.00:  Max Ann Veloc 
 AZIF.deg               184.66:  Azm, Final 
 BHAT.        Rotary Steerable:  BHA Type 
 BREV.rev               300.00:  Rev Bit Total 
 BROT.°/30m              -0.50:  Build Rotating 
 BS  .in                  8.50:  Bit Size 
 BSZ .in                  8.50:  Bit Size 
 BTPL.psig              370.00:  Bit Press Loss 
 CABU.                      No:  Customer Abuse 
 CGEO.      Behruz Shahbaliyev:  Customer Geo 
 COMM.                     Ì™‡:  Run Comments 1 
 TCS .hr                140.08:  Time Ciculation Ended 
 CV  .mps                 3.00:  Crit Velocity 
 CVMX.mps                 3.20:  Max Crit Veloc 
 DD1 .            Musa Ahmadov:  Direct Drillr 1 
 DD2 .           Hamid Ahmadov:  Direct Drillr 2 
 DDSV.               Geo-Pilot:  DD Service 
 DEFF.%                  98.40:  % Det Eff 
 DLRX.°/30m               3.40:  Dogleg Rot Max 
 DLSO.°/30m               1.45:  Dogleg Oriented 
 DLSX.°/30m               3.40:  Dogleg Str Max 
 DRET.      18.40.00 29-Aug-21:  Drill End Time 
 DRST.      21.00.00 20-Aug-21:  Drill Start Tim 
 DTIM.hr                 69.47:  Time Drilling 
 EDEP.m                5084.50:  End Depth 
 ENG1.      Artemiy Matviyanov:  Engineer 1 
 ENG2.         Almaz Almadatov:  Engineer 2 
 ETIM.      18.40.00 29-Aug-21:  End Time 
 FLOI.gpm               500.00:  Flow In 
 FLON.gpm               400.00:  Flow In Min 
 FLOS.cptm                0.00:  Fluid Loss 
 FLOX.gpm               500.00:  Flow In Max 
 DFT .        Mineral Oil Base:  Mud Type 
 HFLO.                      No:  High Flow 
 HPRE.                      No:  High Pressure 
 HTEM.                      No:  High Temp 
 HYDO.m                   1.80:  Hydro Offset 
 IFIN.deg                25.62:  Inc, Final 
 IMAX.deg                48.69:  Inc Max 
 IMIN.deg                24.01:  Inc Min 
 IMND.m                4962.57:  Inc Min Depth 
 IMXD.m                4119.01:  Inc Max Depth 
 JARR.                      No:  Jarring 
 LETM.      18.40.00 29-Aug-21:  Log End Time 
 LOST.hr                     0:  Lost Rig Time 
 LSTM.      21.00.00 20-Aug-21:  Log Start Time 
 MDCL.ppm             41500.00:  Mud Chlorides 
 MDES.     Inversion Oil/Synthetic:  Mud Desc 
 DFD .sg                  1.56:  Mud Density 
 MDMN.sg                  1.56:  Dens Mud Min 
 MDMX.sg                  1.56:  Dens Mud Max 
 MOIL.                      70:  Run Mud Oil % 
 MOWR.                   70:30:  Run Mud OWR 
 MSND.                     0.2:  Run Mud Sand % 
 MSOL.                    23.3:  Run Mud Solids% 
 DFV .spqt               78.00:  Mud Viscosity 
 MWOD.in                  6.75:  MWD Tool OD 
 MWSI.                      No:  Serv Intrp, MWD 
 OTIM.hr                218.30:  Time Operating 
 PCON.           Look Like New:  Pad Condition 
 PMAX.psia            11015.30:  Press Op, Max 
 PV  .cP                 38.00:  Mud PV 
 RUN .                     300:  Run Number 
 ROPA.m/hr               15.00:  ROP Avg 
 ROPN.m/hr                9.00:  ROP Min 
 ROPX.m/hr               17.00:  ROP Max 
 RPMA.rpm               120.00:  RPM Surface Avg 
 RPMN.rpm                90.00:  RPM Surface Min 
 RPMX.rpm               140.00:  RPM Surface Max 
 RRUN.                     300:  Rig Run Number 
 RTIM.hr                 31.53:  Time Reaming 
 SAZI.deg               331.64:  Azm, Start 
 SDEP.m                4127.00:  Start Depth 
 SIDD.                      No:  Serv Intrp, DD 
 SINC.deg                48.43:  Inc, Start 
 SPPA.psig             5830.00:  SPP Avg 
 SPPN.psig             5600.00:  SPP Min 
 SPPX.psig             5900.00:  SPP Max 
 STIM.      21.00.00 20-Aug-21:  Start Time 
 SVCS.                 DD, MWD:  Services 
 SVER.                    9.20:  Sperry Version 
 TDAT.m                 957.50:  Tot Depth Attmp 
 TDDF.                      No:  Trip for DD 
 TDLG.m                 957.50:  Tot Depth Loggd 
 TFF .                      No:  Trip for Fail 
 TQAA.f-kp               15.00:  Torque Abs Avg 
 TQAN.f-kp               12.00:  Torque Abs Min 
 TQAX.f-kp               19.00:  Torque Abs Max 
 TRRT.°/30m              -3.40:  Turn Rotating 
 MRT .                  EWR-M5:  Maximum Recorded Temperature 
 TTMX.degC              100.00:  Max Tool Temp 
 VS01.                90639251:  Virtual Str1 SN 
 VS02.                90634715:  Virtual Str2 SN 
 VS03.                90652479:  Virtual Str3 SN 
 VS04.                90642262:  Virtual Str4 SN 
 WBMN.klb                 0.00:  WOB Min 
 WITN.           Murad Guliyev:  Customer Rep 
 WITN.          Yashar Gaziyev:  Customer Rep 2 
 WOBA.klb                 9.00:  WOB Avg 
 WOBX.klb                12.00:  WOB Max 
 YP  .lhf2               30.00:  Yield Point 
~Curve Information Block
#MNEM.UNIT                 API CODE     Curve Description
#---------               -----------    ---------------------------
 TIME.HHMMSS            00 000 000 000:  GT Time & Date
 GTDEPTH.m              00 000 000 000:  GT Depth
 GTPQH.psia             00 000 000 000:  GT HR Quartz Pressure
 GTTQ.degC              00 000 000 000:  GT Quartz Temperature
 GTTN.NONE              00 000 000 000:  GT Test Number
 GTET.sec               00 000 000 000:  GT Elapsed Test Time
 GTTVD.m                00 000 000 000:  GT True Vertical Depth
#Other Information
#
#WARRANTY: Halliburton will use its best efforts to furnish customers with 
#accurate information and interpretations that are part of, and incident to, the services 
#provided.  However, Halliburton cannot and does not warrant the accuracy 
#or correctness of such information and interpretations.  Under no circumstances should any 
#such information or interpretation be relied upon as the sole basis for any drilling, 
#completion, production, or financial decision or any procedure involving any risk to the 
#safety of any drilling venture, drilling rig or its crew or any other third party.  The 
#Customer has full responsibility for all drilling, completion and production operation.  
#Halliburton makes no representations or warranties, either expressed or 
#implied, including, but not limited to, the implied warranties of merchantability or fitness 
#for a particular purpose, with respect to the services rendered.  In no event will 
#Halliburton be liable for failure to obtain any particular results or for 
#any damages, including, but not limited to, indirect, special or consequential damages, 
#resulting from the use of any information or interpretation provided by Halliburton.
#
~A           TIME           GTDEPTH  GTPQH  GTTQ  GTTN   GTET   GTTVD  
# ...
   23:47:31.361.27-Aug-2021 4669.00 4391.11 82.06 26.00 271.23 3039.49
   23:47:31.561.27-Aug-2021 4669.00 4201.50 82.06 26.00 271.43 3039.49
   23:47:31.761.27-Aug-2021 4669.00 4178.17 82.06 26.00 271.63 3039.49
   23:47:31.961.27-Aug-2021 4669.00 4163.04 82.06 26.00 271.83 3039.49
   23:47:32.162.27-Aug-2021 4669.00 4151.66 82.06 26.00 272.03 3039.49
   23:47:32.362.27-Aug-2021 4669.00 4151.66 82.06 26.00 272.23 3039.49
   23:47:32.562.27-Aug-2021 4669.00 4133.59 82.06 26.00 272.43 3039.49
   23:47:32.762.27-Aug-2021 4669.00 4131.68 82.06 26.00 272.63 3039.49
   23:47:32.962.27-Aug-2021 4669.00 4129.29 82.06 26.00 272.83 3039.49
   23:47:33.162.27-Aug-2021 4669.00 4121.70 82.06 26.00 273.03 3039.49
   23:47:33.362.27-Aug-2021 4669.00 4121.70 82.06 26.00 273.23 3039.49
   23:47:33.562.27-Aug-2021 4669.00 4113.74 82.06 26.00 273.43 3039.49
   23:47:33.762.27-Aug-2021 4669.00 4109.96 82.06 26.00 273.63 3039.49
   23:47:33.962.27-Aug-2021 4669.00 4105.88 82.06 26.00 273.83 3039.49
   23:47:34.162.27-Aug-2021 4669.00 4104.08 82.06 26.00 274.03 3039.49
   23:47:34.362.27-Aug-2021 4669.00 4104.08 82.06 26.00 274.23 3039.49
   23:47:34.562.27-Aug-2021 4669.00 4099.87 82.06 26.00 274.43 3039.49
   23:47:34.762.27-Aug-2021 4669.00 4096.91 82.06 26.00 274.63 3039.49
   23:47:34.962.27-Aug-2021 4669.00 4094.90 82.06 26.00 274.83 3039.49
   23:47:35.162.27-Aug-2021 4669.00 4090.89 82.06 26.00 275.03 3039.49
   23:47:35.362.27-Aug-2021 4669.00 4090.89 82.06 26.00 275.23 3039.49
   23:47:35.562.27-Aug-2021 4669.00 4089.27 82.06 26.00 275.43 3039.49
   23:47:35.762.27-Aug-2021 4669.00 4088.23 82.06 26.00 275.63 3039.49
   23:47:35.962.27-Aug-2021 4669.00 4086.22 82.06 26.00 275.83 3039.49
   23:47:36.162.27-Aug-2021 4669.00 4084.10 82.06 26.00 276.03 3039.49
   23:47:36.362.27-Aug-2021 4669.00 4084.10 82.06 26.00 276.23 3039.49
   23:47:36.562.27-Aug-2021 4669.00 4081.41 82.06 26.00 276.43 3039.49
   23:47:36.762.27-Aug-2021 4669.00 4080.46 82.06 26.00 276.63 3039.49
   23:47:36.962.27-Aug-2021 4669.00 4079.17 82.06 26.00 276.83 3039.49
   23:47:37.162.27-Aug-2021 4669.00 4077.05 82.06 26.00 277.03 3039.49
   23:47:37.362.27-Aug-2021 4669.00 4077.05 82.06 26.00 277.23 3039.49
   23:47:37.562.27-Aug-2021 4669.00 4072.78 82.05 26.00 277.43 3039.49
   23:47:37.762.27-Aug-2021 4669.00 4074.20 82.05 26.00 277.63 3039.49
   23:47:37.962.27-Aug-2021 4669.00 4074.10 82.05 26.00 277.83 3039.49
   23:47:38.162.27-Aug-2021 4669.00 4071.26 82.05 26.00 278.03 3039.49
   23:47:38.362.27-Aug-2021 4669.00 4071.26 82.05 26.00 278.23 3039.49
   23:47:38.562.27-Aug-2021 4669.00 4070.69 82.05 26.00 278.43 3039.49
   23:47:38.762.27-Aug-2021 4669.00 4070.03 82.05 26.00 278.63 3039.49
   23:47:38.962.27-Aug-2021 4669.00 4068.59 82.05 26.00 278.83 3039.49
   23:47:39.162.27-Aug-2021 4669.00 4067.75 82.05 26.00 279.03 3039.49
   23:47:39.362.27-Aug-2021 4669.00 4067.75 82.05 26.00 279.23 3039.49
   23:47:39.562.27-Aug-2021 4669.00 4065.59 82.05 26.00 279.43 3039.49
   23:47:39.762.27-Aug-2021 4669.00 4065.25 82.05 26.00 279.63 3039.49
   23:47:39.962.27-Aug-2021 4669.00 4063.84 82.05 26.00 279.84 3039.49
   23:47:40.163.27-Aug-2021 4669.00 4063.48 82.05 26.00 280.04 3039.49
   23:47:40.363.27-Aug-2021 4669.00 4063.48 82.05 26.00 280.24 3039.49
   23:47:40.563.27-Aug-2021 4669.00 4061.87 82.05 26.00 280.44 3039.49
   23:47:40.763.27-Aug-2021 4669.00 4061.71 82.05 26.00 280.64 3039.49
   23:47:40.963.27-Aug-2021 4669.00 4060.57 82.05 26.00 280.84 3039.49
   23:47:41.163.27-Aug-2021 4669.00 4062.00 82.05 26.00 281.04 3039.49
   23:47:41.363.27-Aug-2021 4669.00 4062.00 82.05 26.00 281.24 3039.49
   23:47:41.563.27-Aug-2021 4669.00 4293.22 82.05 26.00 281.44 3039.49
   23:47:41.763.27-Aug-2021 4669.00 4336.43 82.05 26.00 281.64 3039.49
   23:47:41.963.27-Aug-2021 4669.00 4358.19 82.05 26.00 281.84 3039.49
   23:47:42.163.27-Aug-2021 4669.00 4371.27 82.05 26.00 282.04 3039.49
   23:47:42.363.27-Aug-2021 4669.00 4371.27 82.05 26.00 282.24 3039.49
   23:47:42.563.27-Aug-2021 4669.00 4388.80 82.05 26.00 282.44 3039.49
   23:47:42.763.27-Aug-2021 4669.00 4395.72 82.05 26.00 282.64 3039.49
   23:47:42.963.27-Aug-2021 4669.00 4400.46 82.05 26.00 282.84 3039.49
   23:47:43.163.27-Aug-2021 4669.00 4405.27 82.05 26.00 283.04 3039.49
   23:47:43.363.27-Aug-2021 4669.00 4405.27 82.05 26.00 283.24 3039.49
   23:47:43.563.27-Aug-2021 4669.00 4412.90 82.05 26.00 283.44 3039.49
   23:47:43.763.27-Aug-2021 4669.00 4415.18 82.05 26.00 283.64 3039.49
   23:47:43.963.27-Aug-2021 4669.00 4418.31 82.05 26.00 283.84 3039.49
   23:47:44.163.27-Aug-2021 4669.00 4420.45 82.05 26.00 284.04 3039.49
   23:47:44.363.27-Aug-2021 4669.00 4420.45 82.05 26.00 284.24 3039.49
   23:47:44.563.27-Aug-2021 4669.00 4424.72 82.05 26.00 284.44 3039.49
   23:47:44.763.27-Aug-2021 4669.00 4427.43 82.05 26.00 284.64 3039.49
   23:47:44.963.27-Aug-2021 4669.00 4428.43 82.05 26.00 284.84 3039.49
   23:47:45.163.27-Aug-2021 4669.00 4430.18 82.05 26.00 285.04 3039.49
   23:47:45.363.27-Aug-2021 4669.00 4430.18 82.05 26.00 285.24 3039.49
   23:47:45.563.27-Aug-2021 4669.00 4433.00 82.05 26.00 285.44 3039.49
   23:47:45.763.27-Aug-2021 4669.00 4434.01 82.05 26.00 285.64 3039.49
   23:47:45.963.27-Aug-2021 4669.00 4435.46 82.05 26.00 285.84 3039.49
   23:47:46.163.27-Aug-2021 4669.00 4436.43 82.05 26.00 286.04 3039.49
   23:47:46.363.27-Aug-2021 4669.00 4436.43 82.05 26.00 286.24 3039.49
   23:47:46.563.27-Aug-2021 4669.00 4438.52 82.05 26.00 286.44 3039.49
   23:47:46.763.27-Aug-2021 4669.00 4439.57 82.05 26.00 286.64 3039.49
   23:47:46.963.27-Aug-2021 4669.00 4440.39 82.05 26.00 286.84 3039.49
   23:47:47.163.27-Aug-2021 4669.00 4441.32 82.05 26.00 287.04 3039.49
   23:47:47.363.27-Aug-2021 4669.00 4441.32 82.05 26.00 287.24 3039.49
   23:47:47.563.27-Aug-2021 4669.00 4441.32 82.05 26.00 287.44 3039.49
   23:47:47.763.27-Aug-2021 4669.00 4443.54 82.05 26.00 287.64 3039.49
   23:47:47.963.27-Aug-2021 4669.00 4444.99 82.06 26.00 287.84 3039.49
   23:47:48.164.27-Aug-2021 4669.00 4445.59 82.06 26.00 288.04 3039.49
   23:47:48.364.27-Aug-2021 4669.00 4445.59 82.06 26.00 288.24 3039.49
   23:47:48.564.27-Aug-2021 4669.00 4446.45 82.06 26.00 288.44 3039.49
   23:47:48.764.27-Aug-2021 4669.00 4446.99 82.06 26.00 288.64 3039.49
   23:47:48.964.27-Aug-2021 4669.00 4447.54 82.06 26.00 288.84 3039.49
   23:47:49.164.27-Aug-2021 4669.00 4448.10 82.06 26.00 289.04 3039.49
   23:47:49.364.27-Aug-2021 4669.00 4448.10 82.06 26.00 289.24 3039.49
   23:47:49.564.27-Aug-2021 4669.00 4449.12 82.06 26.00 289.44 3039.49
   23:47:49.764.27-Aug-2021 4669.00 4449.58 82.06 26.00 289.64 3039.49
   23:47:49.964.27-Aug-2021 4669.00 4450.09 82.06 26.00 289.84 3039.49
   23:47:50.164.27-Aug-2021 4669.00 4450.51 82.06 26.00 290.04 3039.49
   23:47:50.364.27-Aug-2021 4669.00 4450.51 82.06 26.00 290.24 3039.49
   23:47:50.564.27-Aug-2021 4669.00 4451.36 82.06 26.00 290.44 3039.49
   23:47:50.764.27-Aug-2021 4669.00 4451.77 82.06 26.00 290.64 3039.49
   23:47:50.964.27-Aug-2021 4669.00 4452.13 82.06 26.00 290.84 3039.49
   23:47:51.164.27-Aug-2021 4669.00 4452.81 82.06 26.00 291.04 3039.49
   23:47:51.364.27-Aug-2021 4669.00 4452.81 82.06 26.00 291.24 3039.49
   23:47:51.564.27-Aug-2021 4669.00 4453.64 82.06 26.00 291.44 3039.49
   23:47:51.764.27-Aug-2021 4669.00 4453.98 82.06 26.00 291.64 3039.49
   23:47:51.964.27-Aug-2021 4669.00 4454.08 82.06 26.00 291.84 3039.49
   23:47:52.164.27-Aug-2021 4669.00 4454.44 82.06 26.00 292.04 3039.49
   23:47:52.364.27-Aug-2021 4669.00 4454.44 82.06 26.00 292.24 3039.49
   23:47:52.564.27-Aug-2021 4669.00 4455.77 82.06 26.00 292.44 3039.49
   23:47:52.764.27-Aug-2021 4669.00 4455.65 82.06 26.00 292.64 3039.49
   23:47:52.964.27-Aug-2021 4669.00 4455.95 82.06 26.00 292.84 3039.49
   23:47:53.164.27-Aug-2021 4669.00 4455.99 82.06 26.00 293.04 3039.49
   23:47:53.364.27-Aug-2021 4669.00 4455.99 82.06 26.00 293.24 3039.49
   23:47:53.564.27-Aug-2021 4669.00 4456.42 82.06 26.00 293.44 3039.49
   23:47:53.764.27-Aug-2021 4669.00 4456.85 82.06 26.00 293.64 3039.49
