~Version Information
 VERS.                  2.0:   CWLS log ASCII Standard -VERSION 2.0
 WRAP.                   NO:   One line per depth step
~Well Information Block
#MNEM.UNIT     VALUE/NAME     DESCRIPTION
#---------     -----------    ---------------------------
 STRT.S             15:52:10 27-Aug-21: START TIME 15:52:10 27-Aug-21
 STOP.S             15:59:26 27-Aug-21: STOP TIME  15:59:26 27-Aug-21
 STEP.S                   0.00: STEP TIME
 NULL.                 -999.25: NULL VALUE
 DFWT.                        :  DIST FWL TEXT
 DFST.                        :  DIST FSL TEXT
 DMF .             Drill Floor:  DRILL MEAS FROM
 STIM.      20.00.00 17-Aug-21:  START TIME
 DATE.      19.00.00 29-Aug-21:  END TIME
 SPUD.               15-Aug-21:  SPUD DATE
 NREF.                    Grid:  NORTH REFERENCE
 HPTY.       Minimum Curvature:  HOLE POS TYPE
 DMOD.             Drill Model:  DRILL MOD DESC
 SVYD.                  Survey:  SURVEY DESC
 ILTD.               Lithology:  INTERP LTH DESC
 FTOP.          Formation Tops:  FORM TOPS DESC
 RIG .              East Azeri:  RIG NAME
 PDAT.          Mean Sea Level:  PERMANENT DATUM
 FLD .                     ACG:  FIELD NAME
 SON .        AZ-XX-0907180857:  JOB NUMBER
 CTRY.              Azerbaijan:  COUNTRY NAME
 WELL.                    D23x:  WELL NAME
 SRVC.     Turan Drilling and Engineering:  CONTRACTOR
 COMP.     BP Exploration (Caspian Sea) Ltd.:  COMPANY
 UWI .            /AZE00000214:  UNIQUE WELL IDENTIFIER
 API .            /AZE00000214:  API NUMBER
 MDS .        Operator Entered:  MAG DATA SOURCE
 BASE.              Azerbaijan:  LOGGING EQUIPMENT BASE LOCATION
 REGN.                   EESSA:  REGION
 PROV.                    Baku:  PROVINCE
 STAT.                    Baku:  STATE NAME
 MWDS.                    Baku:  MWD SHOP
 DOE .                     N/A:  DOE NUMBER
 DCON.         Sperry Drilling:  DIRECTNL CONTR
 UNIT.                     N/A:  LOGGING EQUIPMENT ID
 WTYP.                Deviated:  WELL TYPE
 CNTY.                        :  COUNTY
 LOC .                        :  LOCATION
 LMF .             Drill Floor:  LOG MEASURED FROM
 TVDS.m                  43.60:  TVDSS CORRECTN
 LATI.deg                40.02:  LATITUDE
 LONG.deg                51.45:  LONGITUDE
 WHNS.m                  -7.04:  WELL HEAD N/S
 WHEW.m                  -0.67:  WELL HEAD E/W
 UTMX.m              538762.90:  UTM X
 UTMY.m             4431871.34:  UTM Y
 DFWL.m                   0.00:  DISTANCE FWL
 DFSL.m                   0.00:  DISTANCE FSL
 SDEP.m                4127.00:  START DEPTH
 TDD .m                5084.50:  TOTAL DEPTH (DRILLER)
 VSDR.deg               140.47:  VERT SEC DIRECT
 GVFD.g                   1.00:  GRAVITY FIELD
 MFLD.nT              50362.00:  MAGNETIC FIELD
 MDIP.deg                59.48:  MAGNETIC DIP
 MDEC.deg                 6.47:  MAGNETIC DECL
 GRDC.deg                 0.31:  GRID CORRECTION
 AZTC.deg                 6.16:  AZM TOTAL CORR
 EPD .m                   0.00:  ELEVATION
 EGL .m                   0.00:  GROUND ELEVATION
 WDMS.m                 151.80:  WD ELEV
 APD .m                  43.60:  DEPTH ABOVE PD
 DEP .m                4092.57:  DEPTH
 AGAP.m                  43.60:  AIR GAP
 VSEW.m                  -0.67:  VERT SEC E/W
 VSNS.m                  -7.04:  VERT SEC N/S
 EKB .m                  43.60:  KB ELEVATION
 EDF .m                  43.60:  DF ELEVATION
 TDL .m                 957.50:  TOTAL DEPTH (LOGGER)
 VSC .                       0:  VS TO CLOSURE
 MAGU.                 1851413:  MAGUTM CHECKSUM
~Parameter Information Block
#MNEM.UNIT       Value        Description
#---------     -----------    ---------------------------
 AV  .mps                 1.50:  Ann Velocity 
 AVMX.mps                 2.00:  Max Ann Veloc 
 AZIF.deg               184.66:  Azm, Final 
 BHAT.        Rotary Steerable:  BHA Type 
 BREV.rev               300.00:  Rev Bit Total 
 BROT.°/30m              -0.50:  Build Rotating 
 BS  .in                  8.50:  Bit Size 
 BSZ .in                  8.50:  Bit Size 
 BTPL.psig              370.00:  Bit Press Loss 
 CABU.                      No:  Customer Abuse 
 CGEO.      Behruz Shahbaliyev:  Customer Geo 
 COMM.                     Ìu:  Run Comments 1 
 TCS .hr                140.08:  Time Ciculation Ended 
 CV  .mps                 3.00:  Crit Velocity 
 CVMX.mps                 3.20:  Max Crit Veloc 
 DD1 .            Musa Ahmadov:  Direct Drillr 1 
 DD2 .           Hamid Ahmadov:  Direct Drillr 2 
 DDSV.               Geo-Pilot:  DD Service 
 DEFF.%                  98.40:  % Det Eff 
 DLRX.°/30m               3.40:  Dogleg Rot Max 
 DLSO.°/30m               1.45:  Dogleg Oriented 
 DLSX.°/30m               3.40:  Dogleg Str Max 
 DRET.      18.40.00 29-Aug-21:  Drill End Time 
 DRST.      21.00.00 20-Aug-21:  Drill Start Tim 
 DTIM.hr                 69.47:  Time Drilling 
 EDEP.m                5084.50:  End Depth 
 ENG1.      Artemiy Matviyanov:  Engineer 1 
 ENG2.         Almaz Almadatov:  Engineer 2 
 ETIM.      18.40.00 29-Aug-21:  End Time 
 FLOI.gpm               500.00:  Flow In 
 FLON.gpm               400.00:  Flow In Min 
 FLOS.cptm                0.00:  Fluid Loss 
 FLOX.gpm               500.00:  Flow In Max 
 DFT .        Mineral Oil Base:  Mud Type 
 HFLO.                      No:  High Flow 
 HPRE.                      No:  High Pressure 
 HTEM.                      No:  High Temp 
 HYDO.m                   1.80:  Hydro Offset 
 IFIN.deg                25.62:  Inc, Final 
 IMAX.deg                48.69:  Inc Max 
 IMIN.deg                24.01:  Inc Min 
 IMND.m                4962.57:  Inc Min Depth 
 IMXD.m                4119.01:  Inc Max Depth 
 JARR.                      No:  Jarring 
 LETM.      18.40.00 29-Aug-21:  Log End Time 
 LOST.hr                     0:  Lost Rig Time 
 LSTM.      21.00.00 20-Aug-21:  Log Start Time 
 MDCL.ppm             41500.00:  Mud Chlorides 
 MDES.     Inversion Oil/Synthetic:  Mud Desc 
 DFD .sg                  1.56:  Mud Density 
 MDMN.sg                  1.56:  Dens Mud Min 
 MDMX.sg                  1.56:  Dens Mud Max 
 MOIL.                      70:  Run Mud Oil % 
 MOWR.                   70:30:  Run Mud OWR 
 MSND.                     0.2:  Run Mud Sand % 
 MSOL.                    23.3:  Run Mud Solids% 
 DFV .spqt               78.00:  Mud Viscosity 
 MWOD.in                  6.75:  MWD Tool OD 
 MWSI.                      No:  Serv Intrp, MWD 
 OTIM.hr                218.30:  Time Operating 
 PCON.           Look Like New:  Pad Condition 
 PMAX.psia            11015.30:  Press Op, Max 
 PV  .cP                 38.00:  Mud PV 
 RUN .                     300:  Run Number 
 ROPA.m/hr               15.00:  ROP Avg 
 ROPN.m/hr                9.00:  ROP Min 
 ROPX.m/hr               17.00:  ROP Max 
 RPMA.rpm               120.00:  RPM Surface Avg 
 RPMN.rpm                90.00:  RPM Surface Min 
 RPMX.rpm               140.00:  RPM Surface Max 
 RRUN.                     300:  Rig Run Number 
 RTIM.hr                 31.53:  Time Reaming 
 SAZI.deg               331.64:  Azm, Start 
 SDEP.m                4127.00:  Start Depth 
 SIDD.                      No:  Serv Intrp, DD 
 SINC.deg                48.43:  Inc, Start 
 SPPA.psig             5830.00:  SPP Avg 
 SPPN.psig             5600.00:  SPP Min 
 SPPX.psig             5900.00:  SPP Max 
 STIM.      21.00.00 20-Aug-21:  Start Time 
 SVCS.                 DD, MWD:  Services 
 SVER.                    9.20:  Sperry Version 
 TDAT.m                 957.50:  Tot Depth Attmp 
 TDDF.                      No:  Trip for DD 
 TDLG.m                 957.50:  Tot Depth Loggd 
 TFF .                      No:  Trip for Fail 
 TQAA.f-kp               15.00:  Torque Abs Avg 
 TQAN.f-kp               12.00:  Torque Abs Min 
 TQAX.f-kp               19.00:  Torque Abs Max 
 TRRT.°/30m              -3.40:  Turn Rotating 
 MRT .                  EWR-M5:  Maximum Recorded Temperature 
 TTMX.degC              100.00:  Max Tool Temp 
 VS01.                90639251:  Virtual Str1 SN 
 VS02.                90634715:  Virtual Str2 SN 
 VS03.                90652479:  Virtual Str3 SN 
 VS04.                90642262:  Virtual Str4 SN 
 WBMN.klb                 0.00:  WOB Min 
 WITN.           Murad Guliyev:  Customer Rep 
 WITN.          Yashar Gaziyev:  Customer Rep 2 
 WOBA.klb                 9.00:  WOB Avg 
 WOBX.klb                12.00:  WOB Max 
 YP  .lhf2               30.00:  Yield Point 
~Curve Information Block
#MNEM.UNIT                 API CODE     Curve Description
#---------               -----------    ---------------------------
 TIME.HHMMSS            00 000 000 000:  GT Time & Date
 GTDEPTH.m              00 000 000 000:  GT Depth
 GTPQH.psia             00 000 000 000:  GT HR Quartz Pressure
 GTTQ.degC              00 000 000 000:  GT Quartz Temperature
 GTTN.NONE              00 000 000 000:  GT Test Number
 GTET.sec               00 000 000 000:  GT Elapsed Test Time
 GTTVD.m                00 000 000 000:  GT True Vertical Depth
#Other Information
#
#WARRANTY: Halliburton will use its best efforts to furnish customers with 
#accurate information and interpretations that are part of, and incident to, the services 
#provided.  However, Halliburton cannot and does not warrant the accuracy 
#or correctness of such information and interpretations.  Under no circumstances should any 
#such information or interpretation be relied upon as the sole basis for any drilling, 
#completion, production, or financial decision or any procedure involving any risk to the 
#safety of any drilling venture, drilling rig or its crew or any other third party.  The 
#Customer has full responsibility for all drilling, completion and production operation.  
#Halliburton makes no representations or warranties, either expressed or 
#implied, including, but not limited to, the implied warranties of merchantability or fitness 
#for a particular purpose, with respect to the services rendered.  In no event will 
#Halliburton be liable for failure to obtain any particular results or for 
#any damages, including, but not limited to, indirect, special or consequential damages, 
#resulting from the use of any information or interpretation provided by Halliburton.
#
~A           TIME           GTDEPTH  GTPQH  GTTQ  GTTN   GTET   GTTVD  
# ...
   15:55:57.131.27-Aug-2021 4817.00 5229.68 83.58 16.00 226.36 3173.43
   15:55:57.331.27-Aug-2021 4817.00 5229.68 83.58 16.00 226.56 3173.43
   15:55:57.531.27-Aug-2021 4817.00 5229.68 83.58 16.00 226.76 3173.43
   15:55:57.732.27-Aug-2021 4817.00 5229.88 83.58 16.00 226.96 3173.43
   15:55:57.932.27-Aug-2021 4817.00 5229.50 83.58 16.00 227.16 3173.43
   15:55:58.132.27-Aug-2021 4817.00 5229.69 83.58 16.00 227.36 3173.43
   15:55:58.333.27-Aug-2021 4817.00 5229.69 83.58 16.00 227.56 3173.43
   15:55:58.533.27-Aug-2021 4817.00 5229.68 83.58 16.00 227.76 3173.43
   15:55:58.733.27-Aug-2021 4817.00 5229.65 83.58 16.00 227.96 3173.43
   15:55:58.934.27-Aug-2021 4817.00 5229.72 83.58 16.00 228.16 3173.43
   15:55:59.134.27-Aug-2021 4817.00 5229.78 83.58 16.00 228.36 3173.43
   15:55:59.334.27-Aug-2021 4817.00 5229.78 83.58 16.00 228.56 3173.43
   15:55:59.535.27-Aug-2021 4817.00 5229.68 83.58 16.00 228.76 3173.43
   15:55:59.735.27-Aug-2021 4817.00 5229.68 83.58 16.00 228.96 3173.43
   15:55:59.935.27-Aug-2021 4817.00 5229.70 83.58 16.00 229.16 3173.43
   15:56:00.136.27-Aug-2021 4817.00 5229.69 83.58 16.00 229.36 3173.43
   15:56:00.336.27-Aug-2021 4817.00 5229.69 83.58 16.00 229.56 3173.43
   15:56:00.536.27-Aug-2021 4817.00 5229.69 83.58 16.00 229.77 3173.43
   15:56:00.737.27-Aug-2021 4817.00 5229.69 83.58 16.00 229.97 3173.43
   15:56:00.937.27-Aug-2021 4817.00 5229.69 83.58 16.00 230.17 3173.43
   15:56:01.137.27-Aug-2021 4817.00 5229.68 83.58 16.00 230.37 3173.43
   15:56:01.338.27-Aug-2021 4817.00 5229.68 83.58 16.00 230.57 3173.43
   15:56:01.538.27-Aug-2021 4817.00 5229.68 83.58 16.00 230.77 3173.43
   15:56:01.738.27-Aug-2021 4817.00 5229.91 83.58 16.00 230.97 3173.43
   15:56:01.938.27-Aug-2021 4817.00 5229.47 83.58 16.00 231.17 3173.43
   15:56:02.139.27-Aug-2021 4817.00 5229.71 83.58 16.00 231.37 3173.43
   15:56:02.339.27-Aug-2021 4817.00 5229.71 83.58 16.00 231.57 3173.43
   15:56:02.539.27-Aug-2021 4817.00 5229.69 83.58 16.00 231.77 3173.43
   15:56:02.740.27-Aug-2021 4817.00 5229.70 83.58 16.00 231.97 3173.43
   15:56:02.940.27-Aug-2021 4817.00 5229.69 83.58 16.00 232.17 3173.43
   15:56:03.140.27-Aug-2021 4817.00 5229.71 83.58 16.00 232.37 3173.43
   15:56:03.341.27-Aug-2021 4817.00 5229.71 83.58 16.00 232.57 3173.43
   15:56:03.541.27-Aug-2021 4817.00 5229.70 83.58 16.00 232.77 3173.43
   15:56:03.741.27-Aug-2021 4817.00 5229.70 83.58 16.00 232.97 3173.43
   15:56:03.942.27-Aug-2021 4817.00 5229.70 83.58 16.00 233.17 3173.43
   15:56:04.142.27-Aug-2021 4817.00 5229.69 83.58 16.00 233.37 3173.43
   15:56:04.342.27-Aug-2021 4817.00 5229.69 83.58 16.00 233.57 3173.43
   15:56:04.543.27-Aug-2021 4817.00 5229.70 83.58 16.00 233.77 3173.43
   15:56:04.743.27-Aug-2021 4817.00 5229.70 83.58 16.00 233.97 3173.43
   15:56:04.943.27-Aug-2021 4817.00 5229.68 83.58 16.00 234.17 3173.43
   15:56:05.144.27-Aug-2021 4817.00 5229.88 83.58 16.00 234.37 3173.43
   15:56:05.344.27-Aug-2021 4817.00 5229.88 83.58 16.00 234.57 3173.43
   15:56:05.544.27-Aug-2021 4817.00 5229.72 83.58 16.00 234.77 3173.43
   15:56:05.745.27-Aug-2021 4817.00 5229.71 83.58 16.00 234.97 3173.43
   15:56:05.945.27-Aug-2021 4817.00 5229.71 83.58 16.00 235.17 3173.43
   15:56:06.145.27-Aug-2021 4817.00 5229.93 83.58 16.00 235.37 3173.43
   15:56:06.345.27-Aug-2021 4817.00 5229.93 83.58 16.00 235.57 3173.43
   15:56:06.546.27-Aug-2021 4817.00 5229.73 83.58 16.00 235.77 3173.43
   15:56:06.746.27-Aug-2021 4817.00 5229.73 83.58 16.00 235.98 3173.43
   15:56:06.946.27-Aug-2021 4817.00 5229.70 83.58 16.00 236.18 3173.43
   15:56:07.147.27-Aug-2021 4817.00 5229.71 83.58 16.00 236.38 3173.43
   15:56:07.347.27-Aug-2021 4817.00 5229.71 83.58 16.00 236.58 3173.43
   15:56:07.547.27-Aug-2021 4817.00 5229.57 83.58 16.00 236.78 3173.43
   15:56:07.748.27-Aug-2021 4817.00 5229.69 83.58 16.00 236.98 3173.43
   15:56:07.948.27-Aug-2021 4817.00 5229.78 83.58 16.00 237.18 3173.43
   15:56:08.148.27-Aug-2021 4817.00 5229.69 83.58 16.00 237.38 3173.43
   15:56:08.349.27-Aug-2021 4817.00 5229.69 83.58 16.00 237.58 3173.43
   15:56:08.549.27-Aug-2021 4817.00 5229.84 83.58 16.00 237.78 3173.43
   15:56:08.749.27-Aug-2021 4817.00 5229.71 83.58 16.00 237.98 3173.43
   15:56:08.950.27-Aug-2021 4817.00 5229.74 83.58 16.00 238.18 3173.43
   15:56:09.150.27-Aug-2021 4817.00 5229.67 83.58 16.00 238.38 3173.43
   15:56:09.350.27-Aug-2021 4817.00 5229.67 83.58 16.00 238.58 3173.43
   15:56:09.551.27-Aug-2021 4817.00 5229.70 83.58 16.00 238.78 3173.43
   15:56:09.751.27-Aug-2021 4817.00 5229.73 83.58 16.00 238.98 3173.43
   15:56:09.951.27-Aug-2021 4817.00 5229.73 83.58 16.00 239.18 3173.43
   15:56:10.152.27-Aug-2021 4817.00 5229.72 83.58 16.00 239.38 3173.43
   15:56:10.352.27-Aug-2021 4817.00 5229.72 83.58 16.00 239.58 3173.43
   15:56:10.552.27-Aug-2021 4817.00 5229.72 83.58 16.00 239.78 3173.43
   15:56:10.752.27-Aug-2021 4817.00 5229.70 83.58 16.00 239.98 3173.43
   15:56:10.953.27-Aug-2021 4817.00 5229.71 83.58 16.00 240.18 3173.43
   15:56:11.153.27-Aug-2021 4817.00 5229.71 83.58 16.00 240.38 3173.43
   15:56:11.353.27-Aug-2021 4817.00 5229.71 83.58 16.00 240.58 3173.43
   15:56:11.554.27-Aug-2021 4817.00 5229.55 83.58 16.00 240.78 3173.43
   15:56:11.754.27-Aug-2021 4817.00 5229.69 83.58 16.00 240.98 3173.43
   15:56:11.954.27-Aug-2021 4817.00 5229.81 83.58 16.00 241.18 3173.43
   15:56:12.155.27-Aug-2021 4817.00 5229.72 83.58 16.00 241.38 3173.43
   15:56:12.355.27-Aug-2021 4817.00 5229.72 83.58 16.00 241.58 3173.43
   15:56:12.555.27-Aug-2021 4817.00 5229.72 83.58 16.00 241.78 3173.43
   15:56:12.756.27-Aug-2021 4817.00 5229.72 83.58 16.00 241.98 3173.43
   15:56:12.956.27-Aug-2021 4817.00 5229.74 83.58 16.00 242.18 3173.43
   15:56:13.156.27-Aug-2021 4817.00 5229.73 83.58 16.00 242.39 3173.43
   15:56:13.357.27-Aug-2021 4817.00 5229.73 83.58 16.00 242.59 3173.43
   15:56:13.557.27-Aug-2021 4817.00 5229.75 83.58 16.00 242.79 3173.43
   15:56:13.757.27-Aug-2021 4817.00 5229.72 83.58 16.00 242.99 3173.43
   15:56:13.958.27-Aug-2021 4817.00 5229.71 83.58 16.00 243.19 3173.43
   15:56:14.158.27-Aug-2021 4817.00 5229.72 83.58 16.00 243.39 3173.43
   15:56:14.358.27-Aug-2021 4817.00 5229.72 83.58 16.00 243.59 3173.43
   15:56:14.559.27-Aug-2021 4817.00 5229.72 83.58 16.00 243.79 3173.43
   15:56:14.759.27-Aug-2021 4817.00 5229.90 83.58 16.00 243.99 3173.43
   15:56:14.959.27-Aug-2021 4817.00 5229.55 83.58 16.00 244.19 3173.43
   15:56:15.159.27-Aug-2021 4817.00 5229.68 83.58 16.00 244.39 3173.43
   15:56:15.360.27-Aug-2021 4817.00 5229.68 83.58 16.00 244.59 3173.43
   15:56:15.560.27-Aug-2021 4817.00 5229.72 83.58 16.00 244.79 3173.43
   15:56:15.760.27-Aug-2021 4817.00 5229.89 83.57 16.00 244.99 3173.43
   15:56:15.961.27-Aug-2021 4817.00 5229.57 83.57 16.00 245.19 3173.43
   15:56:16.161.27-Aug-2021 4817.00 5229.71 83.57 16.00 245.39 3173.43
   15:56:16.361.27-Aug-2021 4817.00 5229.71 83.57 16.00 245.59 3173.43
   15:56:16.562.27-Aug-2021 4817.00 5229.71 83.57 16.00 245.79 3173.43
   15:56:16.762.27-Aug-2021 4817.00 5229.72 83.57 16.00 245.99 3173.43
   15:56:16.962.27-Aug-2021 4817.00 5229.70 83.57 16.00 246.19 3173.43
   15:56:17.163.27-Aug-2021 4817.00 5229.68 83.57 16.00 246.39 3173.43
   15:56:17.363.27-Aug-2021 4817.00 5229.68 83.57 16.00 246.59 3173.43
   15:56:17.563.27-Aug-2021 4817.00 5229.80 83.57 16.00 246.79 3173.43
   15:56:17.764.27-Aug-2021 4817.00 5229.70 83.57 16.00 246.99 3173.43
   15:56:17.964.27-Aug-2021 4817.00 5229.94 83.57 16.00 247.19 3173.43
   15:56:18.164.27-Aug-2021 4817.00 5229.54 83.57 16.00 247.39 3173.43
   15:56:18.365.27-Aug-2021 4817.00 5229.54 83.57 16.00 247.59 3173.43
   15:56:18.565.27-Aug-2021 4817.00 5229.73 83.57 16.00 247.79 3173.43
   15:56:18.765.27-Aug-2021 4817.00 5229.75 83.57 16.00 247.99 3173.43
   15:56:18.966.27-Aug-2021 4817.00 5229.73 83.57 16.00 248.19 3173.43
   15:56:19.166.27-Aug-2021 4817.00 5229.72 83.57 16.00 248.39 3173.43
   15:56:19.366.27-Aug-2021 4817.00 5229.72 83.57 16.00 248.60 3173.43
   15:56:19.566.27-Aug-2021 4817.00 5229.74 83.57 16.00 248.80 3173.43
