~Version Information
 VERS.                  2.0:   CWLS log ASCII Standard -VERSION 2.0
 WRAP.                   NO:   One line per depth step
~Well Information Block
#MNEM.UNIT     VALUE/NAME     DESCRIPTION
#---------     -----------    ---------------------------
 STRT.S             12:21:31 27-Aug-21: START TIME 12:21:31 27-Aug-21
 STOP.S             12:28:48 27-Aug-21: STOP TIME  12:28:48 27-Aug-21
 STEP.S                   0.00: STEP TIME
 NULL.                 -999.25: NULL VALUE
 DFWT.                        :  DIST FWL TEXT
 DFST.                        :  DIST FSL TEXT
 DMF .             Drill Floor:  DRILL MEAS FROM
 STIM.      20.00.00 17-Aug-21:  START TIME
 DATE.      19.00.00 29-Aug-21:  END TIME
 SPUD.               15-Aug-21:  SPUD DATE
 NREF.                    Grid:  NORTH REFERENCE
 HPTY.       Minimum Curvature:  HOLE POS TYPE
 DMOD.             Drill Model:  DRILL MOD DESC
 SVYD.                  Survey:  SURVEY DESC
 ILTD.               Lithology:  INTERP LTH DESC
 FTOP.          Formation Tops:  FORM TOPS DESC
 RIG .              East Azeri:  RIG NAME
 PDAT.          Mean Sea Level:  PERMANENT DATUM
 FLD .                     ACG:  FIELD NAME
 SON .        AZ-XX-0907180857:  JOB NUMBER
 CTRY.              Azerbaijan:  COUNTRY NAME
 WELL.                    D23x:  WELL NAME
 SRVC.     Turan Drilling and Engineering:  CONTRACTOR
 COMP.     BP Exploration (Caspian Sea) Ltd.:  COMPANY
 UWI .            /AZE00000214:  UNIQUE WELL IDENTIFIER
 API .            /AZE00000214:  API NUMBER
 MDS .        Operator Entered:  MAG DATA SOURCE
 BASE.              Azerbaijan:  LOGGING EQUIPMENT BASE LOCATION
 REGN.                   EESSA:  REGION
 PROV.                    Baku:  PROVINCE
 STAT.                    Baku:  STATE NAME
 MWDS.                    Baku:  MWD SHOP
 DOE .                     N/A:  DOE NUMBER
 DCON.         Sperry Drilling:  DIRECTNL CONTR
 UNIT.                     N/A:  LOGGING EQUIPMENT ID
 WTYP.                Deviated:  WELL TYPE
 CNTY.                        :  COUNTY
 LOC .                        :  LOCATION
 LMF .             Drill Floor:  LOG MEASURED FROM
 TVDS.m                  43.60:  TVDSS CORRECTN
 LATI.deg                40.02:  LATITUDE
 LONG.deg                51.45:  LONGITUDE
 WHNS.m                  -7.04:  WELL HEAD N/S
 WHEW.m                  -0.67:  WELL HEAD E/W
 UTMX.m              538762.90:  UTM X
 UTMY.m             4431871.34:  UTM Y
 DFWL.m                   0.00:  DISTANCE FWL
 DFSL.m                   0.00:  DISTANCE FSL
 SDEP.m                4127.00:  START DEPTH
 TDD .m                5084.50:  TOTAL DEPTH (DRILLER)
 VSDR.deg               140.47:  VERT SEC DIRECT
 GVFD.g                   1.00:  GRAVITY FIELD
 MFLD.nT              50362.00:  MAGNETIC FIELD
 MDIP.deg                59.48:  MAGNETIC DIP
 MDEC.deg                 6.47:  MAGNETIC DECL
 GRDC.deg                 0.31:  GRID CORRECTION
 AZTC.deg                 6.16:  AZM TOTAL CORR
 EPD .m                   0.00:  ELEVATION
 EGL .m                   0.00:  GROUND ELEVATION
 WDMS.m                 151.80:  WD ELEV
 APD .m                  43.60:  DEPTH ABOVE PD
 DEP .m                4092.57:  DEPTH
 AGAP.m                  43.60:  AIR GAP
 VSEW.m                  -0.67:  VERT SEC E/W
 VSNS.m                  -7.04:  VERT SEC N/S
 EKB .m                  43.60:  KB ELEVATION
 EDF .m                  43.60:  DF ELEVATION
 TDL .m                 957.50:  TOTAL DEPTH (LOGGER)
 VSC .                       0:  VS TO CLOSURE
 MAGU.                 1851413:  MAGUTM CHECKSUM
~Parameter Information Block
#MNEM.UNIT       Value        Description
#---------     -----------    ---------------------------
 AV  .mps                 1.50:  Ann Velocity 
 AVMX.mps                 2.00:  Max Ann Veloc 
 AZIF.deg               184.66:  Azm, Final 
 BHAT.        Rotary Steerable:  BHA Type 
 BREV.rev               300.00:  Rev Bit Total 
 BROT.°/30m              -0.50:  Build Rotating 
 BS  .in                  8.50:  Bit Size 
 BSZ .in                  8.50:  Bit Size 
 BTPL.psig              370.00:  Bit Press Loss 
 CABU.                      No:  Customer Abuse 
 CGEO.      Behruz Shahbaliyev:  Customer Geo 
 TCS .hr                140.08:  Time Ciculation Ended 
 CV  .mps                 3.00:  Crit Velocity 
 CVMX.mps                 3.20:  Max Crit Veloc 
 DD1 .            Musa Ahmadov:  Direct Drillr 1 
 DD2 .           Hamid Ahmadov:  Direct Drillr 2 
 DDSV.               Geo-Pilot:  DD Service 
 DEFF.%                  98.40:  % Det Eff 
 DLRX.°/30m               3.40:  Dogleg Rot Max 
 DLSO.°/30m               1.45:  Dogleg Oriented 
 DLSX.°/30m               3.40:  Dogleg Str Max 
 DRET.      18.40.00 29-Aug-21:  Drill End Time 
 DRST.      21.00.00 20-Aug-21:  Drill Start Tim 
 DTIM.hr                 69.47:  Time Drilling 
 EDEP.m                5084.50:  End Depth 
 ENG1.      Artemiy Matviyanov:  Engineer 1 
 ENG2.         Almaz Almadatov:  Engineer 2 
 ETIM.      18.40.00 29-Aug-21:  End Time 
 FLOI.gpm               500.00:  Flow In 
 FLON.gpm               400.00:  Flow In Min 
 FLOS.cptm                0.00:  Fluid Loss 
 FLOX.gpm               500.00:  Flow In Max 
 DFT .        Mineral Oil Base:  Mud Type 
 HFLO.                      No:  High Flow 
 HPRE.                      No:  High Pressure 
 HTEM.                      No:  High Temp 
 HYDO.m                   1.80:  Hydro Offset 
 IFIN.deg                25.62:  Inc, Final 
 IMAX.deg                48.69:  Inc Max 
 IMIN.deg                24.01:  Inc Min 
 IMND.m                4962.57:  Inc Min Depth 
 IMXD.m                4119.01:  Inc Max Depth 
 JARR.                      No:  Jarring 
 LETM.      18.40.00 29-Aug-21:  Log End Time 
 LOST.hr                     0:  Lost Rig Time 
 LSTM.      21.00.00 20-Aug-21:  Log Start Time 
 MDCL.ppm             41500.00:  Mud Chlorides 
 MDES.     Inversion Oil/Synthetic:  Mud Desc 
 DFD .sg                  1.56:  Mud Density 
 MDMN.sg                  1.56:  Dens Mud Min 
 MDMX.sg                  1.56:  Dens Mud Max 
 MOIL.                      70:  Run Mud Oil % 
 MOWR.                   70:30:  Run Mud OWR 
 MSND.                     0.2:  Run Mud Sand % 
 MSOL.                    23.3:  Run Mud Solids% 
 DFV .spqt               78.00:  Mud Viscosity 
 MWOD.in                  6.75:  MWD Tool OD 
 MWSI.                      No:  Serv Intrp, MWD 
 OTIM.hr                218.30:  Time Operating 
 PCON.           Look Like New:  Pad Condition 
 PMAX.psia            11015.30:  Press Op, Max 
 PV  .cP                 38.00:  Mud PV 
 RUN .                     300:  Run Number 
 ROPA.m/hr               15.00:  ROP Avg 
 ROPN.m/hr                9.00:  ROP Min 
 ROPX.m/hr               17.00:  ROP Max 
 RPMA.rpm               120.00:  RPM Surface Avg 
 RPMN.rpm                90.00:  RPM Surface Min 
 RPMX.rpm               140.00:  RPM Surface Max 
 RRUN.                     300:  Rig Run Number 
 RTIM.hr                 31.53:  Time Reaming 
 SAZI.deg               331.64:  Azm, Start 
 SDEP.m                4127.00:  Start Depth 
 SIDD.                      No:  Serv Intrp, DD 
 SINC.deg                48.43:  Inc, Start 
 SPPA.psig             5830.00:  SPP Avg 
 SPPN.psig             5600.00:  SPP Min 
 SPPX.psig             5900.00:  SPP Max 
 STIM.      21.00.00 20-Aug-21:  Start Time 
 SVCS.                 DD, MWD:  Services 
 SVER.                    9.20:  Sperry Version 
 TDAT.m                 957.50:  Tot Depth Attmp 
 TDDF.                      No:  Trip for DD 
 TDLG.m                 957.50:  Tot Depth Loggd 
 TFF .                      No:  Trip for Fail 
 TQAA.f-kp               15.00:  Torque Abs Avg 
 TQAN.f-kp               12.00:  Torque Abs Min 
 TQAX.f-kp               19.00:  Torque Abs Max 
 TRRT.°/30m              -3.40:  Turn Rotating 
 MRT .                  EWR-M5:  Maximum Recorded Temperature 
 TTMX.degC              100.00:  Max Tool Temp 
 VS01.                90639251:  Virtual Str1 SN 
 VS02.                90634715:  Virtual Str2 SN 
 VS03.                90652479:  Virtual Str3 SN 
 VS04.                90642262:  Virtual Str4 SN 
 WBMN.klb                 0.00:  WOB Min 
 WITN.           Murad Guliyev:  Customer Rep 
 WITN.          Yashar Gaziyev:  Customer Rep 2 
 WOBA.klb                 9.00:  WOB Avg 
 WOBX.klb                12.00:  WOB Max 
 YP  .lhf2               30.00:  Yield Point 
~Curve Information Block
#MNEM.UNIT                 API CODE     Curve Description
#---------               -----------    ---------------------------
 TIME.HHMMSS            00 000 000 000:  GT Time & Date
 GTDEPTH.m              00 000 000 000:  GT Depth
 GTPQH.psia             00 000 000 000:  GT HR Quartz Pressure
 GTTQ.degC              00 000 000 000:  GT Quartz Temperature
 GTTN.NONE              00 000 000 000:  GT Test Number
 GTET.sec               00 000 000 000:  GT Elapsed Test Time
 GTTVD.m                00 000 000 000:  GT True Vertical Depth
#Other Information
#
#WARRANTY: Halliburton will use its best efforts to furnish customers with 
#accurate information and interpretations that are part of, and incident to, the services 
#provided.  However, Halliburton cannot and does not warrant the accuracy 
#or correctness of such information and interpretations.  Under no circumstances should any 
#such information or interpretation be relied upon as the sole basis for any drilling, 
#completion, production, or financial decision or any procedure involving any risk to the 
#safety of any drilling venture, drilling rig or its crew or any other third party.  The 
#Customer has full responsibility for all drilling, completion and production operation.  
#Halliburton makes no representations or warranties, either expressed or 
#implied, including, but not limited to, the implied warranties of merchantability or fitness 
#for a particular purpose, with respect to the services rendered.  In no event will 
#Halliburton be liable for failure to obtain any particular results or for 
#any damages, including, but not limited to, indirect, special or consequential damages, 
#resulting from the use of any information or interpretation provided by Halliburton.
#
~A           TIME           GTDEPTH  GTPQH  GTTQ  GTTN   GTET   GTTVD  
# ...
   12:22:16.558.27-Aug-2021 4914.80 7790.66 85.38 12.00  45.22 3262.04
   12:22:16.758.27-Aug-2021 4914.80 7790.79 85.38 12.00  45.42 3262.04
   12:22:16.958.27-Aug-2021 4914.80 7791.38 85.38 12.00  45.62 3262.04
   12:22:17.158.27-Aug-2021 4914.80 7791.54 85.38 12.00  45.82 3262.04
   12:22:17.358.27-Aug-2021 4914.80 7797.73 85.38 12.00  46.02 3262.04
   12:22:17.558.27-Aug-2021 4914.80 7797.73 85.38 12.00  46.22 3262.04
   12:22:17.758.27-Aug-2021 4914.80 7792.92 85.38 12.00  46.42 3262.04
   12:22:17.958.27-Aug-2021 4914.80 7791.60 85.38 12.00  46.62 3262.04
   12:22:18.159.27-Aug-2021 4914.80 7791.98 85.38 12.00  46.82 3262.04
   12:22:18.359.27-Aug-2021 4914.80 7792.01 85.38 12.00  47.02 3262.04
   12:22:18.559.27-Aug-2021 4914.80 7792.01 85.38 12.00  47.22 3262.04
   12:22:18.759.27-Aug-2021 4914.80 7792.01 85.38 12.00  47.42 3262.04
   12:22:18.959.27-Aug-2021 4914.80 7792.52 85.38 12.00  47.62 3262.04
   12:22:19.159.27-Aug-2021 4914.80 7795.05 85.38 12.00  47.82 3262.04
   12:22:19.359.27-Aug-2021 4914.80 7792.26 85.38 12.00  48.02 3262.04
   12:22:19.559.27-Aug-2021 4914.80 7792.26 85.38 12.00  48.22 3262.04
   12:22:19.759.27-Aug-2021 4914.80 7793.12 85.38 12.00  48.42 3262.04
   12:22:19.959.27-Aug-2021 4914.80 7792.23 85.38 12.00  48.62 3262.04
   12:22:20.159.27-Aug-2021 4914.80 7792.42 85.38 12.00  48.82 3262.04
   12:22:20.359.27-Aug-2021 4914.80 7795.95 85.38 12.00  49.02 3262.04
   12:22:20.559.27-Aug-2021 4914.80 7795.95 85.38 12.00  49.22 3262.04
   12:22:20.759.27-Aug-2021 4914.80 7794.08 85.38 12.00  49.42 3262.04
   12:22:20.960.27-Aug-2021 4914.80 7793.53 85.38 12.00  49.62 3262.04
   12:22:21.160.27-Aug-2021 4914.80 7793.86 85.38 12.00  49.82 3262.04
   12:22:21.360.27-Aug-2021 4914.80 7793.73 85.38 12.00  50.02 3262.04
   12:22:21.560.27-Aug-2021 4914.80 7793.73 85.38 12.00  50.22 3262.04
   12:22:21.760.27-Aug-2021 4914.80 7793.22 85.38 12.00  50.42 3262.04
   12:22:21.960.27-Aug-2021 4914.80 7793.66 85.38 12.00  50.62 3262.04
   12:22:22.160.27-Aug-2021 4914.80 7793.94 85.38 12.00  50.82 3262.04
   12:22:22.360.27-Aug-2021 4914.80 7794.05 85.38 12.00  51.02 3262.04
   12:22:22.560.27-Aug-2021 4914.80 7794.05 85.38 12.00  51.22 3262.04
   12:22:22.760.27-Aug-2021 4914.80 7794.18 85.38 12.00  51.42 3262.04
   12:22:22.960.27-Aug-2021 4914.80 7794.02 85.38 12.00  51.62 3262.04
   12:22:23.160.27-Aug-2021 4914.80 7794.19 85.38 12.00  51.82 3262.04
   12:22:23.360.27-Aug-2021 4914.80 7793.88 85.38 12.00  52.02 3262.04
   12:22:23.560.27-Aug-2021 4914.80 7793.88 85.38 12.00  52.22 3262.04
   12:22:23.761.27-Aug-2021 4914.80 7793.78 85.38 12.00  52.42 3262.04
   12:22:23.961.27-Aug-2021 4914.80 7796.30 85.38 12.00  52.62 3262.04
   12:22:24.161.27-Aug-2021 4914.80 7795.32 85.38 12.00  52.82 3262.04
   12:22:24.361.27-Aug-2021 4914.80 7795.09 85.38 12.00  53.02 3262.04
   12:22:24.561.27-Aug-2021 4914.80 7795.09 85.38 12.00  53.22 3262.04
   12:22:24.761.27-Aug-2021 4914.80 7795.48 85.38 12.00  53.42 3262.04
   12:22:24.961.27-Aug-2021 4914.80 7795.42 85.38 12.00  53.62 3262.04
   12:22:25.161.27-Aug-2021 4914.80 7795.77 85.38 12.00  53.82 3262.04
   12:22:25.361.27-Aug-2021 4914.80 7795.87 85.38 12.00  54.02 3262.04
   12:22:25.561.27-Aug-2021 4914.80 7795.87 85.38 12.00  54.22 3262.04
   12:22:25.761.27-Aug-2021 4914.80 7796.34 85.38 12.00  54.42 3262.04
   12:22:25.961.27-Aug-2021 4914.80 7796.46 85.37 12.00  54.62 3262.04
   12:22:26.161.27-Aug-2021 4914.80 7796.25 85.38 12.00  54.82 3262.04
   12:22:26.361.27-Aug-2021 4914.80 7796.31 85.37 12.00  55.02 3262.04
   12:22:26.562.27-Aug-2021 4914.80 7796.31 85.37 12.00  55.22 3262.04
   12:22:26.762.27-Aug-2021 4914.80 7796.16 85.37 12.00  55.42 3262.04
   12:22:26.962.27-Aug-2021 4914.80 7800.15 85.37 12.00  55.62 3262.04
   12:22:27.162.27-Aug-2021 4914.80 7794.75 85.37 12.00  55.82 3262.04
   12:22:27.362.27-Aug-2021 4914.80 7797.22 85.37 12.00  56.02 3262.04
   12:22:27.562.27-Aug-2021 4914.80 7797.22 85.37 12.00  56.22 3262.04
   12:22:27.762.27-Aug-2021 4914.80 7795.96 85.37 12.00  56.42 3262.04
   12:22:27.962.27-Aug-2021 4914.80 7801.81 85.37 12.00  56.62 3262.04
   12:22:28.162.27-Aug-2021 4914.80 7793.02 85.37 12.00  56.82 3262.04
   12:22:28.362.27-Aug-2021 4914.80 7796.97 85.37 12.00  57.02 3262.04
   12:22:28.562.27-Aug-2021 4914.80 7796.97 85.37 12.00  57.22 3262.04
   12:22:28.762.27-Aug-2021 4914.80 7796.24 85.37 12.00  57.42 3262.04
   12:22:28.962.27-Aug-2021 4914.80 7796.57 85.37 12.00  57.62 3262.04
   12:22:29.162.27-Aug-2021 4914.80 7802.53 85.37 12.00  57.82 3262.04
   12:22:29.363.27-Aug-2021 4914.80 7794.04 85.37 12.00  58.02 3262.04
   12:22:29.563.27-Aug-2021 4914.80 7794.04 85.37 12.00  58.22 3262.04
   12:22:29.763.27-Aug-2021 4914.80 7794.78 85.37 12.00  58.42 3262.04
   12:22:29.963.27-Aug-2021 4914.80 7729.87 85.37 12.00  58.62 3262.04
   12:22:30.163.27-Aug-2021 4914.80 7389.44 85.37 12.00  58.82 3262.04
   12:22:30.363.27-Aug-2021 4914.80 7228.75 85.37 12.00  59.02 3262.04
   12:22:30.563.27-Aug-2021 4914.80 7228.75 85.37 12.00  59.22 3262.04
   12:22:30.763.27-Aug-2021 4914.80 7793.28 85.37 12.00  59.42 3262.04
   12:22:30.963.27-Aug-2021 4914.80 7793.23 85.37 12.00  59.62 3262.04
   12:22:31.163.27-Aug-2021 4914.80 7793.35 85.37 12.00  59.82 3262.04
   12:22:31.363.27-Aug-2021 4914.80 7793.76 85.37 12.00  60.02 3262.04
   12:22:31.563.27-Aug-2021 4914.80 7793.76 85.37 12.00  60.22 3262.04
   12:22:31.763.27-Aug-2021 4914.80 7794.47 85.37 12.00  60.42 3262.04
   12:22:31.963.27-Aug-2021 4914.80 7794.58 85.37 12.00  60.62 3262.04
   12:22:32.164.27-Aug-2021 4914.80 7794.79 85.37 12.00  60.82 3262.04
   12:22:32.364.27-Aug-2021 4914.80 7794.80 85.37 12.00  61.02 3262.04
   12:22:32.564.27-Aug-2021 4914.80 7794.80 85.37 12.00  61.22 3262.04
   12:22:32.764.27-Aug-2021 4914.80 7794.48 85.37 12.00  61.42 3262.04
   12:22:32.964.27-Aug-2021 4914.80 7794.17 85.37 12.00  61.62 3262.04
   12:22:33.164.27-Aug-2021 4914.80 7800.16 85.37 12.00  61.82 3262.04
   12:22:33.364.27-Aug-2021 4914.80 7789.02 85.37 12.00  62.02 3262.04
   12:22:33.564.27-Aug-2021 4914.80 7789.02 85.37 12.00  62.22 3262.04
   12:22:33.764.27-Aug-2021 4914.80 7642.21 85.37 12.00  62.42 3262.04
   12:22:33.964.27-Aug-2021 4914.80 7297.54 85.37 12.00  62.62 3262.04
   12:22:34.164.27-Aug-2021 4914.80 6749.01 85.37 12.00  62.82 3262.04
   12:22:34.364.27-Aug-2021 4914.80 6070.78 85.37 12.00  63.02 3262.04
   12:22:34.564.27-Aug-2021 4914.80 6070.78 85.37 12.00  63.22 3262.04
   12:22:34.764.27-Aug-2021 4914.80 7586.53 85.37 12.00  63.42 3262.04
   12:22:34.965.27-Aug-2021 4914.80 7756.53 85.37 12.00  63.62 3262.04
   12:22:35.165.27-Aug-2021 4914.80 7749.46 85.37 12.00  63.82 3262.04
   12:22:35.365.27-Aug-2021 4914.80 7786.22 85.37 12.00  64.02 3262.04
   12:22:35.565.27-Aug-2021 4914.80 7786.22 85.37 12.00  64.22 3262.04
   12:22:35.765.27-Aug-2021 4914.80 7794.73 85.37 12.00  64.42 3262.04
   12:22:35.965.27-Aug-2021 4914.80 7794.22 85.37 12.00  64.62 3262.04
   12:22:36.165.27-Aug-2021 4914.80 7793.17 85.37 12.00  64.82 3262.04
   12:22:36.365.27-Aug-2021 4914.80 7793.38 85.37 12.00  65.02 3262.04
   12:22:36.565.27-Aug-2021 4914.80 7793.38 85.37 12.00  65.22 3262.04
   12:22:36.765.27-Aug-2021 4914.80 7790.98 85.37 12.00  65.42 3262.04
   12:22:36.965.27-Aug-2021 4914.80 7795.32 85.37 12.00  65.62 3262.04
   12:22:37.165.27-Aug-2021 4914.80 7793.59 85.37 12.00  65.82 3262.04
   12:22:37.365.27-Aug-2021 4914.80 7792.78 85.37 12.00  66.02 3262.04
   12:22:37.565.27-Aug-2021 4914.80 7792.78 85.37 12.00  66.22 3262.04
   12:22:37.766.27-Aug-2021 4914.80 7794.93 85.37 12.00  66.42 3262.04
   12:22:37.966.27-Aug-2021 4914.80 7795.11 85.37 12.00  66.62 3262.04
   12:22:38.166.27-Aug-2021 4914.80 7794.56 85.37 12.00  66.82 3262.04
   12:22:38.366.27-Aug-2021 4914.80 7794.22 85.37 12.00  67.02 3262.04
   12:22:38.566.27-Aug-2021 4914.80 7794.22 85.37 12.00  67.22 3262.04
   12:22:38.766.27-Aug-2021 4914.80 7795.23 85.37 12.00  67.42 3262.04
   12:22:38.966.27-Aug-2021 4914.80 7797.47 85.37 12.00  67.62 3262.04
