~Version Information
 VERS.                  2.0:   CWLS log ASCII Standard -VERSION 2.0
 WRAP.                   NO:   One line per depth step
~Well Information Block
#MNEM.UNIT     VALUE/NAME     DESCRIPTION
#---------     -----------    ---------------------------
 STRT.S             11:29:40 27-Aug-21: START TIME 11:29:40 27-Aug-21
 STOP.S             11:36:51 27-Aug-21: STOP TIME  11:36:51 27-Aug-21
 STEP.S                   0.00: STEP TIME
 NULL.                 -999.25: NULL VALUE
 DFWT.                        :  DIST FWL TEXT
 DFST.                        :  DIST FSL TEXT
 DMF .             Drill Floor:  DRILL MEAS FROM
 STIM.      20.00.00 17-Aug-21:  START TIME
 DATE.      19.00.00 29-Aug-21:  END TIME
 SPUD.               15-Aug-21:  SPUD DATE
 NREF.                    Grid:  NORTH REFERENCE
 HPTY.       Minimum Curvature:  HOLE POS TYPE
 DMOD.             Drill Model:  DRILL MOD DESC
 SVYD.                  Survey:  SURVEY DESC
 ILTD.               Lithology:  INTERP LTH DESC
 FTOP.          Formation Tops:  FORM TOPS DESC
 RIG .              East Azeri:  RIG NAME
 PDAT.          Mean Sea Level:  PERMANENT DATUM
 FLD .                     ACG:  FIELD NAME
 SON .        AZ-XX-0907180857:  JOB NUMBER
 CTRY.              Azerbaijan:  COUNTRY NAME
 WELL.                    D23x:  WELL NAME
 SRVC.     Turan Drilling and Engineering:  CONTRACTOR
 COMP.     BP Exploration (Caspian Sea) Ltd.:  COMPANY
 UWI .            /AZE00000214:  UNIQUE WELL IDENTIFIER
 API .            /AZE00000214:  API NUMBER
 MDS .        Operator Entered:  MAG DATA SOURCE
 BASE.              Azerbaijan:  LOGGING EQUIPMENT BASE LOCATION
 REGN.                   EESSA:  REGION
 PROV.                    Baku:  PROVINCE
 STAT.                    Baku:  STATE NAME
 MWDS.                    Baku:  MWD SHOP
 DOE .                     N/A:  DOE NUMBER
 DCON.         Sperry Drilling:  DIRECTNL CONTR
 UNIT.                     N/A:  LOGGING EQUIPMENT ID
 WTYP.                Deviated:  WELL TYPE
 CNTY.                        :  COUNTY
 LOC .                        :  LOCATION
 LMF .             Drill Floor:  LOG MEASURED FROM
 TVDS.m                  43.60:  TVDSS CORRECTN
 LATI.deg                40.02:  LATITUDE
 LONG.deg                51.45:  LONGITUDE
 WHNS.m                  -7.04:  WELL HEAD N/S
 WHEW.m                  -0.67:  WELL HEAD E/W
 UTMX.m              538762.90:  UTM X
 UTMY.m             4431871.34:  UTM Y
 DFWL.m                   0.00:  DISTANCE FWL
 DFSL.m                   0.00:  DISTANCE FSL
 SDEP.m                4127.00:  START DEPTH
 TDD .m                5084.50:  TOTAL DEPTH (DRILLER)
 VSDR.deg               140.47:  VERT SEC DIRECT
 GVFD.g                   1.00:  GRAVITY FIELD
 MFLD.nT              50362.00:  MAGNETIC FIELD
 MDIP.deg                59.48:  MAGNETIC DIP
 MDEC.deg                 6.47:  MAGNETIC DECL
 GRDC.deg                 0.31:  GRID CORRECTION
 AZTC.deg                 6.16:  AZM TOTAL CORR
 EPD .m                   0.00:  ELEVATION
 EGL .m                   0.00:  GROUND ELEVATION
 WDMS.m                 151.80:  WD ELEV
 APD .m                  43.60:  DEPTH ABOVE PD
 DEP .m                4092.57:  DEPTH
 AGAP.m                  43.60:  AIR GAP
 VSEW.m                  -0.67:  VERT SEC E/W
 VSNS.m                  -7.04:  VERT SEC N/S
 EKB .m                  43.60:  KB ELEVATION
 EDF .m                  43.60:  DF ELEVATION
 TDL .m                 957.50:  TOTAL DEPTH (LOGGER)
 VSC .                       0:  VS TO CLOSURE
 MAGU.                 1851413:  MAGUTM CHECKSUM
~Parameter Information Block
#MNEM.UNIT       Value        Description
#---------     -----------    ---------------------------
 AV  .mps                 1.50:  Ann Velocity 
 AVMX.mps                 2.00:  Max Ann Veloc 
 AZIF.deg               184.66:  Azm, Final 
 BHAT.        Rotary Steerable:  BHA Type 
 BREV.rev               300.00:  Rev Bit Total 
 BROT.°/30m              -0.50:  Build Rotating 
 BS  .in                  8.50:  Bit Size 
 BSZ .in                  8.50:  Bit Size 
 BTPL.psig              370.00:  Bit Press Loss 
 CABU.                      No:  Customer Abuse 
 CGEO.      Behruz Shahbaliyev:  Customer Geo 
 COMM.                     ,A[:  Run Comments 1 
 TCS .hr                140.08:  Time Ciculation Ended 
 CV  .mps                 3.00:  Crit Velocity 
 CVMX.mps                 3.20:  Max Crit Veloc 
 DD1 .            Musa Ahmadov:  Direct Drillr 1 
 DD2 .           Hamid Ahmadov:  Direct Drillr 2 
 DDSV.               Geo-Pilot:  DD Service 
 DEFF.%                  98.40:  % Det Eff 
 DLRX.°/30m               3.40:  Dogleg Rot Max 
 DLSO.°/30m               1.45:  Dogleg Oriented 
 DLSX.°/30m               3.40:  Dogleg Str Max 
 DRET.      18.40.00 29-Aug-21:  Drill End Time 
 DRST.      21.00.00 20-Aug-21:  Drill Start Tim 
 DTIM.hr                 69.47:  Time Drilling 
 EDEP.m                5084.50:  End Depth 
 ENG1.      Artemiy Matviyanov:  Engineer 1 
 ENG2.         Almaz Almadatov:  Engineer 2 
 ETIM.      18.40.00 29-Aug-21:  End Time 
 FLOI.gpm               500.00:  Flow In 
 FLON.gpm               400.00:  Flow In Min 
 FLOS.cptm                0.00:  Fluid Loss 
 FLOX.gpm               500.00:  Flow In Max 
 DFT .        Mineral Oil Base:  Mud Type 
 HFLO.                      No:  High Flow 
 HPRE.                      No:  High Pressure 
 HTEM.                      No:  High Temp 
 HYDO.m                   1.80:  Hydro Offset 
 IFIN.deg                25.62:  Inc, Final 
 IMAX.deg                48.69:  Inc Max 
 IMIN.deg                24.01:  Inc Min 
 IMND.m                4962.57:  Inc Min Depth 
 IMXD.m                4119.01:  Inc Max Depth 
 JARR.                      No:  Jarring 
 LETM.      18.40.00 29-Aug-21:  Log End Time 
 LOST.hr                     0:  Lost Rig Time 
 LSTM.      21.00.00 20-Aug-21:  Log Start Time 
 MDCL.ppm             41500.00:  Mud Chlorides 
 MDES.     Inversion Oil/Synthetic:  Mud Desc 
 DFD .sg                  1.56:  Mud Density 
 MDMN.sg                  1.56:  Dens Mud Min 
 MDMX.sg                  1.56:  Dens Mud Max 
 MOIL.                      70:  Run Mud Oil % 
 MOWR.                   70:30:  Run Mud OWR 
 MSND.                     0.2:  Run Mud Sand % 
 MSOL.                    23.3:  Run Mud Solids% 
 DFV .spqt               78.00:  Mud Viscosity 
 MWOD.in                  6.75:  MWD Tool OD 
 MWSI.                      No:  Serv Intrp, MWD 
 OTIM.hr                218.30:  Time Operating 
 PCON.           Look Like New:  Pad Condition 
 PMAX.psia            11015.30:  Press Op, Max 
 PV  .cP                 38.00:  Mud PV 
 RUN .                     300:  Run Number 
 ROPA.m/hr               15.00:  ROP Avg 
 ROPN.m/hr                9.00:  ROP Min 
 ROPX.m/hr               17.00:  ROP Max 
 RPMA.rpm               120.00:  RPM Surface Avg 
 RPMN.rpm                90.00:  RPM Surface Min 
 RPMX.rpm               140.00:  RPM Surface Max 
 RRUN.                     300:  Rig Run Number 
 RTIM.hr                 31.53:  Time Reaming 
 SAZI.deg               331.64:  Azm, Start 
 SDEP.m                4127.00:  Start Depth 
 SIDD.                      No:  Serv Intrp, DD 
 SINC.deg                48.43:  Inc, Start 
 SPPA.psig             5830.00:  SPP Avg 
 SPPN.psig             5600.00:  SPP Min 
 SPPX.psig             5900.00:  SPP Max 
 STIM.      21.00.00 20-Aug-21:  Start Time 
 SVCS.                 DD, MWD:  Services 
 SVER.                    9.20:  Sperry Version 
 TDAT.m                 957.50:  Tot Depth Attmp 
 TDDF.                      No:  Trip for DD 
 TDLG.m                 957.50:  Tot Depth Loggd 
 TFF .                      No:  Trip for Fail 
 TQAA.f-kp               15.00:  Torque Abs Avg 
 TQAN.f-kp               12.00:  Torque Abs Min 
 TQAX.f-kp               19.00:  Torque Abs Max 
 TRRT.°/30m              -3.40:  Turn Rotating 
 MRT .                  EWR-M5:  Maximum Recorded Temperature 
 TTMX.degC              100.00:  Max Tool Temp 
 VS01.                90639251:  Virtual Str1 SN 
 VS02.                90634715:  Virtual Str2 SN 
 VS03.                90652479:  Virtual Str3 SN 
 VS04.                90642262:  Virtual Str4 SN 
 WBMN.klb                 0.00:  WOB Min 
 WITN.           Murad Guliyev:  Customer Rep 
 WITN.          Yashar Gaziyev:  Customer Rep 2 
 WOBA.klb                 9.00:  WOB Avg 
 WOBX.klb                12.00:  WOB Max 
 YP  .lhf2               30.00:  Yield Point 
~Curve Information Block
#MNEM.UNIT                 API CODE     Curve Description
#---------               -----------    ---------------------------
 TIME.HHMMSS            00 000 000 000:  GT Time & Date
 GTDEPTH.m              00 000 000 000:  GT Depth
 GTPQH.psia             00 000 000 000:  GT HR Quartz Pressure
 GTTQ.degC              00 000 000 000:  GT Quartz Temperature
 GTTN.NONE              00 000 000 000:  GT Test Number
 GTET.sec               00 000 000 000:  GT Elapsed Test Time
 GTTVD.m                00 000 000 000:  GT True Vertical Depth
#Other Information
#
#WARRANTY: Halliburton will use its best efforts to furnish customers with 
#accurate information and interpretations that are part of, and incident to, the services 
#provided.  However, Halliburton cannot and does not warrant the accuracy 
#or correctness of such information and interpretations.  Under no circumstances should any 
#such information or interpretation be relied upon as the sole basis for any drilling, 
#completion, production, or financial decision or any procedure involving any risk to the 
#safety of any drilling venture, drilling rig or its crew or any other third party.  The 
#Customer has full responsibility for all drilling, completion and production operation.  
#Halliburton makes no representations or warranties, either expressed or 
#implied, including, but not limited to, the implied warranties of merchantability or fitness 
#for a particular purpose, with respect to the services rendered.  In no event will 
#Halliburton be liable for failure to obtain any particular results or for 
#any damages, including, but not limited to, indirect, special or consequential damages, 
#resulting from the use of any information or interpretation provided by Halliburton.
#
~A           TIME           GTDEPTH  GTPQH  GTTQ  GTTN   GTET   GTTVD  
# ...
   11:31:10.670.27-Aug-2021 4925.00 4811.76 85.55 10.00  90.43 3271.33
   11:31:10.870.27-Aug-2021 4925.00 4811.59 85.55 10.00  90.63 3271.33
   11:31:11.070.27-Aug-2021 4925.00 4811.65 85.55 10.00  90.83 3271.33
   11:31:11.270.27-Aug-2021 4925.00 4811.60 85.55 10.00  91.03 3271.33
   11:31:11.470.27-Aug-2021 4925.00 4811.60 85.55 10.00  91.23 3271.33
   11:31:11.670.27-Aug-2021 4925.00 4811.69 85.55 10.00  91.43 3271.33
   11:31:11.870.27-Aug-2021 4925.00 4811.64 85.55 10.00  91.63 3271.33
   11:31:12.070.27-Aug-2021 4925.00 4811.71 85.55 10.00  91.83 3271.33
   11:31:12.270.27-Aug-2021 4925.00 4811.58 85.55 10.00  92.03 3271.33
   11:31:12.470.27-Aug-2021 4925.00 4811.58 85.55 10.00  92.23 3271.33
   11:31:12.671.27-Aug-2021 4925.00 4811.65 85.55 10.00  92.43 3271.33
   11:31:12.871.27-Aug-2021 4925.00 4811.69 85.55 10.00  92.63 3271.33
   11:31:13.071.27-Aug-2021 4925.00 4811.56 85.55 10.00  92.83 3271.33
   11:31:13.271.27-Aug-2021 4925.00 4811.67 85.55 10.00  93.03 3271.33
   11:31:13.471.27-Aug-2021 4925.00 4811.67 85.55 10.00  93.23 3271.33
   11:31:13.671.27-Aug-2021 4925.00 4811.61 85.55 10.00  93.43 3271.33
   11:31:13.871.27-Aug-2021 4925.00 4811.67 85.55 10.00  93.63 3271.33
   11:31:14.071.27-Aug-2021 4925.00 4811.71 85.55 10.00  93.83 3271.33
   11:31:14.271.27-Aug-2021 4925.00 4811.74 85.55 10.00  94.03 3271.33
   11:31:14.471.27-Aug-2021 4925.00 4811.74 85.55 10.00  94.23 3271.33
   11:31:14.671.27-Aug-2021 4925.00 4811.81 85.55 10.00  94.43 3271.33
   11:31:14.871.27-Aug-2021 4925.00 4811.84 85.55 10.00  94.63 3271.33
   11:31:15.071.27-Aug-2021 4925.00 4811.85 85.55 10.00  94.83 3271.33
   11:31:15.271.27-Aug-2021 4925.00 4811.88 85.55 10.00  95.03 3271.33
   11:31:15.472.27-Aug-2021 4925.00 4811.88 85.55 10.00  95.23 3271.33
   11:31:15.672.27-Aug-2021 4925.00 4811.91 85.55 10.00  95.43 3271.33
   11:31:15.872.27-Aug-2021 4925.00 4811.92 85.55 10.00  95.63 3271.33
   11:31:16.072.27-Aug-2021 4925.00 4811.83 85.55 10.00  95.83 3271.33
   11:31:16.272.27-Aug-2021 4925.00 4811.78 85.55 10.00  96.03 3271.33
   11:31:16.472.27-Aug-2021 4925.00 4811.78 85.55 10.00  96.23 3271.33
   11:31:16.672.27-Aug-2021 4925.00 4811.64 85.55 10.00  96.43 3271.33
   11:31:16.872.27-Aug-2021 4925.00 4811.68 85.55 10.00  96.63 3271.33
   11:31:17.072.27-Aug-2021 4925.00 4811.73 85.55 10.00  96.83 3271.33
   11:31:17.272.27-Aug-2021 4925.00 4811.76 85.55 10.00  97.03 3271.33
   11:31:17.472.27-Aug-2021 4925.00 4811.76 85.55 10.00  97.23 3271.33
   11:31:17.672.27-Aug-2021 4925.00 4811.82 85.55 10.00  97.43 3271.33
   11:31:17.872.27-Aug-2021 4925.00 4811.84 85.55 10.00  97.63 3271.33
   11:31:18.072.27-Aug-2021 4925.00 4811.96 85.55 10.00  97.83 3271.33
   11:31:18.273.27-Aug-2021 4925.00 4811.91 85.55 10.00  98.03 3271.33
   11:31:18.473.27-Aug-2021 4925.00 4811.91 85.55 10.00  98.23 3271.33
   11:31:18.673.27-Aug-2021 4925.00 4811.93 85.55 10.00  98.43 3271.33
   11:31:18.873.27-Aug-2021 4925.00 4811.93 85.55 10.00  98.64 3271.33
   11:31:19.073.27-Aug-2021 4925.00 4811.95 85.55 10.00  98.84 3271.33
   11:31:19.273.27-Aug-2021 4925.00 4811.97 85.55 10.00  99.04 3271.33
   11:31:19.473.27-Aug-2021 4925.00 4811.97 85.55 10.00  99.24 3271.33
   11:31:19.673.27-Aug-2021 4925.00 4811.65 85.55 10.00  99.44 3271.33
   11:31:19.873.27-Aug-2021 4925.00 4811.66 85.55 10.00  99.64 3271.33
   11:31:20.073.27-Aug-2021 4925.00 4811.68 85.55 10.00  99.84 3271.33
   11:31:20.273.27-Aug-2021 4925.00 4811.71 85.55 10.00 100.04 3271.33
   11:31:20.473.27-Aug-2021 4925.00 4811.71 85.55 10.00 100.24 3271.33
   11:31:20.673.27-Aug-2021 4925.00 4811.73 85.55 10.00 100.44 3271.33
   11:31:20.873.27-Aug-2021 4925.00 4811.73 85.55 10.00 100.64 3271.33
   11:31:21.074.27-Aug-2021 4925.00 4811.63 85.55 10.00 100.84 3271.33
   11:31:21.274.27-Aug-2021 4925.00 4811.66 85.55 10.00 101.04 3271.33
   11:31:21.474.27-Aug-2021 4925.00 4811.66 85.55 10.00 101.24 3271.33
   11:31:21.674.27-Aug-2021 4925.00 4811.72 85.55 10.00 101.44 3271.33
   11:31:21.874.27-Aug-2021 4925.00 4811.72 85.55 10.00 101.64 3271.33
   11:31:22.074.27-Aug-2021 4925.00 4811.67 85.55 10.00 101.84 3271.33
   11:31:22.274.27-Aug-2021 4925.00 4811.67 85.55 10.00 102.04 3271.33
   11:31:22.474.27-Aug-2021 4925.00 4811.67 85.55 10.00 102.24 3271.33
   11:31:22.674.27-Aug-2021 4925.00 4811.70 85.55 10.00 102.44 3271.33
   11:31:22.874.27-Aug-2021 4925.00 4811.70 85.55 10.00 102.64 3271.33
   11:31:23.074.27-Aug-2021 4925.00 4811.72 85.55 10.00 102.84 3271.33
   11:31:23.274.27-Aug-2021 4925.00 4811.60 85.55 10.00 103.04 3271.33
   11:31:23.474.27-Aug-2021 4925.00 4811.60 85.55 10.00 103.24 3271.33
   11:31:23.674.27-Aug-2021 4925.00 4811.68 85.55 10.00 103.44 3271.33
   11:31:23.875.27-Aug-2021 4925.00 4811.70 85.55 10.00 103.64 3271.33
   11:31:24.075.27-Aug-2021 4925.00 4811.74 85.55 10.00 103.84 3271.33
   11:31:24.275.27-Aug-2021 4925.00 4811.75 85.55 10.00 104.04 3271.33
   11:31:24.475.27-Aug-2021 4925.00 4811.75 85.55 10.00 104.24 3271.33
   11:31:24.675.27-Aug-2021 4925.00 4811.79 85.55 10.00 104.44 3271.33
   11:31:24.875.27-Aug-2021 4925.00 4811.83 85.55 10.00 104.64 3271.33
   11:31:25.075.27-Aug-2021 4925.00 4811.85 85.55 10.00 104.84 3271.33
   11:31:25.275.27-Aug-2021 4925.00 4811.86 85.55 10.00 105.04 3271.33
   11:31:25.475.27-Aug-2021 4925.00 4811.86 85.55 10.00 105.24 3271.33
   11:31:25.675.27-Aug-2021 4925.00 4811.88 85.55 10.00 105.44 3271.33
   11:31:25.875.27-Aug-2021 4925.00 4811.89 85.55 10.00 105.64 3271.33
   11:31:26.075.27-Aug-2021 4925.00 4811.82 85.55 10.00 105.84 3271.33
   11:31:26.275.27-Aug-2021 4925.00 4811.71 85.55 10.00 106.04 3271.33
   11:31:26.475.27-Aug-2021 4925.00 4811.71 85.55 10.00 106.24 3271.33
   11:31:26.676.27-Aug-2021 4925.00 4811.70 85.55 10.00 106.44 3271.33
   11:31:26.876.27-Aug-2021 4925.00 4811.73 85.55 10.00 106.64 3271.33
   11:31:27.076.27-Aug-2021 4925.00 4811.75 85.55 10.00 106.84 3271.33
   11:31:27.276.27-Aug-2021 4925.00 4811.77 85.55 10.00 107.04 3271.33
   11:31:27.476.27-Aug-2021 4925.00 4811.77 85.55 10.00 107.24 3271.33
   11:31:27.676.27-Aug-2021 4925.00 4811.82 85.55 10.00 107.44 3271.33
   11:31:27.876.27-Aug-2021 4925.00 4811.84 85.55 10.00 107.64 3271.33
   11:31:28.076.27-Aug-2021 4925.00 4811.86 85.55 10.00 107.84 3271.33
   11:31:28.276.27-Aug-2021 4925.00 4811.87 85.55 10.00 108.04 3271.33
   11:31:28.476.27-Aug-2021 4925.00 4811.87 85.55 10.00 108.24 3271.33
   11:31:28.676.27-Aug-2021 4925.00 4811.90 85.55 10.00 108.44 3271.33
   11:31:28.876.27-Aug-2021 4925.00 4811.91 85.55 10.00 108.64 3271.33
   11:31:29.076.27-Aug-2021 4925.00 4811.93 85.55 10.00 108.84 3271.33
   11:31:29.276.27-Aug-2021 4925.00 4811.84 85.55 10.00 109.04 3271.33
   11:31:29.477.27-Aug-2021 4925.00 4811.84 85.55 10.00 109.24 3271.33
   11:31:29.677.27-Aug-2021 4925.00 4811.69 85.55 10.00 109.44 3271.33
   11:31:29.877.27-Aug-2021 4925.00 4811.66 85.55 10.00 109.64 3271.33
   11:31:30.077.27-Aug-2021 4925.00 4811.70 85.55 10.00 109.84 3271.33
   11:31:30.277.27-Aug-2021 4925.00 4811.73 85.55 10.00 110.04 3271.33
   11:31:30.477.27-Aug-2021 4925.00 4811.73 85.55 10.00 110.24 3271.33
   11:31:30.677.27-Aug-2021 4925.00 4811.67 85.55 10.00 110.44 3271.33
   11:31:30.877.27-Aug-2021 4925.00 4811.75 85.55 10.00 110.64 3271.33
   11:31:31.077.27-Aug-2021 4925.00 4811.67 85.55 10.00 110.84 3271.33
   11:31:31.277.27-Aug-2021 4925.00 4811.69 85.55 10.00 111.04 3271.33
   11:31:31.477.27-Aug-2021 4925.00 4811.69 85.55 10.00 111.24 3271.33
   11:31:31.677.27-Aug-2021 4925.00 4811.66 85.55 10.00 111.44 3271.33
   11:31:31.877.27-Aug-2021 4925.00 4811.80 85.55 10.00 111.64 3271.33
   11:31:32.077.27-Aug-2021 4925.00 4811.65 85.55 10.00 111.84 3271.33
   11:31:32.278.27-Aug-2021 4925.00 4811.64 85.55 10.00 112.04 3271.33
   11:31:32.478.27-Aug-2021 4925.00 4811.64 85.55 10.00 112.24 3271.33
   11:31:32.678.27-Aug-2021 4925.00 4811.71 85.55 10.00 112.44 3271.33
   11:31:32.878.27-Aug-2021 4925.00 4811.62 85.55 10.00 112.64 3271.33
   11:31:33.078.27-Aug-2021 4925.00 4811.75 85.55 10.00 112.84 3271.33
