~Version Information
 VERS.                  2.0:   CWLS log ASCII Standard -VERSION 2.0
 WRAP.                   NO:   One line per depth step
~Well Information Block
#MNEM.UNIT     VALUE/NAME     DESCRIPTION
#---------     -----------    ---------------------------
 STRT.S             08:51:30 27-Aug-21: START TIME 08:51:30 27-Aug-21
 STOP.S             08:58:20 27-Aug-21: STOP TIME  08:58:20 27-Aug-21
 STEP.S                   0.00: STEP TIME
 NULL.                 -999.25: NULL VALUE
 DFWT.                        :  DIST FWL TEXT
 DFST.                        :  DIST FSL TEXT
 DMF .             Drill Floor:  DRILL MEAS FROM
 STIM.      20.00.00 17-Aug-21:  START TIME
 DATE.      19.00.00 29-Aug-21:  END TIME
 SPUD.               15-Aug-21:  SPUD DATE
 NREF.                    Grid:  NORTH REFERENCE
 HPTY.       Minimum Curvature:  HOLE POS TYPE
 DMOD.             Drill Model:  DRILL MOD DESC
 SVYD.                  Survey:  SURVEY DESC
 ILTD.               Lithology:  INTERP LTH DESC
 FTOP.          Formation Tops:  FORM TOPS DESC
 RIG .              East Azeri:  RIG NAME
 PDAT.          Mean Sea Level:  PERMANENT DATUM
 FLD .                     ACG:  FIELD NAME
 SON .        AZ-XX-0907180857:  JOB NUMBER
 CTRY.              Azerbaijan:  COUNTRY NAME
 WELL.                    D23x:  WELL NAME
 SRVC.     Turan Drilling and Engineering:  CONTRACTOR
 COMP.     BP Exploration (Caspian Sea) Ltd.:  COMPANY
 UWI .            /AZE00000214:  UNIQUE WELL IDENTIFIER
 API .            /AZE00000214:  API NUMBER
 MDS .        Operator Entered:  MAG DATA SOURCE
 BASE.              Azerbaijan:  LOGGING EQUIPMENT BASE LOCATION
 REGN.                   EESSA:  REGION
 PROV.                    Baku:  PROVINCE
 STAT.                    Baku:  STATE NAME
 MWDS.                    Baku:  MWD SHOP
 DOE .                     N/A:  DOE NUMBER
 DCON.         Sperry Drilling:  DIRECTNL CONTR
 UNIT.                     N/A:  LOGGING EQUIPMENT ID
 WTYP.                Deviated:  WELL TYPE
 CNTY.                        :  COUNTY
 LOC .                        :  LOCATION
 LMF .             Drill Floor:  LOG MEASURED FROM
 TVDS.m                  43.60:  TVDSS CORRECTN
 LATI.deg                40.02:  LATITUDE
 LONG.deg                51.45:  LONGITUDE
 WHNS.m                  -7.04:  WELL HEAD N/S
 WHEW.m                  -0.67:  WELL HEAD E/W
 UTMX.m              538762.90:  UTM X
 UTMY.m             4431871.34:  UTM Y
 DFWL.m                   0.00:  DISTANCE FWL
 DFSL.m                   0.00:  DISTANCE FSL
 SDEP.m                4127.00:  START DEPTH
 TDD .m                5084.50:  TOTAL DEPTH (DRILLER)
 VSDR.deg               140.47:  VERT SEC DIRECT
 GVFD.g                   1.00:  GRAVITY FIELD
 MFLD.nT              50362.00:  MAGNETIC FIELD
 MDIP.deg                59.48:  MAGNETIC DIP
 MDEC.deg                 6.47:  MAGNETIC DECL
 GRDC.deg                 0.31:  GRID CORRECTION
 AZTC.deg                 6.16:  AZM TOTAL CORR
 EPD .m                   0.00:  ELEVATION
 EGL .m                   0.00:  GROUND ELEVATION
 WDMS.m                 151.80:  WD ELEV
 APD .m                  43.60:  DEPTH ABOVE PD
 DEP .m                4092.57:  DEPTH
 AGAP.m                  43.60:  AIR GAP
 VSEW.m                  -0.67:  VERT SEC E/W
 VSNS.m                  -7.04:  VERT SEC N/S
 EKB .m                  43.60:  KB ELEVATION
 EDF .m                  43.60:  DF ELEVATION
 TDL .m                 957.50:  TOTAL DEPTH (LOGGER)
 VSC .                       0:  VS TO CLOSURE
 MAGU.                 1851413:  MAGUTM CHECKSUM
~Parameter Information Block
#MNEM.UNIT       Value        Description
#---------     -----------    ---------------------------
 AV  .mps                 1.50:  Ann Velocity 
 AVMX.mps                 2.00:  Max Ann Veloc 
 AZIF.deg               184.66:  Azm, Final 
 BHAT.        Rotary Steerable:  BHA Type 
 BREV.rev               300.00:  Rev Bit Total 
 BROT.°/30m              -0.50:  Build Rotating 
 BS  .in                  8.50:  Bit Size 
 BSZ .in                  8.50:  Bit Size 
 BTPL.psig              370.00:  Bit Press Loss 
 CABU.                      No:  Customer Abuse 
 CGEO.      Behruz Shahbaliyev:  Customer Geo 
 COMM.                     <w:  Run Comments 1 
 TCS .hr                140.08:  Time Ciculation Ended 
 CV  .mps                 3.00:  Crit Velocity 
 CVMX.mps                 3.20:  Max Crit Veloc 
 DD1 .            Musa Ahmadov:  Direct Drillr 1 
 DD2 .           Hamid Ahmadov:  Direct Drillr 2 
 DDSV.               Geo-Pilot:  DD Service 
 DEFF.%                  98.40:  % Det Eff 
 DLRX.°/30m               3.40:  Dogleg Rot Max 
 DLSO.°/30m               1.45:  Dogleg Oriented 
 DLSX.°/30m               3.40:  Dogleg Str Max 
 DRET.      18.40.00 29-Aug-21:  Drill End Time 
 DRST.      21.00.00 20-Aug-21:  Drill Start Tim 
 DTIM.hr                 69.47:  Time Drilling 
 EDEP.m                5084.50:  End Depth 
 ENG1.      Artemiy Matviyanov:  Engineer 1 
 ENG2.         Almaz Almadatov:  Engineer 2 
 ETIM.      18.40.00 29-Aug-21:  End Time 
 FLOI.gpm               500.00:  Flow In 
 FLON.gpm               400.00:  Flow In Min 
 FLOS.cptm                0.00:  Fluid Loss 
 FLOX.gpm               500.00:  Flow In Max 
 DFT .        Mineral Oil Base:  Mud Type 
 HFLO.                      No:  High Flow 
 HPRE.                      No:  High Pressure 
 HTEM.                      No:  High Temp 
 HYDO.m                   1.80:  Hydro Offset 
 IFIN.deg                25.62:  Inc, Final 
 IMAX.deg                48.69:  Inc Max 
 IMIN.deg                24.01:  Inc Min 
 IMND.m                4962.57:  Inc Min Depth 
 IMXD.m                4119.01:  Inc Max Depth 
 JARR.                      No:  Jarring 
 LETM.      18.40.00 29-Aug-21:  Log End Time 
 LOST.hr                     0:  Lost Rig Time 
 LSTM.      21.00.00 20-Aug-21:  Log Start Time 
 MDCL.ppm             41500.00:  Mud Chlorides 
 MDES.     Inversion Oil/Synthetic:  Mud Desc 
 DFD .sg                  1.56:  Mud Density 
 MDMN.sg                  1.56:  Dens Mud Min 
 MDMX.sg                  1.56:  Dens Mud Max 
 MOIL.                      70:  Run Mud Oil % 
 MOWR.                   70:30:  Run Mud OWR 
 MSND.                     0.2:  Run Mud Sand % 
 MSOL.                    23.3:  Run Mud Solids% 
 DFV .spqt               78.00:  Mud Viscosity 
 MWOD.in                  6.75:  MWD Tool OD 
 MWSI.                      No:  Serv Intrp, MWD 
 OTIM.hr                218.30:  Time Operating 
 PCON.           Look Like New:  Pad Condition 
 PMAX.psia            11015.30:  Press Op, Max 
 PV  .cP                 38.00:  Mud PV 
 RUN .                     300:  Run Number 
 ROPA.m/hr               15.00:  ROP Avg 
 ROPN.m/hr                9.00:  ROP Min 
 ROPX.m/hr               17.00:  ROP Max 
 RPMA.rpm               120.00:  RPM Surface Avg 
 RPMN.rpm                90.00:  RPM Surface Min 
 RPMX.rpm               140.00:  RPM Surface Max 
 RRUN.                     300:  Rig Run Number 
 RTIM.hr                 31.53:  Time Reaming 
 SAZI.deg               331.64:  Azm, Start 
 SDEP.m                4127.00:  Start Depth 
 SIDD.                      No:  Serv Intrp, DD 
 SINC.deg                48.43:  Inc, Start 
 SPPA.psig             5830.00:  SPP Avg 
 SPPN.psig             5600.00:  SPP Min 
 SPPX.psig             5900.00:  SPP Max 
 STIM.      21.00.00 20-Aug-21:  Start Time 
 SVCS.                 DD, MWD:  Services 
 SVER.                    9.20:  Sperry Version 
 TDAT.m                 957.50:  Tot Depth Attmp 
 TDDF.                      No:  Trip for DD 
 TDLG.m                 957.50:  Tot Depth Loggd 
 TFF .                      No:  Trip for Fail 
 TQAA.f-kp               15.00:  Torque Abs Avg 
 TQAN.f-kp               12.00:  Torque Abs Min 
 TQAX.f-kp               19.00:  Torque Abs Max 
 TRRT.°/30m              -3.40:  Turn Rotating 
 MRT .                  EWR-M5:  Maximum Recorded Temperature 
 TTMX.degC              100.00:  Max Tool Temp 
 VS01.                90639251:  Virtual Str1 SN 
 VS02.                90634715:  Virtual Str2 SN 
 VS03.                90652479:  Virtual Str3 SN 
 VS04.                90642262:  Virtual Str4 SN 
 WBMN.klb                 0.00:  WOB Min 
 WITN.           Murad Guliyev:  Customer Rep 
 WITN.          Yashar Gaziyev:  Customer Rep 2 
 WOBA.klb                 9.00:  WOB Avg 
 WOBX.klb                12.00:  WOB Max 
 YP  .lhf2               30.00:  Yield Point 
~Curve Information Block
#MNEM.UNIT                 API CODE     Curve Description
#---------               -----------    ---------------------------
 TIME.HHMMSS            00 000 000 000:  GT Time & Date
 GTDEPTH.m              00 000 000 000:  GT Depth
 GTPQH.psia             00 000 000 000:  GT HR Quartz Pressure
 GTTQ.degC              00 000 000 000:  GT Quartz Temperature
 GTTN.NONE              00 000 000 000:  GT Test Number
 GTET.sec               00 000 000 000:  GT Elapsed Test Time
 GTTVD.m                00 000 000 000:  GT True Vertical Depth
#Other Information
#
#WARRANTY: Halliburton will use its best efforts to furnish customers with 
#accurate information and interpretations that are part of, and incident to, the services 
#provided.  However, Halliburton cannot and does not warrant the accuracy 
#or correctness of such information and interpretations.  Under no circumstances should any 
#such information or interpretation be relied upon as the sole basis for any drilling, 
#completion, production, or financial decision or any procedure involving any risk to the 
#safety of any drilling venture, drilling rig or its crew or any other third party.  The 
#Customer has full responsibility for all drilling, completion and production operation.  
#Halliburton makes no representations or warranties, either expressed or 
#implied, including, but not limited to, the implied warranties of merchantability or fitness 
#for a particular purpose, with respect to the services rendered.  In no event will 
#Halliburton be liable for failure to obtain any particular results or for 
#any damages, including, but not limited to, indirect, special or consequential damages, 
#resulting from the use of any information or interpretation provided by Halliburton.
#
~A           TIME           GTDEPTH  GTPQH  GTTQ  GTTN  GTET   GTTVD  
# ...
   08:54:34.500.27-Aug-2021 4965.00 1821.51 86.63 6.00 184.08 3307.85
   08:54:34.700.27-Aug-2021 4965.00 1821.51 86.63 6.00 184.28 3307.85
   08:54:34.900.27-Aug-2021 4965.00 1821.65 86.63 6.00 184.48 3307.85
   08:54:35.100.27-Aug-2021 4965.00 1822.48 86.63 6.00 184.68 3307.85
   08:54:35.301.27-Aug-2021 4965.00 1822.20 86.63 6.00 184.88 3307.85
   08:54:35.501.27-Aug-2021 4965.00 1822.92 86.63 6.00 185.08 3307.85
   08:54:35.701.27-Aug-2021 4965.00 1822.92 86.63 6.00 185.28 3307.85
   08:54:35.901.27-Aug-2021 4965.00 1823.27 86.63 6.00 185.48 3307.85
   08:54:36.101.27-Aug-2021 4965.00 1823.39 86.63 6.00 185.68 3307.85
   08:54:36.301.27-Aug-2021 4965.00 1823.33 86.63 6.00 185.88 3307.85
   08:54:36.501.27-Aug-2021 4965.00 1824.02 86.63 6.00 186.08 3307.85
   08:54:36.701.27-Aug-2021 4965.00 1824.02 86.63 6.00 186.28 3307.85
   08:54:36.901.27-Aug-2021 4965.00 1824.30 86.63 6.00 186.48 3307.85
   08:54:37.101.27-Aug-2021 4965.00 1824.44 86.63 6.00 186.68 3307.85
   08:54:37.301.27-Aug-2021 4965.00 1824.67 86.63 6.00 186.88 3307.85
   08:54:37.501.27-Aug-2021 4965.00 1824.54 86.63 6.00 187.08 3307.85
   08:54:37.702.27-Aug-2021 4965.00 1824.54 86.63 6.00 187.28 3307.85
   08:54:37.902.27-Aug-2021 4965.00 1825.58 86.63 6.00 187.48 3307.85
   08:54:38.102.27-Aug-2021 4965.00 1825.63 86.63 6.00 187.68 3307.85
   08:54:38.302.27-Aug-2021 4965.00 1825.75 86.63 6.00 187.88 3307.85
   08:54:38.502.27-Aug-2021 4965.00 1825.94 86.63 6.00 188.08 3307.85
   08:54:38.702.27-Aug-2021 4965.00 1825.94 86.63 6.00 188.28 3307.85
   08:54:38.902.27-Aug-2021 4965.00 1826.24 86.63 6.00 188.48 3307.85
   08:54:39.102.27-Aug-2021 4965.00 1826.43 86.63 6.00 188.68 3307.85
   08:54:39.302.27-Aug-2021 4965.00 1826.62 86.63 6.00 188.88 3307.85
   08:54:39.502.27-Aug-2021 4965.00 1826.84 86.63 6.00 189.08 3307.85
   08:54:39.702.27-Aug-2021 4965.00 1826.84 86.63 6.00 189.28 3307.85
   08:54:39.902.27-Aug-2021 4965.00 1827.28 86.63 6.00 189.48 3307.85
   08:54:40.103.27-Aug-2021 4965.00 1827.45 86.63 6.00 189.68 3307.85
   08:54:40.303.27-Aug-2021 4965.00 1827.62 86.63 6.00 189.88 3307.85
   08:54:40.503.27-Aug-2021 4965.00 1827.82 86.63 6.00 190.08 3307.85
   08:54:40.703.27-Aug-2021 4965.00 1827.82 86.63 6.00 190.28 3307.85
   08:54:40.903.27-Aug-2021 4965.00 1828.55 86.63 6.00 190.48 3307.85
   08:54:41.103.27-Aug-2021 4965.00 1828.75 86.63 6.00 190.68 3307.85
   08:54:41.303.27-Aug-2021 4965.00 1828.77 86.63 6.00 190.88 3307.85
   08:54:41.503.27-Aug-2021 4965.00 1828.89 86.63 6.00 191.08 3307.85
   08:54:41.703.27-Aug-2021 4965.00 1828.89 86.63 6.00 191.28 3307.85
   08:54:41.903.27-Aug-2021 4965.00 1829.18 86.63 6.00 191.48 3307.85
   08:54:42.103.27-Aug-2021 4965.00 1829.33 86.63 6.00 191.68 3307.85
   08:54:42.303.27-Aug-2021 4965.00 1829.51 86.63 6.00 191.88 3307.85
   08:54:42.504.27-Aug-2021 4965.00 1829.68 86.63 6.00 192.08 3307.85
   08:54:42.704.27-Aug-2021 4965.00 1829.68 86.63 6.00 192.28 3307.85
   08:54:42.904.27-Aug-2021 4965.00 1830.07 86.63 6.00 192.48 3307.85
   08:54:43.104.27-Aug-2021 4965.00 1830.26 86.63 6.00 192.68 3307.85
   08:54:43.304.27-Aug-2021 4965.00 1830.43 86.63 6.00 192.88 3307.85
   08:54:43.504.27-Aug-2021 4965.00 1830.60 86.63 6.00 193.08 3307.85
   08:54:43.704.27-Aug-2021 4965.00 1830.60 86.63 6.00 193.28 3307.85
   08:54:43.904.27-Aug-2021 4965.00 1830.70 86.63 6.00 193.48 3307.85
   08:54:44.104.27-Aug-2021 4965.00 1831.45 86.63 6.00 193.68 3307.85
   08:54:44.304.27-Aug-2021 4965.00 1831.67 86.63 6.00 193.88 3307.85
   08:54:44.504.27-Aug-2021 4965.00 1831.67 86.63 6.00 194.08 3307.85
   08:54:44.704.27-Aug-2021 4965.00 1831.67 86.63 6.00 194.28 3307.85
   08:54:44.905.27-Aug-2021 4965.00 1832.16 86.63 6.00 194.48 3307.85
   08:54:45.105.27-Aug-2021 4965.00 1832.38 86.63 6.00 194.68 3307.85
   08:54:45.305.27-Aug-2021 4965.00 1832.38 86.63 6.00 194.88 3307.85
   08:54:45.505.27-Aug-2021 4965.00 1832.50 86.63 6.00 195.08 3307.85
   08:54:45.705.27-Aug-2021 4965.00 1832.50 86.63 6.00 195.28 3307.85
   08:54:45.905.27-Aug-2021 4965.00 1832.83 86.63 6.00 195.48 3307.85
   08:54:46.105.27-Aug-2021 4965.00 1833.22 86.63 6.00 195.68 3307.85
   08:54:46.305.27-Aug-2021 4965.00 1833.28 86.63 6.00 195.88 3307.85
   08:54:46.505.27-Aug-2021 4965.00 1833.35 86.63 6.00 196.08 3307.85
   08:54:46.705.27-Aug-2021 4965.00 1833.35 86.63 6.00 196.28 3307.85
   08:54:46.905.27-Aug-2021 4965.00 1833.46 86.63 6.00 196.48 3307.85
   08:54:47.105.27-Aug-2021 4965.00 1834.14 86.63 6.00 196.68 3307.85
   08:54:47.306.27-Aug-2021 4965.00 1834.24 86.63 6.00 196.88 3307.85
   08:54:47.506.27-Aug-2021 4965.00 1834.27 86.63 6.00 197.08 3307.85
   08:54:47.706.27-Aug-2021 4965.00 1834.27 86.63 6.00 197.28 3307.85
   08:54:47.906.27-Aug-2021 4965.00 1834.55 86.63 6.00 197.48 3307.85
   08:54:48.106.27-Aug-2021 4965.00 1834.68 86.63 6.00 197.68 3307.85
   08:54:48.306.27-Aug-2021 4965.00 1834.80 86.63 6.00 197.88 3307.85
   08:54:48.506.27-Aug-2021 4965.00 1834.94 86.63 6.00 198.08 3307.85
   08:54:48.706.27-Aug-2021 4965.00 1834.94 86.63 6.00 198.28 3307.85
   08:54:48.906.27-Aug-2021 4965.00 1835.25 86.63 6.00 198.48 3307.85
   08:54:49.106.27-Aug-2021 4965.00 1835.43 86.63 6.00 198.68 3307.85
   08:54:49.306.27-Aug-2021 4965.00 1835.60 86.63 6.00 198.88 3307.85
   08:54:49.506.27-Aug-2021 4965.00 1835.75 86.63 6.00 199.08 3307.85
   08:54:49.707.27-Aug-2021 4965.00 1835.75 86.63 6.00 199.28 3307.85
   08:54:49.907.27-Aug-2021 4965.00 1835.85 86.63 6.00 199.48 3307.85
   08:54:50.107.27-Aug-2021 4965.00 1836.36 86.63 6.00 199.68 3307.85
   08:54:50.307.27-Aug-2021 4965.00 1836.78 86.63 6.00 199.88 3307.85
   08:54:50.507.27-Aug-2021 4965.00 1836.82 86.63 6.00 200.08 3307.85
   08:54:50.707.27-Aug-2021 4965.00 1836.82 86.63 6.00 200.28 3307.85
   08:54:50.907.27-Aug-2021 4965.00 1836.98 86.63 6.00 200.48 3307.85
   08:54:51.107.27-Aug-2021 4965.00 1837.09 86.63 6.00 200.68 3307.85
   08:54:51.307.27-Aug-2021 4965.00 1837.19 86.63 6.00 200.88 3307.85
   08:54:51.507.27-Aug-2021 4965.00 1837.31 86.63 6.00 201.08 3307.85
   08:54:51.707.27-Aug-2021 4965.00 1837.31 86.63 6.00 201.28 3307.85
   08:54:51.907.27-Aug-2021 4965.00 1837.61 86.63 6.00 201.48 3307.85
   08:54:52.108.27-Aug-2021 4965.00 1837.77 86.63 6.00 201.68 3307.85
   08:54:52.308.27-Aug-2021 4965.00 1837.96 86.63 6.00 201.88 3307.85
   08:54:52.508.27-Aug-2021 4965.00 1838.09 86.63 6.00 202.08 3307.85
   08:54:52.708.27-Aug-2021 4965.00 1838.09 86.63 6.00 202.28 3307.85
   08:54:52.908.27-Aug-2021 4965.00 1838.37 86.63 6.00 202.48 3307.85
   08:54:53.108.27-Aug-2021 4965.00 1838.50 86.63 6.00 202.68 3307.85
   08:54:53.308.27-Aug-2021 4965.00 1838.56 86.63 6.00 202.88 3307.85
   08:54:53.508.27-Aug-2021 4965.00 1839.22 86.63 6.00 203.08 3307.85
   08:54:53.708.27-Aug-2021 4965.00 1839.22 86.63 6.00 203.28 3307.85
   08:54:53.908.27-Aug-2021 4965.00 1839.30 86.63 6.00 203.48 3307.85
   08:54:54.108.27-Aug-2021 4965.00 1839.17 86.63 6.00 203.68 3307.85
   08:54:54.308.27-Aug-2021 4965.00 1839.50 86.63 6.00 203.88 3307.85
   08:54:54.509.27-Aug-2021 4965.00 1839.93 86.63 6.00 204.08 3307.85
   08:54:54.709.27-Aug-2021 4965.00 1839.93 86.63 6.00 204.28 3307.85
   08:54:54.909.27-Aug-2021 4965.00 1839.95 86.63 6.00 204.48 3307.85
   08:54:55.109.27-Aug-2021 4965.00 1840.13 86.63 6.00 204.69 3307.85
   08:54:55.309.27-Aug-2021 4965.00 1840.54 86.63 6.00 204.89 3307.85
   08:54:55.509.27-Aug-2021 4965.00 1840.58 86.63 6.00 205.09 3307.85
   08:54:55.709.27-Aug-2021 4965.00 1840.58 86.63 6.00 205.29 3307.85
   08:54:55.909.27-Aug-2021 4965.00 1840.98 86.63 6.00 205.49 3307.85
   08:54:56.109.27-Aug-2021 4965.00 1841.15 86.63 6.00 205.69 3307.85
   08:54:56.309.27-Aug-2021 4965.00 1841.16 86.63 6.00 205.89 3307.85
   08:54:56.509.27-Aug-2021 4965.00 1841.25 86.63 6.00 206.09 3307.85
   08:54:56.709.27-Aug-2021 4965.00 1841.25 86.63 6.00 206.29 3307.85
   08:54:56.910.27-Aug-2021 4965.00 1841.44 86.63 6.00 206.49 3307.85
   08:54:57.110.27-Aug-2021 4965.00 1841.53 86.63 6.00 206.69 3307.85
   08:54:57.310.27-Aug-2021 4965.00 1841.65 86.63 6.00 206.89 3307.85
