~Version Information
 VERS.                  2.0:   CWLS log ASCII Standard -VERSION 2.0
 WRAP.                   NO:   One line per depth step
~Well Information Block
#MNEM.UNIT     VALUE/NAME     DESCRIPTION
#---------     -----------    ---------------------------
 STRT.S             04:10:22 28-Aug-21: START TIME 04:10:22 28-Aug-21
 STOP.S             04:17:14 28-Aug-21: STOP TIME  04:17:14 28-Aug-21
 STEP.S                   0.00: STEP TIME
 NULL.                 -999.25: NULL VALUE
 DFWT.                        :  DIST FWL TEXT
 DFST.                        :  DIST FSL TEXT
 DMF .             Drill Floor:  DRILL MEAS FROM
 STIM.      20.00.00 17-Aug-21:  START TIME
 DATE.      19.00.00 29-Aug-21:  END TIME
 SPUD.               15-Aug-21:  SPUD DATE
 NREF.                    Grid:  NORTH REFERENCE
 HPTY.       Minimum Curvature:  HOLE POS TYPE
 DMOD.             Drill Model:  DRILL MOD DESC
 SVYD.                  Survey:  SURVEY DESC
 ILTD.               Lithology:  INTERP LTH DESC
 FTOP.          Formation Tops:  FORM TOPS DESC
 RIG .              East Azeri:  RIG NAME
 PDAT.          Mean Sea Level:  PERMANENT DATUM
 FLD .                     ACG:  FIELD NAME
 SON .        AZ-XX-0907180857:  JOB NUMBER
 CTRY.              Azerbaijan:  COUNTRY NAME
 WELL.                    D23x:  WELL NAME
 SRVC.     Turan Drilling and Engineering:  CONTRACTOR
 COMP.     BP Exploration (Caspian Sea) Ltd.:  COMPANY
 UWI .            /AZE00000214:  UNIQUE WELL IDENTIFIER
 API .            /AZE00000214:  API NUMBER
 MDS .        Operator Entered:  MAG DATA SOURCE
 BASE.              Azerbaijan:  LOGGING EQUIPMENT BASE LOCATION
 REGN.                   EESSA:  REGION
 PROV.                    Baku:  PROVINCE
 STAT.                    Baku:  STATE NAME
 MWDS.                    Baku:  MWD SHOP
 DOE .                     N/A:  DOE NUMBER
 DCON.         Sperry Drilling:  DIRECTNL CONTR
 UNIT.                     N/A:  LOGGING EQUIPMENT ID
 WTYP.                Deviated:  WELL TYPE
 CNTY.                        :  COUNTY
 LOC .                        :  LOCATION
 LMF .             Drill Floor:  LOG MEASURED FROM
 TVDS.m                  43.60:  TVDSS CORRECTN
 LATI.deg                40.02:  LATITUDE
 LONG.deg                51.45:  LONGITUDE
 WHNS.m                  -7.04:  WELL HEAD N/S
 WHEW.m                  -0.67:  WELL HEAD E/W
 UTMX.m              538762.90:  UTM X
 UTMY.m             4431871.34:  UTM Y
 DFWL.m                   0.00:  DISTANCE FWL
 DFSL.m                   0.00:  DISTANCE FSL
 SDEP.m                4127.00:  START DEPTH
 TDD .m                5084.50:  TOTAL DEPTH (DRILLER)
 VSDR.deg               140.47:  VERT SEC DIRECT
 GVFD.g                   1.00:  GRAVITY FIELD
 MFLD.nT              50362.00:  MAGNETIC FIELD
 MDIP.deg                59.48:  MAGNETIC DIP
 MDEC.deg                 6.47:  MAGNETIC DECL
 GRDC.deg                 0.31:  GRID CORRECTION
 AZTC.deg                 6.16:  AZM TOTAL CORR
 EPD .m                   0.00:  ELEVATION
 EGL .m                   0.00:  GROUND ELEVATION
 WDMS.m                 151.80:  WD ELEV
 APD .m                  43.60:  DEPTH ABOVE PD
 DEP .m                4092.57:  DEPTH
 AGAP.m                  43.60:  AIR GAP
 VSEW.m                  -0.67:  VERT SEC E/W
 VSNS.m                  -7.04:  VERT SEC N/S
 EKB .m                  43.60:  KB ELEVATION
 EDF .m                  43.60:  DF ELEVATION
 TDL .m                 957.50:  TOTAL DEPTH (LOGGER)
 VSC .                       0:  VS TO CLOSURE
 MAGU.                 1851413:  MAGUTM CHECKSUM
~Parameter Information Block
#MNEM.UNIT       Value        Description
#---------     -----------    ---------------------------
 AV  .mps                 1.50:  Ann Velocity 
 AVMX.mps                 2.00:  Max Ann Veloc 
 AZIF.deg               184.66:  Azm, Final 
 BHAT.        Rotary Steerable:  BHA Type 
 BREV.rev               300.00:  Rev Bit Total 
 BROT.°/30m              -0.50:  Build Rotating 
 BS  .in                  8.50:  Bit Size 
 BSZ .in                  8.50:  Bit Size 
 BTPL.psig              370.00:  Bit Press Loss 
 CABU.                      No:  Customer Abuse 
 CGEO.      Behruz Shahbaliyev:  Customer Geo 
 COMM.                     LÁp:  Run Comments 1 
 TCS .hr                140.08:  Time Ciculation Ended 
 CV  .mps                 3.00:  Crit Velocity 
 CVMX.mps                 3.20:  Max Crit Veloc 
 DD1 .            Musa Ahmadov:  Direct Drillr 1 
 DD2 .           Hamid Ahmadov:  Direct Drillr 2 
 DDSV.               Geo-Pilot:  DD Service 
 DEFF.%                  98.40:  % Det Eff 
 DLRX.°/30m               3.40:  Dogleg Rot Max 
 DLSO.°/30m               1.45:  Dogleg Oriented 
 DLSX.°/30m               3.40:  Dogleg Str Max 
 DRET.      18.40.00 29-Aug-21:  Drill End Time 
 DRST.      21.00.00 20-Aug-21:  Drill Start Tim 
 DTIM.hr                 69.47:  Time Drilling 
 EDEP.m                5084.50:  End Depth 
 ENG1.      Artemiy Matviyanov:  Engineer 1 
 ENG2.         Almaz Almadatov:  Engineer 2 
 ETIM.      18.40.00 29-Aug-21:  End Time 
 FLOI.gpm               500.00:  Flow In 
 FLON.gpm               400.00:  Flow In Min 
 FLOS.cptm                0.00:  Fluid Loss 
 FLOX.gpm               500.00:  Flow In Max 
 DFT .        Mineral Oil Base:  Mud Type 
 HFLO.                      No:  High Flow 
 HPRE.                      No:  High Pressure 
 HTEM.                      No:  High Temp 
 HYDO.m                   1.80:  Hydro Offset 
 IFIN.deg                25.62:  Inc, Final 
 IMAX.deg                48.69:  Inc Max 
 IMIN.deg                24.01:  Inc Min 
 IMND.m                4962.57:  Inc Min Depth 
 IMXD.m                4119.01:  Inc Max Depth 
 JARR.                      No:  Jarring 
 LETM.      18.40.00 29-Aug-21:  Log End Time 
 LOST.hr                     0:  Lost Rig Time 
 LSTM.      21.00.00 20-Aug-21:  Log Start Time 
 MDCL.ppm             41500.00:  Mud Chlorides 
 MDES.     Inversion Oil/Synthetic:  Mud Desc 
 DFD .sg                  1.56:  Mud Density 
 MDMN.sg                  1.56:  Dens Mud Min 
 MDMX.sg                  1.56:  Dens Mud Max 
 MOIL.                      70:  Run Mud Oil % 
 MOWR.                   70:30:  Run Mud OWR 
 MSND.                     0.2:  Run Mud Sand % 
 MSOL.                    23.3:  Run Mud Solids% 
 DFV .spqt               78.00:  Mud Viscosity 
 MWOD.in                  6.75:  MWD Tool OD 
 MWSI.                      No:  Serv Intrp, MWD 
 OTIM.hr                218.30:  Time Operating 
 PCON.           Look Like New:  Pad Condition 
 PMAX.psia            11015.30:  Press Op, Max 
 PV  .cP                 38.00:  Mud PV 
 RUN .                     300:  Run Number 
 ROPA.m/hr               15.00:  ROP Avg 
 ROPN.m/hr                9.00:  ROP Min 
 ROPX.m/hr               17.00:  ROP Max 
 RPMA.rpm               120.00:  RPM Surface Avg 
 RPMN.rpm                90.00:  RPM Surface Min 
 RPMX.rpm               140.00:  RPM Surface Max 
 RRUN.                     300:  Rig Run Number 
 RTIM.hr                 31.53:  Time Reaming 
 SAZI.deg               331.64:  Azm, Start 
 SDEP.m                4127.00:  Start Depth 
 SIDD.                      No:  Serv Intrp, DD 
 SINC.deg                48.43:  Inc, Start 
 SPPA.psig             5830.00:  SPP Avg 
 SPPN.psig             5600.00:  SPP Min 
 SPPX.psig             5900.00:  SPP Max 
 STIM.      21.00.00 20-Aug-21:  Start Time 
 SVCS.                 DD, MWD:  Services 
 SVER.                    9.20:  Sperry Version 
 TDAT.m                 957.50:  Tot Depth Attmp 
 TDDF.                      No:  Trip for DD 
 TDLG.m                 957.50:  Tot Depth Loggd 
 TFF .                      No:  Trip for Fail 
 TQAA.f-kp               15.00:  Torque Abs Avg 
 TQAN.f-kp               12.00:  Torque Abs Min 
 TQAX.f-kp               19.00:  Torque Abs Max 
 TRRT.°/30m              -3.40:  Turn Rotating 
 MRT .                  EWR-M5:  Maximum Recorded Temperature 
 TTMX.degC              100.00:  Max Tool Temp 
 VS01.                90639251:  Virtual Str1 SN 
 VS02.                90634715:  Virtual Str2 SN 
 VS03.                90652479:  Virtual Str3 SN 
 VS04.                90642262:  Virtual Str4 SN 
 WBMN.klb                 0.00:  WOB Min 
 WITN.           Murad Guliyev:  Customer Rep 
 WITN.          Yashar Gaziyev:  Customer Rep 2 
 WOBA.klb                 9.00:  WOB Avg 
 WOBX.klb                12.00:  WOB Max 
 YP  .lhf2               30.00:  Yield Point 
~Curve Information Block
#MNEM.UNIT                 API CODE     Curve Description
#---------               -----------    ---------------------------
 TIME.HHMMSS            00 000 000 000:  GT Time & Date
 GTDEPTH.m              00 000 000 000:  GT Depth
 GTPQH.psia             00 000 000 000:  GT HR Quartz Pressure
 GTTQ.degC              00 000 000 000:  GT Quartz Temperature
 GTTN.NONE              00 000 000 000:  GT Test Number
 GTET.sec               00 000 000 000:  GT Elapsed Test Time
 GTTVD.m                00 000 000 000:  GT True Vertical Depth
#Other Information
#
#WARRANTY: Halliburton will use its best efforts to furnish customers with 
#accurate information and interpretations that are part of, and incident to, the services 
#provided.  However, Halliburton cannot and does not warrant the accuracy 
#or correctness of such information and interpretations.  Under no circumstances should any 
#such information or interpretation be relied upon as the sole basis for any drilling, 
#completion, production, or financial decision or any procedure involving any risk to the 
#safety of any drilling venture, drilling rig or its crew or any other third party.  The 
#Customer has full responsibility for all drilling, completion and production operation.  
#Halliburton makes no representations or warranties, either expressed or 
#implied, including, but not limited to, the implied warranties of merchantability or fitness 
#for a particular purpose, with respect to the services rendered.  In no event will 
#Halliburton be liable for failure to obtain any particular results or for 
#any damages, including, but not limited to, indirect, special or consequential damages, 
#resulting from the use of any information or interpretation provided by Halliburton.
#
~A           TIME           GTDEPTH  GTPQH  GTTQ  GTTN   GTET   GTTVD  
# ...
   04:13:01.243.28-Aug-2021 4978.00 7970.64 80.45 29.00 158.42 3319.69
   04:13:01.444.28-Aug-2021 4978.00 7970.58 80.45 29.00 158.62 3319.69
   04:13:01.644.28-Aug-2021 4978.00 7970.73 80.45 29.00 158.82 3319.69
   04:13:01.844.28-Aug-2021 4978.00 7971.45 80.45 29.00 159.02 3319.69
   04:13:02.045.28-Aug-2021 4978.00 7971.70 80.45 29.00 159.22 3319.69
   04:13:02.245.28-Aug-2021 4978.00 7971.70 80.45 29.00 159.42 3319.69
   04:13:02.445.28-Aug-2021 4978.00 7971.13 80.45 29.00 159.62 3319.69
   04:13:02.645.28-Aug-2021 4978.00 7970.96 80.45 29.00 159.82 3319.69
   04:13:02.846.28-Aug-2021 4978.00 7971.01 80.45 29.00 160.02 3319.69
   04:13:03.046.28-Aug-2021 4978.00 7974.82 80.45 29.00 160.23 3319.69
   04:13:03.246.28-Aug-2021 4978.00 7974.82 80.45 29.00 160.43 3319.69
   04:13:03.447.28-Aug-2021 4978.00 7971.79 80.45 29.00 160.63 3319.69
   04:13:03.647.28-Aug-2021 4978.00 7970.64 80.45 29.00 160.83 3319.69
   04:13:03.847.28-Aug-2021 4978.00 7970.86 80.45 29.00 161.03 3319.69
   04:13:04.047.28-Aug-2021 4978.00 7970.76 80.45 29.00 161.23 3319.69
   04:13:04.248.28-Aug-2021 4978.00 7970.76 80.45 29.00 161.43 3319.69
   04:13:04.448.28-Aug-2021 4978.00 7970.49 80.45 29.00 161.63 3319.69
   04:13:04.648.28-Aug-2021 4978.00 7970.35 80.45 29.00 161.83 3319.69
   04:13:04.848.28-Aug-2021 4978.00 7970.74 80.45 29.00 162.03 3319.69
   04:13:05.049.28-Aug-2021 4978.00 7971.49 80.45 29.00 162.23 3319.69
   04:13:05.249.28-Aug-2021 4978.00 7971.49 80.45 29.00 162.43 3319.69
   04:13:05.449.28-Aug-2021 4978.00 7972.08 80.45 29.00 162.63 3319.69
   04:13:05.650.28-Aug-2021 4978.00 7971.82 80.45 29.00 162.83 3319.69
   04:13:05.850.28-Aug-2021 4978.00 7971.78 80.45 29.00 163.03 3319.69
   04:13:06.050.28-Aug-2021 4978.00 7971.84 80.45 29.00 163.23 3319.69
   04:13:06.250.28-Aug-2021 4978.00 7971.84 80.45 29.00 163.43 3319.69
   04:13:06.451.28-Aug-2021 4978.00 7971.88 80.45 29.00 163.63 3319.69
   04:13:06.651.28-Aug-2021 4978.00 7974.68 80.45 29.00 163.83 3319.69
   04:13:06.851.28-Aug-2021 4978.00 7972.75 80.45 29.00 164.03 3319.69
   04:13:07.052.28-Aug-2021 4978.00 7971.25 80.45 29.00 164.23 3319.69
   04:13:07.252.28-Aug-2021 4978.00 7971.25 80.45 29.00 164.43 3319.69
   04:13:07.452.28-Aug-2021 4978.00 7975.09 80.45 29.00 164.63 3319.69
   04:13:07.652.28-Aug-2021 4978.00 7971.40 80.45 29.00 164.83 3319.69
   04:13:07.853.28-Aug-2021 4978.00 7971.95 80.45 29.00 165.03 3319.69
   04:13:08.053.28-Aug-2021 4978.00 7970.42 80.45 29.00 165.23 3319.69
   04:13:08.253.28-Aug-2021 4978.00 7970.42 80.45 29.00 165.43 3319.69
   04:13:08.454.28-Aug-2021 4978.00 7971.95 80.45 29.00 165.63 3319.69
   04:13:08.654.28-Aug-2021 4978.00 7972.01 80.45 29.00 165.83 3319.69
   04:13:08.854.28-Aug-2021 4978.00 7971.47 80.45 29.00 166.03 3319.69
   04:13:09.054.28-Aug-2021 4978.00 7974.64 80.45 29.00 166.23 3319.69
   04:13:09.255.28-Aug-2021 4978.00 7974.64 80.45 29.00 166.43 3319.69
   04:13:09.455.28-Aug-2021 4978.00 7972.42 80.45 29.00 166.63 3319.69
   04:13:09.655.28-Aug-2021 4978.00 7971.27 80.45 29.00 166.83 3319.69
   04:13:09.856.28-Aug-2021 4978.00 7971.47 80.45 29.00 167.03 3319.69
   04:13:10.056.28-Aug-2021 4978.00 7971.06 80.45 29.00 167.24 3319.69
   04:13:10.256.28-Aug-2021 4978.00 7971.06 80.45 29.00 167.44 3319.69
   04:13:10.456.28-Aug-2021 4978.00 7971.36 80.45 29.00 167.64 3319.69
   04:13:10.657.28-Aug-2021 4978.00 7970.78 80.45 29.00 167.84 3319.69
   04:13:10.857.28-Aug-2021 4978.00 7971.20 80.45 29.00 168.04 3319.69
   04:13:11.057.28-Aug-2021 4978.00 7971.77 80.45 29.00 168.24 3319.69
   04:13:11.257.28-Aug-2021 4978.00 7971.77 80.45 29.00 168.44 3319.69
   04:13:11.458.28-Aug-2021 4978.00 7972.22 80.45 29.00 168.64 3319.69
   04:13:11.658.28-Aug-2021 4978.00 7971.97 80.45 29.00 168.84 3319.69
   04:13:11.858.28-Aug-2021 4978.00 7971.80 80.45 29.00 169.04 3319.69
   04:13:12.059.28-Aug-2021 4978.00 7971.81 80.45 29.00 169.24 3319.69
   04:13:12.259.28-Aug-2021 4978.00 7971.81 80.45 29.00 169.44 3319.69
   04:13:12.459.28-Aug-2021 4978.00 7974.85 80.45 29.00 169.64 3319.69
   04:13:12.659.28-Aug-2021 4978.00 7972.91 80.45 29.00 169.84 3319.69
   04:13:12.860.28-Aug-2021 4978.00 7971.46 80.45 29.00 170.04 3319.69
   04:13:13.060.28-Aug-2021 4978.00 7971.16 80.45 29.00 170.24 3319.69
   04:13:13.260.28-Aug-2021 4978.00 7971.16 80.45 29.00 170.44 3319.69
   04:13:13.461.28-Aug-2021 4978.00 7971.32 80.45 29.00 170.64 3319.69
   04:13:13.661.28-Aug-2021 4978.00 7971.05 80.45 29.00 170.84 3319.69
   04:13:13.861.28-Aug-2021 4978.00 7970.78 80.45 29.00 171.04 3319.69
   04:13:14.061.28-Aug-2021 4978.00 7971.00 80.45 29.00 171.24 3319.69
   04:13:14.262.28-Aug-2021 4978.00 7971.00 80.45 29.00 171.44 3319.69
   04:13:14.462.28-Aug-2021 4978.00 7972.21 80.45 29.00 171.64 3319.69
   04:13:14.662.28-Aug-2021 4978.00 7972.44 80.45 29.00 171.84 3319.69
   04:13:14.863.28-Aug-2021 4978.00 7972.16 80.45 29.00 172.04 3319.69
   04:13:15.063.28-Aug-2021 4978.00 7972.14 80.45 29.00 172.24 3319.69
   04:13:15.263.28-Aug-2021 4978.00 7972.14 80.45 29.00 172.44 3319.69
   04:13:15.463.28-Aug-2021 4978.00 7971.77 80.45 29.00 172.64 3319.69
   04:13:15.664.28-Aug-2021 4978.00 7971.68 80.45 29.00 172.84 3319.69
   04:13:15.864.28-Aug-2021 4978.00 7975.59 80.45 29.00 173.04 3319.69
   04:13:16.064.28-Aug-2021 4978.00 7972.04 80.45 29.00 173.24 3319.69
   04:13:16.265.28-Aug-2021 4978.00 7972.04 80.45 29.00 173.44 3319.69
   04:13:16.465.28-Aug-2021 4978.00 7971.50 80.45 29.00 173.64 3319.69
   04:13:16.665.28-Aug-2021 4978.00 7971.51 80.45 29.00 173.84 3319.69
   04:13:16.865.28-Aug-2021 4978.00 7975.00 80.45 29.00 174.04 3319.69
   04:13:17.066.28-Aug-2021 4978.00 7972.71 80.45 29.00 174.24 3319.69
   04:13:17.266.28-Aug-2021 4978.00 7972.71 80.45 29.00 174.45 3319.69
   04:13:17.466.28-Aug-2021 4978.00 7974.62 80.45 29.00 174.65 3319.69
   04:13:17.666.28-Aug-2021 4978.00 7971.22 80.45 29.00 174.85 3319.69
   04:13:17.867.28-Aug-2021 4978.00 7973.19 80.45 29.00 175.05 3319.69
   04:13:18.067.28-Aug-2021 4978.00 7971.77 80.45 29.00 175.25 3319.69
   04:13:18.267.28-Aug-2021 4978.00 7971.77 80.45 29.00 175.45 3319.69
   04:13:18.468.28-Aug-2021 4978.00 7975.01 80.45 29.00 175.65 3319.69
   04:13:18.668.28-Aug-2021 4978.00 7971.72 80.45 29.00 175.85 3319.69
   04:13:18.868.28-Aug-2021 4978.00 7972.57 80.45 29.00 176.05 3319.69
   04:13:19.068.28-Aug-2021 4978.00 7971.35 80.45 29.00 176.25 3319.69
   04:13:19.269.28-Aug-2021 4978.00 7971.35 80.45 29.00 176.45 3319.69
   04:13:19.469.28-Aug-2021 4978.00 7971.85 80.45 29.00 176.65 3319.69
   04:13:19.669.28-Aug-2021 4978.00 7971.85 80.45 29.00 176.85 3319.69
   04:13:19.870.28-Aug-2021 4978.00 7971.36 80.45 29.00 177.05 3319.69
   04:13:20.070.28-Aug-2021 4978.00 7970.84 80.45 29.00 177.25 3319.69
   04:13:20.270.28-Aug-2021 4978.00 7970.84 80.45 29.00 177.45 3319.69
   04:13:20.470.28-Aug-2021 4978.00 7971.91 80.45 29.00 177.65 3319.69
   04:13:20.671.28-Aug-2021 4978.00 7972.25 80.45 29.00 177.85 3319.69
   04:13:20.871.28-Aug-2021 4978.00 7972.23 80.45 29.00 178.05 3319.69
   04:13:21.071.28-Aug-2021 4978.00 7971.95 80.45 29.00 178.25 3319.69
   04:13:21.272.28-Aug-2021 4978.00 7971.95 80.45 29.00 178.45 3319.69
   04:13:21.472.28-Aug-2021 4978.00 7971.71 80.45 29.00 178.65 3319.69
   04:13:21.672.28-Aug-2021 4978.00 7971.73 80.45 29.00 178.85 3319.69
   04:13:21.872.28-Aug-2021 4978.00 7975.09 80.45 29.00 179.05 3319.69
   04:13:22.073.28-Aug-2021 4978.00 7973.01 80.45 29.00 179.25 3319.69
   04:13:22.273.28-Aug-2021 4978.00 7973.01 80.45 29.00 179.45 3319.69
   04:13:22.473.28-Aug-2021 4978.00 7971.47 80.45 29.00 179.65 3319.69
   04:13:22.674.28-Aug-2021 4978.00 7971.46 80.45 29.00 179.85 3319.69
   04:13:22.874.28-Aug-2021 4978.00 7971.64 80.45 29.00 180.05 3319.69
   04:13:23.074.28-Aug-2021 4978.00 7971.18 80.45 29.00 180.25 3319.69
   04:13:23.274.28-Aug-2021 4978.00 7971.18 80.45 29.00 180.45 3319.69
   04:13:23.475.28-Aug-2021 4978.00 7971.31 80.45 29.00 180.65 3319.69
   04:13:23.675.28-Aug-2021 4978.00 7971.67 80.45 29.00 180.85 3319.69
