~Version Information
 VERS.                  2.0:   CWLS log ASCII Standard -VERSION 2.0
 WRAP.                   NO:   One line per depth step
~Well Information Block
#MNEM.UNIT     VALUE/NAME     DESCRIPTION
#---------     -----------    ---------------------------
 STRT.S             02:31:31 28-Aug-21: START TIME 02:31:31 28-Aug-21
 STOP.S             02:38:23 28-Aug-21: STOP TIME  02:38:23 28-Aug-21
 STEP.S                   0.00: STEP TIME
 NULL.                 -999.25: NULL VALUE
 DFWT.                        :  DIST FWL TEXT
 DFST.                        :  DIST FSL TEXT
 DMF .             Drill Floor:  DRILL MEAS FROM
 STIM.      20.00.00 17-Aug-21:  START TIME
 DATE.      19.00.00 29-Aug-21:  END TIME
 SPUD.               15-Aug-21:  SPUD DATE
 NREF.                    Grid:  NORTH REFERENCE
 HPTY.       Minimum Curvature:  HOLE POS TYPE
 DMOD.             Drill Model:  DRILL MOD DESC
 SVYD.                  Survey:  SURVEY DESC
 ILTD.               Lithology:  INTERP LTH DESC
 FTOP.          Formation Tops:  FORM TOPS DESC
 RIG .              East Azeri:  RIG NAME
 PDAT.          Mean Sea Level:  PERMANENT DATUM
 FLD .                     ACG:  FIELD NAME
 SON .        AZ-XX-0907180857:  JOB NUMBER
 CTRY.              Azerbaijan:  COUNTRY NAME
 WELL.                    D23x:  WELL NAME
 SRVC.     Turan Drilling and Engineering:  CONTRACTOR
 COMP.     BP Exploration (Caspian Sea) Ltd.:  COMPANY
 UWI .            /AZE00000214:  UNIQUE WELL IDENTIFIER
 API .            /AZE00000214:  API NUMBER
 MDS .        Operator Entered:  MAG DATA SOURCE
 BASE.              Azerbaijan:  LOGGING EQUIPMENT BASE LOCATION
 REGN.                   EESSA:  REGION
 PROV.                    Baku:  PROVINCE
 STAT.                    Baku:  STATE NAME
 MWDS.                    Baku:  MWD SHOP
 DOE .                     N/A:  DOE NUMBER
 DCON.         Sperry Drilling:  DIRECTNL CONTR
 UNIT.                     N/A:  LOGGING EQUIPMENT ID
 WTYP.                Deviated:  WELL TYPE
 CNTY.                        :  COUNTY
 LOC .                        :  LOCATION
 LMF .             Drill Floor:  LOG MEASURED FROM
 TVDS.m                  43.60:  TVDSS CORRECTN
 LATI.deg                40.02:  LATITUDE
 LONG.deg                51.45:  LONGITUDE
 WHNS.m                  -7.04:  WELL HEAD N/S
 WHEW.m                  -0.67:  WELL HEAD E/W
 UTMX.m              538762.90:  UTM X
 UTMY.m             4431871.34:  UTM Y
 DFWL.m                   0.00:  DISTANCE FWL
 DFSL.m                   0.00:  DISTANCE FSL
 SDEP.m                4127.00:  START DEPTH
 TDD .m                5084.50:  TOTAL DEPTH (DRILLER)
 VSDR.deg               140.47:  VERT SEC DIRECT
 GVFD.g                   1.00:  GRAVITY FIELD
 MFLD.nT              50362.00:  MAGNETIC FIELD
 MDIP.deg                59.48:  MAGNETIC DIP
 MDEC.deg                 6.47:  MAGNETIC DECL
 GRDC.deg                 0.31:  GRID CORRECTION
 AZTC.deg                 6.16:  AZM TOTAL CORR
 EPD .m                   0.00:  ELEVATION
 EGL .m                   0.00:  GROUND ELEVATION
 WDMS.m                 151.80:  WD ELEV
 APD .m                  43.60:  DEPTH ABOVE PD
 DEP .m                4092.57:  DEPTH
 AGAP.m                  43.60:  AIR GAP
 VSEW.m                  -0.67:  VERT SEC E/W
 VSNS.m                  -7.04:  VERT SEC N/S
 EKB .m                  43.60:  KB ELEVATION
 EDF .m                  43.60:  DF ELEVATION
 TDL .m                 957.50:  TOTAL DEPTH (LOGGER)
 VSC .                       0:  VS TO CLOSURE
 MAGU.                 1851413:  MAGUTM CHECKSUM
~Parameter Information Block
#MNEM.UNIT       Value        Description
#---------     -----------    ---------------------------
 AV  .mps                 1.50:  Ann Velocity 
 AVMX.mps                 2.00:  Max Ann Veloc 
 AZIF.deg               184.66:  Azm, Final 
 BHAT.        Rotary Steerable:  BHA Type 
 BREV.rev               300.00:  Rev Bit Total 
 BROT.°/30m              -0.50:  Build Rotating 
 BS  .in                  8.50:  Bit Size 
 BSZ .in                  8.50:  Bit Size 
 BTPL.psig              370.00:  Bit Press Loss 
 CABU.                      No:  Customer Abuse 
 CGEO.      Behruz Shahbaliyev:  Customer Geo 
 COMM.                     Œjp:  Run Comments 1 
 TCS .hr                140.08:  Time Ciculation Ended 
 CV  .mps                 3.00:  Crit Velocity 
 CVMX.mps                 3.20:  Max Crit Veloc 
 DD1 .            Musa Ahmadov:  Direct Drillr 1 
 DD2 .           Hamid Ahmadov:  Direct Drillr 2 
 DDSV.               Geo-Pilot:  DD Service 
 DEFF.%                  98.40:  % Det Eff 
 DLRX.°/30m               3.40:  Dogleg Rot Max 
 DLSO.°/30m               1.45:  Dogleg Oriented 
 DLSX.°/30m               3.40:  Dogleg Str Max 
 DRET.      18.40.00 29-Aug-21:  Drill End Time 
 DRST.      21.00.00 20-Aug-21:  Drill Start Tim 
 DTIM.hr                 69.47:  Time Drilling 
 EDEP.m                5084.50:  End Depth 
 ENG1.      Artemiy Matviyanov:  Engineer 1 
 ENG2.         Almaz Almadatov:  Engineer 2 
 ETIM.      18.40.00 29-Aug-21:  End Time 
 FLOI.gpm               500.00:  Flow In 
 FLON.gpm               400.00:  Flow In Min 
 FLOS.cptm                0.00:  Fluid Loss 
 FLOX.gpm               500.00:  Flow In Max 
 DFT .        Mineral Oil Base:  Mud Type 
 HFLO.                      No:  High Flow 
 HPRE.                      No:  High Pressure 
 HTEM.                      No:  High Temp 
 HYDO.m                   1.80:  Hydro Offset 
 IFIN.deg                25.62:  Inc, Final 
 IMAX.deg                48.69:  Inc Max 
 IMIN.deg                24.01:  Inc Min 
 IMND.m                4962.57:  Inc Min Depth 
 IMXD.m                4119.01:  Inc Max Depth 
 JARR.                      No:  Jarring 
 LETM.      18.40.00 29-Aug-21:  Log End Time 
 LOST.hr                     0:  Lost Rig Time 
 LSTM.      21.00.00 20-Aug-21:  Log Start Time 
 MDCL.ppm             41500.00:  Mud Chlorides 
 MDES.     Inversion Oil/Synthetic:  Mud Desc 
 DFD .sg                  1.56:  Mud Density 
 MDMN.sg                  1.56:  Dens Mud Min 
 MDMX.sg                  1.56:  Dens Mud Max 
 MOIL.                      70:  Run Mud Oil % 
 MOWR.                   70:30:  Run Mud OWR 
 MSND.                     0.2:  Run Mud Sand % 
 MSOL.                    23.3:  Run Mud Solids% 
 DFV .spqt               78.00:  Mud Viscosity 
 MWOD.in                  6.75:  MWD Tool OD 
 MWSI.                      No:  Serv Intrp, MWD 
 OTIM.hr                218.30:  Time Operating 
 PCON.           Look Like New:  Pad Condition 
 PMAX.psia            11015.30:  Press Op, Max 
 PV  .cP                 38.00:  Mud PV 
 RUN .                     300:  Run Number 
 ROPA.m/hr               15.00:  ROP Avg 
 ROPN.m/hr                9.00:  ROP Min 
 ROPX.m/hr               17.00:  ROP Max 
 RPMA.rpm               120.00:  RPM Surface Avg 
 RPMN.rpm                90.00:  RPM Surface Min 
 RPMX.rpm               140.00:  RPM Surface Max 
 RRUN.                     300:  Rig Run Number 
 RTIM.hr                 31.53:  Time Reaming 
 SAZI.deg               331.64:  Azm, Start 
 SDEP.m                4127.00:  Start Depth 
 SIDD.                      No:  Serv Intrp, DD 
 SINC.deg                48.43:  Inc, Start 
 SPPA.psig             5830.00:  SPP Avg 
 SPPN.psig             5600.00:  SPP Min 
 SPPX.psig             5900.00:  SPP Max 
 STIM.      21.00.00 20-Aug-21:  Start Time 
 SVCS.                 DD, MWD:  Services 
 SVER.                    9.20:  Sperry Version 
 TDAT.m                 957.50:  Tot Depth Attmp 
 TDDF.                      No:  Trip for DD 
 TDLG.m                 957.50:  Tot Depth Loggd 
 TFF .                      No:  Trip for Fail 
 TQAA.f-kp               15.00:  Torque Abs Avg 
 TQAN.f-kp               12.00:  Torque Abs Min 
 TQAX.f-kp               19.00:  Torque Abs Max 
 TRRT.°/30m              -3.40:  Turn Rotating 
 MRT .                  EWR-M5:  Maximum Recorded Temperature 
 TTMX.degC              100.00:  Max Tool Temp 
 VS01.                90639251:  Virtual Str1 SN 
 VS02.                90634715:  Virtual Str2 SN 
 VS03.                90652479:  Virtual Str3 SN 
 VS04.                90642262:  Virtual Str4 SN 
 WBMN.klb                 0.00:  WOB Min 
 WITN.           Murad Guliyev:  Customer Rep 
 WITN.          Yashar Gaziyev:  Customer Rep 2 
 WOBA.klb                 9.00:  WOB Avg 
 WOBX.klb                12.00:  WOB Max 
 YP  .lhf2               30.00:  Yield Point 
~Curve Information Block
#MNEM.UNIT                 API CODE     Curve Description
#---------               -----------    ---------------------------
 TIME.HHMMSS            00 000 000 000:  GT Time & Date
 GTDEPTH.m              00 000 000 000:  GT Depth
 GTPQH.psia             00 000 000 000:  GT HR Quartz Pressure
 GTTQ.degC              00 000 000 000:  GT Quartz Temperature
 GTTN.NONE              00 000 000 000:  GT Test Number
 GTET.sec               00 000 000 000:  GT Elapsed Test Time
 GTTVD.m                00 000 000 000:  GT True Vertical Depth
#Other Information
#
#WARRANTY: Halliburton will use its best efforts to furnish customers with 
#accurate information and interpretations that are part of, and incident to, the services 
#provided.  However, Halliburton cannot and does not warrant the accuracy 
#or correctness of such information and interpretations.  Under no circumstances should any 
#such information or interpretation be relied upon as the sole basis for any drilling, 
#completion, production, or financial decision or any procedure involving any risk to the 
#safety of any drilling venture, drilling rig or its crew or any other third party.  The 
#Customer has full responsibility for all drilling, completion and production operation.  
#Halliburton makes no representations or warranties, either expressed or 
#implied, including, but not limited to, the implied warranties of merchantability or fitness 
#for a particular purpose, with respect to the services rendered.  In no event will 
#Halliburton be liable for failure to obtain any particular results or for 
#any damages, including, but not limited to, indirect, special or consequential damages, 
#resulting from the use of any information or interpretation provided by Halliburton.
#
~A           TIME           GTDEPTH  GTPQH  GTTQ  GTTN   GTET   GTTVD  
# ...
   02:32:17.203.28-Aug-2021 4891.00 7771.88 80.69 28.00  45.21 3240.41
   02:32:17.403.28-Aug-2021 4891.00 7776.52 80.69 28.00  45.41 3240.41
   02:32:17.603.28-Aug-2021 4891.00 7770.10 80.69 28.00  45.61 3240.41
   02:32:17.803.28-Aug-2021 4891.00 7773.55 80.69 28.00  45.81 3240.41
   02:32:18.003.28-Aug-2021 4891.00 7772.65 80.69 28.00  46.01 3240.41
   02:32:18.203.28-Aug-2021 4891.00 7772.65 80.69 28.00  46.21 3240.41
   02:32:18.403.28-Aug-2021 4891.00 7774.45 80.69 28.00  46.41 3240.41
   02:32:18.603.28-Aug-2021 4891.00 7773.55 80.69 28.00  46.61 3240.41
   02:32:18.803.28-Aug-2021 4891.00 7772.70 80.69 28.00  46.81 3240.41
   02:32:19.003.28-Aug-2021 4891.00 7773.20 80.69 28.00  47.01 3240.41
   02:32:19.203.28-Aug-2021 4891.00 7773.20 80.69 28.00  47.21 3240.41
   02:32:19.403.28-Aug-2021 4891.00 7770.57 80.69 28.00  47.41 3240.41
   02:32:19.603.28-Aug-2021 4891.00 7774.40 80.69 28.00  47.61 3240.41
   02:32:19.803.28-Aug-2021 4891.00 7773.41 80.69 28.00  47.82 3240.41
   02:32:20.003.28-Aug-2021 4891.00 7773.28 80.69 28.00  48.02 3240.41
   02:32:20.204.28-Aug-2021 4891.00 7773.28 80.69 28.00  48.22 3240.41
   02:32:20.404.28-Aug-2021 4891.00 7774.76 80.69 28.00  48.42 3240.41
   02:32:20.604.28-Aug-2021 4891.00 7774.00 80.69 28.00  48.62 3240.41
   02:32:20.804.28-Aug-2021 4891.00 7774.56 80.69 28.00  48.82 3240.41
   02:32:21.004.28-Aug-2021 4891.00 7773.85 80.69 28.00  49.02 3240.41
   02:32:21.204.28-Aug-2021 4891.00 7773.85 80.69 28.00  49.22 3240.41
   02:32:21.404.28-Aug-2021 4891.00 7773.75 80.69 28.00  49.42 3240.41
   02:32:21.604.28-Aug-2021 4891.00 7774.02 80.69 28.00  49.62 3240.41
   02:32:21.804.28-Aug-2021 4891.00 7773.73 80.69 28.00  49.82 3240.41
   02:32:22.004.28-Aug-2021 4891.00 7773.98 80.69 28.00  50.02 3240.41
   02:32:22.204.28-Aug-2021 4891.00 7773.98 80.69 28.00  50.22 3240.41
   02:32:22.404.28-Aug-2021 4891.00 7774.40 80.69 28.00  50.42 3240.41
   02:32:22.604.28-Aug-2021 4891.00 7774.51 80.69 28.00  50.62 3240.41
   02:32:22.804.28-Aug-2021 4891.00 7774.57 80.69 28.00  50.82 3240.41
   02:32:23.004.28-Aug-2021 4891.00 7774.60 80.69 28.00  51.02 3240.41
   02:32:23.204.28-Aug-2021 4891.00 7774.60 80.69 28.00  51.22 3240.41
   02:32:23.405.28-Aug-2021 4891.00 7774.78 80.69 28.00  51.42 3240.41
   02:32:23.605.28-Aug-2021 4891.00 7777.83 80.69 28.00  51.62 3240.41
   02:32:23.805.28-Aug-2021 4891.00 7775.21 80.69 28.00  51.82 3240.41
   02:32:24.005.28-Aug-2021 4891.00 7776.26 80.69 28.00  52.02 3240.41
   02:32:24.205.28-Aug-2021 4891.00 7776.26 80.69 28.00  52.22 3240.41
   02:32:24.405.28-Aug-2021 4891.00 7775.30 80.69 28.00  52.42 3240.41
   02:32:24.605.28-Aug-2021 4891.00 7775.24 80.69 28.00  52.62 3240.41
   02:32:24.805.28-Aug-2021 4891.00 7775.43 80.69 28.00  52.82 3240.41
   02:32:25.005.28-Aug-2021 4891.00 7775.33 80.69 28.00  53.02 3240.41
   02:32:25.205.28-Aug-2021 4891.00 7775.33 80.69 28.00  53.22 3240.41
   02:32:25.405.28-Aug-2021 4891.00 7776.26 80.69 28.00  53.42 3240.41
   02:32:25.605.28-Aug-2021 4891.00 7776.20 80.69 28.00  53.62 3240.41
   02:32:25.805.28-Aug-2021 4891.00 7776.46 80.69 28.00  53.82 3240.41
   02:32:26.005.28-Aug-2021 4891.00 7776.46 80.69 28.00  54.02 3240.41
   02:32:26.205.28-Aug-2021 4891.00 7776.46 80.69 28.00  54.22 3240.41
   02:32:26.405.28-Aug-2021 4891.00 7776.55 80.69 28.00  54.42 3240.41
   02:32:26.606.28-Aug-2021 4891.00 7776.30 80.69 28.00  54.62 3240.41
   02:32:26.806.28-Aug-2021 4891.00 7776.39 80.69 28.00  54.82 3240.41
   02:32:27.006.28-Aug-2021 4891.00 7779.32 80.69 28.00  55.02 3240.41
   02:32:27.206.28-Aug-2021 4891.00 7779.32 80.69 28.00  55.22 3240.41
   02:32:27.406.28-Aug-2021 4891.00 7777.71 80.69 28.00  55.42 3240.41
   02:32:27.606.28-Aug-2021 4891.00 7776.96 80.69 28.00  55.62 3240.41
   02:32:27.806.28-Aug-2021 4891.00 7781.32 80.69 28.00  55.82 3240.41
   02:32:28.006.28-Aug-2021 4891.00 7774.50 80.69 28.00  56.02 3240.41
   02:32:28.206.28-Aug-2021 4891.00 7774.50 80.69 28.00  56.22 3240.41
   02:32:28.406.28-Aug-2021 4891.00 7776.47 80.69 28.00  56.42 3240.41
   02:32:28.606.28-Aug-2021 4891.00 7776.60 80.68 28.00  56.62 3240.41
   02:32:28.806.28-Aug-2021 4891.00 7776.92 80.68 28.00  56.82 3240.41
   02:32:29.006.28-Aug-2021 4891.00 7778.40 80.68 28.00  57.02 3240.41
   02:32:29.206.28-Aug-2021 4891.00 7778.40 80.68 28.00  57.22 3240.41
   02:32:29.406.28-Aug-2021 4891.00 7777.73 80.68 28.00  57.42 3240.41
   02:32:29.606.28-Aug-2021 4891.00 7777.89 80.68 28.00  57.62 3240.41
   02:32:29.807.28-Aug-2021 4891.00 7777.56 80.68 28.00  57.82 3240.41
   02:32:30.007.28-Aug-2021 4891.00 7777.46 80.68 28.00  58.02 3240.41
   02:32:30.207.28-Aug-2021 4891.00 7777.46 80.68 28.00  58.22 3240.41
   02:32:30.407.28-Aug-2021 4891.00 7777.06 80.68 28.00  58.42 3240.41
   02:32:30.607.28-Aug-2021 4891.00 7775.11 80.68 28.00  58.62 3240.41
   02:32:30.807.28-Aug-2021 4891.00 7778.43 80.68 28.00  58.82 3240.41
   02:32:31.007.28-Aug-2021 4891.00 7778.06 80.68 28.00  59.02 3240.41
   02:32:31.207.28-Aug-2021 4891.00 7778.06 80.68 28.00  59.22 3240.41
   02:32:31.407.28-Aug-2021 4891.00 7777.79 80.68 28.00  59.42 3240.41
   02:32:31.607.28-Aug-2021 4891.00 7777.66 80.68 28.00  59.62 3240.41
   02:32:31.807.28-Aug-2021 4891.00 7777.23 80.68 28.00  59.82 3240.41
   02:32:32.007.28-Aug-2021 4891.00 7777.82 80.68 28.00  60.02 3240.41
   02:32:32.207.28-Aug-2021 4891.00 7777.82 80.68 28.00  60.22 3240.41
   02:32:32.407.28-Aug-2021 4891.00 7778.19 80.68 28.00  60.42 3240.41
   02:32:32.607.28-Aug-2021 4891.00 7778.53 80.68 28.00  60.62 3240.41
   02:32:32.807.28-Aug-2021 4891.00 7778.46 80.68 28.00  60.82 3240.41
   02:32:33.008.28-Aug-2021 4891.00 7778.44 80.68 28.00  61.02 3240.41
   02:32:33.208.28-Aug-2021 4891.00 7778.44 80.68 28.00  61.22 3240.41
   02:32:33.408.28-Aug-2021 4891.00 7778.54 80.68 28.00  61.42 3240.41
   02:32:33.608.28-Aug-2021 4891.00 7783.63 80.68 28.00  61.62 3240.41
   02:32:33.808.28-Aug-2021 4891.00 7776.43 80.68 28.00  61.82 3240.41
   02:32:34.008.28-Aug-2021 4891.00 7779.86 80.68 28.00  62.02 3240.41
   02:32:34.208.28-Aug-2021 4891.00 7779.86 80.68 28.00  62.22 3240.41
   02:32:34.408.28-Aug-2021 4891.00 7778.61 80.68 28.00  62.42 3240.41
   02:32:34.608.28-Aug-2021 4891.00 7778.66 80.68 28.00  62.62 3240.41
   02:32:34.808.28-Aug-2021 4891.00 7778.38 80.68 28.00  62.82 3240.41
   02:32:35.008.28-Aug-2021 4891.00 7778.54 80.68 28.00  63.02 3240.41
   02:32:35.208.28-Aug-2021 4891.00 7778.54 80.68 28.00  63.22 3240.41
   02:32:35.408.28-Aug-2021 4891.00 7779.02 80.68 28.00  63.42 3240.41
   02:32:35.608.28-Aug-2021 4891.00 7779.43 80.68 28.00  63.62 3240.41
   02:32:35.808.28-Aug-2021 4891.00 7779.67 80.68 28.00  63.82 3240.41
   02:32:36.008.28-Aug-2021 4891.00 7779.81 80.68 28.00  64.02 3240.41
   02:32:36.209.28-Aug-2021 4891.00 7779.81 80.68 28.00  64.22 3240.41
   02:32:36.409.28-Aug-2021 4891.00 7779.69 80.68 28.00  64.42 3240.41
   02:32:36.609.28-Aug-2021 4891.00 7779.55 80.68 28.00  64.62 3240.41
   02:32:36.809.28-Aug-2021 4891.00 7779.61 80.68 28.00  64.82 3240.41
   02:32:37.009.28-Aug-2021 4891.00 7784.44 80.68 28.00  65.02 3240.41
   02:32:37.209.28-Aug-2021 4891.00 7784.44 80.68 28.00  65.22 3240.41
   02:32:37.409.28-Aug-2021 4891.00 7780.78 80.68 28.00  65.42 3240.41
   02:32:37.609.28-Aug-2021 4891.00 7779.67 80.68 28.00  65.62 3240.41
   02:32:37.809.28-Aug-2021 4891.00 7779.66 80.68 28.00  65.82 3240.41
   02:32:38.009.28-Aug-2021 4891.00 7784.60 80.68 28.00  66.02 3240.41
   02:32:38.209.28-Aug-2021 4891.00 7784.60 80.68 28.00  66.22 3240.41
   02:32:38.409.28-Aug-2021 4891.00 7777.35 80.68 28.00  66.42 3240.41
   02:32:38.609.28-Aug-2021 4891.00 7780.12 80.68 28.00  66.62 3240.41
   02:32:38.809.28-Aug-2021 4891.00 7779.75 80.68 28.00  66.82 3240.41
   02:32:39.009.28-Aug-2021 4891.00 7780.33 80.68 28.00  67.02 3240.41
   02:32:39.209.28-Aug-2021 4891.00 7780.33 80.68 28.00  67.22 3240.41
   02:32:39.410.28-Aug-2021 4891.00 7780.08 80.68 28.00  67.42 3240.41
   02:32:39.610.28-Aug-2021 4891.00 7781.51 80.68 28.00  67.62 3240.41
