~Version Information
 VERS.                  2.0:   CWLS log ASCII Standard -VERSION 2.0
 WRAP.                   NO:   One line per depth step
~Well Information Block
#MNEM.UNIT     VALUE/NAME     DESCRIPTION
#---------     -----------    ---------------------------
 STRT.S             05:44:14 27-Aug-21: START TIME 05:44:14 27-Aug-21
 STOP.S             05:51:24 27-Aug-21: STOP TIME  05:51:24 27-Aug-21
 STEP.S                   0.00: STEP TIME
 NULL.                 -999.25: NULL VALUE
 DFWT.                        :  DIST FWL TEXT
 DFST.                        :  DIST FSL TEXT
 DMF .             Drill Floor:  DRILL MEAS FROM
 STIM.      20.00.00 17-Aug-21:  START TIME
 DATE.      19.00.00 29-Aug-21:  END TIME
 SPUD.               15-Aug-21:  SPUD DATE
 NREF.                    Grid:  NORTH REFERENCE
 HPTY.       Minimum Curvature:  HOLE POS TYPE
 DMOD.             Drill Model:  DRILL MOD DESC
 SVYD.                  Survey:  SURVEY DESC
 ILTD.               Lithology:  INTERP LTH DESC
 FTOP.          Formation Tops:  FORM TOPS DESC
 RIG .              East Azeri:  RIG NAME
 PDAT.          Mean Sea Level:  PERMANENT DATUM
 FLD .                     ACG:  FIELD NAME
 SON .        AZ-XX-0907180857:  JOB NUMBER
 CTRY.              Azerbaijan:  COUNTRY NAME
 WELL.                    D23x:  WELL NAME
 SRVC.     Turan Drilling and Engineering:  CONTRACTOR
 COMP.     BP Exploration (Caspian Sea) Ltd.:  COMPANY
 UWI .            /AZE00000214:  UNIQUE WELL IDENTIFIER
 API .            /AZE00000214:  API NUMBER
 MDS .        Operator Entered:  MAG DATA SOURCE
 BASE.              Azerbaijan:  LOGGING EQUIPMENT BASE LOCATION
 REGN.                   EESSA:  REGION
 PROV.                    Baku:  PROVINCE
 STAT.                    Baku:  STATE NAME
 MWDS.                    Baku:  MWD SHOP
 DOE .                     N/A:  DOE NUMBER
 DCON.         Sperry Drilling:  DIRECTNL CONTR
 UNIT.                     N/A:  LOGGING EQUIPMENT ID
 WTYP.                Deviated:  WELL TYPE
 CNTY.                        :  COUNTY
 LOC .                        :  LOCATION
 LMF .             Drill Floor:  LOG MEASURED FROM
 TVDS.m                  43.60:  TVDSS CORRECTN
 LATI.deg                40.02:  LATITUDE
 LONG.deg                51.45:  LONGITUDE
 WHNS.m                  -7.04:  WELL HEAD N/S
 WHEW.m                  -0.67:  WELL HEAD E/W
 UTMX.m              538762.90:  UTM X
 UTMY.m             4431871.34:  UTM Y
 DFWL.m                   0.00:  DISTANCE FWL
 DFSL.m                   0.00:  DISTANCE FSL
 SDEP.m                4127.00:  START DEPTH
 TDD .m                5084.50:  TOTAL DEPTH (DRILLER)
 VSDR.deg               140.47:  VERT SEC DIRECT
 GVFD.g                   1.00:  GRAVITY FIELD
 MFLD.nT              50362.00:  MAGNETIC FIELD
 MDIP.deg                59.48:  MAGNETIC DIP
 MDEC.deg                 6.47:  MAGNETIC DECL
 GRDC.deg                 0.31:  GRID CORRECTION
 AZTC.deg                 6.16:  AZM TOTAL CORR
 EPD .m                   0.00:  ELEVATION
 EGL .m                   0.00:  GROUND ELEVATION
 WDMS.m                 151.80:  WD ELEV
 APD .m                  43.60:  DEPTH ABOVE PD
 DEP .m                4092.57:  DEPTH
 AGAP.m                  43.60:  AIR GAP
 VSEW.m                  -0.67:  VERT SEC E/W
 VSNS.m                  -7.04:  VERT SEC N/S
 EKB .m                  43.60:  KB ELEVATION
 EDF .m                  43.60:  DF ELEVATION
 TDL .m                 957.50:  TOTAL DEPTH (LOGGER)
 VSC .                       0:  VS TO CLOSURE
 MAGU.                 1851413:  MAGUTM CHECKSUM
~Parameter Information Block
#MNEM.UNIT       Value        Description
#---------     -----------    ---------------------------
 AV  .mps                 1.50:  Ann Velocity 
 AVMX.mps                 2.00:  Max Ann Veloc 
 AZIF.deg               184.66:  Azm, Final 
 BHAT.        Rotary Steerable:  BHA Type 
 BREV.rev               300.00:  Rev Bit Total 
 BROT.°/30m              -0.50:  Build Rotating 
 BS  .in                  8.50:  Bit Size 
 BSZ .in                  8.50:  Bit Size 
 BTPL.psig              370.00:  Bit Press Loss 
 CABU.                      No:  Customer Abuse 
 CGEO.      Behruz Shahbaliyev:  Customer Geo 
 COMM.                     ä=U:  Run Comments 1 
 TCS .hr                140.08:  Time Ciculation Ended 
 CV  .mps                 3.00:  Crit Velocity 
 CVMX.mps                 3.20:  Max Crit Veloc 
 DD1 .            Musa Ahmadov:  Direct Drillr 1 
 DD2 .           Hamid Ahmadov:  Direct Drillr 2 
 DDSV.               Geo-Pilot:  DD Service 
 DEFF.%                  98.40:  % Det Eff 
 DLRX.°/30m               3.40:  Dogleg Rot Max 
 DLSO.°/30m               1.45:  Dogleg Oriented 
 DLSX.°/30m               3.40:  Dogleg Str Max 
 DRET.      18.40.00 29-Aug-21:  Drill End Time 
 DRST.      21.00.00 20-Aug-21:  Drill Start Tim 
 DTIM.hr                 69.47:  Time Drilling 
 EDEP.m                5084.50:  End Depth 
 ENG1.      Artemiy Matviyanov:  Engineer 1 
 ENG2.         Almaz Almadatov:  Engineer 2 
 ETIM.      18.40.00 29-Aug-21:  End Time 
 FLOI.gpm               500.00:  Flow In 
 FLON.gpm               400.00:  Flow In Min 
 FLOS.cptm                0.00:  Fluid Loss 
 FLOX.gpm               500.00:  Flow In Max 
 DFT .        Mineral Oil Base:  Mud Type 
 HFLO.                      No:  High Flow 
 HPRE.                      No:  High Pressure 
 HTEM.                      No:  High Temp 
 HYDO.m                   1.80:  Hydro Offset 
 IFIN.deg                25.62:  Inc, Final 
 IMAX.deg                48.69:  Inc Max 
 IMIN.deg                24.01:  Inc Min 
 IMND.m                4962.57:  Inc Min Depth 
 IMXD.m                4119.01:  Inc Max Depth 
 JARR.                      No:  Jarring 
 LETM.      18.40.00 29-Aug-21:  Log End Time 
 LOST.hr                     0:  Lost Rig Time 
 LSTM.      21.00.00 20-Aug-21:  Log Start Time 
 MDCL.ppm             41500.00:  Mud Chlorides 
 MDES.     Inversion Oil/Synthetic:  Mud Desc 
 DFD .sg                  1.56:  Mud Density 
 MDMN.sg                  1.56:  Dens Mud Min 
 MDMX.sg                  1.56:  Dens Mud Max 
 MOIL.                      70:  Run Mud Oil % 
 MOWR.                   70:30:  Run Mud OWR 
 MSND.                     0.2:  Run Mud Sand % 
 MSOL.                    23.3:  Run Mud Solids% 
 DFV .spqt               78.00:  Mud Viscosity 
 MWOD.in                  6.75:  MWD Tool OD 
 MWSI.                      No:  Serv Intrp, MWD 
 OTIM.hr                218.30:  Time Operating 
 PCON.           Look Like New:  Pad Condition 
 PMAX.psia            11015.30:  Press Op, Max 
 PV  .cP                 38.00:  Mud PV 
 RUN .                     300:  Run Number 
 ROPA.m/hr               15.00:  ROP Avg 
 ROPN.m/hr                9.00:  ROP Min 
 ROPX.m/hr               17.00:  ROP Max 
 RPMA.rpm               120.00:  RPM Surface Avg 
 RPMN.rpm                90.00:  RPM Surface Min 
 RPMX.rpm               140.00:  RPM Surface Max 
 RRUN.                     300:  Rig Run Number 
 RTIM.hr                 31.53:  Time Reaming 
 SAZI.deg               331.64:  Azm, Start 
 SDEP.m                4127.00:  Start Depth 
 SIDD.                      No:  Serv Intrp, DD 
 SINC.deg                48.43:  Inc, Start 
 SPPA.psig             5830.00:  SPP Avg 
 SPPN.psig             5600.00:  SPP Min 
 SPPX.psig             5900.00:  SPP Max 
 STIM.      21.00.00 20-Aug-21:  Start Time 
 SVCS.                 DD, MWD:  Services 
 SVER.                    9.20:  Sperry Version 
 TDAT.m                 957.50:  Tot Depth Attmp 
 TDDF.                      No:  Trip for DD 
 TDLG.m                 957.50:  Tot Depth Loggd 
 TFF .                      No:  Trip for Fail 
 TQAA.f-kp               15.00:  Torque Abs Avg 
 TQAN.f-kp               12.00:  Torque Abs Min 
 TQAX.f-kp               19.00:  Torque Abs Max 
 TRRT.°/30m              -3.40:  Turn Rotating 
 MRT .                  EWR-M5:  Maximum Recorded Temperature 
 TTMX.degC              100.00:  Max Tool Temp 
 VS01.                90639251:  Virtual Str1 SN 
 VS02.                90634715:  Virtual Str2 SN 
 VS03.                90652479:  Virtual Str3 SN 
 VS04.                90642262:  Virtual Str4 SN 
 WBMN.klb                 0.00:  WOB Min 
 WITN.           Murad Guliyev:  Customer Rep 
 WITN.          Yashar Gaziyev:  Customer Rep 2 
 WOBA.klb                 9.00:  WOB Avg 
 WOBX.klb                12.00:  WOB Max 
 YP  .lhf2               30.00:  Yield Point 
~Curve Information Block
#MNEM.UNIT                 API CODE     Curve Description
#---------               -----------    ---------------------------
 TIME.HHMMSS            00 000 000 000:  GT Time & Date
 GTDEPTH.m              00 000 000 000:  GT Depth
 GTPQH.psia             00 000 000 000:  GT HR Quartz Pressure
 GTTQ.degC              00 000 000 000:  GT Quartz Temperature
 GTTN.NONE              00 000 000 000:  GT Test Number
 GTET.sec               00 000 000 000:  GT Elapsed Test Time
 GTTVD.m                00 000 000 000:  GT True Vertical Depth
#Other Information
#
#WARRANTY: Halliburton will use its best efforts to furnish customers with 
#accurate information and interpretations that are part of, and incident to, the services 
#provided.  However, Halliburton cannot and does not warrant the accuracy 
#or correctness of such information and interpretations.  Under no circumstances should any 
#such information or interpretation be relied upon as the sole basis for any drilling, 
#completion, production, or financial decision or any procedure involving any risk to the 
#safety of any drilling venture, drilling rig or its crew or any other third party.  The 
#Customer has full responsibility for all drilling, completion and production operation.  
#Halliburton makes no representations or warranties, either expressed or 
#implied, including, but not limited to, the implied warranties of merchantability or fitness 
#for a particular purpose, with respect to the services rendered.  In no event will 
#Halliburton be liable for failure to obtain any particular results or for 
#any damages, including, but not limited to, indirect, special or consequential damages, 
#resulting from the use of any information or interpretation provided by Halliburton.
#
~A           TIME           GTDEPTH  GTPQH  GTTQ  GTTN  GTET   GTTVD  
# ...
   05:50:22.382.27-Aug-2021 5021.00 7994.89 88.47 1.00 368.06 3358.56
   05:50:22.582.27-Aug-2021 5021.00 7994.89 88.47 1.00 368.26 3358.56
   05:50:22.782.27-Aug-2021 5021.00 7997.46 88.47 1.00 368.46 3358.56
   05:50:22.982.27-Aug-2021 5021.00 7995.03 88.47 1.00 368.66 3358.56
   05:50:23.183.27-Aug-2021 5021.00 7995.15 88.47 1.00 368.86 3358.56
   05:50:23.383.27-Aug-2021 5021.00 8003.19 88.47 1.00 369.06 3358.56
   05:50:23.583.27-Aug-2021 5021.00 8003.19 88.47 1.00 369.26 3358.56
   05:50:23.783.27-Aug-2021 5021.00 7995.08 88.47 1.00 369.46 3358.56
   05:50:23.983.27-Aug-2021 5021.00 7995.35 88.47 1.00 369.66 3358.56
   05:50:24.183.27-Aug-2021 5021.00 7994.60 88.47 1.00 369.86 3358.56
   05:50:24.383.27-Aug-2021 5021.00 7994.76 88.47 1.00 370.06 3358.56
   05:50:24.583.27-Aug-2021 5021.00 7994.76 88.47 1.00 370.26 3358.56
   05:50:24.783.27-Aug-2021 5021.00 7995.49 88.47 1.00 370.46 3358.56
   05:50:24.983.27-Aug-2021 5021.00 7995.60 88.47 1.00 370.66 3358.56
   05:50:25.183.27-Aug-2021 5021.00 7995.18 88.47 1.00 370.86 3358.56
   05:50:25.383.27-Aug-2021 5021.00 7995.91 88.47 1.00 371.06 3358.56
   05:50:25.583.27-Aug-2021 5021.00 7995.91 88.47 1.00 371.26 3358.56
   05:50:25.783.27-Aug-2021 5021.00 7996.75 88.47 1.00 371.46 3358.56
   05:50:25.983.27-Aug-2021 5021.00 7996.41 88.47 1.00 371.66 3358.56
   05:50:26.183.27-Aug-2021 5021.00 7996.04 88.47 1.00 371.86 3358.56
   05:50:26.383.27-Aug-2021 5021.00 7995.90 88.47 1.00 372.06 3358.56
   05:50:26.583.27-Aug-2021 5021.00 7995.90 88.47 1.00 372.26 3358.56
   05:50:26.783.27-Aug-2021 5021.00 7996.34 88.47 1.00 372.46 3358.56
   05:50:26.983.27-Aug-2021 5021.00 7996.10 88.47 1.00 372.66 3358.56
   05:50:27.183.27-Aug-2021 5021.00 7995.30 88.47 1.00 372.86 3358.56
   05:50:27.383.27-Aug-2021 5021.00 7996.52 88.47 1.00 373.06 3358.56
   05:50:27.583.27-Aug-2021 5021.00 7996.52 88.47 1.00 373.26 3358.56
   05:50:27.783.27-Aug-2021 5021.00 7996.16 88.47 1.00 373.46 3358.56
   05:50:27.983.27-Aug-2021 5021.00 7994.45 88.47 1.00 373.66 3358.56
   05:50:28.183.27-Aug-2021 5021.00 7995.19 88.47 1.00 373.86 3358.56
   05:50:28.383.27-Aug-2021 5021.00 7994.78 88.47 1.00 374.06 3358.56
   05:50:28.583.27-Aug-2021 5021.00 7994.78 88.47 1.00 374.26 3358.56
   05:50:28.783.27-Aug-2021 5021.00 7996.39 88.47 1.00 374.46 3358.56
   05:50:28.983.27-Aug-2021 5021.00 7996.97 88.47 1.00 374.66 3358.56
   05:50:29.184.27-Aug-2021 5021.00 7996.50 88.47 1.00 374.86 3358.56
   05:50:29.384.27-Aug-2021 5021.00 7996.37 88.47 1.00 375.06 3358.56
   05:50:29.584.27-Aug-2021 5021.00 7996.37 88.47 1.00 375.26 3358.56
   05:50:29.784.27-Aug-2021 5021.00 7995.70 88.47 1.00 375.46 3358.56
   05:50:29.984.27-Aug-2021 5021.00 7995.77 88.47 1.00 375.66 3358.56
   05:50:30.184.27-Aug-2021 5021.00 7999.03 88.47 1.00 375.86 3358.56
   05:50:30.384.27-Aug-2021 5021.00 7997.40 88.47 1.00 376.06 3358.56
   05:50:30.584.27-Aug-2021 5021.00 7997.40 88.47 1.00 376.26 3358.56
   05:50:30.784.27-Aug-2021 5021.00 7994.87 88.47 1.00 376.46 3358.56
   05:50:30.984.27-Aug-2021 5021.00 7994.72 88.47 1.00 376.66 3358.56
   05:50:31.184.27-Aug-2021 5021.00 7998.96 88.47 1.00 376.86 3358.56
   05:50:31.384.27-Aug-2021 5021.00 7996.35 88.47 1.00 377.06 3358.56
   05:50:31.584.27-Aug-2021 5021.00 7996.35 88.47 1.00 377.26 3358.56
   05:50:31.784.27-Aug-2021 5021.00 7994.48 88.47 1.00 377.46 3358.56
   05:50:31.984.27-Aug-2021 5021.00 7994.48 88.47 1.00 377.66 3358.56
   05:50:32.184.27-Aug-2021 5021.00 7999.70 88.47 1.00 377.86 3358.56
   05:50:32.384.27-Aug-2021 5021.00 7997.07 88.47 1.00 378.06 3358.56
   05:50:32.584.27-Aug-2021 5021.00 7997.07 88.47 1.00 378.26 3358.56
   05:50:32.784.27-Aug-2021 5021.00 7994.71 88.47 1.00 378.46 3358.56
   05:50:32.984.27-Aug-2021 5021.00 8002.83 88.47 1.00 378.66 3358.56
   05:50:33.184.27-Aug-2021 5021.00 7993.58 88.47 1.00 378.86 3358.56
   05:50:33.384.27-Aug-2021 5021.00 7994.62 88.47 1.00 379.06 3358.56
   05:50:33.584.27-Aug-2021 5021.00 7994.62 88.47 1.00 379.26 3358.56
   05:50:33.784.27-Aug-2021 5021.00 7994.96 88.46 1.00 379.46 3358.56
   05:50:33.984.27-Aug-2021 5021.00 7994.38 88.46 1.00 379.66 3358.56
   05:50:34.184.27-Aug-2021 5021.00 7995.39 88.46 1.00 379.86 3358.56
   05:50:34.384.27-Aug-2021 5021.00 7995.15 88.46 1.00 380.06 3358.56
   05:50:34.584.27-Aug-2021 5021.00 7995.15 88.46 1.00 380.26 3358.56
   05:50:34.784.27-Aug-2021 5021.00 7994.77 88.46 1.00 380.46 3358.56
   05:50:34.984.27-Aug-2021 5021.00 7995.47 88.46 1.00 380.66 3358.56
   05:50:35.184.27-Aug-2021 5021.00 7996.43 88.46 1.00 380.86 3358.56
   05:50:35.385.27-Aug-2021 5021.00 7996.83 88.46 1.00 381.06 3358.56
   05:50:35.585.27-Aug-2021 5021.00 7996.83 88.46 1.00 381.26 3358.56
   05:50:35.785.27-Aug-2021 5021.00 7996.13 88.46 1.00 381.46 3358.56
   05:50:35.985.27-Aug-2021 5021.00 7995.82 88.46 1.00 381.66 3358.56
   05:50:36.185.27-Aug-2021 5021.00 7999.68 88.46 1.00 381.86 3358.56
   05:50:36.385.27-Aug-2021 5021.00 7996.05 88.46 1.00 382.06 3358.56
   05:50:36.585.27-Aug-2021 5021.00 7996.05 88.46 1.00 382.26 3358.56
   05:50:36.785.27-Aug-2021 5021.00 7994.90 88.46 1.00 382.46 3358.56
   05:50:36.985.27-Aug-2021 5021.00 7994.67 88.46 1.00 382.66 3358.56
   05:50:37.185.27-Aug-2021 5021.00 7994.58 88.46 1.00 382.86 3358.56
   05:50:37.385.27-Aug-2021 5021.00 7994.97 88.46 1.00 383.06 3358.56
   05:50:37.585.27-Aug-2021 5021.00 7994.97 88.46 1.00 383.26 3358.56
   05:50:37.785.27-Aug-2021 5021.00 7994.60 88.46 1.00 383.46 3358.56
   05:50:37.985.27-Aug-2021 5021.00 7994.54 88.46 1.00 383.66 3358.56
   05:50:38.185.27-Aug-2021 5021.00 7995.31 88.46 1.00 383.86 3358.56
   05:50:38.385.27-Aug-2021 5021.00 7996.11 88.46 1.00 384.06 3358.56
   05:50:38.585.27-Aug-2021 5021.00 7996.11 88.46 1.00 384.26 3358.56
   05:50:38.785.27-Aug-2021 5021.00 7996.21 88.46 1.00 384.46 3358.56
   05:50:38.985.27-Aug-2021 5021.00 7996.17 88.46 1.00 384.66 3358.56
   05:50:39.185.27-Aug-2021 5021.00 7995.76 88.46 1.00 384.86 3358.56
   05:50:39.385.27-Aug-2021 5021.00 7995.62 88.46 1.00 385.06 3358.56
   05:50:39.585.27-Aug-2021 5021.00 7995.62 88.46 1.00 385.26 3358.56
   05:50:39.785.27-Aug-2021 5021.00 7998.76 88.46 1.00 385.46 3358.56
   05:50:39.985.27-Aug-2021 5021.00 7997.02 88.46 1.00 385.66 3358.56
   05:50:40.185.27-Aug-2021 5021.00 7994.49 88.46 1.00 385.86 3358.56
   05:50:40.385.27-Aug-2021 5021.00 7994.87 88.46 1.00 386.06 3358.56
   05:50:40.585.27-Aug-2021 5021.00 7994.87 88.46 1.00 386.26 3358.56
   05:50:40.785.27-Aug-2021 5021.00 7999.09 88.46 1.00 386.46 3358.56
   05:50:40.985.27-Aug-2021 5021.00 7996.27 88.46 1.00 386.66 3358.56
   05:50:41.185.27-Aug-2021 5021.00 7994.24 88.46 1.00 386.86 3358.56
   05:50:41.386.27-Aug-2021 5021.00 7994.47 88.46 1.00 387.06 3358.56
   05:50:41.586.27-Aug-2021 5021.00 7994.47 88.46 1.00 387.26 3358.56
   05:50:41.786.27-Aug-2021 5021.00 7999.92 88.46 1.00 387.46 3358.56
   05:50:41.986.27-Aug-2021 5021.00 7997.08 88.46 1.00 387.66 3358.56
   05:50:42.186.27-Aug-2021 5021.00 7995.05 88.46 1.00 387.86 3358.56
   05:50:42.386.27-Aug-2021 5021.00 7994.71 88.46 1.00 388.06 3358.56
   05:50:42.586.27-Aug-2021 5021.00 7994.71 88.46 1.00 388.26 3358.56
   05:50:42.786.27-Aug-2021 5021.00 7994.71 88.46 1.00 388.46 3358.56
   05:50:42.986.27-Aug-2021 5021.00 7994.82 88.46 1.00 388.66 3358.56
   05:50:43.186.27-Aug-2021 5021.00 7994.85 88.46 1.00 388.86 3358.56
   05:50:43.386.27-Aug-2021 5021.00 7994.08 88.46 1.00 389.06 3358.56
   05:50:43.586.27-Aug-2021 5021.00 7994.08 88.46 1.00 389.26 3358.56
   05:50:43.786.27-Aug-2021 5021.00 7995.17 88.46 1.00 389.46 3358.56
   05:50:43.986.27-Aug-2021 5021.00 7995.06 88.46 1.00 389.66 3358.56
   05:50:44.186.27-Aug-2021 5021.00 7994.86 88.46 1.00 389.86 3358.56
   05:50:44.386.27-Aug-2021 5021.00 7994.79 88.46 1.00 390.06 3358.56
   05:50:44.586.27-Aug-2021 5021.00 7994.79 88.46 1.00 390.26 3358.56
   05:50:44.786.27-Aug-2021 5021.00 7996.20 88.46 1.00 390.46 3358.56
   05:50:44.986.27-Aug-2021 5021.00 7996.48 88.46 1.00 390.66 3358.56
   05:50:45.186.27-Aug-2021 5021.00 7995.89 88.46 1.00 390.86 3358.56
