~Version Information
 VERS.                  2.0:   CWLS log ASCII Standard -VERSION 2.0
 WRAP.                   NO:   One line per depth step
~Well Information Block
#MNEM.UNIT     VALUE/NAME     DESCRIPTION
#---------     -----------    ---------------------------
 STRT.S             13:07:39 27-Aug-21: START TIME 13:07:39 27-Aug-21
 STOP.S             13:14:54 27-Aug-21: STOP TIME  13:14:54 27-Aug-21
 STEP.S                   0.00: STEP TIME
 NULL.                 -999.25: NULL VALUE
 DFWT.                        :  DIST FWL TEXT
 DFST.                        :  DIST FSL TEXT
 DMF .             Drill Floor:  DRILL MEAS FROM
 STIM.      20.00.00 17-Aug-21:  START TIME
 DATE.      19.00.00 29-Aug-21:  END TIME
 SPUD.               15-Aug-21:  SPUD DATE
 NREF.                    Grid:  NORTH REFERENCE
 HPTY.       Minimum Curvature:  HOLE POS TYPE
 DMOD.             Drill Model:  DRILL MOD DESC
 SVYD.                  Survey:  SURVEY DESC
 ILTD.               Lithology:  INTERP LTH DESC
 FTOP.          Formation Tops:  FORM TOPS DESC
 RIG .              East Azeri:  RIG NAME
 PDAT.          Mean Sea Level:  PERMANENT DATUM
 FLD .                     ACG:  FIELD NAME
 SON .        AZ-XX-0907180857:  JOB NUMBER
 CTRY.              Azerbaijan:  COUNTRY NAME
 WELL.                    D23x:  WELL NAME
 SRVC.     Turan Drilling and Engineering:  CONTRACTOR
 COMP.     BP Exploration (Caspian Sea) Ltd.:  COMPANY
 UWI .            /AZE00000214:  UNIQUE WELL IDENTIFIER
 API .            /AZE00000214:  API NUMBER
 MDS .        Operator Entered:  MAG DATA SOURCE
 BASE.              Azerbaijan:  LOGGING EQUIPMENT BASE LOCATION
 REGN.                   EESSA:  REGION
 PROV.                    Baku:  PROVINCE
 STAT.                    Baku:  STATE NAME
 MWDS.                    Baku:  MWD SHOP
 DOE .                     N/A:  DOE NUMBER
 DCON.         Sperry Drilling:  DIRECTNL CONTR
 UNIT.                     N/A:  LOGGING EQUIPMENT ID
 WTYP.                Deviated:  WELL TYPE
 CNTY.                        :  COUNTY
 LOC .                        :  LOCATION
 LMF .             Drill Floor:  LOG MEASURED FROM
 TVDS.m                  43.60:  TVDSS CORRECTN
 LATI.deg                40.02:  LATITUDE
 LONG.deg                51.45:  LONGITUDE
 WHNS.m                  -7.04:  WELL HEAD N/S
 WHEW.m                  -0.67:  WELL HEAD E/W
 UTMX.m              538762.90:  UTM X
 UTMY.m             4431871.34:  UTM Y
 DFWL.m                   0.00:  DISTANCE FWL
 DFSL.m                   0.00:  DISTANCE FSL
 SDEP.m                4127.00:  START DEPTH
 TDD .m                5084.50:  TOTAL DEPTH (DRILLER)
 VSDR.deg               140.47:  VERT SEC DIRECT
 GVFD.g                   1.00:  GRAVITY FIELD
 MFLD.nT              50362.00:  MAGNETIC FIELD
 MDIP.deg                59.48:  MAGNETIC DIP
 MDEC.deg                 6.47:  MAGNETIC DECL
 GRDC.deg                 0.31:  GRID CORRECTION
 AZTC.deg                 6.16:  AZM TOTAL CORR
 EPD .m                   0.00:  ELEVATION
 EGL .m                   0.00:  GROUND ELEVATION
 WDMS.m                 151.80:  WD ELEV
 APD .m                  43.60:  DEPTH ABOVE PD
 DEP .m                4092.57:  DEPTH
 AGAP.m                  43.60:  AIR GAP
 VSEW.m                  -0.67:  VERT SEC E/W
 VSNS.m                  -7.04:  VERT SEC N/S
 EKB .m                  43.60:  KB ELEVATION
 EDF .m                  43.60:  DF ELEVATION
 TDL .m                 957.50:  TOTAL DEPTH (LOGGER)
 VSC .                       0:  VS TO CLOSURE
 MAGU.                 1851413:  MAGUTM CHECKSUM
~Parameter Information Block
#MNEM.UNIT       Value        Description
#---------     -----------    ---------------------------
 AV  .mps                 1.50:  Ann Velocity 
 AVMX.mps                 2.00:  Max Ann Veloc 
 AZIF.deg               184.66:  Azm, Final 
 BHAT.        Rotary Steerable:  BHA Type 
 BREV.rev               300.00:  Rev Bit Total 
 BROT.°/30m              -0.50:  Build Rotating 
 BS  .in                  8.50:  Bit Size 
 BSZ .in                  8.50:  Bit Size 
 BTPL.psig              370.00:  Bit Press Loss 
 CABU.                      No:  Customer Abuse 
 CGEO.      Behruz Shahbaliyev:  Customer Geo 
 COMM.                     ¤R:  Run Comments 1 
 TCS .hr                140.08:  Time Ciculation Ended 
 CV  .mps                 3.00:  Crit Velocity 
 CVMX.mps                 3.20:  Max Crit Veloc 
 DD1 .            Musa Ahmadov:  Direct Drillr 1 
 DD2 .           Hamid Ahmadov:  Direct Drillr 2 
 DDSV.               Geo-Pilot:  DD Service 
 DEFF.%                  98.40:  % Det Eff 
 DLRX.°/30m               3.40:  Dogleg Rot Max 
 DLSO.°/30m               1.45:  Dogleg Oriented 
 DLSX.°/30m               3.40:  Dogleg Str Max 
 DRET.      18.40.00 29-Aug-21:  Drill End Time 
 DRST.      21.00.00 20-Aug-21:  Drill Start Tim 
 DTIM.hr                 69.47:  Time Drilling 
 EDEP.m                5084.50:  End Depth 
 ENG1.      Artemiy Matviyanov:  Engineer 1 
 ENG2.         Almaz Almadatov:  Engineer 2 
 ETIM.      18.40.00 29-Aug-21:  End Time 
 FLOI.gpm               500.00:  Flow In 
 FLON.gpm               400.00:  Flow In Min 
 FLOS.cptm                0.00:  Fluid Loss 
 FLOX.gpm               500.00:  Flow In Max 
 DFT .        Mineral Oil Base:  Mud Type 
 HFLO.                      No:  High Flow 
 HPRE.                      No:  High Pressure 
 HTEM.                      No:  High Temp 
 HYDO.m                   1.80:  Hydro Offset 
 IFIN.deg                25.62:  Inc, Final 
 IMAX.deg                48.69:  Inc Max 
 IMIN.deg                24.01:  Inc Min 
 IMND.m                4962.57:  Inc Min Depth 
 IMXD.m                4119.01:  Inc Max Depth 
 JARR.                      No:  Jarring 
 LETM.      18.40.00 29-Aug-21:  Log End Time 
 LOST.hr                     0:  Lost Rig Time 
 LSTM.      21.00.00 20-Aug-21:  Log Start Time 
 MDCL.ppm             41500.00:  Mud Chlorides 
 MDES.     Inversion Oil/Synthetic:  Mud Desc 
 DFD .sg                  1.56:  Mud Density 
 MDMN.sg                  1.56:  Dens Mud Min 
 MDMX.sg                  1.56:  Dens Mud Max 
 MOIL.                      70:  Run Mud Oil % 
 MOWR.                   70:30:  Run Mud OWR 
 MSND.                     0.2:  Run Mud Sand % 
 MSOL.                    23.3:  Run Mud Solids% 
 DFV .spqt               78.00:  Mud Viscosity 
 MWOD.in                  6.75:  MWD Tool OD 
 MWSI.                      No:  Serv Intrp, MWD 
 OTIM.hr                218.30:  Time Operating 
 PCON.           Look Like New:  Pad Condition 
 PMAX.psia            11015.30:  Press Op, Max 
 PV  .cP                 38.00:  Mud PV 
 RUN .                     300:  Run Number 
 ROPA.m/hr               15.00:  ROP Avg 
 ROPN.m/hr                9.00:  ROP Min 
 ROPX.m/hr               17.00:  ROP Max 
 RPMA.rpm               120.00:  RPM Surface Avg 
 RPMN.rpm                90.00:  RPM Surface Min 
 RPMX.rpm               140.00:  RPM Surface Max 
 RRUN.                     300:  Rig Run Number 
 RTIM.hr                 31.53:  Time Reaming 
 SAZI.deg               331.64:  Azm, Start 
 SDEP.m                4127.00:  Start Depth 
 SIDD.                      No:  Serv Intrp, DD 
 SINC.deg                48.43:  Inc, Start 
 SPPA.psig             5830.00:  SPP Avg 
 SPPN.psig             5600.00:  SPP Min 
 SPPX.psig             5900.00:  SPP Max 
 STIM.      21.00.00 20-Aug-21:  Start Time 
 SVCS.                 DD, MWD:  Services 
 SVER.                    9.20:  Sperry Version 
 TDAT.m                 957.50:  Tot Depth Attmp 
 TDDF.                      No:  Trip for DD 
 TDLG.m                 957.50:  Tot Depth Loggd 
 TFF .                      No:  Trip for Fail 
 TQAA.f-kp               15.00:  Torque Abs Avg 
 TQAN.f-kp               12.00:  Torque Abs Min 
 TQAX.f-kp               19.00:  Torque Abs Max 
 TRRT.°/30m              -3.40:  Turn Rotating 
 MRT .                  EWR-M5:  Maximum Recorded Temperature 
 TTMX.degC              100.00:  Max Tool Temp 
 VS01.                90639251:  Virtual Str1 SN 
 VS02.                90634715:  Virtual Str2 SN 
 VS03.                90652479:  Virtual Str3 SN 
 VS04.                90642262:  Virtual Str4 SN 
 WBMN.klb                 0.00:  WOB Min 
 WITN.           Murad Guliyev:  Customer Rep 
 WITN.          Yashar Gaziyev:  Customer Rep 2 
 WOBA.klb                 9.00:  WOB Avg 
 WOBX.klb                12.00:  WOB Max 
 YP  .lhf2               30.00:  Yield Point 
~Curve Information Block
#MNEM.UNIT                 API CODE     Curve Description
#---------               -----------    ---------------------------
 TIME.HHMMSS            00 000 000 000:  GT Time & Date
 GTDEPTH.m              00 000 000 000:  GT Depth
 GTPQH.psia             00 000 000 000:  GT HR Quartz Pressure
 GTTQ.degC              00 000 000 000:  GT Quartz Temperature
 GTTN.NONE              00 000 000 000:  GT Test Number
 GTET.sec               00 000 000 000:  GT Elapsed Test Time
 GTTVD.m                00 000 000 000:  GT True Vertical Depth
#Other Information
#
#WARRANTY: Halliburton will use its best efforts to furnish customers with 
#accurate information and interpretations that are part of, and incident to, the services 
#provided.  However, Halliburton cannot and does not warrant the accuracy 
#or correctness of such information and interpretations.  Under no circumstances should any 
#such information or interpretation be relied upon as the sole basis for any drilling, 
#completion, production, or financial decision or any procedure involving any risk to the 
#safety of any drilling venture, drilling rig or its crew or any other third party.  The 
#Customer has full responsibility for all drilling, completion and production operation.  
#Halliburton makes no representations or warranties, either expressed or 
#implied, including, but not limited to, the implied warranties of merchantability or fitness 
#for a particular purpose, with respect to the services rendered.  In no event will 
#Halliburton be liable for failure to obtain any particular results or for 
#any damages, including, but not limited to, indirect, special or consequential damages, 
#resulting from the use of any information or interpretation provided by Halliburton.
#
~A           TIME           GTDEPTH  GTPQH  GTTQ  GTTN   GTET   GTTVD  
   13:07:39.931.27-Aug-2021 4901.50 7719.09 85.09 13.00   0.00 3249.95
   13:07:40.131.27-Aug-2021 4901.50 7719.09 85.09 13.00   0.20 3249.95
   13:07:40.331.27-Aug-2021 4901.50 7716.94 85.09 13.00   0.40 3249.95
   13:07:40.532.27-Aug-2021 4901.50 7715.67 85.09 13.00   0.60 3249.95
   13:07:40.732.27-Aug-2021 4901.50 7715.35 85.09 13.00   0.80 3249.95
   13:07:40.932.27-Aug-2021 4901.50 7714.75 85.09 13.00   1.00 3249.95
   13:07:41.132.27-Aug-2021 4901.50 7714.75 85.09 13.00   1.20 3249.95
   13:07:41.332.27-Aug-2021 4901.50 7714.26 85.09 13.00   1.40 3249.95
   13:07:41.533.27-Aug-2021 4901.50 7713.78 85.09 13.00   1.60 3249.95
   13:07:41.733.27-Aug-2021 4901.50 7713.98 85.09 13.00   1.80 3249.95
   13:07:41.933.27-Aug-2021 4901.50 7714.61 85.09 13.00   2.00 3249.95
   13:07:42.133.27-Aug-2021 4901.50 7714.61 85.09 13.00   2.20 3249.95
   13:07:42.333.27-Aug-2021 4901.50 7718.84 85.09 13.00   2.40 3249.95
   13:07:42.534.27-Aug-2021 4901.50 7714.43 85.09 13.00   2.60 3249.95
   13:07:42.734.27-Aug-2021 4901.50 7716.78 85.08 13.00   2.80 3249.95
   13:07:42.934.27-Aug-2021 4901.50 7716.16 85.08 13.00   3.00 3249.95
   13:07:43.134.27-Aug-2021 4901.50 7716.16 85.08 13.00   3.20 3249.95
   13:07:43.334.27-Aug-2021 4901.50 7719.44 85.08 13.00   3.40 3249.95
   13:07:43.535.27-Aug-2021 4901.50 7715.51 85.08 13.00   3.60 3249.95
   13:07:43.735.27-Aug-2021 4901.50 7717.21 85.08 13.00   3.80 3249.95
   13:07:43.935.27-Aug-2021 4901.50 7716.44 85.08 13.00   4.00 3249.95
   13:07:44.135.27-Aug-2021 4901.50 7716.44 85.08 13.00   4.20 3249.95
   13:07:44.335.27-Aug-2021 4901.50 7716.83 85.08 13.00   4.40 3249.95
   13:07:44.536.27-Aug-2021 4901.50 7717.08 85.08 13.00   4.60 3249.95
   13:07:44.736.27-Aug-2021 4901.50 7721.14 85.08 13.00   4.80 3249.95
   13:07:44.936.27-Aug-2021 4901.50 7716.53 85.08 13.00   5.01 3249.95
   13:07:45.136.27-Aug-2021 4901.50 7716.53 85.08 13.00   5.21 3249.95
   13:07:45.336.27-Aug-2021 4901.50 7716.53 85.08 13.00   5.41 3249.95
   13:07:45.537.27-Aug-2021 4901.50 7721.55 85.08 13.00   5.61 3249.95
   13:07:45.737.27-Aug-2021 4901.50 7719.41 85.08 13.00   5.81 3249.95
   13:07:45.937.27-Aug-2021 4901.50 7719.85 85.08 13.00   6.01 3249.95
   13:07:46.137.27-Aug-2021 4901.50 7719.85 85.08 13.00   6.21 3249.95
   13:07:46.337.27-Aug-2021 4901.50 7722.34 85.08 13.00   6.41 3249.95
   13:07:46.538.27-Aug-2021 4901.50 7722.34 85.08 13.00   6.61 3249.95
   13:07:46.738.27-Aug-2021 4901.50 7720.76 85.08 13.00   6.81 3249.95
   13:07:46.938.27-Aug-2021 4901.50 7720.38 85.08 13.00   7.01 3249.95
   13:07:47.138.27-Aug-2021 4901.50 7720.38 85.08 13.00   7.21 3249.95
   13:07:47.338.27-Aug-2021 4901.50 7724.76 85.08 13.00   7.41 3249.95
   13:07:47.539.27-Aug-2021 4901.50 7720.70 85.08 13.00   7.61 3249.95
   13:07:47.739.27-Aug-2021 4901.50 7723.11 85.08 13.00   7.81 3249.95
   13:07:47.939.27-Aug-2021 4901.50 7725.90 85.08 13.00   8.01 3249.95
   13:07:48.139.27-Aug-2021 4901.50 7725.90 85.08 13.00   8.21 3249.95
   13:07:48.340.27-Aug-2021 4901.50 7724.21 85.08 13.00   8.41 3249.95
   13:07:48.540.27-Aug-2021 4901.50 7723.26 85.08 13.00   8.61 3249.95
   13:07:48.740.27-Aug-2021 4901.50 7722.90 85.08 13.00   8.81 3249.95
   13:07:48.940.27-Aug-2021 4901.50 7723.12 85.08 13.00   9.01 3249.95
   13:07:49.140.27-Aug-2021 4901.50 7723.12 85.08 13.00   9.21 3249.95
   13:07:49.341.27-Aug-2021 4901.50 7722.75 85.08 13.00   9.41 3249.95
   13:07:49.541.27-Aug-2021 4901.50 7725.16 85.08 13.00   9.61 3249.95
   13:07:49.741.27-Aug-2021 4901.50 7724.30 85.08 13.00   9.81 3249.95
   13:07:49.941.27-Aug-2021 4901.50 7724.46 85.08 13.00  10.01 3249.95
   13:07:50.141.27-Aug-2021 4901.50 7724.46 85.08 13.00  10.21 3249.95
   13:07:50.342.27-Aug-2021 4901.50 7724.49 85.08 13.00  10.41 3249.95
   13:07:50.542.27-Aug-2021 4901.50 7724.30 85.08 13.00  10.61 3249.95
   13:07:50.742.27-Aug-2021 4901.50 7724.49 85.08 13.00  10.81 3249.95
   13:07:50.942.27-Aug-2021 4901.50 7724.82 85.08 13.00  11.01 3249.95
   13:07:51.142.27-Aug-2021 4901.50 7724.82 85.08 13.00  11.21 3249.95
   13:07:51.343.27-Aug-2021 4901.50 7725.28 85.08 13.00  11.41 3249.95
   13:07:51.543.27-Aug-2021 4901.50 7725.48 85.08 13.00  11.61 3249.95
   13:07:51.743.27-Aug-2021 4901.50 7725.77 85.08 13.00  11.81 3249.95
   13:07:51.943.27-Aug-2021 4901.50 7725.94 85.08 13.00  12.01 3249.95
   13:07:52.143.27-Aug-2021 4901.50 7725.94 85.08 13.00  12.21 3249.95
   13:07:52.344.27-Aug-2021 4901.50 7726.59 85.08 13.00  12.41 3249.95
   13:07:52.544.27-Aug-2021 4901.50 7726.91 85.08 13.00  12.61 3249.95
   13:07:52.744.27-Aug-2021 4901.50 7730.50 85.08 13.00  12.81 3249.95
   13:07:52.944.27-Aug-2021 4901.50 7727.02 85.08 13.00  13.01 3249.95
   13:07:53.144.27-Aug-2021 4901.50 7727.02 85.08 13.00  13.21 3249.95
   13:07:53.345.27-Aug-2021 4901.50 7727.93 85.08 13.00  13.41 3249.95
   13:07:53.545.27-Aug-2021 4901.50 7728.12 85.08 13.00  13.61 3249.95
   13:07:53.745.27-Aug-2021 4901.50 7728.07 85.08 13.00  13.81 3249.95
   13:07:53.945.27-Aug-2021 4901.50 7728.04 85.08 13.00  14.01 3249.95
   13:07:54.145.27-Aug-2021 4901.50 7728.04 85.08 13.00  14.21 3249.95
   13:07:54.346.27-Aug-2021 4901.50 7728.39 85.08 13.00  14.41 3249.95
   13:07:54.546.27-Aug-2021 4901.50 7728.82 85.08 13.00  14.61 3249.95
   13:07:54.746.27-Aug-2021 4901.50 7729.61 85.08 13.00  14.82 3249.95
   13:07:54.946.27-Aug-2021 4901.50 7729.94 85.08 13.00  15.02 3249.95
   13:07:55.146.27-Aug-2021 4901.50 7729.94 85.08 13.00  15.22 3249.95
   13:07:55.347.27-Aug-2021 4901.50 7730.40 85.08 13.00  15.42 3249.95
   13:07:55.547.27-Aug-2021 4901.50 7730.49 85.08 13.00  15.62 3249.95
   13:07:55.747.27-Aug-2021 4901.50 7730.70 85.07 13.00  15.82 3249.95
   13:07:55.947.27-Aug-2021 4901.50 7734.04 85.07 13.00  16.02 3249.95
   13:07:56.147.27-Aug-2021 4901.50 7734.04 85.07 13.00  16.22 3249.95
   13:07:56.348.27-Aug-2021 4901.50 7732.15 85.07 13.00  16.42 3249.95
   13:07:56.548.27-Aug-2021 4901.50 7731.32 85.07 13.00  16.62 3249.95
   13:07:56.748.27-Aug-2021 4901.50 7731.33 85.07 13.00  16.82 3249.95
   13:07:56.948.27-Aug-2021 4901.50 7731.23 85.07 13.00  17.02 3249.95
   13:07:57.148.27-Aug-2021 4901.50 7731.23 85.07 13.00  17.22 3249.95
   13:07:57.349.27-Aug-2021 4901.50 7731.45 85.07 13.00  17.42 3249.95
   13:07:57.549.27-Aug-2021 4901.50 7733.05 85.07 13.00  17.62 3249.95
   13:07:57.749.27-Aug-2021 4901.50 7732.48 85.07 13.00  17.82 3249.95
   13:07:57.949.27-Aug-2021 4901.50 7733.13 85.07 13.00  18.02 3249.95
   13:07:58.149.27-Aug-2021 4901.50 7733.13 85.07 13.00  18.22 3249.95
   13:07:58.350.27-Aug-2021 4901.50 7739.07 85.07 13.00  18.42 3249.95
   13:07:58.550.27-Aug-2021 4901.50 7730.51 85.07 13.00  18.62 3249.95
   13:07:58.750.27-Aug-2021 4901.50 7734.50 85.07 13.00  18.82 3249.95
   13:07:58.950.27-Aug-2021 4901.50 7733.48 85.07 13.00  19.02 3249.95
   13:07:59.151.27-Aug-2021 4901.50 7733.48 85.07 13.00  19.22 3249.95
   13:07:59.351.27-Aug-2021 4901.50 7733.89 85.07 13.00  19.42 3249.95
   13:07:59.551.27-Aug-2021 4901.50 7736.59 85.07 13.00  19.62 3249.95
   13:07:59.751.27-Aug-2021 4901.50 7734.21 85.07 13.00  19.82 3249.95
   13:07:59.951.27-Aug-2021 4901.50 7734.80 85.07 13.00  20.02 3249.95
   13:08:00.152.27-Aug-2021 4901.50 7734.80 85.07 13.00  20.22 3249.95
   13:08:00.352.27-Aug-2021 4901.50 7734.20 85.07 13.00  20.42 3249.95
   13:08:00.552.27-Aug-2021 4901.50 7736.04 85.07 13.00  20.62 3249.95
   13:08:00.752.27-Aug-2021 4901.50 7735.55 85.07 13.00  20.82 3249.95
   13:08:00.952.27-Aug-2021 4901.50 7734.94 85.07 13.00  21.02 3249.95
   13:08:01.153.27-Aug-2021 4901.50 7734.94 85.07 13.00  21.22 3249.95
   13:08:01.353.27-Aug-2021 4901.50 7738.63 85.07 13.00  21.42 3249.95
   13:08:01.553.27-Aug-2021 4901.50 7736.62 85.07 13.00  21.62 3249.95
   13:08:01.753.27-Aug-2021 4901.50 7737.31 85.07 13.00  21.82 3249.95
   13:08:01.953.27-Aug-2021 4901.50 7736.78 85.07 13.00  22.02 3249.95
   13:08:02.154.27-Aug-2021 4901.50 7736.78 85.07 13.00  22.22 3249.95
   13:08:02.354.27-Aug-2021 4901.50 7737.06 85.07 13.00  22.42 3249.95
