~Version Information
 VERS.                  2.0:   CWLS log ASCII Standard -VERSION 2.0
 WRAP.                   NO:   One line per depth step
~Well Information Block
#MNEM.UNIT     VALUE/NAME     DESCRIPTION
#---------     -----------    ---------------------------
 STRT.S             05:44:14 27-Aug-21: START TIME 05:44:14 27-Aug-21
 STOP.S             05:51:24 27-Aug-21: STOP TIME  05:51:24 27-Aug-21
 STEP.S                   0.00: STEP TIME
 NULL.                 -999.25: NULL VALUE
 DFWT.                        :  DIST FWL TEXT
 DFST.                        :  DIST FSL TEXT
 DMF .             Drill Floor:  DRILL MEAS FROM
 STIM.      20.00.00 17-Aug-21:  START TIME
 DATE.      19.00.00 29-Aug-21:  END TIME
 SPUD.               15-Aug-21:  SPUD DATE
 NREF.                    Grid:  NORTH REFERENCE
 HPTY.       Minimum Curvature:  HOLE POS TYPE
 DMOD.             Drill Model:  DRILL MOD DESC
 SVYD.                  Survey:  SURVEY DESC
 ILTD.               Lithology:  INTERP LTH DESC
 FTOP.          Formation Tops:  FORM TOPS DESC
 RIG .              East Azeri:  RIG NAME
 PDAT.          Mean Sea Level:  PERMANENT DATUM
 FLD .                     ACG:  FIELD NAME
 SON .        AZ-XX-0907180857:  JOB NUMBER
 CTRY.              Azerbaijan:  COUNTRY NAME
 WELL.                    D23x:  WELL NAME
 SRVC.     Turan Drilling and Engineering:  CONTRACTOR
 COMP.     BP Exploration (Caspian Sea) Ltd.:  COMPANY
 UWI .            /AZE00000214:  UNIQUE WELL IDENTIFIER
 API .            /AZE00000214:  API NUMBER
 MDS .        Operator Entered:  MAG DATA SOURCE
 BASE.              Azerbaijan:  LOGGING EQUIPMENT BASE LOCATION
 REGN.                   EESSA:  REGION
 PROV.                    Baku:  PROVINCE
 STAT.                    Baku:  STATE NAME
 MWDS.                    Baku:  MWD SHOP
 DOE .                     N/A:  DOE NUMBER
 DCON.         Sperry Drilling:  DIRECTNL CONTR
 UNIT.                     N/A:  LOGGING EQUIPMENT ID
 WTYP.                Deviated:  WELL TYPE
 CNTY.                        :  COUNTY
 LOC .                        :  LOCATION
 LMF .             Drill Floor:  LOG MEASURED FROM
 TVDS.m                  43.60:  TVDSS CORRECTN
 LATI.deg                40.02:  LATITUDE
 LONG.deg                51.45:  LONGITUDE
 WHNS.m                  -7.04:  WELL HEAD N/S
 WHEW.m                  -0.67:  WELL HEAD E/W
 UTMX.m              538762.90:  UTM X
 UTMY.m             4431871.34:  UTM Y
 DFWL.m                   0.00:  DISTANCE FWL
 DFSL.m                   0.00:  DISTANCE FSL
 SDEP.m                4127.00:  START DEPTH
 TDD .m                5084.50:  TOTAL DEPTH (DRILLER)
 VSDR.deg               140.47:  VERT SEC DIRECT
 GVFD.g                   1.00:  GRAVITY FIELD
 MFLD.nT              50362.00:  MAGNETIC FIELD
 MDIP.deg                59.48:  MAGNETIC DIP
 MDEC.deg                 6.47:  MAGNETIC DECL
 GRDC.deg                 0.31:  GRID CORRECTION
 AZTC.deg                 6.16:  AZM TOTAL CORR
 EPD .m                   0.00:  ELEVATION
 EGL .m                   0.00:  GROUND ELEVATION
 WDMS.m                 151.80:  WD ELEV
 APD .m                  43.60:  DEPTH ABOVE PD
 DEP .m                4092.57:  DEPTH
 AGAP.m                  43.60:  AIR GAP
 VSEW.m                  -0.67:  VERT SEC E/W
 VSNS.m                  -7.04:  VERT SEC N/S
 EKB .m                  43.60:  KB ELEVATION
 EDF .m                  43.60:  DF ELEVATION
 TDL .m                 957.50:  TOTAL DEPTH (LOGGER)
 VSC .                       0:  VS TO CLOSURE
 MAGU.                 1851413:  MAGUTM CHECKSUM
~Parameter Information Block
#MNEM.UNIT       Value        Description
#---------     -----------    ---------------------------
 AV  .mps                 1.50:  Ann Velocity 
 AVMX.mps                 2.00:  Max Ann Veloc 
 AZIF.deg               184.66:  Azm, Final 
 BHAT.        Rotary Steerable:  BHA Type 
 BREV.rev               300.00:  Rev Bit Total 
 BROT.°/30m              -0.50:  Build Rotating 
 BS  .in                  8.50:  Bit Size 
 BSZ .in                  8.50:  Bit Size 
 BTPL.psig              370.00:  Bit Press Loss 
 CABU.                      No:  Customer Abuse 
 CGEO.      Behruz Shahbaliyev:  Customer Geo 
 COMM.                     ä=U:  Run Comments 1 
 TCS .hr                140.08:  Time Ciculation Ended 
 CV  .mps                 3.00:  Crit Velocity 
 CVMX.mps                 3.20:  Max Crit Veloc 
 DD1 .            Musa Ahmadov:  Direct Drillr 1 
 DD2 .           Hamid Ahmadov:  Direct Drillr 2 
 DDSV.               Geo-Pilot:  DD Service 
 DEFF.%                  98.40:  % Det Eff 
 DLRX.°/30m               3.40:  Dogleg Rot Max 
 DLSO.°/30m               1.45:  Dogleg Oriented 
 DLSX.°/30m               3.40:  Dogleg Str Max 
 DRET.      18.40.00 29-Aug-21:  Drill End Time 
 DRST.      21.00.00 20-Aug-21:  Drill Start Tim 
 DTIM.hr                 69.47:  Time Drilling 
 EDEP.m                5084.50:  End Depth 
 ENG1.      Artemiy Matviyanov:  Engineer 1 
 ENG2.         Almaz Almadatov:  Engineer 2 
 ETIM.      18.40.00 29-Aug-21:  End Time 
 FLOI.gpm               500.00:  Flow In 
 FLON.gpm               400.00:  Flow In Min 
 FLOS.cptm                0.00:  Fluid Loss 
 FLOX.gpm               500.00:  Flow In Max 
 DFT .        Mineral Oil Base:  Mud Type 
 HFLO.                      No:  High Flow 
 HPRE.                      No:  High Pressure 
 HTEM.                      No:  High Temp 
 HYDO.m                   1.80:  Hydro Offset 
 IFIN.deg                25.62:  Inc, Final 
 IMAX.deg                48.69:  Inc Max 
 IMIN.deg                24.01:  Inc Min 
 IMND.m                4962.57:  Inc Min Depth 
 IMXD.m                4119.01:  Inc Max Depth 
 JARR.                      No:  Jarring 
 LETM.      18.40.00 29-Aug-21:  Log End Time 
 LOST.hr                     0:  Lost Rig Time 
 LSTM.      21.00.00 20-Aug-21:  Log Start Time 
 MDCL.ppm             41500.00:  Mud Chlorides 
 MDES.     Inversion Oil/Synthetic:  Mud Desc 
 DFD .sg                  1.56:  Mud Density 
 MDMN.sg                  1.56:  Dens Mud Min 
 MDMX.sg                  1.56:  Dens Mud Max 
 MOIL.                      70:  Run Mud Oil % 
 MOWR.                   70:30:  Run Mud OWR 
 MSND.                     0.2:  Run Mud Sand % 
 MSOL.                    23.3:  Run Mud Solids% 
 DFV .spqt               78.00:  Mud Viscosity 
 MWOD.in                  6.75:  MWD Tool OD 
 MWSI.                      No:  Serv Intrp, MWD 
 OTIM.hr                218.30:  Time Operating 
 PCON.           Look Like New:  Pad Condition 
 PMAX.psia            11015.30:  Press Op, Max 
 PV  .cP                 38.00:  Mud PV 
 RUN .                     300:  Run Number 
 ROPA.m/hr               15.00:  ROP Avg 
 ROPN.m/hr                9.00:  ROP Min 
 ROPX.m/hr               17.00:  ROP Max 
 RPMA.rpm               120.00:  RPM Surface Avg 
 RPMN.rpm                90.00:  RPM Surface Min 
 RPMX.rpm               140.00:  RPM Surface Max 
 RRUN.                     300:  Rig Run Number 
 RTIM.hr                 31.53:  Time Reaming 
 SAZI.deg               331.64:  Azm, Start 
 SDEP.m                4127.00:  Start Depth 
 SIDD.                      No:  Serv Intrp, DD 
 SINC.deg                48.43:  Inc, Start 
 SPPA.psig             5830.00:  SPP Avg 
 SPPN.psig             5600.00:  SPP Min 
 SPPX.psig             5900.00:  SPP Max 
 STIM.      21.00.00 20-Aug-21:  Start Time 
 SVCS.                 DD, MWD:  Services 
 SVER.                    9.20:  Sperry Version 
 TDAT.m                 957.50:  Tot Depth Attmp 
 TDDF.                      No:  Trip for DD 
 TDLG.m                 957.50:  Tot Depth Loggd 
 TFF .                      No:  Trip for Fail 
 TQAA.f-kp               15.00:  Torque Abs Avg 
 TQAN.f-kp               12.00:  Torque Abs Min 
 TQAX.f-kp               19.00:  Torque Abs Max 
 TRRT.°/30m              -3.40:  Turn Rotating 
 MRT .                  EWR-M5:  Maximum Recorded Temperature 
 TTMX.degC              100.00:  Max Tool Temp 
 VS01.                90639251:  Virtual Str1 SN 
 VS02.                90634715:  Virtual Str2 SN 
 VS03.                90652479:  Virtual Str3 SN 
 VS04.                90642262:  Virtual Str4 SN 
 WBMN.klb                 0.00:  WOB Min 
 WITN.           Murad Guliyev:  Customer Rep 
 WITN.          Yashar Gaziyev:  Customer Rep 2 
 WOBA.klb                 9.00:  WOB Avg 
 WOBX.klb                12.00:  WOB Max 
 YP  .lhf2               30.00:  Yield Point 
~Curve Information Block
#MNEM.UNIT                 API CODE     Curve Description
#---------               -----------    ---------------------------
 TIME.HHMMSS            00 000 000 000:  GT Time & Date
 GTDEPTH.m              00 000 000 000:  GT Depth
 GTPQH.psia             00 000 000 000:  GT HR Quartz Pressure
 GTTQ.degC              00 000 000 000:  GT Quartz Temperature
 GTTN.NONE              00 000 000 000:  GT Test Number
 GTET.sec               00 000 000 000:  GT Elapsed Test Time
 GTTVD.m                00 000 000 000:  GT True Vertical Depth
#Other Information
#
#WARRANTY: Halliburton will use its best efforts to furnish customers with 
#accurate information and interpretations that are part of, and incident to, the services 
#provided.  However, Halliburton cannot and does not warrant the accuracy 
#or correctness of such information and interpretations.  Under no circumstances should any 
#such information or interpretation be relied upon as the sole basis for any drilling, 
#completion, production, or financial decision or any procedure involving any risk to the 
#safety of any drilling venture, drilling rig or its crew or any other third party.  The 
#Customer has full responsibility for all drilling, completion and production operation.  
#Halliburton makes no representations or warranties, either expressed or 
#implied, including, but not limited to, the implied warranties of merchantability or fitness 
#for a particular purpose, with respect to the services rendered.  In no event will 
#Halliburton be liable for failure to obtain any particular results or for 
#any damages, including, but not limited to, indirect, special or consequential damages, 
#resulting from the use of any information or interpretation provided by Halliburton.
#
~A           TIME           GTDEPTH  GTPQH  GTTQ  GTTN  GTET   GTTVD  
# ...
   05:46:32.345.27-Aug-2021 5021.00 8004.18 88.63 1.00 138.02 3358.56
   05:46:32.545.27-Aug-2021 5021.00 8004.18 88.63 1.00 138.22 3358.56
   05:46:32.745.27-Aug-2021 5021.00 7999.92 88.63 1.00 138.42 3358.56
   05:46:32.945.27-Aug-2021 5021.00 7999.93 88.63 1.00 138.62 3358.56
   05:46:33.145.27-Aug-2021 5021.00 8000.17 88.63 1.00 138.82 3358.56
   05:46:33.345.27-Aug-2021 5021.00 8006.86 88.63 1.00 139.02 3358.56
   05:46:33.545.27-Aug-2021 5021.00 8006.86 88.63 1.00 139.22 3358.56
   05:46:33.745.27-Aug-2021 5021.00 7999.52 88.63 1.00 139.42 3358.56
   05:46:33.945.27-Aug-2021 5021.00 7999.75 88.63 1.00 139.62 3358.56
   05:46:34.145.27-Aug-2021 5021.00 7999.80 88.63 1.00 139.82 3358.56
   05:46:34.345.27-Aug-2021 5021.00 8008.23 88.63 1.00 140.02 3358.56
   05:46:34.545.27-Aug-2021 5021.00 8008.23 88.63 1.00 140.22 3358.56
   05:46:34.745.27-Aug-2021 5021.00 7999.93 88.63 1.00 140.42 3358.56
   05:46:34.945.27-Aug-2021 5021.00 8000.06 88.63 1.00 140.62 3358.56
   05:46:35.145.27-Aug-2021 5021.00 8007.32 88.63 1.00 140.82 3358.56
   05:46:35.345.27-Aug-2021 5021.00 7998.58 88.63 1.00 141.02 3358.56
   05:46:35.545.27-Aug-2021 5021.00 7998.58 88.63 1.00 141.22 3358.56
   05:46:35.745.27-Aug-2021 5021.00 8000.04 88.63 1.00 141.42 3358.56
   05:46:35.945.27-Aug-2021 5021.00 8000.10 88.63 1.00 141.62 3358.56
   05:46:36.145.27-Aug-2021 5021.00 7999.25 88.63 1.00 141.82 3358.56
   05:46:36.345.27-Aug-2021 5021.00 8000.35 88.63 1.00 142.02 3358.56
   05:46:36.545.27-Aug-2021 5021.00 8000.35 88.63 1.00 142.22 3358.56
   05:46:36.745.27-Aug-2021 5021.00 8000.81 88.63 1.00 142.42 3358.56
   05:46:36.945.27-Aug-2021 5021.00 8000.18 88.63 1.00 142.62 3358.56
   05:46:37.145.27-Aug-2021 5021.00 8000.82 88.63 1.00 142.82 3358.56
   05:46:37.345.27-Aug-2021 5021.00 8001.48 88.63 1.00 143.02 3358.56
   05:46:37.545.27-Aug-2021 5021.00 8001.48 88.63 1.00 143.22 3358.56
   05:46:37.745.27-Aug-2021 5021.00 8001.44 88.63 1.00 143.42 3358.56
   05:46:37.946.27-Aug-2021 5021.00 8001.04 88.63 1.00 143.62 3358.56
   05:46:38.146.27-Aug-2021 5021.00 8001.03 88.63 1.00 143.82 3358.56
   05:46:38.346.27-Aug-2021 5021.00 8003.30 88.63 1.00 144.02 3358.56
   05:46:38.546.27-Aug-2021 5021.00 8003.30 88.63 1.00 144.22 3358.56
   05:46:38.746.27-Aug-2021 5021.00 8001.31 88.63 1.00 144.42 3358.56
   05:46:38.946.27-Aug-2021 5021.00 8000.08 88.63 1.00 144.62 3358.56
   05:46:39.146.27-Aug-2021 5021.00 8000.35 88.63 1.00 144.82 3358.56
   05:46:39.346.27-Aug-2021 5021.00 7999.80 88.63 1.00 145.02 3358.56
   05:46:39.546.27-Aug-2021 5021.00 7999.80 88.63 1.00 145.22 3358.56
   05:46:39.746.27-Aug-2021 5021.00 7999.31 88.63 1.00 145.42 3358.56
   05:46:39.946.27-Aug-2021 5021.00 7999.98 88.63 1.00 145.62 3358.56
   05:46:40.146.27-Aug-2021 5021.00 7999.52 88.63 1.00 145.82 3358.56
   05:46:40.346.27-Aug-2021 5021.00 8000.37 88.62 1.00 146.02 3358.56
   05:46:40.546.27-Aug-2021 5021.00 8000.37 88.62 1.00 146.22 3358.56
   05:46:40.746.27-Aug-2021 5021.00 8001.79 88.62 1.00 146.42 3358.56
   05:46:40.946.27-Aug-2021 5021.00 8001.36 88.62 1.00 146.62 3358.56
   05:46:41.146.27-Aug-2021 5021.00 8001.01 88.62 1.00 146.82 3358.56
   05:46:41.346.27-Aug-2021 5021.00 8001.06 88.62 1.00 147.02 3358.56
   05:46:41.546.27-Aug-2021 5021.00 8001.06 88.62 1.00 147.22 3358.56
   05:46:41.746.27-Aug-2021 5021.00 8000.85 88.62 1.00 147.42 3358.56
   05:46:41.946.27-Aug-2021 5021.00 8003.89 88.62 1.00 147.62 3358.56
   05:46:42.146.27-Aug-2021 5021.00 8002.33 88.62 1.00 147.82 3358.56
   05:46:42.346.27-Aug-2021 5021.00 7999.69 88.62 1.00 148.02 3358.56
   05:46:42.546.27-Aug-2021 5021.00 7999.69 88.62 1.00 148.22 3358.56
   05:46:42.746.27-Aug-2021 5021.00 7999.69 88.62 1.00 148.42 3358.56
   05:46:42.946.27-Aug-2021 5021.00 8000.29 88.62 1.00 148.62 3358.56
   05:46:43.146.27-Aug-2021 5021.00 7999.67 88.62 1.00 148.82 3358.56
   05:46:43.346.27-Aug-2021 5021.00 7999.39 88.62 1.00 149.02 3358.56
   05:46:43.546.27-Aug-2021 5021.00 7999.39 88.62 1.00 149.22 3358.56
   05:46:43.746.27-Aug-2021 5021.00 8006.44 88.62 1.00 149.42 3358.56
   05:46:43.947.27-Aug-2021 5021.00 7999.46 88.62 1.00 149.62 3358.56
   05:46:44.147.27-Aug-2021 5021.00 8000.43 88.62 1.00 149.82 3358.56
   05:46:44.347.27-Aug-2021 5021.00 8000.27 88.62 1.00 150.02 3358.56
   05:46:44.547.27-Aug-2021 5021.00 8000.27 88.62 1.00 150.22 3358.56
   05:46:44.747.27-Aug-2021 5021.00 8000.10 88.62 1.00 150.42 3358.56
   05:46:44.947.27-Aug-2021 5021.00 8000.40 88.62 1.00 150.62 3358.56
   05:46:45.147.27-Aug-2021 5021.00 7999.78 88.62 1.00 150.82 3358.56
   05:46:45.347.27-Aug-2021 5021.00 7999.47 88.62 1.00 151.02 3358.56
   05:46:45.547.27-Aug-2021 5021.00 7999.47 88.62 1.00 151.22 3358.56
   05:46:45.747.27-Aug-2021 5021.00 7999.85 88.62 1.00 151.42 3358.56
   05:46:45.947.27-Aug-2021 5021.00 8000.21 88.62 1.00 151.62 3358.56
   05:46:46.147.27-Aug-2021 5021.00 8000.10 88.62 1.00 151.82 3358.56
   05:46:46.347.27-Aug-2021 5021.00 8000.26 88.62 1.00 152.02 3358.56
   05:46:46.547.27-Aug-2021 5021.00 8000.26 88.62 1.00 152.23 3358.56
   05:46:46.747.27-Aug-2021 5021.00 8000.77 88.62 1.00 152.43 3358.56
   05:46:46.947.27-Aug-2021 5021.00 8001.42 88.62 1.00 152.63 3358.56
   05:46:47.147.27-Aug-2021 5021.00 8001.47 88.62 1.00 152.83 3358.56
   05:46:47.347.27-Aug-2021 5021.00 8001.11 88.62 1.00 153.03 3358.56
   05:46:47.547.27-Aug-2021 5021.00 8001.11 88.62 1.00 153.23 3358.56
   05:46:47.747.27-Aug-2021 5021.00 8007.94 88.62 1.00 153.43 3358.56
   05:46:47.947.27-Aug-2021 5021.00 7998.38 88.62 1.00 153.63 3358.56
   05:46:48.147.27-Aug-2021 5021.00 8000.34 88.62 1.00 153.83 3358.56
   05:46:48.347.27-Aug-2021 5021.00 7999.78 88.62 1.00 154.03 3358.56
   05:46:48.547.27-Aug-2021 5021.00 7999.78 88.62 1.00 154.23 3358.56
   05:46:48.747.27-Aug-2021 5021.00 7999.50 88.62 1.00 154.43 3358.56
   05:46:48.947.27-Aug-2021 5021.00 8000.36 88.62 1.00 154.63 3358.56
   05:46:49.147.27-Aug-2021 5021.00 7999.58 88.62 1.00 154.83 3358.56
   05:46:49.347.27-Aug-2021 5021.00 7999.84 88.62 1.00 155.03 3358.56
   05:46:49.547.27-Aug-2021 5021.00 7999.84 88.62 1.00 155.23 3358.56
   05:46:49.747.27-Aug-2021 5021.00 8000.41 88.62 1.00 155.43 3358.56
   05:46:49.947.27-Aug-2021 5021.00 8001.75 88.62 1.00 155.63 3358.56
   05:46:50.148.27-Aug-2021 5021.00 8001.59 88.62 1.00 155.83 3358.56
   05:46:50.348.27-Aug-2021 5021.00 8001.45 88.62 1.00 156.03 3358.56
   05:46:50.548.27-Aug-2021 5021.00 8001.45 88.62 1.00 156.23 3358.56
   05:46:50.748.27-Aug-2021 5021.00 8000.94 88.62 1.00 156.43 3358.56
   05:46:50.948.27-Aug-2021 5021.00 8000.87 88.62 1.00 156.63 3358.56
   05:46:51.148.27-Aug-2021 5021.00 8003.19 88.62 1.00 156.83 3358.56
   05:46:51.348.27-Aug-2021 5021.00 8002.95 88.62 1.00 157.03 3358.56
   05:46:51.548.27-Aug-2021 5021.00 8002.95 88.62 1.00 157.23 3358.56
   05:46:51.748.27-Aug-2021 5021.00 8000.09 88.62 1.00 157.43 3358.56
   05:46:51.948.27-Aug-2021 5021.00 8006.69 88.62 1.00 157.63 3358.56
   05:46:52.148.27-Aug-2021 5021.00 7999.30 88.61 1.00 157.83 3358.56
   05:46:52.348.27-Aug-2021 5021.00 8000.38 88.61 1.00 158.03 3358.56
   05:46:52.548.27-Aug-2021 5021.00 8000.38 88.61 1.00 158.23 3358.56
   05:46:52.748.27-Aug-2021 5021.00 7999.82 88.61 1.00 158.43 3358.56
   05:46:52.948.27-Aug-2021 5021.00 7999.30 88.61 1.00 158.63 3358.56
   05:46:53.148.27-Aug-2021 5021.00 8002.88 88.61 1.00 158.83 3358.56
   05:46:53.348.27-Aug-2021 5021.00 8000.33 88.61 1.00 159.03 3358.56
   05:46:53.548.27-Aug-2021 5021.00 8000.33 88.61 1.00 159.23 3358.56
   05:46:53.748.27-Aug-2021 5021.00 7998.58 88.61 1.00 159.43 3358.56
   05:46:53.948.27-Aug-2021 5021.00 8002.62 88.61 1.00 159.63 3358.56
   05:46:54.148.27-Aug-2021 5021.00 8002.03 88.61 1.00 159.83 3358.56
   05:46:54.348.27-Aug-2021 5021.00 7998.15 88.61 1.00 160.03 3358.56
   05:46:54.548.27-Aug-2021 5021.00 7998.15 88.61 1.00 160.23 3358.56
   05:46:54.748.27-Aug-2021 5021.00 7997.52 88.61 1.00 160.43 3358.56
   05:46:54.948.27-Aug-2021 5021.00 7998.51 88.61 1.00 160.63 3358.56
   05:46:55.148.27-Aug-2021 5021.00 7997.95 88.61 1.00 160.83 3358.56
