~Version Information
 VERS.                  2.0:   CWLS log ASCII Standard -VERSION 2.0
 WRAP.                   NO:   One line per depth step
~Well Information Block
#MNEM.UNIT     VALUE/NAME     DESCRIPTION
#---------     -----------    ---------------------------
 STRT.S             01:57:49 28-Aug-21: START TIME 01:57:49 28-Aug-21
 STOP.S             02:04:41 28-Aug-21: STOP TIME  02:04:41 28-Aug-21
 STEP.S                   0.00: STEP TIME
 NULL.                 -999.25: NULL VALUE
 DFWT.                        :  DIST FWL TEXT
 DFST.                        :  DIST FSL TEXT
 DMF .             Drill Floor:  DRILL MEAS FROM
 STIM.      20.00.00 17-Aug-21:  START TIME
 DATE.      19.00.00 29-Aug-21:  END TIME
 SPUD.               15-Aug-21:  SPUD DATE
 NREF.                    Grid:  NORTH REFERENCE
 HPTY.       Minimum Curvature:  HOLE POS TYPE
 DMOD.             Drill Model:  DRILL MOD DESC
 SVYD.                  Survey:  SURVEY DESC
 ILTD.               Lithology:  INTERP LTH DESC
 FTOP.          Formation Tops:  FORM TOPS DESC
 RIG .              East Azeri:  RIG NAME
 PDAT.          Mean Sea Level:  PERMANENT DATUM
 FLD .                     ACG:  FIELD NAME
 SON .        AZ-XX-0907180857:  JOB NUMBER
 CTRY.              Azerbaijan:  COUNTRY NAME
 WELL.                    D23x:  WELL NAME
 SRVC.     Turan Drilling and Engineering:  CONTRACTOR
 COMP.     BP Exploration (Caspian Sea) Ltd.:  COMPANY
 UWI .            /AZE00000214:  UNIQUE WELL IDENTIFIER
 API .            /AZE00000214:  API NUMBER
 MDS .        Operator Entered:  MAG DATA SOURCE
 BASE.              Azerbaijan:  LOGGING EQUIPMENT BASE LOCATION
 REGN.                   EESSA:  REGION
 PROV.                    Baku:  PROVINCE
 STAT.                    Baku:  STATE NAME
 MWDS.                    Baku:  MWD SHOP
 DOE .                     N/A:  DOE NUMBER
 DCON.         Sperry Drilling:  DIRECTNL CONTR
 UNIT.                     N/A:  LOGGING EQUIPMENT ID
 WTYP.                Deviated:  WELL TYPE
 CNTY.                        :  COUNTY
 LOC .                        :  LOCATION
 LMF .             Drill Floor:  LOG MEASURED FROM
 TVDS.m                  43.60:  TVDSS CORRECTN
 LATI.deg                40.02:  LATITUDE
 LONG.deg                51.45:  LONGITUDE
 WHNS.m                  -7.04:  WELL HEAD N/S
 WHEW.m                  -0.67:  WELL HEAD E/W
 UTMX.m              538762.90:  UTM X
 UTMY.m             4431871.34:  UTM Y
 DFWL.m                   0.00:  DISTANCE FWL
 DFSL.m                   0.00:  DISTANCE FSL
 SDEP.m                4127.00:  START DEPTH
 TDD .m                5084.50:  TOTAL DEPTH (DRILLER)
 VSDR.deg               140.47:  VERT SEC DIRECT
 GVFD.g                   1.00:  GRAVITY FIELD
 MFLD.nT              50362.00:  MAGNETIC FIELD
 MDIP.deg                59.48:  MAGNETIC DIP
 MDEC.deg                 6.47:  MAGNETIC DECL
 GRDC.deg                 0.31:  GRID CORRECTION
 AZTC.deg                 6.16:  AZM TOTAL CORR
 EPD .m                   0.00:  ELEVATION
 EGL .m                   0.00:  GROUND ELEVATION
 WDMS.m                 151.80:  WD ELEV
 APD .m                  43.60:  DEPTH ABOVE PD
 DEP .m                4092.57:  DEPTH
 AGAP.m                  43.60:  AIR GAP
 VSEW.m                  -0.67:  VERT SEC E/W
 VSNS.m                  -7.04:  VERT SEC N/S
 EKB .m                  43.60:  KB ELEVATION
 EDF .m                  43.60:  DF ELEVATION
 TDL .m                 957.50:  TOTAL DEPTH (LOGGER)
 VSC .                       0:  VS TO CLOSURE
 MAGU.                 1851413:  MAGUTM CHECKSUM
~Parameter Information Block
#MNEM.UNIT       Value        Description
#---------     -----------    ---------------------------
 AV  .mps                 1.50:  Ann Velocity 
 AVMX.mps                 2.00:  Max Ann Veloc 
 AZIF.deg               184.66:  Azm, Final 
 BHAT.        Rotary Steerable:  BHA Type 
 BREV.rev               300.00:  Rev Bit Total 
 BROT.°/30m              -0.50:  Build Rotating 
 BS  .in                  8.50:  Bit Size 
 BSZ .in                  8.50:  Bit Size 
 BTPL.psig              370.00:  Bit Press Loss 
 CABU.                      No:  Customer Abuse 
 CGEO.      Behruz Shahbaliyev:  Customer Geo 
 COMM.                     Äi}:  Run Comments 1 
 TCS .hr                140.08:  Time Ciculation Ended 
 CV  .mps                 3.00:  Crit Velocity 
 CVMX.mps                 3.20:  Max Crit Veloc 
 DD1 .            Musa Ahmadov:  Direct Drillr 1 
 DD2 .           Hamid Ahmadov:  Direct Drillr 2 
 DDSV.               Geo-Pilot:  DD Service 
 DEFF.%                  98.40:  % Det Eff 
 DLRX.°/30m               3.40:  Dogleg Rot Max 
 DLSO.°/30m               1.45:  Dogleg Oriented 
 DLSX.°/30m               3.40:  Dogleg Str Max 
 DRET.      18.40.00 29-Aug-21:  Drill End Time 
 DRST.      21.00.00 20-Aug-21:  Drill Start Tim 
 DTIM.hr                 69.47:  Time Drilling 
 EDEP.m                5084.50:  End Depth 
 ENG1.      Artemiy Matviyanov:  Engineer 1 
 ENG2.         Almaz Almadatov:  Engineer 2 
 ETIM.      18.40.00 29-Aug-21:  End Time 
 FLOI.gpm               500.00:  Flow In 
 FLON.gpm               400.00:  Flow In Min 
 FLOS.cptm                0.00:  Fluid Loss 
 FLOX.gpm               500.00:  Flow In Max 
 DFT .        Mineral Oil Base:  Mud Type 
 HFLO.                      No:  High Flow 
 HPRE.                      No:  High Pressure 
 HTEM.                      No:  High Temp 
 HYDO.m                   1.80:  Hydro Offset 
 IFIN.deg                25.62:  Inc, Final 
 IMAX.deg                48.69:  Inc Max 
 IMIN.deg                24.01:  Inc Min 
 IMND.m                4962.57:  Inc Min Depth 
 IMXD.m                4119.01:  Inc Max Depth 
 JARR.                      No:  Jarring 
 LETM.      18.40.00 29-Aug-21:  Log End Time 
 LOST.hr                     0:  Lost Rig Time 
 LSTM.      21.00.00 20-Aug-21:  Log Start Time 
 MDCL.ppm             41500.00:  Mud Chlorides 
 MDES.     Inversion Oil/Synthetic:  Mud Desc 
 DFD .sg                  1.56:  Mud Density 
 MDMN.sg                  1.56:  Dens Mud Min 
 MDMX.sg                  1.56:  Dens Mud Max 
 MOIL.                      70:  Run Mud Oil % 
 MOWR.                   70:30:  Run Mud OWR 
 MSND.                     0.2:  Run Mud Sand % 
 MSOL.                    23.3:  Run Mud Solids% 
 DFV .spqt               78.00:  Mud Viscosity 
 MWOD.in                  6.75:  MWD Tool OD 
 MWSI.                      No:  Serv Intrp, MWD 
 OTIM.hr                218.30:  Time Operating 
 PCON.           Look Like New:  Pad Condition 
 PMAX.psia            11015.30:  Press Op, Max 
 PV  .cP                 38.00:  Mud PV 
 RUN .                     300:  Run Number 
 ROPA.m/hr               15.00:  ROP Avg 
 ROPN.m/hr                9.00:  ROP Min 
 ROPX.m/hr               17.00:  ROP Max 
 RPMA.rpm               120.00:  RPM Surface Avg 
 RPMN.rpm                90.00:  RPM Surface Min 
 RPMX.rpm               140.00:  RPM Surface Max 
 RRUN.                     300:  Rig Run Number 
 RTIM.hr                 31.53:  Time Reaming 
 SAZI.deg               331.64:  Azm, Start 
 SDEP.m                4127.00:  Start Depth 
 SIDD.                      No:  Serv Intrp, DD 
 SINC.deg                48.43:  Inc, Start 
 SPPA.psig             5830.00:  SPP Avg 
 SPPN.psig             5600.00:  SPP Min 
 SPPX.psig             5900.00:  SPP Max 
 STIM.      21.00.00 20-Aug-21:  Start Time 
 SVCS.                 DD, MWD:  Services 
 SVER.                    9.20:  Sperry Version 
 TDAT.m                 957.50:  Tot Depth Attmp 
 TDDF.                      No:  Trip for DD 
 TDLG.m                 957.50:  Tot Depth Loggd 
 TFF .                      No:  Trip for Fail 
 TQAA.f-kp               15.00:  Torque Abs Avg 
 TQAN.f-kp               12.00:  Torque Abs Min 
 TQAX.f-kp               19.00:  Torque Abs Max 
 TRRT.°/30m              -3.40:  Turn Rotating 
 MRT .                  EWR-M5:  Maximum Recorded Temperature 
 TTMX.degC              100.00:  Max Tool Temp 
 VS01.                90639251:  Virtual Str1 SN 
 VS02.                90634715:  Virtual Str2 SN 
 VS03.                90652479:  Virtual Str3 SN 
 VS04.                90642262:  Virtual Str4 SN 
 WBMN.klb                 0.00:  WOB Min 
 WITN.           Murad Guliyev:  Customer Rep 
 WITN.          Yashar Gaziyev:  Customer Rep 2 
 WOBA.klb                 9.00:  WOB Avg 
 WOBX.klb                12.00:  WOB Max 
 YP  .lhf2               30.00:  Yield Point 
~Curve Information Block
#MNEM.UNIT                 API CODE     Curve Description
#---------               -----------    ---------------------------
 TIME.HHMMSS            00 000 000 000:  GT Time & Date
 GTDEPTH.m              00 000 000 000:  GT Depth
 GTPQH.psia             00 000 000 000:  GT HR Quartz Pressure
 GTTQ.degC              00 000 000 000:  GT Quartz Temperature
 GTTN.NONE              00 000 000 000:  GT Test Number
 GTET.sec               00 000 000 000:  GT Elapsed Test Time
 GTTVD.m                00 000 000 000:  GT True Vertical Depth
#Other Information
#
#WARRANTY: Halliburton will use its best efforts to furnish customers with 
#accurate information and interpretations that are part of, and incident to, the services 
#provided.  However, Halliburton cannot and does not warrant the accuracy 
#or correctness of such information and interpretations.  Under no circumstances should any 
#such information or interpretation be relied upon as the sole basis for any drilling, 
#completion, production, or financial decision or any procedure involving any risk to the 
#safety of any drilling venture, drilling rig or its crew or any other third party.  The 
#Customer has full responsibility for all drilling, completion and production operation.  
#Halliburton makes no representations or warranties, either expressed or 
#implied, including, but not limited to, the implied warranties of merchantability or fitness 
#for a particular purpose, with respect to the services rendered.  In no event will 
#Halliburton be liable for failure to obtain any particular results or for 
#any damages, including, but not limited to, indirect, special or consequential damages, 
#resulting from the use of any information or interpretation provided by Halliburton.
#
~A           TIME           GTDEPTH  GTPQH  GTTQ  GTTN   GTET   GTTVD  
# ...
   02:00:04.994.28-Aug-2021 4879.00 7754.20 81.23 27.00 135.64 3229.53
   02:00:05.194.28-Aug-2021 4879.00 7754.10 81.23 27.00 135.84 3229.53
   02:00:05.394.28-Aug-2021 4879.00 7754.13 81.23 27.00 136.04 3229.53
   02:00:05.594.28-Aug-2021 4879.00 7754.13 81.23 27.00 136.24 3229.53
   02:00:05.795.28-Aug-2021 4879.00 7753.92 81.23 27.00 136.44 3229.53
   02:00:05.995.28-Aug-2021 4879.00 7757.85 81.23 27.00 136.64 3229.53
   02:00:06.195.28-Aug-2021 4879.00 7752.65 81.23 27.00 136.84 3229.53
   02:00:06.395.28-Aug-2021 4879.00 7754.50 81.23 27.00 137.04 3229.53
   02:00:06.595.28-Aug-2021 4879.00 7754.50 81.23 27.00 137.24 3229.53
   02:00:06.795.28-Aug-2021 4879.00 7753.81 81.23 27.00 137.44 3229.53
   02:00:06.995.28-Aug-2021 4879.00 7753.52 81.23 27.00 137.64 3229.53
   02:00:07.195.28-Aug-2021 4879.00 7753.29 81.23 27.00 137.84 3229.53
   02:00:07.395.28-Aug-2021 4879.00 7753.13 81.23 27.00 138.04 3229.53
   02:00:07.595.28-Aug-2021 4879.00 7753.13 81.23 27.00 138.24 3229.53
   02:00:07.795.28-Aug-2021 4879.00 7753.51 81.23 27.00 138.44 3229.53
   02:00:07.995.28-Aug-2021 4879.00 7753.84 81.23 27.00 138.64 3229.53
   02:00:08.195.28-Aug-2021 4879.00 7753.98 81.23 27.00 138.84 3229.53
   02:00:08.395.28-Aug-2021 4879.00 7753.90 81.23 27.00 139.04 3229.53
   02:00:08.595.28-Aug-2021 4879.00 7753.90 81.23 27.00 139.24 3229.53
   02:00:08.795.28-Aug-2021 4879.00 7753.88 81.23 27.00 139.44 3229.53
   02:00:08.996.28-Aug-2021 4879.00 7753.88 81.23 27.00 139.64 3229.53
   02:00:09.196.28-Aug-2021 4879.00 7753.73 81.23 27.00 139.84 3229.53
   02:00:09.396.28-Aug-2021 4879.00 7757.74 81.23 27.00 140.04 3229.53
   02:00:09.596.28-Aug-2021 4879.00 7757.74 81.23 27.00 140.24 3229.53
   02:00:09.796.28-Aug-2021 4879.00 7754.64 81.23 27.00 140.44 3229.53
   02:00:09.996.28-Aug-2021 4879.00 7754.53 81.23 27.00 140.64 3229.53
   02:00:10.196.28-Aug-2021 4879.00 7758.02 81.23 27.00 140.84 3229.53
   02:00:10.396.28-Aug-2021 4879.00 7751.41 81.23 27.00 141.04 3229.53
   02:00:10.596.28-Aug-2021 4879.00 7751.41 81.23 27.00 141.24 3229.53
   02:00:10.796.28-Aug-2021 4879.00 7752.61 81.23 27.00 141.44 3229.53
   02:00:10.996.28-Aug-2021 4879.00 7752.21 81.23 27.00 141.64 3229.53
   02:00:11.196.28-Aug-2021 4879.00 7751.99 81.23 27.00 141.84 3229.53
   02:00:11.396.28-Aug-2021 4879.00 7757.51 81.23 27.00 142.04 3229.53
   02:00:11.596.28-Aug-2021 4879.00 7757.51 81.23 27.00 142.24 3229.53
   02:00:11.796.28-Aug-2021 4879.00 7753.70 81.23 27.00 142.44 3229.53
   02:00:11.996.28-Aug-2021 4879.00 7752.64 81.23 27.00 142.64 3229.53
   02:00:12.197.28-Aug-2021 4879.00 7758.38 81.23 27.00 142.84 3229.53
   02:00:12.397.28-Aug-2021 4879.00 7750.26 81.23 27.00 143.05 3229.53
   02:00:12.597.28-Aug-2021 4879.00 7750.26 81.23 27.00 143.25 3229.53
   02:00:12.797.28-Aug-2021 4879.00 7752.37 81.22 27.00 143.45 3229.53
   02:00:12.997.28-Aug-2021 4879.00 7752.59 81.22 27.00 143.65 3229.53
   02:00:13.197.28-Aug-2021 4879.00 7752.54 81.22 27.00 143.85 3229.53
   02:00:13.397.28-Aug-2021 4879.00 7752.18 81.22 27.00 144.05 3229.53
   02:00:13.597.28-Aug-2021 4879.00 7752.18 81.22 27.00 144.25 3229.53
   02:00:13.797.28-Aug-2021 4879.00 7752.56 81.22 27.00 144.45 3229.53
   02:00:13.997.28-Aug-2021 4879.00 7752.86 81.22 27.00 144.65 3229.53
   02:00:14.197.28-Aug-2021 4879.00 7753.02 81.22 27.00 144.85 3229.53
   02:00:14.397.28-Aug-2021 4879.00 7753.28 81.22 27.00 145.05 3229.53
   02:00:14.597.28-Aug-2021 4879.00 7753.28 81.22 27.00 145.25 3229.53
   02:00:14.797.28-Aug-2021 4879.00 7753.29 81.22 27.00 145.45 3229.53
   02:00:14.997.28-Aug-2021 4879.00 7753.30 81.22 27.00 145.65 3229.53
   02:00:15.197.28-Aug-2021 4879.00 7753.26 81.22 27.00 145.85 3229.53
   02:00:15.398.28-Aug-2021 4879.00 7757.04 81.22 27.00 146.05 3229.53
   02:00:15.598.28-Aug-2021 4879.00 7757.04 81.22 27.00 146.25 3229.53
   02:00:15.798.28-Aug-2021 4879.00 7753.84 81.22 27.00 146.45 3229.53
   02:00:15.998.28-Aug-2021 4879.00 7753.85 81.22 27.00 146.65 3229.53
   02:00:16.198.28-Aug-2021 4879.00 7753.13 81.22 27.00 146.85 3229.53
   02:00:16.398.28-Aug-2021 4879.00 7752.99 81.22 27.00 147.05 3229.53
   02:00:16.598.28-Aug-2021 4879.00 7752.99 81.22 27.00 147.25 3229.53
   02:00:16.798.28-Aug-2021 4879.00 7752.74 81.22 27.00 147.45 3229.53
   02:00:16.998.28-Aug-2021 4879.00 7753.00 81.22 27.00 147.65 3229.53
   02:00:17.198.28-Aug-2021 4879.00 7753.11 81.22 27.00 147.85 3229.53
   02:00:17.398.28-Aug-2021 4879.00 7753.37 81.22 27.00 148.05 3229.53
   02:00:17.598.28-Aug-2021 4879.00 7753.37 81.22 27.00 148.25 3229.53
   02:00:17.798.28-Aug-2021 4879.00 7753.62 81.22 27.00 148.45 3229.53
   02:00:17.998.28-Aug-2021 4879.00 7753.45 81.22 27.00 148.65 3229.53
   02:00:18.198.28-Aug-2021 4879.00 7753.48 81.22 27.00 148.85 3229.53
   02:00:18.398.28-Aug-2021 4879.00 7753.20 81.22 27.00 149.05 3229.53
   02:00:18.599.28-Aug-2021 4879.00 7753.20 81.22 27.00 149.25 3229.53
   02:00:18.799.28-Aug-2021 4879.00 7756.86 81.22 27.00 149.45 3229.53
   02:00:18.999.28-Aug-2021 4879.00 7752.23 81.22 27.00 149.65 3229.53
   02:00:19.199.28-Aug-2021 4879.00 7753.69 81.22 27.00 149.85 3229.53
   02:00:19.399.28-Aug-2021 4879.00 7753.77 81.22 27.00 150.05 3229.53
   02:00:19.599.28-Aug-2021 4879.00 7753.77 81.22 27.00 150.25 3229.53
   02:00:19.799.28-Aug-2021 4879.00 7752.25 81.22 27.00 150.45 3229.53
   02:00:19.999.28-Aug-2021 4879.00 7753.65 81.22 27.00 150.65 3229.53
   02:00:20.199.28-Aug-2021 4879.00 7753.40 81.22 27.00 150.85 3229.53
   02:00:20.399.28-Aug-2021 4879.00 7753.42 81.22 27.00 151.05 3229.53
   02:00:20.599.28-Aug-2021 4879.00 7753.42 81.22 27.00 151.25 3229.53
   02:00:20.799.28-Aug-2021 4879.00 7760.12 81.22 27.00 151.45 3229.53
   02:00:20.999.28-Aug-2021 4879.00 7751.50 81.22 27.00 151.65 3229.53
   02:00:21.199.28-Aug-2021 4879.00 7756.22 81.22 27.00 151.85 3229.53
   02:00:21.399.28-Aug-2021 4879.00 7755.12 81.22 27.00 152.05 3229.53
   02:00:21.600.28-Aug-2021 4879.00 7755.12 81.22 27.00 152.25 3229.53
   02:00:21.800.28-Aug-2021 4879.00 7752.47 81.22 27.00 152.45 3229.53
   02:00:22.000.28-Aug-2021 4879.00 7756.41 81.22 27.00 152.65 3229.53
   02:00:22.200.28-Aug-2021 4879.00 7754.95 81.22 27.00 152.85 3229.53
   02:00:22.400.28-Aug-2021 4879.00 7755.19 81.22 27.00 153.05 3229.53
   02:00:22.600.28-Aug-2021 4879.00 7755.19 81.22 27.00 153.25 3229.53
   02:00:22.800.28-Aug-2021 4879.00 7754.63 81.22 27.00 153.45 3229.53
   02:00:23.000.28-Aug-2021 4879.00 7754.71 81.22 27.00 153.65 3229.53
   02:00:23.200.28-Aug-2021 4879.00 7754.92 81.22 27.00 153.85 3229.53
   02:00:23.400.28-Aug-2021 4879.00 7755.23 81.22 27.00 154.05 3229.53
   02:00:23.600.28-Aug-2021 4879.00 7755.23 81.22 27.00 154.25 3229.53
   02:00:23.800.28-Aug-2021 4879.00 7755.58 81.22 27.00 154.45 3229.53
   02:00:24.000.28-Aug-2021 4879.00 7755.33 81.22 27.00 154.65 3229.53
   02:00:24.200.28-Aug-2021 4879.00 7755.37 81.22 27.00 154.85 3229.53
   02:00:24.400.28-Aug-2021 4879.00 7755.14 81.22 27.00 155.05 3229.53
   02:00:24.600.28-Aug-2021 4879.00 7755.14 81.22 27.00 155.25 3229.53
   02:00:24.801.28-Aug-2021 4879.00 7758.66 81.22 27.00 155.45 3229.53
   02:00:25.001.28-Aug-2021 4879.00 7754.03 81.22 27.00 155.65 3229.53
   02:00:25.201.28-Aug-2021 4879.00 7755.47 81.22 27.00 155.85 3229.53
   02:00:25.401.28-Aug-2021 4879.00 7755.51 81.22 27.00 156.05 3229.53
   02:00:25.601.28-Aug-2021 4879.00 7755.51 81.22 27.00 156.25 3229.53
   02:00:25.801.28-Aug-2021 4879.00 7754.66 81.22 27.00 156.45 3229.53
   02:00:26.001.28-Aug-2021 4879.00 7754.59 81.22 27.00 156.65 3229.53
   02:00:26.201.28-Aug-2021 4879.00 7754.36 81.22 27.00 156.85 3229.53
   02:00:26.401.28-Aug-2021 4879.00 7754.80 81.22 27.00 157.05 3229.53
   02:00:26.601.28-Aug-2021 4879.00 7754.80 81.22 27.00 157.25 3229.53
   02:00:26.801.28-Aug-2021 4879.00 7755.29 81.22 27.00 157.45 3229.53
   02:00:27.001.28-Aug-2021 4879.00 7755.40 81.22 27.00 157.65 3229.53
   02:00:27.201.28-Aug-2021 4879.00 7755.54 81.22 27.00 157.85 3229.53
   02:00:27.401.28-Aug-2021 4879.00 7755.49 81.21 27.00 158.05 3229.53
