~Version Information
 VERS.                  2.0:   CWLS log ASCII Standard -VERSION 2.0
 WRAP.                   NO:   One line per depth step
~Well Information Block
#MNEM.UNIT     VALUE/NAME     DESCRIPTION
#---------     -----------    ---------------------------
 STRT.S             19:41:39 27-Aug-21: START TIME 19:41:39 27-Aug-21
 STOP.S             19:48:52 27-Aug-21: STOP TIME  19:48:52 27-Aug-21
 STEP.S                   0.00: STEP TIME
 NULL.                 -999.25: NULL VALUE
 DFWT.                        :  DIST FWL TEXT
 DFST.                        :  DIST FSL TEXT
 DMF .             Drill Floor:  DRILL MEAS FROM
 STIM.      20.00.00 17-Aug-21:  START TIME
 DATE.      19.00.00 29-Aug-21:  END TIME
 SPUD.               15-Aug-21:  SPUD DATE
 NREF.                    Grid:  NORTH REFERENCE
 HPTY.       Minimum Curvature:  HOLE POS TYPE
 DMOD.             Drill Model:  DRILL MOD DESC
 SVYD.                  Survey:  SURVEY DESC
 ILTD.               Lithology:  INTERP LTH DESC
 FTOP.          Formation Tops:  FORM TOPS DESC
 RIG .              East Azeri:  RIG NAME
 PDAT.          Mean Sea Level:  PERMANENT DATUM
 FLD .                     ACG:  FIELD NAME
 SON .        AZ-XX-0907180857:  JOB NUMBER
 CTRY.              Azerbaijan:  COUNTRY NAME
 WELL.                    D23x:  WELL NAME
 SRVC.     Turan Drilling and Engineering:  CONTRACTOR
 COMP.     BP Exploration (Caspian Sea) Ltd.:  COMPANY
 UWI .            /AZE00000214:  UNIQUE WELL IDENTIFIER
 API .            /AZE00000214:  API NUMBER
 MDS .        Operator Entered:  MAG DATA SOURCE
 BASE.              Azerbaijan:  LOGGING EQUIPMENT BASE LOCATION
 REGN.                   EESSA:  REGION
 PROV.                    Baku:  PROVINCE
 STAT.                    Baku:  STATE NAME
 MWDS.                    Baku:  MWD SHOP
 DOE .                     N/A:  DOE NUMBER
 DCON.         Sperry Drilling:  DIRECTNL CONTR
 UNIT.                     N/A:  LOGGING EQUIPMENT ID
 WTYP.                Deviated:  WELL TYPE
 CNTY.                        :  COUNTY
 LOC .                        :  LOCATION
 LMF .             Drill Floor:  LOG MEASURED FROM
 TVDS.m                  43.60:  TVDSS CORRECTN
 LATI.deg                40.02:  LATITUDE
 LONG.deg                51.45:  LONGITUDE
 WHNS.m                  -7.04:  WELL HEAD N/S
 WHEW.m                  -0.67:  WELL HEAD E/W
 UTMX.m              538762.90:  UTM X
 UTMY.m             4431871.34:  UTM Y
 DFWL.m                   0.00:  DISTANCE FWL
 DFSL.m                   0.00:  DISTANCE FSL
 SDEP.m                4127.00:  START DEPTH
 TDD .m                5084.50:  TOTAL DEPTH (DRILLER)
 VSDR.deg               140.47:  VERT SEC DIRECT
 GVFD.g                   1.00:  GRAVITY FIELD
 MFLD.nT              50362.00:  MAGNETIC FIELD
 MDIP.deg                59.48:  MAGNETIC DIP
 MDEC.deg                 6.47:  MAGNETIC DECL
 GRDC.deg                 0.31:  GRID CORRECTION
 AZTC.deg                 6.16:  AZM TOTAL CORR
 EPD .m                   0.00:  ELEVATION
 EGL .m                   0.00:  GROUND ELEVATION
 WDMS.m                 151.80:  WD ELEV
 APD .m                  43.60:  DEPTH ABOVE PD
 DEP .m                4092.57:  DEPTH
 AGAP.m                  43.60:  AIR GAP
 VSEW.m                  -0.67:  VERT SEC E/W
 VSNS.m                  -7.04:  VERT SEC N/S
 EKB .m                  43.60:  KB ELEVATION
 EDF .m                  43.60:  DF ELEVATION
 TDL .m                 957.50:  TOTAL DEPTH (LOGGER)
 VSC .                       0:  VS TO CLOSURE
 MAGU.                 1851413:  MAGUTM CHECKSUM
~Parameter Information Block
#MNEM.UNIT       Value        Description
#---------     -----------    ---------------------------
 AV  .mps                 1.50:  Ann Velocity 
 AVMX.mps                 2.00:  Max Ann Veloc 
 AZIF.deg               184.66:  Azm, Final 
 BHAT.        Rotary Steerable:  BHA Type 
 BREV.rev               300.00:  Rev Bit Total 
 BROT.°/30m              -0.50:  Build Rotating 
 BS  .in                  8.50:  Bit Size 
 BSZ .in                  8.50:  Bit Size 
 BTPL.psig              370.00:  Bit Press Loss 
 CABU.                      No:  Customer Abuse 
 CGEO.      Behruz Shahbaliyev:  Customer Geo 
 COMM.                     ,‰€:  Run Comments 1 
 TCS .hr                140.08:  Time Ciculation Ended 
 CV  .mps                 3.00:  Crit Velocity 
 CVMX.mps                 3.20:  Max Crit Veloc 
 DD1 .            Musa Ahmadov:  Direct Drillr 1 
 DD2 .           Hamid Ahmadov:  Direct Drillr 2 
 DDSV.               Geo-Pilot:  DD Service 
 DEFF.%                  98.40:  % Det Eff 
 DLRX.°/30m               3.40:  Dogleg Rot Max 
 DLSO.°/30m               1.45:  Dogleg Oriented 
 DLSX.°/30m               3.40:  Dogleg Str Max 
 DRET.      18.40.00 29-Aug-21:  Drill End Time 
 DRST.      21.00.00 20-Aug-21:  Drill Start Tim 
 DTIM.hr                 69.47:  Time Drilling 
 EDEP.m                5084.50:  End Depth 
 ENG1.      Artemiy Matviyanov:  Engineer 1 
 ENG2.         Almaz Almadatov:  Engineer 2 
 ETIM.      18.40.00 29-Aug-21:  End Time 
 FLOI.gpm               500.00:  Flow In 
 FLON.gpm               400.00:  Flow In Min 
 FLOS.cptm                0.00:  Fluid Loss 
 FLOX.gpm               500.00:  Flow In Max 
 DFT .        Mineral Oil Base:  Mud Type 
 HFLO.                      No:  High Flow 
 HPRE.                      No:  High Pressure 
 HTEM.                      No:  High Temp 
 HYDO.m                   1.80:  Hydro Offset 
 IFIN.deg                25.62:  Inc, Final 
 IMAX.deg                48.69:  Inc Max 
 IMIN.deg                24.01:  Inc Min 
 IMND.m                4962.57:  Inc Min Depth 
 IMXD.m                4119.01:  Inc Max Depth 
 JARR.                      No:  Jarring 
 LETM.      18.40.00 29-Aug-21:  Log End Time 
 LOST.hr                     0:  Lost Rig Time 
 LSTM.      21.00.00 20-Aug-21:  Log Start Time 
 MDCL.ppm             41500.00:  Mud Chlorides 
 MDES.     Inversion Oil/Synthetic:  Mud Desc 
 DFD .sg                  1.56:  Mud Density 
 MDMN.sg                  1.56:  Dens Mud Min 
 MDMX.sg                  1.56:  Dens Mud Max 
 MOIL.                      70:  Run Mud Oil % 
 MOWR.                   70:30:  Run Mud OWR 
 MSND.                     0.2:  Run Mud Sand % 
 MSOL.                    23.3:  Run Mud Solids% 
 DFV .spqt               78.00:  Mud Viscosity 
 MWOD.in                  6.75:  MWD Tool OD 
 MWSI.                      No:  Serv Intrp, MWD 
 OTIM.hr                218.30:  Time Operating 
 PCON.           Look Like New:  Pad Condition 
 PMAX.psia            11015.30:  Press Op, Max 
 PV  .cP                 38.00:  Mud PV 
 RUN .                     300:  Run Number 
 ROPA.m/hr               15.00:  ROP Avg 
 ROPN.m/hr                9.00:  ROP Min 
 ROPX.m/hr               17.00:  ROP Max 
 RPMA.rpm               120.00:  RPM Surface Avg 
 RPMN.rpm                90.00:  RPM Surface Min 
 RPMX.rpm               140.00:  RPM Surface Max 
 RRUN.                     300:  Rig Run Number 
 RTIM.hr                 31.53:  Time Reaming 
 SAZI.deg               331.64:  Azm, Start 
 SDEP.m                4127.00:  Start Depth 
 SIDD.                      No:  Serv Intrp, DD 
 SINC.deg                48.43:  Inc, Start 
 SPPA.psig             5830.00:  SPP Avg 
 SPPN.psig             5600.00:  SPP Min 
 SPPX.psig             5900.00:  SPP Max 
 STIM.      21.00.00 20-Aug-21:  Start Time 
 SVCS.                 DD, MWD:  Services 
 SVER.                    9.20:  Sperry Version 
 TDAT.m                 957.50:  Tot Depth Attmp 
 TDDF.                      No:  Trip for DD 
 TDLG.m                 957.50:  Tot Depth Loggd 
 TFF .                      No:  Trip for Fail 
 TQAA.f-kp               15.00:  Torque Abs Avg 
 TQAN.f-kp               12.00:  Torque Abs Min 
 TQAX.f-kp               19.00:  Torque Abs Max 
 TRRT.°/30m              -3.40:  Turn Rotating 
 MRT .                  EWR-M5:  Maximum Recorded Temperature 
 TTMX.degC              100.00:  Max Tool Temp 
 VS01.                90639251:  Virtual Str1 SN 
 VS02.                90634715:  Virtual Str2 SN 
 VS03.                90652479:  Virtual Str3 SN 
 VS04.                90642262:  Virtual Str4 SN 
 WBMN.klb                 0.00:  WOB Min 
 WITN.           Murad Guliyev:  Customer Rep 
 WITN.          Yashar Gaziyev:  Customer Rep 2 
 WOBA.klb                 9.00:  WOB Avg 
 WOBX.klb                12.00:  WOB Max 
 YP  .lhf2               30.00:  Yield Point 
~Curve Information Block
#MNEM.UNIT                 API CODE     Curve Description
#---------               -----------    ---------------------------
 TIME.HHMMSS            00 000 000 000:  GT Time & Date
 GTDEPTH.m              00 000 000 000:  GT Depth
 GTPQH.psia             00 000 000 000:  GT HR Quartz Pressure
 GTTQ.degC              00 000 000 000:  GT Quartz Temperature
 GTTN.NONE              00 000 000 000:  GT Test Number
 GTET.sec               00 000 000 000:  GT Elapsed Test Time
 GTTVD.m                00 000 000 000:  GT True Vertical Depth
#Other Information
#
#WARRANTY: Halliburton will use its best efforts to furnish customers with 
#accurate information and interpretations that are part of, and incident to, the services 
#provided.  However, Halliburton cannot and does not warrant the accuracy 
#or correctness of such information and interpretations.  Under no circumstances should any 
#such information or interpretation be relied upon as the sole basis for any drilling, 
#completion, production, or financial decision or any procedure involving any risk to the 
#safety of any drilling venture, drilling rig or its crew or any other third party.  The 
#Customer has full responsibility for all drilling, completion and production operation.  
#Halliburton makes no representations or warranties, either expressed or 
#implied, including, but not limited to, the implied warranties of merchantability or fitness 
#for a particular purpose, with respect to the services rendered.  In no event will 
#Halliburton be liable for failure to obtain any particular results or for 
#any damages, including, but not limited to, indirect, special or consequential damages, 
#resulting from the use of any information or interpretation provided by Halliburton.
#
~A           TIME           GTDEPTH  GTPQH  GTTQ  GTTN   GTET   GTTVD  
# ...
   19:46:10.200.27-Aug-2021 4678.50 4155.26 82.45 21.00 271.20 3048.11
   19:46:10.400.27-Aug-2021 4678.50 4158.05 82.45 21.00 271.40 3048.11
   19:46:10.600.27-Aug-2021 4678.50 4156.57 82.46 21.00 271.60 3048.11
   19:46:10.800.27-Aug-2021 4678.50 4155.73 82.45 21.00 271.80 3048.11
   19:46:11.000.27-Aug-2021 4678.50 4153.72 82.45 21.00 272.00 3048.11
   19:46:11.200.27-Aug-2021 4678.50 4153.72 82.45 21.00 272.20 3048.11
   19:46:11.400.27-Aug-2021 4678.50 4156.07 82.45 21.00 272.40 3048.11
   19:46:11.600.27-Aug-2021 4678.50 4155.39 82.45 21.00 272.60 3048.11
   19:46:11.800.27-Aug-2021 4678.50 4156.36 82.45 21.00 272.80 3048.11
   19:46:12.000.27-Aug-2021 4678.50 4154.55 82.45 21.00 273.00 3048.11
   19:46:12.200.27-Aug-2021 4678.50 4154.55 82.45 21.00 273.20 3048.11
   19:46:12.400.27-Aug-2021 4678.50 4154.82 82.45 21.00 273.40 3048.11
   19:46:12.600.27-Aug-2021 4678.50 4153.05 82.45 21.00 273.60 3048.11
   19:46:12.800.27-Aug-2021 4678.50 4152.45 82.45 21.00 273.80 3048.11
   19:46:13.000.27-Aug-2021 4678.50 4154.22 82.45 21.00 274.00 3048.11
   19:46:13.200.27-Aug-2021 4678.50 4154.22 82.45 21.00 274.20 3048.11
   19:46:13.400.27-Aug-2021 4678.50 4154.57 82.45 21.00 274.40 3048.11
   19:46:13.600.27-Aug-2021 4678.50 4154.65 82.45 21.00 274.60 3048.11
   19:46:13.800.27-Aug-2021 4678.50 4152.88 82.45 21.00 274.80 3048.11
   19:46:14.000.27-Aug-2021 4678.50 4153.11 82.45 21.00 275.00 3048.11
   19:46:14.200.27-Aug-2021 4678.50 4153.11 82.45 21.00 275.20 3048.11
   19:46:14.400.27-Aug-2021 4678.50 4154.57 82.45 21.00 275.40 3048.11
   19:46:14.600.27-Aug-2021 4678.50 4152.72 82.45 21.00 275.60 3048.11
   19:46:14.800.27-Aug-2021 4678.50 4153.27 82.45 21.00 275.80 3048.11
   19:46:15.000.27-Aug-2021 4678.50 4153.14 82.45 21.00 276.00 3048.11
   19:46:15.200.27-Aug-2021 4678.50 4153.14 82.45 21.00 276.20 3048.11
   19:46:15.400.27-Aug-2021 4678.50 4154.30 82.45 21.00 276.40 3048.11
   19:46:15.600.27-Aug-2021 4678.50 4153.16 82.45 21.00 276.60 3048.11
   19:46:15.800.27-Aug-2021 4678.50 4152.43 82.45 21.00 276.80 3048.11
   19:46:16.000.27-Aug-2021 4678.50 4153.76 82.45 21.00 277.00 3048.11
   19:46:16.200.27-Aug-2021 4678.50 4153.76 82.45 21.00 277.20 3048.11
   19:46:16.400.27-Aug-2021 4678.50 4153.86 82.45 21.00 277.40 3048.11
   19:46:16.600.27-Aug-2021 4678.50 4153.18 82.45 21.00 277.60 3048.11
   19:46:16.800.27-Aug-2021 4678.50 4151.76 82.45 21.00 277.80 3048.11
   19:46:17.000.27-Aug-2021 4678.50 4152.43 82.45 21.00 278.00 3048.11
   19:46:17.200.27-Aug-2021 4678.50 4152.43 82.45 21.00 278.20 3048.11
   19:46:17.400.27-Aug-2021 4678.50 4152.87 82.45 21.00 278.40 3048.11
   19:46:17.600.27-Aug-2021 4678.50 4152.37 82.45 21.00 278.60 3048.11
   19:46:17.800.27-Aug-2021 4678.50 4151.88 82.45 21.00 278.80 3048.11
   19:46:18.000.27-Aug-2021 4678.50 4152.67 82.45 21.00 279.00 3048.11
   19:46:18.200.27-Aug-2021 4678.50 4152.67 82.45 21.00 279.20 3048.11
   19:46:18.400.27-Aug-2021 4678.50 4151.77 82.45 21.00 279.40 3048.11
   19:46:18.600.27-Aug-2021 4678.50 4152.12 82.45 21.00 279.60 3048.11
   19:46:18.800.27-Aug-2021 4678.50 4151.90 82.45 21.00 279.80 3048.11
   19:46:19.000.27-Aug-2021 4678.50 4151.76 82.45 21.00 280.00 3048.11
   19:46:19.200.27-Aug-2021 4678.50 4151.76 82.45 21.00 280.20 3048.11
   19:46:19.400.27-Aug-2021 4678.50 4273.24 82.45 21.00 280.40 3048.11
   19:46:19.600.27-Aug-2021 4678.50 4375.48 82.45 21.00 280.60 3048.11
   19:46:19.800.27-Aug-2021 4678.50 4397.94 82.45 21.00 280.80 3048.11
   19:46:20.000.27-Aug-2021 4678.50 4401.47 82.45 21.00 281.00 3048.11
   19:46:20.200.27-Aug-2021 4678.50 4401.47 82.45 21.00 281.20 3048.11
   19:46:20.400.27-Aug-2021 4678.50 4402.77 82.45 21.00 281.40 3048.11
   19:46:20.600.27-Aug-2021 4678.50 4403.95 82.45 21.00 281.60 3048.11
   19:46:20.800.27-Aug-2021 4678.50 4403.99 82.45 21.00 281.80 3048.11
   19:46:21.000.27-Aug-2021 4678.50 4404.09 82.45 21.00 282.00 3048.11
   19:46:21.200.27-Aug-2021 4678.50 4404.09 82.45 21.00 282.20 3048.11
   19:46:21.400.27-Aug-2021 4678.50 4404.19 82.46 21.00 282.40 3048.11
   19:46:21.600.27-Aug-2021 4678.50 4404.91 82.46 21.00 282.60 3048.11
   19:46:21.800.27-Aug-2021 4678.50 4404.85 82.46 21.00 282.80 3048.11
   19:46:22.000.27-Aug-2021 4678.50 4404.88 82.46 21.00 283.00 3048.11
   19:46:22.200.27-Aug-2021 4678.50 4404.88 82.46 21.00 283.20 3048.11
   19:46:22.400.27-Aug-2021 4678.50 4404.92 82.46 21.00 283.40 3048.11
   19:46:22.600.27-Aug-2021 4678.50 4404.89 82.46 21.00 283.60 3048.11
   19:46:22.800.27-Aug-2021 4678.50 4405.20 82.46 21.00 283.80 3048.11
   19:46:23.000.27-Aug-2021 4678.50 4405.39 82.46 21.00 284.00 3048.11
   19:46:23.200.27-Aug-2021 4678.50 4405.39 82.46 21.00 284.20 3048.11
   19:46:23.400.27-Aug-2021 4678.50 4405.38 82.46 21.00 284.40 3048.11
   19:46:23.600.27-Aug-2021 4678.50 4405.41 82.46 21.00 284.60 3048.11
   19:46:23.800.27-Aug-2021 4678.50 4405.40 82.46 21.00 284.80 3048.11
   19:46:24.000.27-Aug-2021 4678.50 4405.40 82.46 21.00 285.00 3048.11
   19:46:24.200.27-Aug-2021 4678.50 4405.40 82.46 21.00 285.20 3048.11
   19:46:24.400.27-Aug-2021 4678.50 4405.41 82.46 21.00 285.40 3048.11
   19:46:24.600.27-Aug-2021 4678.50 4405.41 82.46 21.00 285.60 3048.11
   19:46:24.800.27-Aug-2021 4678.50 4405.43 82.46 21.00 285.80 3048.11
   19:46:25.000.27-Aug-2021 4678.50 4405.42 82.46 21.00 286.00 3048.11
   19:46:25.200.27-Aug-2021 4678.50 4405.42 82.46 21.00 286.20 3048.11
   19:46:25.400.27-Aug-2021 4678.50 4405.45 82.46 21.00 286.40 3048.11
   19:46:25.600.27-Aug-2021 4678.50 4405.45 82.46 21.00 286.60 3048.11
   19:46:25.800.27-Aug-2021 4678.50 4405.33 82.46 21.00 286.80 3048.11
   19:46:26.000.27-Aug-2021 4678.50 4405.93 82.46 21.00 287.00 3048.11
   19:46:26.200.27-Aug-2021 4678.50 4405.93 82.46 21.00 287.20 3048.11
   19:46:26.400.27-Aug-2021 4678.50 4405.83 82.46 21.00 287.40 3048.11
   19:46:26.600.27-Aug-2021 4678.50 4405.82 82.46 21.00 287.60 3048.11
   19:46:26.800.27-Aug-2021 4678.50 4405.81 82.46 21.00 287.80 3048.11
   19:46:27.000.27-Aug-2021 4678.50 4405.80 82.46 21.00 288.00 3048.11
   19:46:27.200.27-Aug-2021 4678.50 4405.80 82.46 21.00 288.20 3048.11
   19:46:27.400.27-Aug-2021 4678.50 4405.81 82.46 21.00 288.40 3048.11
   19:46:27.600.27-Aug-2021 4678.50 4405.79 82.46 21.00 288.60 3048.11
   19:46:27.800.27-Aug-2021 4678.50 4405.79 82.46 21.00 288.80 3048.11
   19:46:28.000.27-Aug-2021 4678.50 4405.79 82.46 21.00 289.00 3048.11
   19:46:28.200.27-Aug-2021 4678.50 4405.79 82.46 21.00 289.20 3048.11
   19:46:28.400.27-Aug-2021 4678.50 4405.79 82.46 21.00 289.40 3048.11
   19:46:28.600.27-Aug-2021 4678.50 4405.79 82.47 21.00 289.60 3048.11
   19:46:28.800.27-Aug-2021 4678.50 4405.79 82.47 21.00 289.80 3048.11
   19:46:29.000.27-Aug-2021 4678.50 4405.73 82.47 21.00 290.00 3048.11
   19:46:29.200.27-Aug-2021 4678.50 4405.73 82.47 21.00 290.20 3048.11
   19:46:29.400.27-Aug-2021 4678.50 4406.03 82.47 21.00 290.40 3048.11
   19:46:29.600.27-Aug-2021 4678.50 4406.02 82.47 21.00 290.60 3048.11
   19:46:29.800.27-Aug-2021 4678.50 4406.02 82.47 21.00 290.80 3048.11
   19:46:30.000.27-Aug-2021 4678.50 4405.79 82.47 21.00 291.00 3048.11
   19:46:30.200.27-Aug-2021 4678.50 4405.79 82.47 21.00 291.20 3048.11
   19:46:30.400.27-Aug-2021 4678.50 4406.10 82.47 21.00 291.40 3048.11
   19:46:30.600.27-Aug-2021 4678.50 4406.12 82.47 21.00 291.60 3048.11
   19:46:30.800.27-Aug-2021 4678.50 4406.11 82.47 21.00 291.80 3048.11
   19:46:31.000.27-Aug-2021 4678.50 4406.04 82.47 21.00 292.00 3048.11
   19:46:31.200.27-Aug-2021 4678.50 4406.04 82.47 21.00 292.20 3048.11
   19:46:31.400.27-Aug-2021 4678.50 4406.15 82.47 21.00 292.40 3048.11
   19:46:31.600.27-Aug-2021 4678.50 4406.15 82.47 21.00 292.60 3048.11
   19:46:31.800.27-Aug-2021 4678.50 4405.96 82.47 21.00 292.80 3048.11
   19:46:32.000.27-Aug-2021 4678.50 4406.35 82.47 21.00 293.00 3048.11
   19:46:32.200.27-Aug-2021 4678.50 4406.35 82.47 21.00 293.20 3048.11
   19:46:32.400.27-Aug-2021 4678.50 4406.18 82.47 21.00 293.40 3048.11
   19:46:32.600.27-Aug-2021 4678.50 4406.20 82.47 21.00 293.60 3048.11
