~Version Information
 VERS.                  2.0:   CWLS log ASCII Standard -VERSION 2.0
 WRAP.                   NO:   One line per depth step
~Well Information Block
#MNEM.UNIT     VALUE/NAME     DESCRIPTION
#---------     -----------    ---------------------------
 STRT.S             11:48:55 27-Aug-21: START TIME 11:48:55 27-Aug-21
 STOP.S             11:56:03 27-Aug-21: STOP TIME  11:56:03 27-Aug-21
 STEP.S                   0.00: STEP TIME
 NULL.                 -999.25: NULL VALUE
 DFWT.                        :  DIST FWL TEXT
 DFST.                        :  DIST FSL TEXT
 DMF .             Drill Floor:  DRILL MEAS FROM
 STIM.      20.00.00 17-Aug-21:  START TIME
 DATE.      19.00.00 29-Aug-21:  END TIME
 SPUD.               15-Aug-21:  SPUD DATE
 NREF.                    Grid:  NORTH REFERENCE
 HPTY.       Minimum Curvature:  HOLE POS TYPE
 DMOD.             Drill Model:  DRILL MOD DESC
 SVYD.                  Survey:  SURVEY DESC
 ILTD.               Lithology:  INTERP LTH DESC
 FTOP.          Formation Tops:  FORM TOPS DESC
 RIG .              East Azeri:  RIG NAME
 PDAT.          Mean Sea Level:  PERMANENT DATUM
 FLD .                     ACG:  FIELD NAME
 SON .        AZ-XX-0907180857:  JOB NUMBER
 CTRY.              Azerbaijan:  COUNTRY NAME
 WELL.                    D23x:  WELL NAME
 SRVC.     Turan Drilling and Engineering:  CONTRACTOR
 COMP.     BP Exploration (Caspian Sea) Ltd.:  COMPANY
 UWI .            /AZE00000214:  UNIQUE WELL IDENTIFIER
 API .            /AZE00000214:  API NUMBER
 MDS .        Operator Entered:  MAG DATA SOURCE
 BASE.              Azerbaijan:  LOGGING EQUIPMENT BASE LOCATION
 REGN.                   EESSA:  REGION
 PROV.                    Baku:  PROVINCE
 STAT.                    Baku:  STATE NAME
 MWDS.                    Baku:  MWD SHOP
 DOE .                     N/A:  DOE NUMBER
 DCON.         Sperry Drilling:  DIRECTNL CONTR
 UNIT.                     N/A:  LOGGING EQUIPMENT ID
 WTYP.                Deviated:  WELL TYPE
 CNTY.                        :  COUNTY
 LOC .                        :  LOCATION
 LMF .             Drill Floor:  LOG MEASURED FROM
 TVDS.m                  43.60:  TVDSS CORRECTN
 LATI.deg                40.02:  LATITUDE
 LONG.deg                51.45:  LONGITUDE
 WHNS.m                  -7.04:  WELL HEAD N/S
 WHEW.m                  -0.67:  WELL HEAD E/W
 UTMX.m              538762.90:  UTM X
 UTMY.m             4431871.34:  UTM Y
 DFWL.m                   0.00:  DISTANCE FWL
 DFSL.m                   0.00:  DISTANCE FSL
 SDEP.m                4127.00:  START DEPTH
 TDD .m                5084.50:  TOTAL DEPTH (DRILLER)
 VSDR.deg               140.47:  VERT SEC DIRECT
 GVFD.g                   1.00:  GRAVITY FIELD
 MFLD.nT              50362.00:  MAGNETIC FIELD
 MDIP.deg                59.48:  MAGNETIC DIP
 MDEC.deg                 6.47:  MAGNETIC DECL
 GRDC.deg                 0.31:  GRID CORRECTION
 AZTC.deg                 6.16:  AZM TOTAL CORR
 EPD .m                   0.00:  ELEVATION
 EGL .m                   0.00:  GROUND ELEVATION
 WDMS.m                 151.80:  WD ELEV
 APD .m                  43.60:  DEPTH ABOVE PD
 DEP .m                4092.57:  DEPTH
 AGAP.m                  43.60:  AIR GAP
 VSEW.m                  -0.67:  VERT SEC E/W
 VSNS.m                  -7.04:  VERT SEC N/S
 EKB .m                  43.60:  KB ELEVATION
 EDF .m                  43.60:  DF ELEVATION
 TDL .m                 957.50:  TOTAL DEPTH (LOGGER)
 VSC .                       0:  VS TO CLOSURE
 MAGU.                 1851413:  MAGUTM CHECKSUM
~Parameter Information Block
#MNEM.UNIT       Value        Description
#---------     -----------    ---------------------------
 AV  .mps                 1.50:  Ann Velocity 
 AVMX.mps                 2.00:  Max Ann Veloc 
 AZIF.deg               184.66:  Azm, Final 
 BHAT.        Rotary Steerable:  BHA Type 
 BREV.rev               300.00:  Rev Bit Total 
 BROT.°/30m              -0.50:  Build Rotating 
 BS  .in                  8.50:  Bit Size 
 BSZ .in                  8.50:  Bit Size 
 BTPL.psig              370.00:  Bit Press Loss 
 CABU.                      No:  Customer Abuse 
 CGEO.      Behruz Shahbaliyev:  Customer Geo 
 COMM.                     L*e:  Run Comments 1 
 TCS .hr                140.08:  Time Ciculation Ended 
 CV  .mps                 3.00:  Crit Velocity 
 CVMX.mps                 3.20:  Max Crit Veloc 
 DD1 .            Musa Ahmadov:  Direct Drillr 1 
 DD2 .           Hamid Ahmadov:  Direct Drillr 2 
 DDSV.               Geo-Pilot:  DD Service 
 DEFF.%                  98.40:  % Det Eff 
 DLRX.°/30m               3.40:  Dogleg Rot Max 
 DLSO.°/30m               1.45:  Dogleg Oriented 
 DLSX.°/30m               3.40:  Dogleg Str Max 
 DRET.      18.40.00 29-Aug-21:  Drill End Time 
 DRST.      21.00.00 20-Aug-21:  Drill Start Tim 
 DTIM.hr                 69.47:  Time Drilling 
 EDEP.m                5084.50:  End Depth 
 ENG1.      Artemiy Matviyanov:  Engineer 1 
 ENG2.         Almaz Almadatov:  Engineer 2 
 ETIM.      18.40.00 29-Aug-21:  End Time 
 FLOI.gpm               500.00:  Flow In 
 FLON.gpm               400.00:  Flow In Min 
 FLOS.cptm                0.00:  Fluid Loss 
 FLOX.gpm               500.00:  Flow In Max 
 DFT .        Mineral Oil Base:  Mud Type 
 HFLO.                      No:  High Flow 
 HPRE.                      No:  High Pressure 
 HTEM.                      No:  High Temp 
 HYDO.m                   1.80:  Hydro Offset 
 IFIN.deg                25.62:  Inc, Final 
 IMAX.deg                48.69:  Inc Max 
 IMIN.deg                24.01:  Inc Min 
 IMND.m                4962.57:  Inc Min Depth 
 IMXD.m                4119.01:  Inc Max Depth 
 JARR.                      No:  Jarring 
 LETM.      18.40.00 29-Aug-21:  Log End Time 
 LOST.hr                     0:  Lost Rig Time 
 LSTM.      21.00.00 20-Aug-21:  Log Start Time 
 MDCL.ppm             41500.00:  Mud Chlorides 
 MDES.     Inversion Oil/Synthetic:  Mud Desc 
 DFD .sg                  1.56:  Mud Density 
 MDMN.sg                  1.56:  Dens Mud Min 
 MDMX.sg                  1.56:  Dens Mud Max 
 MOIL.                      70:  Run Mud Oil % 
 MOWR.                   70:30:  Run Mud OWR 
 MSND.                     0.2:  Run Mud Sand % 
 MSOL.                    23.3:  Run Mud Solids% 
 DFV .spqt               78.00:  Mud Viscosity 
 MWOD.in                  6.75:  MWD Tool OD 
 MWSI.                      No:  Serv Intrp, MWD 
 OTIM.hr                218.30:  Time Operating 
 PCON.           Look Like New:  Pad Condition 
 PMAX.psia            11015.30:  Press Op, Max 
 PV  .cP                 38.00:  Mud PV 
 RUN .                     300:  Run Number 
 ROPA.m/hr               15.00:  ROP Avg 
 ROPN.m/hr                9.00:  ROP Min 
 ROPX.m/hr               17.00:  ROP Max 
 RPMA.rpm               120.00:  RPM Surface Avg 
 RPMN.rpm                90.00:  RPM Surface Min 
 RPMX.rpm               140.00:  RPM Surface Max 
 RRUN.                     300:  Rig Run Number 
 RTIM.hr                 31.53:  Time Reaming 
 SAZI.deg               331.64:  Azm, Start 
 SDEP.m                4127.00:  Start Depth 
 SIDD.                      No:  Serv Intrp, DD 
 SINC.deg                48.43:  Inc, Start 
 SPPA.psig             5830.00:  SPP Avg 
 SPPN.psig             5600.00:  SPP Min 
 SPPX.psig             5900.00:  SPP Max 
 STIM.      21.00.00 20-Aug-21:  Start Time 
 SVCS.                 DD, MWD:  Services 
 SVER.                    9.20:  Sperry Version 
 TDAT.m                 957.50:  Tot Depth Attmp 
 TDDF.                      No:  Trip for DD 
 TDLG.m                 957.50:  Tot Depth Loggd 
 TFF .                      No:  Trip for Fail 
 TQAA.f-kp               15.00:  Torque Abs Avg 
 TQAN.f-kp               12.00:  Torque Abs Min 
 TQAX.f-kp               19.00:  Torque Abs Max 
 TRRT.°/30m              -3.40:  Turn Rotating 
 MRT .                  EWR-M5:  Maximum Recorded Temperature 
 TTMX.degC              100.00:  Max Tool Temp 
 VS01.                90639251:  Virtual Str1 SN 
 VS02.                90634715:  Virtual Str2 SN 
 VS03.                90652479:  Virtual Str3 SN 
 VS04.                90642262:  Virtual Str4 SN 
 WBMN.klb                 0.00:  WOB Min 
 WITN.           Murad Guliyev:  Customer Rep 
 WITN.          Yashar Gaziyev:  Customer Rep 2 
 WOBA.klb                 9.00:  WOB Avg 
 WOBX.klb                12.00:  WOB Max 
 YP  .lhf2               30.00:  Yield Point 
~Curve Information Block
#MNEM.UNIT                 API CODE     Curve Description
#---------               -----------    ---------------------------
 TIME.HHMMSS            00 000 000 000:  GT Time & Date
 GTDEPTH.m              00 000 000 000:  GT Depth
 GTPQH.psia             00 000 000 000:  GT HR Quartz Pressure
 GTTQ.degC              00 000 000 000:  GT Quartz Temperature
 GTTN.NONE              00 000 000 000:  GT Test Number
 GTET.sec               00 000 000 000:  GT Elapsed Test Time
 GTTVD.m                00 000 000 000:  GT True Vertical Depth
#Other Information
#
#WARRANTY: Halliburton will use its best efforts to furnish customers with 
#accurate information and interpretations that are part of, and incident to, the services 
#provided.  However, Halliburton cannot and does not warrant the accuracy 
#or correctness of such information and interpretations.  Under no circumstances should any 
#such information or interpretation be relied upon as the sole basis for any drilling, 
#completion, production, or financial decision or any procedure involving any risk to the 
#safety of any drilling venture, drilling rig or its crew or any other third party.  The 
#Customer has full responsibility for all drilling, completion and production operation.  
#Halliburton makes no representations or warranties, either expressed or 
#implied, including, but not limited to, the implied warranties of merchantability or fitness 
#for a particular purpose, with respect to the services rendered.  In no event will 
#Halliburton be liable for failure to obtain any particular results or for 
#any damages, including, but not limited to, indirect, special or consequential damages, 
#resulting from the use of any information or interpretation provided by Halliburton.
#
~A           TIME           GTDEPTH  GTPQH  GTTQ  GTTN   GTET   GTTVD  
# ...
   11:53:49.552.27-Aug-2021 4914.00 7807.78 85.27 11.00 293.90 3261.31
   11:53:49.752.27-Aug-2021 4914.00 7807.79 85.27 11.00 294.10 3261.31
   11:53:49.952.27-Aug-2021 4914.00 7807.79 85.27 11.00 294.30 3261.31
   11:53:50.152.27-Aug-2021 4914.00 7807.64 85.27 11.00 294.50 3261.31
   11:53:50.352.27-Aug-2021 4914.00 7809.42 85.27 11.00 294.70 3261.31
   11:53:50.552.27-Aug-2021 4914.00 7807.65 85.27 11.00 294.90 3261.31
   11:53:50.753.27-Aug-2021 4914.00 7807.52 85.27 11.00 295.10 3261.31
   11:53:50.953.27-Aug-2021 4914.00 7807.52 85.27 11.00 295.30 3261.31
   11:53:51.153.27-Aug-2021 4914.00 7807.21 85.27 11.00 295.50 3261.31
   11:53:51.353.27-Aug-2021 4914.00 7807.35 85.27 11.00 295.70 3261.31
   11:53:51.553.27-Aug-2021 4914.00 7806.95 85.27 11.00 295.91 3261.31
   11:53:51.753.27-Aug-2021 4914.00 7807.24 85.27 11.00 296.11 3261.31
   11:53:51.953.27-Aug-2021 4914.00 7807.24 85.27 11.00 296.31 3261.31
   11:53:52.153.27-Aug-2021 4914.00 7807.93 85.27 11.00 296.51 3261.31
   11:53:52.353.27-Aug-2021 4914.00 7808.21 85.27 11.00 296.71 3261.31
   11:53:52.553.27-Aug-2021 4914.00 7808.19 85.27 11.00 296.91 3261.31
   11:53:52.753.27-Aug-2021 4914.00 7807.99 85.27 11.00 297.11 3261.31
   11:53:52.953.27-Aug-2021 4914.00 7807.99 85.27 11.00 297.31 3261.31
   11:53:53.153.27-Aug-2021 4914.00 7807.75 85.27 11.00 297.51 3261.31
   11:53:53.353.27-Aug-2021 4914.00 7810.96 85.27 11.00 297.71 3261.31
   11:53:53.554.27-Aug-2021 4914.00 7807.66 85.27 11.00 297.91 3261.31
   11:53:53.754.27-Aug-2021 4914.00 7808.93 85.27 11.00 298.11 3261.31
   11:53:53.954.27-Aug-2021 4914.00 7808.93 85.27 11.00 298.31 3261.31
   11:53:54.154.27-Aug-2021 4914.00 7807.08 85.27 11.00 298.51 3261.31
   11:53:54.354.27-Aug-2021 4914.00 7807.15 85.27 11.00 298.71 3261.31
   11:53:54.554.27-Aug-2021 4914.00 7811.02 85.27 11.00 298.91 3261.31
   11:53:54.754.27-Aug-2021 4914.00 7806.22 85.27 11.00 299.11 3261.31
   11:53:54.954.27-Aug-2021 4914.00 7806.22 85.27 11.00 299.31 3261.31
   11:53:55.154.27-Aug-2021 4914.00 7810.47 85.27 11.00 299.51 3261.31
   11:53:55.354.27-Aug-2021 4914.00 7807.55 85.27 11.00 299.71 3261.31
   11:53:55.554.27-Aug-2021 4914.00 7809.25 85.27 11.00 299.91 3261.31
   11:53:55.754.27-Aug-2021 4914.00 7807.72 85.27 11.00 300.11 3261.31
   11:53:55.954.27-Aug-2021 4914.00 7807.72 85.27 11.00 300.31 3261.31
   11:53:56.154.27-Aug-2021 4914.00 7807.14 85.27 11.00 300.51 3261.31
   11:53:56.355.27-Aug-2021 4914.00 7806.83 85.27 11.00 300.71 3261.31
   11:53:56.555.27-Aug-2021 4914.00 7810.25 85.27 11.00 300.91 3261.31
   11:53:56.755.27-Aug-2021 4914.00 7808.07 85.27 11.00 301.11 3261.31
   11:53:56.955.27-Aug-2021 4914.00 7808.07 85.27 11.00 301.31 3261.31
   11:53:57.155.27-Aug-2021 4914.00 7807.79 85.27 11.00 301.51 3261.31
   11:53:57.355.27-Aug-2021 4914.00 7807.24 85.27 11.00 301.71 3261.31
   11:53:57.555.27-Aug-2021 4914.00 7807.45 85.27 11.00 301.91 3261.31
   11:53:57.755.27-Aug-2021 4914.00 7807.22 85.27 11.00 302.11 3261.31
   11:53:57.955.27-Aug-2021 4914.00 7807.22 85.27 11.00 302.31 3261.31
   11:53:58.155.27-Aug-2021 4914.00 7806.90 85.27 11.00 302.51 3261.31
   11:53:58.355.27-Aug-2021 4914.00 7807.36 85.27 11.00 302.71 3261.31
   11:53:58.555.27-Aug-2021 4914.00 7807.43 85.27 11.00 302.91 3261.31
   11:53:58.755.27-Aug-2021 4914.00 7807.79 85.27 11.00 303.11 3261.31
   11:53:58.955.27-Aug-2021 4914.00 7807.79 85.27 11.00 303.31 3261.31
   11:53:59.156.27-Aug-2021 4914.00 7807.49 85.27 11.00 303.51 3261.31
   11:53:59.356.27-Aug-2021 4914.00 7807.56 85.27 11.00 303.71 3261.31
   11:53:59.556.27-Aug-2021 4914.00 7807.34 85.27 11.00 303.91 3261.31
   11:53:59.756.27-Aug-2021 4914.00 7811.85 85.27 11.00 304.11 3261.31
   11:53:59.956.27-Aug-2021 4914.00 7811.85 85.27 11.00 304.31 3261.31
   11:54:00.156.27-Aug-2021 4914.00 7808.59 85.27 11.00 304.51 3261.31
   11:54:00.356.27-Aug-2021 4914.00 7807.43 85.27 11.00 304.71 3261.31
   11:54:00.556.27-Aug-2021 4914.00 7806.84 85.27 11.00 304.91 3261.31
   11:54:00.756.27-Aug-2021 4914.00 7807.00 85.27 11.00 305.11 3261.31
   11:54:00.956.27-Aug-2021 4914.00 7807.00 85.27 11.00 305.31 3261.31
   11:54:01.156.27-Aug-2021 4914.00 7806.70 85.27 11.00 305.51 3261.31
   11:54:01.356.27-Aug-2021 4914.00 7806.88 85.27 11.00 305.71 3261.31
   11:54:01.556.27-Aug-2021 4914.00 7807.30 85.27 11.00 305.91 3261.31
   11:54:01.756.27-Aug-2021 4914.00 7807.75 85.27 11.00 306.11 3261.31
   11:54:01.957.27-Aug-2021 4914.00 7807.75 85.27 11.00 306.31 3261.31
   11:54:02.157.27-Aug-2021 4914.00 7808.21 85.27 11.00 306.51 3261.31
   11:54:02.357.27-Aug-2021 4914.00 7807.96 85.27 11.00 306.71 3261.31
   11:54:02.557.27-Aug-2021 4914.00 7807.95 85.27 11.00 306.91 3261.31
   11:54:02.757.27-Aug-2021 4914.00 7807.52 85.27 11.00 307.11 3261.31
   11:54:02.957.27-Aug-2021 4914.00 7807.52 85.27 11.00 307.31 3261.31
   11:54:03.157.27-Aug-2021 4914.00 7811.65 85.27 11.00 307.51 3261.31
   11:54:03.357.27-Aug-2021 4914.00 7806.09 85.27 11.00 307.71 3261.31
   11:54:03.557.27-Aug-2021 4914.00 7808.45 85.27 11.00 307.91 3261.31
   11:54:03.757.27-Aug-2021 4914.00 7807.23 85.27 11.00 308.11 3261.31
   11:54:03.957.27-Aug-2021 4914.00 7807.23 85.27 11.00 308.31 3261.31
   11:54:04.157.27-Aug-2021 4914.00 7812.96 85.27 11.00 308.51 3261.31
   11:54:04.357.27-Aug-2021 4914.00 7803.84 85.27 11.00 308.71 3261.31
   11:54:04.557.27-Aug-2021 4914.00 7807.80 85.27 11.00 308.91 3261.31
   11:54:04.758.27-Aug-2021 4914.00 7807.19 85.27 11.00 309.11 3261.31
   11:54:04.958.27-Aug-2021 4914.00 7807.19 85.27 11.00 309.31 3261.31
   11:54:05.158.27-Aug-2021 4914.00 7807.25 85.27 11.00 309.51 3261.31
   11:54:05.358.27-Aug-2021 4914.00 7807.21 85.27 11.00 309.71 3261.31
   11:54:05.558.27-Aug-2021 4914.00 7810.36 85.27 11.00 309.91 3261.31
   11:54:05.758.27-Aug-2021 4914.00 7807.15 85.27 11.00 310.11 3261.31
   11:54:05.958.27-Aug-2021 4914.00 7807.15 85.27 11.00 310.31 3261.31
   11:54:06.158.27-Aug-2021 4914.00 7807.58 85.27 11.00 310.51 3261.31
   11:54:06.358.27-Aug-2021 4914.00 7807.53 85.27 11.00 310.71 3261.31
   11:54:06.558.27-Aug-2021 4914.00 7807.41 85.27 11.00 310.91 3261.31
   11:54:06.758.27-Aug-2021 4914.00 7807.00 85.27 11.00 311.11 3261.31
   11:54:06.958.27-Aug-2021 4914.00 7807.00 85.27 11.00 311.31 3261.31
   11:54:07.158.27-Aug-2021 4914.00 7807.49 85.27 11.00 311.51 3261.31
   11:54:07.358.27-Aug-2021 4914.00 7807.58 85.27 11.00 311.71 3261.31
   11:54:07.559.27-Aug-2021 4914.00 7807.51 85.27 11.00 311.91 3261.31
   11:54:07.759.27-Aug-2021 4914.00 7807.31 85.27 11.00 312.11 3261.31
   11:54:07.959.27-Aug-2021 4914.00 7807.31 85.27 11.00 312.31 3261.31
   11:54:08.159.27-Aug-2021 4914.00 7807.43 85.27 11.00 312.51 3261.31
   11:54:08.359.27-Aug-2021 4914.00 7806.83 85.27 11.00 312.71 3261.31
   11:54:08.559.27-Aug-2021 4914.00 7807.32 85.27 11.00 312.91 3261.31
   11:54:08.759.27-Aug-2021 4914.00 7807.63 85.27 11.00 313.11 3261.31
   11:54:08.959.27-Aug-2021 4914.00 7807.63 85.27 11.00 313.31 3261.31
   11:54:09.159.27-Aug-2021 4914.00 7807.93 85.27 11.00 313.51 3261.31
   11:54:09.359.27-Aug-2021 4914.00 7807.86 85.27 11.00 313.71 3261.31
   11:54:09.559.27-Aug-2021 4914.00 7807.48 85.27 11.00 313.91 3261.31
   11:54:09.759.27-Aug-2021 4914.00 7807.53 85.27 11.00 314.11 3261.31
   11:54:09.959.27-Aug-2021 4914.00 7807.53 85.27 11.00 314.31 3261.31
   11:54:10.159.27-Aug-2021 4914.00 7811.74 85.27 11.00 314.51 3261.31
   11:54:10.360.27-Aug-2021 4914.00 7806.18 85.27 11.00 314.71 3261.31
   11:54:10.560.27-Aug-2021 4914.00 7808.31 85.27 11.00 314.91 3261.31
   11:54:10.760.27-Aug-2021 4914.00 7807.37 85.27 11.00 315.11 3261.31
   11:54:10.960.27-Aug-2021 4914.00 7807.37 85.27 11.00 315.31 3261.31
   11:54:11.160.27-Aug-2021 4914.00 7807.11 85.27 11.00 315.51 3261.31
   11:54:11.360.27-Aug-2021 4914.00 7806.85 85.27 11.00 315.71 3261.31
   11:54:11.560.27-Aug-2021 4914.00 7806.90 85.27 11.00 315.91 3261.31
   11:54:11.760.27-Aug-2021 4914.00 7807.14 85.27 11.00 316.11 3261.31
   11:54:11.960.27-Aug-2021 4914.00 7807.14 85.27 11.00 316.31 3261.31
