~Version Information
 VERS.                  2.0:   CWLS log ASCII Standard -VERSION 2.0
 WRAP.                   NO:   One line per depth step
~Well Information Block
#MNEM.UNIT     VALUE/NAME     DESCRIPTION
#---------     -----------    ---------------------------
 STRT.S             21:02:56 27-Aug-21: START TIME 21:02:56 27-Aug-21
 STOP.S             21:10:06 27-Aug-21: STOP TIME  21:10:06 27-Aug-21
 STEP.S                   0.00: STEP TIME
 NULL.                 -999.25: NULL VALUE
 DFWT.                        :  DIST FWL TEXT
 DFST.                        :  DIST FSL TEXT
 DMF .             Drill Floor:  DRILL MEAS FROM
 STIM.      20.00.00 17-Aug-21:  START TIME
 DATE.      19.00.00 29-Aug-21:  END TIME
 SPUD.               15-Aug-21:  SPUD DATE
 NREF.                    Grid:  NORTH REFERENCE
 HPTY.       Minimum Curvature:  HOLE POS TYPE
 DMOD.             Drill Model:  DRILL MOD DESC
 SVYD.                  Survey:  SURVEY DESC
 ILTD.               Lithology:  INTERP LTH DESC
 FTOP.          Formation Tops:  FORM TOPS DESC
 RIG .              East Azeri:  RIG NAME
 PDAT.          Mean Sea Level:  PERMANENT DATUM
 FLD .                     ACG:  FIELD NAME
 SON .        AZ-XX-0907180857:  JOB NUMBER
 CTRY.              Azerbaijan:  COUNTRY NAME
 WELL.                    D23x:  WELL NAME
 SRVC.     Turan Drilling and Engineering:  CONTRACTOR
 COMP.     BP Exploration (Caspian Sea) Ltd.:  COMPANY
 UWI .            /AZE00000214:  UNIQUE WELL IDENTIFIER
 API .            /AZE00000214:  API NUMBER
 MDS .        Operator Entered:  MAG DATA SOURCE
 BASE.              Azerbaijan:  LOGGING EQUIPMENT BASE LOCATION
 REGN.                   EESSA:  REGION
 PROV.                    Baku:  PROVINCE
 STAT.                    Baku:  STATE NAME
 MWDS.                    Baku:  MWD SHOP
 DOE .                     N/A:  DOE NUMBER
 DCON.         Sperry Drilling:  DIRECTNL CONTR
 UNIT.                     N/A:  LOGGING EQUIPMENT ID
 WTYP.                Deviated:  WELL TYPE
 CNTY.                        :  COUNTY
 LOC .                        :  LOCATION
 LMF .             Drill Floor:  LOG MEASURED FROM
 TVDS.m                  43.60:  TVDSS CORRECTN
 LATI.deg                40.02:  LATITUDE
 LONG.deg                51.45:  LONGITUDE
 WHNS.m                  -7.04:  WELL HEAD N/S
 WHEW.m                  -0.67:  WELL HEAD E/W
 UTMX.m              538762.90:  UTM X
 UTMY.m             4431871.34:  UTM Y
 DFWL.m                   0.00:  DISTANCE FWL
 DFSL.m                   0.00:  DISTANCE FSL
 SDEP.m                4127.00:  START DEPTH
 TDD .m                5084.50:  TOTAL DEPTH (DRILLER)
 VSDR.deg               140.47:  VERT SEC DIRECT
 GVFD.g                   1.00:  GRAVITY FIELD
 MFLD.nT              50362.00:  MAGNETIC FIELD
 MDIP.deg                59.48:  MAGNETIC DIP
 MDEC.deg                 6.47:  MAGNETIC DECL
 GRDC.deg                 0.31:  GRID CORRECTION
 AZTC.deg                 6.16:  AZM TOTAL CORR
 EPD .m                   0.00:  ELEVATION
 EGL .m                   0.00:  GROUND ELEVATION
 WDMS.m                 151.80:  WD ELEV
 APD .m                  43.60:  DEPTH ABOVE PD
 DEP .m                4092.57:  DEPTH
 AGAP.m                  43.60:  AIR GAP
 VSEW.m                  -0.67:  VERT SEC E/W
 VSNS.m                  -7.04:  VERT SEC N/S
 EKB .m                  43.60:  KB ELEVATION
 EDF .m                  43.60:  DF ELEVATION
 TDL .m                 957.50:  TOTAL DEPTH (LOGGER)
 VSC .                       0:  VS TO CLOSURE
 MAGU.                 1851413:  MAGUTM CHECKSUM
~Parameter Information Block
#MNEM.UNIT       Value        Description
#---------     -----------    ---------------------------
 AV  .mps                 1.50:  Ann Velocity 
 AVMX.mps                 2.00:  Max Ann Veloc 
 AZIF.deg               184.66:  Azm, Final 
 BHAT.        Rotary Steerable:  BHA Type 
 BREV.rev               300.00:  Rev Bit Total 
 BROT.°/30m              -0.50:  Build Rotating 
 BS  .in                  8.50:  Bit Size 
 BSZ .in                  8.50:  Bit Size 
 BTPL.psig              370.00:  Bit Press Loss 
 CABU.                      No:  Customer Abuse 
 CGEO.      Behruz Shahbaliyev:  Customer Geo 
 COMM.                     <]h:  Run Comments 1 
 TCS .hr                140.08:  Time Ciculation Ended 
 CV  .mps                 3.00:  Crit Velocity 
 CVMX.mps                 3.20:  Max Crit Veloc 
 DD1 .            Musa Ahmadov:  Direct Drillr 1 
 DD2 .           Hamid Ahmadov:  Direct Drillr 2 
 DDSV.               Geo-Pilot:  DD Service 
 DEFF.%                  98.40:  % Det Eff 
 DLRX.°/30m               3.40:  Dogleg Rot Max 
 DLSO.°/30m               1.45:  Dogleg Oriented 
 DLSX.°/30m               3.40:  Dogleg Str Max 
 DRET.      18.40.00 29-Aug-21:  Drill End Time 
 DRST.      21.00.00 20-Aug-21:  Drill Start Tim 
 DTIM.hr                 69.47:  Time Drilling 
 EDEP.m                5084.50:  End Depth 
 ENG1.      Artemiy Matviyanov:  Engineer 1 
 ENG2.         Almaz Almadatov:  Engineer 2 
 ETIM.      18.40.00 29-Aug-21:  End Time 
 FLOI.gpm               500.00:  Flow In 
 FLON.gpm               400.00:  Flow In Min 
 FLOS.cptm                0.00:  Fluid Loss 
 FLOX.gpm               500.00:  Flow In Max 
 DFT .        Mineral Oil Base:  Mud Type 
 HFLO.                      No:  High Flow 
 HPRE.                      No:  High Pressure 
 HTEM.                      No:  High Temp 
 HYDO.m                   1.80:  Hydro Offset 
 IFIN.deg                25.62:  Inc, Final 
 IMAX.deg                48.69:  Inc Max 
 IMIN.deg                24.01:  Inc Min 
 IMND.m                4962.57:  Inc Min Depth 
 IMXD.m                4119.01:  Inc Max Depth 
 JARR.                      No:  Jarring 
 LETM.      18.40.00 29-Aug-21:  Log End Time 
 LOST.hr                     0:  Lost Rig Time 
 LSTM.      21.00.00 20-Aug-21:  Log Start Time 
 MDCL.ppm             41500.00:  Mud Chlorides 
 MDES.     Inversion Oil/Synthetic:  Mud Desc 
 DFD .sg                  1.56:  Mud Density 
 MDMN.sg                  1.56:  Dens Mud Min 
 MDMX.sg                  1.56:  Dens Mud Max 
 MOIL.                      70:  Run Mud Oil % 
 MOWR.                   70:30:  Run Mud OWR 
 MSND.                     0.2:  Run Mud Sand % 
 MSOL.                    23.3:  Run Mud Solids% 
 DFV .spqt               78.00:  Mud Viscosity 
 MWOD.in                  6.75:  MWD Tool OD 
 MWSI.                      No:  Serv Intrp, MWD 
 OTIM.hr                218.30:  Time Operating 
 PCON.           Look Like New:  Pad Condition 
 PMAX.psia            11015.30:  Press Op, Max 
 PV  .cP                 38.00:  Mud PV 
 RUN .                     300:  Run Number 
 ROPA.m/hr               15.00:  ROP Avg 
 ROPN.m/hr                9.00:  ROP Min 
 ROPX.m/hr               17.00:  ROP Max 
 RPMA.rpm               120.00:  RPM Surface Avg 
 RPMN.rpm                90.00:  RPM Surface Min 
 RPMX.rpm               140.00:  RPM Surface Max 
 RRUN.                     300:  Rig Run Number 
 RTIM.hr                 31.53:  Time Reaming 
 SAZI.deg               331.64:  Azm, Start 
 SDEP.m                4127.00:  Start Depth 
 SIDD.                      No:  Serv Intrp, DD 
 SINC.deg                48.43:  Inc, Start 
 SPPA.psig             5830.00:  SPP Avg 
 SPPN.psig             5600.00:  SPP Min 
 SPPX.psig             5900.00:  SPP Max 
 STIM.      21.00.00 20-Aug-21:  Start Time 
 SVCS.                 DD, MWD:  Services 
 SVER.                    9.20:  Sperry Version 
 TDAT.m                 957.50:  Tot Depth Attmp 
 TDDF.                      No:  Trip for DD 
 TDLG.m                 957.50:  Tot Depth Loggd 
 TFF .                      No:  Trip for Fail 
 TQAA.f-kp               15.00:  Torque Abs Avg 
 TQAN.f-kp               12.00:  Torque Abs Min 
 TQAX.f-kp               19.00:  Torque Abs Max 
 TRRT.°/30m              -3.40:  Turn Rotating 
 MRT .                  EWR-M5:  Maximum Recorded Temperature 
 TTMX.degC              100.00:  Max Tool Temp 
 VS01.                90639251:  Virtual Str1 SN 
 VS02.                90634715:  Virtual Str2 SN 
 VS03.                90652479:  Virtual Str3 SN 
 VS04.                90642262:  Virtual Str4 SN 
 WBMN.klb                 0.00:  WOB Min 
 WITN.           Murad Guliyev:  Customer Rep 
 WITN.          Yashar Gaziyev:  Customer Rep 2 
 WOBA.klb                 9.00:  WOB Avg 
 WOBX.klb                12.00:  WOB Max 
 YP  .lhf2               30.00:  Yield Point 
~Curve Information Block
#MNEM.UNIT                 API CODE     Curve Description
#---------               -----------    ---------------------------
 TIME.HHMMSS            00 000 000 000:  GT Time & Date
 GTDEPTH.m              00 000 000 000:  GT Depth
 GTPQH.psia             00 000 000 000:  GT HR Quartz Pressure
 GTTQ.degC              00 000 000 000:  GT Quartz Temperature
 GTTN.NONE              00 000 000 000:  GT Test Number
 GTET.sec               00 000 000 000:  GT Elapsed Test Time
 GTTVD.m                00 000 000 000:  GT True Vertical Depth
#Other Information
#
#WARRANTY: Halliburton will use its best efforts to furnish customers with 
#accurate information and interpretations that are part of, and incident to, the services 
#provided.  However, Halliburton cannot and does not warrant the accuracy 
#or correctness of such information and interpretations.  Under no circumstances should any 
#such information or interpretation be relied upon as the sole basis for any drilling, 
#completion, production, or financial decision or any procedure involving any risk to the 
#safety of any drilling venture, drilling rig or its crew or any other third party.  The 
#Customer has full responsibility for all drilling, completion and production operation.  
#Halliburton makes no representations or warranties, either expressed or 
#implied, including, but not limited to, the implied warranties of merchantability or fitness 
#for a particular purpose, with respect to the services rendered.  In no event will 
#Halliburton be liable for failure to obtain any particular results or for 
#any damages, including, but not limited to, indirect, special or consequential damages, 
#resulting from the use of any information or interpretation provided by Halliburton.
#
~A           TIME           GTDEPTH  GTPQH  GTTQ  GTTN   GTET   GTTVD  
# ...
   21:05:11.736.27-Aug-2021 4647.50 4518.30 82.37 22.00 135.61 3019.99
   21:05:11.936.27-Aug-2021 4647.50 4518.29 82.37 22.00 135.81 3019.99
   21:05:12.136.27-Aug-2021 4647.50 4518.31 82.37 22.00 136.01 3019.99
   21:05:12.336.27-Aug-2021 4647.50 4518.31 82.37 22.00 136.21 3019.99
   21:05:12.536.27-Aug-2021 4647.50 4518.34 82.37 22.00 136.41 3019.99
   21:05:12.736.27-Aug-2021 4647.50 4518.33 82.37 22.00 136.61 3019.99
   21:05:12.936.27-Aug-2021 4647.50 4518.28 82.37 22.00 136.81 3019.99
   21:05:13.136.27-Aug-2021 4647.50 4518.31 82.37 22.00 137.01 3019.99
   21:05:13.336.27-Aug-2021 4647.50 4518.31 82.37 22.00 137.21 3019.99
   21:05:13.536.27-Aug-2021 4647.50 4518.29 82.37 22.00 137.41 3019.99
   21:05:13.736.27-Aug-2021 4647.50 4518.29 82.37 22.00 137.61 3019.99
   21:05:13.936.27-Aug-2021 4647.50 4518.34 82.37 22.00 137.81 3019.99
   21:05:14.136.27-Aug-2021 4647.50 4518.31 82.37 22.00 138.01 3019.99
   21:05:14.336.27-Aug-2021 4647.50 4518.31 82.37 22.00 138.21 3019.99
   21:05:14.536.27-Aug-2021 4647.50 4518.33 82.37 22.00 138.41 3019.99
   21:05:14.736.27-Aug-2021 4647.50 4518.32 82.37 22.00 138.61 3019.99
   21:05:14.936.27-Aug-2021 4647.50 4518.35 82.37 22.00 138.81 3019.99
   21:05:15.137.27-Aug-2021 4647.50 4518.37 82.37 22.00 139.01 3019.99
   21:05:15.337.27-Aug-2021 4647.50 4518.37 82.37 22.00 139.21 3019.99
   21:05:15.537.27-Aug-2021 4647.50 4518.35 82.37 22.00 139.41 3019.99
   21:05:15.737.27-Aug-2021 4647.50 4518.37 82.37 22.00 139.61 3019.99
   21:05:15.937.27-Aug-2021 4647.50 4518.38 82.37 22.00 139.81 3019.99
   21:05:16.137.27-Aug-2021 4647.50 4518.30 82.37 22.00 140.01 3019.99
   21:05:16.337.27-Aug-2021 4647.50 4518.30 82.37 22.00 140.21 3019.99
   21:05:16.537.27-Aug-2021 4647.50 4518.32 82.37 22.00 140.41 3019.99
   21:05:16.737.27-Aug-2021 4647.50 4518.29 82.37 22.00 140.61 3019.99
   21:05:16.937.27-Aug-2021 4647.50 4518.31 82.37 22.00 140.81 3019.99
   21:05:17.137.27-Aug-2021 4647.50 4518.28 82.37 22.00 141.01 3019.99
   21:05:17.337.27-Aug-2021 4647.50 4518.28 82.37 22.00 141.21 3019.99
   21:05:17.537.27-Aug-2021 4647.50 4518.10 82.37 22.00 141.41 3019.99
   21:05:17.737.27-Aug-2021 4647.50 4518.54 82.37 22.00 141.61 3019.99
   21:05:17.937.27-Aug-2021 4647.50 4518.30 82.37 22.00 141.81 3019.99
   21:05:18.137.27-Aug-2021 4647.50 4518.28 82.37 22.00 142.01 3019.99
   21:05:18.337.27-Aug-2021 4647.50 4518.28 82.37 22.00 142.21 3019.99
   21:05:18.537.27-Aug-2021 4647.50 4518.58 82.37 22.00 142.41 3019.99
   21:05:18.737.27-Aug-2021 4647.50 4518.27 82.37 22.00 142.61 3019.99
   21:05:18.937.27-Aug-2021 4647.50 4518.29 82.37 22.00 142.81 3019.99
   21:05:19.137.27-Aug-2021 4647.50 4518.29 82.37 22.00 143.01 3019.99
   21:05:19.337.27-Aug-2021 4647.50 4518.29 82.37 22.00 143.21 3019.99
   21:05:19.537.27-Aug-2021 4647.50 4518.27 82.37 22.00 143.41 3019.99
   21:05:19.737.27-Aug-2021 4647.50 4518.28 82.37 22.00 143.61 3019.99
   21:05:19.937.27-Aug-2021 4647.50 4518.28 82.37 22.00 143.81 3019.99
   21:05:20.137.27-Aug-2021 4647.50 4518.29 82.37 22.00 144.01 3019.99
   21:05:20.337.27-Aug-2021 4647.50 4518.29 82.37 22.00 144.21 3019.99
   21:05:20.537.27-Aug-2021 4647.50 4518.32 82.37 22.00 144.41 3019.99
   21:05:20.737.27-Aug-2021 4647.50 4518.29 82.37 22.00 144.61 3019.99
   21:05:20.937.27-Aug-2021 4647.50 4518.32 82.37 22.00 144.81 3019.99
   21:05:21.137.27-Aug-2021 4647.50 4518.31 82.37 22.00 145.01 3019.99
   21:05:21.337.27-Aug-2021 4647.50 4518.31 82.37 22.00 145.21 3019.99
   21:05:21.537.27-Aug-2021 4647.50 4518.35 82.37 22.00 145.41 3019.99
   21:05:21.737.27-Aug-2021 4647.50 4518.34 82.37 22.00 145.61 3019.99
   21:05:21.937.27-Aug-2021 4647.50 4518.35 82.37 22.00 145.81 3019.99
   21:05:22.137.27-Aug-2021 4647.50 4518.08 82.37 22.00 146.01 3019.99
   21:05:22.337.27-Aug-2021 4647.50 4518.08 82.37 22.00 146.21 3019.99
   21:05:22.537.27-Aug-2021 4647.50 4518.33 82.37 22.00 146.41 3019.99
   21:05:22.737.27-Aug-2021 4647.50 4518.30 82.37 22.00 146.61 3019.99
   21:05:22.937.27-Aug-2021 4647.50 4518.31 82.37 22.00 146.82 3019.99
   21:05:23.137.27-Aug-2021 4647.50 4518.32 82.37 22.00 147.02 3019.99
   21:05:23.337.27-Aug-2021 4647.50 4518.32 82.37 22.00 147.22 3019.99
   21:05:23.537.27-Aug-2021 4647.50 4518.31 82.37 22.00 147.42 3019.99
   21:05:23.737.27-Aug-2021 4647.50 4518.32 82.37 22.00 147.62 3019.99
   21:05:23.937.27-Aug-2021 4647.50 4518.33 82.37 22.00 147.82 3019.99
   21:05:24.137.27-Aug-2021 4647.50 4518.33 82.37 22.00 148.02 3019.99
   21:05:24.337.27-Aug-2021 4647.50 4518.33 82.37 22.00 148.22 3019.99
   21:05:24.537.27-Aug-2021 4647.50 4518.34 82.37 22.00 148.42 3019.99
   21:05:24.737.27-Aug-2021 4647.50 4518.37 82.37 22.00 148.62 3019.99
   21:05:24.938.27-Aug-2021 4647.50 4518.37 82.37 22.00 148.82 3019.99
   21:05:25.138.27-Aug-2021 4647.50 4518.36 82.37 22.00 149.02 3019.99
   21:05:25.338.27-Aug-2021 4647.50 4518.36 82.37 22.00 149.22 3019.99
   21:05:25.538.27-Aug-2021 4647.50 4518.17 82.37 22.00 149.42 3019.99
   21:05:25.738.27-Aug-2021 4647.50 4518.52 82.37 22.00 149.62 3019.99
   21:05:25.938.27-Aug-2021 4647.50 4518.32 82.37 22.00 149.82 3019.99
   21:05:26.138.27-Aug-2021 4647.50 4518.32 82.37 22.00 150.02 3019.99
   21:05:26.338.27-Aug-2021 4647.50 4518.32 82.37 22.00 150.22 3019.99
   21:05:26.538.27-Aug-2021 4647.50 4518.32 82.37 22.00 150.42 3019.99
   21:05:26.738.27-Aug-2021 4647.50 4518.34 82.37 22.00 150.62 3019.99
   21:05:26.938.27-Aug-2021 4647.50 4518.31 82.37 22.00 150.82 3019.99
   21:05:27.138.27-Aug-2021 4647.50 4518.34 82.37 22.00 151.02 3019.99
   21:05:27.338.27-Aug-2021 4647.50 4518.34 82.37 22.00 151.22 3019.99
   21:05:27.538.27-Aug-2021 4647.50 4518.31 82.37 22.00 151.42 3019.99
   21:05:27.738.27-Aug-2021 4647.50 4518.30 82.37 22.00 151.62 3019.99
   21:05:27.938.27-Aug-2021 4647.50 4518.36 82.37 22.00 151.82 3019.99
   21:05:28.138.27-Aug-2021 4647.50 4518.28 82.37 22.00 152.02 3019.99
   21:05:28.338.27-Aug-2021 4647.50 4518.28 82.37 22.00 152.22 3019.99
   21:05:28.538.27-Aug-2021 4647.50 4518.56 82.37 22.00 152.42 3019.99
   21:05:28.738.27-Aug-2021 4647.50 4518.36 82.37 22.00 152.62 3019.99
   21:05:28.938.27-Aug-2021 4647.50 4518.27 82.37 22.00 152.82 3019.99
   21:05:29.138.27-Aug-2021 4647.50 4518.30 82.37 22.00 153.02 3019.99
   21:05:29.338.27-Aug-2021 4647.50 4518.30 82.37 22.00 153.22 3019.99
   21:05:29.538.27-Aug-2021 4647.50 4518.30 82.37 22.00 153.42 3019.99
   21:05:29.738.27-Aug-2021 4647.50 4518.33 82.37 22.00 153.62 3019.99
   21:05:29.938.27-Aug-2021 4647.50 4518.30 82.37 22.00 153.82 3019.99
   21:05:30.138.27-Aug-2021 4647.50 4518.30 82.37 22.00 154.02 3019.99
   21:05:30.338.27-Aug-2021 4647.50 4518.30 82.37 22.00 154.22 3019.99
   21:05:30.538.27-Aug-2021 4647.50 4518.33 82.37 22.00 154.42 3019.99
   21:05:30.738.27-Aug-2021 4647.50 4518.33 82.37 22.00 154.62 3019.99
   21:05:30.938.27-Aug-2021 4647.50 4518.32 82.37 22.00 154.82 3019.99
   21:05:31.138.27-Aug-2021 4647.50 4518.36 82.37 22.00 155.02 3019.99
   21:05:31.338.27-Aug-2021 4647.50 4518.36 82.37 22.00 155.22 3019.99
   21:05:31.538.27-Aug-2021 4647.50 4518.34 82.37 22.00 155.42 3019.99
   21:05:31.738.27-Aug-2021 4647.50 4518.34 82.37 22.00 155.62 3019.99
   21:05:31.938.27-Aug-2021 4647.50 4518.32 82.37 22.00 155.82 3019.99
   21:05:32.138.27-Aug-2021 4647.50 4518.31 82.37 22.00 156.02 3019.99
   21:05:32.338.27-Aug-2021 4647.50 4518.31 82.37 22.00 156.22 3019.99
   21:05:32.538.27-Aug-2021 4647.50 4518.35 82.37 22.00 156.42 3019.99
   21:05:32.738.27-Aug-2021 4647.50 4518.32 82.37 22.00 156.62 3019.99
   21:05:32.938.27-Aug-2021 4647.50 4518.33 82.37 22.00 156.82 3019.99
   21:05:33.138.27-Aug-2021 4647.50 4518.33 82.37 22.00 157.02 3019.99
   21:05:33.338.27-Aug-2021 4647.50 4518.33 82.37 22.00 157.22 3019.99
   21:05:33.538.27-Aug-2021 4647.50 4518.37 82.37 22.00 157.42 3019.99
   21:05:33.738.27-Aug-2021 4647.50 4518.35 82.37 22.00 157.62 3019.99
   21:05:33.938.27-Aug-2021 4647.50 4518.36 82.37 22.00 157.82 3019.99
   21:05:34.138.27-Aug-2021 4647.50 4518.35 82.37 22.00 158.02 3019.99
