~Version Information
 VERS.                  2.0:   CWLS log ASCII Standard -VERSION 2.0
 WRAP.                   NO:   One line per depth step
~Well Information Block
#MNEM.UNIT     VALUE/NAME     DESCRIPTION
#---------     -----------    ---------------------------
 STRT.S             01:57:49 28-Aug-21: START TIME 01:57:49 28-Aug-21
 STOP.S             02:04:41 28-Aug-21: STOP TIME  02:04:41 28-Aug-21
 STEP.S                   0.00: STEP TIME
 NULL.                 -999.25: NULL VALUE
 DFWT.                        :  DIST FWL TEXT
 DFST.                        :  DIST FSL TEXT
 DMF .             Drill Floor:  DRILL MEAS FROM
 STIM.      20.00.00 17-Aug-21:  START TIME
 DATE.      19.00.00 29-Aug-21:  END TIME
 SPUD.               15-Aug-21:  SPUD DATE
 NREF.                    Grid:  NORTH REFERENCE
 HPTY.       Minimum Curvature:  HOLE POS TYPE
 DMOD.             Drill Model:  DRILL MOD DESC
 SVYD.                  Survey:  SURVEY DESC
 ILTD.               Lithology:  INTERP LTH DESC
 FTOP.          Formation Tops:  FORM TOPS DESC
 RIG .              East Azeri:  RIG NAME
 PDAT.          Mean Sea Level:  PERMANENT DATUM
 FLD .                     ACG:  FIELD NAME
 SON .        AZ-XX-0907180857:  JOB NUMBER
 CTRY.              Azerbaijan:  COUNTRY NAME
 WELL.                    D23x:  WELL NAME
 SRVC.     Turan Drilling and Engineering:  CONTRACTOR
 COMP.     BP Exploration (Caspian Sea) Ltd.:  COMPANY
 UWI .            /AZE00000214:  UNIQUE WELL IDENTIFIER
 API .            /AZE00000214:  API NUMBER
 MDS .        Operator Entered:  MAG DATA SOURCE
 BASE.              Azerbaijan:  LOGGING EQUIPMENT BASE LOCATION
 REGN.                   EESSA:  REGION
 PROV.                    Baku:  PROVINCE
 STAT.                    Baku:  STATE NAME
 MWDS.                    Baku:  MWD SHOP
 DOE .                     N/A:  DOE NUMBER
 DCON.         Sperry Drilling:  DIRECTNL CONTR
 UNIT.                     N/A:  LOGGING EQUIPMENT ID
 WTYP.                Deviated:  WELL TYPE
 CNTY.                        :  COUNTY
 LOC .                        :  LOCATION
 LMF .             Drill Floor:  LOG MEASURED FROM
 TVDS.m                  43.60:  TVDSS CORRECTN
 LATI.deg                40.02:  LATITUDE
 LONG.deg                51.45:  LONGITUDE
 WHNS.m                  -7.04:  WELL HEAD N/S
 WHEW.m                  -0.67:  WELL HEAD E/W
 UTMX.m              538762.90:  UTM X
 UTMY.m             4431871.34:  UTM Y
 DFWL.m                   0.00:  DISTANCE FWL
 DFSL.m                   0.00:  DISTANCE FSL
 SDEP.m                4127.00:  START DEPTH
 TDD .m                5084.50:  TOTAL DEPTH (DRILLER)
 VSDR.deg               140.47:  VERT SEC DIRECT
 GVFD.g                   1.00:  GRAVITY FIELD
 MFLD.nT              50362.00:  MAGNETIC FIELD
 MDIP.deg                59.48:  MAGNETIC DIP
 MDEC.deg                 6.47:  MAGNETIC DECL
 GRDC.deg                 0.31:  GRID CORRECTION
 AZTC.deg                 6.16:  AZM TOTAL CORR
 EPD .m                   0.00:  ELEVATION
 EGL .m                   0.00:  GROUND ELEVATION
 WDMS.m                 151.80:  WD ELEV
 APD .m                  43.60:  DEPTH ABOVE PD
 DEP .m                4092.57:  DEPTH
 AGAP.m                  43.60:  AIR GAP
 VSEW.m                  -0.67:  VERT SEC E/W
 VSNS.m                  -7.04:  VERT SEC N/S
 EKB .m                  43.60:  KB ELEVATION
 EDF .m                  43.60:  DF ELEVATION
 TDL .m                 957.50:  TOTAL DEPTH (LOGGER)
 VSC .                       0:  VS TO CLOSURE
 MAGU.                 1851413:  MAGUTM CHECKSUM
~Parameter Information Block
#MNEM.UNIT       Value        Description
#---------     -----------    ---------------------------
 AV  .mps                 1.50:  Ann Velocity 
 AVMX.mps                 2.00:  Max Ann Veloc 
 AZIF.deg               184.66:  Azm, Final 
 BHAT.        Rotary Steerable:  BHA Type 
 BREV.rev               300.00:  Rev Bit Total 
 BROT.°/30m              -0.50:  Build Rotating 
 BS  .in                  8.50:  Bit Size 
 BSZ .in                  8.50:  Bit Size 
 BTPL.psig              370.00:  Bit Press Loss 
 CABU.                      No:  Customer Abuse 
 CGEO.      Behruz Shahbaliyev:  Customer Geo 
 COMM.                     Äi}:  Run Comments 1 
 TCS .hr                140.08:  Time Ciculation Ended 
 CV  .mps                 3.00:  Crit Velocity 
 CVMX.mps                 3.20:  Max Crit Veloc 
 DD1 .            Musa Ahmadov:  Direct Drillr 1 
 DD2 .           Hamid Ahmadov:  Direct Drillr 2 
 DDSV.               Geo-Pilot:  DD Service 
 DEFF.%                  98.40:  % Det Eff 
 DLRX.°/30m               3.40:  Dogleg Rot Max 
 DLSO.°/30m               1.45:  Dogleg Oriented 
 DLSX.°/30m               3.40:  Dogleg Str Max 
 DRET.      18.40.00 29-Aug-21:  Drill End Time 
 DRST.      21.00.00 20-Aug-21:  Drill Start Tim 
 DTIM.hr                 69.47:  Time Drilling 
 EDEP.m                5084.50:  End Depth 
 ENG1.      Artemiy Matviyanov:  Engineer 1 
 ENG2.         Almaz Almadatov:  Engineer 2 
 ETIM.      18.40.00 29-Aug-21:  End Time 
 FLOI.gpm               500.00:  Flow In 
 FLON.gpm               400.00:  Flow In Min 
 FLOS.cptm                0.00:  Fluid Loss 
 FLOX.gpm               500.00:  Flow In Max 
 DFT .        Mineral Oil Base:  Mud Type 
 HFLO.                      No:  High Flow 
 HPRE.                      No:  High Pressure 
 HTEM.                      No:  High Temp 
 HYDO.m                   1.80:  Hydro Offset 
 IFIN.deg                25.62:  Inc, Final 
 IMAX.deg                48.69:  Inc Max 
 IMIN.deg                24.01:  Inc Min 
 IMND.m                4962.57:  Inc Min Depth 
 IMXD.m                4119.01:  Inc Max Depth 
 JARR.                      No:  Jarring 
 LETM.      18.40.00 29-Aug-21:  Log End Time 
 LOST.hr                     0:  Lost Rig Time 
 LSTM.      21.00.00 20-Aug-21:  Log Start Time 
 MDCL.ppm             41500.00:  Mud Chlorides 
 MDES.     Inversion Oil/Synthetic:  Mud Desc 
 DFD .sg                  1.56:  Mud Density 
 MDMN.sg                  1.56:  Dens Mud Min 
 MDMX.sg                  1.56:  Dens Mud Max 
 MOIL.                      70:  Run Mud Oil % 
 MOWR.                   70:30:  Run Mud OWR 
 MSND.                     0.2:  Run Mud Sand % 
 MSOL.                    23.3:  Run Mud Solids% 
 DFV .spqt               78.00:  Mud Viscosity 
 MWOD.in                  6.75:  MWD Tool OD 
 MWSI.                      No:  Serv Intrp, MWD 
 OTIM.hr                218.30:  Time Operating 
 PCON.           Look Like New:  Pad Condition 
 PMAX.psia            11015.30:  Press Op, Max 
 PV  .cP                 38.00:  Mud PV 
 RUN .                     300:  Run Number 
 ROPA.m/hr               15.00:  ROP Avg 
 ROPN.m/hr                9.00:  ROP Min 
 ROPX.m/hr               17.00:  ROP Max 
 RPMA.rpm               120.00:  RPM Surface Avg 
 RPMN.rpm                90.00:  RPM Surface Min 
 RPMX.rpm               140.00:  RPM Surface Max 
 RRUN.                     300:  Rig Run Number 
 RTIM.hr                 31.53:  Time Reaming 
 SAZI.deg               331.64:  Azm, Start 
 SDEP.m                4127.00:  Start Depth 
 SIDD.                      No:  Serv Intrp, DD 
 SINC.deg                48.43:  Inc, Start 
 SPPA.psig             5830.00:  SPP Avg 
 SPPN.psig             5600.00:  SPP Min 
 SPPX.psig             5900.00:  SPP Max 
 STIM.      21.00.00 20-Aug-21:  Start Time 
 SVCS.                 DD, MWD:  Services 
 SVER.                    9.20:  Sperry Version 
 TDAT.m                 957.50:  Tot Depth Attmp 
 TDDF.                      No:  Trip for DD 
 TDLG.m                 957.50:  Tot Depth Loggd 
 TFF .                      No:  Trip for Fail 
 TQAA.f-kp               15.00:  Torque Abs Avg 
 TQAN.f-kp               12.00:  Torque Abs Min 
 TQAX.f-kp               19.00:  Torque Abs Max 
 TRRT.°/30m              -3.40:  Turn Rotating 
 MRT .                  EWR-M5:  Maximum Recorded Temperature 
 TTMX.degC              100.00:  Max Tool Temp 
 VS01.                90639251:  Virtual Str1 SN 
 VS02.                90634715:  Virtual Str2 SN 
 VS03.                90652479:  Virtual Str3 SN 
 VS04.                90642262:  Virtual Str4 SN 
 WBMN.klb                 0.00:  WOB Min 
 WITN.           Murad Guliyev:  Customer Rep 
 WITN.          Yashar Gaziyev:  Customer Rep 2 
 WOBA.klb                 9.00:  WOB Avg 
 WOBX.klb                12.00:  WOB Max 
 YP  .lhf2               30.00:  Yield Point 
~Curve Information Block
#MNEM.UNIT                 API CODE     Curve Description
#---------               -----------    ---------------------------
 TIME.HHMMSS            00 000 000 000:  GT Time & Date
 GTDEPTH.m              00 000 000 000:  GT Depth
 GTPQH.psia             00 000 000 000:  GT HR Quartz Pressure
 GTTQ.degC              00 000 000 000:  GT Quartz Temperature
 GTTN.NONE              00 000 000 000:  GT Test Number
 GTET.sec               00 000 000 000:  GT Elapsed Test Time
 GTTVD.m                00 000 000 000:  GT True Vertical Depth
#Other Information
#
#WARRANTY: Halliburton will use its best efforts to furnish customers with 
#accurate information and interpretations that are part of, and incident to, the services 
#provided.  However, Halliburton cannot and does not warrant the accuracy 
#or correctness of such information and interpretations.  Under no circumstances should any 
#such information or interpretation be relied upon as the sole basis for any drilling, 
#completion, production, or financial decision or any procedure involving any risk to the 
#safety of any drilling venture, drilling rig or its crew or any other third party.  The 
#Customer has full responsibility for all drilling, completion and production operation.  
#Halliburton makes no representations or warranties, either expressed or 
#implied, including, but not limited to, the implied warranties of merchantability or fitness 
#for a particular purpose, with respect to the services rendered.  In no event will 
#Halliburton be liable for failure to obtain any particular results or for 
#any damages, including, but not limited to, indirect, special or consequential damages, 
#resulting from the use of any information or interpretation provided by Halliburton.
#
~A           TIME           GTDEPTH  GTPQH  GTTQ  GTTN   GTET   GTTVD  
# ...
   02:03:05.851.28-Aug-2021 4879.00 7757.64 81.12 27.00 316.50 3229.53
   02:03:06.051.28-Aug-2021 4879.00 7758.08 81.12 27.00 316.70 3229.53
   02:03:06.251.28-Aug-2021 4879.00 7757.85 81.12 27.00 316.90 3229.53
   02:03:06.451.28-Aug-2021 4879.00 7757.99 81.12 27.00 317.10 3229.53
   02:03:06.651.28-Aug-2021 4879.00 7757.99 81.12 27.00 317.30 3229.53
   02:03:06.852.28-Aug-2021 4879.00 7757.78 81.12 27.00 317.50 3229.53
   02:03:07.052.28-Aug-2021 4879.00 7761.98 81.12 27.00 317.70 3229.53
   02:03:07.252.28-Aug-2021 4879.00 7755.93 81.12 27.00 317.90 3229.53
   02:03:07.452.28-Aug-2021 4879.00 7758.63 81.12 27.00 318.10 3229.53
   02:03:07.652.28-Aug-2021 4879.00 7758.63 81.12 27.00 318.30 3229.53
   02:03:07.852.28-Aug-2021 4879.00 7757.39 81.11 27.00 318.50 3229.53
   02:03:08.052.28-Aug-2021 4879.00 7757.27 81.11 27.00 318.70 3229.53
   02:03:08.252.28-Aug-2021 4879.00 7757.09 81.11 27.00 318.90 3229.53
   02:03:08.452.28-Aug-2021 4879.00 7756.90 81.11 27.00 319.10 3229.53
   02:03:08.652.28-Aug-2021 4879.00 7756.90 81.11 27.00 319.30 3229.53
   02:03:08.852.28-Aug-2021 4879.00 7757.62 81.11 27.00 319.50 3229.53
   02:03:09.052.28-Aug-2021 4879.00 7757.77 81.11 27.00 319.70 3229.53
   02:03:09.252.28-Aug-2021 4879.00 7757.96 81.11 27.00 319.90 3229.53
   02:03:09.452.28-Aug-2021 4879.00 7757.84 81.11 27.00 320.10 3229.53
   02:03:09.652.28-Aug-2021 4879.00 7757.84 81.11 27.00 320.30 3229.53
   02:03:09.852.28-Aug-2021 4879.00 7757.80 81.11 27.00 320.50 3229.53
   02:03:10.053.28-Aug-2021 4879.00 7757.62 81.11 27.00 320.70 3229.53
   02:03:10.253.28-Aug-2021 4879.00 7757.59 81.11 27.00 320.90 3229.53
   02:03:10.453.28-Aug-2021 4879.00 7762.08 81.11 27.00 321.10 3229.53
   02:03:10.653.28-Aug-2021 4879.00 7762.08 81.11 27.00 321.30 3229.53
   02:03:10.853.28-Aug-2021 4879.00 7758.97 81.11 27.00 321.50 3229.53
   02:03:11.053.28-Aug-2021 4879.00 7757.80 81.11 27.00 321.70 3229.53
   02:03:11.253.28-Aug-2021 4879.00 7763.12 81.11 27.00 321.90 3229.53
   02:03:11.453.28-Aug-2021 4879.00 7754.99 81.11 27.00 322.10 3229.53
   02:03:11.653.28-Aug-2021 4879.00 7754.99 81.11 27.00 322.30 3229.53
   02:03:11.853.28-Aug-2021 4879.00 7757.67 81.11 27.00 322.50 3229.53
   02:03:12.053.28-Aug-2021 4879.00 7757.68 81.11 27.00 322.70 3229.53
   02:03:12.253.28-Aug-2021 4879.00 7757.64 81.11 27.00 322.90 3229.53
   02:03:12.453.28-Aug-2021 4879.00 7762.81 81.11 27.00 323.10 3229.53
   02:03:12.653.28-Aug-2021 4879.00 7762.81 81.11 27.00 323.30 3229.53
   02:03:12.853.28-Aug-2021 4879.00 7758.92 81.11 27.00 323.50 3229.53
   02:03:13.053.28-Aug-2021 4879.00 7758.36 81.11 27.00 323.70 3229.53
   02:03:13.254.28-Aug-2021 4879.00 7761.15 81.11 27.00 323.90 3229.53
   02:03:13.454.28-Aug-2021 4879.00 7758.54 81.11 27.00 324.10 3229.53
   02:03:13.654.28-Aug-2021 4879.00 7758.54 81.11 27.00 324.30 3229.53
   02:03:13.854.28-Aug-2021 4879.00 7757.79 81.11 27.00 324.50 3229.53
   02:03:14.054.28-Aug-2021 4879.00 7757.48 81.11 27.00 324.70 3229.53
   02:03:14.254.28-Aug-2021 4879.00 7757.53 81.11 27.00 324.90 3229.53
   02:03:14.454.28-Aug-2021 4879.00 7757.55 81.11 27.00 325.10 3229.53
   02:03:14.654.28-Aug-2021 4879.00 7757.55 81.11 27.00 325.30 3229.53
   02:03:14.854.28-Aug-2021 4879.00 7757.84 81.11 27.00 325.50 3229.53
   02:03:15.054.28-Aug-2021 4879.00 7758.42 81.11 27.00 325.70 3229.53
   02:03:15.254.28-Aug-2021 4879.00 7758.21 81.11 27.00 325.90 3229.53
   02:03:15.454.28-Aug-2021 4879.00 7758.58 81.11 27.00 326.10 3229.53
   02:03:15.654.28-Aug-2021 4879.00 7758.58 81.11 27.00 326.30 3229.53
   02:03:15.854.28-Aug-2021 4879.00 7758.36 81.11 27.00 326.50 3229.53
   02:03:16.054.28-Aug-2021 4879.00 7758.34 81.11 27.00 326.70 3229.53
   02:03:16.254.28-Aug-2021 4879.00 7758.11 81.11 27.00 326.90 3229.53
   02:03:16.455.28-Aug-2021 4879.00 7762.61 81.11 27.00 327.10 3229.53
   02:03:16.655.28-Aug-2021 4879.00 7762.61 81.11 27.00 327.30 3229.53
   02:03:16.855.28-Aug-2021 4879.00 7759.17 81.11 27.00 327.50 3229.53
   02:03:17.055.28-Aug-2021 4879.00 7757.92 81.11 27.00 327.70 3229.53
   02:03:17.255.28-Aug-2021 4879.00 7757.63 81.11 27.00 327.90 3229.53
   02:03:17.455.28-Aug-2021 4879.00 7757.32 81.11 27.00 328.10 3229.53
   02:03:17.655.28-Aug-2021 4879.00 7757.32 81.11 27.00 328.30 3229.53
   02:03:17.855.28-Aug-2021 4879.00 7756.80 81.11 27.00 328.50 3229.53
   02:03:18.055.28-Aug-2021 4879.00 7757.20 81.11 27.00 328.70 3229.53
   02:03:18.255.28-Aug-2021 4879.00 7757.54 81.11 27.00 328.90 3229.53
   02:03:18.455.28-Aug-2021 4879.00 7757.54 81.11 27.00 329.10 3229.53
   02:03:18.655.28-Aug-2021 4879.00 7757.54 81.11 27.00 329.30 3229.53
   02:03:18.855.28-Aug-2021 4879.00 7757.90 81.11 27.00 329.50 3229.53
   02:03:19.055.28-Aug-2021 4879.00 7757.95 81.11 27.00 329.70 3229.53
   02:03:19.255.28-Aug-2021 4879.00 7757.84 81.11 27.00 329.90 3229.53
   02:03:19.455.28-Aug-2021 4879.00 7757.83 81.11 27.00 330.10 3229.53
   02:03:19.656.28-Aug-2021 4879.00 7757.83 81.11 27.00 330.30 3229.53
   02:03:19.856.28-Aug-2021 4879.00 7762.31 81.11 27.00 330.50 3229.53
   02:03:20.056.28-Aug-2021 4879.00 7755.84 81.11 27.00 330.70 3229.53
   02:03:20.256.28-Aug-2021 4879.00 7758.92 81.11 27.00 330.90 3229.53
   02:03:20.456.28-Aug-2021 4879.00 7757.67 81.11 27.00 331.10 3229.53
   02:03:20.656.28-Aug-2021 4879.00 7757.67 81.11 27.00 331.30 3229.53
   02:03:20.856.28-Aug-2021 4879.00 7755.70 81.11 27.00 331.50 3229.53
   02:03:21.056.28-Aug-2021 4879.00 7758.43 81.11 27.00 331.70 3229.53
   02:03:21.256.28-Aug-2021 4879.00 7757.27 81.11 27.00 331.90 3229.53
   02:03:21.456.28-Aug-2021 4879.00 7757.41 81.11 27.00 332.10 3229.53
   02:03:21.656.28-Aug-2021 4879.00 7757.41 81.11 27.00 332.30 3229.53
   02:03:21.856.28-Aug-2021 4879.00 7762.79 81.11 27.00 332.50 3229.53
   02:03:22.056.28-Aug-2021 4879.00 7755.34 81.11 27.00 332.70 3229.53
   02:03:22.256.28-Aug-2021 4879.00 7758.95 81.11 27.00 332.90 3229.53
   02:03:22.456.28-Aug-2021 4879.00 7758.79 81.11 27.00 333.10 3229.53
   02:03:22.656.28-Aug-2021 4879.00 7758.79 81.11 27.00 333.30 3229.53
   02:03:22.857.28-Aug-2021 4879.00 7763.65 81.11 27.00 333.50 3229.53
   02:03:23.057.28-Aug-2021 4879.00 7755.27 81.11 27.00 333.71 3229.53
   02:03:23.257.28-Aug-2021 4879.00 7758.49 81.11 27.00 333.91 3229.53
   02:03:23.457.28-Aug-2021 4879.00 7758.11 81.11 27.00 334.11 3229.53
   02:03:23.657.28-Aug-2021 4879.00 7758.11 81.11 27.00 334.31 3229.53
   02:03:23.857.28-Aug-2021 4879.00 7757.61 81.11 27.00 334.51 3229.53
   02:03:24.057.28-Aug-2021 4879.00 7757.48 81.11 27.00 334.71 3229.53
   02:03:24.257.28-Aug-2021 4879.00 7757.26 81.10 27.00 334.91 3229.53
   02:03:24.457.28-Aug-2021 4879.00 7757.75 81.10 27.00 335.11 3229.53
   02:03:24.657.28-Aug-2021 4879.00 7757.75 81.10 27.00 335.31 3229.53
   02:03:24.857.28-Aug-2021 4879.00 7758.22 81.10 27.00 335.51 3229.53
   02:03:25.057.28-Aug-2021 4879.00 7758.44 81.10 27.00 335.71 3229.53
   02:03:25.257.28-Aug-2021 4879.00 7758.43 81.10 27.00 335.91 3229.53
   02:03:25.457.28-Aug-2021 4879.00 7758.41 81.10 27.00 336.11 3229.53
   02:03:25.657.28-Aug-2021 4879.00 7758.41 81.10 27.00 336.31 3229.53
   02:03:25.858.28-Aug-2021 4879.00 7758.09 81.10 27.00 336.51 3229.53
   02:03:26.058.28-Aug-2021 4879.00 7760.09 81.10 27.00 336.71 3229.53
   02:03:26.258.28-Aug-2021 4879.00 7758.81 81.10 27.00 336.91 3229.53
   02:03:26.458.28-Aug-2021 4879.00 7758.46 81.10 27.00 337.11 3229.53
   02:03:26.658.28-Aug-2021 4879.00 7758.46 81.10 27.00 337.31 3229.53
   02:03:26.858.28-Aug-2021 4879.00 7758.19 81.10 27.00 337.51 3229.53
   02:03:27.058.28-Aug-2021 4879.00 7757.76 81.10 27.00 337.71 3229.53
   02:03:27.258.28-Aug-2021 4879.00 7757.63 81.10 27.00 337.91 3229.53
   02:03:27.458.28-Aug-2021 4879.00 7757.70 81.10 27.00 338.11 3229.53
   02:03:27.658.28-Aug-2021 4879.00 7757.70 81.10 27.00 338.31 3229.53
   02:03:27.858.28-Aug-2021 4879.00 7758.11 81.10 27.00 338.51 3229.53
   02:03:28.058.28-Aug-2021 4879.00 7758.50 81.10 27.00 338.71 3229.53
   02:03:28.258.28-Aug-2021 4879.00 7758.61 81.10 27.00 338.91 3229.53
