~Version Information
 VERS.                  2.0:   CWLS log ASCII Standard -VERSION 2.0
 WRAP.                   NO:   One line per depth step
~Well Information Block
#MNEM.UNIT     VALUE/NAME     DESCRIPTION
#---------     -----------    ---------------------------
 STRT.S             09:25:17 27-Aug-21: START TIME 09:25:17 27-Aug-21
 STOP.S             09:32:27 27-Aug-21: STOP TIME  09:32:27 27-Aug-21
 STEP.S                   0.00: STEP TIME
 NULL.                 -999.25: NULL VALUE
 DFWT.                        :  DIST FWL TEXT
 DFST.                        :  DIST FSL TEXT
 DMF .             Drill Floor:  DRILL MEAS FROM
 STIM.      20.00.00 17-Aug-21:  START TIME
 DATE.      19.00.00 29-Aug-21:  END TIME
 SPUD.               15-Aug-21:  SPUD DATE
 NREF.                    Grid:  NORTH REFERENCE
 HPTY.       Minimum Curvature:  HOLE POS TYPE
 DMOD.             Drill Model:  DRILL MOD DESC
 SVYD.                  Survey:  SURVEY DESC
 ILTD.               Lithology:  INTERP LTH DESC
 FTOP.          Formation Tops:  FORM TOPS DESC
 RIG .              East Azeri:  RIG NAME
 PDAT.          Mean Sea Level:  PERMANENT DATUM
 FLD .                     ACG:  FIELD NAME
 SON .        AZ-XX-0907180857:  JOB NUMBER
 CTRY.              Azerbaijan:  COUNTRY NAME
 WELL.                    D23x:  WELL NAME
 SRVC.     Turan Drilling and Engineering:  CONTRACTOR
 COMP.     BP Exploration (Caspian Sea) Ltd.:  COMPANY
 UWI .            /AZE00000214:  UNIQUE WELL IDENTIFIER
 API .            /AZE00000214:  API NUMBER
 MDS .        Operator Entered:  MAG DATA SOURCE
 BASE.              Azerbaijan:  LOGGING EQUIPMENT BASE LOCATION
 REGN.                   EESSA:  REGION
 PROV.                    Baku:  PROVINCE
 STAT.                    Baku:  STATE NAME
 MWDS.                    Baku:  MWD SHOP
 DOE .                     N/A:  DOE NUMBER
 DCON.         Sperry Drilling:  DIRECTNL CONTR
 UNIT.                     N/A:  LOGGING EQUIPMENT ID
 WTYP.                Deviated:  WELL TYPE
 CNTY.                        :  COUNTY
 LOC .                        :  LOCATION
 LMF .             Drill Floor:  LOG MEASURED FROM
 TVDS.m                  43.60:  TVDSS CORRECTN
 LATI.deg                40.02:  LATITUDE
 LONG.deg                51.45:  LONGITUDE
 WHNS.m                  -7.04:  WELL HEAD N/S
 WHEW.m                  -0.67:  WELL HEAD E/W
 UTMX.m              538762.90:  UTM X
 UTMY.m             4431871.34:  UTM Y
 DFWL.m                   0.00:  DISTANCE FWL
 DFSL.m                   0.00:  DISTANCE FSL
 SDEP.m                4127.00:  START DEPTH
 TDD .m                5084.50:  TOTAL DEPTH (DRILLER)
 VSDR.deg               140.47:  VERT SEC DIRECT
 GVFD.g                   1.00:  GRAVITY FIELD
 MFLD.nT              50362.00:  MAGNETIC FIELD
 MDIP.deg                59.48:  MAGNETIC DIP
 MDEC.deg                 6.47:  MAGNETIC DECL
 GRDC.deg                 0.31:  GRID CORRECTION
 AZTC.deg                 6.16:  AZM TOTAL CORR
 EPD .m                   0.00:  ELEVATION
 EGL .m                   0.00:  GROUND ELEVATION
 WDMS.m                 151.80:  WD ELEV
 APD .m                  43.60:  DEPTH ABOVE PD
 DEP .m                4092.57:  DEPTH
 AGAP.m                  43.60:  AIR GAP
 VSEW.m                  -0.67:  VERT SEC E/W
 VSNS.m                  -7.04:  VERT SEC N/S
 EKB .m                  43.60:  KB ELEVATION
 EDF .m                  43.60:  DF ELEVATION
 TDL .m                 957.50:  TOTAL DEPTH (LOGGER)
 VSC .                       0:  VS TO CLOSURE
 MAGU.                 1851413:  MAGUTM CHECKSUM
~Parameter Information Block
#MNEM.UNIT       Value        Description
#---------     -----------    ---------------------------
 AV  .mps                 1.50:  Ann Velocity 
 AVMX.mps                 2.00:  Max Ann Veloc 
 AZIF.deg               184.66:  Azm, Final 
 BHAT.        Rotary Steerable:  BHA Type 
 BREV.rev               300.00:  Rev Bit Total 
 BROT.°/30m              -0.50:  Build Rotating 
 BS  .in                  8.50:  Bit Size 
 BSZ .in                  8.50:  Bit Size 
 BTPL.psig              370.00:  Bit Press Loss 
 CABU.                      No:  Customer Abuse 
 CGEO.      Behruz Shahbaliyev:  Customer Geo 
 COMM.                     TD\:  Run Comments 1 
 TCS .hr                140.08:  Time Ciculation Ended 
 CV  .mps                 3.00:  Crit Velocity 
 CVMX.mps                 3.20:  Max Crit Veloc 
 DD1 .            Musa Ahmadov:  Direct Drillr 1 
 DD2 .           Hamid Ahmadov:  Direct Drillr 2 
 DDSV.               Geo-Pilot:  DD Service 
 DEFF.%                  98.40:  % Det Eff 
 DLRX.°/30m               3.40:  Dogleg Rot Max 
 DLSO.°/30m               1.45:  Dogleg Oriented 
 DLSX.°/30m               3.40:  Dogleg Str Max 
 DRET.      18.40.00 29-Aug-21:  Drill End Time 
 DRST.      21.00.00 20-Aug-21:  Drill Start Tim 
 DTIM.hr                 69.47:  Time Drilling 
 EDEP.m                5084.50:  End Depth 
 ENG1.      Artemiy Matviyanov:  Engineer 1 
 ENG2.         Almaz Almadatov:  Engineer 2 
 ETIM.      18.40.00 29-Aug-21:  End Time 
 FLOI.gpm               500.00:  Flow In 
 FLON.gpm               400.00:  Flow In Min 
 FLOS.cptm                0.00:  Fluid Loss 
 FLOX.gpm               500.00:  Flow In Max 
 DFT .        Mineral Oil Base:  Mud Type 
 HFLO.                      No:  High Flow 
 HPRE.                      No:  High Pressure 
 HTEM.                      No:  High Temp 
 HYDO.m                   1.80:  Hydro Offset 
 IFIN.deg                25.62:  Inc, Final 
 IMAX.deg                48.69:  Inc Max 
 IMIN.deg                24.01:  Inc Min 
 IMND.m                4962.57:  Inc Min Depth 
 IMXD.m                4119.01:  Inc Max Depth 
 JARR.                      No:  Jarring 
 LETM.      18.40.00 29-Aug-21:  Log End Time 
 LOST.hr                     0:  Lost Rig Time 
 LSTM.      21.00.00 20-Aug-21:  Log Start Time 
 MDCL.ppm             41500.00:  Mud Chlorides 
 MDES.     Inversion Oil/Synthetic:  Mud Desc 
 DFD .sg                  1.56:  Mud Density 
 MDMN.sg                  1.56:  Dens Mud Min 
 MDMX.sg                  1.56:  Dens Mud Max 
 MOIL.                      70:  Run Mud Oil % 
 MOWR.                   70:30:  Run Mud OWR 
 MSND.                     0.2:  Run Mud Sand % 
 MSOL.                    23.3:  Run Mud Solids% 
 DFV .spqt               78.00:  Mud Viscosity 
 MWOD.in                  6.75:  MWD Tool OD 
 MWSI.                      No:  Serv Intrp, MWD 
 OTIM.hr                218.30:  Time Operating 
 PCON.           Look Like New:  Pad Condition 
 PMAX.psia            11015.30:  Press Op, Max 
 PV  .cP                 38.00:  Mud PV 
 RUN .                     300:  Run Number 
 ROPA.m/hr               15.00:  ROP Avg 
 ROPN.m/hr                9.00:  ROP Min 
 ROPX.m/hr               17.00:  ROP Max 
 RPMA.rpm               120.00:  RPM Surface Avg 
 RPMN.rpm                90.00:  RPM Surface Min 
 RPMX.rpm               140.00:  RPM Surface Max 
 RRUN.                     300:  Rig Run Number 
 RTIM.hr                 31.53:  Time Reaming 
 SAZI.deg               331.64:  Azm, Start 
 SDEP.m                4127.00:  Start Depth 
 SIDD.                      No:  Serv Intrp, DD 
 SINC.deg                48.43:  Inc, Start 
 SPPA.psig             5830.00:  SPP Avg 
 SPPN.psig             5600.00:  SPP Min 
 SPPX.psig             5900.00:  SPP Max 
 STIM.      21.00.00 20-Aug-21:  Start Time 
 SVCS.                 DD, MWD:  Services 
 SVER.                    9.20:  Sperry Version 
 TDAT.m                 957.50:  Tot Depth Attmp 
 TDDF.                      No:  Trip for DD 
 TDLG.m                 957.50:  Tot Depth Loggd 
 TFF .                      No:  Trip for Fail 
 TQAA.f-kp               15.00:  Torque Abs Avg 
 TQAN.f-kp               12.00:  Torque Abs Min 
 TQAX.f-kp               19.00:  Torque Abs Max 
 TRRT.°/30m              -3.40:  Turn Rotating 
 MRT .                  EWR-M5:  Maximum Recorded Temperature 
 TTMX.degC              100.00:  Max Tool Temp 
 VS01.                90639251:  Virtual Str1 SN 
 VS02.                90634715:  Virtual Str2 SN 
 VS03.                90652479:  Virtual Str3 SN 
 VS04.                90642262:  Virtual Str4 SN 
 WBMN.klb                 0.00:  WOB Min 
 WITN.           Murad Guliyev:  Customer Rep 
 WITN.          Yashar Gaziyev:  Customer Rep 2 
 WOBA.klb                 9.00:  WOB Avg 
 WOBX.klb                12.00:  WOB Max 
 YP  .lhf2               30.00:  Yield Point 
~Curve Information Block
#MNEM.UNIT                 API CODE     Curve Description
#---------               -----------    ---------------------------
 TIME.HHMMSS            00 000 000 000:  GT Time & Date
 GTDEPTH.m              00 000 000 000:  GT Depth
 GTPQH.psia             00 000 000 000:  GT HR Quartz Pressure
 GTTQ.degC              00 000 000 000:  GT Quartz Temperature
 GTTN.NONE              00 000 000 000:  GT Test Number
 GTET.sec               00 000 000 000:  GT Elapsed Test Time
 GTTVD.m                00 000 000 000:  GT True Vertical Depth
#Other Information
#
#WARRANTY: Halliburton will use its best efforts to furnish customers with 
#accurate information and interpretations that are part of, and incident to, the services 
#provided.  However, Halliburton cannot and does not warrant the accuracy 
#or correctness of such information and interpretations.  Under no circumstances should any 
#such information or interpretation be relied upon as the sole basis for any drilling, 
#completion, production, or financial decision or any procedure involving any risk to the 
#safety of any drilling venture, drilling rig or its crew or any other third party.  The 
#Customer has full responsibility for all drilling, completion and production operation.  
#Halliburton makes no representations or warranties, either expressed or 
#implied, including, but not limited to, the implied warranties of merchantability or fitness 
#for a particular purpose, with respect to the services rendered.  In no event will 
#Halliburton be liable for failure to obtain any particular results or for 
#any damages, including, but not limited to, indirect, special or consequential damages, 
#resulting from the use of any information or interpretation provided by Halliburton.
#
~A           TIME           GTDEPTH  GTPQH  GTTQ  GTTN  GTET   GTTVD  
# ...
   09:27:12.313.27-Aug-2021 4964.50 5198.81 86.34 7.00 115.05 3307.39
   09:27:12.514.27-Aug-2021 4964.50 5198.81 86.34 7.00 115.25 3307.39
   09:27:12.714.27-Aug-2021 4964.50 5198.84 86.34 7.00 115.45 3307.39
   09:27:12.914.27-Aug-2021 4964.50 5198.86 86.34 7.00 115.65 3307.39
   09:27:13.114.27-Aug-2021 4964.50 5198.87 86.34 7.00 115.85 3307.39
   09:27:13.314.27-Aug-2021 4964.50 5198.89 86.34 7.00 116.05 3307.39
   09:27:13.514.27-Aug-2021 4964.50 5198.89 86.34 7.00 116.25 3307.39
   09:27:13.714.27-Aug-2021 4964.50 5198.91 86.34 7.00 116.45 3307.39
   09:27:13.914.27-Aug-2021 4964.50 5198.91 86.34 7.00 116.65 3307.39
   09:27:14.114.27-Aug-2021 4964.50 5198.89 86.34 7.00 116.85 3307.39
   09:27:14.314.27-Aug-2021 4964.50 5198.79 86.34 7.00 117.05 3307.39
   09:27:14.514.27-Aug-2021 4964.50 5198.79 86.34 7.00 117.25 3307.39
   09:27:14.714.27-Aug-2021 4964.50 5198.71 86.34 7.00 117.45 3307.39
   09:27:14.915.27-Aug-2021 4964.50 5198.74 86.34 7.00 117.65 3307.39
   09:27:15.115.27-Aug-2021 4964.50 5198.71 86.34 7.00 117.85 3307.39
   09:27:15.315.27-Aug-2021 4964.50 5198.69 86.34 7.00 118.05 3307.39
   09:27:15.515.27-Aug-2021 4964.50 5198.69 86.34 7.00 118.25 3307.39
   09:27:15.715.27-Aug-2021 4964.50 5198.70 86.34 7.00 118.45 3307.39
   09:27:15.915.27-Aug-2021 4964.50 5198.73 86.34 7.00 118.65 3307.39
   09:27:16.115.27-Aug-2021 4964.50 5198.74 86.34 7.00 118.85 3307.39
   09:27:16.315.27-Aug-2021 4964.50 5198.71 86.34 7.00 119.05 3307.39
   09:27:16.515.27-Aug-2021 4964.50 5198.71 86.34 7.00 119.25 3307.39
   09:27:16.715.27-Aug-2021 4964.50 5198.68 86.34 7.00 119.45 3307.39
   09:27:16.915.27-Aug-2021 4964.50 5198.70 86.34 7.00 119.65 3307.39
   09:27:17.115.27-Aug-2021 4964.50 5198.70 86.34 7.00 119.85 3307.39
   09:27:17.316.27-Aug-2021 4964.50 5198.71 86.34 7.00 120.05 3307.39
   09:27:17.516.27-Aug-2021 4964.50 5198.71 86.34 7.00 120.25 3307.39
   09:27:17.716.27-Aug-2021 4964.50 5198.68 86.34 7.00 120.45 3307.39
   09:27:17.916.27-Aug-2021 4964.50 5198.71 86.34 7.00 120.65 3307.39
   09:27:18.116.27-Aug-2021 4964.50 5198.73 86.34 7.00 120.85 3307.39
   09:27:18.316.27-Aug-2021 4964.50 5198.74 86.34 7.00 121.05 3307.39
   09:27:18.516.27-Aug-2021 4964.50 5198.74 86.34 7.00 121.25 3307.39
   09:27:18.716.27-Aug-2021 4964.50 5198.77 86.34 7.00 121.45 3307.39
   09:27:18.916.27-Aug-2021 4964.50 5198.78 86.34 7.00 121.65 3307.39
   09:27:19.116.27-Aug-2021 4964.50 5198.80 86.34 7.00 121.85 3307.39
   09:27:19.316.27-Aug-2021 4964.50 5198.81 86.34 7.00 122.05 3307.39
   09:27:19.516.27-Aug-2021 4964.50 5198.81 86.34 7.00 122.25 3307.39
   09:27:19.717.27-Aug-2021 4964.50 5198.84 86.34 7.00 122.45 3307.39
   09:27:19.917.27-Aug-2021 4964.50 5198.85 86.34 7.00 122.65 3307.39
   09:27:20.117.27-Aug-2021 4964.50 5198.81 86.34 7.00 122.85 3307.39
   09:27:20.317.27-Aug-2021 4964.50 5198.78 86.34 7.00 123.05 3307.39
   09:27:20.517.27-Aug-2021 4964.50 5198.78 86.34 7.00 123.25 3307.39
   09:27:20.717.27-Aug-2021 4964.50 5198.71 86.34 7.00 123.45 3307.39
   09:27:20.917.27-Aug-2021 4964.50 5198.74 86.34 7.00 123.65 3307.39
   09:27:21.117.27-Aug-2021 4964.50 5198.75 86.34 7.00 123.85 3307.39
   09:27:21.317.27-Aug-2021 4964.50 5198.75 86.34 7.00 124.05 3307.39
   09:27:21.517.27-Aug-2021 4964.50 5198.75 86.34 7.00 124.25 3307.39
   09:27:21.717.27-Aug-2021 4964.50 5198.79 86.34 7.00 124.45 3307.39
   09:27:21.917.27-Aug-2021 4964.50 5198.80 86.34 7.00 124.65 3307.39
   09:27:22.118.27-Aug-2021 4964.50 5198.82 86.34 7.00 124.85 3307.39
   09:27:22.318.27-Aug-2021 4964.50 5198.83 86.34 7.00 125.05 3307.39
   09:27:22.518.27-Aug-2021 4964.50 5198.83 86.34 7.00 125.25 3307.39
   09:27:22.718.27-Aug-2021 4964.50 5198.86 86.34 7.00 125.45 3307.39
   09:27:22.918.27-Aug-2021 4964.50 5198.86 86.34 7.00 125.65 3307.39
   09:27:23.118.27-Aug-2021 4964.50 5198.87 86.34 7.00 125.85 3307.39
   09:27:23.318.27-Aug-2021 4964.50 5198.89 86.34 7.00 126.05 3307.39
   09:27:23.518.27-Aug-2021 4964.50 5198.89 86.34 7.00 126.25 3307.39
   09:27:23.718.27-Aug-2021 4964.50 5198.80 86.34 7.00 126.45 3307.39
   09:27:23.918.27-Aug-2021 4964.50 5198.70 86.34 7.00 126.65 3307.39
   09:27:24.118.27-Aug-2021 4964.50 5198.73 86.34 7.00 126.85 3307.39
   09:27:24.318.27-Aug-2021 4964.50 5198.74 86.34 7.00 127.05 3307.39
   09:27:24.519.27-Aug-2021 4964.50 5198.74 86.34 7.00 127.25 3307.39
   09:27:24.719.27-Aug-2021 4964.50 5198.70 86.34 7.00 127.45 3307.39
   09:27:24.919.27-Aug-2021 4964.50 5198.69 86.34 7.00 127.65 3307.39
   09:27:25.119.27-Aug-2021 4964.50 5198.72 86.34 7.00 127.85 3307.39
   09:27:25.319.27-Aug-2021 4964.50 5198.73 86.34 7.00 128.05 3307.39
   09:27:25.519.27-Aug-2021 4964.50 5198.73 86.34 7.00 128.25 3307.39
   09:27:25.719.27-Aug-2021 4964.50 5198.74 86.34 7.00 128.45 3307.39
   09:27:25.919.27-Aug-2021 4964.50 5198.70 86.34 7.00 128.65 3307.39
   09:27:26.119.27-Aug-2021 4964.50 5198.70 86.34 7.00 128.85 3307.39
   09:27:26.319.27-Aug-2021 4964.50 5198.70 86.34 7.00 129.05 3307.39
   09:27:26.519.27-Aug-2021 4964.50 5198.70 86.34 7.00 129.25 3307.39
   09:27:26.719.27-Aug-2021 4964.50 5198.70 86.34 7.00 129.45 3307.39
   09:27:26.920.27-Aug-2021 4964.50 5198.66 86.34 7.00 129.65 3307.39
   09:27:27.120.27-Aug-2021 4964.50 5198.69 86.34 7.00 129.85 3307.39
   09:27:27.320.27-Aug-2021 4964.50 5198.69 86.34 7.00 130.05 3307.39
   09:27:27.520.27-Aug-2021 4964.50 5198.69 86.34 7.00 130.25 3307.39
   09:27:27.720.27-Aug-2021 4964.50 5198.73 86.34 7.00 130.45 3307.39
   09:27:27.920.27-Aug-2021 4964.50 5198.74 86.34 7.00 130.65 3307.39
   09:27:28.120.27-Aug-2021 4964.50 5198.75 86.34 7.00 130.85 3307.39
   09:27:28.320.27-Aug-2021 4964.50 5198.76 86.34 7.00 131.05 3307.39
   09:27:28.520.27-Aug-2021 4964.50 5198.76 86.34 7.00 131.25 3307.39
   09:27:28.720.27-Aug-2021 4964.50 5198.79 86.34 7.00 131.45 3307.39
   09:27:28.920.27-Aug-2021 4964.50 5198.79 86.34 7.00 131.65 3307.39
   09:27:29.120.27-Aug-2021 4964.50 5198.81 86.34 7.00 131.85 3307.39
   09:27:29.321.27-Aug-2021 4964.50 5198.81 86.34 7.00 132.05 3307.39
   09:27:29.521.27-Aug-2021 4964.50 5198.81 86.34 7.00 132.25 3307.39
   09:27:29.721.27-Aug-2021 4964.50 5198.78 86.34 7.00 132.46 3307.39
   09:27:29.921.27-Aug-2021 4964.50 5198.71 86.34 7.00 132.66 3307.39
   09:27:30.121.27-Aug-2021 4964.50 5198.71 86.34 7.00 132.86 3307.39
   09:27:30.321.27-Aug-2021 4964.50 5198.72 86.34 7.00 133.06 3307.39
   09:27:30.521.27-Aug-2021 4964.50 5198.72 86.34 7.00 133.26 3307.39
   09:27:30.721.27-Aug-2021 4964.50 5198.74 86.34 7.00 133.46 3307.39
   09:27:30.921.27-Aug-2021 4964.50 5198.76 86.34 7.00 133.66 3307.39
   09:27:31.121.27-Aug-2021 4964.50 5198.75 86.34 7.00 133.86 3307.39
   09:27:31.321.27-Aug-2021 4964.50 5198.79 86.34 7.00 134.06 3307.39
   09:27:31.521.27-Aug-2021 4964.50 5198.79 86.34 7.00 134.26 3307.39
   09:27:31.722.27-Aug-2021 4964.50 5198.81 86.34 7.00 134.46 3307.39
   09:27:31.922.27-Aug-2021 4964.50 5198.81 86.34 7.00 134.66 3307.39
   09:27:32.122.27-Aug-2021 4964.50 5198.81 86.34 7.00 134.86 3307.39
   09:27:32.322.27-Aug-2021 4964.50 5198.83 86.34 7.00 135.06 3307.39
   09:27:32.522.27-Aug-2021 4964.50 5198.83 86.34 7.00 135.26 3307.39
   09:27:32.722.27-Aug-2021 4964.50 5198.84 86.34 7.00 135.46 3307.39
   09:27:32.922.27-Aug-2021 4964.50 5198.82 86.34 7.00 135.66 3307.39
   09:27:33.122.27-Aug-2021 4964.50 5198.79 86.34 7.00 135.86 3307.39
   09:27:33.322.27-Aug-2021 4964.50 5198.71 86.34 7.00 136.06 3307.39
   09:27:33.522.27-Aug-2021 4964.50 5198.71 86.34 7.00 136.26 3307.39
   09:27:33.722.27-Aug-2021 4964.50 5198.73 86.34 7.00 136.46 3307.39
   09:27:33.922.27-Aug-2021 4964.50 5198.74 86.34 7.00 136.66 3307.39
   09:27:34.123.27-Aug-2021 4964.50 5198.69 86.34 7.00 136.86 3307.39
   09:27:34.323.27-Aug-2021 4964.50 5198.70 86.34 7.00 137.06 3307.39
   09:27:34.523.27-Aug-2021 4964.50 5198.70 86.34 7.00 137.26 3307.39
   09:27:34.723.27-Aug-2021 4964.50 5198.71 86.34 7.00 137.46 3307.39
   09:27:34.923.27-Aug-2021 4964.50 5198.73 86.34 7.00 137.66 3307.39
   09:27:35.123.27-Aug-2021 4964.50 5198.74 86.34 7.00 137.86 3307.39
