~Version Information
 VERS.                  2.0:   CWLS log ASCII Standard -VERSION 2.0
 WRAP.                   NO:   One line per depth step
~Well Information Block
#MNEM.UNIT     VALUE/NAME     DESCRIPTION
#---------     -----------    ---------------------------
 STRT.S             13:52:51 27-Aug-21: START TIME 13:52:51 27-Aug-21
 STOP.S             13:59:42 27-Aug-21: STOP TIME  13:59:42 27-Aug-21
 STEP.S                   0.00: STEP TIME
 NULL.                 -999.25: NULL VALUE
 DFWT.                        :  DIST FWL TEXT
 DFST.                        :  DIST FSL TEXT
 DMF .             Drill Floor:  DRILL MEAS FROM
 STIM.      20.00.00 17-Aug-21:  START TIME
 DATE.      19.00.00 29-Aug-21:  END TIME
 SPUD.               15-Aug-21:  SPUD DATE
 NREF.                    Grid:  NORTH REFERENCE
 HPTY.       Minimum Curvature:  HOLE POS TYPE
 DMOD.             Drill Model:  DRILL MOD DESC
 SVYD.                  Survey:  SURVEY DESC
 ILTD.               Lithology:  INTERP LTH DESC
 FTOP.          Formation Tops:  FORM TOPS DESC
 RIG .              East Azeri:  RIG NAME
 PDAT.          Mean Sea Level:  PERMANENT DATUM
 FLD .                     ACG:  FIELD NAME
 SON .        AZ-XX-0907180857:  JOB NUMBER
 CTRY.              Azerbaijan:  COUNTRY NAME
 WELL.                    D23x:  WELL NAME
 SRVC.     Turan Drilling and Engineering:  CONTRACTOR
 COMP.     BP Exploration (Caspian Sea) Ltd.:  COMPANY
 UWI .            /AZE00000214:  UNIQUE WELL IDENTIFIER
 API .            /AZE00000214:  API NUMBER
 MDS .        Operator Entered:  MAG DATA SOURCE
 BASE.              Azerbaijan:  LOGGING EQUIPMENT BASE LOCATION
 REGN.                   EESSA:  REGION
 PROV.                    Baku:  PROVINCE
 STAT.                    Baku:  STATE NAME
 MWDS.                    Baku:  MWD SHOP
 DOE .                     N/A:  DOE NUMBER
 DCON.         Sperry Drilling:  DIRECTNL CONTR
 UNIT.                     N/A:  LOGGING EQUIPMENT ID
 WTYP.                Deviated:  WELL TYPE
 CNTY.                        :  COUNTY
 LOC .                        :  LOCATION
 LMF .             Drill Floor:  LOG MEASURED FROM
 TVDS.m                  43.60:  TVDSS CORRECTN
 LATI.deg                40.02:  LATITUDE
 LONG.deg                51.45:  LONGITUDE
 WHNS.m                  -7.04:  WELL HEAD N/S
 WHEW.m                  -0.67:  WELL HEAD E/W
 UTMX.m              538762.90:  UTM X
 UTMY.m             4431871.34:  UTM Y
 DFWL.m                   0.00:  DISTANCE FWL
 DFSL.m                   0.00:  DISTANCE FSL
 SDEP.m                4127.00:  START DEPTH
 TDD .m                5084.50:  TOTAL DEPTH (DRILLER)
 VSDR.deg               140.47:  VERT SEC DIRECT
 GVFD.g                   1.00:  GRAVITY FIELD
 MFLD.nT              50362.00:  MAGNETIC FIELD
 MDIP.deg                59.48:  MAGNETIC DIP
 MDEC.deg                 6.47:  MAGNETIC DECL
 GRDC.deg                 0.31:  GRID CORRECTION
 AZTC.deg                 6.16:  AZM TOTAL CORR
 EPD .m                   0.00:  ELEVATION
 EGL .m                   0.00:  GROUND ELEVATION
 WDMS.m                 151.80:  WD ELEV
 APD .m                  43.60:  DEPTH ABOVE PD
 DEP .m                4092.57:  DEPTH
 AGAP.m                  43.60:  AIR GAP
 VSEW.m                  -0.67:  VERT SEC E/W
 VSNS.m                  -7.04:  VERT SEC N/S
 EKB .m                  43.60:  KB ELEVATION
 EDF .m                  43.60:  DF ELEVATION
 TDL .m                 957.50:  TOTAL DEPTH (LOGGER)
 VSC .                       0:  VS TO CLOSURE
 MAGU.                 1851413:  MAGUTM CHECKSUM
~Parameter Information Block
#MNEM.UNIT       Value        Description
#---------     -----------    ---------------------------
 AV  .mps                 1.50:  Ann Velocity 
 AVMX.mps                 2.00:  Max Ann Veloc 
 AZIF.deg               184.66:  Azm, Final 
 BHAT.        Rotary Steerable:  BHA Type 
 BREV.rev               300.00:  Rev Bit Total 
 BROT.°/30m              -0.50:  Build Rotating 
 BS  .in                  8.50:  Bit Size 
 BSZ .in                  8.50:  Bit Size 
 BTPL.psig              370.00:  Bit Press Loss 
 CABU.                      No:  Customer Abuse 
 CGEO.      Behruz Shahbaliyev:  Customer Geo 
 COMM.                     ÄÆy:  Run Comments 1 
 TCS .hr                140.08:  Time Ciculation Ended 
 CV  .mps                 3.00:  Crit Velocity 
 CVMX.mps                 3.20:  Max Crit Veloc 
 DD1 .            Musa Ahmadov:  Direct Drillr 1 
 DD2 .           Hamid Ahmadov:  Direct Drillr 2 
 DDSV.               Geo-Pilot:  DD Service 
 DEFF.%                  98.40:  % Det Eff 
 DLRX.°/30m               3.40:  Dogleg Rot Max 
 DLSO.°/30m               1.45:  Dogleg Oriented 
 DLSX.°/30m               3.40:  Dogleg Str Max 
 DRET.      18.40.00 29-Aug-21:  Drill End Time 
 DRST.      21.00.00 20-Aug-21:  Drill Start Tim 
 DTIM.hr                 69.47:  Time Drilling 
 EDEP.m                5084.50:  End Depth 
 ENG1.      Artemiy Matviyanov:  Engineer 1 
 ENG2.         Almaz Almadatov:  Engineer 2 
 ETIM.      18.40.00 29-Aug-21:  End Time 
 FLOI.gpm               500.00:  Flow In 
 FLON.gpm               400.00:  Flow In Min 
 FLOS.cptm                0.00:  Fluid Loss 
 FLOX.gpm               500.00:  Flow In Max 
 DFT .        Mineral Oil Base:  Mud Type 
 HFLO.                      No:  High Flow 
 HPRE.                      No:  High Pressure 
 HTEM.                      No:  High Temp 
 HYDO.m                   1.80:  Hydro Offset 
 IFIN.deg                25.62:  Inc, Final 
 IMAX.deg                48.69:  Inc Max 
 IMIN.deg                24.01:  Inc Min 
 IMND.m                4962.57:  Inc Min Depth 
 IMXD.m                4119.01:  Inc Max Depth 
 JARR.                      No:  Jarring 
 LETM.      18.40.00 29-Aug-21:  Log End Time 
 LOST.hr                     0:  Lost Rig Time 
 LSTM.      21.00.00 20-Aug-21:  Log Start Time 
 MDCL.ppm             41500.00:  Mud Chlorides 
 MDES.     Inversion Oil/Synthetic:  Mud Desc 
 DFD .sg                  1.56:  Mud Density 
 MDMN.sg                  1.56:  Dens Mud Min 
 MDMX.sg                  1.56:  Dens Mud Max 
 MOIL.                      70:  Run Mud Oil % 
 MOWR.                   70:30:  Run Mud OWR 
 MSND.                     0.2:  Run Mud Sand % 
 MSOL.                    23.3:  Run Mud Solids% 
 DFV .spqt               78.00:  Mud Viscosity 
 MWOD.in                  6.75:  MWD Tool OD 
 MWSI.                      No:  Serv Intrp, MWD 
 OTIM.hr                218.30:  Time Operating 
 PCON.           Look Like New:  Pad Condition 
 PMAX.psia            11015.30:  Press Op, Max 
 PV  .cP                 38.00:  Mud PV 
 RUN .                     300:  Run Number 
 ROPA.m/hr               15.00:  ROP Avg 
 ROPN.m/hr                9.00:  ROP Min 
 ROPX.m/hr               17.00:  ROP Max 
 RPMA.rpm               120.00:  RPM Surface Avg 
 RPMN.rpm                90.00:  RPM Surface Min 
 RPMX.rpm               140.00:  RPM Surface Max 
 RRUN.                     300:  Rig Run Number 
 RTIM.hr                 31.53:  Time Reaming 
 SAZI.deg               331.64:  Azm, Start 
 SDEP.m                4127.00:  Start Depth 
 SIDD.                      No:  Serv Intrp, DD 
 SINC.deg                48.43:  Inc, Start 
 SPPA.psig             5830.00:  SPP Avg 
 SPPN.psig             5600.00:  SPP Min 
 SPPX.psig             5900.00:  SPP Max 
 STIM.      21.00.00 20-Aug-21:  Start Time 
 SVCS.                 DD, MWD:  Services 
 SVER.                    9.20:  Sperry Version 
 TDAT.m                 957.50:  Tot Depth Attmp 
 TDDF.                      No:  Trip for DD 
 TDLG.m                 957.50:  Tot Depth Loggd 
 TFF .                      No:  Trip for Fail 
 TQAA.f-kp               15.00:  Torque Abs Avg 
 TQAN.f-kp               12.00:  Torque Abs Min 
 TQAX.f-kp               19.00:  Torque Abs Max 
 TRRT.°/30m              -3.40:  Turn Rotating 
 MRT .                  EWR-M5:  Maximum Recorded Temperature 
 TTMX.degC              100.00:  Max Tool Temp 
 VS01.                90639251:  Virtual Str1 SN 
 VS02.                90634715:  Virtual Str2 SN 
 VS03.                90652479:  Virtual Str3 SN 
 VS04.                90642262:  Virtual Str4 SN 
 WBMN.klb                 0.00:  WOB Min 
 WITN.           Murad Guliyev:  Customer Rep 
 WITN.          Yashar Gaziyev:  Customer Rep 2 
 WOBA.klb                 9.00:  WOB Avg 
 WOBX.klb                12.00:  WOB Max 
 YP  .lhf2               30.00:  Yield Point 
~Curve Information Block
#MNEM.UNIT                 API CODE     Curve Description
#---------               -----------    ---------------------------
 TIME.HHMMSS            00 000 000 000:  GT Time & Date
 GTDEPTH.m              00 000 000 000:  GT Depth
 GTPQH.psia             00 000 000 000:  GT HR Quartz Pressure
 GTTQ.degC              00 000 000 000:  GT Quartz Temperature
 GTTN.NONE              00 000 000 000:  GT Test Number
 GTET.sec               00 000 000 000:  GT Elapsed Test Time
 GTTVD.m                00 000 000 000:  GT True Vertical Depth
#Other Information
#
#WARRANTY: Halliburton will use its best efforts to furnish customers with 
#accurate information and interpretations that are part of, and incident to, the services 
#provided.  However, Halliburton cannot and does not warrant the accuracy 
#or correctness of such information and interpretations.  Under no circumstances should any 
#such information or interpretation be relied upon as the sole basis for any drilling, 
#completion, production, or financial decision or any procedure involving any risk to the 
#safety of any drilling venture, drilling rig or its crew or any other third party.  The 
#Customer has full responsibility for all drilling, completion and production operation.  
#Halliburton makes no representations or warranties, either expressed or 
#implied, including, but not limited to, the implied warranties of merchantability or fitness 
#for a particular purpose, with respect to the services rendered.  In no event will 
#Halliburton be liable for failure to obtain any particular results or for 
#any damages, including, but not limited to, indirect, special or consequential damages, 
#resulting from the use of any information or interpretation provided by Halliburton.
#
~A           TIME           GTDEPTH  GTPQH  GTTQ  GTTN   GTET   GTTVD  
# ...
   13:55:29.200.27-Aug-2021 4859.00 5321.66 84.54 14.00 158.20 3211.42
   13:55:29.400.27-Aug-2021 4859.00 5323.65 84.54 14.00 158.40 3211.42
   13:55:29.600.27-Aug-2021 4859.00 5324.62 84.54 14.00 158.60 3211.42
   13:55:29.800.27-Aug-2021 4859.00 5325.57 84.54 14.00 158.80 3211.42
   13:55:30.000.27-Aug-2021 4859.00 5326.50 84.54 14.00 159.00 3211.42
   13:55:30.200.27-Aug-2021 4859.00 5326.50 84.54 14.00 159.20 3211.42
   13:55:30.400.27-Aug-2021 4859.00 5328.31 84.54 14.00 159.40 3211.42
   13:55:30.600.27-Aug-2021 4859.00 5328.74 84.54 14.00 159.60 3211.42
   13:55:30.800.27-Aug-2021 4859.00 5330.14 84.54 14.00 159.80 3211.42
   13:55:31.000.27-Aug-2021 4859.00 5331.09 84.54 14.00 160.00 3211.42
   13:55:31.200.27-Aug-2021 4859.00 5331.09 84.54 14.00 160.20 3211.42
   13:55:31.400.27-Aug-2021 4859.00 5333.08 84.54 14.00 160.40 3211.42
   13:55:31.600.27-Aug-2021 4859.00 5333.61 84.54 14.00 160.60 3211.42
   13:55:31.800.27-Aug-2021 4859.00 5334.15 84.54 14.00 160.80 3211.42
   13:55:32.000.27-Aug-2021 4859.00 5335.37 84.54 14.00 161.00 3211.42
   13:55:32.200.27-Aug-2021 4859.00 5335.37 84.54 14.00 161.20 3211.42
   13:55:32.400.27-Aug-2021 4859.00 5336.29 84.54 14.00 161.40 3211.42
   13:55:32.600.27-Aug-2021 4859.00 5338.44 84.54 14.00 161.60 3211.42
   13:55:32.800.27-Aug-2021 4859.00 5338.42 84.54 14.00 161.80 3211.42
   13:55:33.000.27-Aug-2021 4859.00 5340.07 84.54 14.00 162.00 3211.42
   13:55:33.200.27-Aug-2021 4859.00 5340.07 84.54 14.00 162.20 3211.42
   13:55:33.400.27-Aug-2021 4859.00 5341.46 84.54 14.00 162.40 3211.42
   13:55:33.600.27-Aug-2021 4859.00 5342.62 84.54 14.00 162.60 3211.42
   13:55:33.800.27-Aug-2021 4859.00 5148.32 84.54 14.00 162.80 3211.42
   13:55:34.000.27-Aug-2021 4859.00 4160.37 84.54 14.00 163.00 3211.42
   13:55:34.200.27-Aug-2021 4859.00 4160.37 84.54 14.00 163.20 3211.42
   13:55:34.400.27-Aug-2021 4859.00 2420.78 84.54 14.00 163.40 3211.42
   13:55:34.600.27-Aug-2021 4859.00 1827.90 84.54 14.00 163.60 3211.42
   13:55:34.800.27-Aug-2021 4859.00 1685.93 84.54 14.00 163.80 3211.42
   13:55:35.000.27-Aug-2021 4859.00 1661.58 84.54 14.00 164.00 3211.42
   13:55:35.200.27-Aug-2021 4859.00 1661.58 84.54 14.00 164.20 3211.42
   13:55:35.400.27-Aug-2021 4859.00 1653.80 84.54 14.00 164.40 3211.42
   13:55:35.600.27-Aug-2021 4859.00 1654.49 84.54 14.00 164.60 3211.42
   13:55:35.800.27-Aug-2021 4859.00 1649.28 84.53 14.00 164.80 3211.42
   13:55:36.000.27-Aug-2021 4859.00 1647.42 84.53 14.00 165.00 3211.42
   13:55:36.200.27-Aug-2021 4859.00 1647.42 84.53 14.00 165.20 3211.42
   13:55:36.400.27-Aug-2021 4859.00 1646.21 84.53 14.00 165.40 3211.42
   13:55:36.600.27-Aug-2021 4859.00 1644.39 84.52 14.00 165.60 3211.42
   13:55:36.800.27-Aug-2021 4859.00 1640.83 84.52 14.00 165.80 3211.42
   13:55:37.000.27-Aug-2021 4859.00 1641.25 84.52 14.00 166.00 3211.42
   13:55:37.200.27-Aug-2021 4859.00 1641.25 84.52 14.00 166.20 3211.42
   13:55:37.400.27-Aug-2021 4859.00 1644.80 84.51 14.00 166.40 3211.42
   13:55:37.600.27-Aug-2021 4859.00 1636.03 84.51 14.00 166.60 3211.42
   13:55:37.800.27-Aug-2021 4859.00 1636.14 84.51 14.00 166.80 3211.42
   13:55:38.000.27-Aug-2021 4859.00 1636.74 84.50 14.00 167.00 3211.42
   13:55:38.200.27-Aug-2021 4859.00 1636.74 84.50 14.00 167.20 3211.42
   13:55:38.400.27-Aug-2021 4859.00 1642.00 84.50 14.00 167.40 3211.42
   13:55:38.600.27-Aug-2021 4859.00 1641.84 84.49 14.00 167.60 3211.42
   13:55:38.800.27-Aug-2021 4859.00 1638.09 84.49 14.00 167.80 3211.42
   13:55:39.000.27-Aug-2021 4859.00 1634.32 84.49 14.00 168.00 3211.42
   13:55:39.200.27-Aug-2021 4859.00 1634.32 84.49 14.00 168.20 3211.42
   13:55:39.400.27-Aug-2021 4859.00 1628.82 84.48 14.00 168.40 3211.42
   13:55:39.600.27-Aug-2021 4859.00 1627.33 84.48 14.00 168.60 3211.42
   13:55:39.800.27-Aug-2021 4859.00 1626.10 84.48 14.00 168.80 3211.42
   13:55:40.000.27-Aug-2021 4859.00 1625.24 84.48 14.00 169.00 3211.42
   13:55:40.200.27-Aug-2021 4859.00 1625.24 84.48 14.00 169.20 3211.42
   13:55:40.400.27-Aug-2021 4859.00 1621.12 84.47 14.00 169.40 3211.42
   13:55:40.600.27-Aug-2021 4859.00 1625.89 84.47 14.00 169.60 3211.42
   13:55:40.800.27-Aug-2021 4859.00 1640.88 84.47 14.00 169.80 3211.42
   13:55:41.000.27-Aug-2021 4859.00 1650.47 84.47 14.00 170.00 3211.42
   13:55:41.200.27-Aug-2021 4859.00 1650.47 84.47 14.00 170.20 3211.42
   13:55:41.400.27-Aug-2021 4859.00 1654.96 84.46 14.00 170.40 3211.42
   13:55:41.600.27-Aug-2021 4859.00 1654.24 84.46 14.00 170.60 3211.42
   13:55:41.800.27-Aug-2021 4859.00 1655.73 84.46 14.00 170.80 3211.42
   13:55:42.000.27-Aug-2021 4859.00 1654.75 84.46 14.00 171.00 3211.42
   13:55:42.200.27-Aug-2021 4859.00 1654.75 84.46 14.00 171.20 3211.42
   13:55:42.400.27-Aug-2021 4859.00 1640.78 84.46 14.00 171.40 3211.42
   13:55:42.600.27-Aug-2021 4859.00 1633.20 84.45 14.00 171.60 3211.42
   13:55:42.800.27-Aug-2021 4859.00 1633.06 84.45 14.00 171.80 3211.42
   13:55:43.000.27-Aug-2021 4859.00 1637.05 84.45 14.00 172.00 3211.42
   13:55:43.200.27-Aug-2021 4859.00 1637.05 84.45 14.00 172.20 3211.42
   13:55:43.400.27-Aug-2021 4859.00 1642.52 84.45 14.00 172.40 3211.42
   13:55:43.600.27-Aug-2021 4859.00 1641.72 84.45 14.00 172.60 3211.42
   13:55:43.800.27-Aug-2021 4859.00 1637.41 84.45 14.00 172.80 3211.42
   13:55:44.000.27-Aug-2021 4859.00 1653.72 84.45 14.00 173.00 3211.42
   13:55:44.200.27-Aug-2021 4859.00 1653.72 84.45 14.00 173.20 3211.42
   13:55:44.400.27-Aug-2021 4859.00 1734.24 84.45 14.00 173.40 3211.42
   13:55:44.600.27-Aug-2021 4859.00 1771.83 84.44 14.00 173.60 3211.42
   13:55:44.800.27-Aug-2021 4859.00 1808.81 84.44 14.00 173.80 3211.42
   13:55:45.000.27-Aug-2021 4859.00 1845.16 84.44 14.00 174.00 3211.42
   13:55:45.200.27-Aug-2021 4859.00 1845.16 84.44 14.00 174.20 3211.42
   13:55:45.400.27-Aug-2021 4859.00 1913.67 84.44 14.00 174.40 3211.42
   13:55:45.600.27-Aug-2021 4859.00 1947.24 84.44 14.00 174.60 3211.42
   13:55:45.800.27-Aug-2021 4859.00 1980.32 84.44 14.00 174.80 3211.42
   13:55:46.000.27-Aug-2021 4859.00 2013.04 84.44 14.00 175.00 3211.42
   13:55:46.200.27-Aug-2021 4859.00 2013.04 84.44 14.00 175.20 3211.42
   13:55:46.400.27-Aug-2021 4859.00 2076.99 84.44 14.00 175.40 3211.42
   13:55:46.600.27-Aug-2021 4859.00 2108.33 84.44 14.00 175.60 3211.42
   13:55:46.800.27-Aug-2021 4859.00 2139.23 84.44 14.00 175.80 3211.42
   13:55:47.000.27-Aug-2021 4859.00 2169.31 84.44 14.00 176.00 3211.42
   13:55:47.200.27-Aug-2021 4859.00 2169.31 84.44 14.00 176.20 3211.42
   13:55:47.400.27-Aug-2021 4859.00 2229.19 84.44 14.00 176.40 3211.42
   13:55:47.600.27-Aug-2021 4859.00 2258.45 84.44 14.00 176.60 3211.42
   13:55:47.800.27-Aug-2021 4859.00 2288.00 84.44 14.00 176.80 3211.42
   13:55:48.000.27-Aug-2021 4859.00 2316.26 84.44 14.00 177.00 3211.42
   13:55:48.200.27-Aug-2021 4859.00 2316.26 84.44 14.00 177.20 3211.42
   13:55:48.400.27-Aug-2021 4859.00 2372.74 84.44 14.00 177.40 3211.42
   13:55:48.600.27-Aug-2021 4859.00 2400.23 84.44 14.00 177.60 3211.42
   13:55:48.800.27-Aug-2021 4859.00 2427.60 84.44 14.00 177.80 3211.42
   13:55:49.000.27-Aug-2021 4859.00 2454.38 84.44 14.00 178.00 3211.42
   13:55:49.200.27-Aug-2021 4859.00 2454.38 84.44 14.00 178.20 3211.42
   13:55:49.400.27-Aug-2021 4859.00 2507.33 84.44 14.00 178.40 3211.42
   13:55:49.600.27-Aug-2021 4859.00 2533.18 84.44 14.00 178.60 3211.42
   13:55:49.800.27-Aug-2021 4859.00 2558.75 84.44 14.00 178.80 3211.42
   13:55:50.000.27-Aug-2021 4859.00 2583.97 84.44 14.00 179.00 3211.42
   13:55:50.200.27-Aug-2021 4859.00 2583.97 84.44 14.00 179.20 3211.42
   13:55:50.400.27-Aug-2021 4859.00 2632.37 84.44 14.00 179.40 3211.42
   13:55:50.600.27-Aug-2021 4859.00 2656.95 84.45 14.00 179.60 3211.42
   13:55:50.800.27-Aug-2021 4859.00 2681.15 84.45 14.00 179.80 3211.42
   13:55:51.000.27-Aug-2021 4859.00 2705.74 84.45 14.00 180.00 3211.42
   13:55:51.200.27-Aug-2021 4859.00 2705.74 84.45 14.00 180.20 3211.42
   13:55:51.400.27-Aug-2021 4859.00 2751.18 84.45 14.00 180.40 3211.42
   13:55:51.600.27-Aug-2021 4859.00 2775.08 84.45 14.00 180.60 3211.42
