~Version Information
 VERS.                  2.0:   CWLS log ASCII Standard -VERSION 2.0
 WRAP.                   NO:   One line per depth step
~Well Information Block
#MNEM.UNIT     VALUE/NAME     DESCRIPTION
#---------     -----------    ---------------------------
 STRT.S             11:48:55 27-Aug-21: START TIME 11:48:55 27-Aug-21
 STOP.S             11:56:03 27-Aug-21: STOP TIME  11:56:03 27-Aug-21
 STEP.S                   0.00: STEP TIME
 NULL.                 -999.25: NULL VALUE
 DFWT.                        :  DIST FWL TEXT
 DFST.                        :  DIST FSL TEXT
 DMF .             Drill Floor:  DRILL MEAS FROM
 STIM.      20.00.00 17-Aug-21:  START TIME
 DATE.      19.00.00 29-Aug-21:  END TIME
 SPUD.               15-Aug-21:  SPUD DATE
 NREF.                    Grid:  NORTH REFERENCE
 HPTY.       Minimum Curvature:  HOLE POS TYPE
 DMOD.             Drill Model:  DRILL MOD DESC
 SVYD.                  Survey:  SURVEY DESC
 ILTD.               Lithology:  INTERP LTH DESC
 FTOP.          Formation Tops:  FORM TOPS DESC
 RIG .              East Azeri:  RIG NAME
 PDAT.          Mean Sea Level:  PERMANENT DATUM
 FLD .                     ACG:  FIELD NAME
 SON .        AZ-XX-0907180857:  JOB NUMBER
 CTRY.              Azerbaijan:  COUNTRY NAME
 WELL.                    D23x:  WELL NAME
 SRVC.     Turan Drilling and Engineering:  CONTRACTOR
 COMP.     BP Exploration (Caspian Sea) Ltd.:  COMPANY
 UWI .            /AZE00000214:  UNIQUE WELL IDENTIFIER
 API .            /AZE00000214:  API NUMBER
 MDS .        Operator Entered:  MAG DATA SOURCE
 BASE.              Azerbaijan:  LOGGING EQUIPMENT BASE LOCATION
 REGN.                   EESSA:  REGION
 PROV.                    Baku:  PROVINCE
 STAT.                    Baku:  STATE NAME
 MWDS.                    Baku:  MWD SHOP
 DOE .                     N/A:  DOE NUMBER
 DCON.         Sperry Drilling:  DIRECTNL CONTR
 UNIT.                     N/A:  LOGGING EQUIPMENT ID
 WTYP.                Deviated:  WELL TYPE
 CNTY.                        :  COUNTY
 LOC .                        :  LOCATION
 LMF .             Drill Floor:  LOG MEASURED FROM
 TVDS.m                  43.60:  TVDSS CORRECTN
 LATI.deg                40.02:  LATITUDE
 LONG.deg                51.45:  LONGITUDE
 WHNS.m                  -7.04:  WELL HEAD N/S
 WHEW.m                  -0.67:  WELL HEAD E/W
 UTMX.m              538762.90:  UTM X
 UTMY.m             4431871.34:  UTM Y
 DFWL.m                   0.00:  DISTANCE FWL
 DFSL.m                   0.00:  DISTANCE FSL
 SDEP.m                4127.00:  START DEPTH
 TDD .m                5084.50:  TOTAL DEPTH (DRILLER)
 VSDR.deg               140.47:  VERT SEC DIRECT
 GVFD.g                   1.00:  GRAVITY FIELD
 MFLD.nT              50362.00:  MAGNETIC FIELD
 MDIP.deg                59.48:  MAGNETIC DIP
 MDEC.deg                 6.47:  MAGNETIC DECL
 GRDC.deg                 0.31:  GRID CORRECTION
 AZTC.deg                 6.16:  AZM TOTAL CORR
 EPD .m                   0.00:  ELEVATION
 EGL .m                   0.00:  GROUND ELEVATION
 WDMS.m                 151.80:  WD ELEV
 APD .m                  43.60:  DEPTH ABOVE PD
 DEP .m                4092.57:  DEPTH
 AGAP.m                  43.60:  AIR GAP
 VSEW.m                  -0.67:  VERT SEC E/W
 VSNS.m                  -7.04:  VERT SEC N/S
 EKB .m                  43.60:  KB ELEVATION
 EDF .m                  43.60:  DF ELEVATION
 TDL .m                 957.50:  TOTAL DEPTH (LOGGER)
 VSC .                       0:  VS TO CLOSURE
 MAGU.                 1851413:  MAGUTM CHECKSUM
~Parameter Information Block
#MNEM.UNIT       Value        Description
#---------     -----------    ---------------------------
 AV  .mps                 1.50:  Ann Velocity 
 AVMX.mps                 2.00:  Max Ann Veloc 
 AZIF.deg               184.66:  Azm, Final 
 BHAT.        Rotary Steerable:  BHA Type 
 BREV.rev               300.00:  Rev Bit Total 
 BROT.°/30m              -0.50:  Build Rotating 
 BS  .in                  8.50:  Bit Size 
 BSZ .in                  8.50:  Bit Size 
 BTPL.psig              370.00:  Bit Press Loss 
 CABU.                      No:  Customer Abuse 
 CGEO.      Behruz Shahbaliyev:  Customer Geo 
 COMM.                     L*e:  Run Comments 1 
 TCS .hr                140.08:  Time Ciculation Ended 
 CV  .mps                 3.00:  Crit Velocity 
 CVMX.mps                 3.20:  Max Crit Veloc 
 DD1 .            Musa Ahmadov:  Direct Drillr 1 
 DD2 .           Hamid Ahmadov:  Direct Drillr 2 
 DDSV.               Geo-Pilot:  DD Service 
 DEFF.%                  98.40:  % Det Eff 
 DLRX.°/30m               3.40:  Dogleg Rot Max 
 DLSO.°/30m               1.45:  Dogleg Oriented 
 DLSX.°/30m               3.40:  Dogleg Str Max 
 DRET.      18.40.00 29-Aug-21:  Drill End Time 
 DRST.      21.00.00 20-Aug-21:  Drill Start Tim 
 DTIM.hr                 69.47:  Time Drilling 
 EDEP.m                5084.50:  End Depth 
 ENG1.      Artemiy Matviyanov:  Engineer 1 
 ENG2.         Almaz Almadatov:  Engineer 2 
 ETIM.      18.40.00 29-Aug-21:  End Time 
 FLOI.gpm               500.00:  Flow In 
 FLON.gpm               400.00:  Flow In Min 
 FLOS.cptm                0.00:  Fluid Loss 
 FLOX.gpm               500.00:  Flow In Max 
 DFT .        Mineral Oil Base:  Mud Type 
 HFLO.                      No:  High Flow 
 HPRE.                      No:  High Pressure 
 HTEM.                      No:  High Temp 
 HYDO.m                   1.80:  Hydro Offset 
 IFIN.deg                25.62:  Inc, Final 
 IMAX.deg                48.69:  Inc Max 
 IMIN.deg                24.01:  Inc Min 
 IMND.m                4962.57:  Inc Min Depth 
 IMXD.m                4119.01:  Inc Max Depth 
 JARR.                      No:  Jarring 
 LETM.      18.40.00 29-Aug-21:  Log End Time 
 LOST.hr                     0:  Lost Rig Time 
 LSTM.      21.00.00 20-Aug-21:  Log Start Time 
 MDCL.ppm             41500.00:  Mud Chlorides 
 MDES.     Inversion Oil/Synthetic:  Mud Desc 
 DFD .sg                  1.56:  Mud Density 
 MDMN.sg                  1.56:  Dens Mud Min 
 MDMX.sg                  1.56:  Dens Mud Max 
 MOIL.                      70:  Run Mud Oil % 
 MOWR.                   70:30:  Run Mud OWR 
 MSND.                     0.2:  Run Mud Sand % 
 MSOL.                    23.3:  Run Mud Solids% 
 DFV .spqt               78.00:  Mud Viscosity 
 MWOD.in                  6.75:  MWD Tool OD 
 MWSI.                      No:  Serv Intrp, MWD 
 OTIM.hr                218.30:  Time Operating 
 PCON.           Look Like New:  Pad Condition 
 PMAX.psia            11015.30:  Press Op, Max 
 PV  .cP                 38.00:  Mud PV 
 RUN .                     300:  Run Number 
 ROPA.m/hr               15.00:  ROP Avg 
 ROPN.m/hr                9.00:  ROP Min 
 ROPX.m/hr               17.00:  ROP Max 
 RPMA.rpm               120.00:  RPM Surface Avg 
 RPMN.rpm                90.00:  RPM Surface Min 
 RPMX.rpm               140.00:  RPM Surface Max 
 RRUN.                     300:  Rig Run Number 
 RTIM.hr                 31.53:  Time Reaming 
 SAZI.deg               331.64:  Azm, Start 
 SDEP.m                4127.00:  Start Depth 
 SIDD.                      No:  Serv Intrp, DD 
 SINC.deg                48.43:  Inc, Start 
 SPPA.psig             5830.00:  SPP Avg 
 SPPN.psig             5600.00:  SPP Min 
 SPPX.psig             5900.00:  SPP Max 
 STIM.      21.00.00 20-Aug-21:  Start Time 
 SVCS.                 DD, MWD:  Services 
 SVER.                    9.20:  Sperry Version 
 TDAT.m                 957.50:  Tot Depth Attmp 
 TDDF.                      No:  Trip for DD 
 TDLG.m                 957.50:  Tot Depth Loggd 
 TFF .                      No:  Trip for Fail 
 TQAA.f-kp               15.00:  Torque Abs Avg 
 TQAN.f-kp               12.00:  Torque Abs Min 
 TQAX.f-kp               19.00:  Torque Abs Max 
 TRRT.°/30m              -3.40:  Turn Rotating 
 MRT .                  EWR-M5:  Maximum Recorded Temperature 
 TTMX.degC              100.00:  Max Tool Temp 
 VS01.                90639251:  Virtual Str1 SN 
 VS02.                90634715:  Virtual Str2 SN 
 VS03.                90652479:  Virtual Str3 SN 
 VS04.                90642262:  Virtual Str4 SN 
 WBMN.klb                 0.00:  WOB Min 
 WITN.           Murad Guliyev:  Customer Rep 
 WITN.          Yashar Gaziyev:  Customer Rep 2 
 WOBA.klb                 9.00:  WOB Avg 
 WOBX.klb                12.00:  WOB Max 
 YP  .lhf2               30.00:  Yield Point 
~Curve Information Block
#MNEM.UNIT                 API CODE     Curve Description
#---------               -----------    ---------------------------
 TIME.HHMMSS            00 000 000 000:  GT Time & Date
 GTDEPTH.m              00 000 000 000:  GT Depth
 GTPQH.psia             00 000 000 000:  GT HR Quartz Pressure
 GTTQ.degC              00 000 000 000:  GT Quartz Temperature
 GTTN.NONE              00 000 000 000:  GT Test Number
 GTET.sec               00 000 000 000:  GT Elapsed Test Time
 GTTVD.m                00 000 000 000:  GT True Vertical Depth
#Other Information
#
#WARRANTY: Halliburton will use its best efforts to furnish customers with 
#accurate information and interpretations that are part of, and incident to, the services 
#provided.  However, Halliburton cannot and does not warrant the accuracy 
#or correctness of such information and interpretations.  Under no circumstances should any 
#such information or interpretation be relied upon as the sole basis for any drilling, 
#completion, production, or financial decision or any procedure involving any risk to the 
#safety of any drilling venture, drilling rig or its crew or any other third party.  The 
#Customer has full responsibility for all drilling, completion and production operation.  
#Halliburton makes no representations or warranties, either expressed or 
#implied, including, but not limited to, the implied warranties of merchantability or fitness 
#for a particular purpose, with respect to the services rendered.  In no event will 
#Halliburton be liable for failure to obtain any particular results or for 
#any damages, including, but not limited to, indirect, special or consequential damages, 
#resulting from the use of any information or interpretation provided by Halliburton.
#
~A           TIME           GTDEPTH  GTPQH  GTTQ  GTTN   GTET   GTTVD  
# ...
   11:54:12.160.27-Aug-2021 4914.00 7808.02 85.27 11.00 316.51 3261.31
   11:54:12.360.27-Aug-2021 4914.00 7808.11 85.27 11.00 316.71 3261.31
   11:54:12.560.27-Aug-2021 4914.00 7808.26 85.27 11.00 316.91 3261.31
   11:54:12.760.27-Aug-2021 4914.00 7807.96 85.27 11.00 317.11 3261.31
   11:54:12.960.27-Aug-2021 4914.00 7807.96 85.27 11.00 317.31 3261.31
   11:54:13.161.27-Aug-2021 4914.00 7807.49 85.27 11.00 317.51 3261.31
   11:54:13.361.27-Aug-2021 4914.00 7807.43 85.26 11.00 317.71 3261.31
   11:54:13.561.27-Aug-2021 4914.00 7811.72 85.27 11.00 317.91 3261.31
   11:54:13.761.27-Aug-2021 4914.00 7805.66 85.27 11.00 318.11 3261.31
   11:54:13.961.27-Aug-2021 4914.00 7805.66 85.27 11.00 318.31 3261.31
   11:54:14.161.27-Aug-2021 4914.00 7806.74 85.26 11.00 318.51 3261.31
   11:54:14.361.27-Aug-2021 4914.00 7806.54 85.27 11.00 318.71 3261.31
   11:54:14.561.27-Aug-2021 4914.00 7812.70 85.26 11.00 318.91 3261.31
   11:54:14.761.27-Aug-2021 4914.00 7803.66 85.26 11.00 319.11 3261.31
   11:54:14.961.27-Aug-2021 4914.00 7803.66 85.26 11.00 319.31 3261.31
   11:54:15.161.27-Aug-2021 4914.00 7806.98 85.26 11.00 319.51 3261.31
   11:54:15.361.27-Aug-2021 4914.00 7806.97 85.26 11.00 319.71 3261.31
   11:54:15.561.27-Aug-2021 4914.00 7807.20 85.26 11.00 319.91 3261.31
   11:54:15.761.27-Aug-2021 4914.00 7807.18 85.26 11.00 320.11 3261.31
   11:54:15.962.27-Aug-2021 4914.00 7807.18 85.26 11.00 320.31 3261.31
   11:54:16.162.27-Aug-2021 4914.00 7807.24 85.26 11.00 320.51 3261.31
   11:54:16.362.27-Aug-2021 4914.00 7808.50 85.26 11.00 320.71 3261.31
   11:54:16.562.27-Aug-2021 4914.00 7807.47 85.26 11.00 320.91 3261.31
   11:54:16.762.27-Aug-2021 4914.00 7807.37 85.26 11.00 321.11 3261.31
   11:54:16.962.27-Aug-2021 4914.00 7807.37 85.26 11.00 321.31 3261.31
   11:54:17.162.27-Aug-2021 4914.00 7806.97 85.26 11.00 321.51 3261.31
   11:54:17.362.27-Aug-2021 4914.00 7809.84 85.26 11.00 321.71 3261.31
   11:54:17.562.27-Aug-2021 4914.00 7807.22 85.26 11.00 321.91 3261.31
   11:54:17.762.27-Aug-2021 4914.00 7807.25 85.26 11.00 322.11 3261.31
   11:54:17.962.27-Aug-2021 4914.00 7807.25 85.26 11.00 322.31 3261.31
   11:54:18.162.27-Aug-2021 4914.00 7807.07 85.26 11.00 322.51 3261.31
   11:54:18.362.27-Aug-2021 4914.00 7807.25 85.26 11.00 322.71 3261.31
   11:54:18.562.27-Aug-2021 4914.00 7807.21 85.26 11.00 322.91 3261.31
   11:54:18.763.27-Aug-2021 4914.00 7806.55 85.26 11.00 323.11 3261.31
   11:54:18.963.27-Aug-2021 4914.00 7806.55 85.26 11.00 323.31 3261.31
   11:54:19.163.27-Aug-2021 4914.00 7807.46 85.26 11.00 323.51 3261.31
   11:54:19.363.27-Aug-2021 4914.00 7807.73 85.26 11.00 323.71 3261.31
   11:54:19.563.27-Aug-2021 4914.00 7807.82 85.26 11.00 323.91 3261.31
   11:54:19.763.27-Aug-2021 4914.00 7807.76 85.26 11.00 324.12 3261.31
   11:54:19.963.27-Aug-2021 4914.00 7807.76 85.26 11.00 324.32 3261.31
   11:54:20.163.27-Aug-2021 4914.00 7807.35 85.26 11.00 324.52 3261.31
   11:54:20.363.27-Aug-2021 4914.00 7807.19 85.26 11.00 324.72 3261.31
   11:54:20.563.27-Aug-2021 4914.00 7811.45 85.26 11.00 324.92 3261.31
   11:54:20.763.27-Aug-2021 4914.00 7805.96 85.26 11.00 325.12 3261.31
   11:54:20.963.27-Aug-2021 4914.00 7805.96 85.26 11.00 325.32 3261.31
   11:54:21.163.27-Aug-2021 4914.00 7807.07 85.26 11.00 325.52 3261.31
   11:54:21.363.27-Aug-2021 4914.00 7806.52 85.26 11.00 325.72 3261.31
   11:54:21.563.27-Aug-2021 4914.00 7806.76 85.26 11.00 325.92 3261.31
   11:54:21.764.27-Aug-2021 4914.00 7806.52 85.26 11.00 326.12 3261.31
   11:54:21.964.27-Aug-2021 4914.00 7806.52 85.26 11.00 326.32 3261.31
   11:54:22.164.27-Aug-2021 4914.00 7806.78 85.26 11.00 326.52 3261.31
   11:54:22.364.27-Aug-2021 4914.00 7806.98 85.26 11.00 326.72 3261.31
   11:54:22.564.27-Aug-2021 4914.00 7807.52 85.26 11.00 326.92 3261.31
   11:54:22.764.27-Aug-2021 4914.00 7807.50 85.26 11.00 327.12 3261.31
   11:54:22.964.27-Aug-2021 4914.00 7807.50 85.26 11.00 327.32 3261.31
   11:54:23.164.27-Aug-2021 4914.00 7807.50 85.26 11.00 327.52 3261.31
   11:54:23.364.27-Aug-2021 4914.00 7807.37 85.26 11.00 327.72 3261.31
   11:54:23.564.27-Aug-2021 4914.00 7807.20 85.26 11.00 327.92 3261.31
   11:54:23.764.27-Aug-2021 4914.00 7807.02 85.26 11.00 328.12 3261.31
   11:54:23.964.27-Aug-2021 4914.00 7807.02 85.26 11.00 328.32 3261.31
   11:54:24.164.27-Aug-2021 4914.00 7805.46 85.26 11.00 328.52 3261.31
   11:54:24.364.27-Aug-2021 4914.00 7808.10 85.26 11.00 328.72 3261.31
   11:54:24.565.27-Aug-2021 4914.00 7806.69 85.26 11.00 328.92 3261.31
   11:54:24.765.27-Aug-2021 4914.00 7806.51 85.26 11.00 329.12 3261.31
   11:54:24.965.27-Aug-2021 4914.00 7806.51 85.26 11.00 329.32 3261.31
   11:54:25.165.27-Aug-2021 4914.00 7803.43 85.26 11.00 329.52 3261.31
   11:54:25.365.27-Aug-2021 4914.00 7807.59 85.26 11.00 329.72 3261.31
   11:54:25.565.27-Aug-2021 4914.00 7806.67 85.26 11.00 329.92 3261.31
   11:54:25.765.27-Aug-2021 4914.00 7806.60 85.26 11.00 330.12 3261.31
   11:54:25.965.27-Aug-2021 4914.00 7806.60 85.26 11.00 330.32 3261.31
   11:54:26.165.27-Aug-2021 4914.00 7806.85 85.26 11.00 330.52 3261.31
   11:54:26.365.27-Aug-2021 4914.00 7813.08 85.26 11.00 330.72 3261.31
   11:54:26.565.27-Aug-2021 4914.00 7803.75 85.26 11.00 330.92 3261.31
   11:54:26.765.27-Aug-2021 4914.00 7807.97 85.26 11.00 331.12 3261.31
   11:54:26.965.27-Aug-2021 4914.00 7807.97 85.26 11.00 331.32 3261.31
   11:54:27.165.27-Aug-2021 4914.00 7806.86 85.26 11.00 331.52 3261.31
   11:54:27.366.27-Aug-2021 4914.00 7806.68 85.26 11.00 331.72 3261.31
   11:54:27.566.27-Aug-2021 4914.00 7810.65 85.26 11.00 331.92 3261.31
   11:54:27.766.27-Aug-2021 4914.00 7804.95 85.26 11.00 332.12 3261.31
   11:54:27.966.27-Aug-2021 4914.00 7804.95 85.26 11.00 332.32 3261.31
   11:54:28.166.27-Aug-2021 4914.00 7806.15 85.26 11.00 332.52 3261.31
   11:54:28.366.27-Aug-2021 4914.00 7806.32 85.26 11.00 332.72 3261.31
   11:54:28.566.27-Aug-2021 4914.00 7806.78 85.26 11.00 332.92 3261.31
   11:54:28.766.27-Aug-2021 4914.00 7806.37 85.26 11.00 333.12 3261.31
   11:54:28.966.27-Aug-2021 4914.00 7806.37 85.26 11.00 333.32 3261.31
   11:54:29.166.27-Aug-2021 4914.00 7806.38 85.26 11.00 333.52 3261.31
   11:54:29.366.27-Aug-2021 4914.00 7806.70 85.26 11.00 333.72 3261.31
   11:54:29.566.27-Aug-2021 4914.00 7807.05 85.26 11.00 333.92 3261.31
   11:54:29.766.27-Aug-2021 4914.00 7807.34 85.26 11.00 334.12 3261.31
   11:54:29.966.27-Aug-2021 4914.00 7807.34 85.26 11.00 334.32 3261.31
   11:54:30.167.27-Aug-2021 4914.00 7807.10 85.26 11.00 334.52 3261.31
   11:54:30.367.27-Aug-2021 4914.00 7806.80 85.26 11.00 334.72 3261.31
   11:54:30.567.27-Aug-2021 4914.00 7806.63 85.26 11.00 334.92 3261.31
   11:54:30.767.27-Aug-2021 4914.00 7812.76 85.26 11.00 335.12 3261.31
   11:54:30.967.27-Aug-2021 4914.00 7812.76 85.26 11.00 335.32 3261.31
   11:54:31.167.27-Aug-2021 4914.00 7807.95 85.26 11.00 335.52 3261.31
   11:54:31.367.27-Aug-2021 4914.00 7806.61 85.26 11.00 335.72 3261.31
   11:54:31.567.27-Aug-2021 4914.00 7806.19 85.26 11.00 335.92 3261.31
   11:54:31.767.27-Aug-2021 4914.00 7806.25 85.26 11.00 336.12 3261.31
   11:54:31.967.27-Aug-2021 4914.00 7806.25 85.26 11.00 336.32 3261.31
   11:54:32.167.27-Aug-2021 4914.00 7806.46 85.26 11.00 336.52 3261.31
   11:54:32.367.27-Aug-2021 4914.00 7806.23 85.26 11.00 336.72 3261.31
   11:54:32.567.27-Aug-2021 4914.00 7806.57 85.26 11.00 336.92 3261.31
   11:54:32.767.27-Aug-2021 4914.00 7807.09 85.26 11.00 337.12 3261.31
   11:54:32.968.27-Aug-2021 4914.00 7807.09 85.26 11.00 337.32 3261.31
   11:54:33.168.27-Aug-2021 4914.00 7807.34 85.26 11.00 337.52 3261.31
   11:54:33.368.27-Aug-2021 4914.00 7807.23 85.26 11.00 337.72 3261.31
   11:54:33.568.27-Aug-2021 4914.00 7807.17 85.26 11.00 337.92 3261.31
   11:54:33.768.27-Aug-2021 4914.00 7806.98 85.26 11.00 338.12 3261.31
   11:54:33.968.27-Aug-2021 4914.00 7806.98 85.26 11.00 338.32 3261.31
   11:54:34.168.27-Aug-2021 4914.00 7812.59 85.26 11.00 338.52 3261.31
   11:54:34.368.27-Aug-2021 4914.00 7803.80 85.26 11.00 338.72 3261.31
   11:54:34.568.27-Aug-2021 4914.00 7807.72 85.26 11.00 338.92 3261.31
