~Version Information
 VERS.                  2.0:   CWLS log ASCII Standard -VERSION 2.0
 WRAP.                   NO:   One line per depth step
~Well Information Block
#MNEM.UNIT     VALUE/NAME     DESCRIPTION
#---------     -----------    ---------------------------
 STRT.S             09:25:17 27-Aug-21: START TIME 09:25:17 27-Aug-21
 STOP.S             09:32:27 27-Aug-21: STOP TIME  09:32:27 27-Aug-21
 STEP.S                   0.00: STEP TIME
 NULL.                 -999.25: NULL VALUE
 DFWT.                        :  DIST FWL TEXT
 DFST.                        :  DIST FSL TEXT
 DMF .             Drill Floor:  DRILL MEAS FROM
 STIM.      20.00.00 17-Aug-21:  START TIME
 DATE.      19.00.00 29-Aug-21:  END TIME
 SPUD.               15-Aug-21:  SPUD DATE
 NREF.                    Grid:  NORTH REFERENCE
 HPTY.       Minimum Curvature:  HOLE POS TYPE
 DMOD.             Drill Model:  DRILL MOD DESC
 SVYD.                  Survey:  SURVEY DESC
 ILTD.               Lithology:  INTERP LTH DESC
 FTOP.          Formation Tops:  FORM TOPS DESC
 RIG .              East Azeri:  RIG NAME
 PDAT.          Mean Sea Level:  PERMANENT DATUM
 FLD .                     ACG:  FIELD NAME
 SON .        AZ-XX-0907180857:  JOB NUMBER
 CTRY.              Azerbaijan:  COUNTRY NAME
 WELL.                    D23x:  WELL NAME
 SRVC.     Turan Drilling and Engineering:  CONTRACTOR
 COMP.     BP Exploration (Caspian Sea) Ltd.:  COMPANY
 UWI .            /AZE00000214:  UNIQUE WELL IDENTIFIER
 API .            /AZE00000214:  API NUMBER
 MDS .        Operator Entered:  MAG DATA SOURCE
 BASE.              Azerbaijan:  LOGGING EQUIPMENT BASE LOCATION
 REGN.                   EESSA:  REGION
 PROV.                    Baku:  PROVINCE
 STAT.                    Baku:  STATE NAME
 MWDS.                    Baku:  MWD SHOP
 DOE .                     N/A:  DOE NUMBER
 DCON.         Sperry Drilling:  DIRECTNL CONTR
 UNIT.                     N/A:  LOGGING EQUIPMENT ID
 WTYP.                Deviated:  WELL TYPE
 CNTY.                        :  COUNTY
 LOC .                        :  LOCATION
 LMF .             Drill Floor:  LOG MEASURED FROM
 TVDS.m                  43.60:  TVDSS CORRECTN
 LATI.deg                40.02:  LATITUDE
 LONG.deg                51.45:  LONGITUDE
 WHNS.m                  -7.04:  WELL HEAD N/S
 WHEW.m                  -0.67:  WELL HEAD E/W
 UTMX.m              538762.90:  UTM X
 UTMY.m             4431871.34:  UTM Y
 DFWL.m                   0.00:  DISTANCE FWL
 DFSL.m                   0.00:  DISTANCE FSL
 SDEP.m                4127.00:  START DEPTH
 TDD .m                5084.50:  TOTAL DEPTH (DRILLER)
 VSDR.deg               140.47:  VERT SEC DIRECT
 GVFD.g                   1.00:  GRAVITY FIELD
 MFLD.nT              50362.00:  MAGNETIC FIELD
 MDIP.deg                59.48:  MAGNETIC DIP
 MDEC.deg                 6.47:  MAGNETIC DECL
 GRDC.deg                 0.31:  GRID CORRECTION
 AZTC.deg                 6.16:  AZM TOTAL CORR
 EPD .m                   0.00:  ELEVATION
 EGL .m                   0.00:  GROUND ELEVATION
 WDMS.m                 151.80:  WD ELEV
 APD .m                  43.60:  DEPTH ABOVE PD
 DEP .m                4092.57:  DEPTH
 AGAP.m                  43.60:  AIR GAP
 VSEW.m                  -0.67:  VERT SEC E/W
 VSNS.m                  -7.04:  VERT SEC N/S
 EKB .m                  43.60:  KB ELEVATION
 EDF .m                  43.60:  DF ELEVATION
 TDL .m                 957.50:  TOTAL DEPTH (LOGGER)
 VSC .                       0:  VS TO CLOSURE
 MAGU.                 1851413:  MAGUTM CHECKSUM
~Parameter Information Block
#MNEM.UNIT       Value        Description
#---------     -----------    ---------------------------
 AV  .mps                 1.50:  Ann Velocity 
 AVMX.mps                 2.00:  Max Ann Veloc 
 AZIF.deg               184.66:  Azm, Final 
 BHAT.        Rotary Steerable:  BHA Type 
 BREV.rev               300.00:  Rev Bit Total 
 BROT.°/30m              -0.50:  Build Rotating 
 BS  .in                  8.50:  Bit Size 
 BSZ .in                  8.50:  Bit Size 
 BTPL.psig              370.00:  Bit Press Loss 
 CABU.                      No:  Customer Abuse 
 CGEO.      Behruz Shahbaliyev:  Customer Geo 
 COMM.                     TD\:  Run Comments 1 
 TCS .hr                140.08:  Time Ciculation Ended 
 CV  .mps                 3.00:  Crit Velocity 
 CVMX.mps                 3.20:  Max Crit Veloc 
 DD1 .            Musa Ahmadov:  Direct Drillr 1 
 DD2 .           Hamid Ahmadov:  Direct Drillr 2 
 DDSV.               Geo-Pilot:  DD Service 
 DEFF.%                  98.40:  % Det Eff 
 DLRX.°/30m               3.40:  Dogleg Rot Max 
 DLSO.°/30m               1.45:  Dogleg Oriented 
 DLSX.°/30m               3.40:  Dogleg Str Max 
 DRET.      18.40.00 29-Aug-21:  Drill End Time 
 DRST.      21.00.00 20-Aug-21:  Drill Start Tim 
 DTIM.hr                 69.47:  Time Drilling 
 EDEP.m                5084.50:  End Depth 
 ENG1.      Artemiy Matviyanov:  Engineer 1 
 ENG2.         Almaz Almadatov:  Engineer 2 
 ETIM.      18.40.00 29-Aug-21:  End Time 
 FLOI.gpm               500.00:  Flow In 
 FLON.gpm               400.00:  Flow In Min 
 FLOS.cptm                0.00:  Fluid Loss 
 FLOX.gpm               500.00:  Flow In Max 
 DFT .        Mineral Oil Base:  Mud Type 
 HFLO.                      No:  High Flow 
 HPRE.                      No:  High Pressure 
 HTEM.                      No:  High Temp 
 HYDO.m                   1.80:  Hydro Offset 
 IFIN.deg                25.62:  Inc, Final 
 IMAX.deg                48.69:  Inc Max 
 IMIN.deg                24.01:  Inc Min 
 IMND.m                4962.57:  Inc Min Depth 
 IMXD.m                4119.01:  Inc Max Depth 
 JARR.                      No:  Jarring 
 LETM.      18.40.00 29-Aug-21:  Log End Time 
 LOST.hr                     0:  Lost Rig Time 
 LSTM.      21.00.00 20-Aug-21:  Log Start Time 
 MDCL.ppm             41500.00:  Mud Chlorides 
 MDES.     Inversion Oil/Synthetic:  Mud Desc 
 DFD .sg                  1.56:  Mud Density 
 MDMN.sg                  1.56:  Dens Mud Min 
 MDMX.sg                  1.56:  Dens Mud Max 
 MOIL.                      70:  Run Mud Oil % 
 MOWR.                   70:30:  Run Mud OWR 
 MSND.                     0.2:  Run Mud Sand % 
 MSOL.                    23.3:  Run Mud Solids% 
 DFV .spqt               78.00:  Mud Viscosity 
 MWOD.in                  6.75:  MWD Tool OD 
 MWSI.                      No:  Serv Intrp, MWD 
 OTIM.hr                218.30:  Time Operating 
 PCON.           Look Like New:  Pad Condition 
 PMAX.psia            11015.30:  Press Op, Max 
 PV  .cP                 38.00:  Mud PV 
 RUN .                     300:  Run Number 
 ROPA.m/hr               15.00:  ROP Avg 
 ROPN.m/hr                9.00:  ROP Min 
 ROPX.m/hr               17.00:  ROP Max 
 RPMA.rpm               120.00:  RPM Surface Avg 
 RPMN.rpm                90.00:  RPM Surface Min 
 RPMX.rpm               140.00:  RPM Surface Max 
 RRUN.                     300:  Rig Run Number 
 RTIM.hr                 31.53:  Time Reaming 
 SAZI.deg               331.64:  Azm, Start 
 SDEP.m                4127.00:  Start Depth 
 SIDD.                      No:  Serv Intrp, DD 
 SINC.deg                48.43:  Inc, Start 
 SPPA.psig             5830.00:  SPP Avg 
 SPPN.psig             5600.00:  SPP Min 
 SPPX.psig             5900.00:  SPP Max 
 STIM.      21.00.00 20-Aug-21:  Start Time 
 SVCS.                 DD, MWD:  Services 
 SVER.                    9.20:  Sperry Version 
 TDAT.m                 957.50:  Tot Depth Attmp 
 TDDF.                      No:  Trip for DD 
 TDLG.m                 957.50:  Tot Depth Loggd 
 TFF .                      No:  Trip for Fail 
 TQAA.f-kp               15.00:  Torque Abs Avg 
 TQAN.f-kp               12.00:  Torque Abs Min 
 TQAX.f-kp               19.00:  Torque Abs Max 
 TRRT.°/30m              -3.40:  Turn Rotating 
 MRT .                  EWR-M5:  Maximum Recorded Temperature 
 TTMX.degC              100.00:  Max Tool Temp 
 VS01.                90639251:  Virtual Str1 SN 
 VS02.                90634715:  Virtual Str2 SN 
 VS03.                90652479:  Virtual Str3 SN 
 VS04.                90642262:  Virtual Str4 SN 
 WBMN.klb                 0.00:  WOB Min 
 WITN.           Murad Guliyev:  Customer Rep 
 WITN.          Yashar Gaziyev:  Customer Rep 2 
 WOBA.klb                 9.00:  WOB Avg 
 WOBX.klb                12.00:  WOB Max 
 YP  .lhf2               30.00:  Yield Point 
~Curve Information Block
#MNEM.UNIT                 API CODE     Curve Description
#---------               -----------    ---------------------------
 TIME.HHMMSS            00 000 000 000:  GT Time & Date
 GTDEPTH.m              00 000 000 000:  GT Depth
 GTPQH.psia             00 000 000 000:  GT HR Quartz Pressure
 GTTQ.degC              00 000 000 000:  GT Quartz Temperature
 GTTN.NONE              00 000 000 000:  GT Test Number
 GTET.sec               00 000 000 000:  GT Elapsed Test Time
 GTTVD.m                00 000 000 000:  GT True Vertical Depth
#Other Information
#
#WARRANTY: Halliburton will use its best efforts to furnish customers with 
#accurate information and interpretations that are part of, and incident to, the services 
#provided.  However, Halliburton cannot and does not warrant the accuracy 
#or correctness of such information and interpretations.  Under no circumstances should any 
#such information or interpretation be relied upon as the sole basis for any drilling, 
#completion, production, or financial decision or any procedure involving any risk to the 
#safety of any drilling venture, drilling rig or its crew or any other third party.  The 
#Customer has full responsibility for all drilling, completion and production operation.  
#Halliburton makes no representations or warranties, either expressed or 
#implied, including, but not limited to, the implied warranties of merchantability or fitness 
#for a particular purpose, with respect to the services rendered.  In no event will 
#Halliburton be liable for failure to obtain any particular results or for 
#any damages, including, but not limited to, indirect, special or consequential damages, 
#resulting from the use of any information or interpretation provided by Halliburton.
#
~A           TIME           GTDEPTH  GTPQH  GTTQ  GTTN  GTET   GTTVD  
# ...
   09:28:21.342.27-Aug-2021 4964.50 5198.27 86.33 7.00 184.08 3307.39
   09:28:21.542.27-Aug-2021 4964.50 5198.27 86.33 7.00 184.28 3307.39
   09:28:21.742.27-Aug-2021 4964.50 5198.28 86.33 7.00 184.48 3307.39
   09:28:21.942.27-Aug-2021 4964.50 5198.27 86.33 7.00 184.68 3307.39
   09:28:22.142.27-Aug-2021 4964.50 5198.33 86.33 7.00 184.88 3307.39
   09:28:22.343.27-Aug-2021 4964.50 5198.27 86.33 7.00 185.08 3307.39
   09:28:22.543.27-Aug-2021 4964.50 5198.27 86.33 7.00 185.28 3307.39
   09:28:22.743.27-Aug-2021 4964.50 5198.29 86.33 7.00 185.48 3307.39
   09:28:22.943.27-Aug-2021 4964.50 5198.30 86.33 7.00 185.68 3307.39
   09:28:23.143.27-Aug-2021 4964.50 5198.29 86.33 7.00 185.88 3307.39
   09:28:23.343.27-Aug-2021 4964.50 5198.28 86.33 7.00 186.08 3307.39
   09:28:23.543.27-Aug-2021 4964.50 5198.28 86.33 7.00 186.28 3307.39
   09:28:23.743.27-Aug-2021 4964.50 5198.28 86.33 7.00 186.48 3307.39
   09:28:23.943.27-Aug-2021 4964.50 5198.29 86.33 7.00 186.68 3307.39
   09:28:24.143.27-Aug-2021 4964.50 5198.29 86.33 7.00 186.88 3307.39
   09:28:24.343.27-Aug-2021 4964.50 5198.29 86.33 7.00 187.08 3307.39
   09:28:24.543.27-Aug-2021 4964.50 5198.29 86.33 7.00 187.28 3307.39
   09:28:24.744.27-Aug-2021 4964.50 5198.29 86.33 7.00 187.48 3307.39
   09:28:24.944.27-Aug-2021 4964.50 5198.30 86.33 7.00 187.68 3307.39
   09:28:25.144.27-Aug-2021 4964.50 5198.29 86.33 7.00 187.88 3307.39
   09:28:25.344.27-Aug-2021 4964.50 5198.29 86.33 7.00 188.08 3307.39
   09:28:25.544.27-Aug-2021 4964.50 5198.29 86.33 7.00 188.28 3307.39
   09:28:25.744.27-Aug-2021 4964.50 5198.31 86.33 7.00 188.48 3307.39
   09:28:25.944.27-Aug-2021 4964.50 5198.26 86.33 7.00 188.68 3307.39
   09:28:26.144.27-Aug-2021 4964.50 5198.32 86.33 7.00 188.88 3307.39
   09:28:26.344.27-Aug-2021 4964.50 5198.32 86.33 7.00 189.08 3307.39
   09:28:26.544.27-Aug-2021 4964.50 5198.32 86.33 7.00 189.28 3307.39
   09:28:26.744.27-Aug-2021 4964.50 5198.31 86.33 7.00 189.48 3307.39
   09:28:26.944.27-Aug-2021 4964.50 5198.30 86.33 7.00 189.68 3307.39
   09:28:27.145.27-Aug-2021 4964.50 5198.31 86.33 7.00 189.88 3307.39
   09:28:27.345.27-Aug-2021 4964.50 5198.31 86.33 7.00 190.08 3307.39
   09:28:27.545.27-Aug-2021 4964.50 5198.31 86.33 7.00 190.28 3307.39
   09:28:27.745.27-Aug-2021 4964.50 5198.32 86.33 7.00 190.48 3307.39
   09:28:27.945.27-Aug-2021 4964.50 5198.31 86.33 7.00 190.68 3307.39
   09:28:28.145.27-Aug-2021 4964.50 5198.32 86.33 7.00 190.88 3307.39
   09:28:28.345.27-Aug-2021 4964.50 5198.31 86.33 7.00 191.08 3307.39
   09:28:28.545.27-Aug-2021 4964.50 5198.31 86.33 7.00 191.28 3307.39
   09:28:28.745.27-Aug-2021 4964.50 5198.32 86.33 7.00 191.48 3307.39
   09:28:28.945.27-Aug-2021 4964.50 5198.31 86.33 7.00 191.68 3307.39
   09:28:29.145.27-Aug-2021 4964.50 5198.32 86.33 7.00 191.88 3307.39
   09:28:29.345.27-Aug-2021 4964.50 5198.29 86.33 7.00 192.08 3307.39
   09:28:29.546.27-Aug-2021 4964.50 5198.29 86.33 7.00 192.28 3307.39
   09:28:29.746.27-Aug-2021 4964.50 5198.31 86.33 7.00 192.48 3307.39
   09:28:29.946.27-Aug-2021 4964.50 5198.31 86.33 7.00 192.68 3307.39
   09:28:30.146.27-Aug-2021 4964.50 5198.32 86.33 7.00 192.88 3307.39
   09:28:30.346.27-Aug-2021 4964.50 5198.30 86.33 7.00 193.08 3307.39
   09:28:30.546.27-Aug-2021 4964.50 5198.30 86.33 7.00 193.28 3307.39
   09:28:30.746.27-Aug-2021 4964.50 5198.30 86.33 7.00 193.48 3307.39
   09:28:30.946.27-Aug-2021 4964.50 5198.32 86.33 7.00 193.68 3307.39
   09:28:31.146.27-Aug-2021 4964.50 5198.31 86.33 7.00 193.88 3307.39
   09:28:31.346.27-Aug-2021 4964.50 5198.32 86.33 7.00 194.08 3307.39
   09:28:31.546.27-Aug-2021 4964.50 5198.32 86.33 7.00 194.28 3307.39
   09:28:31.746.27-Aug-2021 4964.50 5198.33 86.33 7.00 194.48 3307.39
   09:28:31.947.27-Aug-2021 4964.50 5198.30 86.33 7.00 194.68 3307.39
   09:28:32.147.27-Aug-2021 4964.50 5198.31 86.33 7.00 194.88 3307.39
   09:28:32.347.27-Aug-2021 4964.50 5198.34 86.33 7.00 195.08 3307.39
   09:28:32.547.27-Aug-2021 4964.50 5198.34 86.33 7.00 195.28 3307.39
   09:28:32.747.27-Aug-2021 4964.50 5198.30 86.33 7.00 195.48 3307.39
   09:28:32.947.27-Aug-2021 4964.50 5198.30 86.33 7.00 195.68 3307.39
   09:28:33.147.27-Aug-2021 4964.50 5198.32 86.33 7.00 195.88 3307.39
   09:28:33.347.27-Aug-2021 4964.50 5198.31 86.33 7.00 196.08 3307.39
   09:28:33.547.27-Aug-2021 4964.50 5198.31 86.33 7.00 196.28 3307.39
   09:28:33.747.27-Aug-2021 4964.50 5198.31 86.33 7.00 196.48 3307.39
   09:28:33.947.27-Aug-2021 4964.50 5198.31 86.33 7.00 196.68 3307.39
   09:28:34.147.27-Aug-2021 4964.50 5198.32 86.33 7.00 196.88 3307.39
   09:28:34.348.27-Aug-2021 4964.50 5198.33 86.33 7.00 197.08 3307.39
   09:28:34.548.27-Aug-2021 4964.50 5198.33 86.33 7.00 197.28 3307.39
   09:28:34.748.27-Aug-2021 4964.50 5198.33 86.33 7.00 197.48 3307.39
   09:28:34.948.27-Aug-2021 4964.50 5198.33 86.33 7.00 197.68 3307.39
   09:28:35.148.27-Aug-2021 4964.50 5198.33 86.33 7.00 197.88 3307.39
   09:28:35.348.27-Aug-2021 4964.50 5198.30 86.33 7.00 198.08 3307.39
   09:28:35.548.27-Aug-2021 4964.50 5198.30 86.33 7.00 198.28 3307.39
   09:28:35.748.27-Aug-2021 4964.50 5198.32 86.33 7.00 198.48 3307.39
   09:28:35.948.27-Aug-2021 4964.50 5198.33 86.33 7.00 198.68 3307.39
   09:28:36.148.27-Aug-2021 4964.50 5198.33 86.33 7.00 198.88 3307.39
   09:28:36.348.27-Aug-2021 4964.50 5198.32 86.33 7.00 199.08 3307.39
   09:28:36.548.27-Aug-2021 4964.50 5198.32 86.33 7.00 199.28 3307.39
   09:28:36.749.27-Aug-2021 4964.50 5198.33 86.33 7.00 199.48 3307.39
   09:28:36.949.27-Aug-2021 4964.50 5198.32 86.33 7.00 199.68 3307.39
   09:28:37.149.27-Aug-2021 4964.50 5198.32 86.33 7.00 199.88 3307.39
   09:28:37.349.27-Aug-2021 4964.50 5198.34 86.33 7.00 200.08 3307.39
   09:28:37.549.27-Aug-2021 4964.50 5198.34 86.33 7.00 200.28 3307.39
   09:28:37.749.27-Aug-2021 4964.50 5198.33 86.33 7.00 200.48 3307.39
   09:28:37.949.27-Aug-2021 4964.50 5198.34 86.33 7.00 200.68 3307.39
   09:28:38.149.27-Aug-2021 4964.50 5198.34 86.33 7.00 200.88 3307.39
   09:28:38.349.27-Aug-2021 4964.50 5198.34 86.33 7.00 201.08 3307.39
   09:28:38.549.27-Aug-2021 4964.50 5198.34 86.33 7.00 201.28 3307.39
   09:28:38.749.27-Aug-2021 4964.50 5198.32 86.33 7.00 201.48 3307.39
   09:28:38.949.27-Aug-2021 4964.50 5198.35 86.33 7.00 201.68 3307.39
   09:28:39.150.27-Aug-2021 4964.50 5198.34 86.33 7.00 201.88 3307.39
   09:28:39.350.27-Aug-2021 4964.50 5198.33 86.33 7.00 202.08 3307.39
   09:28:39.550.27-Aug-2021 4964.50 5198.33 86.33 7.00 202.28 3307.39
   09:28:39.750.27-Aug-2021 4964.50 5198.33 86.33 7.00 202.48 3307.39
   09:28:39.950.27-Aug-2021 4964.50 5198.34 86.33 7.00 202.68 3307.39
   09:28:40.150.27-Aug-2021 4964.50 5198.33 86.33 7.00 202.88 3307.39
   09:28:40.350.27-Aug-2021 4964.50 5198.33 86.33 7.00 203.08 3307.39
   09:28:40.550.27-Aug-2021 4964.50 5198.33 86.33 7.00 203.28 3307.39
   09:28:40.750.27-Aug-2021 4964.50 5198.34 86.33 7.00 203.48 3307.39
   09:28:40.950.27-Aug-2021 4964.50 5198.33 86.33 7.00 203.68 3307.39
   09:28:41.150.27-Aug-2021 4964.50 5198.35 86.33 7.00 203.88 3307.39
   09:28:41.350.27-Aug-2021 4964.50 5198.32 86.33 7.00 204.08 3307.39
   09:28:41.551.27-Aug-2021 4964.50 5198.32 86.33 7.00 204.28 3307.39
   09:28:41.751.27-Aug-2021 4964.50 5198.34 86.33 7.00 204.48 3307.39
   09:28:41.951.27-Aug-2021 4964.50 5198.34 86.33 7.00 204.69 3307.39
   09:28:42.151.27-Aug-2021 4964.50 5198.32 86.33 7.00 204.89 3307.39
   09:28:42.351.27-Aug-2021 4964.50 5198.33 86.33 7.00 205.09 3307.39
   09:28:42.551.27-Aug-2021 4964.50 5198.33 86.33 7.00 205.29 3307.39
   09:28:42.751.27-Aug-2021 4964.50 5198.33 86.33 7.00 205.49 3307.39
   09:28:42.951.27-Aug-2021 4964.50 5198.34 86.33 7.00 205.69 3307.39
   09:28:43.151.27-Aug-2021 4964.50 5198.34 86.33 7.00 205.89 3307.39
   09:28:43.351.27-Aug-2021 4964.50 5198.34 86.33 7.00 206.09 3307.39
   09:28:43.551.27-Aug-2021 4964.50 5198.34 86.33 7.00 206.29 3307.39
   09:28:43.751.27-Aug-2021 4964.50 5198.34 86.33 7.00 206.49 3307.39
   09:28:43.952.27-Aug-2021 4964.50 5198.34 86.33 7.00 206.69 3307.39
   09:28:44.152.27-Aug-2021 4964.50 5198.35 86.33 7.00 206.89 3307.39
