~Version Information
 VERS.                  2.0:   CWLS log ASCII Standard -VERSION 2.0
 WRAP.                   NO:   One line per depth step
~Well Information Block
#MNEM.UNIT     VALUE/NAME     DESCRIPTION
#---------     -----------    ---------------------------
 STRT.S             06:14:43 27-Aug-21: START TIME 06:14:43 27-Aug-21
 STOP.S             06:21:54 27-Aug-21: STOP TIME  06:21:54 27-Aug-21
 STEP.S                   0.00: STEP TIME
 NULL.                 -999.25: NULL VALUE
 DFWT.                        :  DIST FWL TEXT
 DFST.                        :  DIST FSL TEXT
 DMF .             Drill Floor:  DRILL MEAS FROM
 STIM.      20.00.00 17-Aug-21:  START TIME
 DATE.      19.00.00 29-Aug-21:  END TIME
 SPUD.               15-Aug-21:  SPUD DATE
 NREF.                    Grid:  NORTH REFERENCE
 HPTY.       Minimum Curvature:  HOLE POS TYPE
 DMOD.             Drill Model:  DRILL MOD DESC
 SVYD.                  Survey:  SURVEY DESC
 ILTD.               Lithology:  INTERP LTH DESC
 FTOP.          Formation Tops:  FORM TOPS DESC
 RIG .              East Azeri:  RIG NAME
 PDAT.          Mean Sea Level:  PERMANENT DATUM
 FLD .                     ACG:  FIELD NAME
 SON .        AZ-XX-0907180857:  JOB NUMBER
 CTRY.              Azerbaijan:  COUNTRY NAME
 WELL.                    D23x:  WELL NAME
 SRVC.     Turan Drilling and Engineering:  CONTRACTOR
 COMP.     BP Exploration (Caspian Sea) Ltd.:  COMPANY
 UWI .            /AZE00000214:  UNIQUE WELL IDENTIFIER
 API .            /AZE00000214:  API NUMBER
 MDS .        Operator Entered:  MAG DATA SOURCE
 BASE.              Azerbaijan:  LOGGING EQUIPMENT BASE LOCATION
 REGN.                   EESSA:  REGION
 PROV.                    Baku:  PROVINCE
 STAT.                    Baku:  STATE NAME
 MWDS.                    Baku:  MWD SHOP
 DOE .                     N/A:  DOE NUMBER
 DCON.         Sperry Drilling:  DIRECTNL CONTR
 UNIT.                     N/A:  LOGGING EQUIPMENT ID
 WTYP.                Deviated:  WELL TYPE
 CNTY.                        :  COUNTY
 LOC .                        :  LOCATION
 LMF .             Drill Floor:  LOG MEASURED FROM
 TVDS.m                  43.60:  TVDSS CORRECTN
 LATI.deg                40.02:  LATITUDE
 LONG.deg                51.45:  LONGITUDE
 WHNS.m                  -7.04:  WELL HEAD N/S
 WHEW.m                  -0.67:  WELL HEAD E/W
 UTMX.m              538762.90:  UTM X
 UTMY.m             4431871.34:  UTM Y
 DFWL.m                   0.00:  DISTANCE FWL
 DFSL.m                   0.00:  DISTANCE FSL
 SDEP.m                4127.00:  START DEPTH
 TDD .m                5084.50:  TOTAL DEPTH (DRILLER)
 VSDR.deg               140.47:  VERT SEC DIRECT
 GVFD.g                   1.00:  GRAVITY FIELD
 MFLD.nT              50362.00:  MAGNETIC FIELD
 MDIP.deg                59.48:  MAGNETIC DIP
 MDEC.deg                 6.47:  MAGNETIC DECL
 GRDC.deg                 0.31:  GRID CORRECTION
 AZTC.deg                 6.16:  AZM TOTAL CORR
 EPD .m                   0.00:  ELEVATION
 EGL .m                   0.00:  GROUND ELEVATION
 WDMS.m                 151.80:  WD ELEV
 APD .m                  43.60:  DEPTH ABOVE PD
 DEP .m                4092.57:  DEPTH
 AGAP.m                  43.60:  AIR GAP
 VSEW.m                  -0.67:  VERT SEC E/W
 VSNS.m                  -7.04:  VERT SEC N/S
 EKB .m                  43.60:  KB ELEVATION
 EDF .m                  43.60:  DF ELEVATION
 TDL .m                 957.50:  TOTAL DEPTH (LOGGER)
 VSC .                       0:  VS TO CLOSURE
 MAGU.                 1851413:  MAGUTM CHECKSUM
~Parameter Information Block
#MNEM.UNIT       Value        Description
#---------     -----------    ---------------------------
 AV  .mps                 1.50:  Ann Velocity 
 AVMX.mps                 2.00:  Max Ann Veloc 
 AZIF.deg               184.66:  Azm, Final 
 BHAT.        Rotary Steerable:  BHA Type 
 BREV.rev               300.00:  Rev Bit Total 
 BROT.°/30m              -0.50:  Build Rotating 
 BS  .in                  8.50:  Bit Size 
 BSZ .in                  8.50:  Bit Size 
 BTPL.psig              370.00:  Bit Press Loss 
 CABU.                      No:  Customer Abuse 
 CGEO.      Behruz Shahbaliyev:  Customer Geo 
 COMM.                     4V:  Run Comments 1 
 TCS .hr                140.08:  Time Ciculation Ended 
 CV  .mps                 3.00:  Crit Velocity 
 CVMX.mps                 3.20:  Max Crit Veloc 
 DD1 .            Musa Ahmadov:  Direct Drillr 1 
 DD2 .           Hamid Ahmadov:  Direct Drillr 2 
 DDSV.               Geo-Pilot:  DD Service 
 DEFF.%                  98.40:  % Det Eff 
 DLRX.°/30m               3.40:  Dogleg Rot Max 
 DLSO.°/30m               1.45:  Dogleg Oriented 
 DLSX.°/30m               3.40:  Dogleg Str Max 
 DRET.      18.40.00 29-Aug-21:  Drill End Time 
 DRST.      21.00.00 20-Aug-21:  Drill Start Tim 
 DTIM.hr                 69.47:  Time Drilling 
 EDEP.m                5084.50:  End Depth 
 ENG1.      Artemiy Matviyanov:  Engineer 1 
 ENG2.         Almaz Almadatov:  Engineer 2 
 ETIM.      18.40.00 29-Aug-21:  End Time 
 FLOI.gpm               500.00:  Flow In 
 FLON.gpm               400.00:  Flow In Min 
 FLOS.cptm                0.00:  Fluid Loss 
 FLOX.gpm               500.00:  Flow In Max 
 DFT .        Mineral Oil Base:  Mud Type 
 HFLO.                      No:  High Flow 
 HPRE.                      No:  High Pressure 
 HTEM.                      No:  High Temp 
 HYDO.m                   1.80:  Hydro Offset 
 IFIN.deg                25.62:  Inc, Final 
 IMAX.deg                48.69:  Inc Max 
 IMIN.deg                24.01:  Inc Min 
 IMND.m                4962.57:  Inc Min Depth 
 IMXD.m                4119.01:  Inc Max Depth 
 JARR.                      No:  Jarring 
 LETM.      18.40.00 29-Aug-21:  Log End Time 
 LOST.hr                     0:  Lost Rig Time 
 LSTM.      21.00.00 20-Aug-21:  Log Start Time 
 MDCL.ppm             41500.00:  Mud Chlorides 
 MDES.     Inversion Oil/Synthetic:  Mud Desc 
 DFD .sg                  1.56:  Mud Density 
 MDMN.sg                  1.56:  Dens Mud Min 
 MDMX.sg                  1.56:  Dens Mud Max 
 MOIL.                      70:  Run Mud Oil % 
 MOWR.                   70:30:  Run Mud OWR 
 MSND.                     0.2:  Run Mud Sand % 
 MSOL.                    23.3:  Run Mud Solids% 
 DFV .spqt               78.00:  Mud Viscosity 
 MWOD.in                  6.75:  MWD Tool OD 
 MWSI.                      No:  Serv Intrp, MWD 
 OTIM.hr                218.30:  Time Operating 
 PCON.           Look Like New:  Pad Condition 
 PMAX.psia            11015.30:  Press Op, Max 
 PV  .cP                 38.00:  Mud PV 
 RUN .                     300:  Run Number 
 ROPA.m/hr               15.00:  ROP Avg 
 ROPN.m/hr                9.00:  ROP Min 
 ROPX.m/hr               17.00:  ROP Max 
 RPMA.rpm               120.00:  RPM Surface Avg 
 RPMN.rpm                90.00:  RPM Surface Min 
 RPMX.rpm               140.00:  RPM Surface Max 
 RRUN.                     300:  Rig Run Number 
 RTIM.hr                 31.53:  Time Reaming 
 SAZI.deg               331.64:  Azm, Start 
 SDEP.m                4127.00:  Start Depth 
 SIDD.                      No:  Serv Intrp, DD 
 SINC.deg                48.43:  Inc, Start 
 SPPA.psig             5830.00:  SPP Avg 
 SPPN.psig             5600.00:  SPP Min 
 SPPX.psig             5900.00:  SPP Max 
 STIM.      21.00.00 20-Aug-21:  Start Time 
 SVCS.                 DD, MWD:  Services 
 SVER.                    9.20:  Sperry Version 
 TDAT.m                 957.50:  Tot Depth Attmp 
 TDDF.                      No:  Trip for DD 
 TDLG.m                 957.50:  Tot Depth Loggd 
 TFF .                      No:  Trip for Fail 
 TQAA.f-kp               15.00:  Torque Abs Avg 
 TQAN.f-kp               12.00:  Torque Abs Min 
 TQAX.f-kp               19.00:  Torque Abs Max 
 TRRT.°/30m              -3.40:  Turn Rotating 
 MRT .                  EWR-M5:  Maximum Recorded Temperature 
 TTMX.degC              100.00:  Max Tool Temp 
 VS01.                90639251:  Virtual Str1 SN 
 VS02.                90634715:  Virtual Str2 SN 
 VS03.                90652479:  Virtual Str3 SN 
 VS04.                90642262:  Virtual Str4 SN 
 WBMN.klb                 0.00:  WOB Min 
 WITN.           Murad Guliyev:  Customer Rep 
 WITN.          Yashar Gaziyev:  Customer Rep 2 
 WOBA.klb                 9.00:  WOB Avg 
 WOBX.klb                12.00:  WOB Max 
 YP  .lhf2               30.00:  Yield Point 
~Curve Information Block
#MNEM.UNIT                 API CODE     Curve Description
#---------               -----------    ---------------------------
 TIME.HHMMSS            00 000 000 000:  GT Time & Date
 GTDEPTH.m              00 000 000 000:  GT Depth
 GTPQH.psia             00 000 000 000:  GT HR Quartz Pressure
 GTTQ.degC              00 000 000 000:  GT Quartz Temperature
 GTTN.NONE              00 000 000 000:  GT Test Number
 GTET.sec               00 000 000 000:  GT Elapsed Test Time
 GTTVD.m                00 000 000 000:  GT True Vertical Depth
#Other Information
#
#WARRANTY: Halliburton will use its best efforts to furnish customers with 
#accurate information and interpretations that are part of, and incident to, the services 
#provided.  However, Halliburton cannot and does not warrant the accuracy 
#or correctness of such information and interpretations.  Under no circumstances should any 
#such information or interpretation be relied upon as the sole basis for any drilling, 
#completion, production, or financial decision or any procedure involving any risk to the 
#safety of any drilling venture, drilling rig or its crew or any other third party.  The 
#Customer has full responsibility for all drilling, completion and production operation.  
#Halliburton makes no representations or warranties, either expressed or 
#implied, including, but not limited to, the implied warranties of merchantability or fitness 
#for a particular purpose, with respect to the services rendered.  In no event will 
#Halliburton be liable for failure to obtain any particular results or for 
#any damages, including, but not limited to, indirect, special or consequential damages, 
#resulting from the use of any information or interpretation provided by Halliburton.
#
~A           TIME           GTDEPTH  GTPQH  GTTQ  GTTN  GTET   GTTVD  
# ...
   06:21:14.687.27-Aug-2021 5020.50 8001.14 88.12 2.00 391.06 3358.11
   06:21:14.887.27-Aug-2021 5020.50 8001.14 88.12 2.00 391.26 3358.11
   06:21:15.087.27-Aug-2021 5020.50 8004.24 88.12 2.00 391.46 3358.11
   06:21:15.287.27-Aug-2021 5020.50 8003.47 88.12 2.00 391.66 3358.11
   06:21:15.487.27-Aug-2021 5020.50 8000.90 88.12 2.00 391.86 3358.11
   06:21:15.687.27-Aug-2021 5020.50 8001.06 88.12 2.00 392.06 3358.11
   06:21:15.887.27-Aug-2021 5020.50 8001.06 88.12 2.00 392.26 3358.11
   06:21:16.087.27-Aug-2021 5020.50 8001.00 88.12 2.00 392.46 3358.11
   06:21:16.287.27-Aug-2021 5020.50 8000.41 88.12 2.00 392.66 3358.11
   06:21:16.487.27-Aug-2021 5020.50 8001.23 88.12 2.00 392.86 3358.11
   06:21:16.687.27-Aug-2021 5020.50 8000.47 88.12 2.00 393.06 3358.11
   06:21:16.887.27-Aug-2021 5020.50 8000.47 88.12 2.00 393.26 3358.11
   06:21:17.087.27-Aug-2021 5020.50 8001.80 88.12 2.00 393.46 3358.11
   06:21:17.287.27-Aug-2021 5020.50 8002.47 88.12 2.00 393.66 3358.11
   06:21:17.487.27-Aug-2021 5020.50 8002.22 88.12 2.00 393.86 3358.11
   06:21:17.687.27-Aug-2021 5020.50 8002.00 88.12 2.00 394.06 3358.11
   06:21:17.887.27-Aug-2021 5020.50 8002.00 88.12 2.00 394.26 3358.11
   06:21:18.087.27-Aug-2021 5020.50 8001.39 88.12 2.00 394.46 3358.11
   06:21:18.287.27-Aug-2021 5020.50 8005.65 88.12 2.00 394.66 3358.11
   06:21:18.487.27-Aug-2021 5020.50 8002.92 88.12 2.00 394.86 3358.11
   06:21:18.687.27-Aug-2021 5020.50 8001.06 88.12 2.00 395.06 3358.11
   06:21:18.887.27-Aug-2021 5020.50 8001.06 88.12 2.00 395.26 3358.11
   06:21:19.087.27-Aug-2021 5020.50 8000.78 88.12 2.00 395.46 3358.11
   06:21:19.287.27-Aug-2021 5020.50 8001.38 88.12 2.00 395.66 3358.11
   06:21:19.487.27-Aug-2021 5020.50 8000.37 88.12 2.00 395.87 3358.11
   06:21:19.687.27-Aug-2021 5020.50 8000.60 88.12 2.00 396.07 3358.11
   06:21:19.887.27-Aug-2021 5020.50 8000.60 88.12 2.00 396.27 3358.11
   06:21:20.087.27-Aug-2021 5020.50 8000.78 88.12 2.00 396.47 3358.11
   06:21:20.288.27-Aug-2021 5020.50 8001.43 88.12 2.00 396.67 3358.11
   06:21:20.488.27-Aug-2021 5020.50 8002.48 88.12 2.00 396.87 3358.11
   06:21:20.688.27-Aug-2021 5020.50 8002.22 88.12 2.00 397.07 3358.11
   06:21:20.888.27-Aug-2021 5020.50 8002.22 88.12 2.00 397.27 3358.11
   06:21:21.088.27-Aug-2021 5020.50 8002.07 88.12 2.00 397.47 3358.11
   06:21:21.288.27-Aug-2021 5020.50 8001.62 88.12 2.00 397.67 3358.11
   06:21:21.488.27-Aug-2021 5020.50 8001.91 88.12 2.00 397.87 3358.11
   06:21:21.688.27-Aug-2021 5020.50 8008.68 88.12 2.00 398.07 3358.11
   06:21:21.888.27-Aug-2021 5020.50 8008.68 88.12 2.00 398.27 3358.11
   06:21:22.088.27-Aug-2021 5020.50 8000.40 88.12 2.00 398.47 3358.11
   06:21:22.288.27-Aug-2021 5020.50 8002.68 88.12 2.00 398.67 3358.11
   06:21:22.488.27-Aug-2021 5020.50 8003.14 88.12 2.00 398.87 3358.11
   06:21:22.688.27-Aug-2021 5020.50 8002.05 88.12 2.00 399.07 3358.11
   06:21:22.888.27-Aug-2021 5020.50 8002.05 88.12 2.00 399.27 3358.11
   06:21:23.088.27-Aug-2021 5020.50 8000.31 88.12 2.00 399.47 3358.11
   06:21:23.288.27-Aug-2021 5020.50 8000.50 88.12 2.00 399.67 3358.11
   06:21:23.488.27-Aug-2021 5020.50 8007.40 88.12 2.00 399.87 3358.11
   06:21:23.688.27-Aug-2021 5020.50 7999.50 88.12 2.00 400.07 3358.11
   06:21:23.888.27-Aug-2021 5020.50 7999.50 88.12 2.00 400.27 3358.11
   06:21:24.088.27-Aug-2021 5020.50 8001.11 88.12 2.00 400.47 3358.11
   06:21:24.288.27-Aug-2021 5020.50 8008.17 88.12 2.00 400.67 3358.11
   06:21:24.488.27-Aug-2021 5020.50 8000.73 88.12 2.00 400.87 3358.11
   06:21:24.688.27-Aug-2021 5020.50 8002.90 88.12 2.00 401.07 3358.11
   06:21:24.888.27-Aug-2021 5020.50 8002.90 88.12 2.00 401.27 3358.11
   06:21:25.088.27-Aug-2021 5020.50 8001.45 88.12 2.00 401.47 3358.11
   06:21:25.288.27-Aug-2021 5020.50 8000.43 88.12 2.00 401.67 3358.11
   06:21:25.488.27-Aug-2021 5020.50 8001.37 88.12 2.00 401.87 3358.11
   06:21:25.688.27-Aug-2021 5020.50 8001.07 88.12 2.00 402.07 3358.11
   06:21:25.888.27-Aug-2021 5020.50 8001.07 88.12 2.00 402.27 3358.11
   06:21:26.088.27-Aug-2021 5020.50 8001.13 88.12 2.00 402.47 3358.11
   06:21:26.288.27-Aug-2021 5020.50 8001.35 88.12 2.00 402.67 3358.11
   06:21:26.489.27-Aug-2021 5020.50 8002.52 88.12 2.00 402.87 3358.11
   06:21:26.689.27-Aug-2021 5020.50 8002.35 88.12 2.00 403.07 3358.11
   06:21:26.889.27-Aug-2021 5020.50 8002.35 88.12 2.00 403.27 3358.11
   06:21:27.089.27-Aug-2021 5020.50 8002.25 88.12 2.00 403.47 3358.11
   06:21:27.289.27-Aug-2021 5020.50 8002.00 88.12 2.00 403.67 3358.11
   06:21:27.489.27-Aug-2021 5020.50 8003.54 88.12 2.00 403.87 3358.11
   06:21:27.689.27-Aug-2021 5020.50 8003.90 88.12 2.00 404.07 3358.11
   06:21:27.889.27-Aug-2021 5020.50 8003.90 88.12 2.00 404.27 3358.11
   06:21:28.089.27-Aug-2021 5020.50 8001.47 88.12 2.00 404.47 3358.11
   06:21:28.289.27-Aug-2021 5020.50 8003.23 88.12 2.00 404.67 3358.11
   06:21:28.489.27-Aug-2021 5020.50 8002.00 88.12 2.00 404.87 3358.11
   06:21:28.689.27-Aug-2021 5020.50 8002.81 88.12 2.00 405.07 3358.11
   06:21:28.889.27-Aug-2021 5020.50 8002.81 88.12 2.00 405.27 3358.11
   06:21:29.089.27-Aug-2021 5020.50 8002.02 88.12 2.00 405.47 3358.11
   06:21:29.289.27-Aug-2021 5020.50 8001.99 88.12 2.00 405.67 3358.11
   06:21:29.489.27-Aug-2021 5020.50 8002.18 88.12 2.00 405.87 3358.11
   06:21:29.689.27-Aug-2021 5020.50 8003.48 88.12 2.00 406.07 3358.11
   06:21:29.889.27-Aug-2021 5020.50 8003.48 88.12 2.00 406.27 3358.11
   06:21:30.089.27-Aug-2021 5020.50 8003.74 88.12 2.00 406.47 3358.11
   06:21:30.289.27-Aug-2021 5020.50 8003.19 88.12 2.00 406.67 3358.11
   06:21:30.489.27-Aug-2021 5020.50 8003.26 88.12 2.00 406.87 3358.11
   06:21:30.689.27-Aug-2021 5020.50 8002.98 88.12 2.00 407.07 3358.11
   06:21:30.889.27-Aug-2021 5020.50 8002.98 88.12 2.00 407.27 3358.11
   06:21:31.089.27-Aug-2021 5020.50 8007.22 88.12 2.00 407.47 3358.11
   06:21:31.289.27-Aug-2021 5020.50 8004.11 88.12 2.00 407.67 3358.11
   06:21:31.489.27-Aug-2021 5020.50 8002.19 88.12 2.00 407.87 3358.11
   06:21:31.689.27-Aug-2021 5020.50 8003.78 88.12 2.00 408.07 3358.11
   06:21:31.889.27-Aug-2021 5020.50 8003.78 88.12 2.00 408.27 3358.11
   06:21:32.089.27-Aug-2021 5020.50 8003.79 88.12 2.00 408.47 3358.11
   06:21:32.289.27-Aug-2021 5020.50 8001.49 88.12 2.00 408.67 3358.11
   06:21:32.490.27-Aug-2021 5020.50 8001.75 88.12 2.00 408.87 3358.11
   06:21:32.690.27-Aug-2021 5020.50 8001.12 88.12 2.00 409.07 3358.11
   06:21:32.890.27-Aug-2021 5020.50 8001.12 88.12 2.00 409.27 3358.11
   06:21:33.090.27-Aug-2021 5020.50 8000.28 88.12 2.00 409.47 3358.11
   06:21:33.290.27-Aug-2021 5020.50 8002.67 88.12 2.00 409.67 3358.11
   06:21:33.490.27-Aug-2021 5020.50 8002.06 88.12 2.00 409.87 3358.11
   06:21:33.690.27-Aug-2021 5020.50 8004.38 88.12 2.00 410.07 3358.11
   06:21:33.890.27-Aug-2021 5020.50 8004.38 88.12 2.00 410.27 3358.11
   06:21:34.090.27-Aug-2021 5020.50 8004.56 88.12 2.00 410.47 3358.11
   06:21:34.290.27-Aug-2021 5020.50 8002.14 88.12 2.00 410.67 3358.11
   06:21:34.490.27-Aug-2021 5020.50 8001.80 88.12 2.00 410.87 3358.11
   06:21:34.690.27-Aug-2021 5020.50 8001.81 88.12 2.00 411.07 3358.11
   06:21:34.890.27-Aug-2021 5020.50 8001.81 88.12 2.00 411.27 3358.11
   06:21:35.090.27-Aug-2021 5020.50 8002.40 88.12 2.00 411.47 3358.11
   06:21:35.290.27-Aug-2021 5020.50 8002.16 88.12 2.00 411.67 3358.11
   06:21:35.490.27-Aug-2021 5020.50 8002.02 88.12 2.00 411.87 3358.11
   06:21:35.690.27-Aug-2021 5020.50 8002.35 88.12 2.00 412.07 3358.11
   06:21:35.890.27-Aug-2021 5020.50 8002.35 88.12 2.00 412.27 3358.11
   06:21:36.090.27-Aug-2021 5020.50 8003.94 88.12 2.00 412.47 3358.11
   06:21:36.290.27-Aug-2021 5020.50 8003.38 88.12 2.00 412.67 3358.11
   06:21:36.490.27-Aug-2021 5020.50 8003.64 88.12 2.00 412.87 3358.11
   06:21:36.690.27-Aug-2021 5020.50 8002.76 88.12 2.00 413.07 3358.11
   06:21:36.890.27-Aug-2021 5020.50 8002.76 88.12 2.00 413.27 3358.11
   06:21:37.090.27-Aug-2021 5020.50 8006.78 88.12 2.00 413.47 3358.11
   06:21:37.290.27-Aug-2021 5020.50 8004.37 88.12 2.00 413.67 3358.11
   06:21:37.490.27-Aug-2021 5020.50 8002.16 88.12 2.00 413.87 3358.11
