~Version Information
 VERS.                  2.0:   CWLS log ASCII Standard -VERSION 2.0
 WRAP.                   NO:   One line per depth step
~Well Information Block
#MNEM.UNIT     VALUE/NAME     DESCRIPTION
#---------     -----------    ---------------------------
 STRT.S             07:19:48 27-Aug-21: START TIME 07:19:48 27-Aug-21
 STOP.S             07:26:57 27-Aug-21: STOP TIME  07:26:57 27-Aug-21
 STEP.S                   0.00: STEP TIME
 NULL.                 -999.25: NULL VALUE
 DFWT.                        :  DIST FWL TEXT
 DFST.                        :  DIST FSL TEXT
 DMF .             Drill Floor:  DRILL MEAS FROM
 STIM.      20.00.00 17-Aug-21:  START TIME
 DATE.      19.00.00 29-Aug-21:  END TIME
 SPUD.               15-Aug-21:  SPUD DATE
 NREF.                    Grid:  NORTH REFERENCE
 HPTY.       Minimum Curvature:  HOLE POS TYPE
 DMOD.             Drill Model:  DRILL MOD DESC
 SVYD.                  Survey:  SURVEY DESC
 ILTD.               Lithology:  INTERP LTH DESC
 FTOP.          Formation Tops:  FORM TOPS DESC
 RIG .              East Azeri:  RIG NAME
 PDAT.          Mean Sea Level:  PERMANENT DATUM
 FLD .                     ACG:  FIELD NAME
 SON .        AZ-XX-0907180857:  JOB NUMBER
 CTRY.              Azerbaijan:  COUNTRY NAME
 WELL.                    D23x:  WELL NAME
 SRVC.     Turan Drilling and Engineering:  CONTRACTOR
 COMP.     BP Exploration (Caspian Sea) Ltd.:  COMPANY
 UWI .            /AZE00000214:  UNIQUE WELL IDENTIFIER
 API .            /AZE00000214:  API NUMBER
 MDS .        Operator Entered:  MAG DATA SOURCE
 BASE.              Azerbaijan:  LOGGING EQUIPMENT BASE LOCATION
 REGN.                   EESSA:  REGION
 PROV.                    Baku:  PROVINCE
 STAT.                    Baku:  STATE NAME
 MWDS.                    Baku:  MWD SHOP
 DOE .                     N/A:  DOE NUMBER
 DCON.         Sperry Drilling:  DIRECTNL CONTR
 UNIT.                     N/A:  LOGGING EQUIPMENT ID
 WTYP.                Deviated:  WELL TYPE
 CNTY.                        :  COUNTY
 LOC .                        :  LOCATION
 LMF .             Drill Floor:  LOG MEASURED FROM
 TVDS.m                  43.60:  TVDSS CORRECTN
 LATI.deg                40.02:  LATITUDE
 LONG.deg                51.45:  LONGITUDE
 WHNS.m                  -7.04:  WELL HEAD N/S
 WHEW.m                  -0.67:  WELL HEAD E/W
 UTMX.m              538762.90:  UTM X
 UTMY.m             4431871.34:  UTM Y
 DFWL.m                   0.00:  DISTANCE FWL
 DFSL.m                   0.00:  DISTANCE FSL
 SDEP.m                4127.00:  START DEPTH
 TDD .m                5084.50:  TOTAL DEPTH (DRILLER)
 VSDR.deg               140.47:  VERT SEC DIRECT
 GVFD.g                   1.00:  GRAVITY FIELD
 MFLD.nT              50362.00:  MAGNETIC FIELD
 MDIP.deg                59.48:  MAGNETIC DIP
 MDEC.deg                 6.47:  MAGNETIC DECL
 GRDC.deg                 0.31:  GRID CORRECTION
 AZTC.deg                 6.16:  AZM TOTAL CORR
 EPD .m                   0.00:  ELEVATION
 EGL .m                   0.00:  GROUND ELEVATION
 WDMS.m                 151.80:  WD ELEV
 APD .m                  43.60:  DEPTH ABOVE PD
 DEP .m                4092.57:  DEPTH
 AGAP.m                  43.60:  AIR GAP
 VSEW.m                  -0.67:  VERT SEC E/W
 VSNS.m                  -7.04:  VERT SEC N/S
 EKB .m                  43.60:  KB ELEVATION
 EDF .m                  43.60:  DF ELEVATION
 TDL .m                 957.50:  TOTAL DEPTH (LOGGER)
 VSC .                       0:  VS TO CLOSURE
 MAGU.                 1851413:  MAGUTM CHECKSUM
~Parameter Information Block
#MNEM.UNIT       Value        Description
#---------     -----------    ---------------------------
 AV  .mps                 1.50:  Ann Velocity 
 AVMX.mps                 2.00:  Max Ann Veloc 
 AZIF.deg               184.66:  Azm, Final 
 BHAT.        Rotary Steerable:  BHA Type 
 BREV.rev               300.00:  Rev Bit Total 
 BROT.°/30m              -0.50:  Build Rotating 
 BS  .in                  8.50:  Bit Size 
 BSZ .in                  8.50:  Bit Size 
 BTPL.psig              370.00:  Bit Press Loss 
 CABU.                      No:  Customer Abuse 
 CGEO.      Behruz Shahbaliyev:  Customer Geo 
 COMM.                     Ô‘[:  Run Comments 1 
 TCS .hr                140.08:  Time Ciculation Ended 
 CV  .mps                 3.00:  Crit Velocity 
 CVMX.mps                 3.20:  Max Crit Veloc 
 DD1 .            Musa Ahmadov:  Direct Drillr 1 
 DD2 .           Hamid Ahmadov:  Direct Drillr 2 
 DDSV.               Geo-Pilot:  DD Service 
 DEFF.%                  98.40:  % Det Eff 
 DLRX.°/30m               3.40:  Dogleg Rot Max 
 DLSO.°/30m               1.45:  Dogleg Oriented 
 DLSX.°/30m               3.40:  Dogleg Str Max 
 DRET.      18.40.00 29-Aug-21:  Drill End Time 
 DRST.      21.00.00 20-Aug-21:  Drill Start Tim 
 DTIM.hr                 69.47:  Time Drilling 
 EDEP.m                5084.50:  End Depth 
 ENG1.      Artemiy Matviyanov:  Engineer 1 
 ENG2.         Almaz Almadatov:  Engineer 2 
 ETIM.      18.40.00 29-Aug-21:  End Time 
 FLOI.gpm               500.00:  Flow In 
 FLON.gpm               400.00:  Flow In Min 
 FLOS.cptm                0.00:  Fluid Loss 
 FLOX.gpm               500.00:  Flow In Max 
 DFT .        Mineral Oil Base:  Mud Type 
 HFLO.                      No:  High Flow 
 HPRE.                      No:  High Pressure 
 HTEM.                      No:  High Temp 
 HYDO.m                   1.80:  Hydro Offset 
 IFIN.deg                25.62:  Inc, Final 
 IMAX.deg                48.69:  Inc Max 
 IMIN.deg                24.01:  Inc Min 
 IMND.m                4962.57:  Inc Min Depth 
 IMXD.m                4119.01:  Inc Max Depth 
 JARR.                      No:  Jarring 
 LETM.      18.40.00 29-Aug-21:  Log End Time 
 LOST.hr                     0:  Lost Rig Time 
 LSTM.      21.00.00 20-Aug-21:  Log Start Time 
 MDCL.ppm             41500.00:  Mud Chlorides 
 MDES.     Inversion Oil/Synthetic:  Mud Desc 
 DFD .sg                  1.56:  Mud Density 
 MDMN.sg                  1.56:  Dens Mud Min 
 MDMX.sg                  1.56:  Dens Mud Max 
 MOIL.                      70:  Run Mud Oil % 
 MOWR.                   70:30:  Run Mud OWR 
 MSND.                     0.2:  Run Mud Sand % 
 MSOL.                    23.3:  Run Mud Solids% 
 DFV .spqt               78.00:  Mud Viscosity 
 MWOD.in                  6.75:  MWD Tool OD 
 MWSI.                      No:  Serv Intrp, MWD 
 OTIM.hr                218.30:  Time Operating 
 PCON.           Look Like New:  Pad Condition 
 PMAX.psia            11015.30:  Press Op, Max 
 PV  .cP                 38.00:  Mud PV 
 RUN .                     300:  Run Number 
 ROPA.m/hr               15.00:  ROP Avg 
 ROPN.m/hr                9.00:  ROP Min 
 ROPX.m/hr               17.00:  ROP Max 
 RPMA.rpm               120.00:  RPM Surface Avg 
 RPMN.rpm                90.00:  RPM Surface Min 
 RPMX.rpm               140.00:  RPM Surface Max 
 RRUN.                     300:  Rig Run Number 
 RTIM.hr                 31.53:  Time Reaming 
 SAZI.deg               331.64:  Azm, Start 
 SDEP.m                4127.00:  Start Depth 
 SIDD.                      No:  Serv Intrp, DD 
 SINC.deg                48.43:  Inc, Start 
 SPPA.psig             5830.00:  SPP Avg 
 SPPN.psig             5600.00:  SPP Min 
 SPPX.psig             5900.00:  SPP Max 
 STIM.      21.00.00 20-Aug-21:  Start Time 
 SVCS.                 DD, MWD:  Services 
 SVER.                    9.20:  Sperry Version 
 TDAT.m                 957.50:  Tot Depth Attmp 
 TDDF.                      No:  Trip for DD 
 TDLG.m                 957.50:  Tot Depth Loggd 
 TFF .                      No:  Trip for Fail 
 TQAA.f-kp               15.00:  Torque Abs Avg 
 TQAN.f-kp               12.00:  Torque Abs Min 
 TQAX.f-kp               19.00:  Torque Abs Max 
 TRRT.°/30m              -3.40:  Turn Rotating 
 MRT .                  EWR-M5:  Maximum Recorded Temperature 
 TTMX.degC              100.00:  Max Tool Temp 
 VS01.                90639251:  Virtual Str1 SN 
 VS02.                90634715:  Virtual Str2 SN 
 VS03.                90652479:  Virtual Str3 SN 
 VS04.                90642262:  Virtual Str4 SN 
 WBMN.klb                 0.00:  WOB Min 
 WITN.           Murad Guliyev:  Customer Rep 
 WITN.          Yashar Gaziyev:  Customer Rep 2 
 WOBA.klb                 9.00:  WOB Avg 
 WOBX.klb                12.00:  WOB Max 
 YP  .lhf2               30.00:  Yield Point 
~Curve Information Block
#MNEM.UNIT                 API CODE     Curve Description
#---------               -----------    ---------------------------
 TIME.HHMMSS            00 000 000 000:  GT Time & Date
 GTDEPTH.m              00 000 000 000:  GT Depth
 GTPQH.psia             00 000 000 000:  GT HR Quartz Pressure
 GTTQ.degC              00 000 000 000:  GT Quartz Temperature
 GTTN.NONE              00 000 000 000:  GT Test Number
 GTET.sec               00 000 000 000:  GT Elapsed Test Time
 GTTVD.m                00 000 000 000:  GT True Vertical Depth
#Other Information
#
#WARRANTY: Halliburton will use its best efforts to furnish customers with 
#accurate information and interpretations that are part of, and incident to, the services 
#provided.  However, Halliburton cannot and does not warrant the accuracy 
#or correctness of such information and interpretations.  Under no circumstances should any 
#such information or interpretation be relied upon as the sole basis for any drilling, 
#completion, production, or financial decision or any procedure involving any risk to the 
#safety of any drilling venture, drilling rig or its crew or any other third party.  The 
#Customer has full responsibility for all drilling, completion and production operation.  
#Halliburton makes no representations or warranties, either expressed or 
#implied, including, but not limited to, the implied warranties of merchantability or fitness 
#for a particular purpose, with respect to the services rendered.  In no event will 
#Halliburton be liable for failure to obtain any particular results or for 
#any damages, including, but not limited to, indirect, special or consequential damages, 
#resulting from the use of any information or interpretation provided by Halliburton.
#
~A           TIME           GTDEPTH  GTPQH  GTTQ  GTTN  GTET   GTTVD  
# ...
   07:21:20.279.27-Aug-2021 5010.50 4284.58 87.61 3.00  92.02 3349.10
   07:21:20.479.27-Aug-2021 5010.50 4284.58 87.61 3.00  92.22 3349.10
   07:21:20.679.27-Aug-2021 5010.50 4284.67 87.61 3.00  92.42 3349.10
   07:21:20.879.27-Aug-2021 5010.50 4284.70 87.61 3.00  92.62 3349.10
   07:21:21.079.27-Aug-2021 5010.50 4284.73 87.61 3.00  92.82 3349.10
   07:21:21.279.27-Aug-2021 5010.50 4284.74 87.61 3.00  93.02 3349.10
   07:21:21.479.27-Aug-2021 5010.50 4284.74 87.61 3.00  93.22 3349.10
   07:21:21.679.27-Aug-2021 5010.50 4284.77 87.61 3.00  93.42 3349.10
   07:21:21.879.27-Aug-2021 5010.50 4284.76 87.61 3.00  93.62 3349.10
   07:21:22.079.27-Aug-2021 5010.50 4284.77 87.61 3.00  93.82 3349.10
   07:21:22.279.27-Aug-2021 5010.50 4284.69 87.61 3.00  94.02 3349.10
   07:21:22.479.27-Aug-2021 5010.50 4284.69 87.61 3.00  94.22 3349.10
   07:21:22.679.27-Aug-2021 5010.50 4284.30 87.61 3.00  94.42 3349.10
   07:21:22.879.27-Aug-2021 5010.50 4284.38 87.61 3.00  94.62 3349.10
   07:21:23.079.27-Aug-2021 5010.50 4284.43 87.61 3.00  94.82 3349.10
   07:21:23.279.27-Aug-2021 5010.50 4284.50 87.61 3.00  95.02 3349.10
   07:21:23.479.27-Aug-2021 5010.50 4284.50 87.61 3.00  95.22 3349.10
   07:21:23.679.27-Aug-2021 5010.50 4284.59 87.61 3.00  95.42 3349.10
   07:21:23.879.27-Aug-2021 5010.50 4284.64 87.61 3.00  95.62 3349.10
   07:21:24.079.27-Aug-2021 5010.50 4284.68 87.61 3.00  95.82 3349.10
   07:21:24.279.27-Aug-2021 5010.50 4284.71 87.61 3.00  96.02 3349.10
   07:21:24.479.27-Aug-2021 5010.50 4284.71 87.61 3.00  96.22 3349.10
   07:21:24.679.27-Aug-2021 5010.50 4284.75 87.61 3.00  96.42 3349.10
   07:21:24.879.27-Aug-2021 5010.50 4284.75 87.61 3.00  96.62 3349.10
   07:21:25.080.27-Aug-2021 5010.50 4284.77 87.61 3.00  96.82 3349.10
   07:21:25.280.27-Aug-2021 5010.50 4284.77 87.61 3.00  97.02 3349.10
   07:21:25.480.27-Aug-2021 5010.50 4284.77 87.61 3.00  97.22 3349.10
   07:21:25.680.27-Aug-2021 5010.50 4284.50 87.61 3.00  97.42 3349.10
   07:21:25.880.27-Aug-2021 5010.50 4284.30 87.61 3.00  97.62 3349.10
   07:21:26.080.27-Aug-2021 5010.50 4284.36 87.61 3.00  97.82 3349.10
   07:21:26.280.27-Aug-2021 5010.50 4284.41 87.61 3.00  98.02 3349.10
   07:21:26.480.27-Aug-2021 5010.50 4284.41 87.61 3.00  98.22 3349.10
   07:21:26.680.27-Aug-2021 5010.50 4284.51 87.61 3.00  98.42 3349.10
   07:21:26.880.27-Aug-2021 5010.50 4284.56 87.61 3.00  98.62 3349.10
   07:21:27.080.27-Aug-2021 5010.50 4284.38 87.61 3.00  98.82 3349.10
   07:21:27.280.27-Aug-2021 5010.50 4284.30 87.61 3.00  99.02 3349.10
   07:21:27.480.27-Aug-2021 5010.50 4284.30 87.61 3.00  99.22 3349.10
   07:21:27.680.27-Aug-2021 5010.50 4284.41 87.61 3.00  99.42 3349.10
   07:21:27.880.27-Aug-2021 5010.50 4284.47 87.61 3.00  99.62 3349.10
   07:21:28.080.27-Aug-2021 5010.50 4284.32 87.61 3.00  99.82 3349.10
   07:21:28.280.27-Aug-2021 5010.50 4284.25 87.61 3.00 100.02 3349.10
   07:21:28.480.27-Aug-2021 5010.50 4284.25 87.61 3.00 100.22 3349.10
   07:21:28.680.27-Aug-2021 5010.50 4284.36 87.61 3.00 100.42 3349.10
   07:21:28.880.27-Aug-2021 5010.50 4284.42 87.61 3.00 100.62 3349.10
   07:21:29.080.27-Aug-2021 5010.50 4284.47 87.61 3.00 100.82 3349.10
   07:21:29.280.27-Aug-2021 5010.50 4284.44 87.61 3.00 101.02 3349.10
   07:21:29.480.27-Aug-2021 5010.50 4284.44 87.61 3.00 101.22 3349.10
   07:21:29.680.27-Aug-2021 5010.50 4284.27 87.61 3.00 101.42 3349.10
   07:21:29.880.27-Aug-2021 5010.50 4284.34 87.61 3.00 101.62 3349.10
   07:21:30.080.27-Aug-2021 5010.50 4284.38 87.61 3.00 101.82 3349.10
   07:21:30.280.27-Aug-2021 5010.50 4284.44 87.61 3.00 102.02 3349.10
   07:21:30.480.27-Aug-2021 5010.50 4284.44 87.61 3.00 102.22 3349.10
   07:21:30.680.27-Aug-2021 5010.50 4284.51 87.61 3.00 102.42 3349.10
   07:21:30.880.27-Aug-2021 5010.50 4284.55 87.61 3.00 102.62 3349.10
   07:21:31.081.27-Aug-2021 5010.50 4284.58 87.61 3.00 102.82 3349.10
   07:21:31.281.27-Aug-2021 5010.50 4284.61 87.61 3.00 103.02 3349.10
   07:21:31.481.27-Aug-2021 5010.50 4284.61 87.61 3.00 103.22 3349.10
   07:21:31.681.27-Aug-2021 5010.50 4284.67 87.61 3.00 103.42 3349.10
   07:21:31.881.27-Aug-2021 5010.50 4284.69 87.61 3.00 103.62 3349.10
   07:21:32.081.27-Aug-2021 5010.50 4284.71 87.61 3.00 103.82 3349.10
   07:21:32.281.27-Aug-2021 5010.50 4284.72 87.61 3.00 104.02 3349.10
   07:21:32.481.27-Aug-2021 5010.50 4284.72 87.61 3.00 104.22 3349.10
   07:21:32.681.27-Aug-2021 5010.50 4284.34 87.61 3.00 104.42 3349.10
   07:21:32.881.27-Aug-2021 5010.50 4284.37 87.61 3.00 104.62 3349.10
   07:21:33.081.27-Aug-2021 5010.50 4284.41 87.61 3.00 104.82 3349.10
   07:21:33.281.27-Aug-2021 5010.50 4284.45 87.61 3.00 105.02 3349.10
   07:21:33.481.27-Aug-2021 5010.50 4284.45 87.61 3.00 105.22 3349.10
   07:21:33.681.27-Aug-2021 5010.50 4284.51 87.61 3.00 105.42 3349.10
   07:21:33.881.27-Aug-2021 5010.50 4284.55 87.61 3.00 105.62 3349.10
   07:21:34.081.27-Aug-2021 5010.50 4284.59 87.61 3.00 105.82 3349.10
   07:21:34.281.27-Aug-2021 5010.50 4284.61 87.61 3.00 106.02 3349.10
   07:21:34.481.27-Aug-2021 5010.50 4284.61 87.61 3.00 106.22 3349.10
   07:21:34.681.27-Aug-2021 5010.50 4284.66 87.61 3.00 106.42 3349.10
   07:21:34.881.27-Aug-2021 5010.50 4284.68 87.61 3.00 106.62 3349.10
   07:21:35.081.27-Aug-2021 5010.50 4284.69 87.61 3.00 106.82 3349.10
   07:21:35.281.27-Aug-2021 5010.50 4284.71 87.61 3.00 107.02 3349.10
   07:21:35.481.27-Aug-2021 5010.50 4284.71 87.61 3.00 107.22 3349.10
   07:21:35.681.27-Aug-2021 5010.50 4284.66 87.61 3.00 107.42 3349.10
   07:21:35.881.27-Aug-2021 5010.50 4284.37 87.61 3.00 107.62 3349.10
   07:21:36.081.27-Aug-2021 5010.50 4284.36 87.61 3.00 107.82 3349.10
   07:21:36.281.27-Aug-2021 5010.50 4284.40 87.61 3.00 108.02 3349.10
   07:21:36.481.27-Aug-2021 5010.50 4284.40 87.61 3.00 108.22 3349.10
   07:21:36.681.27-Aug-2021 5010.50 4284.46 87.61 3.00 108.42 3349.10
   07:21:36.881.27-Aug-2021 5010.50 4284.50 87.61 3.00 108.62 3349.10
   07:21:37.081.27-Aug-2021 5010.50 4284.47 87.61 3.00 108.82 3349.10
   07:21:37.282.27-Aug-2021 5010.50 4284.27 87.61 3.00 109.02 3349.10
   07:21:37.482.27-Aug-2021 5010.50 4284.27 87.61 3.00 109.22 3349.10
   07:21:37.682.27-Aug-2021 5010.50 4284.32 87.61 3.00 109.42 3349.10
   07:21:37.882.27-Aug-2021 5010.50 4284.35 87.61 3.00 109.62 3349.10
   07:21:38.082.27-Aug-2021 5010.50 4284.34 87.61 3.00 109.82 3349.10
   07:21:38.282.27-Aug-2021 5010.50 4284.21 87.61 3.00 110.02 3349.10
   07:21:38.482.27-Aug-2021 5010.50 4284.21 87.61 3.00 110.22 3349.10
   07:21:38.682.27-Aug-2021 5010.50 4284.25 87.61 3.00 110.42 3349.10
   07:21:38.882.27-Aug-2021 5010.50 4284.30 87.61 3.00 110.62 3349.10
   07:21:39.082.27-Aug-2021 5010.50 4284.33 87.61 3.00 110.82 3349.10
   07:21:39.282.27-Aug-2021 5010.50 4284.35 87.61 3.00 111.02 3349.10
   07:21:39.482.27-Aug-2021 5010.50 4284.35 87.61 3.00 111.22 3349.10
   07:21:39.682.27-Aug-2021 5010.50 4284.22 87.61 3.00 111.42 3349.10
   07:21:39.882.27-Aug-2021 5010.50 4284.25 87.61 3.00 111.62 3349.10
   07:21:40.082.27-Aug-2021 5010.50 4284.27 87.61 3.00 111.82 3349.10
   07:21:40.282.27-Aug-2021 5010.50 4284.30 87.61 3.00 112.02 3349.10
   07:21:40.482.27-Aug-2021 5010.50 4284.30 87.61 3.00 112.22 3349.10
   07:21:40.682.27-Aug-2021 5010.50 4284.36 87.61 3.00 112.42 3349.10
   07:21:40.882.27-Aug-2021 5010.50 4284.39 87.61 3.00 112.62 3349.10
   07:21:41.082.27-Aug-2021 5010.50 4284.42 87.61 3.00 112.82 3349.10
   07:21:41.282.27-Aug-2021 5010.50 4284.44 87.61 3.00 113.02 3349.10
   07:21:41.482.27-Aug-2021 5010.50 4284.44 87.61 3.00 113.22 3349.10
   07:21:41.682.27-Aug-2021 5010.50 4284.49 87.61 3.00 113.42 3349.10
   07:21:41.882.27-Aug-2021 5010.50 4284.52 87.61 3.00 113.62 3349.10
   07:21:42.082.27-Aug-2021 5010.50 4284.54 87.61 3.00 113.82 3349.10
   07:21:42.282.27-Aug-2021 5010.50 4284.54 87.61 3.00 114.02 3349.10
   07:21:42.482.27-Aug-2021 5010.50 4284.54 87.61 3.00 114.22 3349.10
   07:21:42.682.27-Aug-2021 5010.50 4284.32 87.61 3.00 114.42 3349.10
   07:21:42.882.27-Aug-2021 5010.50 4284.32 87.61 3.00 114.62 3349.10
   07:21:43.082.27-Aug-2021 5010.50 4284.34 87.61 3.00 114.82 3349.10
