~Version Information
 VERS.                  2.0:   CWLS log ASCII Standard -VERSION 2.0
 WRAP.                   NO:   One line per depth step
~Well Information Block
#MNEM.UNIT     VALUE/NAME     DESCRIPTION
#---------     -----------    ---------------------------
 STRT.S             13:52:51 27-Aug-21: START TIME 13:52:51 27-Aug-21
 STOP.S             13:59:42 27-Aug-21: STOP TIME  13:59:42 27-Aug-21
 STEP.S                   0.00: STEP TIME
 NULL.                 -999.25: NULL VALUE
 DFWT.                        :  DIST FWL TEXT
 DFST.                        :  DIST FSL TEXT
 DMF .             Drill Floor:  DRILL MEAS FROM
 STIM.      20.00.00 17-Aug-21:  START TIME
 DATE.      19.00.00 29-Aug-21:  END TIME
 SPUD.               15-Aug-21:  SPUD DATE
 NREF.                    Grid:  NORTH REFERENCE
 HPTY.       Minimum Curvature:  HOLE POS TYPE
 DMOD.             Drill Model:  DRILL MOD DESC
 SVYD.                  Survey:  SURVEY DESC
 ILTD.               Lithology:  INTERP LTH DESC
 FTOP.          Formation Tops:  FORM TOPS DESC
 RIG .              East Azeri:  RIG NAME
 PDAT.          Mean Sea Level:  PERMANENT DATUM
 FLD .                     ACG:  FIELD NAME
 SON .        AZ-XX-0907180857:  JOB NUMBER
 CTRY.              Azerbaijan:  COUNTRY NAME
 WELL.                    D23x:  WELL NAME
 SRVC.     Turan Drilling and Engineering:  CONTRACTOR
 COMP.     BP Exploration (Caspian Sea) Ltd.:  COMPANY
 UWI .            /AZE00000214:  UNIQUE WELL IDENTIFIER
 API .            /AZE00000214:  API NUMBER
 MDS .        Operator Entered:  MAG DATA SOURCE
 BASE.              Azerbaijan:  LOGGING EQUIPMENT BASE LOCATION
 REGN.                   EESSA:  REGION
 PROV.                    Baku:  PROVINCE
 STAT.                    Baku:  STATE NAME
 MWDS.                    Baku:  MWD SHOP
 DOE .                     N/A:  DOE NUMBER
 DCON.         Sperry Drilling:  DIRECTNL CONTR
 UNIT.                     N/A:  LOGGING EQUIPMENT ID
 WTYP.                Deviated:  WELL TYPE
 CNTY.                        :  COUNTY
 LOC .                        :  LOCATION
 LMF .             Drill Floor:  LOG MEASURED FROM
 TVDS.m                  43.60:  TVDSS CORRECTN
 LATI.deg                40.02:  LATITUDE
 LONG.deg                51.45:  LONGITUDE
 WHNS.m                  -7.04:  WELL HEAD N/S
 WHEW.m                  -0.67:  WELL HEAD E/W
 UTMX.m              538762.90:  UTM X
 UTMY.m             4431871.34:  UTM Y
 DFWL.m                   0.00:  DISTANCE FWL
 DFSL.m                   0.00:  DISTANCE FSL
 SDEP.m                4127.00:  START DEPTH
 TDD .m                5084.50:  TOTAL DEPTH (DRILLER)
 VSDR.deg               140.47:  VERT SEC DIRECT
 GVFD.g                   1.00:  GRAVITY FIELD
 MFLD.nT              50362.00:  MAGNETIC FIELD
 MDIP.deg                59.48:  MAGNETIC DIP
 MDEC.deg                 6.47:  MAGNETIC DECL
 GRDC.deg                 0.31:  GRID CORRECTION
 AZTC.deg                 6.16:  AZM TOTAL CORR
 EPD .m                   0.00:  ELEVATION
 EGL .m                   0.00:  GROUND ELEVATION
 WDMS.m                 151.80:  WD ELEV
 APD .m                  43.60:  DEPTH ABOVE PD
 DEP .m                4092.57:  DEPTH
 AGAP.m                  43.60:  AIR GAP
 VSEW.m                  -0.67:  VERT SEC E/W
 VSNS.m                  -7.04:  VERT SEC N/S
 EKB .m                  43.60:  KB ELEVATION
 EDF .m                  43.60:  DF ELEVATION
 TDL .m                 957.50:  TOTAL DEPTH (LOGGER)
 VSC .                       0:  VS TO CLOSURE
 MAGU.                 1851413:  MAGUTM CHECKSUM
~Parameter Information Block
#MNEM.UNIT       Value        Description
#---------     -----------    ---------------------------
 AV  .mps                 1.50:  Ann Velocity 
 AVMX.mps                 2.00:  Max Ann Veloc 
 AZIF.deg               184.66:  Azm, Final 
 BHAT.        Rotary Steerable:  BHA Type 
 BREV.rev               300.00:  Rev Bit Total 
 BROT.°/30m              -0.50:  Build Rotating 
 BS  .in                  8.50:  Bit Size 
 BSZ .in                  8.50:  Bit Size 
 BTPL.psig              370.00:  Bit Press Loss 
 CABU.                      No:  Customer Abuse 
 CGEO.      Behruz Shahbaliyev:  Customer Geo 
 COMM.                     ÄÆy:  Run Comments 1 
 TCS .hr                140.08:  Time Ciculation Ended 
 CV  .mps                 3.00:  Crit Velocity 
 CVMX.mps                 3.20:  Max Crit Veloc 
 DD1 .            Musa Ahmadov:  Direct Drillr 1 
 DD2 .           Hamid Ahmadov:  Direct Drillr 2 
 DDSV.               Geo-Pilot:  DD Service 
 DEFF.%                  98.40:  % Det Eff 
 DLRX.°/30m               3.40:  Dogleg Rot Max 
 DLSO.°/30m               1.45:  Dogleg Oriented 
 DLSX.°/30m               3.40:  Dogleg Str Max 
 DRET.      18.40.00 29-Aug-21:  Drill End Time 
 DRST.      21.00.00 20-Aug-21:  Drill Start Tim 
 DTIM.hr                 69.47:  Time Drilling 
 EDEP.m                5084.50:  End Depth 
 ENG1.      Artemiy Matviyanov:  Engineer 1 
 ENG2.         Almaz Almadatov:  Engineer 2 
 ETIM.      18.40.00 29-Aug-21:  End Time 
 FLOI.gpm               500.00:  Flow In 
 FLON.gpm               400.00:  Flow In Min 
 FLOS.cptm                0.00:  Fluid Loss 
 FLOX.gpm               500.00:  Flow In Max 
 DFT .        Mineral Oil Base:  Mud Type 
 HFLO.                      No:  High Flow 
 HPRE.                      No:  High Pressure 
 HTEM.                      No:  High Temp 
 HYDO.m                   1.80:  Hydro Offset 
 IFIN.deg                25.62:  Inc, Final 
 IMAX.deg                48.69:  Inc Max 
 IMIN.deg                24.01:  Inc Min 
 IMND.m                4962.57:  Inc Min Depth 
 IMXD.m                4119.01:  Inc Max Depth 
 JARR.                      No:  Jarring 
 LETM.      18.40.00 29-Aug-21:  Log End Time 
 LOST.hr                     0:  Lost Rig Time 
 LSTM.      21.00.00 20-Aug-21:  Log Start Time 
 MDCL.ppm             41500.00:  Mud Chlorides 
 MDES.     Inversion Oil/Synthetic:  Mud Desc 
 DFD .sg                  1.56:  Mud Density 
 MDMN.sg                  1.56:  Dens Mud Min 
 MDMX.sg                  1.56:  Dens Mud Max 
 MOIL.                      70:  Run Mud Oil % 
 MOWR.                   70:30:  Run Mud OWR 
 MSND.                     0.2:  Run Mud Sand % 
 MSOL.                    23.3:  Run Mud Solids% 
 DFV .spqt               78.00:  Mud Viscosity 
 MWOD.in                  6.75:  MWD Tool OD 
 MWSI.                      No:  Serv Intrp, MWD 
 OTIM.hr                218.30:  Time Operating 
 PCON.           Look Like New:  Pad Condition 
 PMAX.psia            11015.30:  Press Op, Max 
 PV  .cP                 38.00:  Mud PV 
 RUN .                     300:  Run Number 
 ROPA.m/hr               15.00:  ROP Avg 
 ROPN.m/hr                9.00:  ROP Min 
 ROPX.m/hr               17.00:  ROP Max 
 RPMA.rpm               120.00:  RPM Surface Avg 
 RPMN.rpm                90.00:  RPM Surface Min 
 RPMX.rpm               140.00:  RPM Surface Max 
 RRUN.                     300:  Rig Run Number 
 RTIM.hr                 31.53:  Time Reaming 
 SAZI.deg               331.64:  Azm, Start 
 SDEP.m                4127.00:  Start Depth 
 SIDD.                      No:  Serv Intrp, DD 
 SINC.deg                48.43:  Inc, Start 
 SPPA.psig             5830.00:  SPP Avg 
 SPPN.psig             5600.00:  SPP Min 
 SPPX.psig             5900.00:  SPP Max 
 STIM.      21.00.00 20-Aug-21:  Start Time 
 SVCS.                 DD, MWD:  Services 
 SVER.                    9.20:  Sperry Version 
 TDAT.m                 957.50:  Tot Depth Attmp 
 TDDF.                      No:  Trip for DD 
 TDLG.m                 957.50:  Tot Depth Loggd 
 TFF .                      No:  Trip for Fail 
 TQAA.f-kp               15.00:  Torque Abs Avg 
 TQAN.f-kp               12.00:  Torque Abs Min 
 TQAX.f-kp               19.00:  Torque Abs Max 
 TRRT.°/30m              -3.40:  Turn Rotating 
 MRT .                  EWR-M5:  Maximum Recorded Temperature 
 TTMX.degC              100.00:  Max Tool Temp 
 VS01.                90639251:  Virtual Str1 SN 
 VS02.                90634715:  Virtual Str2 SN 
 VS03.                90652479:  Virtual Str3 SN 
 VS04.                90642262:  Virtual Str4 SN 
 WBMN.klb                 0.00:  WOB Min 
 WITN.           Murad Guliyev:  Customer Rep 
 WITN.          Yashar Gaziyev:  Customer Rep 2 
 WOBA.klb                 9.00:  WOB Avg 
 WOBX.klb                12.00:  WOB Max 
 YP  .lhf2               30.00:  Yield Point 
~Curve Information Block
#MNEM.UNIT                 API CODE     Curve Description
#---------               -----------    ---------------------------
 TIME.HHMMSS            00 000 000 000:  GT Time & Date
 GTDEPTH.m              00 000 000 000:  GT Depth
 GTPQH.psia             00 000 000 000:  GT HR Quartz Pressure
 GTTQ.degC              00 000 000 000:  GT Quartz Temperature
 GTTN.NONE              00 000 000 000:  GT Test Number
 GTET.sec               00 000 000 000:  GT Elapsed Test Time
 GTTVD.m                00 000 000 000:  GT True Vertical Depth
#Other Information
#
#WARRANTY: Halliburton will use its best efforts to furnish customers with 
#accurate information and interpretations that are part of, and incident to, the services 
#provided.  However, Halliburton cannot and does not warrant the accuracy 
#or correctness of such information and interpretations.  Under no circumstances should any 
#such information or interpretation be relied upon as the sole basis for any drilling, 
#completion, production, or financial decision or any procedure involving any risk to the 
#safety of any drilling venture, drilling rig or its crew or any other third party.  The 
#Customer has full responsibility for all drilling, completion and production operation.  
#Halliburton makes no representations or warranties, either expressed or 
#implied, including, but not limited to, the implied warranties of merchantability or fitness 
#for a particular purpose, with respect to the services rendered.  In no event will 
#Halliburton be liable for failure to obtain any particular results or for 
#any damages, including, but not limited to, indirect, special or consequential damages, 
#resulting from the use of any information or interpretation provided by Halliburton.
#
~A           TIME           GTDEPTH  GTPQH  GTTQ  GTTN   GTET   GTTVD  
# ...
   13:54:44.000.27-Aug-2021 4859.00 4840.52 84.54 14.00 113.00 3211.42
   13:54:44.200.27-Aug-2021 4859.00 4840.52 84.54 14.00 113.20 3211.42
   13:54:44.400.27-Aug-2021 4859.00 4849.23 84.54 14.00 113.40 3211.42
   13:54:44.600.27-Aug-2021 4859.00 4853.72 84.54 14.00 113.60 3211.42
   13:54:44.800.27-Aug-2021 4859.00 4856.26 84.54 14.00 113.80 3211.42
   13:54:45.000.27-Aug-2021 4859.00 4860.94 84.54 14.00 114.00 3211.42
   13:54:45.200.27-Aug-2021 4859.00 4860.94 84.54 14.00 114.20 3211.42
   13:54:45.400.27-Aug-2021 4859.00 4868.78 84.54 14.00 114.40 3211.42
   13:54:45.600.27-Aug-2021 4859.00 4871.90 84.54 14.00 114.60 3211.42
   13:54:45.800.27-Aug-2021 4859.00 4876.21 84.54 14.00 114.80 3211.42
   13:54:46.000.27-Aug-2021 4859.00 4879.96 84.54 14.00 115.00 3211.42
   13:54:46.200.27-Aug-2021 4859.00 4879.96 84.54 14.00 115.20 3211.42
   13:54:46.400.27-Aug-2021 4859.00 4888.67 84.54 14.00 115.40 3211.42
   13:54:46.600.27-Aug-2021 4859.00 4892.53 84.54 14.00 115.60 3211.42
   13:54:46.800.27-Aug-2021 4859.00 4896.88 84.54 14.00 115.80 3211.42
   13:54:47.000.27-Aug-2021 4859.00 4900.82 84.54 14.00 116.00 3211.42
   13:54:47.200.27-Aug-2021 4859.00 4900.82 84.54 14.00 116.20 3211.42
   13:54:47.400.27-Aug-2021 4859.00 4908.83 84.54 14.00 116.40 3211.42
   13:54:47.600.27-Aug-2021 4859.00 4912.53 84.54 14.00 116.60 3211.42
   13:54:47.800.27-Aug-2021 4859.00 4915.84 84.54 14.00 116.80 3211.42
   13:54:48.000.27-Aug-2021 4859.00 4919.43 84.54 14.00 117.00 3211.42
   13:54:48.200.27-Aug-2021 4859.00 4919.43 84.54 14.00 117.20 3211.42
   13:54:48.400.27-Aug-2021 4859.00 4926.88 84.54 14.00 117.40 3211.42
   13:54:48.600.27-Aug-2021 4859.00 4929.80 84.54 14.00 117.60 3211.42
   13:54:48.800.27-Aug-2021 4859.00 4932.90 84.54 14.00 117.80 3211.42
   13:54:49.000.27-Aug-2021 4859.00 4937.06 84.54 14.00 118.00 3211.42
   13:54:49.200.27-Aug-2021 4859.00 4937.06 84.54 14.00 118.20 3211.42
   13:54:49.400.27-Aug-2021 4859.00 4940.64 84.54 14.00 118.40 3211.42
   13:54:49.600.27-Aug-2021 4859.00 4948.24 84.54 14.00 118.60 3211.42
   13:54:49.800.27-Aug-2021 4859.00 4951.46 84.54 14.00 118.80 3211.42
   13:54:50.000.27-Aug-2021 4859.00 4954.54 84.54 14.00 119.00 3211.42
   13:54:50.200.27-Aug-2021 4859.00 4954.54 84.54 14.00 119.20 3211.42
   13:54:50.400.27-Aug-2021 4859.00 4961.02 84.54 14.00 119.40 3211.42
   13:54:50.600.27-Aug-2021 4859.00 4964.56 84.54 14.00 119.60 3211.42
   13:54:50.800.27-Aug-2021 4859.00 4968.04 84.54 14.00 119.80 3211.42
   13:54:51.000.27-Aug-2021 4859.00 4971.55 84.54 14.00 120.00 3211.42
   13:54:51.200.27-Aug-2021 4859.00 4971.55 84.54 14.00 120.20 3211.42
   13:54:51.400.27-Aug-2021 4859.00 4978.34 84.54 14.00 120.40 3211.42
   13:54:51.600.27-Aug-2021 4859.00 4981.79 84.54 14.00 120.60 3211.42
   13:54:51.800.27-Aug-2021 4859.00 4984.12 84.54 14.00 120.80 3211.42
   13:54:52.000.27-Aug-2021 4859.00 4987.39 84.54 14.00 121.00 3211.42
   13:54:52.200.27-Aug-2021 4859.00 4987.39 84.54 14.00 121.20 3211.42
   13:54:52.400.27-Aug-2021 4859.00 4993.45 84.54 14.00 121.40 3211.42
   13:54:52.600.27-Aug-2021 4859.00 4997.40 84.54 14.00 121.60 3211.42
   13:54:52.800.27-Aug-2021 4859.00 4999.90 84.54 14.00 121.80 3211.42
   13:54:53.000.27-Aug-2021 4859.00 5002.60 84.54 14.00 122.00 3211.42
   13:54:53.200.27-Aug-2021 4859.00 5002.60 84.54 14.00 122.20 3211.42
   13:54:53.400.27-Aug-2021 4859.00 5008.12 84.54 14.00 122.40 3211.42
   13:54:53.600.27-Aug-2021 4859.00 5011.21 84.54 14.00 122.60 3211.42
   13:54:53.800.27-Aug-2021 4859.00 5013.98 84.54 14.00 122.80 3211.42
   13:54:54.000.27-Aug-2021 4859.00 5017.38 84.54 14.00 123.00 3211.42
   13:54:54.200.27-Aug-2021 4859.00 5017.38 84.54 14.00 123.20 3211.42
   13:54:54.400.27-Aug-2021 4859.00 5021.38 84.54 14.00 123.40 3211.42
   13:54:54.600.27-Aug-2021 4859.00 5023.55 84.54 14.00 123.60 3211.42
   13:54:54.800.27-Aug-2021 4859.00 5026.62 84.54 14.00 123.80 3211.42
   13:54:55.000.27-Aug-2021 4859.00 5029.45 84.54 14.00 124.00 3211.42
   13:54:55.200.27-Aug-2021 4859.00 5029.45 84.54 14.00 124.20 3211.42
   13:54:55.400.27-Aug-2021 4859.00 5035.61 84.54 14.00 124.40 3211.42
   13:54:55.600.27-Aug-2021 4859.00 5038.04 84.54 14.00 124.60 3211.42
   13:54:55.800.27-Aug-2021 4859.00 5040.77 84.54 14.00 124.80 3211.42
   13:54:56.000.27-Aug-2021 4859.00 5043.51 84.54 14.00 125.00 3211.42
   13:54:56.200.27-Aug-2021 4859.00 5043.51 84.54 14.00 125.20 3211.42
   13:54:56.400.27-Aug-2021 4859.00 5048.51 84.54 14.00 125.40 3211.42
   13:54:56.600.27-Aug-2021 4859.00 5051.19 84.54 14.00 125.60 3211.42
   13:54:56.800.27-Aug-2021 4859.00 5054.05 84.54 14.00 125.80 3211.42
   13:54:57.000.27-Aug-2021 4859.00 5070.19 84.54 14.00 126.00 3211.42
   13:54:57.200.27-Aug-2021 4859.00 5070.19 84.54 14.00 126.20 3211.42
   13:54:57.400.27-Aug-2021 4859.00 5075.53 84.55 14.00 126.40 3211.42
   13:54:57.600.27-Aug-2021 4859.00 5077.97 84.54 14.00 126.60 3211.42
   13:54:57.800.27-Aug-2021 4859.00 5081.04 84.54 14.00 126.80 3211.42
   13:54:58.000.27-Aug-2021 4859.00 5083.20 84.55 14.00 127.00 3211.42
   13:54:58.200.27-Aug-2021 4859.00 5083.20 84.55 14.00 127.20 3211.42
   13:54:58.400.27-Aug-2021 4859.00 5087.83 84.55 14.00 127.40 3211.42
   13:54:58.600.27-Aug-2021 4859.00 5089.76 84.55 14.00 127.60 3211.42
   13:54:58.800.27-Aug-2021 4859.00 5092.25 84.55 14.00 127.80 3211.42
   13:54:59.000.27-Aug-2021 4859.00 5094.67 84.55 14.00 128.00 3211.42
   13:54:59.200.27-Aug-2021 4859.00 5094.67 84.55 14.00 128.20 3211.42
   13:54:59.400.27-Aug-2021 4859.00 5099.94 84.55 14.00 128.40 3211.42
   13:54:59.600.27-Aug-2021 4859.00 5102.37 84.55 14.00 128.60 3211.42
   13:54:59.800.27-Aug-2021 4859.00 5104.89 84.55 14.00 128.80 3211.42
   13:55:00.000.27-Aug-2021 4859.00 5107.28 84.55 14.00 129.00 3211.42
   13:55:00.200.27-Aug-2021 4859.00 5107.28 84.55 14.00 129.20 3211.42
   13:55:00.400.27-Aug-2021 4859.00 5111.38 84.55 14.00 129.40 3211.42
   13:55:00.600.27-Aug-2021 4859.00 5113.87 84.55 14.00 129.60 3211.42
   13:55:00.800.27-Aug-2021 4859.00 5116.78 84.55 14.00 129.80 3211.42
   13:55:01.000.27-Aug-2021 4859.00 5118.29 84.55 14.00 130.00 3211.42
   13:55:01.200.27-Aug-2021 4859.00 5118.29 84.55 14.00 130.20 3211.42
   13:55:01.400.27-Aug-2021 4859.00 5122.71 84.55 14.00 130.40 3211.42
   13:55:01.600.27-Aug-2021 4859.00 5125.40 84.55 14.00 130.60 3211.42
   13:55:01.800.27-Aug-2021 4859.00 5126.47 84.55 14.00 130.80 3211.42
   13:55:02.000.27-Aug-2021 4859.00 5128.24 84.55 14.00 131.00 3211.42
   13:55:02.200.27-Aug-2021 4859.00 5128.24 84.55 14.00 131.20 3211.42
   13:55:02.400.27-Aug-2021 4859.00 5132.67 84.55 14.00 131.40 3211.42
   13:55:02.600.27-Aug-2021 4859.00 5134.84 84.55 14.00 131.60 3211.42
   13:55:02.800.27-Aug-2021 4859.00 5137.13 84.55 14.00 131.80 3211.42
   13:55:03.000.27-Aug-2021 4859.00 5139.75 84.55 14.00 132.00 3211.42
   13:55:03.200.27-Aug-2021 4859.00 5139.75 84.55 14.00 132.20 3211.42
   13:55:03.400.27-Aug-2021 4859.00 5141.92 84.55 14.00 132.40 3211.42
   13:55:03.600.27-Aug-2021 4859.00 5143.88 84.55 14.00 132.60 3211.42
   13:55:03.800.27-Aug-2021 4859.00 5145.95 84.55 14.00 132.80 3211.42
   13:55:04.000.27-Aug-2021 4859.00 5147.92 84.55 14.00 133.00 3211.42
   13:55:04.200.27-Aug-2021 4859.00 5147.92 84.55 14.00 133.20 3211.42
   13:55:04.400.27-Aug-2021 4859.00 5152.39 84.55 14.00 133.40 3211.42
   13:55:04.600.27-Aug-2021 4859.00 5154.12 84.55 14.00 133.60 3211.42
   13:55:04.800.27-Aug-2021 4859.00 5156.04 84.55 14.00 133.80 3211.42
   13:55:05.000.27-Aug-2021 4859.00 5158.58 84.55 14.00 134.00 3211.42
   13:55:05.200.27-Aug-2021 4859.00 5158.58 84.55 14.00 134.20 3211.42
   13:55:05.400.27-Aug-2021 4859.00 5162.51 84.55 14.00 134.40 3211.42
   13:55:05.600.27-Aug-2021 4859.00 5164.51 84.55 14.00 134.60 3211.42
   13:55:05.800.27-Aug-2021 4859.00 5166.47 84.55 14.00 134.80 3211.42
   13:55:06.000.27-Aug-2021 4859.00 5168.65 84.55 14.00 135.00 3211.42
   13:55:06.200.27-Aug-2021 4859.00 5168.65 84.55 14.00 135.20 3211.42
   13:55:06.400.27-Aug-2021 4859.00 5172.54 84.55 14.00 135.40 3211.42
