~Version Information
 VERS.                  2.0:   CWLS log ASCII Standard -VERSION 2.0
 WRAP.                   NO:   One line per depth step
~Well Information Block
#MNEM.UNIT     VALUE/NAME     DESCRIPTION
#---------     -----------    ---------------------------
 STRT.S             08:51:30 27-Aug-21: START TIME 08:51:30 27-Aug-21
 STOP.S             08:58:20 27-Aug-21: STOP TIME  08:58:20 27-Aug-21
 STEP.S                   0.00: STEP TIME
 NULL.                 -999.25: NULL VALUE
 DFWT.                        :  DIST FWL TEXT
 DFST.                        :  DIST FSL TEXT
 DMF .             Drill Floor:  DRILL MEAS FROM
 STIM.      20.00.00 17-Aug-21:  START TIME
 DATE.      19.00.00 29-Aug-21:  END TIME
 SPUD.               15-Aug-21:  SPUD DATE
 NREF.                    Grid:  NORTH REFERENCE
 HPTY.       Minimum Curvature:  HOLE POS TYPE
 DMOD.             Drill Model:  DRILL MOD DESC
 SVYD.                  Survey:  SURVEY DESC
 ILTD.               Lithology:  INTERP LTH DESC
 FTOP.          Formation Tops:  FORM TOPS DESC
 RIG .              East Azeri:  RIG NAME
 PDAT.          Mean Sea Level:  PERMANENT DATUM
 FLD .                     ACG:  FIELD NAME
 SON .        AZ-XX-0907180857:  JOB NUMBER
 CTRY.              Azerbaijan:  COUNTRY NAME
 WELL.                    D23x:  WELL NAME
 SRVC.     Turan Drilling and Engineering:  CONTRACTOR
 COMP.     BP Exploration (Caspian Sea) Ltd.:  COMPANY
 UWI .            /AZE00000214:  UNIQUE WELL IDENTIFIER
 API .            /AZE00000214:  API NUMBER
 MDS .        Operator Entered:  MAG DATA SOURCE
 BASE.              Azerbaijan:  LOGGING EQUIPMENT BASE LOCATION
 REGN.                   EESSA:  REGION
 PROV.                    Baku:  PROVINCE
 STAT.                    Baku:  STATE NAME
 MWDS.                    Baku:  MWD SHOP
 DOE .                     N/A:  DOE NUMBER
 DCON.         Sperry Drilling:  DIRECTNL CONTR
 UNIT.                     N/A:  LOGGING EQUIPMENT ID
 WTYP.                Deviated:  WELL TYPE
 CNTY.                        :  COUNTY
 LOC .                        :  LOCATION
 LMF .             Drill Floor:  LOG MEASURED FROM
 TVDS.m                  43.60:  TVDSS CORRECTN
 LATI.deg                40.02:  LATITUDE
 LONG.deg                51.45:  LONGITUDE
 WHNS.m                  -7.04:  WELL HEAD N/S
 WHEW.m                  -0.67:  WELL HEAD E/W
 UTMX.m              538762.90:  UTM X
 UTMY.m             4431871.34:  UTM Y
 DFWL.m                   0.00:  DISTANCE FWL
 DFSL.m                   0.00:  DISTANCE FSL
 SDEP.m                4127.00:  START DEPTH
 TDD .m                5084.50:  TOTAL DEPTH (DRILLER)
 VSDR.deg               140.47:  VERT SEC DIRECT
 GVFD.g                   1.00:  GRAVITY FIELD
 MFLD.nT              50362.00:  MAGNETIC FIELD
 MDIP.deg                59.48:  MAGNETIC DIP
 MDEC.deg                 6.47:  MAGNETIC DECL
 GRDC.deg                 0.31:  GRID CORRECTION
 AZTC.deg                 6.16:  AZM TOTAL CORR
 EPD .m                   0.00:  ELEVATION
 EGL .m                   0.00:  GROUND ELEVATION
 WDMS.m                 151.80:  WD ELEV
 APD .m                  43.60:  DEPTH ABOVE PD
 DEP .m                4092.57:  DEPTH
 AGAP.m                  43.60:  AIR GAP
 VSEW.m                  -0.67:  VERT SEC E/W
 VSNS.m                  -7.04:  VERT SEC N/S
 EKB .m                  43.60:  KB ELEVATION
 EDF .m                  43.60:  DF ELEVATION
 TDL .m                 957.50:  TOTAL DEPTH (LOGGER)
 VSC .                       0:  VS TO CLOSURE
 MAGU.                 1851413:  MAGUTM CHECKSUM
~Parameter Information Block
#MNEM.UNIT       Value        Description
#---------     -----------    ---------------------------
 AV  .mps                 1.50:  Ann Velocity 
 AVMX.mps                 2.00:  Max Ann Veloc 
 AZIF.deg               184.66:  Azm, Final 
 BHAT.        Rotary Steerable:  BHA Type 
 BREV.rev               300.00:  Rev Bit Total 
 BROT.°/30m              -0.50:  Build Rotating 
 BS  .in                  8.50:  Bit Size 
 BSZ .in                  8.50:  Bit Size 
 BTPL.psig              370.00:  Bit Press Loss 
 CABU.                      No:  Customer Abuse 
 CGEO.      Behruz Shahbaliyev:  Customer Geo 
 COMM.                     <w:  Run Comments 1 
 TCS .hr                140.08:  Time Ciculation Ended 
 CV  .mps                 3.00:  Crit Velocity 
 CVMX.mps                 3.20:  Max Crit Veloc 
 DD1 .            Musa Ahmadov:  Direct Drillr 1 
 DD2 .           Hamid Ahmadov:  Direct Drillr 2 
 DDSV.               Geo-Pilot:  DD Service 
 DEFF.%                  98.40:  % Det Eff 
 DLRX.°/30m               3.40:  Dogleg Rot Max 
 DLSO.°/30m               1.45:  Dogleg Oriented 
 DLSX.°/30m               3.40:  Dogleg Str Max 
 DRET.      18.40.00 29-Aug-21:  Drill End Time 
 DRST.      21.00.00 20-Aug-21:  Drill Start Tim 
 DTIM.hr                 69.47:  Time Drilling 
 EDEP.m                5084.50:  End Depth 
 ENG1.      Artemiy Matviyanov:  Engineer 1 
 ENG2.         Almaz Almadatov:  Engineer 2 
 ETIM.      18.40.00 29-Aug-21:  End Time 
 FLOI.gpm               500.00:  Flow In 
 FLON.gpm               400.00:  Flow In Min 
 FLOS.cptm                0.00:  Fluid Loss 
 FLOX.gpm               500.00:  Flow In Max 
 DFT .        Mineral Oil Base:  Mud Type 
 HFLO.                      No:  High Flow 
 HPRE.                      No:  High Pressure 
 HTEM.                      No:  High Temp 
 HYDO.m                   1.80:  Hydro Offset 
 IFIN.deg                25.62:  Inc, Final 
 IMAX.deg                48.69:  Inc Max 
 IMIN.deg                24.01:  Inc Min 
 IMND.m                4962.57:  Inc Min Depth 
 IMXD.m                4119.01:  Inc Max Depth 
 JARR.                      No:  Jarring 
 LETM.      18.40.00 29-Aug-21:  Log End Time 
 LOST.hr                     0:  Lost Rig Time 
 LSTM.      21.00.00 20-Aug-21:  Log Start Time 
 MDCL.ppm             41500.00:  Mud Chlorides 
 MDES.     Inversion Oil/Synthetic:  Mud Desc 
 DFD .sg                  1.56:  Mud Density 
 MDMN.sg                  1.56:  Dens Mud Min 
 MDMX.sg                  1.56:  Dens Mud Max 
 MOIL.                      70:  Run Mud Oil % 
 MOWR.                   70:30:  Run Mud OWR 
 MSND.                     0.2:  Run Mud Sand % 
 MSOL.                    23.3:  Run Mud Solids% 
 DFV .spqt               78.00:  Mud Viscosity 
 MWOD.in                  6.75:  MWD Tool OD 
 MWSI.                      No:  Serv Intrp, MWD 
 OTIM.hr                218.30:  Time Operating 
 PCON.           Look Like New:  Pad Condition 
 PMAX.psia            11015.30:  Press Op, Max 
 PV  .cP                 38.00:  Mud PV 
 RUN .                     300:  Run Number 
 ROPA.m/hr               15.00:  ROP Avg 
 ROPN.m/hr                9.00:  ROP Min 
 ROPX.m/hr               17.00:  ROP Max 
 RPMA.rpm               120.00:  RPM Surface Avg 
 RPMN.rpm                90.00:  RPM Surface Min 
 RPMX.rpm               140.00:  RPM Surface Max 
 RRUN.                     300:  Rig Run Number 
 RTIM.hr                 31.53:  Time Reaming 
 SAZI.deg               331.64:  Azm, Start 
 SDEP.m                4127.00:  Start Depth 
 SIDD.                      No:  Serv Intrp, DD 
 SINC.deg                48.43:  Inc, Start 
 SPPA.psig             5830.00:  SPP Avg 
 SPPN.psig             5600.00:  SPP Min 
 SPPX.psig             5900.00:  SPP Max 
 STIM.      21.00.00 20-Aug-21:  Start Time 
 SVCS.                 DD, MWD:  Services 
 SVER.                    9.20:  Sperry Version 
 TDAT.m                 957.50:  Tot Depth Attmp 
 TDDF.                      No:  Trip for DD 
 TDLG.m                 957.50:  Tot Depth Loggd 
 TFF .                      No:  Trip for Fail 
 TQAA.f-kp               15.00:  Torque Abs Avg 
 TQAN.f-kp               12.00:  Torque Abs Min 
 TQAX.f-kp               19.00:  Torque Abs Max 
 TRRT.°/30m              -3.40:  Turn Rotating 
 MRT .                  EWR-M5:  Maximum Recorded Temperature 
 TTMX.degC              100.00:  Max Tool Temp 
 VS01.                90639251:  Virtual Str1 SN 
 VS02.                90634715:  Virtual Str2 SN 
 VS03.                90652479:  Virtual Str3 SN 
 VS04.                90642262:  Virtual Str4 SN 
 WBMN.klb                 0.00:  WOB Min 
 WITN.           Murad Guliyev:  Customer Rep 
 WITN.          Yashar Gaziyev:  Customer Rep 2 
 WOBA.klb                 9.00:  WOB Avg 
 WOBX.klb                12.00:  WOB Max 
 YP  .lhf2               30.00:  Yield Point 
~Curve Information Block
#MNEM.UNIT                 API CODE     Curve Description
#---------               -----------    ---------------------------
 TIME.HHMMSS            00 000 000 000:  GT Time & Date
 GTDEPTH.m              00 000 000 000:  GT Depth
 GTPQH.psia             00 000 000 000:  GT HR Quartz Pressure
 GTTQ.degC              00 000 000 000:  GT Quartz Temperature
 GTTN.NONE              00 000 000 000:  GT Test Number
 GTET.sec               00 000 000 000:  GT Elapsed Test Time
 GTTVD.m                00 000 000 000:  GT True Vertical Depth
#Other Information
#
#WARRANTY: Halliburton will use its best efforts to furnish customers with 
#accurate information and interpretations that are part of, and incident to, the services 
#provided.  However, Halliburton cannot and does not warrant the accuracy 
#or correctness of such information and interpretations.  Under no circumstances should any 
#such information or interpretation be relied upon as the sole basis for any drilling, 
#completion, production, or financial decision or any procedure involving any risk to the 
#safety of any drilling venture, drilling rig or its crew or any other third party.  The 
#Customer has full responsibility for all drilling, completion and production operation.  
#Halliburton makes no representations or warranties, either expressed or 
#implied, including, but not limited to, the implied warranties of merchantability or fitness 
#for a particular purpose, with respect to the services rendered.  In no event will 
#Halliburton be liable for failure to obtain any particular results or for 
#any damages, including, but not limited to, indirect, special or consequential damages, 
#resulting from the use of any information or interpretation provided by Halliburton.
#
~A           TIME           GTDEPTH  GTPQH  GTTQ  GTTN  GTET   GTTVD  
# ...
   08:56:06.538.27-Aug-2021 4965.00 1803.29 86.61 6.00 276.11 3307.85
   08:56:06.739.27-Aug-2021 4965.00 1803.29 86.61 6.00 276.31 3307.85
   08:56:06.939.27-Aug-2021 4965.00 1803.43 86.61 6.00 276.51 3307.85
   08:56:07.139.27-Aug-2021 4965.00 1803.47 86.61 6.00 276.71 3307.85
   08:56:07.339.27-Aug-2021 4965.00 1803.43 86.61 6.00 276.92 3307.85
   08:56:07.539.27-Aug-2021 4965.00 1803.37 86.61 6.00 277.12 3307.85
   08:56:07.739.27-Aug-2021 4965.00 1803.37 86.61 6.00 277.32 3307.85
   08:56:07.939.27-Aug-2021 4965.00 1803.33 86.61 6.00 277.52 3307.85
   08:56:08.139.27-Aug-2021 4965.00 1800.90 86.61 6.00 277.72 3307.85
   08:56:08.339.27-Aug-2021 4965.00 1796.78 86.61 6.00 277.92 3307.85
   08:56:08.539.27-Aug-2021 4965.00 1796.05 86.61 6.00 278.12 3307.85
   08:56:08.739.27-Aug-2021 4965.00 1796.05 86.61 6.00 278.32 3307.85
   08:56:08.939.27-Aug-2021 4965.00 1795.79 86.61 6.00 278.52 3307.85
   08:56:09.140.27-Aug-2021 4965.00 1801.02 86.61 6.00 278.72 3307.85
   08:56:09.340.27-Aug-2021 4965.00 1801.08 86.61 6.00 278.92 3307.85
   08:56:09.540.27-Aug-2021 4965.00 1801.16 86.61 6.00 279.12 3307.85
   08:56:09.740.27-Aug-2021 4965.00 1801.16 86.61 6.00 279.32 3307.85
   08:56:09.940.27-Aug-2021 4965.00 1801.48 86.61 6.00 279.52 3307.85
   08:56:10.140.27-Aug-2021 4965.00 1801.30 86.61 6.00 279.72 3307.85
   08:56:10.340.27-Aug-2021 4965.00 1801.91 86.61 6.00 279.92 3307.85
   08:56:10.540.27-Aug-2021 4965.00 1802.02 86.61 6.00 280.12 3307.85
   08:56:10.740.27-Aug-2021 4965.00 1802.02 86.61 6.00 280.32 3307.85
   08:56:10.940.27-Aug-2021 4965.00 1801.64 86.61 6.00 280.52 3307.85
   08:56:11.140.27-Aug-2021 4965.00 1802.37 86.61 6.00 280.72 3307.85
   08:56:11.340.27-Aug-2021 4965.00 1802.41 86.61 6.00 280.92 3307.85
   08:56:11.541.27-Aug-2021 4965.00 1802.44 86.61 6.00 281.12 3307.85
   08:56:11.741.27-Aug-2021 4965.00 1802.44 86.61 6.00 281.32 3307.85
   08:56:11.941.27-Aug-2021 4965.00 1802.68 86.61 6.00 281.52 3307.85
   08:56:12.141.27-Aug-2021 4965.00 1802.76 86.61 6.00 281.72 3307.85
   08:56:12.341.27-Aug-2021 4965.00 1802.89 86.61 6.00 281.92 3307.85
   08:56:12.541.27-Aug-2021 4965.00 1802.98 86.61 6.00 282.12 3307.85
   08:56:12.741.27-Aug-2021 4965.00 1802.98 86.61 6.00 282.32 3307.85
   08:56:12.941.27-Aug-2021 4965.00 1803.20 86.61 6.00 282.52 3307.85
   08:56:13.141.27-Aug-2021 4965.00 1803.34 86.61 6.00 282.72 3307.85
   08:56:13.341.27-Aug-2021 4965.00 1803.46 86.61 6.00 282.92 3307.85
   08:56:13.541.27-Aug-2021 4965.00 1803.57 86.61 6.00 283.12 3307.85
   08:56:13.741.27-Aug-2021 4965.00 1803.57 86.61 6.00 283.32 3307.85
   08:56:13.942.27-Aug-2021 4965.00 1803.59 86.61 6.00 283.52 3307.85
   08:56:14.142.27-Aug-2021 4965.00 1803.86 86.61 6.00 283.72 3307.85
   08:56:14.342.27-Aug-2021 4965.00 1804.31 86.61 6.00 283.92 3307.85
   08:56:14.542.27-Aug-2021 4965.00 1804.31 86.61 6.00 284.12 3307.85
   08:56:14.742.27-Aug-2021 4965.00 1804.31 86.61 6.00 284.32 3307.85
   08:56:14.942.27-Aug-2021 4965.00 1804.46 86.61 6.00 284.52 3307.85
   08:56:15.142.27-Aug-2021 4965.00 1804.53 86.61 6.00 284.72 3307.85
   08:56:15.342.27-Aug-2021 4965.00 1804.60 86.61 6.00 284.92 3307.85
   08:56:15.542.27-Aug-2021 4965.00 1804.68 86.61 6.00 285.12 3307.85
   08:56:15.742.27-Aug-2021 4965.00 1804.68 86.61 6.00 285.32 3307.85
   08:56:15.942.27-Aug-2021 4965.00 1804.87 86.61 6.00 285.52 3307.85
   08:56:16.142.27-Aug-2021 4965.00 1804.98 86.61 6.00 285.72 3307.85
   08:56:16.343.27-Aug-2021 4965.00 1805.11 86.61 6.00 285.92 3307.85
   08:56:16.543.27-Aug-2021 4965.00 1805.21 86.61 6.00 286.12 3307.85
   08:56:16.743.27-Aug-2021 4965.00 1805.21 86.61 6.00 286.32 3307.85
   08:56:16.943.27-Aug-2021 4965.00 1805.42 86.61 6.00 286.52 3307.85
   08:56:17.143.27-Aug-2021 4965.00 1805.51 86.61 6.00 286.72 3307.85
   08:56:17.343.27-Aug-2021 4965.00 1805.39 86.61 6.00 286.92 3307.85
   08:56:17.543.27-Aug-2021 4965.00 1806.05 86.61 6.00 287.12 3307.85
   08:56:17.743.27-Aug-2021 4965.00 1806.05 86.61 6.00 287.32 3307.85
   08:56:17.943.27-Aug-2021 4965.00 1806.12 86.61 6.00 287.52 3307.85
   08:56:18.143.27-Aug-2021 4965.00 1805.84 86.61 6.00 287.72 3307.85
   08:56:18.343.27-Aug-2021 4965.00 1806.38 86.61 6.00 287.92 3307.85
   08:56:18.543.27-Aug-2021 4965.00 1806.52 86.61 6.00 288.12 3307.85
   08:56:18.744.27-Aug-2021 4965.00 1806.52 86.61 6.00 288.32 3307.85
   08:56:18.944.27-Aug-2021 4965.00 1806.10 86.61 6.00 288.52 3307.85
   08:56:19.144.27-Aug-2021 4965.00 1806.85 86.61 6.00 288.72 3307.85
   08:56:19.344.27-Aug-2021 4965.00 1806.88 86.61 6.00 288.92 3307.85
   08:56:19.544.27-Aug-2021 4965.00 1806.87 86.61 6.00 289.12 3307.85
   08:56:19.744.27-Aug-2021 4965.00 1806.87 86.61 6.00 289.32 3307.85
   08:56:19.944.27-Aug-2021 4965.00 1807.06 86.61 6.00 289.52 3307.85
   08:56:20.144.27-Aug-2021 4965.00 1807.11 86.61 6.00 289.72 3307.85
   08:56:20.344.27-Aug-2021 4965.00 1806.82 86.61 6.00 289.92 3307.85
   08:56:20.544.27-Aug-2021 4965.00 1807.47 86.61 6.00 290.12 3307.85
   08:56:20.744.27-Aug-2021 4965.00 1807.47 86.61 6.00 290.32 3307.85
   08:56:20.944.27-Aug-2021 4965.00 1807.59 86.61 6.00 290.52 3307.85
   08:56:21.145.27-Aug-2021 4965.00 1807.67 86.61 6.00 290.72 3307.85
   08:56:21.345.27-Aug-2021 4965.00 1807.77 86.61 6.00 290.92 3307.85
   08:56:21.545.27-Aug-2021 4965.00 1807.81 86.61 6.00 291.12 3307.85
   08:56:21.745.27-Aug-2021 4965.00 1807.81 86.61 6.00 291.32 3307.85
   08:56:21.945.27-Aug-2021 4965.00 1807.92 86.61 6.00 291.52 3307.85
   08:56:22.145.27-Aug-2021 4965.00 1807.99 86.61 6.00 291.72 3307.85
   08:56:22.345.27-Aug-2021 4965.00 1808.08 86.61 6.00 291.92 3307.85
   08:56:22.545.27-Aug-2021 4965.00 1808.19 86.61 6.00 292.12 3307.85
   08:56:22.745.27-Aug-2021 4965.00 1808.19 86.61 6.00 292.32 3307.85
   08:56:22.945.27-Aug-2021 4965.00 1808.35 86.61 6.00 292.52 3307.85
   08:56:23.145.27-Aug-2021 4965.00 1808.45 86.61 6.00 292.72 3307.85
   08:56:23.345.27-Aug-2021 4965.00 1808.53 86.61 6.00 292.92 3307.85
   08:56:23.546.27-Aug-2021 4965.00 1808.39 86.61 6.00 293.12 3307.85
   08:56:23.746.27-Aug-2021 4965.00 1808.39 86.61 6.00 293.32 3307.85
   08:56:23.946.27-Aug-2021 4965.00 1809.13 86.61 6.00 293.52 3307.85
   08:56:24.146.27-Aug-2021 4965.00 1809.13 86.61 6.00 293.72 3307.85
   08:56:24.346.27-Aug-2021 4965.00 1809.19 86.61 6.00 293.92 3307.85
   08:56:24.546.27-Aug-2021 4965.00 1809.28 86.61 6.00 294.12 3307.85
   08:56:24.746.27-Aug-2021 4965.00 1809.28 86.61 6.00 294.32 3307.85
   08:56:24.946.27-Aug-2021 4965.00 1809.37 86.61 6.00 294.52 3307.85
   08:56:25.146.27-Aug-2021 4965.00 1809.45 86.61 6.00 294.72 3307.85
   08:56:25.346.27-Aug-2021 4965.00 1809.51 86.61 6.00 294.92 3307.85
   08:56:25.546.27-Aug-2021 4965.00 1809.61 86.60 6.00 295.12 3307.85
   08:56:25.746.27-Aug-2021 4965.00 1809.61 86.60 6.00 295.32 3307.85
   08:56:25.947.27-Aug-2021 4965.00 1809.80 86.61 6.00 295.52 3307.85
   08:56:26.147.27-Aug-2021 4965.00 1809.88 86.60 6.00 295.72 3307.85
   08:56:26.347.27-Aug-2021 4965.00 1809.95 86.60 6.00 295.92 3307.85
   08:56:26.547.27-Aug-2021 4965.00 1810.04 86.60 6.00 296.12 3307.85
   08:56:26.747.27-Aug-2021 4965.00 1810.04 86.60 6.00 296.32 3307.85
   08:56:26.947.27-Aug-2021 4965.00 1810.52 86.60 6.00 296.52 3307.85
   08:56:27.147.27-Aug-2021 4965.00 1810.65 86.60 6.00 296.72 3307.85
   08:56:27.347.27-Aug-2021 4965.00 1810.61 86.60 6.00 296.92 3307.85
   08:56:27.547.27-Aug-2021 4965.00 1810.27 86.60 6.00 297.12 3307.85
   08:56:27.747.27-Aug-2021 4965.00 1810.27 86.60 6.00 297.32 3307.85
   08:56:27.947.27-Aug-2021 4965.00 1810.97 86.60 6.00 297.52 3307.85
   08:56:28.147.27-Aug-2021 4965.00 1810.93 86.60 6.00 297.72 3307.85
   08:56:28.348.27-Aug-2021 4965.00 1810.56 86.60 6.00 297.92 3307.85
   08:56:28.548.27-Aug-2021 4965.00 1811.09 86.60 6.00 298.12 3307.85
   08:56:28.748.27-Aug-2021 4965.00 1811.09 86.60 6.00 298.32 3307.85
   08:56:28.948.27-Aug-2021 4965.00 1811.25 86.60 6.00 298.52 3307.85
   08:56:29.148.27-Aug-2021 4965.00 1811.33 86.60 6.00 298.72 3307.85
   08:56:29.348.27-Aug-2021 4965.00 1811.40 86.60 6.00 298.92 3307.85
