~Version Information
 VERS.                  2.0:   CWLS log ASCII Standard -VERSION 2.0
 WRAP.                   NO:   One line per depth step
~Well Information Block
#MNEM.UNIT     VALUE/NAME     DESCRIPTION
#---------     -----------    ---------------------------
 STRT.S             11:29:40 27-Aug-21: START TIME 11:29:40 27-Aug-21
 STOP.S             11:36:51 27-Aug-21: STOP TIME  11:36:51 27-Aug-21
 STEP.S                   0.00: STEP TIME
 NULL.                 -999.25: NULL VALUE
 DFWT.                        :  DIST FWL TEXT
 DFST.                        :  DIST FSL TEXT
 DMF .             Drill Floor:  DRILL MEAS FROM
 STIM.      20.00.00 17-Aug-21:  START TIME
 DATE.      19.00.00 29-Aug-21:  END TIME
 SPUD.               15-Aug-21:  SPUD DATE
 NREF.                    Grid:  NORTH REFERENCE
 HPTY.       Minimum Curvature:  HOLE POS TYPE
 DMOD.             Drill Model:  DRILL MOD DESC
 SVYD.                  Survey:  SURVEY DESC
 ILTD.               Lithology:  INTERP LTH DESC
 FTOP.          Formation Tops:  FORM TOPS DESC
 RIG .              East Azeri:  RIG NAME
 PDAT.          Mean Sea Level:  PERMANENT DATUM
 FLD .                     ACG:  FIELD NAME
 SON .        AZ-XX-0907180857:  JOB NUMBER
 CTRY.              Azerbaijan:  COUNTRY NAME
 WELL.                    D23x:  WELL NAME
 SRVC.     Turan Drilling and Engineering:  CONTRACTOR
 COMP.     BP Exploration (Caspian Sea) Ltd.:  COMPANY
 UWI .            /AZE00000214:  UNIQUE WELL IDENTIFIER
 API .            /AZE00000214:  API NUMBER
 MDS .        Operator Entered:  MAG DATA SOURCE
 BASE.              Azerbaijan:  LOGGING EQUIPMENT BASE LOCATION
 REGN.                   EESSA:  REGION
 PROV.                    Baku:  PROVINCE
 STAT.                    Baku:  STATE NAME
 MWDS.                    Baku:  MWD SHOP
 DOE .                     N/A:  DOE NUMBER
 DCON.         Sperry Drilling:  DIRECTNL CONTR
 UNIT.                     N/A:  LOGGING EQUIPMENT ID
 WTYP.                Deviated:  WELL TYPE
 CNTY.                        :  COUNTY
 LOC .                        :  LOCATION
 LMF .             Drill Floor:  LOG MEASURED FROM
 TVDS.m                  43.60:  TVDSS CORRECTN
 LATI.deg                40.02:  LATITUDE
 LONG.deg                51.45:  LONGITUDE
 WHNS.m                  -7.04:  WELL HEAD N/S
 WHEW.m                  -0.67:  WELL HEAD E/W
 UTMX.m              538762.90:  UTM X
 UTMY.m             4431871.34:  UTM Y
 DFWL.m                   0.00:  DISTANCE FWL
 DFSL.m                   0.00:  DISTANCE FSL
 SDEP.m                4127.00:  START DEPTH
 TDD .m                5084.50:  TOTAL DEPTH (DRILLER)
 VSDR.deg               140.47:  VERT SEC DIRECT
 GVFD.g                   1.00:  GRAVITY FIELD
 MFLD.nT              50362.00:  MAGNETIC FIELD
 MDIP.deg                59.48:  MAGNETIC DIP
 MDEC.deg                 6.47:  MAGNETIC DECL
 GRDC.deg                 0.31:  GRID CORRECTION
 AZTC.deg                 6.16:  AZM TOTAL CORR
 EPD .m                   0.00:  ELEVATION
 EGL .m                   0.00:  GROUND ELEVATION
 WDMS.m                 151.80:  WD ELEV
 APD .m                  43.60:  DEPTH ABOVE PD
 DEP .m                4092.57:  DEPTH
 AGAP.m                  43.60:  AIR GAP
 VSEW.m                  -0.67:  VERT SEC E/W
 VSNS.m                  -7.04:  VERT SEC N/S
 EKB .m                  43.60:  KB ELEVATION
 EDF .m                  43.60:  DF ELEVATION
 TDL .m                 957.50:  TOTAL DEPTH (LOGGER)
 VSC .                       0:  VS TO CLOSURE
 MAGU.                 1851413:  MAGUTM CHECKSUM
~Parameter Information Block
#MNEM.UNIT       Value        Description
#---------     -----------    ---------------------------
 AV  .mps                 1.50:  Ann Velocity 
 AVMX.mps                 2.00:  Max Ann Veloc 
 AZIF.deg               184.66:  Azm, Final 
 BHAT.        Rotary Steerable:  BHA Type 
 BREV.rev               300.00:  Rev Bit Total 
 BROT.°/30m              -0.50:  Build Rotating 
 BS  .in                  8.50:  Bit Size 
 BSZ .in                  8.50:  Bit Size 
 BTPL.psig              370.00:  Bit Press Loss 
 CABU.                      No:  Customer Abuse 
 CGEO.      Behruz Shahbaliyev:  Customer Geo 
 COMM.                     ,A[:  Run Comments 1 
 TCS .hr                140.08:  Time Ciculation Ended 
 CV  .mps                 3.00:  Crit Velocity 
 CVMX.mps                 3.20:  Max Crit Veloc 
 DD1 .            Musa Ahmadov:  Direct Drillr 1 
 DD2 .           Hamid Ahmadov:  Direct Drillr 2 
 DDSV.               Geo-Pilot:  DD Service 
 DEFF.%                  98.40:  % Det Eff 
 DLRX.°/30m               3.40:  Dogleg Rot Max 
 DLSO.°/30m               1.45:  Dogleg Oriented 
 DLSX.°/30m               3.40:  Dogleg Str Max 
 DRET.      18.40.00 29-Aug-21:  Drill End Time 
 DRST.      21.00.00 20-Aug-21:  Drill Start Tim 
 DTIM.hr                 69.47:  Time Drilling 
 EDEP.m                5084.50:  End Depth 
 ENG1.      Artemiy Matviyanov:  Engineer 1 
 ENG2.         Almaz Almadatov:  Engineer 2 
 ETIM.      18.40.00 29-Aug-21:  End Time 
 FLOI.gpm               500.00:  Flow In 
 FLON.gpm               400.00:  Flow In Min 
 FLOS.cptm                0.00:  Fluid Loss 
 FLOX.gpm               500.00:  Flow In Max 
 DFT .        Mineral Oil Base:  Mud Type 
 HFLO.                      No:  High Flow 
 HPRE.                      No:  High Pressure 
 HTEM.                      No:  High Temp 
 HYDO.m                   1.80:  Hydro Offset 
 IFIN.deg                25.62:  Inc, Final 
 IMAX.deg                48.69:  Inc Max 
 IMIN.deg                24.01:  Inc Min 
 IMND.m                4962.57:  Inc Min Depth 
 IMXD.m                4119.01:  Inc Max Depth 
 JARR.                      No:  Jarring 
 LETM.      18.40.00 29-Aug-21:  Log End Time 
 LOST.hr                     0:  Lost Rig Time 
 LSTM.      21.00.00 20-Aug-21:  Log Start Time 
 MDCL.ppm             41500.00:  Mud Chlorides 
 MDES.     Inversion Oil/Synthetic:  Mud Desc 
 DFD .sg                  1.56:  Mud Density 
 MDMN.sg                  1.56:  Dens Mud Min 
 MDMX.sg                  1.56:  Dens Mud Max 
 MOIL.                      70:  Run Mud Oil % 
 MOWR.                   70:30:  Run Mud OWR 
 MSND.                     0.2:  Run Mud Sand % 
 MSOL.                    23.3:  Run Mud Solids% 
 DFV .spqt               78.00:  Mud Viscosity 
 MWOD.in                  6.75:  MWD Tool OD 
 MWSI.                      No:  Serv Intrp, MWD 
 OTIM.hr                218.30:  Time Operating 
 PCON.           Look Like New:  Pad Condition 
 PMAX.psia            11015.30:  Press Op, Max 
 PV  .cP                 38.00:  Mud PV 
 RUN .                     300:  Run Number 
 ROPA.m/hr               15.00:  ROP Avg 
 ROPN.m/hr                9.00:  ROP Min 
 ROPX.m/hr               17.00:  ROP Max 
 RPMA.rpm               120.00:  RPM Surface Avg 
 RPMN.rpm                90.00:  RPM Surface Min 
 RPMX.rpm               140.00:  RPM Surface Max 
 RRUN.                     300:  Rig Run Number 
 RTIM.hr                 31.53:  Time Reaming 
 SAZI.deg               331.64:  Azm, Start 
 SDEP.m                4127.00:  Start Depth 
 SIDD.                      No:  Serv Intrp, DD 
 SINC.deg                48.43:  Inc, Start 
 SPPA.psig             5830.00:  SPP Avg 
 SPPN.psig             5600.00:  SPP Min 
 SPPX.psig             5900.00:  SPP Max 
 STIM.      21.00.00 20-Aug-21:  Start Time 
 SVCS.                 DD, MWD:  Services 
 SVER.                    9.20:  Sperry Version 
 TDAT.m                 957.50:  Tot Depth Attmp 
 TDDF.                      No:  Trip for DD 
 TDLG.m                 957.50:  Tot Depth Loggd 
 TFF .                      No:  Trip for Fail 
 TQAA.f-kp               15.00:  Torque Abs Avg 
 TQAN.f-kp               12.00:  Torque Abs Min 
 TQAX.f-kp               19.00:  Torque Abs Max 
 TRRT.°/30m              -3.40:  Turn Rotating 
 MRT .                  EWR-M5:  Maximum Recorded Temperature 
 TTMX.degC              100.00:  Max Tool Temp 
 VS01.                90639251:  Virtual Str1 SN 
 VS02.                90634715:  Virtual Str2 SN 
 VS03.                90652479:  Virtual Str3 SN 
 VS04.                90642262:  Virtual Str4 SN 
 WBMN.klb                 0.00:  WOB Min 
 WITN.           Murad Guliyev:  Customer Rep 
 WITN.          Yashar Gaziyev:  Customer Rep 2 
 WOBA.klb                 9.00:  WOB Avg 
 WOBX.klb                12.00:  WOB Max 
 YP  .lhf2               30.00:  Yield Point 
~Curve Information Block
#MNEM.UNIT                 API CODE     Curve Description
#---------               -----------    ---------------------------
 TIME.HHMMSS            00 000 000 000:  GT Time & Date
 GTDEPTH.m              00 000 000 000:  GT Depth
 GTPQH.psia             00 000 000 000:  GT HR Quartz Pressure
 GTTQ.degC              00 000 000 000:  GT Quartz Temperature
 GTTN.NONE              00 000 000 000:  GT Test Number
 GTET.sec               00 000 000 000:  GT Elapsed Test Time
 GTTVD.m                00 000 000 000:  GT True Vertical Depth
#Other Information
#
#WARRANTY: Halliburton will use its best efforts to furnish customers with 
#accurate information and interpretations that are part of, and incident to, the services 
#provided.  However, Halliburton cannot and does not warrant the accuracy 
#or correctness of such information and interpretations.  Under no circumstances should any 
#such information or interpretation be relied upon as the sole basis for any drilling, 
#completion, production, or financial decision or any procedure involving any risk to the 
#safety of any drilling venture, drilling rig or its crew or any other third party.  The 
#Customer has full responsibility for all drilling, completion and production operation.  
#Halliburton makes no representations or warranties, either expressed or 
#implied, including, but not limited to, the implied warranties of merchantability or fitness 
#for a particular purpose, with respect to the services rendered.  In no event will 
#Halliburton be liable for failure to obtain any particular results or for 
#any damages, including, but not limited to, indirect, special or consequential damages, 
#resulting from the use of any information or interpretation provided by Halliburton.
#
~A           TIME           GTDEPTH  GTPQH  GTTQ  GTTN   GTET   GTTVD  
# ...
   11:36:04.574.27-Aug-2021 4925.00 7829.21 85.58 10.00 384.34 3271.33
   11:36:04.774.27-Aug-2021 4925.00 7830.00 85.58 10.00 384.54 3271.33
   11:36:04.974.27-Aug-2021 4925.00 7830.09 85.58 10.00 384.74 3271.33
   11:36:05.174.27-Aug-2021 4925.00 7829.81 85.58 10.00 384.94 3271.33
   11:36:05.374.27-Aug-2021 4925.00 7829.72 85.58 10.00 385.14 3271.33
   11:36:05.575.27-Aug-2021 4925.00 7829.72 85.58 10.00 385.34 3271.33
   11:36:05.775.27-Aug-2021 4925.00 7829.28 85.58 10.00 385.54 3271.33
   11:36:05.975.27-Aug-2021 4925.00 7833.71 85.59 10.00 385.74 3271.33
   11:36:06.175.27-Aug-2021 4925.00 7829.42 85.59 10.00 385.94 3271.33
   11:36:06.375.27-Aug-2021 4925.00 7830.81 85.59 10.00 386.14 3271.33
   11:36:06.575.27-Aug-2021 4925.00 7830.81 85.59 10.00 386.34 3271.33
   11:36:06.775.27-Aug-2021 4925.00 7829.23 85.59 10.00 386.54 3271.33
   11:36:06.975.27-Aug-2021 4925.00 7829.35 85.59 10.00 386.74 3271.33
   11:36:07.175.27-Aug-2021 4925.00 7833.33 85.59 10.00 386.94 3271.33
   11:36:07.375.27-Aug-2021 4925.00 7828.72 85.59 10.00 387.14 3271.33
   11:36:07.575.27-Aug-2021 4925.00 7828.72 85.59 10.00 387.34 3271.33
   11:36:07.775.27-Aug-2021 4925.00 7829.54 85.59 10.00 387.54 3271.33
   11:36:07.975.27-Aug-2021 4925.00 7835.95 85.59 10.00 387.74 3271.33
   11:36:08.175.27-Aug-2021 4925.00 7827.29 85.59 10.00 387.94 3271.33
   11:36:08.375.27-Aug-2021 4925.00 7831.40 85.59 10.00 388.14 3271.33
   11:36:08.576.27-Aug-2021 4925.00 7831.40 85.59 10.00 388.34 3271.33
   11:36:08.776.27-Aug-2021 4925.00 7829.36 85.59 10.00 388.54 3271.33
   11:36:08.976.27-Aug-2021 4925.00 7833.49 85.59 10.00 388.74 3271.33
   11:36:09.176.27-Aug-2021 4925.00 7828.97 85.59 10.00 388.94 3271.33
   11:36:09.376.27-Aug-2021 4925.00 7830.85 85.59 10.00 389.14 3271.33
   11:36:09.576.27-Aug-2021 4925.00 7830.85 85.59 10.00 389.34 3271.33
   11:36:09.776.27-Aug-2021 4925.00 7829.14 85.59 10.00 389.54 3271.33
   11:36:09.976.27-Aug-2021 4925.00 7829.77 85.59 10.00 389.74 3271.33
   11:36:10.176.27-Aug-2021 4925.00 7829.67 85.59 10.00 389.94 3271.33
   11:36:10.376.27-Aug-2021 4925.00 7829.49 85.59 10.00 390.14 3271.33
   11:36:10.576.27-Aug-2021 4925.00 7829.49 85.59 10.00 390.34 3271.33
   11:36:10.776.27-Aug-2021 4925.00 7829.57 85.59 10.00 390.54 3271.33
   11:36:10.976.27-Aug-2021 4925.00 7830.00 85.59 10.00 390.74 3271.33
   11:36:11.176.27-Aug-2021 4925.00 7830.05 85.59 10.00 390.94 3271.33
   11:36:11.377.27-Aug-2021 4925.00 7830.02 85.59 10.00 391.14 3271.33
   11:36:11.577.27-Aug-2021 4925.00 7830.02 85.59 10.00 391.34 3271.33
   11:36:11.777.27-Aug-2021 4925.00 7829.65 85.59 10.00 391.54 3271.33
   11:36:11.977.27-Aug-2021 4925.00 7829.40 85.59 10.00 391.74 3271.33
   11:36:12.177.27-Aug-2021 4925.00 7835.89 85.59 10.00 391.94 3271.33
   11:36:12.377.27-Aug-2021 4925.00 7826.83 85.59 10.00 392.14 3271.33
   11:36:12.577.27-Aug-2021 4925.00 7826.83 85.59 10.00 392.34 3271.33
   11:36:12.777.27-Aug-2021 4925.00 7830.16 85.59 10.00 392.54 3271.33
   11:36:12.977.27-Aug-2021 4925.00 7829.67 85.59 10.00 392.74 3271.33
   11:36:13.177.27-Aug-2021 4925.00 7829.78 85.59 10.00 392.94 3271.33
   11:36:13.377.27-Aug-2021 4925.00 7829.32 85.59 10.00 393.14 3271.33
   11:36:13.577.27-Aug-2021 4925.00 7829.32 85.59 10.00 393.34 3271.33
   11:36:13.777.27-Aug-2021 4925.00 7829.54 85.59 10.00 393.54 3271.33
   11:36:13.977.27-Aug-2021 4925.00 7829.75 85.59 10.00 393.74 3271.33
   11:36:14.178.27-Aug-2021 4925.00 7830.41 85.59 10.00 393.94 3271.33
   11:36:14.378.27-Aug-2021 4925.00 7830.66 85.59 10.00 394.14 3271.33
   11:36:14.578.27-Aug-2021 4925.00 7830.66 85.59 10.00 394.34 3271.33
   11:36:14.778.27-Aug-2021 4925.00 7830.71 85.59 10.00 394.54 3271.33
   11:36:14.978.27-Aug-2021 4925.00 7830.65 85.59 10.00 394.74 3271.33
   11:36:15.178.27-Aug-2021 4925.00 7830.35 85.59 10.00 394.94 3271.33
   11:36:15.378.27-Aug-2021 4925.00 7830.20 85.59 10.00 395.14 3271.33
   11:36:15.578.27-Aug-2021 4925.00 7830.20 85.59 10.00 395.34 3271.33
   11:36:15.778.27-Aug-2021 4925.00 7827.20 85.59 10.00 395.54 3271.33
   11:36:15.978.27-Aug-2021 4925.00 7831.54 85.59 10.00 395.74 3271.33
   11:36:16.178.27-Aug-2021 4925.00 7830.08 85.58 10.00 395.94 3271.33
   11:36:16.378.27-Aug-2021 4925.00 7829.82 85.58 10.00 396.14 3271.33
   11:36:16.578.27-Aug-2021 4925.00 7829.82 85.58 10.00 396.34 3271.33
   11:36:16.778.27-Aug-2021 4925.00 7832.71 85.58 10.00 396.54 3271.33
   11:36:16.979.27-Aug-2021 4925.00 7831.18 85.58 10.00 396.74 3271.33
   11:36:17.179.27-Aug-2021 4925.00 7830.22 85.58 10.00 396.94 3271.33
   11:36:17.379.27-Aug-2021 4925.00 7829.84 85.58 10.00 397.14 3271.33
   11:36:17.579.27-Aug-2021 4925.00 7829.84 85.58 10.00 397.34 3271.33
   11:36:17.779.27-Aug-2021 4925.00 7834.76 85.58 10.00 397.54 3271.33
   11:36:17.979.27-Aug-2021 4925.00 7830.25 85.58 10.00 397.74 3271.33
   11:36:18.179.27-Aug-2021 4925.00 7830.96 85.58 10.00 397.94 3271.33
   11:36:18.379.27-Aug-2021 4925.00 7829.98 85.58 10.00 398.14 3271.33
   11:36:18.579.27-Aug-2021 4925.00 7829.98 85.58 10.00 398.34 3271.33
   11:36:18.779.27-Aug-2021 4925.00 7833.46 85.58 10.00 398.54 3271.33
   11:36:18.979.27-Aug-2021 4925.00 7831.77 85.58 10.00 398.74 3271.33
   11:36:19.179.27-Aug-2021 4925.00 7830.15 85.58 10.00 398.94 3271.33
   11:36:19.379.27-Aug-2021 4925.00 7829.81 85.58 10.00 399.14 3271.33
   11:36:19.579.27-Aug-2021 4925.00 7829.81 85.58 10.00 399.34 3271.33
   11:36:19.780.27-Aug-2021 4925.00 7830.01 85.58 10.00 399.54 3271.33
   11:36:19.980.27-Aug-2021 4925.00 7830.47 85.58 10.00 399.74 3271.33
   11:36:20.180.27-Aug-2021 4925.00 7829.85 85.58 10.00 399.94 3271.33
   11:36:20.380.27-Aug-2021 4925.00 7830.20 85.58 10.00 400.14 3271.33
   11:36:20.580.27-Aug-2021 4925.00 7830.20 85.58 10.00 400.34 3271.33
   11:36:20.780.27-Aug-2021 4925.00 7830.63 85.58 10.00 400.54 3271.33
   11:36:20.980.27-Aug-2021 4925.00 7830.89 85.58 10.00 400.74 3271.33
   11:36:21.180.27-Aug-2021 4925.00 7830.67 85.58 10.00 400.94 3271.33
   11:36:21.380.27-Aug-2021 4925.00 7830.58 85.58 10.00 401.14 3271.33
   11:36:21.580.27-Aug-2021 4925.00 7830.58 85.58 10.00 401.34 3271.33
   11:36:21.780.27-Aug-2021 4925.00 7830.15 85.58 10.00 401.54 3271.33
   11:36:21.980.27-Aug-2021 4925.00 7834.21 85.58 10.00 401.74 3271.33
   11:36:22.180.27-Aug-2021 4925.00 7829.82 85.58 10.00 401.94 3271.33
   11:36:22.380.27-Aug-2021 4925.00 7831.47 85.58 10.00 402.14 3271.33
   11:36:22.581.27-Aug-2021 4925.00 7831.47 85.58 10.00 402.34 3271.33
   11:36:22.781.27-Aug-2021 4925.00 7830.08 85.58 10.00 402.54 3271.33
   11:36:22.981.27-Aug-2021 4925.00 7829.78 85.58 10.00 402.74 3271.33
   11:36:23.181.27-Aug-2021 4925.00 7829.66 85.58 10.00 402.94 3271.33
   11:36:23.381.27-Aug-2021 4925.00 7829.32 85.58 10.00 403.14 3271.33
   11:36:23.581.27-Aug-2021 4925.00 7829.32 85.58 10.00 403.34 3271.33
   11:36:23.781.27-Aug-2021 4925.00 7829.73 85.58 10.00 403.54 3271.33
   11:36:23.981.27-Aug-2021 4925.00 7830.50 85.57 10.00 403.74 3271.33
   11:36:24.181.27-Aug-2021 4925.00 7830.77 85.57 10.00 403.94 3271.33
   11:36:24.381.27-Aug-2021 4925.00 7830.90 85.57 10.00 404.14 3271.33
   11:36:24.581.27-Aug-2021 4925.00 7830.90 85.57 10.00 404.34 3271.33
   11:36:24.781.27-Aug-2021 4925.00 7830.57 85.57 10.00 404.54 3271.33
   11:36:24.981.27-Aug-2021 4925.00 7830.45 85.57 10.00 404.74 3271.33
   11:36:25.181.27-Aug-2021 4925.00 7830.34 85.57 10.00 404.94 3271.33
   11:36:25.382.27-Aug-2021 4925.00 7834.46 85.57 10.00 405.14 3271.33
   11:36:25.582.27-Aug-2021 4925.00 7834.46 85.57 10.00 405.34 3271.33
   11:36:25.782.27-Aug-2021 4925.00 7831.31 85.57 10.00 405.54 3271.33
   11:36:25.982.27-Aug-2021 4925.00 7830.05 85.57 10.00 405.74 3271.33
   11:36:26.182.27-Aug-2021 4925.00 7829.68 85.57 10.00 405.94 3271.33
   11:36:26.382.27-Aug-2021 4925.00 7829.89 85.57 10.00 406.14 3271.33
   11:36:26.582.27-Aug-2021 4925.00 7829.89 85.57 10.00 406.34 3271.33
   11:36:26.782.27-Aug-2021 4925.00 7831.23 85.57 10.00 406.54 3271.33
   11:36:26.982.27-Aug-2021 4925.00 7830.53 85.57 10.00 406.74 3271.33
