~Version Information
 VERS.                  2.0:   CWLS log ASCII Standard -VERSION 2.0
 WRAP.                   NO:   One line per depth step
~Well Information Block
#MNEM.UNIT     VALUE/NAME     DESCRIPTION
#---------     -----------    ---------------------------
 STRT.S             15:52:10 27-Aug-21: START TIME 15:52:10 27-Aug-21
 STOP.S             15:59:26 27-Aug-21: STOP TIME  15:59:26 27-Aug-21
 STEP.S                   0.00: STEP TIME
 NULL.                 -999.25: NULL VALUE
 DFWT.                        :  DIST FWL TEXT
 DFST.                        :  DIST FSL TEXT
 DMF .             Drill Floor:  DRILL MEAS FROM
 STIM.      20.00.00 17-Aug-21:  START TIME
 DATE.      19.00.00 29-Aug-21:  END TIME
 SPUD.               15-Aug-21:  SPUD DATE
 NREF.                    Grid:  NORTH REFERENCE
 HPTY.       Minimum Curvature:  HOLE POS TYPE
 DMOD.             Drill Model:  DRILL MOD DESC
 SVYD.                  Survey:  SURVEY DESC
 ILTD.               Lithology:  INTERP LTH DESC
 FTOP.          Formation Tops:  FORM TOPS DESC
 RIG .              East Azeri:  RIG NAME
 PDAT.          Mean Sea Level:  PERMANENT DATUM
 FLD .                     ACG:  FIELD NAME
 SON .        AZ-XX-0907180857:  JOB NUMBER
 CTRY.              Azerbaijan:  COUNTRY NAME
 WELL.                    D23x:  WELL NAME
 SRVC.     Turan Drilling and Engineering:  CONTRACTOR
 COMP.     BP Exploration (Caspian Sea) Ltd.:  COMPANY
 UWI .            /AZE00000214:  UNIQUE WELL IDENTIFIER
 API .            /AZE00000214:  API NUMBER
 MDS .        Operator Entered:  MAG DATA SOURCE
 BASE.              Azerbaijan:  LOGGING EQUIPMENT BASE LOCATION
 REGN.                   EESSA:  REGION
 PROV.                    Baku:  PROVINCE
 STAT.                    Baku:  STATE NAME
 MWDS.                    Baku:  MWD SHOP
 DOE .                     N/A:  DOE NUMBER
 DCON.         Sperry Drilling:  DIRECTNL CONTR
 UNIT.                     N/A:  LOGGING EQUIPMENT ID
 WTYP.                Deviated:  WELL TYPE
 CNTY.                        :  COUNTY
 LOC .                        :  LOCATION
 LMF .             Drill Floor:  LOG MEASURED FROM
 TVDS.m                  43.60:  TVDSS CORRECTN
 LATI.deg                40.02:  LATITUDE
 LONG.deg                51.45:  LONGITUDE
 WHNS.m                  -7.04:  WELL HEAD N/S
 WHEW.m                  -0.67:  WELL HEAD E/W
 UTMX.m              538762.90:  UTM X
 UTMY.m             4431871.34:  UTM Y
 DFWL.m                   0.00:  DISTANCE FWL
 DFSL.m                   0.00:  DISTANCE FSL
 SDEP.m                4127.00:  START DEPTH
 TDD .m                5084.50:  TOTAL DEPTH (DRILLER)
 VSDR.deg               140.47:  VERT SEC DIRECT
 GVFD.g                   1.00:  GRAVITY FIELD
 MFLD.nT              50362.00:  MAGNETIC FIELD
 MDIP.deg                59.48:  MAGNETIC DIP
 MDEC.deg                 6.47:  MAGNETIC DECL
 GRDC.deg                 0.31:  GRID CORRECTION
 AZTC.deg                 6.16:  AZM TOTAL CORR
 EPD .m                   0.00:  ELEVATION
 EGL .m                   0.00:  GROUND ELEVATION
 WDMS.m                 151.80:  WD ELEV
 APD .m                  43.60:  DEPTH ABOVE PD
 DEP .m                4092.57:  DEPTH
 AGAP.m                  43.60:  AIR GAP
 VSEW.m                  -0.67:  VERT SEC E/W
 VSNS.m                  -7.04:  VERT SEC N/S
 EKB .m                  43.60:  KB ELEVATION
 EDF .m                  43.60:  DF ELEVATION
 TDL .m                 957.50:  TOTAL DEPTH (LOGGER)
 VSC .                       0:  VS TO CLOSURE
 MAGU.                 1851413:  MAGUTM CHECKSUM
~Parameter Information Block
#MNEM.UNIT       Value        Description
#---------     -----------    ---------------------------
 AV  .mps                 1.50:  Ann Velocity 
 AVMX.mps                 2.00:  Max Ann Veloc 
 AZIF.deg               184.66:  Azm, Final 
 BHAT.        Rotary Steerable:  BHA Type 
 BREV.rev               300.00:  Rev Bit Total 
 BROT.°/30m              -0.50:  Build Rotating 
 BS  .in                  8.50:  Bit Size 
 BSZ .in                  8.50:  Bit Size 
 BTPL.psig              370.00:  Bit Press Loss 
 CABU.                      No:  Customer Abuse 
 CGEO.      Behruz Shahbaliyev:  Customer Geo 
 COMM.                     Ìu:  Run Comments 1 
 TCS .hr                140.08:  Time Ciculation Ended 
 CV  .mps                 3.00:  Crit Velocity 
 CVMX.mps                 3.20:  Max Crit Veloc 
 DD1 .            Musa Ahmadov:  Direct Drillr 1 
 DD2 .           Hamid Ahmadov:  Direct Drillr 2 
 DDSV.               Geo-Pilot:  DD Service 
 DEFF.%                  98.40:  % Det Eff 
 DLRX.°/30m               3.40:  Dogleg Rot Max 
 DLSO.°/30m               1.45:  Dogleg Oriented 
 DLSX.°/30m               3.40:  Dogleg Str Max 
 DRET.      18.40.00 29-Aug-21:  Drill End Time 
 DRST.      21.00.00 20-Aug-21:  Drill Start Tim 
 DTIM.hr                 69.47:  Time Drilling 
 EDEP.m                5084.50:  End Depth 
 ENG1.      Artemiy Matviyanov:  Engineer 1 
 ENG2.         Almaz Almadatov:  Engineer 2 
 ETIM.      18.40.00 29-Aug-21:  End Time 
 FLOI.gpm               500.00:  Flow In 
 FLON.gpm               400.00:  Flow In Min 
 FLOS.cptm                0.00:  Fluid Loss 
 FLOX.gpm               500.00:  Flow In Max 
 DFT .        Mineral Oil Base:  Mud Type 
 HFLO.                      No:  High Flow 
 HPRE.                      No:  High Pressure 
 HTEM.                      No:  High Temp 
 HYDO.m                   1.80:  Hydro Offset 
 IFIN.deg                25.62:  Inc, Final 
 IMAX.deg                48.69:  Inc Max 
 IMIN.deg                24.01:  Inc Min 
 IMND.m                4962.57:  Inc Min Depth 
 IMXD.m                4119.01:  Inc Max Depth 
 JARR.                      No:  Jarring 
 LETM.      18.40.00 29-Aug-21:  Log End Time 
 LOST.hr                     0:  Lost Rig Time 
 LSTM.      21.00.00 20-Aug-21:  Log Start Time 
 MDCL.ppm             41500.00:  Mud Chlorides 
 MDES.     Inversion Oil/Synthetic:  Mud Desc 
 DFD .sg                  1.56:  Mud Density 
 MDMN.sg                  1.56:  Dens Mud Min 
 MDMX.sg                  1.56:  Dens Mud Max 
 MOIL.                      70:  Run Mud Oil % 
 MOWR.                   70:30:  Run Mud OWR 
 MSND.                     0.2:  Run Mud Sand % 
 MSOL.                    23.3:  Run Mud Solids% 
 DFV .spqt               78.00:  Mud Viscosity 
 MWOD.in                  6.75:  MWD Tool OD 
 MWSI.                      No:  Serv Intrp, MWD 
 OTIM.hr                218.30:  Time Operating 
 PCON.           Look Like New:  Pad Condition 
 PMAX.psia            11015.30:  Press Op, Max 
 PV  .cP                 38.00:  Mud PV 
 RUN .                     300:  Run Number 
 ROPA.m/hr               15.00:  ROP Avg 
 ROPN.m/hr                9.00:  ROP Min 
 ROPX.m/hr               17.00:  ROP Max 
 RPMA.rpm               120.00:  RPM Surface Avg 
 RPMN.rpm                90.00:  RPM Surface Min 
 RPMX.rpm               140.00:  RPM Surface Max 
 RRUN.                     300:  Rig Run Number 
 RTIM.hr                 31.53:  Time Reaming 
 SAZI.deg               331.64:  Azm, Start 
 SDEP.m                4127.00:  Start Depth 
 SIDD.                      No:  Serv Intrp, DD 
 SINC.deg                48.43:  Inc, Start 
 SPPA.psig             5830.00:  SPP Avg 
 SPPN.psig             5600.00:  SPP Min 
 SPPX.psig             5900.00:  SPP Max 
 STIM.      21.00.00 20-Aug-21:  Start Time 
 SVCS.                 DD, MWD:  Services 
 SVER.                    9.20:  Sperry Version 
 TDAT.m                 957.50:  Tot Depth Attmp 
 TDDF.                      No:  Trip for DD 
 TDLG.m                 957.50:  Tot Depth Loggd 
 TFF .                      No:  Trip for Fail 
 TQAA.f-kp               15.00:  Torque Abs Avg 
 TQAN.f-kp               12.00:  Torque Abs Min 
 TQAX.f-kp               19.00:  Torque Abs Max 
 TRRT.°/30m              -3.40:  Turn Rotating 
 MRT .                  EWR-M5:  Maximum Recorded Temperature 
 TTMX.degC              100.00:  Max Tool Temp 
 VS01.                90639251:  Virtual Str1 SN 
 VS02.                90634715:  Virtual Str2 SN 
 VS03.                90652479:  Virtual Str3 SN 
 VS04.                90642262:  Virtual Str4 SN 
 WBMN.klb                 0.00:  WOB Min 
 WITN.           Murad Guliyev:  Customer Rep 
 WITN.          Yashar Gaziyev:  Customer Rep 2 
 WOBA.klb                 9.00:  WOB Avg 
 WOBX.klb                12.00:  WOB Max 
 YP  .lhf2               30.00:  Yield Point 
~Curve Information Block
#MNEM.UNIT                 API CODE     Curve Description
#---------               -----------    ---------------------------
 TIME.HHMMSS            00 000 000 000:  GT Time & Date
 GTDEPTH.m              00 000 000 000:  GT Depth
 GTPQH.psia             00 000 000 000:  GT HR Quartz Pressure
 GTTQ.degC              00 000 000 000:  GT Quartz Temperature
 GTTN.NONE              00 000 000 000:  GT Test Number
 GTET.sec               00 000 000 000:  GT Elapsed Test Time
 GTTVD.m                00 000 000 000:  GT True Vertical Depth
#Other Information
#
#WARRANTY: Halliburton will use its best efforts to furnish customers with 
#accurate information and interpretations that are part of, and incident to, the services 
#provided.  However, Halliburton cannot and does not warrant the accuracy 
#or correctness of such information and interpretations.  Under no circumstances should any 
#such information or interpretation be relied upon as the sole basis for any drilling, 
#completion, production, or financial decision or any procedure involving any risk to the 
#safety of any drilling venture, drilling rig or its crew or any other third party.  The 
#Customer has full responsibility for all drilling, completion and production operation.  
#Halliburton makes no representations or warranties, either expressed or 
#implied, including, but not limited to, the implied warranties of merchantability or fitness 
#for a particular purpose, with respect to the services rendered.  In no event will 
#Halliburton be liable for failure to obtain any particular results or for 
#any damages, including, but not limited to, indirect, special or consequential damages, 
#resulting from the use of any information or interpretation provided by Halliburton.
#
~A           TIME           GTDEPTH  GTPQH  GTTQ  GTTN   GTET   GTTVD  
# ...
   15:54:03.951.27-Aug-2021 4817.00 5229.79 83.63 16.00 113.18 3173.43
   15:54:04.151.27-Aug-2021 4817.00 5229.79 83.63 16.00 113.38 3173.43
   15:54:04.352.27-Aug-2021 4817.00 5229.82 83.62 16.00 113.58 3173.43
   15:54:04.552.27-Aug-2021 4817.00 5229.83 83.63 16.00 113.78 3173.43
   15:54:04.752.27-Aug-2021 4817.00 5229.83 83.62 16.00 113.98 3173.43
   15:54:04.953.27-Aug-2021 4817.00 5229.85 83.62 16.00 114.18 3173.43
   15:54:05.153.27-Aug-2021 4817.00 5229.85 83.62 16.00 114.38 3173.43
   15:54:05.353.27-Aug-2021 4817.00 5229.84 83.62 16.00 114.58 3173.43
   15:54:05.553.27-Aug-2021 4817.00 5229.86 83.62 16.00 114.78 3173.43
   15:54:05.754.27-Aug-2021 4817.00 5229.86 83.62 16.00 114.98 3173.43
   15:54:05.954.27-Aug-2021 4817.00 5229.95 83.62 16.00 115.18 3173.43
   15:54:06.154.27-Aug-2021 4817.00 5229.95 83.62 16.00 115.38 3173.43
   15:54:06.355.27-Aug-2021 4817.00 5229.83 83.62 16.00 115.58 3173.43
   15:54:06.555.27-Aug-2021 4817.00 5229.81 83.62 16.00 115.78 3173.43
   15:54:06.755.27-Aug-2021 4817.00 5229.80 83.62 16.00 115.98 3173.43
   15:54:06.956.27-Aug-2021 4817.00 5229.82 83.62 16.00 116.18 3173.43
   15:54:07.156.27-Aug-2021 4817.00 5229.82 83.62 16.00 116.38 3173.43
   15:54:07.356.27-Aug-2021 4817.00 5229.83 83.62 16.00 116.59 3173.43
   15:54:07.557.27-Aug-2021 4817.00 5229.84 83.62 16.00 116.79 3173.43
   15:54:07.757.27-Aug-2021 4817.00 5229.84 83.62 16.00 116.99 3173.43
   15:54:07.957.27-Aug-2021 4817.00 5229.85 83.62 16.00 117.19 3173.43
   15:54:08.158.27-Aug-2021 4817.00 5229.85 83.62 16.00 117.39 3173.43
   15:54:08.358.27-Aug-2021 4817.00 5229.85 83.62 16.00 117.59 3173.43
   15:54:08.558.27-Aug-2021 4817.00 5229.86 83.62 16.00 117.79 3173.43
   15:54:08.759.27-Aug-2021 4817.00 5229.86 83.62 16.00 117.99 3173.43
   15:54:08.959.27-Aug-2021 4817.00 5229.86 83.62 16.00 118.19 3173.43
   15:54:09.159.27-Aug-2021 4817.00 5229.86 83.62 16.00 118.39 3173.43
   15:54:09.360.27-Aug-2021 4817.00 5229.95 83.62 16.00 118.59 3173.43
   15:54:09.560.27-Aug-2021 4817.00 5229.82 83.62 16.00 118.79 3173.43
   15:54:09.760.27-Aug-2021 4817.00 5229.81 83.62 16.00 118.99 3173.43
   15:54:09.960.27-Aug-2021 4817.00 5229.80 83.62 16.00 119.19 3173.43
   15:54:10.161.27-Aug-2021 4817.00 5229.80 83.62 16.00 119.39 3173.43
   15:54:10.361.27-Aug-2021 4817.00 5229.94 83.62 16.00 119.59 3173.43
   15:54:10.561.27-Aug-2021 4817.00 5229.75 83.62 16.00 119.79 3173.43
   15:54:10.762.27-Aug-2021 4817.00 5229.84 83.62 16.00 119.99 3173.43
   15:54:10.962.27-Aug-2021 4817.00 5229.79 83.62 16.00 120.19 3173.43
   15:54:11.162.27-Aug-2021 4817.00 5229.79 83.62 16.00 120.39 3173.43
   15:54:11.363.27-Aug-2021 4817.00 5229.83 83.62 16.00 120.59 3173.43
   15:54:11.563.27-Aug-2021 4817.00 5230.11 83.62 16.00 120.79 3173.43
   15:54:11.763.27-Aug-2021 4817.00 5229.62 83.62 16.00 120.99 3173.43
   15:54:11.964.27-Aug-2021 4817.00 5229.76 83.62 16.00 121.19 3173.43
   15:54:12.164.27-Aug-2021 4817.00 5229.76 83.62 16.00 121.39 3173.43
   15:54:12.364.27-Aug-2021 4817.00 5229.79 83.62 16.00 121.59 3173.43
   15:54:12.565.27-Aug-2021 4817.00 5229.71 83.62 16.00 121.79 3173.43
   15:54:12.765.27-Aug-2021 4817.00 5230.00 83.62 16.00 121.99 3173.43
   15:54:12.965.27-Aug-2021 4817.00 5229.81 83.62 16.00 122.19 3173.43
   15:54:13.166.27-Aug-2021 4817.00 5229.81 83.62 16.00 122.39 3173.43
   15:54:13.366.27-Aug-2021 4817.00 5229.77 83.62 16.00 122.59 3173.43
   15:54:13.566.27-Aug-2021 4817.00 5229.83 83.62 16.00 122.80 3173.43
   15:54:13.767.27-Aug-2021 4817.00 5229.79 83.62 16.00 123.00 3173.43
   15:54:13.967.27-Aug-2021 4817.00 5229.82 83.62 16.00 123.20 3173.43
   15:54:14.167.27-Aug-2021 4817.00 5229.82 83.62 16.00 123.40 3173.43
   15:54:14.368.27-Aug-2021 4817.00 5229.82 83.62 16.00 123.60 3173.43
   15:54:14.568.27-Aug-2021 4817.00 5229.83 83.62 16.00 123.80 3173.43
   15:54:14.768.27-Aug-2021 4817.00 5229.82 83.62 16.00 124.00 3173.43
   15:54:14.968.27-Aug-2021 4817.00 5229.83 83.62 16.00 124.20 3173.43
   15:54:15.169.27-Aug-2021 4817.00 5229.83 83.62 16.00 124.40 3173.43
   15:54:15.369.27-Aug-2021 4817.00 5229.83 83.62 16.00 124.60 3173.43
   15:54:15.569.27-Aug-2021 4817.00 5230.12 83.62 16.00 124.80 3173.43
   15:54:15.770.27-Aug-2021 4817.00 5229.61 83.62 16.00 125.00 3173.43
   15:54:15.970.27-Aug-2021 4817.00 5229.71 83.62 16.00 125.20 3173.43
   15:54:16.170.27-Aug-2021 4817.00 5229.86 83.62 16.00 125.40 3173.43
   15:54:16.371.27-Aug-2021 4817.00 5229.86 83.62 16.00 125.60 3173.43
   15:54:16.571.27-Aug-2021 4817.00 5229.80 83.62 16.00 125.80 3173.43
   15:54:16.771.27-Aug-2021 4817.00 5229.79 83.62 16.00 126.00 3173.43
   15:54:16.972.27-Aug-2021 4817.00 5229.81 83.62 16.00 126.20 3173.43
   15:54:17.172.27-Aug-2021 4817.00 5229.81 83.62 16.00 126.40 3173.43
   15:54:17.372.27-Aug-2021 4817.00 5229.81 83.62 16.00 126.60 3173.43
   15:54:17.573.27-Aug-2021 4817.00 5229.82 83.62 16.00 126.80 3173.43
   15:54:17.773.27-Aug-2021 4817.00 5229.83 83.62 16.00 127.00 3173.43
   15:54:17.973.27-Aug-2021 4817.00 5229.82 83.62 16.00 127.20 3173.43
   15:54:18.174.27-Aug-2021 4817.00 5229.82 83.62 16.00 127.40 3173.43
   15:54:18.374.27-Aug-2021 4817.00 5229.82 83.62 16.00 127.60 3173.43
   15:54:18.574.27-Aug-2021 4817.00 5229.84 83.62 16.00 127.80 3173.43
   15:54:18.775.27-Aug-2021 4817.00 5229.83 83.62 16.00 128.00 3173.43
   15:54:18.975.27-Aug-2021 4817.00 5230.13 83.62 16.00 128.20 3173.43
   15:54:19.175.27-Aug-2021 4817.00 5230.13 83.62 16.00 128.40 3173.43
   15:54:19.375.27-Aug-2021 4817.00 5229.74 83.62 16.00 128.60 3173.43
   15:54:19.576.27-Aug-2021 4817.00 5229.87 83.62 16.00 128.80 3173.43
   15:54:19.776.27-Aug-2021 4817.00 5229.79 83.62 16.00 129.01 3173.43
   15:54:19.976.27-Aug-2021 4817.00 5230.07 83.62 16.00 129.21 3173.43
   15:54:20.177.27-Aug-2021 4817.00 5230.07 83.62 16.00 129.41 3173.43
   15:54:20.377.27-Aug-2021 4817.00 5229.74 83.62 16.00 129.61 3173.43
   15:54:20.577.27-Aug-2021 4817.00 5229.86 83.62 16.00 129.81 3173.43
   15:54:20.778.27-Aug-2021 4817.00 5229.78 83.62 16.00 130.01 3173.43
   15:54:20.978.27-Aug-2021 4817.00 5229.80 83.62 16.00 130.21 3173.43
   15:54:21.178.27-Aug-2021 4817.00 5229.80 83.62 16.00 130.41 3173.43
   15:54:21.379.27-Aug-2021 4817.00 5229.84 83.62 16.00 130.61 3173.43
   15:54:21.579.27-Aug-2021 4817.00 5229.76 83.62 16.00 130.81 3173.43
   15:54:21.779.27-Aug-2021 4817.00 5229.88 83.62 16.00 131.01 3173.43
   15:54:21.980.27-Aug-2021 4817.00 5229.75 83.62 16.00 131.21 3173.43
   15:54:22.180.27-Aug-2021 4817.00 5229.75 83.62 16.00 131.41 3173.43
   15:54:22.380.27-Aug-2021 4817.00 5229.66 83.62 16.00 131.61 3173.43
   15:54:22.581.27-Aug-2021 4817.00 5229.83 83.62 16.00 131.81 3173.43
   15:54:22.781.27-Aug-2021 4817.00 5229.75 83.62 16.00 132.01 3173.43
   15:54:22.981.27-Aug-2021 4817.00 5229.80 83.62 16.00 132.21 3173.43
   15:54:23.182.27-Aug-2021 4817.00 5229.80 83.62 16.00 132.41 3173.43
   15:54:23.382.27-Aug-2021 4817.00 5229.79 83.62 16.00 132.61 3173.43
   15:54:23.582.27-Aug-2021 4817.00 5229.81 83.62 16.00 132.81 3173.43
   15:54:23.782.27-Aug-2021 4817.00 5229.81 83.62 16.00 133.01 3173.43
   15:54:23.983.27-Aug-2021 4817.00 5229.81 83.62 16.00 133.21 3173.43
   15:54:24.183.27-Aug-2021 4817.00 5229.81 83.62 16.00 133.41 3173.43
   15:54:24.383.27-Aug-2021 4817.00 5229.82 83.62 16.00 133.61 3173.43
   15:54:24.584.27-Aug-2021 4817.00 5229.81 83.62 16.00 133.81 3173.43
   15:54:24.784.27-Aug-2021 4817.00 5229.83 83.62 16.00 134.01 3173.43
   15:54:24.984.27-Aug-2021 4817.00 5229.81 83.62 16.00 134.21 3173.43
   15:54:25.185.27-Aug-2021 4817.00 5229.81 83.62 16.00 134.41 3173.43
   15:54:25.385.27-Aug-2021 4817.00 5229.80 83.62 16.00 134.61 3173.43
   15:54:25.585.27-Aug-2021 4817.00 5229.79 83.62 16.00 134.81 3173.43
   15:54:25.786.27-Aug-2021 4817.00 5229.87 83.62 16.00 135.01 3173.43
   15:54:25.986.27-Aug-2021 4817.00 5229.76 83.62 16.00 135.21 3173.43
   15:54:26.186.27-Aug-2021 4817.00 5229.76 83.62 16.00 135.42 3173.43
   15:54:26.387.27-Aug-2021 4817.00 5229.79 83.62 16.00 135.62 3173.43
