~Version Information
 VERS.                  2.0:   CWLS log ASCII Standard -VERSION 2.0
 WRAP.                   NO:   One line per depth step
~Well Information Block
#MNEM.UNIT     VALUE/NAME     DESCRIPTION
#---------     -----------    ---------------------------
 STRT.S             16:56:36 27-Aug-21: START TIME 16:56:36 27-Aug-21
 STOP.S             17:03:52 27-Aug-21: STOP TIME  17:03:52 27-Aug-21
 STEP.S                   0.00: STEP TIME
 NULL.                 -999.25: NULL VALUE
 DFWT.                        :  DIST FWL TEXT
 DFST.                        :  DIST FSL TEXT
 DMF .             Drill Floor:  DRILL MEAS FROM
 STIM.      20.00.00 17-Aug-21:  START TIME
 DATE.      19.00.00 29-Aug-21:  END TIME
 SPUD.               15-Aug-21:  SPUD DATE
 NREF.                    Grid:  NORTH REFERENCE
 HPTY.       Minimum Curvature:  HOLE POS TYPE
 DMOD.             Drill Model:  DRILL MOD DESC
 SVYD.                  Survey:  SURVEY DESC
 ILTD.               Lithology:  INTERP LTH DESC
 FTOP.          Formation Tops:  FORM TOPS DESC
 RIG .              East Azeri:  RIG NAME
 PDAT.          Mean Sea Level:  PERMANENT DATUM
 FLD .                     ACG:  FIELD NAME
 SON .        AZ-XX-0907180857:  JOB NUMBER
 CTRY.              Azerbaijan:  COUNTRY NAME
 WELL.                    D23x:  WELL NAME
 SRVC.     Turan Drilling and Engineering:  CONTRACTOR
 COMP.     BP Exploration (Caspian Sea) Ltd.:  COMPANY
 UWI .            /AZE00000214:  UNIQUE WELL IDENTIFIER
 API .            /AZE00000214:  API NUMBER
 MDS .        Operator Entered:  MAG DATA SOURCE
 BASE.              Azerbaijan:  LOGGING EQUIPMENT BASE LOCATION
 REGN.                   EESSA:  REGION
 PROV.                    Baku:  PROVINCE
 STAT.                    Baku:  STATE NAME
 MWDS.                    Baku:  MWD SHOP
 DOE .                     N/A:  DOE NUMBER
 DCON.         Sperry Drilling:  DIRECTNL CONTR
 UNIT.                     N/A:  LOGGING EQUIPMENT ID
 WTYP.                Deviated:  WELL TYPE
 CNTY.                        :  COUNTY
 LOC .                        :  LOCATION
 LMF .             Drill Floor:  LOG MEASURED FROM
 TVDS.m                  43.60:  TVDSS CORRECTN
 LATI.deg                40.02:  LATITUDE
 LONG.deg                51.45:  LONGITUDE
 WHNS.m                  -7.04:  WELL HEAD N/S
 WHEW.m                  -0.67:  WELL HEAD E/W
 UTMX.m              538762.90:  UTM X
 UTMY.m             4431871.34:  UTM Y
 DFWL.m                   0.00:  DISTANCE FWL
 DFSL.m                   0.00:  DISTANCE FSL
 SDEP.m                4127.00:  START DEPTH
 TDD .m                5084.50:  TOTAL DEPTH (DRILLER)
 VSDR.deg               140.47:  VERT SEC DIRECT
 GVFD.g                   1.00:  GRAVITY FIELD
 MFLD.nT              50362.00:  MAGNETIC FIELD
 MDIP.deg                59.48:  MAGNETIC DIP
 MDEC.deg                 6.47:  MAGNETIC DECL
 GRDC.deg                 0.31:  GRID CORRECTION
 AZTC.deg                 6.16:  AZM TOTAL CORR
 EPD .m                   0.00:  ELEVATION
 EGL .m                   0.00:  GROUND ELEVATION
 WDMS.m                 151.80:  WD ELEV
 APD .m                  43.60:  DEPTH ABOVE PD
 DEP .m                4092.57:  DEPTH
 AGAP.m                  43.60:  AIR GAP
 VSEW.m                  -0.67:  VERT SEC E/W
 VSNS.m                  -7.04:  VERT SEC N/S
 EKB .m                  43.60:  KB ELEVATION
 EDF .m                  43.60:  DF ELEVATION
 TDL .m                 957.50:  TOTAL DEPTH (LOGGER)
 VSC .                       0:  VS TO CLOSURE
 MAGU.                 1851413:  MAGUTM CHECKSUM
~Parameter Information Block
#MNEM.UNIT       Value        Description
#---------     -----------    ---------------------------
 AV  .mps                 1.50:  Ann Velocity 
 AVMX.mps                 2.00:  Max Ann Veloc 
 AZIF.deg               184.66:  Azm, Final 
 BHAT.        Rotary Steerable:  BHA Type 
 BREV.rev               300.00:  Rev Bit Total 
 BROT.°/30m              -0.50:  Build Rotating 
 BS  .in                  8.50:  Bit Size 
 BSZ .in                  8.50:  Bit Size 
 BTPL.psig              370.00:  Bit Press Loss 
 CABU.                      No:  Customer Abuse 
 CGEO.      Behruz Shahbaliyev:  Customer Geo 
 COMM.                     T
k:  Run Comments 1 
 TCS .hr                140.08:  Time Ciculation Ended 
 CV  .mps                 3.00:  Crit Velocity 
 CVMX.mps                 3.20:  Max Crit Veloc 
 DD1 .            Musa Ahmadov:  Direct Drillr 1 
 DD2 .           Hamid Ahmadov:  Direct Drillr 2 
 DDSV.               Geo-Pilot:  DD Service 
 DEFF.%                  98.40:  % Det Eff 
 DLRX.°/30m               3.40:  Dogleg Rot Max 
 DLSO.°/30m               1.45:  Dogleg Oriented 
 DLSX.°/30m               3.40:  Dogleg Str Max 
 DRET.      18.40.00 29-Aug-21:  Drill End Time 
 DRST.      21.00.00 20-Aug-21:  Drill Start Tim 
 DTIM.hr                 69.47:  Time Drilling 
 EDEP.m                5084.50:  End Depth 
 ENG1.      Artemiy Matviyanov:  Engineer 1 
 ENG2.         Almaz Almadatov:  Engineer 2 
 ETIM.      18.40.00 29-Aug-21:  End Time 
 FLOI.gpm               500.00:  Flow In 
 FLON.gpm               400.00:  Flow In Min 
 FLOS.cptm                0.00:  Fluid Loss 
 FLOX.gpm               500.00:  Flow In Max 
 DFT .        Mineral Oil Base:  Mud Type 
 HFLO.                      No:  High Flow 
 HPRE.                      No:  High Pressure 
 HTEM.                      No:  High Temp 
 HYDO.m                   1.80:  Hydro Offset 
 IFIN.deg                25.62:  Inc, Final 
 IMAX.deg                48.69:  Inc Max 
 IMIN.deg                24.01:  Inc Min 
 IMND.m                4962.57:  Inc Min Depth 
 IMXD.m                4119.01:  Inc Max Depth 
 JARR.                      No:  Jarring 
 LETM.      18.40.00 29-Aug-21:  Log End Time 
 LOST.hr                     0:  Lost Rig Time 
 LSTM.      21.00.00 20-Aug-21:  Log Start Time 
 MDCL.ppm             41500.00:  Mud Chlorides 
 MDES.     Inversion Oil/Synthetic:  Mud Desc 
 DFD .sg                  1.56:  Mud Density 
 MDMN.sg                  1.56:  Dens Mud Min 
 MDMX.sg                  1.56:  Dens Mud Max 
 MOIL.                      70:  Run Mud Oil % 
 MOWR.                   70:30:  Run Mud OWR 
 MSND.                     0.2:  Run Mud Sand % 
 MSOL.                    23.3:  Run Mud Solids% 
 DFV .spqt               78.00:  Mud Viscosity 
 MWOD.in                  6.75:  MWD Tool OD 
 MWSI.                      No:  Serv Intrp, MWD 
 OTIM.hr                218.30:  Time Operating 
 PCON.           Look Like New:  Pad Condition 
 PMAX.psia            11015.30:  Press Op, Max 
 PV  .cP                 38.00:  Mud PV 
 RUN .                     300:  Run Number 
 ROPA.m/hr               15.00:  ROP Avg 
 ROPN.m/hr                9.00:  ROP Min 
 ROPX.m/hr               17.00:  ROP Max 
 RPMA.rpm               120.00:  RPM Surface Avg 
 RPMN.rpm                90.00:  RPM Surface Min 
 RPMX.rpm               140.00:  RPM Surface Max 
 RRUN.                     300:  Rig Run Number 
 RTIM.hr                 31.53:  Time Reaming 
 SAZI.deg               331.64:  Azm, Start 
 SDEP.m                4127.00:  Start Depth 
 SIDD.                      No:  Serv Intrp, DD 
 SINC.deg                48.43:  Inc, Start 
 SPPA.psig             5830.00:  SPP Avg 
 SPPN.psig             5600.00:  SPP Min 
 SPPX.psig             5900.00:  SPP Max 
 STIM.      21.00.00 20-Aug-21:  Start Time 
 SVCS.                 DD, MWD:  Services 
 SVER.                    9.20:  Sperry Version 
 TDAT.m                 957.50:  Tot Depth Attmp 
 TDDF.                      No:  Trip for DD 
 TDLG.m                 957.50:  Tot Depth Loggd 
 TFF .                      No:  Trip for Fail 
 TQAA.f-kp               15.00:  Torque Abs Avg 
 TQAN.f-kp               12.00:  Torque Abs Min 
 TQAX.f-kp               19.00:  Torque Abs Max 
 TRRT.°/30m              -3.40:  Turn Rotating 
 MRT .                  EWR-M5:  Maximum Recorded Temperature 
 TTMX.degC              100.00:  Max Tool Temp 
 VS01.                90639251:  Virtual Str1 SN 
 VS02.                90634715:  Virtual Str2 SN 
 VS03.                90652479:  Virtual Str3 SN 
 VS04.                90642262:  Virtual Str4 SN 
 WBMN.klb                 0.00:  WOB Min 
 WITN.           Murad Guliyev:  Customer Rep 
 WITN.          Yashar Gaziyev:  Customer Rep 2 
 WOBA.klb                 9.00:  WOB Avg 
 WOBX.klb                12.00:  WOB Max 
 YP  .lhf2               30.00:  Yield Point 
~Curve Information Block
#MNEM.UNIT                 API CODE     Curve Description
#---------               -----------    ---------------------------
 TIME.HHMMSS            00 000 000 000:  GT Time & Date
 GTDEPTH.m              00 000 000 000:  GT Depth
 GTPQH.psia             00 000 000 000:  GT HR Quartz Pressure
 GTTQ.degC              00 000 000 000:  GT Quartz Temperature
 GTTN.NONE              00 000 000 000:  GT Test Number
 GTET.sec               00 000 000 000:  GT Elapsed Test Time
 GTTVD.m                00 000 000 000:  GT True Vertical Depth
#Other Information
#
#WARRANTY: Halliburton will use its best efforts to furnish customers with 
#accurate information and interpretations that are part of, and incident to, the services 
#provided.  However, Halliburton cannot and does not warrant the accuracy 
#or correctness of such information and interpretations.  Under no circumstances should any 
#such information or interpretation be relied upon as the sole basis for any drilling, 
#completion, production, or financial decision or any procedure involving any risk to the 
#safety of any drilling venture, drilling rig or its crew or any other third party.  The 
#Customer has full responsibility for all drilling, completion and production operation.  
#Halliburton makes no representations or warranties, either expressed or 
#implied, including, but not limited to, the implied warranties of merchantability or fitness 
#for a particular purpose, with respect to the services rendered.  In no event will 
#Halliburton be liable for failure to obtain any particular results or for 
#any damages, including, but not limited to, indirect, special or consequential damages, 
#resulting from the use of any information or interpretation provided by Halliburton.
#
~A           TIME           GTDEPTH  GTPQH  GTTQ  GTTN   GTET   GTTVD  
# ...
   17:03:22.563.27-Aug-2021 4788.50 7534.02 83.15 18.00 406.39 3147.67
   17:03:22.763.27-Aug-2021 4788.50 7533.78 83.15 18.00 406.59 3147.67
   17:03:22.962.27-Aug-2021 4788.50 7533.78 83.15 18.00 406.79 3147.67
   17:03:23.162.27-Aug-2021 4788.50 7534.27 83.15 18.00 406.99 3147.67
   17:03:23.362.27-Aug-2021 4788.50 7534.06 83.15 18.00 407.19 3147.67
   17:03:23.562.27-Aug-2021 4788.50 7534.14 83.15 18.00 407.39 3147.67
   17:03:23.762.27-Aug-2021 4788.50 7533.92 83.15 18.00 407.59 3147.67
   17:03:23.961.27-Aug-2021 4788.50 7533.92 83.15 18.00 407.79 3147.67
   17:03:24.161.27-Aug-2021 4788.50 7533.94 83.15 18.00 407.99 3147.67
   17:03:24.361.27-Aug-2021 4788.50 7538.14 83.15 18.00 408.19 3147.67
   17:03:24.561.27-Aug-2021 4788.50 7532.50 83.15 18.00 408.39 3147.67
   17:03:24.761.27-Aug-2021 4788.50 7534.00 83.15 18.00 408.59 3147.67
   17:03:24.960.27-Aug-2021 4788.50 7534.00 83.15 18.00 408.79 3147.67
   17:03:25.160.27-Aug-2021 4788.50 7533.35 83.15 18.00 408.99 3147.67
   17:03:25.360.27-Aug-2021 4788.50 7539.69 83.15 18.00 409.19 3147.67
   17:03:25.560.27-Aug-2021 4788.50 7529.71 83.15 18.00 409.39 3147.67
   17:03:25.760.27-Aug-2021 4788.50 7533.36 83.15 18.00 409.59 3147.67
   17:03:25.959.27-Aug-2021 4788.50 7533.36 83.15 18.00 409.79 3147.67
   17:03:26.159.27-Aug-2021 4788.50 7532.81 83.15 18.00 409.99 3147.67
   17:03:26.359.27-Aug-2021 4788.50 7534.05 83.15 18.00 410.19 3147.67
   17:03:26.559.27-Aug-2021 4788.50 7543.99 83.15 18.00 410.39 3147.67
   17:03:26.759.27-Aug-2021 4788.50 7533.67 83.15 18.00 410.59 3147.67
   17:03:26.958.27-Aug-2021 4788.50 7533.67 83.15 18.00 410.79 3147.67
   17:03:27.158.27-Aug-2021 4788.50 7536.82 83.15 18.00 410.99 3147.67
   17:03:27.358.27-Aug-2021 4788.50 7537.54 83.15 18.00 411.19 3147.67
   17:03:27.558.27-Aug-2021 4788.50 7536.90 83.15 18.00 411.39 3147.67
   17:03:27.758.27-Aug-2021 4788.50 7539.92 83.15 18.00 411.59 3147.67
   17:03:27.957.27-Aug-2021 4788.50 7539.92 83.15 18.00 411.79 3147.67
   17:03:28.157.27-Aug-2021 4788.50 7537.79 83.15 18.00 411.99 3147.67
   17:03:28.357.27-Aug-2021 4788.50 7537.58 83.15 18.00 412.19 3147.67
   17:03:28.557.27-Aug-2021 4788.50 7536.32 83.15 18.00 412.39 3147.67
   17:03:28.757.27-Aug-2021 4788.50 7542.65 83.15 18.00 412.59 3147.67
   17:03:28.956.27-Aug-2021 4788.50 7542.65 83.15 18.00 412.79 3147.67
   17:03:29.156.27-Aug-2021 4788.50 7546.40 83.15 18.00 412.99 3147.67
   17:03:29.356.27-Aug-2021 4788.50 7540.09 83.15 18.00 413.19 3147.67
   17:03:29.556.27-Aug-2021 4788.50 7538.95 83.15 18.00 413.39 3147.67
   17:03:29.756.27-Aug-2021 4788.50 7546.93 83.15 18.00 413.59 3147.67
   17:03:29.955.27-Aug-2021 4788.50 7546.93 83.15 18.00 413.79 3147.67
   17:03:30.155.27-Aug-2021 4788.50 7539.40 83.15 18.00 413.99 3147.67
   17:03:30.355.27-Aug-2021 4788.50 7535.71 83.15 18.00 414.19 3147.67
   17:03:30.555.27-Aug-2021 4788.50 7535.52 83.15 18.00 414.39 3147.67
   17:03:30.755.27-Aug-2021 4788.50 7535.35 83.15 18.00 414.59 3147.67
   17:03:30.954.27-Aug-2021 4788.50 7535.35 83.15 18.00 414.79 3147.67
   17:03:31.154.27-Aug-2021 4788.50 7535.00 83.15 18.00 414.99 3147.67
   17:03:31.354.27-Aug-2021 4788.50 7535.62 83.15 18.00 415.19 3147.67
   17:03:31.554.27-Aug-2021 4788.50 7536.08 83.15 18.00 415.39 3147.67
   17:03:31.754.27-Aug-2021 4788.50 7534.58 83.15 18.00 415.59 3147.67
   17:03:31.953.27-Aug-2021 4788.50 7534.58 83.15 18.00 415.78 3147.67
   17:03:32.153.27-Aug-2021 4788.50 7534.67 83.15 18.00 415.98 3147.67
   17:03:32.353.27-Aug-2021 4788.50 7535.10 83.15 18.00 416.18 3147.67
   17:03:32.553.27-Aug-2021 4788.50 7535.52 83.15 18.00 416.38 3147.67
   17:03:32.753.27-Aug-2021 4788.50 7535.23 83.15 18.00 416.58 3147.67
   17:03:32.952.27-Aug-2021 4788.50 7535.23 83.15 18.00 416.78 3147.67
   17:03:33.152.27-Aug-2021 4788.50 7535.69 83.15 18.00 416.98 3147.67
   17:03:33.352.27-Aug-2021 4788.50 7535.44 83.15 18.00 417.18 3147.67
   17:03:33.552.27-Aug-2021 4788.50 7535.45 83.15 18.00 417.38 3147.67
   17:03:33.752.27-Aug-2021 4788.50 7535.29 83.15 18.00 417.58 3147.67
   17:03:33.951.27-Aug-2021 4788.50 7535.29 83.15 18.00 417.78 3147.67
   17:03:34.151.27-Aug-2021 4788.50 7535.12 83.15 18.00 417.98 3147.67
   17:03:34.351.27-Aug-2021 4788.50 7539.49 83.15 18.00 418.18 3147.67
   17:03:34.551.27-Aug-2021 4788.50 7533.76 83.15 18.00 418.38 3147.67
   17:03:34.751.27-Aug-2021 4788.50 7535.26 83.15 18.00 418.58 3147.67
   17:03:34.950.27-Aug-2021 4788.50 7535.26 83.15 18.00 418.78 3147.67
   17:03:35.150.27-Aug-2021 4788.50 7534.83 83.15 18.00 418.98 3147.67
   17:03:35.350.27-Aug-2021 4788.50 7539.73 83.15 18.00 419.18 3147.67
   17:03:35.550.27-Aug-2021 4788.50 7533.00 83.15 18.00 419.38 3147.67
   17:03:35.750.27-Aug-2021 4788.50 7534.91 83.15 18.00 419.58 3147.67
   17:03:35.949.27-Aug-2021 4788.50 7534.91 83.15 18.00 419.78 3147.67
   17:03:36.149.27-Aug-2021 4788.50 7534.62 83.15 18.00 419.98 3147.67
   17:03:36.349.27-Aug-2021 4788.50 7535.51 83.16 18.00 420.18 3147.67
   17:03:36.549.27-Aug-2021 4788.50 7540.75 83.15 18.00 420.38 3147.67
   17:03:36.749.27-Aug-2021 4788.50 7532.08 83.15 18.00 420.58 3147.67
   17:03:36.948.27-Aug-2021 4788.50 7532.08 83.15 18.00 420.78 3147.67
   17:03:37.148.27-Aug-2021 4788.50 7536.25 83.15 18.00 420.98 3147.67
   17:03:37.348.27-Aug-2021 4788.50 7535.15 83.16 18.00 421.18 3147.67
   17:03:37.548.27-Aug-2021 4788.50 7535.40 83.16 18.00 421.38 3147.67
   17:03:37.748.27-Aug-2021 4788.50 7534.59 83.16 18.00 421.58 3147.67
   17:03:37.947.27-Aug-2021 4788.50 7534.59 83.16 18.00 421.78 3147.67
   17:03:38.147.27-Aug-2021 4788.50 7532.62 83.15 18.00 421.98 3147.67
   17:03:38.347.27-Aug-2021 4788.50 7535.03 83.16 18.00 422.18 3147.67
   17:03:38.547.27-Aug-2021 4788.50 7536.37 83.16 18.00 422.38 3147.67
   17:03:38.747.27-Aug-2021 4788.50 7535.22 83.16 18.00 422.58 3147.67
   17:03:38.946.27-Aug-2021 4788.50 7535.22 83.16 18.00 422.78 3147.67
   17:03:39.146.27-Aug-2021 4788.50 7534.69 83.16 18.00 422.98 3147.67
   17:03:39.346.27-Aug-2021 4788.50 7535.15 83.16 18.00 423.18 3147.67
   17:03:39.546.27-Aug-2021 4788.50 7535.81 83.16 18.00 423.38 3147.67
   17:03:39.746.27-Aug-2021 4788.50 7535.57 83.16 18.00 423.58 3147.67
   17:03:39.945.27-Aug-2021 4788.50 7535.57 83.16 18.00 423.78 3147.67
   17:03:40.145.27-Aug-2021 4788.50 7536.16 83.16 18.00 423.98 3147.67
   17:03:40.345.27-Aug-2021 4788.50 7537.42 83.16 18.00 424.18 3147.67
   17:03:40.545.27-Aug-2021 4788.50 7541.82 83.16 18.00 424.38 3147.67
   17:03:40.745.27-Aug-2021 4788.50 7536.59 83.16 18.00 424.58 3147.67
   17:03:40.945.27-Aug-2021 4788.50 7536.59 83.16 18.00 424.78 3147.67
   17:03:41.144.27-Aug-2021 4788.50 7555.09 83.16 18.00 424.98 3147.67
   17:03:41.344.27-Aug-2021 4788.50 7557.11 83.16 18.00 425.18 3147.67
   17:03:41.544.27-Aug-2021 4788.50 7557.18 83.16 18.00 425.38 3147.67
   17:03:41.744.27-Aug-2021 4788.50 7547.73 83.16 18.00 425.58 3147.67
   17:03:41.944.27-Aug-2021 4788.50 7547.73 83.16 18.00 425.77 3147.67
   17:03:42.143.27-Aug-2021 4788.50 7540.01 83.16 18.00 425.97 3147.67
   17:03:42.343.27-Aug-2021 4788.50 7537.08 83.16 18.00 426.17 3147.67
   17:03:42.543.27-Aug-2021 4788.50 7535.54 83.16 18.00 426.37 3147.67
   17:03:42.743.27-Aug-2021 4788.50 7536.07 83.16 18.00 426.57 3147.67
   17:03:42.943.27-Aug-2021 4788.50 7536.07 83.16 18.00 426.77 3147.67
   17:03:43.142.27-Aug-2021 4788.50 7536.47 83.16 18.00 426.97 3147.67
   17:03:43.342.27-Aug-2021 4788.50 7540.92 83.16 18.00 427.17 3147.67
   17:03:43.542.27-Aug-2021 4788.50 7547.62 83.16 18.00 427.37 3147.67
   17:03:43.742.27-Aug-2021 4788.50 7611.69 83.16 18.00 427.57 3147.67
   17:03:43.942.27-Aug-2021 4788.50 7611.69 83.16 18.00 427.77 3147.67
   17:03:44.141.27-Aug-2021 4788.50 7616.44 83.16 18.00 427.97 3147.67
   17:03:44.341.27-Aug-2021 4788.50 7535.22 83.16 18.00 428.17 3147.67
   17:03:44.541.27-Aug-2021 4788.50 7538.97 83.16 18.00 428.37 3147.67
   17:03:44.741.27-Aug-2021 4788.50 7560.26 83.16 18.00 428.57 3147.67
   17:03:44.941.27-Aug-2021 4788.50 7560.26 83.16 18.00 428.77 3147.67
