~Version Information
 VERS.                  2.0:   CWLS log ASCII Standard -VERSION 2.0
 WRAP.                   NO:   One line per depth step
~Well Information Block
#MNEM.UNIT     VALUE/NAME     DESCRIPTION
#---------     -----------    ---------------------------
 STRT.S             09:25:17 27-Aug-21: START TIME 09:25:17 27-Aug-21
 STOP.S             09:32:27 27-Aug-21: STOP TIME  09:32:27 27-Aug-21
 STEP.S                   0.00: STEP TIME
 NULL.                 -999.25: NULL VALUE
 DFWT.                        :  DIST FWL TEXT
 DFST.                        :  DIST FSL TEXT
 DMF .             Drill Floor:  DRILL MEAS FROM
 STIM.      20.00.00 17-Aug-21:  START TIME
 DATE.      19.00.00 29-Aug-21:  END TIME
 SPUD.               15-Aug-21:  SPUD DATE
 NREF.                    Grid:  NORTH REFERENCE
 HPTY.       Minimum Curvature:  HOLE POS TYPE
 DMOD.             Drill Model:  DRILL MOD DESC
 SVYD.                  Survey:  SURVEY DESC
 ILTD.               Lithology:  INTERP LTH DESC
 FTOP.          Formation Tops:  FORM TOPS DESC
 RIG .              East Azeri:  RIG NAME
 PDAT.          Mean Sea Level:  PERMANENT DATUM
 FLD .                     ACG:  FIELD NAME
 SON .        AZ-XX-0907180857:  JOB NUMBER
 CTRY.              Azerbaijan:  COUNTRY NAME
 WELL.                    D23x:  WELL NAME
 SRVC.     Turan Drilling and Engineering:  CONTRACTOR
 COMP.     BP Exploration (Caspian Sea) Ltd.:  COMPANY
 UWI .            /AZE00000214:  UNIQUE WELL IDENTIFIER
 API .            /AZE00000214:  API NUMBER
 MDS .        Operator Entered:  MAG DATA SOURCE
 BASE.              Azerbaijan:  LOGGING EQUIPMENT BASE LOCATION
 REGN.                   EESSA:  REGION
 PROV.                    Baku:  PROVINCE
 STAT.                    Baku:  STATE NAME
 MWDS.                    Baku:  MWD SHOP
 DOE .                     N/A:  DOE NUMBER
 DCON.         Sperry Drilling:  DIRECTNL CONTR
 UNIT.                     N/A:  LOGGING EQUIPMENT ID
 WTYP.                Deviated:  WELL TYPE
 CNTY.                        :  COUNTY
 LOC .                        :  LOCATION
 LMF .             Drill Floor:  LOG MEASURED FROM
 TVDS.m                  43.60:  TVDSS CORRECTN
 LATI.deg                40.02:  LATITUDE
 LONG.deg                51.45:  LONGITUDE
 WHNS.m                  -7.04:  WELL HEAD N/S
 WHEW.m                  -0.67:  WELL HEAD E/W
 UTMX.m              538762.90:  UTM X
 UTMY.m             4431871.34:  UTM Y
 DFWL.m                   0.00:  DISTANCE FWL
 DFSL.m                   0.00:  DISTANCE FSL
 SDEP.m                4127.00:  START DEPTH
 TDD .m                5084.50:  TOTAL DEPTH (DRILLER)
 VSDR.deg               140.47:  VERT SEC DIRECT
 GVFD.g                   1.00:  GRAVITY FIELD
 MFLD.nT              50362.00:  MAGNETIC FIELD
 MDIP.deg                59.48:  MAGNETIC DIP
 MDEC.deg                 6.47:  MAGNETIC DECL
 GRDC.deg                 0.31:  GRID CORRECTION
 AZTC.deg                 6.16:  AZM TOTAL CORR
 EPD .m                   0.00:  ELEVATION
 EGL .m                   0.00:  GROUND ELEVATION
 WDMS.m                 151.80:  WD ELEV
 APD .m                  43.60:  DEPTH ABOVE PD
 DEP .m                4092.57:  DEPTH
 AGAP.m                  43.60:  AIR GAP
 VSEW.m                  -0.67:  VERT SEC E/W
 VSNS.m                  -7.04:  VERT SEC N/S
 EKB .m                  43.60:  KB ELEVATION
 EDF .m                  43.60:  DF ELEVATION
 TDL .m                 957.50:  TOTAL DEPTH (LOGGER)
 VSC .                       0:  VS TO CLOSURE
 MAGU.                 1851413:  MAGUTM CHECKSUM
~Parameter Information Block
#MNEM.UNIT       Value        Description
#---------     -----------    ---------------------------
 AV  .mps                 1.50:  Ann Velocity 
 AVMX.mps                 2.00:  Max Ann Veloc 
 AZIF.deg               184.66:  Azm, Final 
 BHAT.        Rotary Steerable:  BHA Type 
 BREV.rev               300.00:  Rev Bit Total 
 BROT.°/30m              -0.50:  Build Rotating 
 BS  .in                  8.50:  Bit Size 
 BSZ .in                  8.50:  Bit Size 
 BTPL.psig              370.00:  Bit Press Loss 
 CABU.                      No:  Customer Abuse 
 CGEO.      Behruz Shahbaliyev:  Customer Geo 
 COMM.                     TD\:  Run Comments 1 
 TCS .hr                140.08:  Time Ciculation Ended 
 CV  .mps                 3.00:  Crit Velocity 
 CVMX.mps                 3.20:  Max Crit Veloc 
 DD1 .            Musa Ahmadov:  Direct Drillr 1 
 DD2 .           Hamid Ahmadov:  Direct Drillr 2 
 DDSV.               Geo-Pilot:  DD Service 
 DEFF.%                  98.40:  % Det Eff 
 DLRX.°/30m               3.40:  Dogleg Rot Max 
 DLSO.°/30m               1.45:  Dogleg Oriented 
 DLSX.°/30m               3.40:  Dogleg Str Max 
 DRET.      18.40.00 29-Aug-21:  Drill End Time 
 DRST.      21.00.00 20-Aug-21:  Drill Start Tim 
 DTIM.hr                 69.47:  Time Drilling 
 EDEP.m                5084.50:  End Depth 
 ENG1.      Artemiy Matviyanov:  Engineer 1 
 ENG2.         Almaz Almadatov:  Engineer 2 
 ETIM.      18.40.00 29-Aug-21:  End Time 
 FLOI.gpm               500.00:  Flow In 
 FLON.gpm               400.00:  Flow In Min 
 FLOS.cptm                0.00:  Fluid Loss 
 FLOX.gpm               500.00:  Flow In Max 
 DFT .        Mineral Oil Base:  Mud Type 
 HFLO.                      No:  High Flow 
 HPRE.                      No:  High Pressure 
 HTEM.                      No:  High Temp 
 HYDO.m                   1.80:  Hydro Offset 
 IFIN.deg                25.62:  Inc, Final 
 IMAX.deg                48.69:  Inc Max 
 IMIN.deg                24.01:  Inc Min 
 IMND.m                4962.57:  Inc Min Depth 
 IMXD.m                4119.01:  Inc Max Depth 
 JARR.                      No:  Jarring 
 LETM.      18.40.00 29-Aug-21:  Log End Time 
 LOST.hr                     0:  Lost Rig Time 
 LSTM.      21.00.00 20-Aug-21:  Log Start Time 
 MDCL.ppm             41500.00:  Mud Chlorides 
 MDES.     Inversion Oil/Synthetic:  Mud Desc 
 DFD .sg                  1.56:  Mud Density 
 MDMN.sg                  1.56:  Dens Mud Min 
 MDMX.sg                  1.56:  Dens Mud Max 
 MOIL.                      70:  Run Mud Oil % 
 MOWR.                   70:30:  Run Mud OWR 
 MSND.                     0.2:  Run Mud Sand % 
 MSOL.                    23.3:  Run Mud Solids% 
 DFV .spqt               78.00:  Mud Viscosity 
 MWOD.in                  6.75:  MWD Tool OD 
 MWSI.                      No:  Serv Intrp, MWD 
 OTIM.hr                218.30:  Time Operating 
 PCON.           Look Like New:  Pad Condition 
 PMAX.psia            11015.30:  Press Op, Max 
 PV  .cP                 38.00:  Mud PV 
 RUN .                     300:  Run Number 
 ROPA.m/hr               15.00:  ROP Avg 
 ROPN.m/hr                9.00:  ROP Min 
 ROPX.m/hr               17.00:  ROP Max 
 RPMA.rpm               120.00:  RPM Surface Avg 
 RPMN.rpm                90.00:  RPM Surface Min 
 RPMX.rpm               140.00:  RPM Surface Max 
 RRUN.                     300:  Rig Run Number 
 RTIM.hr                 31.53:  Time Reaming 
 SAZI.deg               331.64:  Azm, Start 
 SDEP.m                4127.00:  Start Depth 
 SIDD.                      No:  Serv Intrp, DD 
 SINC.deg                48.43:  Inc, Start 
 SPPA.psig             5830.00:  SPP Avg 
 SPPN.psig             5600.00:  SPP Min 
 SPPX.psig             5900.00:  SPP Max 
 STIM.      21.00.00 20-Aug-21:  Start Time 
 SVCS.                 DD, MWD:  Services 
 SVER.                    9.20:  Sperry Version 
 TDAT.m                 957.50:  Tot Depth Attmp 
 TDDF.                      No:  Trip for DD 
 TDLG.m                 957.50:  Tot Depth Loggd 
 TFF .                      No:  Trip for Fail 
 TQAA.f-kp               15.00:  Torque Abs Avg 
 TQAN.f-kp               12.00:  Torque Abs Min 
 TQAX.f-kp               19.00:  Torque Abs Max 
 TRRT.°/30m              -3.40:  Turn Rotating 
 MRT .                  EWR-M5:  Maximum Recorded Temperature 
 TTMX.degC              100.00:  Max Tool Temp 
 VS01.                90639251:  Virtual Str1 SN 
 VS02.                90634715:  Virtual Str2 SN 
 VS03.                90652479:  Virtual Str3 SN 
 VS04.                90642262:  Virtual Str4 SN 
 WBMN.klb                 0.00:  WOB Min 
 WITN.           Murad Guliyev:  Customer Rep 
 WITN.          Yashar Gaziyev:  Customer Rep 2 
 WOBA.klb                 9.00:  WOB Avg 
 WOBX.klb                12.00:  WOB Max 
 YP  .lhf2               30.00:  Yield Point 
~Curve Information Block
#MNEM.UNIT                 API CODE     Curve Description
#---------               -----------    ---------------------------
 TIME.HHMMSS            00 000 000 000:  GT Time & Date
 GTDEPTH.m              00 000 000 000:  GT Depth
 GTPQH.psia             00 000 000 000:  GT HR Quartz Pressure
 GTTQ.degC              00 000 000 000:  GT Quartz Temperature
 GTTN.NONE              00 000 000 000:  GT Test Number
 GTET.sec               00 000 000 000:  GT Elapsed Test Time
 GTTVD.m                00 000 000 000:  GT True Vertical Depth
#Other Information
#
#WARRANTY: Halliburton will use its best efforts to furnish customers with 
#accurate information and interpretations that are part of, and incident to, the services 
#provided.  However, Halliburton cannot and does not warrant the accuracy 
#or correctness of such information and interpretations.  Under no circumstances should any 
#such information or interpretation be relied upon as the sole basis for any drilling, 
#completion, production, or financial decision or any procedure involving any risk to the 
#safety of any drilling venture, drilling rig or its crew or any other third party.  The 
#Customer has full responsibility for all drilling, completion and production operation.  
#Halliburton makes no representations or warranties, either expressed or 
#implied, including, but not limited to, the implied warranties of merchantability or fitness 
#for a particular purpose, with respect to the services rendered.  In no event will 
#Halliburton be liable for failure to obtain any particular results or for 
#any damages, including, but not limited to, indirect, special or consequential damages, 
#resulting from the use of any information or interpretation provided by Halliburton.
#
~A           TIME           GTDEPTH  GTPQH  GTTQ  GTTN  GTET   GTTVD  
# ...
   09:31:48.428.27-Aug-2021 4964.50 7905.53 86.38 7.00 391.16 3307.39
   09:31:48.628.27-Aug-2021 4964.50 7905.53 86.38 7.00 391.36 3307.39
   09:31:48.828.27-Aug-2021 4964.50 7904.71 86.37 7.00 391.56 3307.39
   09:31:49.028.27-Aug-2021 4964.50 7904.85 86.37 7.00 391.76 3307.39
   09:31:49.228.27-Aug-2021 4964.50 7909.96 86.37 7.00 391.96 3307.39
   09:31:49.429.27-Aug-2021 4964.50 7904.58 86.37 7.00 392.16 3307.39
   09:31:49.629.27-Aug-2021 4964.50 7904.58 86.37 7.00 392.36 3307.39
   09:31:49.829.27-Aug-2021 4964.50 7904.24 86.37 7.00 392.56 3307.39
   09:31:50.029.27-Aug-2021 4964.50 7904.38 86.37 7.00 392.76 3307.39
   09:31:50.229.27-Aug-2021 4964.50 7904.92 86.37 7.00 392.96 3307.39
   09:31:50.429.27-Aug-2021 4964.50 7910.35 86.37 7.00 393.16 3307.39
   09:31:50.629.27-Aug-2021 4964.50 7910.35 86.37 7.00 393.36 3307.39
   09:31:50.829.27-Aug-2021 4964.50 7905.41 86.37 7.00 393.56 3307.39
   09:31:51.029.27-Aug-2021 4964.50 7904.05 86.37 7.00 393.76 3307.39
   09:31:51.229.27-Aug-2021 4964.50 7904.71 86.37 7.00 393.96 3307.39
   09:31:51.429.27-Aug-2021 4964.50 7904.93 86.37 7.00 394.16 3307.39
   09:31:51.629.27-Aug-2021 4964.50 7904.93 86.37 7.00 394.36 3307.39
   09:31:51.830.27-Aug-2021 4964.50 7904.74 86.37 7.00 394.56 3307.39
   09:31:52.030.27-Aug-2021 4964.50 7904.11 86.37 7.00 394.76 3307.39
   09:31:52.230.27-Aug-2021 4964.50 7904.23 86.37 7.00 394.96 3307.39
   09:31:52.430.27-Aug-2021 4964.50 7904.79 86.37 7.00 395.16 3307.39
   09:31:52.630.27-Aug-2021 4964.50 7904.79 86.37 7.00 395.36 3307.39
   09:31:52.830.27-Aug-2021 4964.50 7905.61 86.37 7.00 395.56 3307.39
   09:31:53.030.27-Aug-2021 4964.50 7905.35 86.37 7.00 395.76 3307.39
   09:31:53.230.27-Aug-2021 4964.50 7904.95 86.37 7.00 395.96 3307.39
   09:31:53.430.27-Aug-2021 4964.50 7904.69 86.37 7.00 396.16 3307.39
   09:31:53.630.27-Aug-2021 4964.50 7904.69 86.37 7.00 396.36 3307.39
   09:31:53.830.27-Aug-2021 4964.50 7906.36 86.37 7.00 396.56 3307.39
   09:31:54.030.27-Aug-2021 4964.50 7906.32 86.37 7.00 396.76 3307.39
   09:31:54.231.27-Aug-2021 4964.50 7904.97 86.37 7.00 396.96 3307.39
   09:31:54.431.27-Aug-2021 4964.50 7904.25 86.37 7.00 397.16 3307.39
   09:31:54.631.27-Aug-2021 4964.50 7904.25 86.37 7.00 397.37 3307.39
   09:31:54.831.27-Aug-2021 4964.50 7904.22 86.37 7.00 397.57 3307.39
   09:31:55.031.27-Aug-2021 4964.50 7904.25 86.37 7.00 397.77 3307.39
   09:31:55.231.27-Aug-2021 4964.50 7904.10 86.37 7.00 397.97 3307.39
   09:31:55.431.27-Aug-2021 4964.50 7904.46 86.37 7.00 398.17 3307.39
   09:31:55.631.27-Aug-2021 4964.50 7904.46 86.37 7.00 398.37 3307.39
   09:31:55.831.27-Aug-2021 4964.50 7905.31 86.37 7.00 398.57 3307.39
   09:31:56.031.27-Aug-2021 4964.50 7905.59 86.37 7.00 398.77 3307.39
   09:31:56.231.27-Aug-2021 4964.50 7905.65 86.37 7.00 398.97 3307.39
   09:31:56.431.27-Aug-2021 4964.50 7905.41 86.37 7.00 399.17 3307.39
   09:31:56.632.27-Aug-2021 4964.50 7905.41 86.37 7.00 399.37 3307.39
   09:31:56.832.27-Aug-2021 4964.50 7904.80 86.37 7.00 399.57 3307.39
   09:31:57.032.27-Aug-2021 4964.50 7906.55 86.37 7.00 399.77 3307.39
   09:31:57.232.27-Aug-2021 4964.50 7906.17 86.37 7.00 399.97 3307.39
   09:31:57.432.27-Aug-2021 4964.50 7905.98 86.37 7.00 400.17 3307.39
   09:31:57.632.27-Aug-2021 4964.50 7905.98 86.37 7.00 400.37 3307.39
   09:31:57.832.27-Aug-2021 4964.50 7904.00 86.37 7.00 400.57 3307.39
   09:31:58.032.27-Aug-2021 4964.50 7904.03 86.37 7.00 400.77 3307.39
   09:31:58.232.27-Aug-2021 4964.50 7904.17 86.37 7.00 400.97 3307.39
   09:31:58.432.27-Aug-2021 4964.50 7909.45 86.37 7.00 401.17 3307.39
   09:31:58.632.27-Aug-2021 4964.50 7909.45 86.37 7.00 401.37 3307.39
   09:31:58.832.27-Aug-2021 4964.50 7904.91 86.36 7.00 401.57 3307.39
   09:31:59.033.27-Aug-2021 4964.50 7904.66 86.36 7.00 401.77 3307.39
   09:31:59.233.27-Aug-2021 4964.50 7905.08 86.36 7.00 401.97 3307.39
   09:31:59.433.27-Aug-2021 4964.50 7907.46 86.36 7.00 402.17 3307.39
   09:31:59.633.27-Aug-2021 4964.50 7907.46 86.36 7.00 402.37 3307.39
   09:31:59.833.27-Aug-2021 4964.50 7906.16 86.36 7.00 402.57 3307.39
   09:32:00.033.27-Aug-2021 4964.50 7904.43 86.36 7.00 402.77 3307.39
   09:32:00.233.27-Aug-2021 4964.50 7903.95 86.36 7.00 402.97 3307.39
   09:32:00.433.27-Aug-2021 4964.50 7904.44 86.36 7.00 403.17 3307.39
   09:32:00.633.27-Aug-2021 4964.50 7904.44 86.36 7.00 403.37 3307.39
   09:32:00.833.27-Aug-2021 4964.50 7908.05 86.36 7.00 403.57 3307.39
   09:32:01.033.27-Aug-2021 4964.50 7905.35 86.36 7.00 403.77 3307.39
   09:32:01.233.27-Aug-2021 4964.50 7904.55 86.36 7.00 403.97 3307.39
   09:32:01.434.27-Aug-2021 4964.50 7904.12 86.36 7.00 404.17 3307.39
   09:32:01.634.27-Aug-2021 4964.50 7904.12 86.36 7.00 404.37 3307.39
   09:32:01.834.27-Aug-2021 4964.50 7904.99 86.36 7.00 404.57 3307.39
   09:32:02.034.27-Aug-2021 4964.50 7904.77 86.36 7.00 404.77 3307.39
   09:32:02.234.27-Aug-2021 4964.50 7904.13 86.36 7.00 404.97 3307.39
   09:32:02.434.27-Aug-2021 4964.50 7903.92 86.36 7.00 405.17 3307.39
   09:32:02.634.27-Aug-2021 4964.50 7903.92 86.36 7.00 405.37 3307.39
   09:32:02.834.27-Aug-2021 4964.50 7905.19 86.36 7.00 405.57 3307.39
   09:32:03.034.27-Aug-2021 4964.50 7905.53 86.36 7.00 405.77 3307.39
   09:32:03.234.27-Aug-2021 4964.50 7905.44 86.36 7.00 405.97 3307.39
   09:32:03.434.27-Aug-2021 4964.50 7904.98 86.36 7.00 406.17 3307.39
   09:32:03.634.27-Aug-2021 4964.50 7904.98 86.36 7.00 406.37 3307.39
   09:32:03.835.27-Aug-2021 4964.50 7904.62 86.36 7.00 406.57 3307.39
   09:32:04.035.27-Aug-2021 4964.50 7909.77 86.36 7.00 406.77 3307.39
   09:32:04.235.27-Aug-2021 4964.50 7904.32 86.36 7.00 406.97 3307.39
   09:32:04.435.27-Aug-2021 4964.50 7905.15 86.36 7.00 407.17 3307.39
   09:32:04.635.27-Aug-2021 4964.50 7905.15 86.36 7.00 407.37 3307.39
   09:32:04.835.27-Aug-2021 4964.50 7905.15 86.36 7.00 407.57 3307.39
   09:32:05.035.27-Aug-2021 4964.50 7904.00 86.36 7.00 407.77 3307.39
   09:32:05.235.27-Aug-2021 4964.50 7903.99 86.36 7.00 407.97 3307.39
   09:32:05.435.27-Aug-2021 4964.50 7903.96 86.36 7.00 408.17 3307.39
   09:32:05.635.27-Aug-2021 4964.50 7903.96 86.36 7.00 408.37 3307.39
   09:32:05.835.27-Aug-2021 4964.50 7904.01 86.36 7.00 408.57 3307.39
   09:32:06.035.27-Aug-2021 4964.50 7904.66 86.36 7.00 408.77 3307.39
   09:32:06.236.27-Aug-2021 4964.50 7905.30 86.36 7.00 408.97 3307.39
   09:32:06.436.27-Aug-2021 4964.50 7905.29 86.36 7.00 409.17 3307.39
   09:32:06.636.27-Aug-2021 4964.50 7905.29 86.36 7.00 409.37 3307.39
   09:32:06.836.27-Aug-2021 4964.50 7904.77 86.36 7.00 409.57 3307.39
   09:32:07.036.27-Aug-2021 4964.50 7904.51 86.36 7.00 409.77 3307.39
   09:32:07.236.27-Aug-2021 4964.50 7904.35 86.36 7.00 409.97 3307.39
   09:32:07.436.27-Aug-2021 4964.50 7909.48 86.36 7.00 410.17 3307.39
   09:32:07.636.27-Aug-2021 4964.50 7909.48 86.36 7.00 410.37 3307.39
   09:32:07.836.27-Aug-2021 4964.50 7904.72 86.36 7.00 410.57 3307.39
   09:32:08.036.27-Aug-2021 4964.50 7903.83 86.36 7.00 410.77 3307.39
   09:32:08.236.27-Aug-2021 4964.50 7903.79 86.36 7.00 410.97 3307.39
   09:32:08.436.27-Aug-2021 4964.50 7903.98 86.36 7.00 411.17 3307.39
   09:32:08.637.27-Aug-2021 4964.50 7903.98 86.36 7.00 411.37 3307.39
   09:32:08.837.27-Aug-2021 4964.50 7905.75 86.36 7.00 411.57 3307.39
   09:32:09.037.27-Aug-2021 4964.50 7905.44 86.36 7.00 411.77 3307.39
   09:32:09.237.27-Aug-2021 4964.50 7904.40 86.35 7.00 411.97 3307.39
   09:32:09.437.27-Aug-2021 4964.50 7904.59 86.35 7.00 412.17 3307.39
   09:32:09.637.27-Aug-2021 4964.50 7904.59 86.35 7.00 412.37 3307.39
   09:32:09.837.27-Aug-2021 4964.50 7910.09 86.35 7.00 412.57 3307.39
   09:32:10.037.27-Aug-2021 4964.50 7902.72 86.35 7.00 412.77 3307.39
   09:32:10.237.27-Aug-2021 4964.50 7904.83 86.35 7.00 412.97 3307.39
   09:32:10.437.27-Aug-2021 4964.50 7903.55 86.35 7.00 413.17 3307.39
   09:32:10.637.27-Aug-2021 4964.50 7903.55 86.35 7.00 413.37 3307.39
   09:32:10.837.27-Aug-2021 4964.50 7903.98 86.35 7.00 413.57 3307.39
   09:32:11.038.27-Aug-2021 4964.50 7909.67 86.35 7.00 413.77 3307.39
   09:32:11.238.27-Aug-2021 4964.50 7903.61 86.35 7.00 413.97 3307.39
