~Version Information
 VERS.                  2.0:   CWLS log ASCII Standard -VERSION 2.0
 WRAP.                   NO:   One line per depth step
~Well Information Block
#MNEM.UNIT     VALUE/NAME     DESCRIPTION
#---------     -----------    ---------------------------
 STRT.S             04:10:22 28-Aug-21: START TIME 04:10:22 28-Aug-21
 STOP.S             04:17:14 28-Aug-21: STOP TIME  04:17:14 28-Aug-21
 STEP.S                   0.00: STEP TIME
 NULL.                 -999.25: NULL VALUE
 DFWT.                        :  DIST FWL TEXT
 DFST.                        :  DIST FSL TEXT
 DMF .             Drill Floor:  DRILL MEAS FROM
 STIM.      20.00.00 17-Aug-21:  START TIME
 DATE.      19.00.00 29-Aug-21:  END TIME
 SPUD.               15-Aug-21:  SPUD DATE
 NREF.                    Grid:  NORTH REFERENCE
 HPTY.       Minimum Curvature:  HOLE POS TYPE
 DMOD.             Drill Model:  DRILL MOD DESC
 SVYD.                  Survey:  SURVEY DESC
 ILTD.               Lithology:  INTERP LTH DESC
 FTOP.          Formation Tops:  FORM TOPS DESC
 RIG .              East Azeri:  RIG NAME
 PDAT.          Mean Sea Level:  PERMANENT DATUM
 FLD .                     ACG:  FIELD NAME
 SON .        AZ-XX-0907180857:  JOB NUMBER
 CTRY.              Azerbaijan:  COUNTRY NAME
 WELL.                    D23x:  WELL NAME
 SRVC.     Turan Drilling and Engineering:  CONTRACTOR
 COMP.     BP Exploration (Caspian Sea) Ltd.:  COMPANY
 UWI .            /AZE00000214:  UNIQUE WELL IDENTIFIER
 API .            /AZE00000214:  API NUMBER
 MDS .        Operator Entered:  MAG DATA SOURCE
 BASE.              Azerbaijan:  LOGGING EQUIPMENT BASE LOCATION
 REGN.                   EESSA:  REGION
 PROV.                    Baku:  PROVINCE
 STAT.                    Baku:  STATE NAME
 MWDS.                    Baku:  MWD SHOP
 DOE .                     N/A:  DOE NUMBER
 DCON.         Sperry Drilling:  DIRECTNL CONTR
 UNIT.                     N/A:  LOGGING EQUIPMENT ID
 WTYP.                Deviated:  WELL TYPE
 CNTY.                        :  COUNTY
 LOC .                        :  LOCATION
 LMF .             Drill Floor:  LOG MEASURED FROM
 TVDS.m                  43.60:  TVDSS CORRECTN
 LATI.deg                40.02:  LATITUDE
 LONG.deg                51.45:  LONGITUDE
 WHNS.m                  -7.04:  WELL HEAD N/S
 WHEW.m                  -0.67:  WELL HEAD E/W
 UTMX.m              538762.90:  UTM X
 UTMY.m             4431871.34:  UTM Y
 DFWL.m                   0.00:  DISTANCE FWL
 DFSL.m                   0.00:  DISTANCE FSL
 SDEP.m                4127.00:  START DEPTH
 TDD .m                5084.50:  TOTAL DEPTH (DRILLER)
 VSDR.deg               140.47:  VERT SEC DIRECT
 GVFD.g                   1.00:  GRAVITY FIELD
 MFLD.nT              50362.00:  MAGNETIC FIELD
 MDIP.deg                59.48:  MAGNETIC DIP
 MDEC.deg                 6.47:  MAGNETIC DECL
 GRDC.deg                 0.31:  GRID CORRECTION
 AZTC.deg                 6.16:  AZM TOTAL CORR
 EPD .m                   0.00:  ELEVATION
 EGL .m                   0.00:  GROUND ELEVATION
 WDMS.m                 151.80:  WD ELEV
 APD .m                  43.60:  DEPTH ABOVE PD
 DEP .m                4092.57:  DEPTH
 AGAP.m                  43.60:  AIR GAP
 VSEW.m                  -0.67:  VERT SEC E/W
 VSNS.m                  -7.04:  VERT SEC N/S
 EKB .m                  43.60:  KB ELEVATION
 EDF .m                  43.60:  DF ELEVATION
 TDL .m                 957.50:  TOTAL DEPTH (LOGGER)
 VSC .                       0:  VS TO CLOSURE
 MAGU.                 1851413:  MAGUTM CHECKSUM
~Parameter Information Block
#MNEM.UNIT       Value        Description
#---------     -----------    ---------------------------
 AV  .mps                 1.50:  Ann Velocity 
 AVMX.mps                 2.00:  Max Ann Veloc 
 AZIF.deg               184.66:  Azm, Final 
 BHAT.        Rotary Steerable:  BHA Type 
 BREV.rev               300.00:  Rev Bit Total 
 BROT.°/30m              -0.50:  Build Rotating 
 BS  .in                  8.50:  Bit Size 
 BSZ .in                  8.50:  Bit Size 
 BTPL.psig              370.00:  Bit Press Loss 
 CABU.                      No:  Customer Abuse 
 CGEO.      Behruz Shahbaliyev:  Customer Geo 
 COMM.                     LÁp:  Run Comments 1 
 TCS .hr                140.08:  Time Ciculation Ended 
 CV  .mps                 3.00:  Crit Velocity 
 CVMX.mps                 3.20:  Max Crit Veloc 
 DD1 .            Musa Ahmadov:  Direct Drillr 1 
 DD2 .           Hamid Ahmadov:  Direct Drillr 2 
 DDSV.               Geo-Pilot:  DD Service 
 DEFF.%                  98.40:  % Det Eff 
 DLRX.°/30m               3.40:  Dogleg Rot Max 
 DLSO.°/30m               1.45:  Dogleg Oriented 
 DLSX.°/30m               3.40:  Dogleg Str Max 
 DRET.      18.40.00 29-Aug-21:  Drill End Time 
 DRST.      21.00.00 20-Aug-21:  Drill Start Tim 
 DTIM.hr                 69.47:  Time Drilling 
 EDEP.m                5084.50:  End Depth 
 ENG1.      Artemiy Matviyanov:  Engineer 1 
 ENG2.         Almaz Almadatov:  Engineer 2 
 ETIM.      18.40.00 29-Aug-21:  End Time 
 FLOI.gpm               500.00:  Flow In 
 FLON.gpm               400.00:  Flow In Min 
 FLOS.cptm                0.00:  Fluid Loss 
 FLOX.gpm               500.00:  Flow In Max 
 DFT .        Mineral Oil Base:  Mud Type 
 HFLO.                      No:  High Flow 
 HPRE.                      No:  High Pressure 
 HTEM.                      No:  High Temp 
 HYDO.m                   1.80:  Hydro Offset 
 IFIN.deg                25.62:  Inc, Final 
 IMAX.deg                48.69:  Inc Max 
 IMIN.deg                24.01:  Inc Min 
 IMND.m                4962.57:  Inc Min Depth 
 IMXD.m                4119.01:  Inc Max Depth 
 JARR.                      No:  Jarring 
 LETM.      18.40.00 29-Aug-21:  Log End Time 
 LOST.hr                     0:  Lost Rig Time 
 LSTM.      21.00.00 20-Aug-21:  Log Start Time 
 MDCL.ppm             41500.00:  Mud Chlorides 
 MDES.     Inversion Oil/Synthetic:  Mud Desc 
 DFD .sg                  1.56:  Mud Density 
 MDMN.sg                  1.56:  Dens Mud Min 
 MDMX.sg                  1.56:  Dens Mud Max 
 MOIL.                      70:  Run Mud Oil % 
 MOWR.                   70:30:  Run Mud OWR 
 MSND.                     0.2:  Run Mud Sand % 
 MSOL.                    23.3:  Run Mud Solids% 
 DFV .spqt               78.00:  Mud Viscosity 
 MWOD.in                  6.75:  MWD Tool OD 
 MWSI.                      No:  Serv Intrp, MWD 
 OTIM.hr                218.30:  Time Operating 
 PCON.           Look Like New:  Pad Condition 
 PMAX.psia            11015.30:  Press Op, Max 
 PV  .cP                 38.00:  Mud PV 
 RUN .                     300:  Run Number 
 ROPA.m/hr               15.00:  ROP Avg 
 ROPN.m/hr                9.00:  ROP Min 
 ROPX.m/hr               17.00:  ROP Max 
 RPMA.rpm               120.00:  RPM Surface Avg 
 RPMN.rpm                90.00:  RPM Surface Min 
 RPMX.rpm               140.00:  RPM Surface Max 
 RRUN.                     300:  Rig Run Number 
 RTIM.hr                 31.53:  Time Reaming 
 SAZI.deg               331.64:  Azm, Start 
 SDEP.m                4127.00:  Start Depth 
 SIDD.                      No:  Serv Intrp, DD 
 SINC.deg                48.43:  Inc, Start 
 SPPA.psig             5830.00:  SPP Avg 
 SPPN.psig             5600.00:  SPP Min 
 SPPX.psig             5900.00:  SPP Max 
 STIM.      21.00.00 20-Aug-21:  Start Time 
 SVCS.                 DD, MWD:  Services 
 SVER.                    9.20:  Sperry Version 
 TDAT.m                 957.50:  Tot Depth Attmp 
 TDDF.                      No:  Trip for DD 
 TDLG.m                 957.50:  Tot Depth Loggd 
 TFF .                      No:  Trip for Fail 
 TQAA.f-kp               15.00:  Torque Abs Avg 
 TQAN.f-kp               12.00:  Torque Abs Min 
 TQAX.f-kp               19.00:  Torque Abs Max 
 TRRT.°/30m              -3.40:  Turn Rotating 
 MRT .                  EWR-M5:  Maximum Recorded Temperature 
 TTMX.degC              100.00:  Max Tool Temp 
 VS01.                90639251:  Virtual Str1 SN 
 VS02.                90634715:  Virtual Str2 SN 
 VS03.                90652479:  Virtual Str3 SN 
 VS04.                90642262:  Virtual Str4 SN 
 WBMN.klb                 0.00:  WOB Min 
 WITN.           Murad Guliyev:  Customer Rep 
 WITN.          Yashar Gaziyev:  Customer Rep 2 
 WOBA.klb                 9.00:  WOB Avg 
 WOBX.klb                12.00:  WOB Max 
 YP  .lhf2               30.00:  Yield Point 
~Curve Information Block
#MNEM.UNIT                 API CODE     Curve Description
#---------               -----------    ---------------------------
 TIME.HHMMSS            00 000 000 000:  GT Time & Date
 GTDEPTH.m              00 000 000 000:  GT Depth
 GTPQH.psia             00 000 000 000:  GT HR Quartz Pressure
 GTTQ.degC              00 000 000 000:  GT Quartz Temperature
 GTTN.NONE              00 000 000 000:  GT Test Number
 GTET.sec               00 000 000 000:  GT Elapsed Test Time
 GTTVD.m                00 000 000 000:  GT True Vertical Depth
#Other Information
#
#WARRANTY: Halliburton will use its best efforts to furnish customers with 
#accurate information and interpretations that are part of, and incident to, the services 
#provided.  However, Halliburton cannot and does not warrant the accuracy 
#or correctness of such information and interpretations.  Under no circumstances should any 
#such information or interpretation be relied upon as the sole basis for any drilling, 
#completion, production, or financial decision or any procedure involving any risk to the 
#safety of any drilling venture, drilling rig or its crew or any other third party.  The 
#Customer has full responsibility for all drilling, completion and production operation.  
#Halliburton makes no representations or warranties, either expressed or 
#implied, including, but not limited to, the implied warranties of merchantability or fitness 
#for a particular purpose, with respect to the services rendered.  In no event will 
#Halliburton be liable for failure to obtain any particular results or for 
#any damages, including, but not limited to, indirect, special or consequential damages, 
#resulting from the use of any information or interpretation provided by Halliburton.
#
~A           TIME           GTDEPTH  GTPQH  GTTQ  GTTN   GTET   GTTVD  
# ...
   04:14:54.402.28-Aug-2021 4978.00 7972.66 80.43 29.00 271.58 3319.69
   04:14:54.603.28-Aug-2021 4978.00 7972.38 80.43 29.00 271.78 3319.69
   04:14:54.803.28-Aug-2021 4978.00 7972.39 80.43 29.00 271.98 3319.69
   04:14:55.003.28-Aug-2021 4978.00 7978.13 80.43 29.00 272.18 3319.69
   04:14:55.204.28-Aug-2021 4978.00 7970.74 80.43 29.00 272.38 3319.69
   04:14:55.404.28-Aug-2021 4978.00 7970.74 80.43 29.00 272.58 3319.69
   04:14:55.604.28-Aug-2021 4978.00 7972.06 80.43 29.00 272.78 3319.69
   04:14:55.804.28-Aug-2021 4978.00 7972.15 80.43 29.00 272.98 3319.69
   04:14:56.005.28-Aug-2021 4978.00 7972.05 80.43 29.00 273.18 3319.69
   04:14:56.205.28-Aug-2021 4978.00 7971.97 80.43 29.00 273.38 3319.69
   04:14:56.405.28-Aug-2021 4978.00 7971.97 80.43 29.00 273.58 3319.69
   04:14:56.606.28-Aug-2021 4978.00 7971.28 80.43 29.00 273.78 3319.69
   04:14:56.806.28-Aug-2021 4978.00 7971.72 80.43 29.00 273.99 3319.69
   04:14:57.006.28-Aug-2021 4978.00 7972.69 80.43 29.00 274.19 3319.69
   04:14:57.206.28-Aug-2021 4978.00 7973.03 80.43 29.00 274.39 3319.69
   04:14:57.407.28-Aug-2021 4978.00 7973.03 80.43 29.00 274.59 3319.69
   04:14:57.607.28-Aug-2021 4978.00 7972.73 80.43 29.00 274.79 3319.69
   04:14:57.807.28-Aug-2021 4978.00 7972.76 80.43 29.00 274.99 3319.69
   04:14:58.008.28-Aug-2021 4978.00 7972.72 80.43 29.00 275.19 3319.69
   04:14:58.208.28-Aug-2021 4978.00 7972.75 80.43 29.00 275.39 3319.69
   04:14:58.408.28-Aug-2021 4978.00 7972.75 80.43 29.00 275.59 3319.69
   04:14:58.608.28-Aug-2021 4978.00 7973.50 80.43 29.00 275.79 3319.69
   04:14:58.809.28-Aug-2021 4978.00 7973.44 80.43 29.00 275.99 3319.69
   04:14:59.009.28-Aug-2021 4978.00 7972.16 80.43 29.00 276.19 3319.69
   04:14:59.209.28-Aug-2021 4978.00 7972.34 80.43 29.00 276.39 3319.69
   04:14:59.409.28-Aug-2021 4978.00 7972.34 80.43 29.00 276.59 3319.69
   04:14:59.610.28-Aug-2021 4978.00 7972.70 80.43 29.00 276.79 3319.69
   04:14:59.810.28-Aug-2021 4978.00 7971.64 80.43 29.00 276.99 3319.69
   04:15:00.010.28-Aug-2021 4978.00 7971.43 80.43 29.00 277.19 3319.69
   04:15:00.211.28-Aug-2021 4978.00 7976.30 80.43 29.00 277.39 3319.69
   04:15:00.411.28-Aug-2021 4978.00 7976.30 80.43 29.00 277.59 3319.69
   04:15:00.611.28-Aug-2021 4978.00 7972.82 80.43 29.00 277.79 3319.69
   04:15:00.811.28-Aug-2021 4978.00 7972.47 80.43 29.00 277.99 3319.69
   04:15:01.012.28-Aug-2021 4978.00 7974.49 80.43 29.00 278.19 3319.69
   04:15:01.212.28-Aug-2021 4978.00 7972.88 80.43 29.00 278.39 3319.69
   04:15:01.412.28-Aug-2021 4978.00 7972.88 80.43 29.00 278.59 3319.69
   04:15:01.613.28-Aug-2021 4978.00 7972.15 80.43 29.00 278.79 3319.69
   04:15:01.813.28-Aug-2021 4978.00 7971.90 80.43 29.00 278.99 3319.69
   04:15:02.013.28-Aug-2021 4978.00 7971.62 80.43 29.00 279.19 3319.69
   04:15:02.213.28-Aug-2021 4978.00 7972.52 80.43 29.00 279.39 3319.69
   04:15:02.414.28-Aug-2021 4978.00 7972.52 80.43 29.00 279.59 3319.69
   04:15:02.614.28-Aug-2021 4978.00 7971.66 80.43 29.00 279.79 3319.69
   04:15:02.814.28-Aug-2021 4978.00 7971.84 80.43 29.00 279.99 3319.69
   04:15:03.015.28-Aug-2021 4978.00 7972.44 80.43 29.00 280.19 3319.69
   04:15:03.215.28-Aug-2021 4978.00 7972.76 80.43 29.00 280.39 3319.69
   04:15:03.415.28-Aug-2021 4978.00 7972.76 80.43 29.00 280.59 3319.69
   04:15:03.615.28-Aug-2021 4978.00 7972.59 80.43 29.00 280.79 3319.69
   04:15:03.816.28-Aug-2021 4978.00 7972.52 80.43 29.00 280.99 3319.69
   04:15:04.016.28-Aug-2021 4978.00 7972.24 80.43 29.00 281.20 3319.69
   04:15:04.216.28-Aug-2021 4978.00 7972.17 80.43 29.00 281.40 3319.69
   04:15:04.417.28-Aug-2021 4978.00 7972.17 80.43 29.00 281.60 3319.69
   04:15:04.617.28-Aug-2021 4978.00 7973.41 80.43 29.00 281.80 3319.69
   04:15:04.817.28-Aug-2021 4978.00 7972.10 80.43 29.00 282.00 3319.69
   04:15:05.017.28-Aug-2021 4978.00 7971.82 80.43 29.00 282.20 3319.69
   04:15:05.218.28-Aug-2021 4978.00 7971.84 80.43 29.00 282.40 3319.69
   04:15:05.418.28-Aug-2021 4978.00 7971.84 80.43 29.00 282.60 3319.69
   04:15:05.618.28-Aug-2021 4978.00 7971.81 80.43 29.00 282.80 3319.69
   04:15:05.819.28-Aug-2021 4978.00 7971.53 80.43 29.00 283.00 3319.69
   04:15:06.019.28-Aug-2021 4978.00 7971.74 80.43 29.00 283.20 3319.69
   04:15:06.219.28-Aug-2021 4978.00 7972.11 80.43 29.00 283.40 3319.69
   04:15:06.419.28-Aug-2021 4978.00 7972.11 80.43 29.00 283.60 3319.69
   04:15:06.620.28-Aug-2021 4978.00 7973.27 80.43 29.00 283.80 3319.69
   04:15:06.820.28-Aug-2021 4978.00 7972.99 80.43 29.00 284.00 3319.69
   04:15:07.020.28-Aug-2021 4978.00 7972.86 80.43 29.00 284.20 3319.69
   04:15:07.220.28-Aug-2021 4978.00 7972.76 80.43 29.00 284.40 3319.69
   04:15:07.421.28-Aug-2021 4978.00 7972.76 80.43 29.00 284.60 3319.69
   04:15:07.621.28-Aug-2021 4978.00 7972.70 80.43 29.00 284.80 3319.69
   04:15:07.821.28-Aug-2021 4978.00 7976.90 80.43 29.00 285.00 3319.69
   04:15:08.022.28-Aug-2021 4978.00 7972.40 80.43 29.00 285.20 3319.69
   04:15:08.222.28-Aug-2021 4978.00 7972.27 80.43 29.00 285.40 3319.69
   04:15:08.422.28-Aug-2021 4978.00 7972.27 80.43 29.00 285.60 3319.69
   04:15:08.622.28-Aug-2021 4978.00 7974.81 80.43 29.00 285.80 3319.69
   04:15:08.823.28-Aug-2021 4978.00 7973.47 80.43 29.00 286.00 3319.69
   04:15:09.023.28-Aug-2021 4978.00 7972.98 80.43 29.00 286.20 3319.69
   04:15:09.223.28-Aug-2021 4978.00 7971.46 80.43 29.00 286.40 3319.69
   04:15:09.424.28-Aug-2021 4978.00 7971.46 80.43 29.00 286.60 3319.69
   04:15:09.624.28-Aug-2021 4978.00 7972.76 80.43 29.00 286.80 3319.69
   04:15:09.824.28-Aug-2021 4978.00 7973.73 80.43 29.00 287.00 3319.69
   04:15:10.024.28-Aug-2021 4978.00 7972.02 80.43 29.00 287.20 3319.69
   04:15:10.225.28-Aug-2021 4978.00 7971.41 80.43 29.00 287.40 3319.69
   04:15:10.425.28-Aug-2021 4978.00 7971.41 80.43 29.00 287.60 3319.69
   04:15:10.625.28-Aug-2021 4978.00 7972.17 80.43 29.00 287.80 3319.69
   04:15:10.826.28-Aug-2021 4978.00 7971.82 80.43 29.00 288.00 3319.69
   04:15:11.026.28-Aug-2021 4978.00 7971.55 80.43 29.00 288.21 3319.69
   04:15:11.226.28-Aug-2021 4978.00 7971.75 80.43 29.00 288.41 3319.69
   04:15:11.426.28-Aug-2021 4978.00 7971.75 80.43 29.00 288.61 3319.69
   04:15:11.627.28-Aug-2021 4978.00 7972.06 80.43 29.00 288.81 3319.69
   04:15:11.827.28-Aug-2021 4978.00 7972.00 80.43 29.00 289.01 3319.69
   04:15:12.027.28-Aug-2021 4978.00 7971.64 80.43 29.00 289.21 3319.69
   04:15:12.228.28-Aug-2021 4978.00 7971.98 80.43 29.00 289.41 3319.69
   04:15:12.428.28-Aug-2021 4978.00 7971.98 80.43 29.00 289.61 3319.69
   04:15:12.628.28-Aug-2021 4978.00 7973.00 80.43 29.00 289.81 3319.69
   04:15:12.828.28-Aug-2021 4978.00 7972.67 80.43 29.00 290.01 3319.69
   04:15:13.029.28-Aug-2021 4978.00 7972.64 80.43 29.00 290.21 3319.69
   04:15:13.229.28-Aug-2021 4978.00 7972.49 80.43 29.00 290.41 3319.69
   04:15:13.429.28-Aug-2021 4978.00 7972.49 80.43 29.00 290.61 3319.69
   04:15:13.629.28-Aug-2021 4978.00 7978.01 80.43 29.00 290.81 3319.69
   04:15:13.830.28-Aug-2021 4978.00 7970.81 80.43 29.00 291.01 3319.69
   04:15:14.030.28-Aug-2021 4978.00 7972.82 80.43 29.00 291.21 3319.69
   04:15:14.230.28-Aug-2021 4978.00 7972.13 80.43 29.00 291.41 3319.69
   04:15:14.431.28-Aug-2021 4978.00 7972.13 80.43 29.00 291.61 3319.69
   04:15:14.631.28-Aug-2021 4978.00 7972.12 80.43 29.00 291.81 3319.69
   04:15:14.831.28-Aug-2021 4978.00 7972.02 80.43 29.00 292.01 3319.69
   04:15:15.031.28-Aug-2021 4978.00 7971.56 80.43 29.00 292.21 3319.69
   04:15:15.232.28-Aug-2021 4978.00 7971.47 80.43 29.00 292.41 3319.69
   04:15:15.432.28-Aug-2021 4978.00 7971.47 80.43 29.00 292.61 3319.69
   04:15:15.632.28-Aug-2021 4978.00 7972.72 80.43 29.00 292.81 3319.69
   04:15:15.833.28-Aug-2021 4978.00 7973.06 80.43 29.00 293.01 3319.69
   04:15:16.033.28-Aug-2021 4978.00 7973.02 80.43 29.00 293.21 3319.69
   04:15:16.233.28-Aug-2021 4978.00 7972.73 80.43 29.00 293.41 3319.69
   04:15:16.433.28-Aug-2021 4978.00 7972.73 80.43 29.00 293.61 3319.69
   04:15:16.634.28-Aug-2021 4978.00 7972.59 80.43 29.00 293.81 3319.69
   04:15:16.834.28-Aug-2021 4978.00 7972.41 80.43 29.00 294.01 3319.69
