~Version Information
 VERS.                  2.0:   CWLS log ASCII Standard -VERSION 2.0
 WRAP.                   NO:   One line per depth step
~Well Information Block
#MNEM.UNIT     VALUE/NAME     DESCRIPTION
#---------     -----------    ---------------------------
 STRT.S             07:19:48 27-Aug-21: START TIME 07:19:48 27-Aug-21
 STOP.S             07:26:57 27-Aug-21: STOP TIME  07:26:57 27-Aug-21
 STEP.S                   0.00: STEP TIME
 NULL.                 -999.25: NULL VALUE
 DFWT.                        :  DIST FWL TEXT
 DFST.                        :  DIST FSL TEXT
 DMF .             Drill Floor:  DRILL MEAS FROM
 STIM.      20.00.00 17-Aug-21:  START TIME
 DATE.      19.00.00 29-Aug-21:  END TIME
 SPUD.               15-Aug-21:  SPUD DATE
 NREF.                    Grid:  NORTH REFERENCE
 HPTY.       Minimum Curvature:  HOLE POS TYPE
 DMOD.             Drill Model:  DRILL MOD DESC
 SVYD.                  Survey:  SURVEY DESC
 ILTD.               Lithology:  INTERP LTH DESC
 FTOP.          Formation Tops:  FORM TOPS DESC
 RIG .              East Azeri:  RIG NAME
 PDAT.          Mean Sea Level:  PERMANENT DATUM
 FLD .                     ACG:  FIELD NAME
 SON .        AZ-XX-0907180857:  JOB NUMBER
 CTRY.              Azerbaijan:  COUNTRY NAME
 WELL.                    D23x:  WELL NAME
 SRVC.     Turan Drilling and Engineering:  CONTRACTOR
 COMP.     BP Exploration (Caspian Sea) Ltd.:  COMPANY
 UWI .            /AZE00000214:  UNIQUE WELL IDENTIFIER
 API .            /AZE00000214:  API NUMBER
 MDS .        Operator Entered:  MAG DATA SOURCE
 BASE.              Azerbaijan:  LOGGING EQUIPMENT BASE LOCATION
 REGN.                   EESSA:  REGION
 PROV.                    Baku:  PROVINCE
 STAT.                    Baku:  STATE NAME
 MWDS.                    Baku:  MWD SHOP
 DOE .                     N/A:  DOE NUMBER
 DCON.         Sperry Drilling:  DIRECTNL CONTR
 UNIT.                     N/A:  LOGGING EQUIPMENT ID
 WTYP.                Deviated:  WELL TYPE
 CNTY.                        :  COUNTY
 LOC .                        :  LOCATION
 LMF .             Drill Floor:  LOG MEASURED FROM
 TVDS.m                  43.60:  TVDSS CORRECTN
 LATI.deg                40.02:  LATITUDE
 LONG.deg                51.45:  LONGITUDE
 WHNS.m                  -7.04:  WELL HEAD N/S
 WHEW.m                  -0.67:  WELL HEAD E/W
 UTMX.m              538762.90:  UTM X
 UTMY.m             4431871.34:  UTM Y
 DFWL.m                   0.00:  DISTANCE FWL
 DFSL.m                   0.00:  DISTANCE FSL
 SDEP.m                4127.00:  START DEPTH
 TDD .m                5084.50:  TOTAL DEPTH (DRILLER)
 VSDR.deg               140.47:  VERT SEC DIRECT
 GVFD.g                   1.00:  GRAVITY FIELD
 MFLD.nT              50362.00:  MAGNETIC FIELD
 MDIP.deg                59.48:  MAGNETIC DIP
 MDEC.deg                 6.47:  MAGNETIC DECL
 GRDC.deg                 0.31:  GRID CORRECTION
 AZTC.deg                 6.16:  AZM TOTAL CORR
 EPD .m                   0.00:  ELEVATION
 EGL .m                   0.00:  GROUND ELEVATION
 WDMS.m                 151.80:  WD ELEV
 APD .m                  43.60:  DEPTH ABOVE PD
 DEP .m                4092.57:  DEPTH
 AGAP.m                  43.60:  AIR GAP
 VSEW.m                  -0.67:  VERT SEC E/W
 VSNS.m                  -7.04:  VERT SEC N/S
 EKB .m                  43.60:  KB ELEVATION
 EDF .m                  43.60:  DF ELEVATION
 TDL .m                 957.50:  TOTAL DEPTH (LOGGER)
 VSC .                       0:  VS TO CLOSURE
 MAGU.                 1851413:  MAGUTM CHECKSUM
~Parameter Information Block
#MNEM.UNIT       Value        Description
#---------     -----------    ---------------------------
 AV  .mps                 1.50:  Ann Velocity 
 AVMX.mps                 2.00:  Max Ann Veloc 
 AZIF.deg               184.66:  Azm, Final 
 BHAT.        Rotary Steerable:  BHA Type 
 BREV.rev               300.00:  Rev Bit Total 
 BROT.°/30m              -0.50:  Build Rotating 
 BS  .in                  8.50:  Bit Size 
 BSZ .in                  8.50:  Bit Size 
 BTPL.psig              370.00:  Bit Press Loss 
 CABU.                      No:  Customer Abuse 
 CGEO.      Behruz Shahbaliyev:  Customer Geo 
 COMM.                     Ô‘[:  Run Comments 1 
 TCS .hr                140.08:  Time Ciculation Ended 
 CV  .mps                 3.00:  Crit Velocity 
 CVMX.mps                 3.20:  Max Crit Veloc 
 DD1 .            Musa Ahmadov:  Direct Drillr 1 
 DD2 .           Hamid Ahmadov:  Direct Drillr 2 
 DDSV.               Geo-Pilot:  DD Service 
 DEFF.%                  98.40:  % Det Eff 
 DLRX.°/30m               3.40:  Dogleg Rot Max 
 DLSO.°/30m               1.45:  Dogleg Oriented 
 DLSX.°/30m               3.40:  Dogleg Str Max 
 DRET.      18.40.00 29-Aug-21:  Drill End Time 
 DRST.      21.00.00 20-Aug-21:  Drill Start Tim 
 DTIM.hr                 69.47:  Time Drilling 
 EDEP.m                5084.50:  End Depth 
 ENG1.      Artemiy Matviyanov:  Engineer 1 
 ENG2.         Almaz Almadatov:  Engineer 2 
 ETIM.      18.40.00 29-Aug-21:  End Time 
 FLOI.gpm               500.00:  Flow In 
 FLON.gpm               400.00:  Flow In Min 
 FLOS.cptm                0.00:  Fluid Loss 
 FLOX.gpm               500.00:  Flow In Max 
 DFT .        Mineral Oil Base:  Mud Type 
 HFLO.                      No:  High Flow 
 HPRE.                      No:  High Pressure 
 HTEM.                      No:  High Temp 
 HYDO.m                   1.80:  Hydro Offset 
 IFIN.deg                25.62:  Inc, Final 
 IMAX.deg                48.69:  Inc Max 
 IMIN.deg                24.01:  Inc Min 
 IMND.m                4962.57:  Inc Min Depth 
 IMXD.m                4119.01:  Inc Max Depth 
 JARR.                      No:  Jarring 
 LETM.      18.40.00 29-Aug-21:  Log End Time 
 LOST.hr                     0:  Lost Rig Time 
 LSTM.      21.00.00 20-Aug-21:  Log Start Time 
 MDCL.ppm             41500.00:  Mud Chlorides 
 MDES.     Inversion Oil/Synthetic:  Mud Desc 
 DFD .sg                  1.56:  Mud Density 
 MDMN.sg                  1.56:  Dens Mud Min 
 MDMX.sg                  1.56:  Dens Mud Max 
 MOIL.                      70:  Run Mud Oil % 
 MOWR.                   70:30:  Run Mud OWR 
 MSND.                     0.2:  Run Mud Sand % 
 MSOL.                    23.3:  Run Mud Solids% 
 DFV .spqt               78.00:  Mud Viscosity 
 MWOD.in                  6.75:  MWD Tool OD 
 MWSI.                      No:  Serv Intrp, MWD 
 OTIM.hr                218.30:  Time Operating 
 PCON.           Look Like New:  Pad Condition 
 PMAX.psia            11015.30:  Press Op, Max 
 PV  .cP                 38.00:  Mud PV 
 RUN .                     300:  Run Number 
 ROPA.m/hr               15.00:  ROP Avg 
 ROPN.m/hr                9.00:  ROP Min 
 ROPX.m/hr               17.00:  ROP Max 
 RPMA.rpm               120.00:  RPM Surface Avg 
 RPMN.rpm                90.00:  RPM Surface Min 
 RPMX.rpm               140.00:  RPM Surface Max 
 RRUN.                     300:  Rig Run Number 
 RTIM.hr                 31.53:  Time Reaming 
 SAZI.deg               331.64:  Azm, Start 
 SDEP.m                4127.00:  Start Depth 
 SIDD.                      No:  Serv Intrp, DD 
 SINC.deg                48.43:  Inc, Start 
 SPPA.psig             5830.00:  SPP Avg 
 SPPN.psig             5600.00:  SPP Min 
 SPPX.psig             5900.00:  SPP Max 
 STIM.      21.00.00 20-Aug-21:  Start Time 
 SVCS.                 DD, MWD:  Services 
 SVER.                    9.20:  Sperry Version 
 TDAT.m                 957.50:  Tot Depth Attmp 
 TDDF.                      No:  Trip for DD 
 TDLG.m                 957.50:  Tot Depth Loggd 
 TFF .                      No:  Trip for Fail 
 TQAA.f-kp               15.00:  Torque Abs Avg 
 TQAN.f-kp               12.00:  Torque Abs Min 
 TQAX.f-kp               19.00:  Torque Abs Max 
 TRRT.°/30m              -3.40:  Turn Rotating 
 MRT .                  EWR-M5:  Maximum Recorded Temperature 
 TTMX.degC              100.00:  Max Tool Temp 
 VS01.                90639251:  Virtual Str1 SN 
 VS02.                90634715:  Virtual Str2 SN 
 VS03.                90652479:  Virtual Str3 SN 
 VS04.                90642262:  Virtual Str4 SN 
 WBMN.klb                 0.00:  WOB Min 
 WITN.           Murad Guliyev:  Customer Rep 
 WITN.          Yashar Gaziyev:  Customer Rep 2 
 WOBA.klb                 9.00:  WOB Avg 
 WOBX.klb                12.00:  WOB Max 
 YP  .lhf2               30.00:  Yield Point 
~Curve Information Block
#MNEM.UNIT                 API CODE     Curve Description
#---------               -----------    ---------------------------
 TIME.HHMMSS            00 000 000 000:  GT Time & Date
 GTDEPTH.m              00 000 000 000:  GT Depth
 GTPQH.psia             00 000 000 000:  GT HR Quartz Pressure
 GTTQ.degC              00 000 000 000:  GT Quartz Temperature
 GTTN.NONE              00 000 000 000:  GT Test Number
 GTET.sec               00 000 000 000:  GT Elapsed Test Time
 GTTVD.m                00 000 000 000:  GT True Vertical Depth
#Other Information
#
#WARRANTY: Halliburton will use its best efforts to furnish customers with 
#accurate information and interpretations that are part of, and incident to, the services 
#provided.  However, Halliburton cannot and does not warrant the accuracy 
#or correctness of such information and interpretations.  Under no circumstances should any 
#such information or interpretation be relied upon as the sole basis for any drilling, 
#completion, production, or financial decision or any procedure involving any risk to the 
#safety of any drilling venture, drilling rig or its crew or any other third party.  The 
#Customer has full responsibility for all drilling, completion and production operation.  
#Halliburton makes no representations or warranties, either expressed or 
#implied, including, but not limited to, the implied warranties of merchantability or fitness 
#for a particular purpose, with respect to the services rendered.  In no event will 
#Halliburton be liable for failure to obtain any particular results or for 
#any damages, including, but not limited to, indirect, special or consequential damages, 
#resulting from the use of any information or interpretation provided by Halliburton.
#
~A           TIME           GTDEPTH  GTPQH  GTTQ  GTTN  GTET   GTTVD  
# ...
   07:26:42.332.27-Aug-2021 5010.50 8049.09 87.51 3.00 414.07 3349.10
   07:26:42.532.27-Aug-2021 5010.50 8049.09 87.51 3.00 414.27 3349.10
   07:26:42.732.27-Aug-2021 5010.50 8041.19 87.50 3.00 414.47 3349.10
   07:26:42.932.27-Aug-2021 5010.50 8041.53 87.50 3.00 414.67 3349.10
   07:26:43.132.27-Aug-2021 5010.50 8041.28 87.50 3.00 414.87 3349.10
   07:26:43.332.27-Aug-2021 5010.50 8041.62 87.50 3.00 415.07 3349.10
   07:26:43.532.27-Aug-2021 5010.50 8041.62 87.50 3.00 415.27 3349.10
   07:26:43.732.27-Aug-2021 5010.50 8041.98 87.50 3.00 415.47 3349.10
   07:26:43.932.27-Aug-2021 5010.50 8041.71 87.50 3.00 415.67 3349.10
   07:26:44.132.27-Aug-2021 5010.50 8041.65 87.50 3.00 415.87 3349.10
   07:26:44.332.27-Aug-2021 5010.50 8042.86 87.50 3.00 416.07 3349.10
   07:26:44.532.27-Aug-2021 5010.50 8042.86 87.50 3.00 416.27 3349.10
   07:26:44.732.27-Aug-2021 5010.50 8043.62 87.50 3.00 416.47 3349.10
   07:26:44.932.27-Aug-2021 5010.50 8042.81 87.50 3.00 416.67 3349.10
   07:26:45.132.27-Aug-2021 5010.50 8042.47 87.50 3.00 416.87 3349.10
   07:26:45.332.27-Aug-2021 5010.50 8042.36 87.50 3.00 417.07 3349.10
   07:26:45.532.27-Aug-2021 5010.50 8042.36 87.50 3.00 417.27 3349.10
   07:26:45.732.27-Aug-2021 5010.50 8047.05 87.50 3.00 417.47 3349.10
   07:26:45.932.27-Aug-2021 5010.50 8042.19 87.50 3.00 417.67 3349.10
   07:26:46.132.27-Aug-2021 5010.50 8041.83 87.50 3.00 417.87 3349.10
   07:26:46.332.27-Aug-2021 5010.50 8041.08 87.50 3.00 418.07 3349.10
   07:26:46.532.27-Aug-2021 5010.50 8041.08 87.50 3.00 418.27 3349.10
   07:26:46.732.27-Aug-2021 5010.50 8042.50 87.50 3.00 418.47 3349.10
   07:26:46.932.27-Aug-2021 5010.50 8044.86 87.50 3.00 418.67 3349.10
   07:26:47.132.27-Aug-2021 5010.50 8042.68 87.50 3.00 418.87 3349.10
   07:26:47.332.27-Aug-2021 5010.50 8040.72 87.50 3.00 419.07 3349.10
   07:26:47.532.27-Aug-2021 5010.50 8040.72 87.50 3.00 419.27 3349.10
   07:26:47.733.27-Aug-2021 5010.50 8041.58 87.50 3.00 419.47 3349.10
   07:26:47.933.27-Aug-2021 5010.50 8050.21 87.50 3.00 419.67 3349.10
   07:26:48.133.27-Aug-2021 5010.50 8040.61 87.50 3.00 419.87 3349.10
   07:26:48.333.27-Aug-2021 5010.50 8041.27 87.50 3.00 420.07 3349.10
   07:26:48.533.27-Aug-2021 5010.50 8041.27 87.50 3.00 420.27 3349.10
   07:26:48.733.27-Aug-2021 5010.50 8041.48 87.50 3.00 420.47 3349.10
   07:26:48.933.27-Aug-2021 5010.50 8042.66 87.50 3.00 420.67 3349.10
   07:26:49.133.27-Aug-2021 5010.50 8042.64 87.50 3.00 420.87 3349.10
   07:26:49.333.27-Aug-2021 5010.50 8046.39 87.50 3.00 421.07 3349.10
   07:26:49.533.27-Aug-2021 5010.50 8046.39 87.50 3.00 421.27 3349.10
   07:26:49.733.27-Aug-2021 5010.50 8041.17 87.50 3.00 421.47 3349.10
   07:26:49.933.27-Aug-2021 5010.50 8042.53 87.50 3.00 421.67 3349.10
   07:26:50.133.27-Aug-2021 5010.50 8043.16 87.49 3.00 421.87 3349.10
   07:26:50.333.27-Aug-2021 5010.50 8043.24 87.49 3.00 422.07 3349.10
   07:26:50.533.27-Aug-2021 5010.50 8043.24 87.49 3.00 422.27 3349.10
   07:26:50.733.27-Aug-2021 5010.50 8041.87 87.49 3.00 422.47 3349.10
   07:26:50.933.27-Aug-2021 5010.50 8041.70 87.49 3.00 422.67 3349.10
   07:26:51.133.27-Aug-2021 5010.50 8042.59 87.49 3.00 422.87 3349.10
   07:26:51.333.27-Aug-2021 5010.50 8043.62 87.49 3.00 423.07 3349.10
   07:26:51.533.27-Aug-2021 5010.50 8043.62 87.49 3.00 423.27 3349.10
   07:26:51.733.27-Aug-2021 5010.50 8043.35 87.49 3.00 423.47 3349.10
   07:26:51.933.27-Aug-2021 5010.50 8042.78 87.49 3.00 423.67 3349.10
   07:26:52.133.27-Aug-2021 5010.50 8042.93 87.49 3.00 423.87 3349.10
   07:26:52.333.27-Aug-2021 5010.50 8042.94 87.49 3.00 424.07 3349.10
   07:26:52.533.27-Aug-2021 5010.50 8042.94 87.49 3.00 424.27 3349.10
   07:26:52.733.27-Aug-2021 5010.50 8041.43 87.49 3.00 424.47 3349.10
   07:26:52.933.27-Aug-2021 5010.50 8042.08 87.49 3.00 424.67 3349.10
   07:26:53.133.27-Aug-2021 5010.50 8042.05 87.49 3.00 424.87 3349.10
   07:26:53.333.27-Aug-2021 5010.50 8042.14 87.49 3.00 425.07 3349.10
   07:26:53.533.27-Aug-2021 5010.50 8042.14 87.49 3.00 425.27 3349.10
   07:26:53.734.27-Aug-2021 5010.50 8042.76 87.49 3.00 425.47 3349.10
   07:26:53.934.27-Aug-2021 5010.50 8042.37 87.49 3.00 425.67 3349.10
   07:26:54.134.27-Aug-2021 5010.50 8042.33 87.49 3.00 425.87 3349.10
   07:26:54.334.27-Aug-2021 5010.50 8042.24 87.49 3.00 426.07 3349.10
   07:26:54.534.27-Aug-2021 5010.50 8042.24 87.49 3.00 426.27 3349.10
   07:26:54.734.27-Aug-2021 5010.50 8043.88 87.49 3.00 426.47 3349.10
   07:26:54.934.27-Aug-2021 5010.50 8043.64 87.49 3.00 426.67 3349.10
   07:26:55.134.27-Aug-2021 5010.50 8043.01 87.49 3.00 426.87 3349.10
   07:26:55.334.27-Aug-2021 5010.50 8042.68 87.49 3.00 427.07 3349.10
   07:26:55.534.27-Aug-2021 5010.50 8042.68 87.49 3.00 427.27 3349.10
   07:26:55.734.27-Aug-2021 5010.50 8042.65 87.49 3.00 427.47 3349.10
   07:26:55.934.27-Aug-2021 5010.50 8047.24 87.49 3.00 427.67 3349.10
   07:26:56.134.27-Aug-2021 5010.50 8042.98 87.49 3.00 427.87 3349.10
   07:26:56.334.27-Aug-2021 5010.50 8041.99 87.49 3.00 428.07 3349.10
   07:26:56.534.27-Aug-2021 5010.50 8041.99 87.49 3.00 428.27 3349.10
   07:26:56.734.27-Aug-2021 5010.50 8041.88 87.49 3.00 428.47 3349.10
   07:26:56.934.27-Aug-2021 5010.50 8046.83 87.49 3.00 428.67 3349.10
   07:26:57.134.27-Aug-2021 5010.50 8043.15 87.49 3.00 428.87 3349.10
