~Version Information
 VERS.                  2.0:   CWLS log ASCII Standard -VERSION 2.0
 WRAP.                   NO:   One line per depth step
~Well Information Block
#MNEM.UNIT     VALUE/NAME     DESCRIPTION
#---------     -----------    ---------------------------
 STRT.S             22:57:07 27-Aug-21: START TIME 22:57:07 27-Aug-21
 STOP.S             23:04:14 27-Aug-21: STOP TIME  23:04:14 27-Aug-21
 STEP.S                   0.00: STEP TIME
 NULL.                 -999.25: NULL VALUE
 DFWT.                        :  DIST FWL TEXT
 DFST.                        :  DIST FSL TEXT
 DMF .             Drill Floor:  DRILL MEAS FROM
 STIM.      20.00.00 17-Aug-21:  START TIME
 DATE.      19.00.00 29-Aug-21:  END TIME
 SPUD.               15-Aug-21:  SPUD DATE
 NREF.                    Grid:  NORTH REFERENCE
 HPTY.       Minimum Curvature:  HOLE POS TYPE
 DMOD.             Drill Model:  DRILL MOD DESC
 SVYD.                  Survey:  SURVEY DESC
 ILTD.               Lithology:  INTERP LTH DESC
 FTOP.          Formation Tops:  FORM TOPS DESC
 RIG .              East Azeri:  RIG NAME
 PDAT.          Mean Sea Level:  PERMANENT DATUM
 FLD .                     ACG:  FIELD NAME
 SON .        AZ-XX-0907180857:  JOB NUMBER
 CTRY.              Azerbaijan:  COUNTRY NAME
 WELL.                    D23x:  WELL NAME
 SRVC.     Turan Drilling and Engineering:  CONTRACTOR
 COMP.     BP Exploration (Caspian Sea) Ltd.:  COMPANY
 UWI .            /AZE00000214:  UNIQUE WELL IDENTIFIER
 API .            /AZE00000214:  API NUMBER
 MDS .        Operator Entered:  MAG DATA SOURCE
 BASE.              Azerbaijan:  LOGGING EQUIPMENT BASE LOCATION
 REGN.                   EESSA:  REGION
 PROV.                    Baku:  PROVINCE
 STAT.                    Baku:  STATE NAME
 MWDS.                    Baku:  MWD SHOP
 DOE .                     N/A:  DOE NUMBER
 DCON.         Sperry Drilling:  DIRECTNL CONTR
 UNIT.                     N/A:  LOGGING EQUIPMENT ID
 WTYP.                Deviated:  WELL TYPE
 CNTY.                        :  COUNTY
 LOC .                        :  LOCATION
 LMF .             Drill Floor:  LOG MEASURED FROM
 TVDS.m                  43.60:  TVDSS CORRECTN
 LATI.deg                40.02:  LATITUDE
 LONG.deg                51.45:  LONGITUDE
 WHNS.m                  -7.04:  WELL HEAD N/S
 WHEW.m                  -0.67:  WELL HEAD E/W
 UTMX.m              538762.90:  UTM X
 UTMY.m             4431871.34:  UTM Y
 DFWL.m                   0.00:  DISTANCE FWL
 DFSL.m                   0.00:  DISTANCE FSL
 SDEP.m                4127.00:  START DEPTH
 TDD .m                5084.50:  TOTAL DEPTH (DRILLER)
 VSDR.deg               140.47:  VERT SEC DIRECT
 GVFD.g                   1.00:  GRAVITY FIELD
 MFLD.nT              50362.00:  MAGNETIC FIELD
 MDIP.deg                59.48:  MAGNETIC DIP
 MDEC.deg                 6.47:  MAGNETIC DECL
 GRDC.deg                 0.31:  GRID CORRECTION
 AZTC.deg                 6.16:  AZM TOTAL CORR
 EPD .m                   0.00:  ELEVATION
 EGL .m                   0.00:  GROUND ELEVATION
 WDMS.m                 151.80:  WD ELEV
 APD .m                  43.60:  DEPTH ABOVE PD
 DEP .m                4092.57:  DEPTH
 AGAP.m                  43.60:  AIR GAP
 VSEW.m                  -0.67:  VERT SEC E/W
 VSNS.m                  -7.04:  VERT SEC N/S
 EKB .m                  43.60:  KB ELEVATION
 EDF .m                  43.60:  DF ELEVATION
 TDL .m                 957.50:  TOTAL DEPTH (LOGGER)
 VSC .                       0:  VS TO CLOSURE
 MAGU.                 1851413:  MAGUTM CHECKSUM
~Parameter Information Block
#MNEM.UNIT       Value        Description
#---------     -----------    ---------------------------
 AV  .mps                 1.50:  Ann Velocity 
 AVMX.mps                 2.00:  Max Ann Veloc 
 AZIF.deg               184.66:  Azm, Final 
 BHAT.        Rotary Steerable:  BHA Type 
 BREV.rev               300.00:  Rev Bit Total 
 BROT.°/30m              -0.50:  Build Rotating 
 BS  .in                  8.50:  Bit Size 
 BSZ .in                  8.50:  Bit Size 
 BTPL.psig              370.00:  Bit Press Loss 
 CABU.                      No:  Customer Abuse 
 CGEO.      Behruz Shahbaliyev:  Customer Geo 
 TCS .hr                140.08:  Time Ciculation Ended 
 CV  .mps                 3.00:  Crit Velocity 
 CVMX.mps                 3.20:  Max Crit Veloc 
 DD1 .            Musa Ahmadov:  Direct Drillr 1 
 DD2 .           Hamid Ahmadov:  Direct Drillr 2 
 DDSV.               Geo-Pilot:  DD Service 
 DEFF.%                  98.40:  % Det Eff 
 DLRX.°/30m               3.40:  Dogleg Rot Max 
 DLSO.°/30m               1.45:  Dogleg Oriented 
 DLSX.°/30m               3.40:  Dogleg Str Max 
 DRET.      18.40.00 29-Aug-21:  Drill End Time 
 DRST.      21.00.00 20-Aug-21:  Drill Start Tim 
 DTIM.hr                 69.47:  Time Drilling 
 EDEP.m                5084.50:  End Depth 
 ENG1.      Artemiy Matviyanov:  Engineer 1 
 ENG2.         Almaz Almadatov:  Engineer 2 
 ETIM.      18.40.00 29-Aug-21:  End Time 
 FLOI.gpm               500.00:  Flow In 
 FLON.gpm               400.00:  Flow In Min 
 FLOS.cptm                0.00:  Fluid Loss 
 FLOX.gpm               500.00:  Flow In Max 
 DFT .        Mineral Oil Base:  Mud Type 
 HFLO.                      No:  High Flow 
 HPRE.                      No:  High Pressure 
 HTEM.                      No:  High Temp 
 HYDO.m                   1.80:  Hydro Offset 
 IFIN.deg                25.62:  Inc, Final 
 IMAX.deg                48.69:  Inc Max 
 IMIN.deg                24.01:  Inc Min 
 IMND.m                4962.57:  Inc Min Depth 
 IMXD.m                4119.01:  Inc Max Depth 
 JARR.                      No:  Jarring 
 LETM.      18.40.00 29-Aug-21:  Log End Time 
 LOST.hr                     0:  Lost Rig Time 
 LSTM.      21.00.00 20-Aug-21:  Log Start Time 
 MDCL.ppm             41500.00:  Mud Chlorides 
 MDES.     Inversion Oil/Synthetic:  Mud Desc 
 DFD .sg                  1.56:  Mud Density 
 MDMN.sg                  1.56:  Dens Mud Min 
 MDMX.sg                  1.56:  Dens Mud Max 
 MOIL.                      70:  Run Mud Oil % 
 MOWR.                   70:30:  Run Mud OWR 
 MSND.                     0.2:  Run Mud Sand % 
 MSOL.                    23.3:  Run Mud Solids% 
 DFV .spqt               78.00:  Mud Viscosity 
 MWOD.in                  6.75:  MWD Tool OD 
 MWSI.                      No:  Serv Intrp, MWD 
 OTIM.hr                218.30:  Time Operating 
 PCON.           Look Like New:  Pad Condition 
 PMAX.psia            11015.30:  Press Op, Max 
 PV  .cP                 38.00:  Mud PV 
 RUN .                     300:  Run Number 
 ROPA.m/hr               15.00:  ROP Avg 
 ROPN.m/hr                9.00:  ROP Min 
 ROPX.m/hr               17.00:  ROP Max 
 RPMA.rpm               120.00:  RPM Surface Avg 
 RPMN.rpm                90.00:  RPM Surface Min 
 RPMX.rpm               140.00:  RPM Surface Max 
 RRUN.                     300:  Rig Run Number 
 RTIM.hr                 31.53:  Time Reaming 
 SAZI.deg               331.64:  Azm, Start 
 SDEP.m                4127.00:  Start Depth 
 SIDD.                      No:  Serv Intrp, DD 
 SINC.deg                48.43:  Inc, Start 
 SPPA.psig             5830.00:  SPP Avg 
 SPPN.psig             5600.00:  SPP Min 
 SPPX.psig             5900.00:  SPP Max 
 STIM.      21.00.00 20-Aug-21:  Start Time 
 SVCS.                 DD, MWD:  Services 
 SVER.                    9.20:  Sperry Version 
 TDAT.m                 957.50:  Tot Depth Attmp 
 TDDF.                      No:  Trip for DD 
 TDLG.m                 957.50:  Tot Depth Loggd 
 TFF .                      No:  Trip for Fail 
 TQAA.f-kp               15.00:  Torque Abs Avg 
 TQAN.f-kp               12.00:  Torque Abs Min 
 TQAX.f-kp               19.00:  Torque Abs Max 
 TRRT.°/30m              -3.40:  Turn Rotating 
 MRT .                  EWR-M5:  Maximum Recorded Temperature 
 TTMX.degC              100.00:  Max Tool Temp 
 VS01.                90639251:  Virtual Str1 SN 
 VS02.                90634715:  Virtual Str2 SN 
 VS03.                90652479:  Virtual Str3 SN 
 VS04.                90642262:  Virtual Str4 SN 
 WBMN.klb                 0.00:  WOB Min 
 WITN.           Murad Guliyev:  Customer Rep 
 WITN.          Yashar Gaziyev:  Customer Rep 2 
 WOBA.klb                 9.00:  WOB Avg 
 WOBX.klb                12.00:  WOB Max 
 YP  .lhf2               30.00:  Yield Point 
~Curve Information Block
#MNEM.UNIT                 API CODE     Curve Description
#---------               -----------    ---------------------------
 TIME.HHMMSS            00 000 000 000:  GT Time & Date
 GTDEPTH.m              00 000 000 000:  GT Depth
 GTPQH.psia             00 000 000 000:  GT HR Quartz Pressure
 GTTQ.degC              00 000 000 000:  GT Quartz Temperature
 GTTN.NONE              00 000 000 000:  GT Test Number
 GTET.sec               00 000 000 000:  GT Elapsed Test Time
 GTTVD.m                00 000 000 000:  GT True Vertical Depth
#Other Information
#
#WARRANTY: Halliburton will use its best efforts to furnish customers with 
#accurate information and interpretations that are part of, and incident to, the services 
#provided.  However, Halliburton cannot and does not warrant the accuracy 
#or correctness of such information and interpretations.  Under no circumstances should any 
#such information or interpretation be relied upon as the sole basis for any drilling, 
#completion, production, or financial decision or any procedure involving any risk to the 
#safety of any drilling venture, drilling rig or its crew or any other third party.  The 
#Customer has full responsibility for all drilling, completion and production operation.  
#Halliburton makes no representations or warranties, either expressed or 
#implied, including, but not limited to, the implied warranties of merchantability or fitness 
#for a particular purpose, with respect to the services rendered.  In no event will 
#Halliburton be liable for failure to obtain any particular results or for 
#any damages, including, but not limited to, indirect, special or consequential damages, 
#resulting from the use of any information or interpretation provided by Halliburton.
#
~A           TIME           GTDEPTH  GTPQH  GTTQ  GTTN   GTET   GTTVD  
# ...
   23:03:54.664.27-Aug-2021 4636.60 7207.76 82.27 25.00 406.84 3010.11
   23:03:54.864.27-Aug-2021 4636.60 7207.82 82.27 25.00 407.04 3010.11
   23:03:55.064.27-Aug-2021 4636.60 7207.82 82.27 25.00 407.24 3010.11
   23:03:55.264.27-Aug-2021 4636.60 7209.58 82.27 25.00 407.44 3010.11
   23:03:55.464.27-Aug-2021 4636.60 7208.83 82.27 25.00 407.64 3010.11
   23:03:55.664.27-Aug-2021 4636.60 7208.14 82.27 25.00 407.84 3010.11
   23:03:55.864.27-Aug-2021 4636.60 7208.01 82.27 25.00 408.04 3010.11
   23:03:56.064.27-Aug-2021 4636.60 7208.01 82.27 25.00 408.24 3010.11
   23:03:56.264.27-Aug-2021 4636.60 7208.00 82.26 25.00 408.44 3010.11
   23:03:56.465.27-Aug-2021 4636.60 7208.47 82.26 25.00 408.64 3010.11
   23:03:56.665.27-Aug-2021 4636.60 7208.04 82.26 25.00 408.84 3010.11
   23:03:56.865.27-Aug-2021 4636.60 7207.36 82.26 25.00 409.04 3010.11
   23:03:57.065.27-Aug-2021 4636.60 7207.36 82.26 25.00 409.24 3010.11
   23:03:57.265.27-Aug-2021 4636.60 7208.34 82.26 25.00 409.44 3010.11
   23:03:57.465.27-Aug-2021 4636.60 7207.82 82.26 25.00 409.64 3010.11
   23:03:57.665.27-Aug-2021 4636.60 7207.85 82.26 25.00 409.84 3010.11
   23:03:57.865.27-Aug-2021 4636.60 7208.05 82.26 25.00 410.04 3010.11
   23:03:58.065.27-Aug-2021 4636.60 7208.05 82.26 25.00 410.24 3010.11
   23:03:58.265.27-Aug-2021 4636.60 7208.01 82.26 25.00 410.44 3010.11
   23:03:58.465.27-Aug-2021 4636.60 7207.88 82.26 25.00 410.64 3010.11
   23:03:58.665.27-Aug-2021 4636.60 7207.97 82.26 25.00 410.84 3010.11
   23:03:58.865.27-Aug-2021 4636.60 7207.95 82.26 25.00 411.04 3010.11
   23:03:59.065.27-Aug-2021 4636.60 7207.95 82.26 25.00 411.24 3010.11
   23:03:59.265.27-Aug-2021 4636.60 7211.25 82.26 25.00 411.44 3010.11
   23:03:59.465.27-Aug-2021 4636.60 7207.34 82.26 25.00 411.64 3010.11
   23:03:59.665.27-Aug-2021 4636.60 7207.83 82.26 25.00 411.84 3010.11
   23:03:59.865.27-Aug-2021 4636.60 7207.99 82.26 25.00 412.04 3010.11
   23:04:00.065.27-Aug-2021 4636.60 7207.99 82.26 25.00 412.24 3010.11
   23:04:00.265.27-Aug-2021 4636.60 7208.55 82.26 25.00 412.44 3010.11
   23:04:00.465.27-Aug-2021 4636.60 7208.10 82.26 25.00 412.64 3010.11
   23:04:00.665.27-Aug-2021 4636.60 7207.81 82.26 25.00 412.84 3010.11
   23:04:00.865.27-Aug-2021 4636.60 7207.94 82.26 25.00 413.04 3010.11
   23:04:01.065.27-Aug-2021 4636.60 7207.94 82.26 25.00 413.24 3010.11
   23:04:01.265.27-Aug-2021 4636.60 7208.22 82.26 25.00 413.44 3010.11
   23:04:01.465.27-Aug-2021 4636.60 7208.18 82.26 25.00 413.64 3010.11
   23:04:01.665.27-Aug-2021 4636.60 7208.02 82.26 25.00 413.84 3010.11
   23:04:01.865.27-Aug-2021 4636.60 7208.12 82.26 25.00 414.04 3010.11
   23:04:02.065.27-Aug-2021 4636.60 7208.12 82.26 25.00 414.24 3010.11
   23:04:02.265.27-Aug-2021 4636.60 7208.04 82.26 25.00 414.44 3010.11
   23:04:02.465.27-Aug-2021 4636.60 7208.00 82.26 25.00 414.64 3010.11
   23:04:02.665.27-Aug-2021 4636.60 7211.45 82.26 25.00 414.84 3010.11
   23:04:02.865.27-Aug-2021 4636.60 7207.53 82.26 25.00 415.04 3010.11
   23:04:03.065.27-Aug-2021 4636.60 7207.53 82.26 25.00 415.24 3010.11
   23:04:03.265.27-Aug-2021 4636.60 7208.12 82.26 25.00 415.44 3010.11
   23:04:03.465.27-Aug-2021 4636.60 7207.69 82.26 25.00 415.64 3010.11
   23:04:03.665.27-Aug-2021 4636.60 7212.11 82.26 25.00 415.84 3010.11
   23:04:03.865.27-Aug-2021 4636.60 7207.67 82.26 25.00 416.04 3010.11
   23:04:04.065.27-Aug-2021 4636.60 7207.67 82.26 25.00 416.24 3010.11
   23:04:04.265.27-Aug-2021 4636.60 7212.73 82.26 25.00 416.44 3010.11
   23:04:04.465.27-Aug-2021 4636.60 7206.14 82.26 25.00 416.64 3010.11
   23:04:04.665.27-Aug-2021 4636.60 7209.00 82.26 25.00 416.84 3010.11
   23:04:04.865.27-Aug-2021 4636.60 7208.04 82.26 25.00 417.04 3010.11
   23:04:05.065.27-Aug-2021 4636.60 7208.04 82.26 25.00 417.24 3010.11
   23:04:05.265.27-Aug-2021 4636.60 7205.83 82.26 25.00 417.44 3010.11
   23:04:05.465.27-Aug-2021 4636.60 7207.99 82.26 25.00 417.64 3010.11
   23:04:05.665.27-Aug-2021 4636.60 7208.09 82.26 25.00 417.84 3010.11
   23:04:05.865.27-Aug-2021 4636.60 7208.02 82.26 25.00 418.04 3010.11
   23:04:06.065.27-Aug-2021 4636.60 7208.02 82.26 25.00 418.24 3010.11
   23:04:06.266.27-Aug-2021 4636.60 7208.03 82.26 25.00 418.44 3010.11
   23:04:06.466.27-Aug-2021 4636.60 7208.14 82.26 25.00 418.64 3010.11
   23:04:06.666.27-Aug-2021 4636.60 7207.80 82.26 25.00 418.84 3010.11
   23:04:06.866.27-Aug-2021 4636.60 7207.92 82.26 25.00 419.04 3010.11
   23:04:07.066.27-Aug-2021 4636.60 7207.92 82.26 25.00 419.24 3010.11
   23:04:07.266.27-Aug-2021 4636.60 7208.11 82.26 25.00 419.44 3010.11
   23:04:07.466.27-Aug-2021 4636.60 7207.95 82.26 25.00 419.64 3010.11
   23:04:07.666.27-Aug-2021 4636.60 7207.97 82.26 25.00 419.84 3010.11
   23:04:07.866.27-Aug-2021 4636.60 7207.97 82.26 25.00 420.04 3010.11
   23:04:08.066.27-Aug-2021 4636.60 7207.97 82.26 25.00 420.24 3010.11
   23:04:08.266.27-Aug-2021 4636.60 7213.19 82.26 25.00 420.44 3010.11
   23:04:08.466.27-Aug-2021 4636.60 7205.53 82.26 25.00 420.64 3010.11
   23:04:08.666.27-Aug-2021 4636.60 7207.90 82.26 25.00 420.84 3010.11
   23:04:08.866.27-Aug-2021 4636.60 7207.92 82.26 25.00 421.04 3010.11
   23:04:09.066.27-Aug-2021 4636.60 7207.92 82.26 25.00 421.24 3010.11
   23:04:09.266.27-Aug-2021 4636.60 7208.83 82.26 25.00 421.44 3010.11
   23:04:09.466.27-Aug-2021 4636.60 7208.07 82.26 25.00 421.64 3010.11
   23:04:09.666.27-Aug-2021 4636.60 7208.44 82.25 25.00 421.84 3010.11
   23:04:09.866.27-Aug-2021 4636.60 7208.32 82.25 25.00 422.04 3010.11
   23:04:10.066.27-Aug-2021 4636.60 7208.32 82.25 25.00 422.24 3010.11
   23:04:10.266.27-Aug-2021 4636.60 7208.64 82.25 25.00 422.44 3010.11
   23:04:10.466.27-Aug-2021 4636.60 7208.65 82.25 25.00 422.64 3010.11
   23:04:10.666.27-Aug-2021 4636.60 7208.61 82.25 25.00 422.84 3010.11
   23:04:10.866.27-Aug-2021 4636.60 7208.66 82.25 25.00 423.04 3010.11
   23:04:11.066.27-Aug-2021 4636.60 7208.66 82.25 25.00 423.24 3010.11
   23:04:11.266.27-Aug-2021 4636.60 7208.59 82.25 25.00 423.44 3010.11
   23:04:11.466.27-Aug-2021 4636.60 7208.64 82.25 25.00 423.64 3010.11
   23:04:11.666.27-Aug-2021 4636.60 7213.95 82.25 25.00 423.84 3010.11
   23:04:11.866.27-Aug-2021 4636.60 7206.40 82.25 25.00 424.04 3010.11
   23:04:12.066.27-Aug-2021 4636.60 7206.40 82.25 25.00 424.24 3010.11
   23:04:12.266.27-Aug-2021 4636.60 7208.26 82.25 25.00 424.44 3010.11
   23:04:12.466.27-Aug-2021 4636.60 7208.53 82.25 25.00 424.64 3010.11
   23:04:12.666.27-Aug-2021 4636.60 7214.44 82.25 25.00 424.84 3010.11
   23:04:12.866.27-Aug-2021 4636.60 7205.83 82.25 25.00 425.04 3010.11
   23:04:13.066.27-Aug-2021 4636.60 7205.83 82.25 25.00 425.24 3010.11
   23:04:13.266.27-Aug-2021 4636.60 7209.27 82.25 25.00 425.44 3010.11
   23:04:13.466.27-Aug-2021 4636.60 7210.49 82.25 25.00 425.64 3010.11
   23:04:13.666.27-Aug-2021 4636.60 7209.43 82.25 25.00 425.84 3010.11
   23:04:13.866.27-Aug-2021 4636.60 7208.32 82.25 25.00 426.04 3010.11
   23:04:14.066.27-Aug-2021 4636.60 7208.32 82.25 25.00 426.24 3010.11
   23:04:14.266.27-Aug-2021 4636.60 7206.39 82.25 25.00 426.44 3010.11
   23:04:14.466.27-Aug-2021 4636.60 7208.81 82.25 25.00 426.64 3010.11
   23:04:14.666.27-Aug-2021 4636.60 7208.53 82.25 25.00 426.84 3010.11
