~Version Information
 VERS.                  2.0:   CWLS log ASCII Standard -VERSION 2.0
 WRAP.                   NO:   One line per depth step
~Well Information Block
#MNEM.UNIT     VALUE/NAME     DESCRIPTION
#---------     -----------    ---------------------------
 STRT.S             08:51:30 27-Aug-21: START TIME 08:51:30 27-Aug-21
 STOP.S             08:58:20 27-Aug-21: STOP TIME  08:58:20 27-Aug-21
 STEP.S                   0.00: STEP TIME
 NULL.                 -999.25: NULL VALUE
 DFWT.                        :  DIST FWL TEXT
 DFST.                        :  DIST FSL TEXT
 DMF .             Drill Floor:  DRILL MEAS FROM
 STIM.      20.00.00 17-Aug-21:  START TIME
 DATE.      19.00.00 29-Aug-21:  END TIME
 SPUD.               15-Aug-21:  SPUD DATE
 NREF.                    Grid:  NORTH REFERENCE
 HPTY.       Minimum Curvature:  HOLE POS TYPE
 DMOD.             Drill Model:  DRILL MOD DESC
 SVYD.                  Survey:  SURVEY DESC
 ILTD.               Lithology:  INTERP LTH DESC
 FTOP.          Formation Tops:  FORM TOPS DESC
 RIG .              East Azeri:  RIG NAME
 PDAT.          Mean Sea Level:  PERMANENT DATUM
 FLD .                     ACG:  FIELD NAME
 SON .        AZ-XX-0907180857:  JOB NUMBER
 CTRY.              Azerbaijan:  COUNTRY NAME
 WELL.                    D23x:  WELL NAME
 SRVC.     Turan Drilling and Engineering:  CONTRACTOR
 COMP.     BP Exploration (Caspian Sea) Ltd.:  COMPANY
 UWI .            /AZE00000214:  UNIQUE WELL IDENTIFIER
 API .            /AZE00000214:  API NUMBER
 MDS .        Operator Entered:  MAG DATA SOURCE
 BASE.              Azerbaijan:  LOGGING EQUIPMENT BASE LOCATION
 REGN.                   EESSA:  REGION
 PROV.                    Baku:  PROVINCE
 STAT.                    Baku:  STATE NAME
 MWDS.                    Baku:  MWD SHOP
 DOE .                     N/A:  DOE NUMBER
 DCON.         Sperry Drilling:  DIRECTNL CONTR
 UNIT.                     N/A:  LOGGING EQUIPMENT ID
 WTYP.                Deviated:  WELL TYPE
 CNTY.                        :  COUNTY
 LOC .                        :  LOCATION
 LMF .             Drill Floor:  LOG MEASURED FROM
 TVDS.m                  43.60:  TVDSS CORRECTN
 LATI.deg                40.02:  LATITUDE
 LONG.deg                51.45:  LONGITUDE
 WHNS.m                  -7.04:  WELL HEAD N/S
 WHEW.m                  -0.67:  WELL HEAD E/W
 UTMX.m              538762.90:  UTM X
 UTMY.m             4431871.34:  UTM Y
 DFWL.m                   0.00:  DISTANCE FWL
 DFSL.m                   0.00:  DISTANCE FSL
 SDEP.m                4127.00:  START DEPTH
 TDD .m                5084.50:  TOTAL DEPTH (DRILLER)
 VSDR.deg               140.47:  VERT SEC DIRECT
 GVFD.g                   1.00:  GRAVITY FIELD
 MFLD.nT              50362.00:  MAGNETIC FIELD
 MDIP.deg                59.48:  MAGNETIC DIP
 MDEC.deg                 6.47:  MAGNETIC DECL
 GRDC.deg                 0.31:  GRID CORRECTION
 AZTC.deg                 6.16:  AZM TOTAL CORR
 EPD .m                   0.00:  ELEVATION
 EGL .m                   0.00:  GROUND ELEVATION
 WDMS.m                 151.80:  WD ELEV
 APD .m                  43.60:  DEPTH ABOVE PD
 DEP .m                4092.57:  DEPTH
 AGAP.m                  43.60:  AIR GAP
 VSEW.m                  -0.67:  VERT SEC E/W
 VSNS.m                  -7.04:  VERT SEC N/S
 EKB .m                  43.60:  KB ELEVATION
 EDF .m                  43.60:  DF ELEVATION
 TDL .m                 957.50:  TOTAL DEPTH (LOGGER)
 VSC .                       0:  VS TO CLOSURE
 MAGU.                 1851413:  MAGUTM CHECKSUM
~Parameter Information Block
#MNEM.UNIT       Value        Description
#---------     -----------    ---------------------------
 AV  .mps                 1.50:  Ann Velocity 
 AVMX.mps                 2.00:  Max Ann Veloc 
 AZIF.deg               184.66:  Azm, Final 
 BHAT.        Rotary Steerable:  BHA Type 
 BREV.rev               300.00:  Rev Bit Total 
 BROT.°/30m              -0.50:  Build Rotating 
 BS  .in                  8.50:  Bit Size 
 BSZ .in                  8.50:  Bit Size 
 BTPL.psig              370.00:  Bit Press Loss 
 CABU.                      No:  Customer Abuse 
 CGEO.      Behruz Shahbaliyev:  Customer Geo 
 COMM.                     <w:  Run Comments 1 
 TCS .hr                140.08:  Time Ciculation Ended 
 CV  .mps                 3.00:  Crit Velocity 
 CVMX.mps                 3.20:  Max Crit Veloc 
 DD1 .            Musa Ahmadov:  Direct Drillr 1 
 DD2 .           Hamid Ahmadov:  Direct Drillr 2 
 DDSV.               Geo-Pilot:  DD Service 
 DEFF.%                  98.40:  % Det Eff 
 DLRX.°/30m               3.40:  Dogleg Rot Max 
 DLSO.°/30m               1.45:  Dogleg Oriented 
 DLSX.°/30m               3.40:  Dogleg Str Max 
 DRET.      18.40.00 29-Aug-21:  Drill End Time 
 DRST.      21.00.00 20-Aug-21:  Drill Start Tim 
 DTIM.hr                 69.47:  Time Drilling 
 EDEP.m                5084.50:  End Depth 
 ENG1.      Artemiy Matviyanov:  Engineer 1 
 ENG2.         Almaz Almadatov:  Engineer 2 
 ETIM.      18.40.00 29-Aug-21:  End Time 
 FLOI.gpm               500.00:  Flow In 
 FLON.gpm               400.00:  Flow In Min 
 FLOS.cptm                0.00:  Fluid Loss 
 FLOX.gpm               500.00:  Flow In Max 
 DFT .        Mineral Oil Base:  Mud Type 
 HFLO.                      No:  High Flow 
 HPRE.                      No:  High Pressure 
 HTEM.                      No:  High Temp 
 HYDO.m                   1.80:  Hydro Offset 
 IFIN.deg                25.62:  Inc, Final 
 IMAX.deg                48.69:  Inc Max 
 IMIN.deg                24.01:  Inc Min 
 IMND.m                4962.57:  Inc Min Depth 
 IMXD.m                4119.01:  Inc Max Depth 
 JARR.                      No:  Jarring 
 LETM.      18.40.00 29-Aug-21:  Log End Time 
 LOST.hr                     0:  Lost Rig Time 
 LSTM.      21.00.00 20-Aug-21:  Log Start Time 
 MDCL.ppm             41500.00:  Mud Chlorides 
 MDES.     Inversion Oil/Synthetic:  Mud Desc 
 DFD .sg                  1.56:  Mud Density 
 MDMN.sg                  1.56:  Dens Mud Min 
 MDMX.sg                  1.56:  Dens Mud Max 
 MOIL.                      70:  Run Mud Oil % 
 MOWR.                   70:30:  Run Mud OWR 
 MSND.                     0.2:  Run Mud Sand % 
 MSOL.                    23.3:  Run Mud Solids% 
 DFV .spqt               78.00:  Mud Viscosity 
 MWOD.in                  6.75:  MWD Tool OD 
 MWSI.                      No:  Serv Intrp, MWD 
 OTIM.hr                218.30:  Time Operating 
 PCON.           Look Like New:  Pad Condition 
 PMAX.psia            11015.30:  Press Op, Max 
 PV  .cP                 38.00:  Mud PV 
 RUN .                     300:  Run Number 
 ROPA.m/hr               15.00:  ROP Avg 
 ROPN.m/hr                9.00:  ROP Min 
 ROPX.m/hr               17.00:  ROP Max 
 RPMA.rpm               120.00:  RPM Surface Avg 
 RPMN.rpm                90.00:  RPM Surface Min 
 RPMX.rpm               140.00:  RPM Surface Max 
 RRUN.                     300:  Rig Run Number 
 RTIM.hr                 31.53:  Time Reaming 
 SAZI.deg               331.64:  Azm, Start 
 SDEP.m                4127.00:  Start Depth 
 SIDD.                      No:  Serv Intrp, DD 
 SINC.deg                48.43:  Inc, Start 
 SPPA.psig             5830.00:  SPP Avg 
 SPPN.psig             5600.00:  SPP Min 
 SPPX.psig             5900.00:  SPP Max 
 STIM.      21.00.00 20-Aug-21:  Start Time 
 SVCS.                 DD, MWD:  Services 
 SVER.                    9.20:  Sperry Version 
 TDAT.m                 957.50:  Tot Depth Attmp 
 TDDF.                      No:  Trip for DD 
 TDLG.m                 957.50:  Tot Depth Loggd 
 TFF .                      No:  Trip for Fail 
 TQAA.f-kp               15.00:  Torque Abs Avg 
 TQAN.f-kp               12.00:  Torque Abs Min 
 TQAX.f-kp               19.00:  Torque Abs Max 
 TRRT.°/30m              -3.40:  Turn Rotating 
 MRT .                  EWR-M5:  Maximum Recorded Temperature 
 TTMX.degC              100.00:  Max Tool Temp 
 VS01.                90639251:  Virtual Str1 SN 
 VS02.                90634715:  Virtual Str2 SN 
 VS03.                90652479:  Virtual Str3 SN 
 VS04.                90642262:  Virtual Str4 SN 
 WBMN.klb                 0.00:  WOB Min 
 WITN.           Murad Guliyev:  Customer Rep 
 WITN.          Yashar Gaziyev:  Customer Rep 2 
 WOBA.klb                 9.00:  WOB Avg 
 WOBX.klb                12.00:  WOB Max 
 YP  .lhf2               30.00:  Yield Point 
~Curve Information Block
#MNEM.UNIT                 API CODE     Curve Description
#---------               -----------    ---------------------------
 TIME.HHMMSS            00 000 000 000:  GT Time & Date
 GTDEPTH.m              00 000 000 000:  GT Depth
 GTPQH.psia             00 000 000 000:  GT HR Quartz Pressure
 GTTQ.degC              00 000 000 000:  GT Quartz Temperature
 GTTN.NONE              00 000 000 000:  GT Test Number
 GTET.sec               00 000 000 000:  GT Elapsed Test Time
 GTTVD.m                00 000 000 000:  GT True Vertical Depth
#Other Information
#
#WARRANTY: Halliburton will use its best efforts to furnish customers with 
#accurate information and interpretations that are part of, and incident to, the services 
#provided.  However, Halliburton cannot and does not warrant the accuracy 
#or correctness of such information and interpretations.  Under no circumstances should any 
#such information or interpretation be relied upon as the sole basis for any drilling, 
#completion, production, or financial decision or any procedure involving any risk to the 
#safety of any drilling venture, drilling rig or its crew or any other third party.  The 
#Customer has full responsibility for all drilling, completion and production operation.  
#Halliburton makes no representations or warranties, either expressed or 
#implied, including, but not limited to, the implied warranties of merchantability or fitness 
#for a particular purpose, with respect to the services rendered.  In no event will 
#Halliburton be liable for failure to obtain any particular results or for 
#any damages, including, but not limited to, indirect, special or consequential damages, 
#resulting from the use of any information or interpretation provided by Halliburton.
#
~A           TIME           GTDEPTH  GTPQH  GTTQ  GTTN  GTET   GTTVD  
# ...
   08:53:25.472.27-Aug-2021 4965.00 2016.38 86.63 6.00 115.05 3307.85
   08:53:25.672.27-Aug-2021 4965.00 2016.38 86.63 6.00 115.25 3307.85
   08:53:25.872.27-Aug-2021 4965.00 2017.21 86.63 6.00 115.45 3307.85
   08:53:26.072.27-Aug-2021 4965.00 2017.58 86.63 6.00 115.65 3307.85
   08:53:26.272.27-Aug-2021 4965.00 2018.09 86.63 6.00 115.85 3307.85
   08:53:26.472.27-Aug-2021 4965.00 2019.10 86.63 6.00 116.05 3307.85
   08:53:26.672.27-Aug-2021 4965.00 2019.10 86.63 6.00 116.25 3307.85
   08:53:26.872.27-Aug-2021 4965.00 2019.63 86.63 6.00 116.45 3307.85
   08:53:27.072.27-Aug-2021 4965.00 2020.02 86.63 6.00 116.65 3307.85
   08:53:27.272.27-Aug-2021 4965.00 2020.46 86.63 6.00 116.85 3307.85
   08:53:27.472.27-Aug-2021 4965.00 2020.80 86.63 6.00 117.05 3307.85
   08:53:27.672.27-Aug-2021 4965.00 2020.80 86.63 6.00 117.25 3307.85
   08:53:27.873.27-Aug-2021 4965.00 2021.56 86.63 6.00 117.45 3307.85
   08:53:28.073.27-Aug-2021 4965.00 2021.94 86.63 6.00 117.65 3307.85
   08:53:28.273.27-Aug-2021 4965.00 2022.35 86.63 6.00 117.85 3307.85
   08:53:28.473.27-Aug-2021 4965.00 2022.72 86.63 6.00 118.05 3307.85
   08:53:28.673.27-Aug-2021 4965.00 2022.72 86.63 6.00 118.25 3307.85
   08:53:28.873.27-Aug-2021 4965.00 2023.51 86.63 6.00 118.45 3307.85
   08:53:29.073.27-Aug-2021 4965.00 2023.89 86.63 6.00 118.65 3307.85
   08:53:29.273.27-Aug-2021 4965.00 2024.26 86.63 6.00 118.85 3307.85
   08:53:29.473.27-Aug-2021 4965.00 2024.57 86.63 6.00 119.05 3307.85
   08:53:29.673.27-Aug-2021 4965.00 2024.57 86.63 6.00 119.25 3307.85
   08:53:29.873.27-Aug-2021 4965.00 2025.93 86.63 6.00 119.45 3307.85
   08:53:30.073.27-Aug-2021 4965.00 2026.12 86.63 6.00 119.65 3307.85
   08:53:30.274.27-Aug-2021 4965.00 2026.43 86.63 6.00 119.85 3307.85
   08:53:30.474.27-Aug-2021 4965.00 2026.61 86.63 6.00 120.05 3307.85
   08:53:30.674.27-Aug-2021 4965.00 2026.61 86.63 6.00 120.25 3307.85
   08:53:30.874.27-Aug-2021 4965.00 2027.99 86.63 6.00 120.45 3307.85
   08:53:31.074.27-Aug-2021 4965.00 2028.18 86.63 6.00 120.65 3307.85
   08:53:31.274.27-Aug-2021 4965.00 2028.40 86.63 6.00 120.85 3307.85
   08:53:31.474.27-Aug-2021 4965.00 2028.80 86.63 6.00 121.05 3307.85
   08:53:31.674.27-Aug-2021 4965.00 2028.80 86.63 6.00 121.25 3307.85
   08:53:31.874.27-Aug-2021 4965.00 2029.33 86.63 6.00 121.45 3307.85
   08:53:32.074.27-Aug-2021 4965.00 2030.28 86.63 6.00 121.65 3307.85
   08:53:32.274.27-Aug-2021 4965.00 2030.62 86.63 6.00 121.85 3307.85
   08:53:32.474.27-Aug-2021 4965.00 2030.76 86.63 6.00 122.05 3307.85
   08:53:32.675.27-Aug-2021 4965.00 2030.76 86.63 6.00 122.25 3307.85
   08:53:32.875.27-Aug-2021 4965.00 2031.48 86.63 6.00 122.45 3307.85
   08:53:33.075.27-Aug-2021 4965.00 2031.60 86.63 6.00 122.65 3307.85
   08:53:33.275.27-Aug-2021 4965.00 2032.48 86.63 6.00 122.85 3307.85
   08:53:33.475.27-Aug-2021 4965.00 2032.81 86.63 6.00 123.05 3307.85
   08:53:33.675.27-Aug-2021 4965.00 2032.81 86.63 6.00 123.25 3307.85
   08:53:33.875.27-Aug-2021 4965.00 2033.22 86.63 6.00 123.45 3307.85
   08:53:34.075.27-Aug-2021 4965.00 2033.63 86.63 6.00 123.65 3307.85
   08:53:34.275.27-Aug-2021 4965.00 2033.92 86.63 6.00 123.85 3307.85
   08:53:34.475.27-Aug-2021 4965.00 2034.17 86.63 6.00 124.05 3307.85
   08:53:34.675.27-Aug-2021 4965.00 2034.17 86.63 6.00 124.25 3307.85
   08:53:34.875.27-Aug-2021 4965.00 2034.82 86.63 6.00 124.45 3307.85
   08:53:35.076.27-Aug-2021 4965.00 2035.15 86.63 6.00 124.65 3307.85
   08:53:35.276.27-Aug-2021 4965.00 2035.50 86.63 6.00 124.85 3307.85
   08:53:35.476.27-Aug-2021 4965.00 2035.81 86.63 6.00 125.05 3307.85
   08:53:35.676.27-Aug-2021 4965.00 2035.81 86.63 6.00 125.25 3307.85
   08:53:35.876.27-Aug-2021 4965.00 2036.42 86.63 6.00 125.45 3307.85
   08:53:36.076.27-Aug-2021 4965.00 2036.64 86.63 6.00 125.65 3307.85
   08:53:36.276.27-Aug-2021 4965.00 2037.08 86.63 6.00 125.85 3307.85
   08:53:36.476.27-Aug-2021 4965.00 2038.00 86.63 6.00 126.05 3307.85
   08:53:36.676.27-Aug-2021 4965.00 2038.00 86.63 6.00 126.25 3307.85
   08:53:36.876.27-Aug-2021 4965.00 2038.30 86.63 6.00 126.45 3307.85
   08:53:37.076.27-Aug-2021 4965.00 2038.56 86.63 6.00 126.65 3307.85
   08:53:37.276.27-Aug-2021 4965.00 2038.90 86.63 6.00 126.85 3307.85
   08:53:37.477.27-Aug-2021 4965.00 2039.18 86.63 6.00 127.05 3307.85
   08:53:37.677.27-Aug-2021 4965.00 2039.18 86.63 6.00 127.25 3307.85
   08:53:37.877.27-Aug-2021 4965.00 2039.77 86.63 6.00 127.45 3307.85
   08:53:38.077.27-Aug-2021 4965.00 2040.07 86.63 6.00 127.65 3307.85
   08:53:38.277.27-Aug-2021 4965.00 2040.39 86.63 6.00 127.85 3307.85
   08:53:38.477.27-Aug-2021 4965.00 2040.68 86.63 6.00 128.05 3307.85
   08:53:38.677.27-Aug-2021 4965.00 2040.68 86.63 6.00 128.25 3307.85
   08:53:38.877.27-Aug-2021 4965.00 2041.28 86.63 6.00 128.45 3307.85
   08:53:39.077.27-Aug-2021 4965.00 2041.57 86.63 6.00 128.65 3307.85
   08:53:39.277.27-Aug-2021 4965.00 2041.85 86.63 6.00 128.85 3307.85
   08:53:39.477.27-Aug-2021 4965.00 2042.05 86.63 6.00 129.05 3307.85
   08:53:39.677.27-Aug-2021 4965.00 2042.05 86.63 6.00 129.25 3307.85
   08:53:39.878.27-Aug-2021 4965.00 2043.25 86.63 6.00 129.45 3307.85
   08:53:40.078.27-Aug-2021 4965.00 2043.35 86.64 6.00 129.65 3307.85
   08:53:40.278.27-Aug-2021 4965.00 2043.56 86.64 6.00 129.85 3307.85
   08:53:40.478.27-Aug-2021 4965.00 2043.88 86.64 6.00 130.05 3307.85
   08:53:40.678.27-Aug-2021 4965.00 2043.88 86.64 6.00 130.25 3307.85
   08:53:40.878.27-Aug-2021 4965.00 2044.21 86.64 6.00 130.45 3307.85
   08:53:41.078.27-Aug-2021 4965.00 2045.10 86.64 6.00 130.65 3307.85
   08:53:41.278.27-Aug-2021 4965.00 2045.36 86.64 6.00 130.85 3307.85
   08:53:41.478.27-Aug-2021 4965.00 2045.48 86.64 6.00 131.05 3307.85
   08:53:41.678.27-Aug-2021 4965.00 2045.48 86.64 6.00 131.25 3307.85
   08:53:41.878.27-Aug-2021 4965.00 2045.83 86.64 6.00 131.45 3307.85
   08:53:42.078.27-Aug-2021 4965.00 2046.54 86.64 6.00 131.65 3307.85
   08:53:42.279.27-Aug-2021 4965.00 2047.03 86.64 6.00 131.85 3307.85
   08:53:42.479.27-Aug-2021 4965.00 2047.15 86.64 6.00 132.05 3307.85
   08:53:42.679.27-Aug-2021 4965.00 2047.15 86.64 6.00 132.25 3307.85
   08:53:42.879.27-Aug-2021 4965.00 2047.58 86.64 6.00 132.46 3307.85
   08:53:43.079.27-Aug-2021 4965.00 2047.82 86.64 6.00 132.66 3307.85
   08:53:43.279.27-Aug-2021 4965.00 2048.08 86.64 6.00 132.86 3307.85
   08:53:43.479.27-Aug-2021 4965.00 2048.90 86.64 6.00 133.06 3307.85
   08:53:43.679.27-Aug-2021 4965.00 2048.90 86.64 6.00 133.26 3307.85
   08:53:43.879.27-Aug-2021 4965.00 2049.17 86.64 6.00 133.46 3307.85
   08:53:44.079.27-Aug-2021 4965.00 2049.43 86.64 6.00 133.66 3307.85
   08:53:44.279.27-Aug-2021 4965.00 2049.73 86.64 6.00 133.86 3307.85
   08:53:44.479.27-Aug-2021 4965.00 2049.96 86.64 6.00 134.06 3307.85
   08:53:44.680.27-Aug-2021 4965.00 2049.96 86.64 6.00 134.26 3307.85
   08:53:44.880.27-Aug-2021 4965.00 2050.48 86.64 6.00 134.46 3307.85
   08:53:45.080.27-Aug-2021 4965.00 2050.75 86.64 6.00 134.66 3307.85
   08:53:45.280.27-Aug-2021 4965.00 2051.04 86.64 6.00 134.86 3307.85
   08:53:45.480.27-Aug-2021 4965.00 2051.35 86.64 6.00 135.06 3307.85
   08:53:45.680.27-Aug-2021 4965.00 2051.35 86.64 6.00 135.26 3307.85
   08:53:45.880.27-Aug-2021 4965.00 2051.87 86.64 6.00 135.46 3307.85
   08:53:46.080.27-Aug-2021 4965.00 2052.12 86.64 6.00 135.66 3307.85
   08:53:46.280.27-Aug-2021 4965.00 2052.22 86.64 6.00 135.86 3307.85
   08:53:46.480.27-Aug-2021 4965.00 2053.07 86.64 6.00 136.06 3307.85
   08:53:46.680.27-Aug-2021 4965.00 2053.07 86.64 6.00 136.26 3307.85
   08:53:46.880.27-Aug-2021 4965.00 2053.74 86.64 6.00 136.46 3307.85
   08:53:47.081.27-Aug-2021 4965.00 2053.86 86.64 6.00 136.66 3307.85
   08:53:47.281.27-Aug-2021 4965.00 2054.14 86.64 6.00 136.86 3307.85
   08:53:47.481.27-Aug-2021 4965.00 2054.40 86.64 6.00 137.06 3307.85
   08:53:47.681.27-Aug-2021 4965.00 2054.40 86.64 6.00 137.26 3307.85
   08:53:47.881.27-Aug-2021 4965.00 2054.88 86.64 6.00 137.46 3307.85
   08:53:48.081.27-Aug-2021 4965.00 2055.15 86.64 6.00 137.66 3307.85
   08:53:48.281.27-Aug-2021 4965.00 2055.42 86.64 6.00 137.86 3307.85
