~Version Information
 VERS.                  2.0:   CWLS log ASCII Standard -VERSION 2.0
 WRAP.                   NO:   One line per depth step
~Well Information Block
#MNEM.UNIT     VALUE/NAME     DESCRIPTION
#---------     -----------    ---------------------------
 STRT.S             12:21:31 27-Aug-21: START TIME 12:21:31 27-Aug-21
 STOP.S             12:28:48 27-Aug-21: STOP TIME  12:28:48 27-Aug-21
 STEP.S                   0.00: STEP TIME
 NULL.                 -999.25: NULL VALUE
 DFWT.                        :  DIST FWL TEXT
 DFST.                        :  DIST FSL TEXT
 DMF .             Drill Floor:  DRILL MEAS FROM
 STIM.      20.00.00 17-Aug-21:  START TIME
 DATE.      19.00.00 29-Aug-21:  END TIME
 SPUD.               15-Aug-21:  SPUD DATE
 NREF.                    Grid:  NORTH REFERENCE
 HPTY.       Minimum Curvature:  HOLE POS TYPE
 DMOD.             Drill Model:  DRILL MOD DESC
 SVYD.                  Survey:  SURVEY DESC
 ILTD.               Lithology:  INTERP LTH DESC
 FTOP.          Formation Tops:  FORM TOPS DESC
 RIG .              East Azeri:  RIG NAME
 PDAT.          Mean Sea Level:  PERMANENT DATUM
 FLD .                     ACG:  FIELD NAME
 SON .        AZ-XX-0907180857:  JOB NUMBER
 CTRY.              Azerbaijan:  COUNTRY NAME
 WELL.                    D23x:  WELL NAME
 SRVC.     Turan Drilling and Engineering:  CONTRACTOR
 COMP.     BP Exploration (Caspian Sea) Ltd.:  COMPANY
 UWI .            /AZE00000214:  UNIQUE WELL IDENTIFIER
 API .            /AZE00000214:  API NUMBER
 MDS .        Operator Entered:  MAG DATA SOURCE
 BASE.              Azerbaijan:  LOGGING EQUIPMENT BASE LOCATION
 REGN.                   EESSA:  REGION
 PROV.                    Baku:  PROVINCE
 STAT.                    Baku:  STATE NAME
 MWDS.                    Baku:  MWD SHOP
 DOE .                     N/A:  DOE NUMBER
 DCON.         Sperry Drilling:  DIRECTNL CONTR
 UNIT.                     N/A:  LOGGING EQUIPMENT ID
 WTYP.                Deviated:  WELL TYPE
 CNTY.                        :  COUNTY
 LOC .                        :  LOCATION
 LMF .             Drill Floor:  LOG MEASURED FROM
 TVDS.m                  43.60:  TVDSS CORRECTN
 LATI.deg                40.02:  LATITUDE
 LONG.deg                51.45:  LONGITUDE
 WHNS.m                  -7.04:  WELL HEAD N/S
 WHEW.m                  -0.67:  WELL HEAD E/W
 UTMX.m              538762.90:  UTM X
 UTMY.m             4431871.34:  UTM Y
 DFWL.m                   0.00:  DISTANCE FWL
 DFSL.m                   0.00:  DISTANCE FSL
 SDEP.m                4127.00:  START DEPTH
 TDD .m                5084.50:  TOTAL DEPTH (DRILLER)
 VSDR.deg               140.47:  VERT SEC DIRECT
 GVFD.g                   1.00:  GRAVITY FIELD
 MFLD.nT              50362.00:  MAGNETIC FIELD
 MDIP.deg                59.48:  MAGNETIC DIP
 MDEC.deg                 6.47:  MAGNETIC DECL
 GRDC.deg                 0.31:  GRID CORRECTION
 AZTC.deg                 6.16:  AZM TOTAL CORR
 EPD .m                   0.00:  ELEVATION
 EGL .m                   0.00:  GROUND ELEVATION
 WDMS.m                 151.80:  WD ELEV
 APD .m                  43.60:  DEPTH ABOVE PD
 DEP .m                4092.57:  DEPTH
 AGAP.m                  43.60:  AIR GAP
 VSEW.m                  -0.67:  VERT SEC E/W
 VSNS.m                  -7.04:  VERT SEC N/S
 EKB .m                  43.60:  KB ELEVATION
 EDF .m                  43.60:  DF ELEVATION
 TDL .m                 957.50:  TOTAL DEPTH (LOGGER)
 VSC .                       0:  VS TO CLOSURE
 MAGU.                 1851413:  MAGUTM CHECKSUM
~Parameter Information Block
#MNEM.UNIT       Value        Description
#---------     -----------    ---------------------------
 AV  .mps                 1.50:  Ann Velocity 
 AVMX.mps                 2.00:  Max Ann Veloc 
 AZIF.deg               184.66:  Azm, Final 
 BHAT.        Rotary Steerable:  BHA Type 
 BREV.rev               300.00:  Rev Bit Total 
 BROT.°/30m              -0.50:  Build Rotating 
 BS  .in                  8.50:  Bit Size 
 BSZ .in                  8.50:  Bit Size 
 BTPL.psig              370.00:  Bit Press Loss 
 CABU.                      No:  Customer Abuse 
 CGEO.      Behruz Shahbaliyev:  Customer Geo 
 TCS .hr                140.08:  Time Ciculation Ended 
 CV  .mps                 3.00:  Crit Velocity 
 CVMX.mps                 3.20:  Max Crit Veloc 
 DD1 .            Musa Ahmadov:  Direct Drillr 1 
 DD2 .           Hamid Ahmadov:  Direct Drillr 2 
 DDSV.               Geo-Pilot:  DD Service 
 DEFF.%                  98.40:  % Det Eff 
 DLRX.°/30m               3.40:  Dogleg Rot Max 
 DLSO.°/30m               1.45:  Dogleg Oriented 
 DLSX.°/30m               3.40:  Dogleg Str Max 
 DRET.      18.40.00 29-Aug-21:  Drill End Time 
 DRST.      21.00.00 20-Aug-21:  Drill Start Tim 
 DTIM.hr                 69.47:  Time Drilling 
 EDEP.m                5084.50:  End Depth 
 ENG1.      Artemiy Matviyanov:  Engineer 1 
 ENG2.         Almaz Almadatov:  Engineer 2 
 ETIM.      18.40.00 29-Aug-21:  End Time 
 FLOI.gpm               500.00:  Flow In 
 FLON.gpm               400.00:  Flow In Min 
 FLOS.cptm                0.00:  Fluid Loss 
 FLOX.gpm               500.00:  Flow In Max 
 DFT .        Mineral Oil Base:  Mud Type 
 HFLO.                      No:  High Flow 
 HPRE.                      No:  High Pressure 
 HTEM.                      No:  High Temp 
 HYDO.m                   1.80:  Hydro Offset 
 IFIN.deg                25.62:  Inc, Final 
 IMAX.deg                48.69:  Inc Max 
 IMIN.deg                24.01:  Inc Min 
 IMND.m                4962.57:  Inc Min Depth 
 IMXD.m                4119.01:  Inc Max Depth 
 JARR.                      No:  Jarring 
 LETM.      18.40.00 29-Aug-21:  Log End Time 
 LOST.hr                     0:  Lost Rig Time 
 LSTM.      21.00.00 20-Aug-21:  Log Start Time 
 MDCL.ppm             41500.00:  Mud Chlorides 
 MDES.     Inversion Oil/Synthetic:  Mud Desc 
 DFD .sg                  1.56:  Mud Density 
 MDMN.sg                  1.56:  Dens Mud Min 
 MDMX.sg                  1.56:  Dens Mud Max 
 MOIL.                      70:  Run Mud Oil % 
 MOWR.                   70:30:  Run Mud OWR 
 MSND.                     0.2:  Run Mud Sand % 
 MSOL.                    23.3:  Run Mud Solids% 
 DFV .spqt               78.00:  Mud Viscosity 
 MWOD.in                  6.75:  MWD Tool OD 
 MWSI.                      No:  Serv Intrp, MWD 
 OTIM.hr                218.30:  Time Operating 
 PCON.           Look Like New:  Pad Condition 
 PMAX.psia            11015.30:  Press Op, Max 
 PV  .cP                 38.00:  Mud PV 
 RUN .                     300:  Run Number 
 ROPA.m/hr               15.00:  ROP Avg 
 ROPN.m/hr                9.00:  ROP Min 
 ROPX.m/hr               17.00:  ROP Max 
 RPMA.rpm               120.00:  RPM Surface Avg 
 RPMN.rpm                90.00:  RPM Surface Min 
 RPMX.rpm               140.00:  RPM Surface Max 
 RRUN.                     300:  Rig Run Number 
 RTIM.hr                 31.53:  Time Reaming 
 SAZI.deg               331.64:  Azm, Start 
 SDEP.m                4127.00:  Start Depth 
 SIDD.                      No:  Serv Intrp, DD 
 SINC.deg                48.43:  Inc, Start 
 SPPA.psig             5830.00:  SPP Avg 
 SPPN.psig             5600.00:  SPP Min 
 SPPX.psig             5900.00:  SPP Max 
 STIM.      21.00.00 20-Aug-21:  Start Time 
 SVCS.                 DD, MWD:  Services 
 SVER.                    9.20:  Sperry Version 
 TDAT.m                 957.50:  Tot Depth Attmp 
 TDDF.                      No:  Trip for DD 
 TDLG.m                 957.50:  Tot Depth Loggd 
 TFF .                      No:  Trip for Fail 
 TQAA.f-kp               15.00:  Torque Abs Avg 
 TQAN.f-kp               12.00:  Torque Abs Min 
 TQAX.f-kp               19.00:  Torque Abs Max 
 TRRT.°/30m              -3.40:  Turn Rotating 
 MRT .                  EWR-M5:  Maximum Recorded Temperature 
 TTMX.degC              100.00:  Max Tool Temp 
 VS01.                90639251:  Virtual Str1 SN 
 VS02.                90634715:  Virtual Str2 SN 
 VS03.                90652479:  Virtual Str3 SN 
 VS04.                90642262:  Virtual Str4 SN 
 WBMN.klb                 0.00:  WOB Min 
 WITN.           Murad Guliyev:  Customer Rep 
 WITN.          Yashar Gaziyev:  Customer Rep 2 
 WOBA.klb                 9.00:  WOB Avg 
 WOBX.klb                12.00:  WOB Max 
 YP  .lhf2               30.00:  Yield Point 
~Curve Information Block
#MNEM.UNIT                 API CODE     Curve Description
#---------               -----------    ---------------------------
 TIME.HHMMSS            00 000 000 000:  GT Time & Date
 GTDEPTH.m              00 000 000 000:  GT Depth
 GTPQH.psia             00 000 000 000:  GT HR Quartz Pressure
 GTTQ.degC              00 000 000 000:  GT Quartz Temperature
 GTTN.NONE              00 000 000 000:  GT Test Number
 GTET.sec               00 000 000 000:  GT Elapsed Test Time
 GTTVD.m                00 000 000 000:  GT True Vertical Depth
#Other Information
#
#WARRANTY: Halliburton will use its best efforts to furnish customers with 
#accurate information and interpretations that are part of, and incident to, the services 
#provided.  However, Halliburton cannot and does not warrant the accuracy 
#or correctness of such information and interpretations.  Under no circumstances should any 
#such information or interpretation be relied upon as the sole basis for any drilling, 
#completion, production, or financial decision or any procedure involving any risk to the 
#safety of any drilling venture, drilling rig or its crew or any other third party.  The 
#Customer has full responsibility for all drilling, completion and production operation.  
#Halliburton makes no representations or warranties, either expressed or 
#implied, including, but not limited to, the implied warranties of merchantability or fitness 
#for a particular purpose, with respect to the services rendered.  In no event will 
#Halliburton be liable for failure to obtain any particular results or for 
#any damages, including, but not limited to, indirect, special or consequential damages, 
#resulting from the use of any information or interpretation provided by Halliburton.
#
~A           TIME           GTDEPTH  GTPQH  GTTQ  GTTN   GTET   GTTVD  
# ...
   12:26:25.246.27-Aug-2021 4914.80 7754.95 85.32 12.00 293.90 3262.04
   12:26:25.446.27-Aug-2021 4914.80 7755.05 85.32 12.00 294.10 3262.04
   12:26:25.646.27-Aug-2021 4914.80 7755.05 85.32 12.00 294.30 3262.04
   12:26:25.846.27-Aug-2021 4914.80 7753.49 85.32 12.00 294.50 3262.04
   12:26:26.047.27-Aug-2021 4914.80 7756.59 85.32 12.00 294.70 3262.04
   12:26:26.247.27-Aug-2021 4914.80 7755.74 85.32 12.00 294.90 3262.04
   12:26:26.447.27-Aug-2021 4914.80 7755.87 85.32 12.00 295.10 3262.04
   12:26:26.647.27-Aug-2021 4914.80 7755.87 85.32 12.00 295.30 3262.04
   12:26:26.847.27-Aug-2021 4914.80 7755.71 85.32 12.00 295.50 3262.04
   12:26:27.047.27-Aug-2021 4914.80 7755.62 85.32 12.00 295.70 3262.04
   12:26:27.247.27-Aug-2021 4914.80 7755.56 85.32 12.00 295.91 3262.04
   12:26:27.447.27-Aug-2021 4914.80 7755.68 85.32 12.00 296.11 3262.04
   12:26:27.647.27-Aug-2021 4914.80 7755.68 85.32 12.00 296.31 3262.04
   12:26:27.847.27-Aug-2021 4914.80 7756.26 85.32 12.00 296.51 3262.04
   12:26:28.047.27-Aug-2021 4914.80 7756.35 85.32 12.00 296.71 3262.04
   12:26:28.247.27-Aug-2021 4914.80 7756.50 85.32 12.00 296.91 3262.04
   12:26:28.447.27-Aug-2021 4914.80 7756.41 85.32 12.00 297.11 3262.04
   12:26:28.647.27-Aug-2021 4914.80 7756.41 85.32 12.00 297.31 3262.04
   12:26:28.848.27-Aug-2021 4914.80 7758.44 85.32 12.00 297.51 3262.04
   12:26:29.048.27-Aug-2021 4914.80 7756.39 85.32 12.00 297.71 3262.04
   12:26:29.248.27-Aug-2021 4914.80 7757.95 85.32 12.00 297.91 3262.04
   12:26:29.448.27-Aug-2021 4914.80 7756.94 85.32 12.00 298.11 3262.04
   12:26:29.648.27-Aug-2021 4914.80 7756.94 85.32 12.00 298.31 3262.04
   12:26:29.848.27-Aug-2021 4914.80 7756.93 85.32 12.00 298.51 3262.04
   12:26:30.048.27-Aug-2021 4914.80 7756.85 85.32 12.00 298.71 3262.04
   12:26:30.248.27-Aug-2021 4914.80 7757.01 85.32 12.00 298.91 3262.04
   12:26:30.448.27-Aug-2021 4914.80 7756.90 85.32 12.00 299.11 3262.04
   12:26:30.648.27-Aug-2021 4914.80 7756.90 85.32 12.00 299.31 3262.04
   12:26:30.848.27-Aug-2021 4914.80 7757.56 85.32 12.00 299.51 3262.04
   12:26:31.048.27-Aug-2021 4914.80 7757.79 85.32 12.00 299.71 3262.04
   12:26:31.248.27-Aug-2021 4914.80 7757.98 85.32 12.00 299.91 3262.04
   12:26:31.448.27-Aug-2021 4914.80 7758.09 85.32 12.00 300.11 3262.04
   12:26:31.649.27-Aug-2021 4914.80 7758.09 85.32 12.00 300.31 3262.04
   12:26:31.849.27-Aug-2021 4914.80 7758.00 85.32 12.00 300.51 3262.04
   12:26:32.049.27-Aug-2021 4914.80 7757.87 85.32 12.00 300.71 3262.04
   12:26:32.249.27-Aug-2021 4914.80 7759.79 85.32 12.00 300.91 3262.04
   12:26:32.449.27-Aug-2021 4914.80 7757.53 85.32 12.00 301.11 3262.04
   12:26:32.649.27-Aug-2021 4914.80 7757.53 85.32 12.00 301.31 3262.04
   12:26:32.849.27-Aug-2021 4914.80 7758.18 85.32 12.00 301.51 3262.04
   12:26:33.049.27-Aug-2021 4914.80 7760.10 85.32 12.00 301.71 3262.04
   12:26:33.249.27-Aug-2021 4914.80 7757.71 85.32 12.00 301.91 3262.04
   12:26:33.449.27-Aug-2021 4914.80 7758.67 85.32 12.00 302.11 3262.04
   12:26:33.649.27-Aug-2021 4914.80 7758.67 85.32 12.00 302.31 3262.04
   12:26:33.849.27-Aug-2021 4914.80 7758.11 85.32 12.00 302.51 3262.04
   12:26:34.049.27-Aug-2021 4914.80 7758.11 85.32 12.00 302.71 3262.04
   12:26:34.249.27-Aug-2021 4914.80 7760.18 85.32 12.00 302.91 3262.04
   12:26:34.450.27-Aug-2021 4914.80 7758.50 85.32 12.00 303.11 3262.04
   12:26:34.650.27-Aug-2021 4914.80 7758.50 85.32 12.00 303.31 3262.04
   12:26:34.850.27-Aug-2021 4914.80 7760.79 85.32 12.00 303.51 3262.04
   12:26:35.050.27-Aug-2021 4914.80 7758.89 85.32 12.00 303.71 3262.04
   12:26:35.250.27-Aug-2021 4914.80 7760.57 85.32 12.00 303.91 3262.04
   12:26:35.450.27-Aug-2021 4914.80 7759.60 85.32 12.00 304.11 3262.04
   12:26:35.650.27-Aug-2021 4914.80 7759.60 85.32 12.00 304.31 3262.04
   12:26:35.850.27-Aug-2021 4914.80 7759.49 85.32 12.00 304.51 3262.04
   12:26:36.050.27-Aug-2021 4914.80 7759.42 85.32 12.00 304.71 3262.04
   12:26:36.250.27-Aug-2021 4914.80 7759.53 85.32 12.00 304.91 3262.04
   12:26:36.450.27-Aug-2021 4914.80 7759.64 85.32 12.00 305.11 3262.04
   12:26:36.650.27-Aug-2021 4914.80 7759.64 85.32 12.00 305.31 3262.04
   12:26:36.850.27-Aug-2021 4914.80 7760.13 85.32 12.00 305.51 3262.04
   12:26:37.050.27-Aug-2021 4914.80 7759.89 85.32 12.00 305.71 3262.04
   12:26:37.251.27-Aug-2021 4914.80 7760.11 85.32 12.00 305.91 3262.04
   12:26:37.451.27-Aug-2021 4914.80 7760.10 85.32 12.00 306.11 3262.04
   12:26:37.651.27-Aug-2021 4914.80 7760.10 85.32 12.00 306.31 3262.04
   12:26:37.851.27-Aug-2021 4914.80 7760.08 85.32 12.00 306.51 3262.04
   12:26:38.051.27-Aug-2021 4914.80 7760.02 85.32 12.00 306.71 3262.04
   12:26:38.251.27-Aug-2021 4914.80 7761.44 85.32 12.00 306.91 3262.04
   12:26:38.451.27-Aug-2021 4914.80 7760.43 85.32 12.00 307.11 3262.04
   12:26:38.651.27-Aug-2021 4914.80 7760.43 85.32 12.00 307.31 3262.04
   12:26:38.851.27-Aug-2021 4914.80 7760.43 85.32 12.00 307.51 3262.04
   12:26:39.051.27-Aug-2021 4914.80 7760.04 85.32 12.00 307.71 3262.04
   12:26:39.251.27-Aug-2021 4914.80 7760.00 85.32 12.00 307.91 3262.04
   12:26:39.451.27-Aug-2021 4914.80 7760.03 85.32 12.00 308.11 3262.04
   12:26:39.651.27-Aug-2021 4914.80 7760.03 85.32 12.00 308.31 3262.04
   12:26:39.851.27-Aug-2021 4914.80 7760.06 85.32 12.00 308.51 3262.04
   12:26:40.052.27-Aug-2021 4914.80 7760.42 85.32 12.00 308.71 3262.04
   12:26:40.252.27-Aug-2021 4914.80 7760.52 85.32 12.00 308.91 3262.04
   12:26:40.452.27-Aug-2021 4914.80 7760.86 85.32 12.00 309.11 3262.04
   12:26:40.652.27-Aug-2021 4914.80 7760.86 85.32 12.00 309.31 3262.04
   12:26:40.852.27-Aug-2021 4914.80 7760.91 85.32 12.00 309.51 3262.04
   12:26:41.052.27-Aug-2021 4914.80 7760.93 85.32 12.00 309.71 3262.04
   12:26:41.252.27-Aug-2021 4914.80 7760.81 85.32 12.00 309.91 3262.04
   12:26:41.452.27-Aug-2021 4914.80 7760.94 85.32 12.00 310.11 3262.04
   12:26:41.652.27-Aug-2021 4914.80 7760.94 85.32 12.00 310.31 3262.04
   12:26:41.852.27-Aug-2021 4914.80 7761.52 85.32 12.00 310.51 3262.04
   12:26:42.052.27-Aug-2021 4914.80 7761.27 85.32 12.00 310.71 3262.04
   12:26:42.252.27-Aug-2021 4914.80 7761.10 85.32 12.00 310.91 3262.04
   12:26:42.452.27-Aug-2021 4914.80 7762.56 85.32 12.00 311.11 3262.04
   12:26:42.652.27-Aug-2021 4914.80 7762.56 85.32 12.00 311.31 3262.04
   12:26:42.853.27-Aug-2021 4914.80 7761.98 85.32 12.00 311.51 3262.04
   12:26:43.053.27-Aug-2021 4914.80 7760.56 85.32 12.00 311.71 3262.04
   12:26:43.253.27-Aug-2021 4914.80 7760.77 85.32 12.00 311.91 3262.04
   12:26:43.453.27-Aug-2021 4914.80 7761.07 85.32 12.00 312.11 3262.04
   12:26:43.653.27-Aug-2021 4914.80 7761.07 85.32 12.00 312.31 3262.04
   12:26:43.853.27-Aug-2021 4914.80 7760.56 85.32 12.00 312.51 3262.04
   12:26:44.053.27-Aug-2021 4914.80 7762.43 85.32 12.00 312.71 3262.04
   12:26:44.253.27-Aug-2021 4914.80 7763.61 85.32 12.00 312.91 3262.04
   12:26:44.453.27-Aug-2021 4914.80 7761.31 85.32 12.00 313.11 3262.04
   12:26:44.653.27-Aug-2021 4914.80 7761.31 85.32 12.00 313.31 3262.04
   12:26:44.853.27-Aug-2021 4914.80 7762.01 85.32 12.00 313.51 3262.04
   12:26:45.053.27-Aug-2021 4914.80 7761.94 85.32 12.00 313.71 3262.04
   12:26:45.253.27-Aug-2021 4914.80 7761.77 85.32 12.00 313.91 3262.04
   12:26:45.453.27-Aug-2021 4914.80 7761.59 85.32 12.00 314.11 3262.04
   12:26:45.654.27-Aug-2021 4914.80 7761.59 85.32 12.00 314.31 3262.04
   12:26:45.854.27-Aug-2021 4914.80 7761.88 85.32 12.00 314.51 3262.04
   12:26:46.054.27-Aug-2021 4914.80 7762.06 85.32 12.00 314.71 3262.04
   12:26:46.254.27-Aug-2021 4914.80 7762.34 85.32 12.00 314.91 3262.04
   12:26:46.454.27-Aug-2021 4914.80 7762.56 85.32 12.00 315.11 3262.04
   12:26:46.654.27-Aug-2021 4914.80 7762.56 85.32 12.00 315.31 3262.04
   12:26:46.854.27-Aug-2021 4914.80 7762.84 85.32 12.00 315.51 3262.04
   12:26:47.054.27-Aug-2021 4914.80 7762.74 85.32 12.00 315.71 3262.04
   12:26:47.254.27-Aug-2021 4914.80 7762.66 85.32 12.00 315.91 3262.04
   12:26:47.454.27-Aug-2021 4914.80 7762.53 85.32 12.00 316.11 3262.04
   12:26:47.654.27-Aug-2021 4914.80 7762.53 85.32 12.00 316.31 3262.04
