~Version Information
 VERS.                  2.0:   CWLS log ASCII Standard -VERSION 2.0
 WRAP.                   NO:   One line per depth step
~Well Information Block
#MNEM.UNIT     VALUE/NAME     DESCRIPTION
#---------     -----------    ---------------------------
 STRT.S             10:06:49 27-Aug-21: START TIME 10:06:49 27-Aug-21
 STOP.S             10:13:57 27-Aug-21: STOP TIME  10:13:57 27-Aug-21
 STEP.S                   0.00: STEP TIME
 NULL.                 -999.25: NULL VALUE
 DFWT.                        :  DIST FWL TEXT
 DFST.                        :  DIST FSL TEXT
 DMF .             Drill Floor:  DRILL MEAS FROM
 STIM.      20.00.00 17-Aug-21:  START TIME
 DATE.      19.00.00 29-Aug-21:  END TIME
 SPUD.               15-Aug-21:  SPUD DATE
 NREF.                    Grid:  NORTH REFERENCE
 HPTY.       Minimum Curvature:  HOLE POS TYPE
 DMOD.             Drill Model:  DRILL MOD DESC
 SVYD.                  Survey:  SURVEY DESC
 ILTD.               Lithology:  INTERP LTH DESC
 FTOP.          Formation Tops:  FORM TOPS DESC
 RIG .              East Azeri:  RIG NAME
 PDAT.          Mean Sea Level:  PERMANENT DATUM
 FLD .                     ACG:  FIELD NAME
 SON .        AZ-XX-0907180857:  JOB NUMBER
 CTRY.              Azerbaijan:  COUNTRY NAME
 WELL.                    D23x:  WELL NAME
 SRVC.     Turan Drilling and Engineering:  CONTRACTOR
 COMP.     BP Exploration (Caspian Sea) Ltd.:  COMPANY
 UWI .            /AZE00000214:  UNIQUE WELL IDENTIFIER
 API .            /AZE00000214:  API NUMBER
 MDS .        Operator Entered:  MAG DATA SOURCE
 BASE.              Azerbaijan:  LOGGING EQUIPMENT BASE LOCATION
 REGN.                   EESSA:  REGION
 PROV.                    Baku:  PROVINCE
 STAT.                    Baku:  STATE NAME
 MWDS.                    Baku:  MWD SHOP
 DOE .                     N/A:  DOE NUMBER
 DCON.         Sperry Drilling:  DIRECTNL CONTR
 UNIT.                     N/A:  LOGGING EQUIPMENT ID
 WTYP.                Deviated:  WELL TYPE
 CNTY.                        :  COUNTY
 LOC .                        :  LOCATION
 LMF .             Drill Floor:  LOG MEASURED FROM
 TVDS.m                  43.60:  TVDSS CORRECTN
 LATI.deg                40.02:  LATITUDE
 LONG.deg                51.45:  LONGITUDE
 WHNS.m                  -7.04:  WELL HEAD N/S
 WHEW.m                  -0.67:  WELL HEAD E/W
 UTMX.m              538762.90:  UTM X
 UTMY.m             4431871.34:  UTM Y
 DFWL.m                   0.00:  DISTANCE FWL
 DFSL.m                   0.00:  DISTANCE FSL
 SDEP.m                4127.00:  START DEPTH
 TDD .m                5084.50:  TOTAL DEPTH (DRILLER)
 VSDR.deg               140.47:  VERT SEC DIRECT
 GVFD.g                   1.00:  GRAVITY FIELD
 MFLD.nT              50362.00:  MAGNETIC FIELD
 MDIP.deg                59.48:  MAGNETIC DIP
 MDEC.deg                 6.47:  MAGNETIC DECL
 GRDC.deg                 0.31:  GRID CORRECTION
 AZTC.deg                 6.16:  AZM TOTAL CORR
 EPD .m                   0.00:  ELEVATION
 EGL .m                   0.00:  GROUND ELEVATION
 WDMS.m                 151.80:  WD ELEV
 APD .m                  43.60:  DEPTH ABOVE PD
 DEP .m                4092.57:  DEPTH
 AGAP.m                  43.60:  AIR GAP
 VSEW.m                  -0.67:  VERT SEC E/W
 VSNS.m                  -7.04:  VERT SEC N/S
 EKB .m                  43.60:  KB ELEVATION
 EDF .m                  43.60:  DF ELEVATION
 TDL .m                 957.50:  TOTAL DEPTH (LOGGER)
 VSC .                       0:  VS TO CLOSURE
 MAGU.                 1851413:  MAGUTM CHECKSUM
~Parameter Information Block
#MNEM.UNIT       Value        Description
#---------     -----------    ---------------------------
 AV  .mps                 1.50:  Ann Velocity 
 AVMX.mps                 2.00:  Max Ann Veloc 
 AZIF.deg               184.66:  Azm, Final 
 BHAT.        Rotary Steerable:  BHA Type 
 BREV.rev               300.00:  Rev Bit Total 
 BROT.°/30m              -0.50:  Build Rotating 
 BS  .in                  8.50:  Bit Size 
 BSZ .in                  8.50:  Bit Size 
 BTPL.psig              370.00:  Bit Press Loss 
 CABU.                      No:  Customer Abuse 
 CGEO.      Behruz Shahbaliyev:  Customer Geo 
 COMM.                     Ììg:  Run Comments 1 
 TCS .hr                140.08:  Time Ciculation Ended 
 CV  .mps                 3.00:  Crit Velocity 
 CVMX.mps                 3.20:  Max Crit Veloc 
 DD1 .            Musa Ahmadov:  Direct Drillr 1 
 DD2 .           Hamid Ahmadov:  Direct Drillr 2 
 DDSV.               Geo-Pilot:  DD Service 
 DEFF.%                  98.40:  % Det Eff 
 DLRX.°/30m               3.40:  Dogleg Rot Max 
 DLSO.°/30m               1.45:  Dogleg Oriented 
 DLSX.°/30m               3.40:  Dogleg Str Max 
 DRET.      18.40.00 29-Aug-21:  Drill End Time 
 DRST.      21.00.00 20-Aug-21:  Drill Start Tim 
 DTIM.hr                 69.47:  Time Drilling 
 EDEP.m                5084.50:  End Depth 
 ENG1.      Artemiy Matviyanov:  Engineer 1 
 ENG2.         Almaz Almadatov:  Engineer 2 
 ETIM.      18.40.00 29-Aug-21:  End Time 
 FLOI.gpm               500.00:  Flow In 
 FLON.gpm               400.00:  Flow In Min 
 FLOS.cptm                0.00:  Fluid Loss 
 FLOX.gpm               500.00:  Flow In Max 
 DFT .        Mineral Oil Base:  Mud Type 
 HFLO.                      No:  High Flow 
 HPRE.                      No:  High Pressure 
 HTEM.                      No:  High Temp 
 HYDO.m                   1.80:  Hydro Offset 
 IFIN.deg                25.62:  Inc, Final 
 IMAX.deg                48.69:  Inc Max 
 IMIN.deg                24.01:  Inc Min 
 IMND.m                4962.57:  Inc Min Depth 
 IMXD.m                4119.01:  Inc Max Depth 
 JARR.                      No:  Jarring 
 LETM.      18.40.00 29-Aug-21:  Log End Time 
 LOST.hr                     0:  Lost Rig Time 
 LSTM.      21.00.00 20-Aug-21:  Log Start Time 
 MDCL.ppm             41500.00:  Mud Chlorides 
 MDES.     Inversion Oil/Synthetic:  Mud Desc 
 DFD .sg                  1.56:  Mud Density 
 MDMN.sg                  1.56:  Dens Mud Min 
 MDMX.sg                  1.56:  Dens Mud Max 
 MOIL.                      70:  Run Mud Oil % 
 MOWR.                   70:30:  Run Mud OWR 
 MSND.                     0.2:  Run Mud Sand % 
 MSOL.                    23.3:  Run Mud Solids% 
 DFV .spqt               78.00:  Mud Viscosity 
 MWOD.in                  6.75:  MWD Tool OD 
 MWSI.                      No:  Serv Intrp, MWD 
 OTIM.hr                218.30:  Time Operating 
 PCON.           Look Like New:  Pad Condition 
 PMAX.psia            11015.30:  Press Op, Max 
 PV  .cP                 38.00:  Mud PV 
 RUN .                     300:  Run Number 
 ROPA.m/hr               15.00:  ROP Avg 
 ROPN.m/hr                9.00:  ROP Min 
 ROPX.m/hr               17.00:  ROP Max 
 RPMA.rpm               120.00:  RPM Surface Avg 
 RPMN.rpm                90.00:  RPM Surface Min 
 RPMX.rpm               140.00:  RPM Surface Max 
 RRUN.                     300:  Rig Run Number 
 RTIM.hr                 31.53:  Time Reaming 
 SAZI.deg               331.64:  Azm, Start 
 SDEP.m                4127.00:  Start Depth 
 SIDD.                      No:  Serv Intrp, DD 
 SINC.deg                48.43:  Inc, Start 
 SPPA.psig             5830.00:  SPP Avg 
 SPPN.psig             5600.00:  SPP Min 
 SPPX.psig             5900.00:  SPP Max 
 STIM.      21.00.00 20-Aug-21:  Start Time 
 SVCS.                 DD, MWD:  Services 
 SVER.                    9.20:  Sperry Version 
 TDAT.m                 957.50:  Tot Depth Attmp 
 TDDF.                      No:  Trip for DD 
 TDLG.m                 957.50:  Tot Depth Loggd 
 TFF .                      No:  Trip for Fail 
 TQAA.f-kp               15.00:  Torque Abs Avg 
 TQAN.f-kp               12.00:  Torque Abs Min 
 TQAX.f-kp               19.00:  Torque Abs Max 
 TRRT.°/30m              -3.40:  Turn Rotating 
 MRT .                  EWR-M5:  Maximum Recorded Temperature 
 TTMX.degC              100.00:  Max Tool Temp 
 VS01.                90639251:  Virtual Str1 SN 
 VS02.                90634715:  Virtual Str2 SN 
 VS03.                90652479:  Virtual Str3 SN 
 VS04.                90642262:  Virtual Str4 SN 
 WBMN.klb                 0.00:  WOB Min 
 WITN.           Murad Guliyev:  Customer Rep 
 WITN.          Yashar Gaziyev:  Customer Rep 2 
 WOBA.klb                 9.00:  WOB Avg 
 WOBX.klb                12.00:  WOB Max 
 YP  .lhf2               30.00:  Yield Point 
~Curve Information Block
#MNEM.UNIT                 API CODE     Curve Description
#---------               -----------    ---------------------------
 TIME.HHMMSS            00 000 000 000:  GT Time & Date
 GTDEPTH.m              00 000 000 000:  GT Depth
 GTPQH.psia             00 000 000 000:  GT HR Quartz Pressure
 GTTQ.degC              00 000 000 000:  GT Quartz Temperature
 GTTN.NONE              00 000 000 000:  GT Test Number
 GTET.sec               00 000 000 000:  GT Elapsed Test Time
 GTTVD.m                00 000 000 000:  GT True Vertical Depth
#Other Information
#
#WARRANTY: Halliburton will use its best efforts to furnish customers with 
#accurate information and interpretations that are part of, and incident to, the services 
#provided.  However, Halliburton cannot and does not warrant the accuracy 
#or correctness of such information and interpretations.  Under no circumstances should any 
#such information or interpretation be relied upon as the sole basis for any drilling, 
#completion, production, or financial decision or any procedure involving any risk to the 
#safety of any drilling venture, drilling rig or its crew or any other third party.  The 
#Customer has full responsibility for all drilling, completion and production operation.  
#Halliburton makes no representations or warranties, either expressed or 
#implied, including, but not limited to, the implied warranties of merchantability or fitness 
#for a particular purpose, with respect to the services rendered.  In no event will 
#Halliburton be liable for failure to obtain any particular results or for 
#any damages, including, but not limited to, indirect, special or consequential damages, 
#resulting from the use of any information or interpretation provided by Halliburton.
#
~A           TIME           GTDEPTH  GTPQH  GTTQ  GTTN  GTET   GTTVD  
# ...
   10:10:38.859.27-Aug-2021 4958.50 7889.64 86.05 8.00 229.73 3301.91
   10:10:39.059.27-Aug-2021 4958.50 7889.64 86.05 8.00 229.93 3301.91
   10:10:39.259.27-Aug-2021 4958.50 7889.98 86.05 8.00 230.13 3301.91
   10:10:39.459.27-Aug-2021 4958.50 7889.53 86.05 8.00 230.32 3301.91
   10:10:39.658.27-Aug-2021 4958.50 7890.11 86.05 8.00 230.52 3301.91
   10:10:39.858.27-Aug-2021 4958.50 7890.70 86.05 8.00 230.72 3301.91
   10:10:40.058.27-Aug-2021 4958.50 7890.70 86.05 8.00 230.92 3301.91
   10:10:40.258.27-Aug-2021 4958.50 7891.49 86.05 8.00 231.12 3301.91
   10:10:40.457.27-Aug-2021 4958.50 7891.44 86.05 8.00 231.32 3301.91
   10:10:40.657.27-Aug-2021 4958.50 7891.19 86.05 8.00 231.52 3301.91
   10:10:40.857.27-Aug-2021 4958.50 7890.95 86.05 8.00 231.72 3301.91
   10:10:41.057.27-Aug-2021 4958.50 7890.95 86.05 8.00 231.92 3301.91
   10:10:41.257.27-Aug-2021 4958.50 7894.25 86.05 8.00 232.12 3301.91
   10:10:41.456.27-Aug-2021 4958.50 7890.22 86.05 8.00 232.32 3301.91
   10:10:41.656.27-Aug-2021 4958.50 7891.88 86.05 8.00 232.52 3301.91
   10:10:41.856.27-Aug-2021 4958.50 7890.46 86.05 8.00 232.72 3301.91
   10:10:42.056.27-Aug-2021 4958.50 7890.46 86.05 8.00 232.92 3301.91
   10:10:42.255.27-Aug-2021 4958.50 7889.81 86.05 8.00 233.12 3301.91
   10:10:42.455.27-Aug-2021 4958.50 7896.38 86.05 8.00 233.32 3301.91
   10:10:42.655.27-Aug-2021 4958.50 7887.51 86.05 8.00 233.52 3301.91
   10:10:42.855.27-Aug-2021 4958.50 7890.69 86.05 8.00 233.72 3301.91
   10:10:43.054.27-Aug-2021 4958.50 7890.69 86.05 8.00 233.92 3301.91
   10:10:43.254.27-Aug-2021 4958.50 7890.21 86.05 8.00 234.12 3301.91
   10:10:43.454.27-Aug-2021 4958.50 7890.70 86.05 8.00 234.32 3301.91
   10:10:43.654.27-Aug-2021 4958.50 7890.74 86.05 8.00 234.52 3301.91
   10:10:43.853.27-Aug-2021 4958.50 7893.82 86.05 8.00 234.72 3301.91
   10:10:44.053.27-Aug-2021 4958.50 7893.82 86.05 8.00 234.92 3301.91
   10:10:44.253.27-Aug-2021 4958.50 7890.48 86.05 8.00 235.12 3301.91
   10:10:44.453.27-Aug-2021 4958.50 7890.47 86.05 8.00 235.32 3301.91
   10:10:44.652.27-Aug-2021 4958.50 7890.59 86.05 8.00 235.52 3301.91
   10:10:44.852.27-Aug-2021 4958.50 7894.09 86.05 8.00 235.72 3301.91
   10:10:45.052.27-Aug-2021 4958.50 7894.09 86.05 8.00 235.92 3301.91
   10:10:45.252.27-Aug-2021 4958.50 7889.78 86.05 8.00 236.12 3301.91
   10:10:45.451.27-Aug-2021 4958.50 7889.41 86.05 8.00 236.32 3301.91
   10:10:45.651.27-Aug-2021 4958.50 7889.64 86.05 8.00 236.52 3301.91
   10:10:45.851.27-Aug-2021 4958.50 7890.34 86.05 8.00 236.72 3301.91
   10:10:46.051.27-Aug-2021 4958.50 7890.34 86.05 8.00 236.92 3301.91
   10:10:46.251.27-Aug-2021 4958.50 7890.22 86.05 8.00 237.12 3301.91
   10:10:46.450.27-Aug-2021 4958.50 7890.31 86.05 8.00 237.32 3301.91
   10:10:46.650.27-Aug-2021 4958.50 7890.37 86.05 8.00 237.52 3301.91
   10:10:46.850.27-Aug-2021 4958.50 7891.07 86.05 8.00 237.72 3301.91
   10:10:47.050.27-Aug-2021 4958.50 7891.07 86.05 8.00 237.92 3301.91
   10:10:47.249.27-Aug-2021 4958.50 7891.24 86.05 8.00 238.12 3301.91
   10:10:47.449.27-Aug-2021 4958.50 7890.82 86.05 8.00 238.32 3301.91
   10:10:47.649.27-Aug-2021 4958.50 7890.36 86.05 8.00 238.52 3301.91
   10:10:47.849.27-Aug-2021 4958.50 7890.40 86.05 8.00 238.71 3301.91
   10:10:48.048.27-Aug-2021 4958.50 7890.40 86.05 8.00 238.91 3301.91
   10:10:48.248.27-Aug-2021 4958.50 7890.98 86.05 8.00 239.11 3301.91
   10:10:48.448.27-Aug-2021 4958.50 7890.75 86.05 8.00 239.31 3301.91
   10:10:48.648.27-Aug-2021 4958.50 7889.96 86.05 8.00 239.51 3301.91
   10:10:48.847.27-Aug-2021 4958.50 7889.96 86.05 8.00 239.71 3301.91
   10:10:49.047.27-Aug-2021 4958.50 7889.96 86.05 8.00 239.91 3301.91
   10:10:49.247.27-Aug-2021 4958.50 7890.07 86.05 8.00 240.11 3301.91
   10:10:49.447.27-Aug-2021 4958.50 7890.01 86.05 8.00 240.31 3301.91
   10:10:49.646.27-Aug-2021 4958.50 7890.00 86.05 8.00 240.51 3301.91
   10:10:49.846.27-Aug-2021 4958.50 7890.37 86.05 8.00 240.71 3301.91
   10:10:50.046.27-Aug-2021 4958.50 7890.37 86.05 8.00 240.91 3301.91
   10:10:50.246.27-Aug-2021 4958.50 7891.42 86.05 8.00 241.11 3301.91
   10:10:50.446.27-Aug-2021 4958.50 7891.37 86.05 8.00 241.31 3301.91
   10:10:50.645.27-Aug-2021 4958.50 7891.11 86.05 8.00 241.51 3301.91
   10:10:50.845.27-Aug-2021 4958.50 7890.88 86.05 8.00 241.71 3301.91
   10:10:51.045.27-Aug-2021 4958.50 7890.88 86.05 8.00 241.91 3301.91
   10:10:51.245.27-Aug-2021 4958.50 7890.20 86.05 8.00 242.11 3301.91
   10:10:51.444.27-Aug-2021 4958.50 7894.25 86.05 8.00 242.31 3301.91
   10:10:51.644.27-Aug-2021 4958.50 7890.44 86.05 8.00 242.51 3301.91
   10:10:51.844.27-Aug-2021 4958.50 7890.17 86.05 8.00 242.71 3301.91
   10:10:52.044.27-Aug-2021 4958.50 7890.17 86.05 8.00 242.91 3301.91
   10:10:52.243.27-Aug-2021 4958.50 7889.44 86.05 8.00 243.11 3301.91
   10:10:52.443.27-Aug-2021 4958.50 7889.69 86.05 8.00 243.31 3301.91
   10:10:52.643.27-Aug-2021 4958.50 7893.11 86.05 8.00 243.51 3301.91
   10:10:52.843.27-Aug-2021 4958.50 7891.07 86.05 8.00 243.71 3301.91
   10:10:53.042.27-Aug-2021 4958.50 7891.07 86.05 8.00 243.91 3301.91
   10:10:53.242.27-Aug-2021 4958.50 7889.72 86.05 8.00 244.11 3301.91
   10:10:53.442.27-Aug-2021 4958.50 7890.27 86.05 8.00 244.31 3301.91
   10:10:53.642.27-Aug-2021 4958.50 7890.67 86.05 8.00 244.51 3301.91
   10:10:53.841.27-Aug-2021 4958.50 7896.88 86.05 8.00 244.71 3301.91
   10:10:54.041.27-Aug-2021 4958.50 7896.88 86.05 8.00 244.91 3301.91
   10:10:54.241.27-Aug-2021 4958.50 7891.08 86.05 8.00 245.11 3301.91
   10:10:54.441.27-Aug-2021 4958.50 7890.07 86.05 8.00 245.31 3301.91
   10:10:54.641.27-Aug-2021 4958.50 7890.35 86.05 8.00 245.51 3301.91
   10:10:54.840.27-Aug-2021 4958.50 7896.70 86.05 8.00 245.71 3301.91
   10:10:55.040.27-Aug-2021 4958.50 7896.70 86.05 8.00 245.91 3301.91
   10:10:55.240.27-Aug-2021 4958.50 7890.84 86.05 8.00 246.11 3301.91
   10:10:55.440.27-Aug-2021 4958.50 7889.04 86.05 8.00 246.31 3301.91
   10:10:55.639.27-Aug-2021 4958.50 7889.19 86.05 8.00 246.51 3301.91
   10:10:55.839.27-Aug-2021 4958.50 7889.85 86.05 8.00 246.71 3301.91
   10:10:56.039.27-Aug-2021 4958.50 7889.85 86.05 8.00 246.91 3301.91
   10:10:56.239.27-Aug-2021 4958.50 7890.17 86.05 8.00 247.10 3301.91
   10:10:56.438.27-Aug-2021 4958.50 7889.63 86.05 8.00 247.30 3301.91
   10:10:56.638.27-Aug-2021 4958.50 7890.17 86.05 8.00 247.50 3301.91
   10:10:56.838.27-Aug-2021 4958.50 7890.70 86.05 8.00 247.70 3301.91
   10:10:57.038.27-Aug-2021 4958.50 7890.70 86.05 8.00 247.90 3301.91
   10:10:57.237.27-Aug-2021 4958.50 7891.16 86.05 8.00 248.10 3301.91
   10:10:57.437.27-Aug-2021 4958.50 7891.01 86.05 8.00 248.30 3301.91
   10:10:57.637.27-Aug-2021 4958.50 7890.66 86.05 8.00 248.50 3301.91
   10:10:57.837.27-Aug-2021 4958.50 7890.34 86.05 8.00 248.70 3301.91
   10:10:58.036.27-Aug-2021 4958.50 7890.34 86.05 8.00 248.90 3301.91
   10:10:58.236.27-Aug-2021 4958.50 7890.15 86.05 8.00 249.10 3301.91
   10:10:58.436.27-Aug-2021 4958.50 7891.78 86.05 8.00 249.30 3301.91
   10:10:58.636.27-Aug-2021 4958.50 7890.49 86.05 8.00 249.50 3301.91
   10:10:58.836.27-Aug-2021 4958.50 7890.01 86.05 8.00 249.70 3301.91
   10:10:59.035.27-Aug-2021 4958.50 7890.01 86.05 8.00 249.90 3301.91
   10:10:59.235.27-Aug-2021 4958.50 7889.74 86.05 8.00 250.10 3301.91
   10:10:59.435.27-Aug-2021 4958.50 7889.76 86.05 8.00 250.30 3301.91
   10:10:59.635.27-Aug-2021 4958.50 7889.54 86.05 8.00 250.50 3301.91
   10:10:59.834.27-Aug-2021 4958.50 7889.82 86.05 8.00 250.70 3301.91
   10:11:00.034.27-Aug-2021 4958.50 7889.82 86.05 8.00 250.90 3301.91
   10:11:00.234.27-Aug-2021 4958.50 7890.84 86.05 8.00 251.10 3301.91
   10:11:00.434.27-Aug-2021 4958.50 7891.10 86.05 8.00 251.30 3301.91
   10:11:00.633.27-Aug-2021 4958.50 7891.08 86.05 8.00 251.50 3301.91
   10:11:00.833.27-Aug-2021 4958.50 7890.88 86.05 8.00 251.70 3301.91
   10:11:01.033.27-Aug-2021 4958.50 7890.88 86.05 8.00 251.90 3301.91
   10:11:01.233.27-Aug-2021 4958.50 7890.58 86.05 8.00 252.10 3301.91
   10:11:01.432.27-Aug-2021 4958.50 7893.82 86.05 8.00 252.30 3301.91
   10:11:01.632.27-Aug-2021 4958.50 7890.03 86.05 8.00 252.50 3301.91
