~Version Information
 VERS.                  2.0:   CWLS log ASCII Standard -VERSION 2.0
 WRAP.                   NO:   One line per depth step
~Well Information Block
#MNEM.UNIT     VALUE/NAME     DESCRIPTION
#---------     -----------    ---------------------------
 STRT.S             08:06:40 27-Aug-21: START TIME 08:06:40 27-Aug-21
 STOP.S             08:13:50 27-Aug-21: STOP TIME  08:13:50 27-Aug-21
 STEP.S                   0.00: STEP TIME
 NULL.                 -999.25: NULL VALUE
 DFWT.                        :  DIST FWL TEXT
 DFST.                        :  DIST FSL TEXT
 DMF .             Drill Floor:  DRILL MEAS FROM
 STIM.      20.00.00 17-Aug-21:  START TIME
 DATE.      19.00.00 29-Aug-21:  END TIME
 SPUD.               15-Aug-21:  SPUD DATE
 NREF.                    Grid:  NORTH REFERENCE
 HPTY.       Minimum Curvature:  HOLE POS TYPE
 DMOD.             Drill Model:  DRILL MOD DESC
 SVYD.                  Survey:  SURVEY DESC
 ILTD.               Lithology:  INTERP LTH DESC
 FTOP.          Formation Tops:  FORM TOPS DESC
 RIG .              East Azeri:  RIG NAME
 PDAT.          Mean Sea Level:  PERMANENT DATUM
 FLD .                     ACG:  FIELD NAME
 SON .        AZ-XX-0907180857:  JOB NUMBER
 CTRY.              Azerbaijan:  COUNTRY NAME
 WELL.                    D23x:  WELL NAME
 SRVC.     Turan Drilling and Engineering:  CONTRACTOR
 COMP.     BP Exploration (Caspian Sea) Ltd.:  COMPANY
 UWI .            /AZE00000214:  UNIQUE WELL IDENTIFIER
 API .            /AZE00000214:  API NUMBER
 MDS .        Operator Entered:  MAG DATA SOURCE
 BASE.              Azerbaijan:  LOGGING EQUIPMENT BASE LOCATION
 REGN.                   EESSA:  REGION
 PROV.                    Baku:  PROVINCE
 STAT.                    Baku:  STATE NAME
 MWDS.                    Baku:  MWD SHOP
 DOE .                     N/A:  DOE NUMBER
 DCON.         Sperry Drilling:  DIRECTNL CONTR
 UNIT.                     N/A:  LOGGING EQUIPMENT ID
 WTYP.                Deviated:  WELL TYPE
 CNTY.                        :  COUNTY
 LOC .                        :  LOCATION
 LMF .             Drill Floor:  LOG MEASURED FROM
 TVDS.m                  43.60:  TVDSS CORRECTN
 LATI.deg                40.02:  LATITUDE
 LONG.deg                51.45:  LONGITUDE
 WHNS.m                  -7.04:  WELL HEAD N/S
 WHEW.m                  -0.67:  WELL HEAD E/W
 UTMX.m              538762.90:  UTM X
 UTMY.m             4431871.34:  UTM Y
 DFWL.m                   0.00:  DISTANCE FWL
 DFSL.m                   0.00:  DISTANCE FSL
 SDEP.m                4127.00:  START DEPTH
 TDD .m                5084.50:  TOTAL DEPTH (DRILLER)
 VSDR.deg               140.47:  VERT SEC DIRECT
 GVFD.g                   1.00:  GRAVITY FIELD
 MFLD.nT              50362.00:  MAGNETIC FIELD
 MDIP.deg                59.48:  MAGNETIC DIP
 MDEC.deg                 6.47:  MAGNETIC DECL
 GRDC.deg                 0.31:  GRID CORRECTION
 AZTC.deg                 6.16:  AZM TOTAL CORR
 EPD .m                   0.00:  ELEVATION
 EGL .m                   0.00:  GROUND ELEVATION
 WDMS.m                 151.80:  WD ELEV
 APD .m                  43.60:  DEPTH ABOVE PD
 DEP .m                4092.57:  DEPTH
 AGAP.m                  43.60:  AIR GAP
 VSEW.m                  -0.67:  VERT SEC E/W
 VSNS.m                  -7.04:  VERT SEC N/S
 EKB .m                  43.60:  KB ELEVATION
 EDF .m                  43.60:  DF ELEVATION
 TDL .m                 957.50:  TOTAL DEPTH (LOGGER)
 VSC .                       0:  VS TO CLOSURE
 MAGU.                 1851413:  MAGUTM CHECKSUM
~Parameter Information Block
#MNEM.UNIT       Value        Description
#---------     -----------    ---------------------------
 AV  .mps                 1.50:  Ann Velocity 
 AVMX.mps                 2.00:  Max Ann Veloc 
 AZIF.deg               184.66:  Azm, Final 
 BHAT.        Rotary Steerable:  BHA Type 
 BREV.rev               300.00:  Rev Bit Total 
 BROT.°/30m              -0.50:  Build Rotating 
 BS  .in                  8.50:  Bit Size 
 BSZ .in                  8.50:  Bit Size 
 BTPL.psig              370.00:  Bit Press Loss 
 CABU.                      No:  Customer Abuse 
 CGEO.      Behruz Shahbaliyev:  Customer Geo 
 COMM.                     ü;x:  Run Comments 1 
 TCS .hr                140.08:  Time Ciculation Ended 
 CV  .mps                 3.00:  Crit Velocity 
 CVMX.mps                 3.20:  Max Crit Veloc 
 DD1 .            Musa Ahmadov:  Direct Drillr 1 
 DD2 .           Hamid Ahmadov:  Direct Drillr 2 
 DDSV.               Geo-Pilot:  DD Service 
 DEFF.%                  98.40:  % Det Eff 
 DLRX.°/30m               3.40:  Dogleg Rot Max 
 DLSO.°/30m               1.45:  Dogleg Oriented 
 DLSX.°/30m               3.40:  Dogleg Str Max 
 DRET.      18.40.00 29-Aug-21:  Drill End Time 
 DRST.      21.00.00 20-Aug-21:  Drill Start Tim 
 DTIM.hr                 69.47:  Time Drilling 
 EDEP.m                5084.50:  End Depth 
 ENG1.      Artemiy Matviyanov:  Engineer 1 
 ENG2.         Almaz Almadatov:  Engineer 2 
 ETIM.      18.40.00 29-Aug-21:  End Time 
 FLOI.gpm               500.00:  Flow In 
 FLON.gpm               400.00:  Flow In Min 
 FLOS.cptm                0.00:  Fluid Loss 
 FLOX.gpm               500.00:  Flow In Max 
 DFT .        Mineral Oil Base:  Mud Type 
 HFLO.                      No:  High Flow 
 HPRE.                      No:  High Pressure 
 HTEM.                      No:  High Temp 
 HYDO.m                   1.80:  Hydro Offset 
 IFIN.deg                25.62:  Inc, Final 
 IMAX.deg                48.69:  Inc Max 
 IMIN.deg                24.01:  Inc Min 
 IMND.m                4962.57:  Inc Min Depth 
 IMXD.m                4119.01:  Inc Max Depth 
 JARR.                      No:  Jarring 
 LETM.      18.40.00 29-Aug-21:  Log End Time 
 LOST.hr                     0:  Lost Rig Time 
 LSTM.      21.00.00 20-Aug-21:  Log Start Time 
 MDCL.ppm             41500.00:  Mud Chlorides 
 MDES.     Inversion Oil/Synthetic:  Mud Desc 
 DFD .sg                  1.56:  Mud Density 
 MDMN.sg                  1.56:  Dens Mud Min 
 MDMX.sg                  1.56:  Dens Mud Max 
 MOIL.                      70:  Run Mud Oil % 
 MOWR.                   70:30:  Run Mud OWR 
 MSND.                     0.2:  Run Mud Sand % 
 MSOL.                    23.3:  Run Mud Solids% 
 DFV .spqt               78.00:  Mud Viscosity 
 MWOD.in                  6.75:  MWD Tool OD 
 MWSI.                      No:  Serv Intrp, MWD 
 OTIM.hr                218.30:  Time Operating 
 PCON.           Look Like New:  Pad Condition 
 PMAX.psia            11015.30:  Press Op, Max 
 PV  .cP                 38.00:  Mud PV 
 RUN .                     300:  Run Number 
 ROPA.m/hr               15.00:  ROP Avg 
 ROPN.m/hr                9.00:  ROP Min 
 ROPX.m/hr               17.00:  ROP Max 
 RPMA.rpm               120.00:  RPM Surface Avg 
 RPMN.rpm                90.00:  RPM Surface Min 
 RPMX.rpm               140.00:  RPM Surface Max 
 RRUN.                     300:  Rig Run Number 
 RTIM.hr                 31.53:  Time Reaming 
 SAZI.deg               331.64:  Azm, Start 
 SDEP.m                4127.00:  Start Depth 
 SIDD.                      No:  Serv Intrp, DD 
 SINC.deg                48.43:  Inc, Start 
 SPPA.psig             5830.00:  SPP Avg 
 SPPN.psig             5600.00:  SPP Min 
 SPPX.psig             5900.00:  SPP Max 
 STIM.      21.00.00 20-Aug-21:  Start Time 
 SVCS.                 DD, MWD:  Services 
 SVER.                    9.20:  Sperry Version 
 TDAT.m                 957.50:  Tot Depth Attmp 
 TDDF.                      No:  Trip for DD 
 TDLG.m                 957.50:  Tot Depth Loggd 
 TFF .                      No:  Trip for Fail 
 TQAA.f-kp               15.00:  Torque Abs Avg 
 TQAN.f-kp               12.00:  Torque Abs Min 
 TQAX.f-kp               19.00:  Torque Abs Max 
 TRRT.°/30m              -3.40:  Turn Rotating 
 MRT .                  EWR-M5:  Maximum Recorded Temperature 
 TTMX.degC              100.00:  Max Tool Temp 
 VS01.                90639251:  Virtual Str1 SN 
 VS02.                90634715:  Virtual Str2 SN 
 VS03.                90652479:  Virtual Str3 SN 
 VS04.                90642262:  Virtual Str4 SN 
 WBMN.klb                 0.00:  WOB Min 
 WITN.           Murad Guliyev:  Customer Rep 
 WITN.          Yashar Gaziyev:  Customer Rep 2 
 WOBA.klb                 9.00:  WOB Avg 
 WOBX.klb                12.00:  WOB Max 
 YP  .lhf2               30.00:  Yield Point 
~Curve Information Block
#MNEM.UNIT                 API CODE     Curve Description
#---------               -----------    ---------------------------
 TIME.HHMMSS            00 000 000 000:  GT Time & Date
 GTDEPTH.m              00 000 000 000:  GT Depth
 GTPQH.psia             00 000 000 000:  GT HR Quartz Pressure
 GTTQ.degC              00 000 000 000:  GT Quartz Temperature
 GTTN.NONE              00 000 000 000:  GT Test Number
 GTET.sec               00 000 000 000:  GT Elapsed Test Time
 GTTVD.m                00 000 000 000:  GT True Vertical Depth
#Other Information
#
#WARRANTY: Halliburton will use its best efforts to furnish customers with 
#accurate information and interpretations that are part of, and incident to, the services 
#provided.  However, Halliburton cannot and does not warrant the accuracy 
#or correctness of such information and interpretations.  Under no circumstances should any 
#such information or interpretation be relied upon as the sole basis for any drilling, 
#completion, production, or financial decision or any procedure involving any risk to the 
#safety of any drilling venture, drilling rig or its crew or any other third party.  The 
#Customer has full responsibility for all drilling, completion and production operation.  
#Halliburton makes no representations or warranties, either expressed or 
#implied, including, but not limited to, the implied warranties of merchantability or fitness 
#for a particular purpose, with respect to the services rendered.  In no event will 
#Halliburton be liable for failure to obtain any particular results or for 
#any damages, including, but not limited to, indirect, special or consequential damages, 
#resulting from the use of any information or interpretation provided by Halliburton.
#
~A           TIME           GTDEPTH  GTPQH  GTTQ  GTTN  GTET   GTTVD  
# ...
   08:08:58.748.27-Aug-2021 4992.50 4261.11 86.93 5.00 138.02 3332.84
   08:08:58.948.27-Aug-2021 4992.50 4261.11 86.93 5.00 138.22 3332.84
   08:08:59.148.27-Aug-2021 4992.50 4261.15 86.93 5.00 138.42 3332.84
   08:08:59.348.27-Aug-2021 4992.50 4261.19 86.93 5.00 138.62 3332.84
   08:08:59.548.27-Aug-2021 4992.50 4261.20 86.93 5.00 138.82 3332.84
   08:08:59.748.27-Aug-2021 4992.50 4261.23 86.93 5.00 139.02 3332.84
   08:08:59.948.27-Aug-2021 4992.50 4261.23 86.93 5.00 139.22 3332.84
   08:09:00.148.27-Aug-2021 4992.50 4261.11 86.93 5.00 139.42 3332.84
   08:09:00.348.27-Aug-2021 4992.50 4261.12 86.93 5.00 139.62 3332.84
   08:09:00.548.27-Aug-2021 4992.50 4261.16 86.93 5.00 139.82 3332.84
   08:09:00.749.27-Aug-2021 4992.50 4261.18 86.93 5.00 140.02 3332.84
   08:09:00.949.27-Aug-2021 4992.50 4261.18 86.93 5.00 140.22 3332.84
   08:09:01.149.27-Aug-2021 4992.50 4261.23 86.93 5.00 140.42 3332.84
   08:09:01.349.27-Aug-2021 4992.50 4261.24 86.93 5.00 140.62 3332.84
   08:09:01.549.27-Aug-2021 4992.50 4261.25 86.93 5.00 140.82 3332.84
   08:09:01.749.27-Aug-2021 4992.50 4261.28 86.93 5.00 141.02 3332.84
   08:09:01.949.27-Aug-2021 4992.50 4261.28 86.93 5.00 141.22 3332.84
   08:09:02.149.27-Aug-2021 4992.50 4261.32 86.93 5.00 141.42 3332.84
   08:09:02.349.27-Aug-2021 4992.50 4261.34 86.93 5.00 141.62 3332.84
   08:09:02.549.27-Aug-2021 4992.50 4261.36 86.93 5.00 141.82 3332.84
   08:09:02.749.27-Aug-2021 4992.50 4261.37 86.93 5.00 142.02 3332.84
   08:09:02.949.27-Aug-2021 4992.50 4261.37 86.93 5.00 142.22 3332.84
   08:09:03.149.27-Aug-2021 4992.50 4261.18 86.93 5.00 142.42 3332.84
   08:09:03.349.27-Aug-2021 4992.50 4261.20 86.93 5.00 142.62 3332.84
   08:09:03.549.27-Aug-2021 4992.50 4261.21 86.93 5.00 142.82 3332.84
   08:09:03.749.27-Aug-2021 4992.50 4261.23 86.93 5.00 143.02 3332.84
   08:09:03.949.27-Aug-2021 4992.50 4261.23 86.93 5.00 143.22 3332.84
   08:09:04.149.27-Aug-2021 4992.50 4261.27 86.93 5.00 143.42 3332.84
   08:09:04.349.27-Aug-2021 4992.50 4261.29 86.93 5.00 143.62 3332.84
   08:09:04.549.27-Aug-2021 4992.50 4261.30 86.93 5.00 143.82 3332.84
   08:09:04.749.27-Aug-2021 4992.50 4261.33 86.93 5.00 144.02 3332.84
   08:09:04.949.27-Aug-2021 4992.50 4261.33 86.93 5.00 144.22 3332.84
   08:09:05.149.27-Aug-2021 4992.50 4261.36 86.93 5.00 144.42 3332.84
   08:09:05.349.27-Aug-2021 4992.50 4261.38 86.93 5.00 144.62 3332.84
   08:09:05.549.27-Aug-2021 4992.50 4261.40 86.93 5.00 144.82 3332.84
   08:09:05.749.27-Aug-2021 4992.50 4261.41 86.93 5.00 145.02 3332.84
   08:09:05.949.27-Aug-2021 4992.50 4261.41 86.93 5.00 145.22 3332.84
   08:09:06.149.27-Aug-2021 4992.50 4261.43 86.93 5.00 145.42 3332.84
   08:09:06.349.27-Aug-2021 4992.50 4261.28 86.93 5.00 145.62 3332.84
   08:09:06.549.27-Aug-2021 4992.50 4261.21 86.93 5.00 145.82 3332.84
   08:09:06.750.27-Aug-2021 4992.50 4261.23 86.93 5.00 146.02 3332.84
   08:09:06.950.27-Aug-2021 4992.50 4261.23 86.93 5.00 146.22 3332.84
   08:09:07.150.27-Aug-2021 4992.50 4261.27 86.93 5.00 146.42 3332.84
   08:09:07.350.27-Aug-2021 4992.50 4261.28 86.93 5.00 146.62 3332.84
   08:09:07.550.27-Aug-2021 4992.50 4261.26 86.93 5.00 146.82 3332.84
   08:09:07.750.27-Aug-2021 4992.50 4261.12 86.93 5.00 147.02 3332.84
   08:09:07.950.27-Aug-2021 4992.50 4261.12 86.93 5.00 147.22 3332.84
   08:09:08.150.27-Aug-2021 4992.50 4261.15 86.93 5.00 147.42 3332.84
   08:09:08.350.27-Aug-2021 4992.50 4261.19 86.93 5.00 147.62 3332.84
   08:09:08.550.27-Aug-2021 4992.50 4261.05 86.93 5.00 147.82 3332.84
   08:09:08.750.27-Aug-2021 4992.50 4261.07 86.93 5.00 148.02 3332.84
   08:09:08.950.27-Aug-2021 4992.50 4261.07 86.93 5.00 148.22 3332.84
   08:09:09.150.27-Aug-2021 4992.50 4261.10 86.93 5.00 148.42 3332.84
   08:09:09.350.27-Aug-2021 4992.50 4261.11 86.93 5.00 148.62 3332.84
   08:09:09.550.27-Aug-2021 4992.50 4261.13 86.93 5.00 148.82 3332.84
   08:09:09.750.27-Aug-2021 4992.50 4261.16 86.93 5.00 149.02 3332.84
   08:09:09.950.27-Aug-2021 4992.50 4261.16 86.93 5.00 149.22 3332.84
   08:09:10.150.27-Aug-2021 4992.50 4261.05 86.93 5.00 149.42 3332.84
   08:09:10.350.27-Aug-2021 4992.50 4261.06 86.93 5.00 149.62 3332.84
   08:09:10.550.27-Aug-2021 4992.50 4261.09 86.93 5.00 149.82 3332.84
   08:09:10.750.27-Aug-2021 4992.50 4261.11 86.93 5.00 150.02 3332.84
   08:09:10.950.27-Aug-2021 4992.50 4261.11 86.93 5.00 150.22 3332.84
   08:09:11.150.27-Aug-2021 4992.50 4261.12 86.93 5.00 150.42 3332.84
   08:09:11.350.27-Aug-2021 4992.50 4261.16 86.93 5.00 150.62 3332.84
   08:09:11.550.27-Aug-2021 4992.50 4261.17 86.93 5.00 150.82 3332.84
   08:09:11.750.27-Aug-2021 4992.50 4261.19 86.93 5.00 151.02 3332.84
   08:09:11.950.27-Aug-2021 4992.50 4261.19 86.93 5.00 151.22 3332.84
   08:09:12.150.27-Aug-2021 4992.50 4261.22 86.93 5.00 151.42 3332.84
   08:09:12.350.27-Aug-2021 4992.50 4261.23 86.93 5.00 151.62 3332.84
   08:09:12.550.27-Aug-2021 4992.50 4261.26 86.93 5.00 151.82 3332.84
   08:09:12.750.27-Aug-2021 4992.50 4261.26 86.93 5.00 152.02 3332.84
   08:09:12.951.27-Aug-2021 4992.50 4261.26 86.93 5.00 152.22 3332.84
   08:09:13.151.27-Aug-2021 4992.50 4261.13 86.93 5.00 152.43 3332.84
   08:09:13.351.27-Aug-2021 4992.50 4261.14 86.93 5.00 152.63 3332.84
   08:09:13.551.27-Aug-2021 4992.50 4261.14 86.93 5.00 152.83 3332.84
   08:09:13.751.27-Aug-2021 4992.50 4261.17 86.93 5.00 153.03 3332.84
   08:09:13.951.27-Aug-2021 4992.50 4261.17 86.93 5.00 153.23 3332.84
   08:09:14.151.27-Aug-2021 4992.50 4261.20 86.93 5.00 153.43 3332.84
   08:09:14.351.27-Aug-2021 4992.50 4261.21 86.93 5.00 153.63 3332.84
   08:09:14.551.27-Aug-2021 4992.50 4261.23 86.93 5.00 153.83 3332.84
   08:09:14.751.27-Aug-2021 4992.50 4261.24 86.93 5.00 154.03 3332.84
   08:09:14.951.27-Aug-2021 4992.50 4261.24 86.93 5.00 154.23 3332.84
   08:09:15.151.27-Aug-2021 4992.50 4261.27 86.93 5.00 154.43 3332.84
   08:09:15.351.27-Aug-2021 4992.50 4261.29 86.93 5.00 154.63 3332.84
   08:09:15.551.27-Aug-2021 4992.50 4261.30 86.93 5.00 154.83 3332.84
   08:09:15.751.27-Aug-2021 4992.50 4261.31 86.94 5.00 155.03 3332.84
   08:09:15.951.27-Aug-2021 4992.50 4261.31 86.94 5.00 155.23 3332.84
   08:09:16.151.27-Aug-2021 4992.50 4261.33 86.94 5.00 155.43 3332.84
   08:09:16.351.27-Aug-2021 4992.50 4261.17 86.93 5.00 155.63 3332.84
   08:09:16.551.27-Aug-2021 4992.50 4261.16 86.94 5.00 155.83 3332.84
   08:09:16.751.27-Aug-2021 4992.50 4261.17 86.94 5.00 156.03 3332.84
   08:09:16.951.27-Aug-2021 4992.50 4261.17 86.94 5.00 156.23 3332.84
   08:09:17.151.27-Aug-2021 4992.50 4261.20 86.94 5.00 156.43 3332.84
   08:09:17.351.27-Aug-2021 4992.50 4261.22 86.94 5.00 156.63 3332.84
   08:09:17.551.27-Aug-2021 4992.50 4261.15 86.94 5.00 156.83 3332.84
   08:09:17.751.27-Aug-2021 4992.50 4261.08 86.94 5.00 157.03 3332.84
   08:09:17.951.27-Aug-2021 4992.50 4261.08 86.94 5.00 157.23 3332.84
   08:09:18.151.27-Aug-2021 4992.50 4261.10 86.94 5.00 157.43 3332.84
   08:09:18.351.27-Aug-2021 4992.50 4261.10 86.94 5.00 157.63 3332.84
   08:09:18.551.27-Aug-2021 4992.50 4260.98 86.94 5.00 157.83 3332.84
   08:09:18.751.27-Aug-2021 4992.50 4261.01 86.94 5.00 158.03 3332.84
   08:09:18.952.27-Aug-2021 4992.50 4261.01 86.94 5.00 158.23 3332.84
   08:09:19.152.27-Aug-2021 4992.50 4261.03 86.94 5.00 158.43 3332.84
   08:09:19.352.27-Aug-2021 4992.50 4261.05 86.94 5.00 158.63 3332.84
   08:09:19.552.27-Aug-2021 4992.50 4261.07 86.94 5.00 158.83 3332.84
   08:09:19.752.27-Aug-2021 4992.50 4261.06 86.94 5.00 159.03 3332.84
   08:09:19.952.27-Aug-2021 4992.50 4261.06 86.94 5.00 159.23 3332.84
   08:09:20.152.27-Aug-2021 4992.50 4255.54 86.94 5.00 159.43 3332.84
   08:09:20.352.27-Aug-2021 4992.50 4256.39 86.94 5.00 159.63 3332.84
   08:09:20.552.27-Aug-2021 4992.50 4254.27 86.94 5.00 159.83 3332.84
   08:09:20.752.27-Aug-2021 4992.50 4254.34 86.94 5.00 160.03 3332.84
   08:09:20.952.27-Aug-2021 4992.50 4254.34 86.94 5.00 160.23 3332.84
   08:09:21.152.27-Aug-2021 4992.50 4254.56 86.94 5.00 160.43 3332.84
   08:09:21.352.27-Aug-2021 4992.50 4254.75 86.94 5.00 160.63 3332.84
   08:09:21.552.27-Aug-2021 4992.50 4253.64 86.94 5.00 160.83 3332.84
