~Version Information
 VERS.                  2.0:   CWLS log ASCII Standard -VERSION 2.0
 WRAP.                   NO:   One line per depth step
~Well Information Block
#MNEM.UNIT     VALUE/NAME     DESCRIPTION
#---------     -----------    ---------------------------
 STRT.S             16:35:30 27-Aug-21: START TIME 16:35:30 27-Aug-21
 STOP.S             16:42:43 27-Aug-21: STOP TIME  16:42:43 27-Aug-21
 STEP.S                   0.00: STEP TIME
 NULL.                 -999.25: NULL VALUE
 DFWT.                        :  DIST FWL TEXT
 DFST.                        :  DIST FSL TEXT
 DMF .             Drill Floor:  DRILL MEAS FROM
 STIM.      20.00.00 17-Aug-21:  START TIME
 DATE.      19.00.00 29-Aug-21:  END TIME
 SPUD.               15-Aug-21:  SPUD DATE
 NREF.                    Grid:  NORTH REFERENCE
 HPTY.       Minimum Curvature:  HOLE POS TYPE
 DMOD.             Drill Model:  DRILL MOD DESC
 SVYD.                  Survey:  SURVEY DESC
 ILTD.               Lithology:  INTERP LTH DESC
 FTOP.          Formation Tops:  FORM TOPS DESC
 RIG .              East Azeri:  RIG NAME
 PDAT.          Mean Sea Level:  PERMANENT DATUM
 FLD .                     ACG:  FIELD NAME
 SON .        AZ-XX-0907180857:  JOB NUMBER
 CTRY.              Azerbaijan:  COUNTRY NAME
 WELL.                    D23x:  WELL NAME
 SRVC.     Turan Drilling and Engineering:  CONTRACTOR
 COMP.     BP Exploration (Caspian Sea) Ltd.:  COMPANY
 UWI .            /AZE00000214:  UNIQUE WELL IDENTIFIER
 API .            /AZE00000214:  API NUMBER
 MDS .        Operator Entered:  MAG DATA SOURCE
 BASE.              Azerbaijan:  LOGGING EQUIPMENT BASE LOCATION
 REGN.                   EESSA:  REGION
 PROV.                    Baku:  PROVINCE
 STAT.                    Baku:  STATE NAME
 MWDS.                    Baku:  MWD SHOP
 DOE .                     N/A:  DOE NUMBER
 DCON.         Sperry Drilling:  DIRECTNL CONTR
 UNIT.                     N/A:  LOGGING EQUIPMENT ID
 WTYP.                Deviated:  WELL TYPE
 CNTY.                        :  COUNTY
 LOC .                        :  LOCATION
 LMF .             Drill Floor:  LOG MEASURED FROM
 TVDS.m                  43.60:  TVDSS CORRECTN
 LATI.deg                40.02:  LATITUDE
 LONG.deg                51.45:  LONGITUDE
 WHNS.m                  -7.04:  WELL HEAD N/S
 WHEW.m                  -0.67:  WELL HEAD E/W
 UTMX.m              538762.90:  UTM X
 UTMY.m             4431871.34:  UTM Y
 DFWL.m                   0.00:  DISTANCE FWL
 DFSL.m                   0.00:  DISTANCE FSL
 SDEP.m                4127.00:  START DEPTH
 TDD .m                5084.50:  TOTAL DEPTH (DRILLER)
 VSDR.deg               140.47:  VERT SEC DIRECT
 GVFD.g                   1.00:  GRAVITY FIELD
 MFLD.nT              50362.00:  MAGNETIC FIELD
 MDIP.deg                59.48:  MAGNETIC DIP
 MDEC.deg                 6.47:  MAGNETIC DECL
 GRDC.deg                 0.31:  GRID CORRECTION
 AZTC.deg                 6.16:  AZM TOTAL CORR
 EPD .m                   0.00:  ELEVATION
 EGL .m                   0.00:  GROUND ELEVATION
 WDMS.m                 151.80:  WD ELEV
 APD .m                  43.60:  DEPTH ABOVE PD
 DEP .m                4092.57:  DEPTH
 AGAP.m                  43.60:  AIR GAP
 VSEW.m                  -0.67:  VERT SEC E/W
 VSNS.m                  -7.04:  VERT SEC N/S
 EKB .m                  43.60:  KB ELEVATION
 EDF .m                  43.60:  DF ELEVATION
 TDL .m                 957.50:  TOTAL DEPTH (LOGGER)
 VSC .                       0:  VS TO CLOSURE
 MAGU.                 1851413:  MAGUTM CHECKSUM
~Parameter Information Block
#MNEM.UNIT       Value        Description
#---------     -----------    ---------------------------
 AV  .mps                 1.50:  Ann Velocity 
 AVMX.mps                 2.00:  Max Ann Veloc 
 AZIF.deg               184.66:  Azm, Final 
 BHAT.        Rotary Steerable:  BHA Type 
 BREV.rev               300.00:  Rev Bit Total 
 BROT.°/30m              -0.50:  Build Rotating 
 BS  .in                  8.50:  Bit Size 
 BSZ .in                  8.50:  Bit Size 
 BTPL.psig              370.00:  Bit Press Loss 
 CABU.                      No:  Customer Abuse 
 CGEO.      Behruz Shahbaliyev:  Customer Geo 
 COMM.                     äU:  Run Comments 1 
 TCS .hr                140.08:  Time Ciculation Ended 
 CV  .mps                 3.00:  Crit Velocity 
 CVMX.mps                 3.20:  Max Crit Veloc 
 DD1 .            Musa Ahmadov:  Direct Drillr 1 
 DD2 .           Hamid Ahmadov:  Direct Drillr 2 
 DDSV.               Geo-Pilot:  DD Service 
 DEFF.%                  98.40:  % Det Eff 
 DLRX.°/30m               3.40:  Dogleg Rot Max 
 DLSO.°/30m               1.45:  Dogleg Oriented 
 DLSX.°/30m               3.40:  Dogleg Str Max 
 DRET.      18.40.00 29-Aug-21:  Drill End Time 
 DRST.      21.00.00 20-Aug-21:  Drill Start Tim 
 DTIM.hr                 69.47:  Time Drilling 
 EDEP.m                5084.50:  End Depth 
 ENG1.      Artemiy Matviyanov:  Engineer 1 
 ENG2.         Almaz Almadatov:  Engineer 2 
 ETIM.      18.40.00 29-Aug-21:  End Time 
 FLOI.gpm               500.00:  Flow In 
 FLON.gpm               400.00:  Flow In Min 
 FLOS.cptm                0.00:  Fluid Loss 
 FLOX.gpm               500.00:  Flow In Max 
 DFT .        Mineral Oil Base:  Mud Type 
 HFLO.                      No:  High Flow 
 HPRE.                      No:  High Pressure 
 HTEM.                      No:  High Temp 
 HYDO.m                   1.80:  Hydro Offset 
 IFIN.deg                25.62:  Inc, Final 
 IMAX.deg                48.69:  Inc Max 
 IMIN.deg                24.01:  Inc Min 
 IMND.m                4962.57:  Inc Min Depth 
 IMXD.m                4119.01:  Inc Max Depth 
 JARR.                      No:  Jarring 
 LETM.      18.40.00 29-Aug-21:  Log End Time 
 LOST.hr                     0:  Lost Rig Time 
 LSTM.      21.00.00 20-Aug-21:  Log Start Time 
 MDCL.ppm             41500.00:  Mud Chlorides 
 MDES.     Inversion Oil/Synthetic:  Mud Desc 
 DFD .sg                  1.56:  Mud Density 
 MDMN.sg                  1.56:  Dens Mud Min 
 MDMX.sg                  1.56:  Dens Mud Max 
 MOIL.                      70:  Run Mud Oil % 
 MOWR.                   70:30:  Run Mud OWR 
 MSND.                     0.2:  Run Mud Sand % 
 MSOL.                    23.3:  Run Mud Solids% 
 DFV .spqt               78.00:  Mud Viscosity 
 MWOD.in                  6.75:  MWD Tool OD 
 MWSI.                      No:  Serv Intrp, MWD 
 OTIM.hr                218.30:  Time Operating 
 PCON.           Look Like New:  Pad Condition 
 PMAX.psia            11015.30:  Press Op, Max 
 PV  .cP                 38.00:  Mud PV 
 RUN .                     300:  Run Number 
 ROPA.m/hr               15.00:  ROP Avg 
 ROPN.m/hr                9.00:  ROP Min 
 ROPX.m/hr               17.00:  ROP Max 
 RPMA.rpm               120.00:  RPM Surface Avg 
 RPMN.rpm                90.00:  RPM Surface Min 
 RPMX.rpm               140.00:  RPM Surface Max 
 RRUN.                     300:  Rig Run Number 
 RTIM.hr                 31.53:  Time Reaming 
 SAZI.deg               331.64:  Azm, Start 
 SDEP.m                4127.00:  Start Depth 
 SIDD.                      No:  Serv Intrp, DD 
 SINC.deg                48.43:  Inc, Start 
 SPPA.psig             5830.00:  SPP Avg 
 SPPN.psig             5600.00:  SPP Min 
 SPPX.psig             5900.00:  SPP Max 
 STIM.      21.00.00 20-Aug-21:  Start Time 
 SVCS.                 DD, MWD:  Services 
 SVER.                    9.20:  Sperry Version 
 TDAT.m                 957.50:  Tot Depth Attmp 
 TDDF.                      No:  Trip for DD 
 TDLG.m                 957.50:  Tot Depth Loggd 
 TFF .                      No:  Trip for Fail 
 TQAA.f-kp               15.00:  Torque Abs Avg 
 TQAN.f-kp               12.00:  Torque Abs Min 
 TQAX.f-kp               19.00:  Torque Abs Max 
 TRRT.°/30m              -3.40:  Turn Rotating 
 MRT .                  EWR-M5:  Maximum Recorded Temperature 
 TTMX.degC              100.00:  Max Tool Temp 
 VS01.                90639251:  Virtual Str1 SN 
 VS02.                90634715:  Virtual Str2 SN 
 VS03.                90652479:  Virtual Str3 SN 
 VS04.                90642262:  Virtual Str4 SN 
 WBMN.klb                 0.00:  WOB Min 
 WITN.           Murad Guliyev:  Customer Rep 
 WITN.          Yashar Gaziyev:  Customer Rep 2 
 WOBA.klb                 9.00:  WOB Avg 
 WOBX.klb                12.00:  WOB Max 
 YP  .lhf2               30.00:  Yield Point 
~Curve Information Block
#MNEM.UNIT                 API CODE     Curve Description
#---------               -----------    ---------------------------
 TIME.HHMMSS            00 000 000 000:  GT Time & Date
 GTDEPTH.m              00 000 000 000:  GT Depth
 GTPQH.psia             00 000 000 000:  GT HR Quartz Pressure
 GTTQ.degC              00 000 000 000:  GT Quartz Temperature
 GTTN.NONE              00 000 000 000:  GT Test Number
 GTET.sec               00 000 000 000:  GT Elapsed Test Time
 GTTVD.m                00 000 000 000:  GT True Vertical Depth
#Other Information
#
#WARRANTY: Halliburton will use its best efforts to furnish customers with 
#accurate information and interpretations that are part of, and incident to, the services 
#provided.  However, Halliburton cannot and does not warrant the accuracy 
#or correctness of such information and interpretations.  Under no circumstances should any 
#such information or interpretation be relied upon as the sole basis for any drilling, 
#completion, production, or financial decision or any procedure involving any risk to the 
#safety of any drilling venture, drilling rig or its crew or any other third party.  The 
#Customer has full responsibility for all drilling, completion and production operation.  
#Halliburton makes no representations or warranties, either expressed or 
#implied, including, but not limited to, the implied warranties of merchantability or fitness 
#for a particular purpose, with respect to the services rendered.  In no event will 
#Halliburton be liable for failure to obtain any particular results or for 
#any damages, including, but not limited to, indirect, special or consequential damages, 
#resulting from the use of any information or interpretation provided by Halliburton.
#
~A           TIME           GTDEPTH  GTPQH  GTTQ  GTTN   GTET   GTTVD  
# ...
   16:41:31.671.27-Aug-2021 4788.00 7524.20 83.18 17.00 361.24 3147.22
   16:41:31.871.27-Aug-2021 4788.00 7524.86 83.18 17.00 361.44 3147.22
   16:41:32.071.27-Aug-2021 4788.00 7523.33 83.18 17.00 361.64 3147.22
   16:41:32.271.27-Aug-2021 4788.00 7523.33 83.18 17.00 361.84 3147.22
   16:41:32.471.27-Aug-2021 4788.00 7523.40 83.18 17.00 362.04 3147.22
   16:41:32.670.27-Aug-2021 4788.00 7523.85 83.18 17.00 362.24 3147.22
   16:41:32.870.27-Aug-2021 4788.00 7524.44 83.18 17.00 362.44 3147.22
   16:41:33.070.27-Aug-2021 4788.00 7524.14 83.18 17.00 362.64 3147.22
   16:41:33.270.27-Aug-2021 4788.00 7524.14 83.18 17.00 362.84 3147.22
   16:41:33.470.27-Aug-2021 4788.00 7524.64 83.18 17.00 363.04 3147.22
   16:41:33.669.27-Aug-2021 4788.00 7524.55 83.18 17.00 363.24 3147.22
   16:41:33.869.27-Aug-2021 4788.00 7524.56 83.18 17.00 363.44 3147.22
   16:41:34.069.27-Aug-2021 4788.00 7524.34 83.18 17.00 363.64 3147.22
   16:41:34.269.27-Aug-2021 4788.00 7524.34 83.18 17.00 363.84 3147.22
   16:41:34.469.27-Aug-2021 4788.00 7524.21 83.18 17.00 364.04 3147.22
   16:41:34.668.27-Aug-2021 4788.00 7528.84 83.18 17.00 364.24 3147.22
   16:41:34.868.27-Aug-2021 4788.00 7522.67 83.18 17.00 364.44 3147.22
   16:41:35.068.27-Aug-2021 4788.00 7524.28 83.18 17.00 364.64 3147.22
   16:41:35.268.27-Aug-2021 4788.00 7524.28 83.18 17.00 364.84 3147.22
   16:41:35.468.27-Aug-2021 4788.00 7526.57 83.18 17.00 365.04 3147.22
   16:41:35.667.27-Aug-2021 4788.00 7524.80 83.18 17.00 365.24 3147.22
   16:41:35.867.27-Aug-2021 4788.00 7523.21 83.18 17.00 365.44 3147.22
   16:41:36.067.27-Aug-2021 4788.00 7524.46 83.18 17.00 365.64 3147.22
   16:41:36.267.27-Aug-2021 4788.00 7524.46 83.18 17.00 365.83 3147.22
   16:41:36.467.27-Aug-2021 4788.00 7523.61 83.18 17.00 366.03 3147.22
   16:41:36.666.27-Aug-2021 4788.00 7527.18 83.18 17.00 366.23 3147.22
   16:41:36.866.27-Aug-2021 4788.00 7525.12 83.18 17.00 366.43 3147.22
   16:41:37.066.27-Aug-2021 4788.00 7524.46 83.18 17.00 366.63 3147.22
   16:41:37.266.27-Aug-2021 4788.00 7524.46 83.18 17.00 366.83 3147.22
   16:41:37.466.27-Aug-2021 4788.00 7524.79 83.18 17.00 367.03 3147.22
   16:41:37.665.27-Aug-2021 4788.00 7528.77 83.18 17.00 367.23 3147.22
   16:41:37.865.27-Aug-2021 4788.00 7522.70 83.18 17.00 367.43 3147.22
   16:41:38.065.27-Aug-2021 4788.00 7524.05 83.18 17.00 367.63 3147.22
   16:41:38.265.27-Aug-2021 4788.00 7524.05 83.18 17.00 367.83 3147.22
   16:41:38.465.27-Aug-2021 4788.00 7523.81 83.18 17.00 368.03 3147.22
   16:41:38.664.27-Aug-2021 4788.00 7524.02 83.18 17.00 368.23 3147.22
   16:41:38.864.27-Aug-2021 4788.00 7523.30 83.18 17.00 368.43 3147.22
   16:41:39.064.27-Aug-2021 4788.00 7523.86 83.18 17.00 368.63 3147.22
   16:41:39.264.27-Aug-2021 4788.00 7523.86 83.18 17.00 368.83 3147.22
   16:41:39.464.27-Aug-2021 4788.00 7524.17 83.18 17.00 369.03 3147.22
   16:41:39.663.27-Aug-2021 4788.00 7524.48 83.18 17.00 369.23 3147.22
   16:41:39.863.27-Aug-2021 4788.00 7524.67 83.18 17.00 369.43 3147.22
   16:41:40.063.27-Aug-2021 4788.00 7524.46 83.18 17.00 369.63 3147.22
   16:41:40.263.27-Aug-2021 4788.00 7524.46 83.18 17.00 369.83 3147.22
   16:41:40.463.27-Aug-2021 4788.00 7524.47 83.18 17.00 370.03 3147.22
   16:41:40.662.27-Aug-2021 4788.00 7524.31 83.18 17.00 370.23 3147.22
   16:41:40.862.27-Aug-2021 4788.00 7528.83 83.18 17.00 370.43 3147.22
   16:41:41.062.27-Aug-2021 4788.00 7522.66 83.18 17.00 370.63 3147.22
   16:41:41.262.27-Aug-2021 4788.00 7522.66 83.18 17.00 370.83 3147.22
   16:41:41.462.27-Aug-2021 4788.00 7525.21 83.18 17.00 371.03 3147.22
   16:41:41.661.27-Aug-2021 4788.00 7523.73 83.18 17.00 371.23 3147.22
   16:41:41.861.27-Aug-2021 4788.00 7524.18 83.18 17.00 371.43 3147.22
   16:41:42.061.27-Aug-2021 4788.00 7523.38 83.18 17.00 371.63 3147.22
   16:41:42.261.27-Aug-2021 4788.00 7523.38 83.18 17.00 371.83 3147.22
   16:41:42.461.27-Aug-2021 4788.00 7524.63 83.18 17.00 372.03 3147.22
   16:41:42.660.27-Aug-2021 4788.00 7524.29 83.18 17.00 372.23 3147.22
   16:41:42.860.27-Aug-2021 4788.00 7524.59 83.18 17.00 372.43 3147.22
   16:41:43.060.27-Aug-2021 4788.00 7524.78 83.18 17.00 372.63 3147.22
   16:41:43.260.27-Aug-2021 4788.00 7524.78 83.18 17.00 372.83 3147.22
   16:41:43.460.27-Aug-2021 4788.00 7524.73 83.18 17.00 373.03 3147.22
   16:41:43.659.27-Aug-2021 4788.00 7524.65 83.18 17.00 373.23 3147.22
   16:41:43.859.27-Aug-2021 4788.00 7524.61 83.18 17.00 373.43 3147.22
   16:41:44.059.27-Aug-2021 4788.00 7524.53 83.18 17.00 373.63 3147.22
   16:41:44.259.27-Aug-2021 4788.00 7524.53 83.18 17.00 373.83 3147.22
   16:41:44.459.27-Aug-2021 4788.00 7521.81 83.18 17.00 374.03 3147.22
   16:41:44.658.27-Aug-2021 4788.00 7524.53 83.18 17.00 374.23 3147.22
   16:41:44.858.27-Aug-2021 4788.00 7525.38 83.18 17.00 374.43 3147.22
   16:41:45.058.27-Aug-2021 4788.00 7524.21 83.18 17.00 374.63 3147.22
   16:41:45.258.27-Aug-2021 4788.00 7524.21 83.18 17.00 374.83 3147.22
   16:41:45.458.27-Aug-2021 4788.00 7523.52 83.18 17.00 375.03 3147.22
   16:41:45.657.27-Aug-2021 4788.00 7524.26 83.18 17.00 375.23 3147.22
   16:41:45.857.27-Aug-2021 4788.00 7525.53 83.18 17.00 375.43 3147.22
   16:41:46.057.27-Aug-2021 4788.00 7524.09 83.18 17.00 375.63 3147.22
   16:41:46.257.27-Aug-2021 4788.00 7524.09 83.18 17.00 375.82 3147.22
   16:41:46.457.27-Aug-2021 4788.00 7528.03 83.18 17.00 376.02 3147.22
   16:41:46.656.27-Aug-2021 4788.00 7524.32 83.18 17.00 376.22 3147.22
   16:41:46.856.27-Aug-2021 4788.00 7524.91 83.18 17.00 376.42 3147.22
   16:41:47.056.27-Aug-2021 4788.00 7525.06 83.18 17.00 376.62 3147.22
   16:41:47.256.27-Aug-2021 4788.00 7525.06 83.18 17.00 376.82 3147.22
   16:41:47.456.27-Aug-2021 4788.00 7521.99 83.18 17.00 377.02 3147.22
   16:41:47.655.27-Aug-2021 4788.00 7523.68 83.18 17.00 377.22 3147.22
   16:41:47.855.27-Aug-2021 4788.00 7525.07 83.18 17.00 377.42 3147.22
   16:41:48.055.27-Aug-2021 4788.00 7524.22 83.18 17.00 377.62 3147.22
   16:41:48.255.27-Aug-2021 4788.00 7524.22 83.18 17.00 377.82 3147.22
   16:41:48.455.27-Aug-2021 4788.00 7523.39 83.18 17.00 378.02 3147.22
   16:41:48.654.27-Aug-2021 4788.00 7523.78 83.18 17.00 378.22 3147.22
   16:41:48.854.27-Aug-2021 4788.00 7524.27 83.18 17.00 378.42 3147.22
   16:41:49.054.27-Aug-2021 4788.00 7524.06 83.18 17.00 378.62 3147.22
   16:41:49.254.27-Aug-2021 4788.00 7524.06 83.18 17.00 378.82 3147.22
   16:41:49.454.27-Aug-2021 4788.00 7524.30 83.18 17.00 379.02 3147.22
   16:41:49.654.27-Aug-2021 4788.00 7524.07 83.18 17.00 379.22 3147.22
   16:41:49.853.27-Aug-2021 4788.00 7523.79 83.18 17.00 379.42 3147.22
   16:41:50.053.27-Aug-2021 4788.00 7523.88 83.18 17.00 379.62 3147.22
   16:41:50.253.27-Aug-2021 4788.00 7523.88 83.18 17.00 379.82 3147.22
   16:41:50.453.27-Aug-2021 4788.00 7529.64 83.18 17.00 380.02 3147.22
   16:41:50.653.27-Aug-2021 4788.00 7521.24 83.18 17.00 380.22 3147.22
   16:41:50.852.27-Aug-2021 4788.00 7524.04 83.18 17.00 380.42 3147.22
   16:41:51.052.27-Aug-2021 4788.00 7525.08 83.18 17.00 380.62 3147.22
   16:41:51.252.27-Aug-2021 4788.00 7525.08 83.18 17.00 380.82 3147.22
   16:41:51.452.27-Aug-2021 4788.00 7523.69 83.18 17.00 381.02 3147.22
   16:41:51.652.27-Aug-2021 4788.00 7523.31 83.18 17.00 381.22 3147.22
   16:41:51.851.27-Aug-2021 4788.00 7523.49 83.18 17.00 381.42 3147.22
   16:41:52.051.27-Aug-2021 4788.00 7524.06 83.18 17.00 381.62 3147.22
   16:41:52.251.27-Aug-2021 4788.00 7524.06 83.18 17.00 381.82 3147.22
   16:41:52.451.27-Aug-2021 4788.00 7524.08 83.18 17.00 382.02 3147.22
   16:41:52.651.27-Aug-2021 4788.00 7524.46 83.18 17.00 382.22 3147.22
   16:41:52.850.27-Aug-2021 4788.00 7524.37 83.18 17.00 382.42 3147.22
   16:41:53.050.27-Aug-2021 4788.00 7524.27 83.18 17.00 382.62 3147.22
   16:41:53.250.27-Aug-2021 4788.00 7524.27 83.18 17.00 382.82 3147.22
   16:41:53.450.27-Aug-2021 4788.00 7524.17 83.18 17.00 383.02 3147.22
   16:41:53.650.27-Aug-2021 4788.00 7524.02 83.18 17.00 383.22 3147.22
   16:41:53.849.27-Aug-2021 4788.00 7526.58 83.18 17.00 383.42 3147.22
   16:41:54.049.27-Aug-2021 4788.00 7524.63 83.18 17.00 383.62 3147.22
