~Version Information
 VERS.                  2.0:   CWLS log ASCII Standard -VERSION 2.0
 WRAP.                   NO:   One line per depth step
~Well Information Block
#MNEM.UNIT     VALUE/NAME     DESCRIPTION
#---------     -----------    ---------------------------
 STRT.S             10:06:49 27-Aug-21: START TIME 10:06:49 27-Aug-21
 STOP.S             10:13:57 27-Aug-21: STOP TIME  10:13:57 27-Aug-21
 STEP.S                   0.00: STEP TIME
 NULL.                 -999.25: NULL VALUE
 DFWT.                        :  DIST FWL TEXT
 DFST.                        :  DIST FSL TEXT
 DMF .             Drill Floor:  DRILL MEAS FROM
 STIM.      20.00.00 17-Aug-21:  START TIME
 DATE.      19.00.00 29-Aug-21:  END TIME
 SPUD.               15-Aug-21:  SPUD DATE
 NREF.                    Grid:  NORTH REFERENCE
 HPTY.       Minimum Curvature:  HOLE POS TYPE
 DMOD.             Drill Model:  DRILL MOD DESC
 SVYD.                  Survey:  SURVEY DESC
 ILTD.               Lithology:  INTERP LTH DESC
 FTOP.          Formation Tops:  FORM TOPS DESC
 RIG .              East Azeri:  RIG NAME
 PDAT.          Mean Sea Level:  PERMANENT DATUM
 FLD .                     ACG:  FIELD NAME
 SON .        AZ-XX-0907180857:  JOB NUMBER
 CTRY.              Azerbaijan:  COUNTRY NAME
 WELL.                    D23x:  WELL NAME
 SRVC.     Turan Drilling and Engineering:  CONTRACTOR
 COMP.     BP Exploration (Caspian Sea) Ltd.:  COMPANY
 UWI .            /AZE00000214:  UNIQUE WELL IDENTIFIER
 API .            /AZE00000214:  API NUMBER
 MDS .        Operator Entered:  MAG DATA SOURCE
 BASE.              Azerbaijan:  LOGGING EQUIPMENT BASE LOCATION
 REGN.                   EESSA:  REGION
 PROV.                    Baku:  PROVINCE
 STAT.                    Baku:  STATE NAME
 MWDS.                    Baku:  MWD SHOP
 DOE .                     N/A:  DOE NUMBER
 DCON.         Sperry Drilling:  DIRECTNL CONTR
 UNIT.                     N/A:  LOGGING EQUIPMENT ID
 WTYP.                Deviated:  WELL TYPE
 CNTY.                        :  COUNTY
 LOC .                        :  LOCATION
 LMF .             Drill Floor:  LOG MEASURED FROM
 TVDS.m                  43.60:  TVDSS CORRECTN
 LATI.deg                40.02:  LATITUDE
 LONG.deg                51.45:  LONGITUDE
 WHNS.m                  -7.04:  WELL HEAD N/S
 WHEW.m                  -0.67:  WELL HEAD E/W
 UTMX.m              538762.90:  UTM X
 UTMY.m             4431871.34:  UTM Y
 DFWL.m                   0.00:  DISTANCE FWL
 DFSL.m                   0.00:  DISTANCE FSL
 SDEP.m                4127.00:  START DEPTH
 TDD .m                5084.50:  TOTAL DEPTH (DRILLER)
 VSDR.deg               140.47:  VERT SEC DIRECT
 GVFD.g                   1.00:  GRAVITY FIELD
 MFLD.nT              50362.00:  MAGNETIC FIELD
 MDIP.deg                59.48:  MAGNETIC DIP
 MDEC.deg                 6.47:  MAGNETIC DECL
 GRDC.deg                 0.31:  GRID CORRECTION
 AZTC.deg                 6.16:  AZM TOTAL CORR
 EPD .m                   0.00:  ELEVATION
 EGL .m                   0.00:  GROUND ELEVATION
 WDMS.m                 151.80:  WD ELEV
 APD .m                  43.60:  DEPTH ABOVE PD
 DEP .m                4092.57:  DEPTH
 AGAP.m                  43.60:  AIR GAP
 VSEW.m                  -0.67:  VERT SEC E/W
 VSNS.m                  -7.04:  VERT SEC N/S
 EKB .m                  43.60:  KB ELEVATION
 EDF .m                  43.60:  DF ELEVATION
 TDL .m                 957.50:  TOTAL DEPTH (LOGGER)
 VSC .                       0:  VS TO CLOSURE
 MAGU.                 1851413:  MAGUTM CHECKSUM
~Parameter Information Block
#MNEM.UNIT       Value        Description
#---------     -----------    ---------------------------
 AV  .mps                 1.50:  Ann Velocity 
 AVMX.mps                 2.00:  Max Ann Veloc 
 AZIF.deg               184.66:  Azm, Final 
 BHAT.        Rotary Steerable:  BHA Type 
 BREV.rev               300.00:  Rev Bit Total 
 BROT.°/30m              -0.50:  Build Rotating 
 BS  .in                  8.50:  Bit Size 
 BSZ .in                  8.50:  Bit Size 
 BTPL.psig              370.00:  Bit Press Loss 
 CABU.                      No:  Customer Abuse 
 CGEO.      Behruz Shahbaliyev:  Customer Geo 
 COMM.                     Ììg:  Run Comments 1 
 TCS .hr                140.08:  Time Ciculation Ended 
 CV  .mps                 3.00:  Crit Velocity 
 CVMX.mps                 3.20:  Max Crit Veloc 
 DD1 .            Musa Ahmadov:  Direct Drillr 1 
 DD2 .           Hamid Ahmadov:  Direct Drillr 2 
 DDSV.               Geo-Pilot:  DD Service 
 DEFF.%                  98.40:  % Det Eff 
 DLRX.°/30m               3.40:  Dogleg Rot Max 
 DLSO.°/30m               1.45:  Dogleg Oriented 
 DLSX.°/30m               3.40:  Dogleg Str Max 
 DRET.      18.40.00 29-Aug-21:  Drill End Time 
 DRST.      21.00.00 20-Aug-21:  Drill Start Tim 
 DTIM.hr                 69.47:  Time Drilling 
 EDEP.m                5084.50:  End Depth 
 ENG1.      Artemiy Matviyanov:  Engineer 1 
 ENG2.         Almaz Almadatov:  Engineer 2 
 ETIM.      18.40.00 29-Aug-21:  End Time 
 FLOI.gpm               500.00:  Flow In 
 FLON.gpm               400.00:  Flow In Min 
 FLOS.cptm                0.00:  Fluid Loss 
 FLOX.gpm               500.00:  Flow In Max 
 DFT .        Mineral Oil Base:  Mud Type 
 HFLO.                      No:  High Flow 
 HPRE.                      No:  High Pressure 
 HTEM.                      No:  High Temp 
 HYDO.m                   1.80:  Hydro Offset 
 IFIN.deg                25.62:  Inc, Final 
 IMAX.deg                48.69:  Inc Max 
 IMIN.deg                24.01:  Inc Min 
 IMND.m                4962.57:  Inc Min Depth 
 IMXD.m                4119.01:  Inc Max Depth 
 JARR.                      No:  Jarring 
 LETM.      18.40.00 29-Aug-21:  Log End Time 
 LOST.hr                     0:  Lost Rig Time 
 LSTM.      21.00.00 20-Aug-21:  Log Start Time 
 MDCL.ppm             41500.00:  Mud Chlorides 
 MDES.     Inversion Oil/Synthetic:  Mud Desc 
 DFD .sg                  1.56:  Mud Density 
 MDMN.sg                  1.56:  Dens Mud Min 
 MDMX.sg                  1.56:  Dens Mud Max 
 MOIL.                      70:  Run Mud Oil % 
 MOWR.                   70:30:  Run Mud OWR 
 MSND.                     0.2:  Run Mud Sand % 
 MSOL.                    23.3:  Run Mud Solids% 
 DFV .spqt               78.00:  Mud Viscosity 
 MWOD.in                  6.75:  MWD Tool OD 
 MWSI.                      No:  Serv Intrp, MWD 
 OTIM.hr                218.30:  Time Operating 
 PCON.           Look Like New:  Pad Condition 
 PMAX.psia            11015.30:  Press Op, Max 
 PV  .cP                 38.00:  Mud PV 
 RUN .                     300:  Run Number 
 ROPA.m/hr               15.00:  ROP Avg 
 ROPN.m/hr                9.00:  ROP Min 
 ROPX.m/hr               17.00:  ROP Max 
 RPMA.rpm               120.00:  RPM Surface Avg 
 RPMN.rpm                90.00:  RPM Surface Min 
 RPMX.rpm               140.00:  RPM Surface Max 
 RRUN.                     300:  Rig Run Number 
 RTIM.hr                 31.53:  Time Reaming 
 SAZI.deg               331.64:  Azm, Start 
 SDEP.m                4127.00:  Start Depth 
 SIDD.                      No:  Serv Intrp, DD 
 SINC.deg                48.43:  Inc, Start 
 SPPA.psig             5830.00:  SPP Avg 
 SPPN.psig             5600.00:  SPP Min 
 SPPX.psig             5900.00:  SPP Max 
 STIM.      21.00.00 20-Aug-21:  Start Time 
 SVCS.                 DD, MWD:  Services 
 SVER.                    9.20:  Sperry Version 
 TDAT.m                 957.50:  Tot Depth Attmp 
 TDDF.                      No:  Trip for DD 
 TDLG.m                 957.50:  Tot Depth Loggd 
 TFF .                      No:  Trip for Fail 
 TQAA.f-kp               15.00:  Torque Abs Avg 
 TQAN.f-kp               12.00:  Torque Abs Min 
 TQAX.f-kp               19.00:  Torque Abs Max 
 TRRT.°/30m              -3.40:  Turn Rotating 
 MRT .                  EWR-M5:  Maximum Recorded Temperature 
 TTMX.degC              100.00:  Max Tool Temp 
 VS01.                90639251:  Virtual Str1 SN 
 VS02.                90634715:  Virtual Str2 SN 
 VS03.                90652479:  Virtual Str3 SN 
 VS04.                90642262:  Virtual Str4 SN 
 WBMN.klb                 0.00:  WOB Min 
 WITN.           Murad Guliyev:  Customer Rep 
 WITN.          Yashar Gaziyev:  Customer Rep 2 
 WOBA.klb                 9.00:  WOB Avg 
 WOBX.klb                12.00:  WOB Max 
 YP  .lhf2               30.00:  Yield Point 
~Curve Information Block
#MNEM.UNIT                 API CODE     Curve Description
#---------               -----------    ---------------------------
 TIME.HHMMSS            00 000 000 000:  GT Time & Date
 GTDEPTH.m              00 000 000 000:  GT Depth
 GTPQH.psia             00 000 000 000:  GT HR Quartz Pressure
 GTTQ.degC              00 000 000 000:  GT Quartz Temperature
 GTTN.NONE              00 000 000 000:  GT Test Number
 GTET.sec               00 000 000 000:  GT Elapsed Test Time
 GTTVD.m                00 000 000 000:  GT True Vertical Depth
#Other Information
#
#WARRANTY: Halliburton will use its best efforts to furnish customers with 
#accurate information and interpretations that are part of, and incident to, the services 
#provided.  However, Halliburton cannot and does not warrant the accuracy 
#or correctness of such information and interpretations.  Under no circumstances should any 
#such information or interpretation be relied upon as the sole basis for any drilling, 
#completion, production, or financial decision or any procedure involving any risk to the 
#safety of any drilling venture, drilling rig or its crew or any other third party.  The 
#Customer has full responsibility for all drilling, completion and production operation.  
#Halliburton makes no representations or warranties, either expressed or 
#implied, including, but not limited to, the implied warranties of merchantability or fitness 
#for a particular purpose, with respect to the services rendered.  In no event will 
#Halliburton be liable for failure to obtain any particular results or for 
#any damages, including, but not limited to, indirect, special or consequential damages, 
#resulting from the use of any information or interpretation provided by Halliburton.
#
~A           TIME           GTDEPTH  GTPQH  GTTQ  GTTN  GTET   GTTVD  
# ...
   10:08:21.024.27-Aug-2021 4958.50 7888.01 86.09 8.00  91.89 3301.91
   10:08:21.224.27-Aug-2021 4958.50 7888.01 86.09 8.00  92.09 3301.91
   10:08:21.423.27-Aug-2021 4958.50 7888.43 86.09 8.00  92.29 3301.91
   10:08:21.623.27-Aug-2021 4958.50 7888.28 86.09 8.00  92.49 3301.91
   10:08:21.823.27-Aug-2021 4958.50 7888.08 86.09 8.00  92.69 3301.91
   10:08:22.023.27-Aug-2021 4958.50 7887.98 86.09 8.00  92.89 3301.91
   10:08:22.223.27-Aug-2021 4958.50 7887.98 86.09 8.00  93.09 3301.91
   10:08:22.422.27-Aug-2021 4958.50 7891.30 86.09 8.00  93.29 3301.91
   10:08:22.622.27-Aug-2021 4958.50 7889.08 86.09 8.00  93.49 3301.91
   10:08:22.822.27-Aug-2021 4958.50 7887.98 86.09 8.00  93.69 3301.91
   10:08:23.022.27-Aug-2021 4958.50 7887.16 86.09 8.00  93.89 3301.91
   10:08:23.221.27-Aug-2021 4958.50 7887.16 86.09 8.00  94.09 3301.91
   10:08:23.421.27-Aug-2021 4958.50 7887.40 86.09 8.00  94.29 3301.91
   10:08:23.621.27-Aug-2021 4958.50 7892.74 86.09 8.00  94.49 3301.91
   10:08:23.821.27-Aug-2021 4958.50 7886.13 86.09 8.00  94.69 3301.91
   10:08:24.020.27-Aug-2021 4958.50 7888.34 86.09 8.00  94.89 3301.91
   10:08:24.220.27-Aug-2021 4958.50 7888.34 86.09 8.00  95.09 3301.91
   10:08:24.420.27-Aug-2021 4958.50 7888.03 86.09 8.00  95.29 3301.91
   10:08:24.620.27-Aug-2021 4958.50 7888.56 86.09 8.00  95.49 3301.91
   10:08:24.819.27-Aug-2021 4958.50 7893.64 86.09 8.00  95.69 3301.91
   10:08:25.019.27-Aug-2021 4958.50 7886.59 86.09 8.00  95.89 3301.91
   10:08:25.219.27-Aug-2021 4958.50 7886.59 86.09 8.00  96.09 3301.91
   10:08:25.419.27-Aug-2021 4958.50 7887.18 86.09 8.00  96.29 3301.91
   10:08:25.618.27-Aug-2021 4958.50 7893.06 86.09 8.00  96.48 3301.91
   10:08:25.818.27-Aug-2021 4958.50 7887.04 86.09 8.00  96.68 3301.91
   10:08:26.018.27-Aug-2021 4958.50 7888.51 86.09 8.00  96.88 3301.91
   10:08:26.218.27-Aug-2021 4958.50 7888.51 86.09 8.00  97.08 3301.91
   10:08:26.418.27-Aug-2021 4958.50 7886.79 86.09 8.00  97.28 3301.91
   10:08:26.617.27-Aug-2021 4958.50 7887.02 86.09 8.00  97.48 3301.91
   10:08:26.817.27-Aug-2021 4958.50 7887.59 86.09 8.00  97.68 3301.91
   10:08:27.017.27-Aug-2021 4958.50 7888.07 86.09 8.00  97.88 3301.91
   10:08:27.217.27-Aug-2021 4958.50 7888.07 86.09 8.00  98.08 3301.91
   10:08:27.416.27-Aug-2021 4958.50 7887.94 86.09 8.00  98.28 3301.91
   10:08:27.616.27-Aug-2021 4958.50 7888.60 86.09 8.00  98.48 3301.91
   10:08:27.816.27-Aug-2021 4958.50 7888.94 86.09 8.00  98.68 3301.91
   10:08:28.016.27-Aug-2021 4958.50 7889.05 86.09 8.00  98.88 3301.91
   10:08:28.215.27-Aug-2021 4958.50 7889.05 86.09 8.00  99.08 3301.91
   10:08:28.415.27-Aug-2021 4958.50 7888.72 86.09 8.00  99.28 3301.91
   10:08:28.615.27-Aug-2021 4958.50 7888.41 86.09 8.00  99.48 3301.91
   10:08:28.815.27-Aug-2021 4958.50 7893.31 86.09 8.00  99.68 3301.91
   10:08:29.014.27-Aug-2021 4958.50 7886.63 86.09 8.00  99.88 3301.91
   10:08:29.214.27-Aug-2021 4958.50 7886.63 86.09 8.00 100.08 3301.91
   10:08:29.414.27-Aug-2021 4958.50 7888.51 86.09 8.00 100.28 3301.91
   10:08:29.614.27-Aug-2021 4958.50 7888.04 86.09 8.00 100.48 3301.91
   10:08:29.813.27-Aug-2021 4958.50 7887.99 86.09 8.00 100.68 3301.91
   10:08:30.013.27-Aug-2021 4958.50 7888.07 86.09 8.00 100.88 3301.91
   10:08:30.213.27-Aug-2021 4958.50 7888.07 86.09 8.00 101.08 3301.91
   10:08:30.413.27-Aug-2021 4958.50 7887.88 86.09 8.00 101.28 3301.91
   10:08:30.612.27-Aug-2021 4958.50 7888.23 86.09 8.00 101.48 3301.91
   10:08:30.812.27-Aug-2021 4958.50 7888.82 86.09 8.00 101.68 3301.91
   10:08:31.012.27-Aug-2021 4958.50 7889.31 86.09 8.00 101.88 3301.91
   10:08:31.212.27-Aug-2021 4958.50 7889.31 86.09 8.00 102.08 3301.91
   10:08:31.412.27-Aug-2021 4958.50 7889.52 86.09 8.00 102.28 3301.91
   10:08:31.611.27-Aug-2021 4958.50 7889.36 86.09 8.00 102.48 3301.91
   10:08:31.811.27-Aug-2021 4958.50 7889.05 86.09 8.00 102.68 3301.91
   10:08:32.011.27-Aug-2021 4958.50 7889.00 86.09 8.00 102.88 3301.91
   10:08:32.211.27-Aug-2021 4958.50 7889.00 86.09 8.00 103.08 3301.91
   10:08:32.410.27-Aug-2021 4958.50 7887.30 86.09 8.00 103.28 3301.91
   10:08:32.610.27-Aug-2021 4958.50 7889.93 86.09 8.00 103.48 3301.91
   10:08:32.810.27-Aug-2021 4958.50 7888.59 86.09 8.00 103.68 3301.91
   10:08:33.010.27-Aug-2021 4958.50 7888.39 86.09 8.00 103.88 3301.91
   10:08:33.209.27-Aug-2021 4958.50 7888.39 86.09 8.00 104.08 3301.91
   10:08:33.409.27-Aug-2021 4958.50 7889.92 86.09 8.00 104.28 3301.91
   10:08:33.609.27-Aug-2021 4958.50 7890.48 86.09 8.00 104.48 3301.91
   10:08:33.809.27-Aug-2021 4958.50 7889.44 86.09 8.00 104.68 3301.91
   10:08:34.008.27-Aug-2021 4958.50 7888.99 86.09 8.00 104.87 3301.91
   10:08:34.208.27-Aug-2021 4958.50 7888.99 86.09 8.00 105.07 3301.91
   10:08:34.408.27-Aug-2021 4958.50 7889.33 86.09 8.00 105.27 3301.91
   10:08:34.608.27-Aug-2021 4958.50 7889.36 86.09 8.00 105.47 3301.91
   10:08:34.807.27-Aug-2021 4958.50 7892.58 86.08 8.00 105.67 3301.91
   10:08:35.007.27-Aug-2021 4958.50 7889.73 86.08 8.00 105.87 3301.91
   10:08:35.207.27-Aug-2021 4958.50 7889.73 86.08 8.00 106.07 3301.91
   10:08:35.407.27-Aug-2021 4958.50 7893.73 86.08 8.00 106.27 3301.91
   10:08:35.607.27-Aug-2021 4958.50 7887.35 86.08 8.00 106.47 3301.91
   10:08:35.806.27-Aug-2021 4958.50 7890.69 86.08 8.00 106.67 3301.91
   10:08:36.006.27-Aug-2021 4958.50 7889.04 86.08 8.00 106.87 3301.91
   10:08:36.206.27-Aug-2021 4958.50 7889.04 86.08 8.00 107.07 3301.91
   10:08:36.406.27-Aug-2021 4958.50 7888.16 86.08 8.00 107.27 3301.91
   10:08:36.605.27-Aug-2021 4958.50 7888.44 86.08 8.00 107.47 3301.91
   10:08:36.805.27-Aug-2021 4958.50 7889.11 86.08 8.00 107.67 3301.91
   10:08:37.005.27-Aug-2021 4958.50 7889.27 86.08 8.00 107.87 3301.91
   10:08:37.205.27-Aug-2021 4958.50 7889.27 86.08 8.00 108.07 3301.91
   10:08:37.404.27-Aug-2021 4958.50 7889.97 86.08 8.00 108.27 3301.91
   10:08:37.604.27-Aug-2021 4958.50 7890.35 86.08 8.00 108.47 3301.91
   10:08:37.804.27-Aug-2021 4958.50 7890.53 86.08 8.00 108.67 3301.91
   10:08:38.004.27-Aug-2021 4958.50 7890.53 86.08 8.00 108.87 3301.91
   10:08:38.203.27-Aug-2021 4958.50 7890.53 86.08 8.00 109.07 3301.91
   10:08:38.403.27-Aug-2021 4958.50 7890.03 86.08 8.00 109.27 3301.91
   10:08:38.603.27-Aug-2021 4958.50 7890.96 86.08 8.00 109.47 3301.91
   10:08:38.803.27-Aug-2021 4958.50 7891.55 86.08 8.00 109.67 3301.91
   10:08:39.002.27-Aug-2021 4958.50 7890.83 86.08 8.00 109.87 3301.91
   10:08:39.202.27-Aug-2021 4958.50 7890.83 86.08 8.00 110.07 3301.91
   10:08:39.402.27-Aug-2021 4958.50 7889.21 86.08 8.00 110.27 3301.91
   10:08:39.602.27-Aug-2021 4958.50 7889.04 86.08 8.00 110.47 3301.91
   10:08:39.802.27-Aug-2021 4958.50 7889.08 86.08 8.00 110.67 3301.91
   10:08:40.001.27-Aug-2021 4958.50 7889.02 86.08 8.00 110.87 3301.91
   10:08:40.201.27-Aug-2021 4958.50 7889.02 86.08 8.00 111.07 3301.91
   10:08:40.401.27-Aug-2021 4958.50 7889.38 86.08 8.00 111.27 3301.91
   10:08:40.601.27-Aug-2021 4958.50 7889.69 86.08 8.00 111.47 3301.91
   10:08:40.800.27-Aug-2021 4958.50 7890.26 86.08 8.00 111.67 3301.91
   10:08:41.000.27-Aug-2021 4958.50 7890.56 86.08 8.00 111.87 3301.91
   10:08:41.200.27-Aug-2021 4958.50 7890.56 86.08 8.00 112.07 3301.91
   10:08:41.400.27-Aug-2021 4958.50 7890.25 86.08 8.00 112.27 3301.91
   10:08:41.599.27-Aug-2021 4958.50 7890.09 86.08 8.00 112.47 3301.91
   10:08:41.799.27-Aug-2021 4958.50 7890.05 86.08 8.00 112.67 3301.91
   10:08:41.999.27-Aug-2021 4958.50 7891.18 86.08 8.00 112.87 3301.91
   10:08:42.199.27-Aug-2021 4958.50 7891.18 86.08 8.00 113.06 3301.91
   10:08:42.398.27-Aug-2021 4958.50 7891.01 86.08 8.00 113.26 3301.91
   10:08:42.598.27-Aug-2021 4958.50 7890.04 86.08 8.00 113.46 3301.91
   10:08:42.798.27-Aug-2021 4958.50 7889.24 86.08 8.00 113.66 3301.91
   10:08:42.998.27-Aug-2021 4958.50 7889.19 86.08 8.00 113.86 3301.91
   10:08:43.197.27-Aug-2021 4958.50 7889.19 86.08 8.00 114.06 3301.91
   10:08:43.397.27-Aug-2021 4958.50 7888.02 86.08 8.00 114.26 3301.91
   10:08:43.597.27-Aug-2021 4958.50 7889.94 86.08 8.00 114.46 3301.91
   10:08:43.797.27-Aug-2021 4958.50 7889.31 86.08 8.00 114.66 3301.91
