~Version Information
 VERS.                  2.0:   CWLS log ASCII Standard -VERSION 2.0
 WRAP.                   NO:   One line per depth step
~Well Information Block
#MNEM.UNIT     VALUE/NAME     DESCRIPTION
#---------     -----------    ---------------------------
 STRT.S             15:52:10 27-Aug-21: START TIME 15:52:10 27-Aug-21
 STOP.S             15:59:26 27-Aug-21: STOP TIME  15:59:26 27-Aug-21
 STEP.S                   0.00: STEP TIME
 NULL.                 -999.25: NULL VALUE
 DFWT.                        :  DIST FWL TEXT
 DFST.                        :  DIST FSL TEXT
 DMF .             Drill Floor:  DRILL MEAS FROM
 STIM.      20.00.00 17-Aug-21:  START TIME
 DATE.      19.00.00 29-Aug-21:  END TIME
 SPUD.               15-Aug-21:  SPUD DATE
 NREF.                    Grid:  NORTH REFERENCE
 HPTY.       Minimum Curvature:  HOLE POS TYPE
 DMOD.             Drill Model:  DRILL MOD DESC
 SVYD.                  Survey:  SURVEY DESC
 ILTD.               Lithology:  INTERP LTH DESC
 FTOP.          Formation Tops:  FORM TOPS DESC
 RIG .              East Azeri:  RIG NAME
 PDAT.          Mean Sea Level:  PERMANENT DATUM
 FLD .                     ACG:  FIELD NAME
 SON .        AZ-XX-0907180857:  JOB NUMBER
 CTRY.              Azerbaijan:  COUNTRY NAME
 WELL.                    D23x:  WELL NAME
 SRVC.     Turan Drilling and Engineering:  CONTRACTOR
 COMP.     BP Exploration (Caspian Sea) Ltd.:  COMPANY
 UWI .            /AZE00000214:  UNIQUE WELL IDENTIFIER
 API .            /AZE00000214:  API NUMBER
 MDS .        Operator Entered:  MAG DATA SOURCE
 BASE.              Azerbaijan:  LOGGING EQUIPMENT BASE LOCATION
 REGN.                   EESSA:  REGION
 PROV.                    Baku:  PROVINCE
 STAT.                    Baku:  STATE NAME
 MWDS.                    Baku:  MWD SHOP
 DOE .                     N/A:  DOE NUMBER
 DCON.         Sperry Drilling:  DIRECTNL CONTR
 UNIT.                     N/A:  LOGGING EQUIPMENT ID
 WTYP.                Deviated:  WELL TYPE
 CNTY.                        :  COUNTY
 LOC .                        :  LOCATION
 LMF .             Drill Floor:  LOG MEASURED FROM
 TVDS.m                  43.60:  TVDSS CORRECTN
 LATI.deg                40.02:  LATITUDE
 LONG.deg                51.45:  LONGITUDE
 WHNS.m                  -7.04:  WELL HEAD N/S
 WHEW.m                  -0.67:  WELL HEAD E/W
 UTMX.m              538762.90:  UTM X
 UTMY.m             4431871.34:  UTM Y
 DFWL.m                   0.00:  DISTANCE FWL
 DFSL.m                   0.00:  DISTANCE FSL
 SDEP.m                4127.00:  START DEPTH
 TDD .m                5084.50:  TOTAL DEPTH (DRILLER)
 VSDR.deg               140.47:  VERT SEC DIRECT
 GVFD.g                   1.00:  GRAVITY FIELD
 MFLD.nT              50362.00:  MAGNETIC FIELD
 MDIP.deg                59.48:  MAGNETIC DIP
 MDEC.deg                 6.47:  MAGNETIC DECL
 GRDC.deg                 0.31:  GRID CORRECTION
 AZTC.deg                 6.16:  AZM TOTAL CORR
 EPD .m                   0.00:  ELEVATION
 EGL .m                   0.00:  GROUND ELEVATION
 WDMS.m                 151.80:  WD ELEV
 APD .m                  43.60:  DEPTH ABOVE PD
 DEP .m                4092.57:  DEPTH
 AGAP.m                  43.60:  AIR GAP
 VSEW.m                  -0.67:  VERT SEC E/W
 VSNS.m                  -7.04:  VERT SEC N/S
 EKB .m                  43.60:  KB ELEVATION
 EDF .m                  43.60:  DF ELEVATION
 TDL .m                 957.50:  TOTAL DEPTH (LOGGER)
 VSC .                       0:  VS TO CLOSURE
 MAGU.                 1851413:  MAGUTM CHECKSUM
~Parameter Information Block
#MNEM.UNIT       Value        Description
#---------     -----------    ---------------------------
 AV  .mps                 1.50:  Ann Velocity 
 AVMX.mps                 2.00:  Max Ann Veloc 
 AZIF.deg               184.66:  Azm, Final 
 BHAT.        Rotary Steerable:  BHA Type 
 BREV.rev               300.00:  Rev Bit Total 
 BROT.°/30m              -0.50:  Build Rotating 
 BS  .in                  8.50:  Bit Size 
 BSZ .in                  8.50:  Bit Size 
 BTPL.psig              370.00:  Bit Press Loss 
 CABU.                      No:  Customer Abuse 
 CGEO.      Behruz Shahbaliyev:  Customer Geo 
 COMM.                     Ìu:  Run Comments 1 
 TCS .hr                140.08:  Time Ciculation Ended 
 CV  .mps                 3.00:  Crit Velocity 
 CVMX.mps                 3.20:  Max Crit Veloc 
 DD1 .            Musa Ahmadov:  Direct Drillr 1 
 DD2 .           Hamid Ahmadov:  Direct Drillr 2 
 DDSV.               Geo-Pilot:  DD Service 
 DEFF.%                  98.40:  % Det Eff 
 DLRX.°/30m               3.40:  Dogleg Rot Max 
 DLSO.°/30m               1.45:  Dogleg Oriented 
 DLSX.°/30m               3.40:  Dogleg Str Max 
 DRET.      18.40.00 29-Aug-21:  Drill End Time 
 DRST.      21.00.00 20-Aug-21:  Drill Start Tim 
 DTIM.hr                 69.47:  Time Drilling 
 EDEP.m                5084.50:  End Depth 
 ENG1.      Artemiy Matviyanov:  Engineer 1 
 ENG2.         Almaz Almadatov:  Engineer 2 
 ETIM.      18.40.00 29-Aug-21:  End Time 
 FLOI.gpm               500.00:  Flow In 
 FLON.gpm               400.00:  Flow In Min 
 FLOS.cptm                0.00:  Fluid Loss 
 FLOX.gpm               500.00:  Flow In Max 
 DFT .        Mineral Oil Base:  Mud Type 
 HFLO.                      No:  High Flow 
 HPRE.                      No:  High Pressure 
 HTEM.                      No:  High Temp 
 HYDO.m                   1.80:  Hydro Offset 
 IFIN.deg                25.62:  Inc, Final 
 IMAX.deg                48.69:  Inc Max 
 IMIN.deg                24.01:  Inc Min 
 IMND.m                4962.57:  Inc Min Depth 
 IMXD.m                4119.01:  Inc Max Depth 
 JARR.                      No:  Jarring 
 LETM.      18.40.00 29-Aug-21:  Log End Time 
 LOST.hr                     0:  Lost Rig Time 
 LSTM.      21.00.00 20-Aug-21:  Log Start Time 
 MDCL.ppm             41500.00:  Mud Chlorides 
 MDES.     Inversion Oil/Synthetic:  Mud Desc 
 DFD .sg                  1.56:  Mud Density 
 MDMN.sg                  1.56:  Dens Mud Min 
 MDMX.sg                  1.56:  Dens Mud Max 
 MOIL.                      70:  Run Mud Oil % 
 MOWR.                   70:30:  Run Mud OWR 
 MSND.                     0.2:  Run Mud Sand % 
 MSOL.                    23.3:  Run Mud Solids% 
 DFV .spqt               78.00:  Mud Viscosity 
 MWOD.in                  6.75:  MWD Tool OD 
 MWSI.                      No:  Serv Intrp, MWD 
 OTIM.hr                218.30:  Time Operating 
 PCON.           Look Like New:  Pad Condition 
 PMAX.psia            11015.30:  Press Op, Max 
 PV  .cP                 38.00:  Mud PV 
 RUN .                     300:  Run Number 
 ROPA.m/hr               15.00:  ROP Avg 
 ROPN.m/hr                9.00:  ROP Min 
 ROPX.m/hr               17.00:  ROP Max 
 RPMA.rpm               120.00:  RPM Surface Avg 
 RPMN.rpm                90.00:  RPM Surface Min 
 RPMX.rpm               140.00:  RPM Surface Max 
 RRUN.                     300:  Rig Run Number 
 RTIM.hr                 31.53:  Time Reaming 
 SAZI.deg               331.64:  Azm, Start 
 SDEP.m                4127.00:  Start Depth 
 SIDD.                      No:  Serv Intrp, DD 
 SINC.deg                48.43:  Inc, Start 
 SPPA.psig             5830.00:  SPP Avg 
 SPPN.psig             5600.00:  SPP Min 
 SPPX.psig             5900.00:  SPP Max 
 STIM.      21.00.00 20-Aug-21:  Start Time 
 SVCS.                 DD, MWD:  Services 
 SVER.                    9.20:  Sperry Version 
 TDAT.m                 957.50:  Tot Depth Attmp 
 TDDF.                      No:  Trip for DD 
 TDLG.m                 957.50:  Tot Depth Loggd 
 TFF .                      No:  Trip for Fail 
 TQAA.f-kp               15.00:  Torque Abs Avg 
 TQAN.f-kp               12.00:  Torque Abs Min 
 TQAX.f-kp               19.00:  Torque Abs Max 
 TRRT.°/30m              -3.40:  Turn Rotating 
 MRT .                  EWR-M5:  Maximum Recorded Temperature 
 TTMX.degC              100.00:  Max Tool Temp 
 VS01.                90639251:  Virtual Str1 SN 
 VS02.                90634715:  Virtual Str2 SN 
 VS03.                90652479:  Virtual Str3 SN 
 VS04.                90642262:  Virtual Str4 SN 
 WBMN.klb                 0.00:  WOB Min 
 WITN.           Murad Guliyev:  Customer Rep 
 WITN.          Yashar Gaziyev:  Customer Rep 2 
 WOBA.klb                 9.00:  WOB Avg 
 WOBX.klb                12.00:  WOB Max 
 YP  .lhf2               30.00:  Yield Point 
~Curve Information Block
#MNEM.UNIT                 API CODE     Curve Description
#---------               -----------    ---------------------------
 TIME.HHMMSS            00 000 000 000:  GT Time & Date
 GTDEPTH.m              00 000 000 000:  GT Depth
 GTPQH.psia             00 000 000 000:  GT HR Quartz Pressure
 GTTQ.degC              00 000 000 000:  GT Quartz Temperature
 GTTN.NONE              00 000 000 000:  GT Test Number
 GTET.sec               00 000 000 000:  GT Elapsed Test Time
 GTTVD.m                00 000 000 000:  GT True Vertical Depth
#Other Information
#
#WARRANTY: Halliburton will use its best efforts to furnish customers with 
#accurate information and interpretations that are part of, and incident to, the services 
#provided.  However, Halliburton cannot and does not warrant the accuracy 
#or correctness of such information and interpretations.  Under no circumstances should any 
#such information or interpretation be relied upon as the sole basis for any drilling, 
#completion, production, or financial decision or any procedure involving any risk to the 
#safety of any drilling venture, drilling rig or its crew or any other third party.  The 
#Customer has full responsibility for all drilling, completion and production operation.  
#Halliburton makes no representations or warranties, either expressed or 
#implied, including, but not limited to, the implied warranties of merchantability or fitness 
#for a particular purpose, with respect to the services rendered.  In no event will 
#Halliburton be liable for failure to obtain any particular results or for 
#any damages, including, but not limited to, indirect, special or consequential damages, 
#resulting from the use of any information or interpretation provided by Halliburton.
#
~A           TIME           GTDEPTH  GTPQH  GTTQ  GTTN   GTET   GTTVD  
# ...
   15:58:35.583.27-Aug-2021 4817.00 7625.91 83.57 16.00 384.81 3173.43
   15:58:35.783.27-Aug-2021 4817.00 7626.02 83.57 16.00 385.01 3173.43
   15:58:35.983.27-Aug-2021 4817.00 7630.17 83.57 16.00 385.21 3173.43
   15:58:36.184.27-Aug-2021 4817.00 7625.04 83.57 16.00 385.41 3173.43
   15:58:36.384.27-Aug-2021 4817.00 7626.20 83.57 16.00 385.61 3173.43
   15:58:36.584.27-Aug-2021 4817.00 7626.20 83.57 16.00 385.81 3173.43
   15:58:36.785.27-Aug-2021 4817.00 7626.03 83.57 16.00 386.01 3173.43
   15:58:36.985.27-Aug-2021 4817.00 7625.60 83.58 16.00 386.21 3173.43
   15:58:37.185.27-Aug-2021 4817.00 7625.88 83.58 16.00 386.41 3173.43
   15:58:37.386.27-Aug-2021 4817.00 7625.57 83.58 16.00 386.61 3173.43
   15:58:37.586.27-Aug-2021 4817.00 7625.57 83.58 16.00 386.81 3173.43
   15:58:37.786.27-Aug-2021 4817.00 7626.25 83.58 16.00 387.02 3173.43
   15:58:37.986.27-Aug-2021 4817.00 7626.17 83.58 16.00 387.22 3173.43
   15:58:38.187.27-Aug-2021 4817.00 7626.48 83.58 16.00 387.42 3173.43
   15:58:38.387.27-Aug-2021 4817.00 7626.44 83.58 16.00 387.62 3173.43
   15:58:38.587.27-Aug-2021 4817.00 7626.44 83.58 16.00 387.82 3173.43
   15:58:38.788.27-Aug-2021 4817.00 7626.29 83.58 16.00 388.02 3173.43
   15:58:38.988.27-Aug-2021 4817.00 7626.10 83.58 16.00 388.22 3173.43
   15:58:39.188.27-Aug-2021 4817.00 7626.03 83.58 16.00 388.42 3173.43
   15:58:39.389.27-Aug-2021 4817.00 7630.40 83.59 16.00 388.62 3173.43
   15:58:39.589.27-Aug-2021 4817.00 7630.40 83.59 16.00 388.82 3173.43
   15:58:39.789.27-Aug-2021 4817.00 7626.56 83.59 16.00 389.02 3173.43
   15:58:39.990.27-Aug-2021 4817.00 7627.58 83.59 16.00 389.22 3173.43
   15:58:40.190.27-Aug-2021 4817.00 7626.43 83.59 16.00 389.42 3173.43
   15:58:40.390.27-Aug-2021 4817.00 7630.56 83.59 16.00 389.62 3173.43
   15:58:40.591.27-Aug-2021 4817.00 7630.56 83.59 16.00 389.82 3173.43
   15:58:40.791.27-Aug-2021 4817.00 7625.80 83.59 16.00 390.02 3173.43
   15:58:40.991.27-Aug-2021 4817.00 7627.55 83.59 16.00 390.22 3173.43
   15:58:41.192.27-Aug-2021 4817.00 7626.46 83.59 16.00 390.42 3173.43
   15:58:41.392.27-Aug-2021 4817.00 7625.90 83.59 16.00 390.62 3173.43
   15:58:41.592.27-Aug-2021 4817.00 7625.90 83.59 16.00 390.82 3173.43
   15:58:41.793.27-Aug-2021 4817.00 7628.38 83.59 16.00 391.02 3173.43
   15:58:41.993.27-Aug-2021 4817.00 7626.31 83.59 16.00 391.22 3173.43
   15:58:42.193.27-Aug-2021 4817.00 7627.57 83.59 16.00 391.42 3173.43
   15:58:42.394.27-Aug-2021 4817.00 7626.49 83.59 16.00 391.62 3173.43
   15:58:42.594.27-Aug-2021 4817.00 7626.49 83.59 16.00 391.82 3173.43
   15:58:42.794.27-Aug-2021 4817.00 7624.11 83.59 16.00 392.02 3173.43
   15:58:42.994.27-Aug-2021 4817.00 7625.63 83.59 16.00 392.22 3173.43
   15:58:43.195.27-Aug-2021 4817.00 7627.13 83.59 16.00 392.42 3173.43
   15:58:43.395.27-Aug-2021 4817.00 7626.11 83.59 16.00 392.62 3173.43
   15:58:43.595.27-Aug-2021 4817.00 7626.11 83.59 16.00 392.82 3173.43
   15:58:43.796.27-Aug-2021 4817.00 7625.75 83.59 16.00 393.02 3173.43
   15:58:43.996.27-Aug-2021 4817.00 7625.94 83.59 16.00 393.22 3173.43
   15:58:44.196.27-Aug-2021 4817.00 7626.17 83.59 16.00 393.43 3173.43
   15:58:44.397.27-Aug-2021 4817.00 7626.31 83.59 16.00 393.63 3173.43
   15:58:44.597.27-Aug-2021 4817.00 7626.31 83.59 16.00 393.83 3173.43
   15:58:44.797.27-Aug-2021 4817.00 7626.66 83.59 16.00 394.03 3173.43
   15:58:44.998.27-Aug-2021 4817.00 7626.30 83.59 16.00 394.23 3173.43
   15:58:45.198.27-Aug-2021 4817.00 7626.21 83.59 16.00 394.43 3173.43
   15:58:45.398.27-Aug-2021 4817.00 7626.11 83.59 16.00 394.63 3173.43
   15:58:45.599.27-Aug-2021 4817.00 7626.11 83.59 16.00 394.83 3173.43
   15:58:45.799.27-Aug-2021 4817.00 7631.36 83.59 16.00 395.03 3173.43
   15:58:45.999.27-Aug-2021 4817.00 7623.65 83.59 16.00 395.23 3173.43
   15:58:46.200.27-Aug-2021 4817.00 7625.98 83.59 16.00 395.43 3173.43
   15:58:46.400.27-Aug-2021 4817.00 7626.94 83.59 16.00 395.63 3173.43
   15:58:46.600.27-Aug-2021 4817.00 7626.94 83.59 16.00 395.83 3173.43
   15:58:46.801.27-Aug-2021 4817.00 7625.63 83.59 16.00 396.03 3173.43
   15:58:47.001.27-Aug-2021 4817.00 7625.30 83.59 16.00 396.23 3173.43
   15:58:47.201.27-Aug-2021 4817.00 7625.55 83.59 16.00 396.43 3173.43
   15:58:47.401.27-Aug-2021 4817.00 7625.89 83.59 16.00 396.63 3173.43
   15:58:47.602.27-Aug-2021 4817.00 7625.89 83.59 16.00 396.83 3173.43
   15:58:47.802.27-Aug-2021 4817.00 7626.07 83.59 16.00 397.03 3173.43
   15:58:48.002.27-Aug-2021 4817.00 7626.43 83.59 16.00 397.23 3173.43
   15:58:48.203.27-Aug-2021 4817.00 7626.33 83.59 16.00 397.43 3173.43
   15:58:48.403.27-Aug-2021 4817.00 7626.28 83.59 16.00 397.63 3173.43
   15:58:48.603.27-Aug-2021 4817.00 7626.28 83.59 16.00 397.83 3173.43
   15:58:48.804.27-Aug-2021 4817.00 7625.95 83.59 16.00 398.03 3173.43
   15:58:49.004.27-Aug-2021 4817.00 7625.79 83.59 16.00 398.23 3173.43
   15:58:49.204.27-Aug-2021 4817.00 7630.02 83.59 16.00 398.43 3173.43
   15:58:49.405.27-Aug-2021 4817.00 7624.87 83.59 16.00 398.63 3173.43
   15:58:49.605.27-Aug-2021 4817.00 7624.87 83.59 16.00 398.83 3173.43
   15:58:49.805.27-Aug-2021 4817.00 7627.04 83.59 16.00 399.03 3173.43
   15:58:50.006.27-Aug-2021 4817.00 7625.73 83.59 16.00 399.23 3173.43
   15:58:50.206.27-Aug-2021 4817.00 7625.31 83.59 16.00 399.43 3173.43
   15:58:50.406.27-Aug-2021 4817.00 7626.23 83.59 16.00 399.64 3173.43
   15:58:50.607.27-Aug-2021 4817.00 7626.23 83.59 16.00 399.84 3173.43
   15:58:50.807.27-Aug-2021 4817.00 7625.65 83.59 16.00 400.04 3173.43
   15:58:51.007.27-Aug-2021 4817.00 7627.08 83.59 16.00 400.24 3173.43
   15:58:51.208.27-Aug-2021 4817.00 7626.05 83.59 16.00 400.44 3173.43
   15:58:51.408.27-Aug-2021 4817.00 7625.81 83.59 16.00 400.64 3173.43
   15:58:51.608.27-Aug-2021 4817.00 7625.81 83.59 16.00 400.84 3173.43
   15:58:51.808.27-Aug-2021 4817.00 7627.64 83.59 16.00 401.04 3173.43
   15:58:52.009.27-Aug-2021 4817.00 7625.74 83.59 16.00 401.24 3173.43
   15:58:52.209.27-Aug-2021 4817.00 7627.04 83.59 16.00 401.44 3173.43
   15:58:52.409.27-Aug-2021 4817.00 7625.74 83.59 16.00 401.64 3173.43
   15:58:52.610.27-Aug-2021 4817.00 7625.74 83.59 16.00 401.84 3173.43
   15:58:52.810.27-Aug-2021 4817.00 7625.75 83.58 16.00 402.04 3173.43
   15:58:53.010.27-Aug-2021 4817.00 7628.47 83.58 16.00 402.24 3173.43
   15:58:53.211.27-Aug-2021 4817.00 7624.99 83.58 16.00 402.44 3173.43
   15:58:53.411.27-Aug-2021 4817.00 7626.46 83.58 16.00 402.64 3173.43
   15:58:53.611.27-Aug-2021 4817.00 7626.46 83.58 16.00 402.84 3173.43
   15:58:53.812.27-Aug-2021 4817.00 7625.57 83.58 16.00 403.04 3173.43
   15:58:54.012.27-Aug-2021 4817.00 7625.69 83.58 16.00 403.24 3173.43
   15:58:54.212.27-Aug-2021 4817.00 7624.89 83.58 16.00 403.44 3173.43
   15:58:54.413.27-Aug-2021 4817.00 7625.51 83.58 16.00 403.64 3173.43
   15:58:54.613.27-Aug-2021 4817.00 7625.51 83.58 16.00 403.84 3173.43
   15:58:54.813.27-Aug-2021 4817.00 7625.52 83.58 16.00 404.04 3173.43
   15:58:55.014.27-Aug-2021 4817.00 7625.51 83.58 16.00 404.24 3173.43
   15:58:55.214.27-Aug-2021 4817.00 7625.76 83.58 16.00 404.44 3173.43
   15:58:55.414.27-Aug-2021 4817.00 7625.56 83.58 16.00 404.64 3173.43
   15:58:55.615.27-Aug-2021 4817.00 7625.56 83.58 16.00 404.84 3173.43
   15:58:55.815.27-Aug-2021 4817.00 7625.59 83.58 16.00 405.04 3173.43
   15:58:56.015.27-Aug-2021 4817.00 7625.41 83.58 16.00 405.24 3173.43
   15:58:56.215.27-Aug-2021 4817.00 7628.95 83.58 16.00 405.44 3173.43
   15:58:56.416.27-Aug-2021 4817.00 7624.84 83.58 16.00 405.64 3173.43
   15:58:56.616.27-Aug-2021 4817.00 7624.84 83.58 16.00 405.85 3173.43
   15:58:56.816.27-Aug-2021 4817.00 7626.06 83.58 16.00 406.05 3173.43
   15:58:57.017.27-Aug-2021 4817.00 7625.03 83.58 16.00 406.25 3173.43
   15:58:57.217.27-Aug-2021 4817.00 7625.30 83.58 16.00 406.45 3173.43
   15:58:57.417.27-Aug-2021 4817.00 7624.72 83.58 16.00 406.65 3173.43
   15:58:57.618.27-Aug-2021 4817.00 7624.72 83.58 16.00 406.85 3173.43
   15:58:57.818.27-Aug-2021 4817.00 7625.71 83.58 16.00 407.05 3173.43
   15:58:58.018.27-Aug-2021 4817.00 7625.65 83.58 16.00 407.25 3173.43
