~Version Information
 VERS.                  2.0:   CWLS log ASCII Standard -VERSION 2.0
 WRAP.                   NO:   One line per depth step
~Well Information Block
#MNEM.UNIT     VALUE/NAME     DESCRIPTION
#---------     -----------    ---------------------------
 STRT.S             19:41:39 27-Aug-21: START TIME 19:41:39 27-Aug-21
 STOP.S             19:48:52 27-Aug-21: STOP TIME  19:48:52 27-Aug-21
 STEP.S                   0.00: STEP TIME
 NULL.                 -999.25: NULL VALUE
 DFWT.                        :  DIST FWL TEXT
 DFST.                        :  DIST FSL TEXT
 DMF .             Drill Floor:  DRILL MEAS FROM
 STIM.      20.00.00 17-Aug-21:  START TIME
 DATE.      19.00.00 29-Aug-21:  END TIME
 SPUD.               15-Aug-21:  SPUD DATE
 NREF.                    Grid:  NORTH REFERENCE
 HPTY.       Minimum Curvature:  HOLE POS TYPE
 DMOD.             Drill Model:  DRILL MOD DESC
 SVYD.                  Survey:  SURVEY DESC
 ILTD.               Lithology:  INTERP LTH DESC
 FTOP.          Formation Tops:  FORM TOPS DESC
 RIG .              East Azeri:  RIG NAME
 PDAT.          Mean Sea Level:  PERMANENT DATUM
 FLD .                     ACG:  FIELD NAME
 SON .        AZ-XX-0907180857:  JOB NUMBER
 CTRY.              Azerbaijan:  COUNTRY NAME
 WELL.                    D23x:  WELL NAME
 SRVC.     Turan Drilling and Engineering:  CONTRACTOR
 COMP.     BP Exploration (Caspian Sea) Ltd.:  COMPANY
 UWI .            /AZE00000214:  UNIQUE WELL IDENTIFIER
 API .            /AZE00000214:  API NUMBER
 MDS .        Operator Entered:  MAG DATA SOURCE
 BASE.              Azerbaijan:  LOGGING EQUIPMENT BASE LOCATION
 REGN.                   EESSA:  REGION
 PROV.                    Baku:  PROVINCE
 STAT.                    Baku:  STATE NAME
 MWDS.                    Baku:  MWD SHOP
 DOE .                     N/A:  DOE NUMBER
 DCON.         Sperry Drilling:  DIRECTNL CONTR
 UNIT.                     N/A:  LOGGING EQUIPMENT ID
 WTYP.                Deviated:  WELL TYPE
 CNTY.                        :  COUNTY
 LOC .                        :  LOCATION
 LMF .             Drill Floor:  LOG MEASURED FROM
 TVDS.m                  43.60:  TVDSS CORRECTN
 LATI.deg                40.02:  LATITUDE
 LONG.deg                51.45:  LONGITUDE
 WHNS.m                  -7.04:  WELL HEAD N/S
 WHEW.m                  -0.67:  WELL HEAD E/W
 UTMX.m              538762.90:  UTM X
 UTMY.m             4431871.34:  UTM Y
 DFWL.m                   0.00:  DISTANCE FWL
 DFSL.m                   0.00:  DISTANCE FSL
 SDEP.m                4127.00:  START DEPTH
 TDD .m                5084.50:  TOTAL DEPTH (DRILLER)
 VSDR.deg               140.47:  VERT SEC DIRECT
 GVFD.g                   1.00:  GRAVITY FIELD
 MFLD.nT              50362.00:  MAGNETIC FIELD
 MDIP.deg                59.48:  MAGNETIC DIP
 MDEC.deg                 6.47:  MAGNETIC DECL
 GRDC.deg                 0.31:  GRID CORRECTION
 AZTC.deg                 6.16:  AZM TOTAL CORR
 EPD .m                   0.00:  ELEVATION
 EGL .m                   0.00:  GROUND ELEVATION
 WDMS.m                 151.80:  WD ELEV
 APD .m                  43.60:  DEPTH ABOVE PD
 DEP .m                4092.57:  DEPTH
 AGAP.m                  43.60:  AIR GAP
 VSEW.m                  -0.67:  VERT SEC E/W
 VSNS.m                  -7.04:  VERT SEC N/S
 EKB .m                  43.60:  KB ELEVATION
 EDF .m                  43.60:  DF ELEVATION
 TDL .m                 957.50:  TOTAL DEPTH (LOGGER)
 VSC .                       0:  VS TO CLOSURE
 MAGU.                 1851413:  MAGUTM CHECKSUM
~Parameter Information Block
#MNEM.UNIT       Value        Description
#---------     -----------    ---------------------------
 AV  .mps                 1.50:  Ann Velocity 
 AVMX.mps                 2.00:  Max Ann Veloc 
 AZIF.deg               184.66:  Azm, Final 
 BHAT.        Rotary Steerable:  BHA Type 
 BREV.rev               300.00:  Rev Bit Total 
 BROT.°/30m              -0.50:  Build Rotating 
 BS  .in                  8.50:  Bit Size 
 BSZ .in                  8.50:  Bit Size 
 BTPL.psig              370.00:  Bit Press Loss 
 CABU.                      No:  Customer Abuse 
 CGEO.      Behruz Shahbaliyev:  Customer Geo 
 COMM.                     ,‰€:  Run Comments 1 
 TCS .hr                140.08:  Time Ciculation Ended 
 CV  .mps                 3.00:  Crit Velocity 
 CVMX.mps                 3.20:  Max Crit Veloc 
 DD1 .            Musa Ahmadov:  Direct Drillr 1 
 DD2 .           Hamid Ahmadov:  Direct Drillr 2 
 DDSV.               Geo-Pilot:  DD Service 
 DEFF.%                  98.40:  % Det Eff 
 DLRX.°/30m               3.40:  Dogleg Rot Max 
 DLSO.°/30m               1.45:  Dogleg Oriented 
 DLSX.°/30m               3.40:  Dogleg Str Max 
 DRET.      18.40.00 29-Aug-21:  Drill End Time 
 DRST.      21.00.00 20-Aug-21:  Drill Start Tim 
 DTIM.hr                 69.47:  Time Drilling 
 EDEP.m                5084.50:  End Depth 
 ENG1.      Artemiy Matviyanov:  Engineer 1 
 ENG2.         Almaz Almadatov:  Engineer 2 
 ETIM.      18.40.00 29-Aug-21:  End Time 
 FLOI.gpm               500.00:  Flow In 
 FLON.gpm               400.00:  Flow In Min 
 FLOS.cptm                0.00:  Fluid Loss 
 FLOX.gpm               500.00:  Flow In Max 
 DFT .        Mineral Oil Base:  Mud Type 
 HFLO.                      No:  High Flow 
 HPRE.                      No:  High Pressure 
 HTEM.                      No:  High Temp 
 HYDO.m                   1.80:  Hydro Offset 
 IFIN.deg                25.62:  Inc, Final 
 IMAX.deg                48.69:  Inc Max 
 IMIN.deg                24.01:  Inc Min 
 IMND.m                4962.57:  Inc Min Depth 
 IMXD.m                4119.01:  Inc Max Depth 
 JARR.                      No:  Jarring 
 LETM.      18.40.00 29-Aug-21:  Log End Time 
 LOST.hr                     0:  Lost Rig Time 
 LSTM.      21.00.00 20-Aug-21:  Log Start Time 
 MDCL.ppm             41500.00:  Mud Chlorides 
 MDES.     Inversion Oil/Synthetic:  Mud Desc 
 DFD .sg                  1.56:  Mud Density 
 MDMN.sg                  1.56:  Dens Mud Min 
 MDMX.sg                  1.56:  Dens Mud Max 
 MOIL.                      70:  Run Mud Oil % 
 MOWR.                   70:30:  Run Mud OWR 
 MSND.                     0.2:  Run Mud Sand % 
 MSOL.                    23.3:  Run Mud Solids% 
 DFV .spqt               78.00:  Mud Viscosity 
 MWOD.in                  6.75:  MWD Tool OD 
 MWSI.                      No:  Serv Intrp, MWD 
 OTIM.hr                218.30:  Time Operating 
 PCON.           Look Like New:  Pad Condition 
 PMAX.psia            11015.30:  Press Op, Max 
 PV  .cP                 38.00:  Mud PV 
 RUN .                     300:  Run Number 
 ROPA.m/hr               15.00:  ROP Avg 
 ROPN.m/hr                9.00:  ROP Min 
 ROPX.m/hr               17.00:  ROP Max 
 RPMA.rpm               120.00:  RPM Surface Avg 
 RPMN.rpm                90.00:  RPM Surface Min 
 RPMX.rpm               140.00:  RPM Surface Max 
 RRUN.                     300:  Rig Run Number 
 RTIM.hr                 31.53:  Time Reaming 
 SAZI.deg               331.64:  Azm, Start 
 SDEP.m                4127.00:  Start Depth 
 SIDD.                      No:  Serv Intrp, DD 
 SINC.deg                48.43:  Inc, Start 
 SPPA.psig             5830.00:  SPP Avg 
 SPPN.psig             5600.00:  SPP Min 
 SPPX.psig             5900.00:  SPP Max 
 STIM.      21.00.00 20-Aug-21:  Start Time 
 SVCS.                 DD, MWD:  Services 
 SVER.                    9.20:  Sperry Version 
 TDAT.m                 957.50:  Tot Depth Attmp 
 TDDF.                      No:  Trip for DD 
 TDLG.m                 957.50:  Tot Depth Loggd 
 TFF .                      No:  Trip for Fail 
 TQAA.f-kp               15.00:  Torque Abs Avg 
 TQAN.f-kp               12.00:  Torque Abs Min 
 TQAX.f-kp               19.00:  Torque Abs Max 
 TRRT.°/30m              -3.40:  Turn Rotating 
 MRT .                  EWR-M5:  Maximum Recorded Temperature 
 TTMX.degC              100.00:  Max Tool Temp 
 VS01.                90639251:  Virtual Str1 SN 
 VS02.                90634715:  Virtual Str2 SN 
 VS03.                90652479:  Virtual Str3 SN 
 VS04.                90642262:  Virtual Str4 SN 
 WBMN.klb                 0.00:  WOB Min 
 WITN.           Murad Guliyev:  Customer Rep 
 WITN.          Yashar Gaziyev:  Customer Rep 2 
 WOBA.klb                 9.00:  WOB Avg 
 WOBX.klb                12.00:  WOB Max 
 YP  .lhf2               30.00:  Yield Point 
~Curve Information Block
#MNEM.UNIT                 API CODE     Curve Description
#---------               -----------    ---------------------------
 TIME.HHMMSS            00 000 000 000:  GT Time & Date
 GTDEPTH.m              00 000 000 000:  GT Depth
 GTPQH.psia             00 000 000 000:  GT HR Quartz Pressure
 GTTQ.degC              00 000 000 000:  GT Quartz Temperature
 GTTN.NONE              00 000 000 000:  GT Test Number
 GTET.sec               00 000 000 000:  GT Elapsed Test Time
 GTTVD.m                00 000 000 000:  GT True Vertical Depth
#Other Information
#
#WARRANTY: Halliburton will use its best efforts to furnish customers with 
#accurate information and interpretations that are part of, and incident to, the services 
#provided.  However, Halliburton cannot and does not warrant the accuracy 
#or correctness of such information and interpretations.  Under no circumstances should any 
#such information or interpretation be relied upon as the sole basis for any drilling, 
#completion, production, or financial decision or any procedure involving any risk to the 
#safety of any drilling venture, drilling rig or its crew or any other third party.  The 
#Customer has full responsibility for all drilling, completion and production operation.  
#Halliburton makes no representations or warranties, either expressed or 
#implied, including, but not limited to, the implied warranties of merchantability or fitness 
#for a particular purpose, with respect to the services rendered.  In no event will 
#Halliburton be liable for failure to obtain any particular results or for 
#any damages, including, but not limited to, indirect, special or consequential damages, 
#resulting from the use of any information or interpretation provided by Halliburton.
#
~A           TIME           GTDEPTH  GTPQH  GTTQ  GTTN   GTET   GTTVD  
# ...
   19:48:03.200.27-Aug-2021 4678.50 7318.83 82.57 21.00 384.20 3048.11
   19:48:03.400.27-Aug-2021 4678.50 7318.96 82.58 21.00 384.40 3048.11
   19:48:03.600.27-Aug-2021 4678.50 7318.93 82.58 21.00 384.60 3048.11
   19:48:03.800.27-Aug-2021 4678.50 7318.86 82.58 21.00 384.80 3048.11
   19:48:04.000.27-Aug-2021 4678.50 7318.88 82.58 21.00 385.00 3048.11
   19:48:04.200.27-Aug-2021 4678.50 7318.88 82.58 21.00 385.20 3048.11
   19:48:04.400.27-Aug-2021 4678.50 7318.80 82.58 21.00 385.40 3048.11
   19:48:04.600.27-Aug-2021 4678.50 7318.74 82.59 21.00 385.60 3048.11
   19:48:04.800.27-Aug-2021 4678.50 7323.84 82.59 21.00 385.80 3048.11
   19:48:05.000.27-Aug-2021 4678.50 7317.95 82.59 21.00 386.00 3048.11
   19:48:05.200.27-Aug-2021 4678.50 7317.95 82.59 21.00 386.20 3048.11
   19:48:05.400.27-Aug-2021 4678.50 7319.06 82.59 21.00 386.40 3048.11
   19:48:05.600.27-Aug-2021 4678.50 7320.35 82.59 21.00 386.60 3048.11
   19:48:05.800.27-Aug-2021 4678.50 7322.52 82.59 21.00 386.80 3048.11
   19:48:06.000.27-Aug-2021 4678.50 7319.13 82.59 21.00 387.00 3048.11
   19:48:06.200.27-Aug-2021 4678.50 7319.13 82.59 21.00 387.20 3048.11
   19:48:06.400.27-Aug-2021 4678.50 7319.24 82.59 21.00 387.40 3048.11
   19:48:06.600.27-Aug-2021 4678.50 7320.05 82.59 21.00 387.60 3048.11
   19:48:06.800.27-Aug-2021 4678.50 7323.12 82.60 21.00 387.80 3048.11
   19:48:07.000.27-Aug-2021 4678.50 7319.20 82.60 21.00 388.00 3048.11
   19:48:07.200.27-Aug-2021 4678.50 7319.20 82.60 21.00 388.20 3048.11
   19:48:07.400.27-Aug-2021 4678.50 7319.26 82.60 21.00 388.40 3048.11
   19:48:07.600.27-Aug-2021 4678.50 7320.38 82.60 21.00 388.60 3048.11
   19:48:07.800.27-Aug-2021 4678.50 7319.96 82.60 21.00 388.80 3048.11
   19:48:08.000.27-Aug-2021 4678.50 7322.48 82.60 21.00 389.00 3048.11
   19:48:08.200.27-Aug-2021 4678.50 7322.48 82.60 21.00 389.20 3048.11
   19:48:08.400.27-Aug-2021 4678.50 7319.32 82.60 21.00 389.40 3048.11
   19:48:08.600.27-Aug-2021 4678.50 7319.50 82.60 21.00 389.60 3048.11
   19:48:08.800.27-Aug-2021 4678.50 7320.13 82.60 21.00 389.80 3048.11
   19:48:09.000.27-Aug-2021 4678.50 7319.86 82.60 21.00 390.00 3048.11
   19:48:09.200.27-Aug-2021 4678.50 7319.86 82.60 21.00 390.20 3048.11
   19:48:09.400.27-Aug-2021 4678.50 7319.83 82.60 21.00 390.40 3048.11
   19:48:09.600.27-Aug-2021 4678.50 7319.35 82.60 21.00 390.60 3048.11
   19:48:09.800.27-Aug-2021 4678.50 7319.63 82.60 21.00 390.80 3048.11
   19:48:10.000.27-Aug-2021 4678.50 7319.55 82.60 21.00 391.00 3048.11
   19:48:10.200.27-Aug-2021 4678.50 7319.55 82.60 21.00 391.20 3048.11
   19:48:10.400.27-Aug-2021 4678.50 7319.37 82.60 21.00 391.40 3048.11
   19:48:10.600.27-Aug-2021 4678.50 7319.36 82.60 21.00 391.60 3048.11
   19:48:10.800.27-Aug-2021 4678.50 7319.29 82.60 21.00 391.80 3048.11
   19:48:11.000.27-Aug-2021 4678.50 7319.17 82.60 21.00 392.00 3048.11
   19:48:11.200.27-Aug-2021 4678.50 7319.17 82.60 21.00 392.20 3048.11
   19:48:11.400.27-Aug-2021 4678.50 7319.47 82.60 21.00 392.40 3048.11
   19:48:11.600.27-Aug-2021 4678.50 7319.47 82.60 21.00 392.60 3048.11
   19:48:11.800.27-Aug-2021 4678.50 7319.46 82.60 21.00 392.80 3048.11
   19:48:12.000.27-Aug-2021 4678.50 7320.16 82.60 21.00 393.00 3048.11
   19:48:12.200.27-Aug-2021 4678.50 7320.16 82.60 21.00 393.20 3048.11
   19:48:12.400.27-Aug-2021 4678.50 7319.37 82.60 21.00 393.40 3048.11
   19:48:12.600.27-Aug-2021 4678.50 7319.94 82.60 21.00 393.60 3048.11
   19:48:12.800.27-Aug-2021 4678.50 7319.60 82.60 21.00 393.80 3048.11
   19:48:13.000.27-Aug-2021 4678.50 7319.80 82.60 21.00 394.00 3048.11
   19:48:13.200.27-Aug-2021 4678.50 7319.80 82.60 21.00 394.20 3048.11
   19:48:13.400.27-Aug-2021 4678.50 7319.79 82.60 21.00 394.40 3048.11
   19:48:13.600.27-Aug-2021 4678.50 7319.74 82.60 21.00 394.60 3048.11
   19:48:13.800.27-Aug-2021 4678.50 7319.74 82.60 21.00 394.80 3048.11
   19:48:14.000.27-Aug-2021 4678.50 7319.64 82.60 21.00 395.00 3048.11
   19:48:14.200.27-Aug-2021 4678.50 7319.64 82.60 21.00 395.20 3048.11
   19:48:14.400.27-Aug-2021 4678.50 7319.49 82.60 21.00 395.40 3048.11
   19:48:14.600.27-Aug-2021 4678.50 7323.00 82.60 21.00 395.60 3048.11
   19:48:14.800.27-Aug-2021 4678.50 7319.62 82.60 21.00 395.80 3048.11
   19:48:15.000.27-Aug-2021 4678.50 7319.65 82.60 21.00 396.00 3048.11
   19:48:15.200.27-Aug-2021 4678.50 7319.65 82.60 21.00 396.20 3048.11
   19:48:15.400.27-Aug-2021 4678.50 7320.23 82.60 21.00 396.40 3048.11
   19:48:15.600.27-Aug-2021 4678.50 7326.34 82.60 21.00 396.60 3048.11
   19:48:15.800.27-Aug-2021 4678.50 7315.76 82.60 21.00 396.80 3048.11
   19:48:16.000.27-Aug-2021 4678.50 7320.06 82.60 21.00 397.00 3048.11
   19:48:16.200.27-Aug-2021 4678.50 7320.06 82.60 21.00 397.20 3048.11
   19:48:16.400.27-Aug-2021 4678.50 7320.77 82.60 21.00 397.40 3048.11
   19:48:16.600.27-Aug-2021 4678.50 7322.34 82.60 21.00 397.60 3048.11
   19:48:16.800.27-Aug-2021 4678.50 7319.58 82.60 21.00 397.80 3048.11
   19:48:17.000.27-Aug-2021 4678.50 7319.88 82.60 21.00 398.00 3048.11
   19:48:17.200.27-Aug-2021 4678.50 7319.88 82.60 21.00 398.20 3048.11
   19:48:17.400.27-Aug-2021 4678.50 7319.96 82.60 21.00 398.40 3048.11
   19:48:17.600.27-Aug-2021 4678.50 7324.13 82.60 21.00 398.60 3048.11
   19:48:17.800.27-Aug-2021 4678.50 7318.65 82.60 21.00 398.80 3048.11
   19:48:18.000.27-Aug-2021 4678.50 7319.85 82.60 21.00 399.00 3048.11
   19:48:18.200.27-Aug-2021 4678.50 7319.85 82.60 21.00 399.20 3048.11
   19:48:18.400.27-Aug-2021 4678.50 7320.28 82.60 21.00 399.40 3048.11
   19:48:18.600.27-Aug-2021 4678.50 7319.45 82.60 21.00 399.60 3048.11
   19:48:18.800.27-Aug-2021 4678.50 7319.34 82.60 21.00 399.80 3048.11
   19:48:19.000.27-Aug-2021 4678.50 7319.82 82.60 21.00 400.00 3048.11
   19:48:19.200.27-Aug-2021 4678.50 7319.82 82.60 21.00 400.20 3048.11
   19:48:19.400.27-Aug-2021 4678.50 7319.53 82.60 21.00 400.40 3048.11
   19:48:19.600.27-Aug-2021 4678.50 7319.54 82.60 21.00 400.60 3048.11
   19:48:19.800.27-Aug-2021 4678.50 7319.58 82.60 21.00 400.80 3048.11
   19:48:20.000.27-Aug-2021 4678.50 7319.44 82.60 21.00 401.00 3048.11
   19:48:20.200.27-Aug-2021 4678.50 7319.44 82.60 21.00 401.20 3048.11
   19:48:20.400.27-Aug-2021 4678.50 7319.42 82.60 21.00 401.40 3048.11
   19:48:20.600.27-Aug-2021 4678.50 7319.34 82.60 21.00 401.60 3048.11
   19:48:20.800.27-Aug-2021 4678.50 7324.06 82.60 21.00 401.80 3048.11
   19:48:21.000.27-Aug-2021 4678.50 7318.00 82.60 21.00 402.00 3048.11
   19:48:21.200.27-Aug-2021 4678.50 7318.00 82.60 21.00 402.20 3048.11
   19:48:21.400.27-Aug-2021 4678.50 7319.21 82.60 21.00 402.40 3048.11
   19:48:21.600.27-Aug-2021 4678.50 7320.46 82.60 21.00 402.60 3048.11
   19:48:21.800.27-Aug-2021 4678.50 7319.23 82.60 21.00 402.80 3048.11
   19:48:22.000.27-Aug-2021 4678.50 7319.37 82.60 21.00 403.00 3048.11
   19:48:22.200.27-Aug-2021 4678.50 7319.37 82.60 21.00 403.20 3048.11
   19:48:22.400.27-Aug-2021 4678.50 7319.70 82.60 21.00 403.40 3048.11
   19:48:22.600.27-Aug-2021 4678.50 7319.83 82.60 21.00 403.60 3048.11
   19:48:22.800.27-Aug-2021 4678.50 7319.92 82.60 21.00 403.80 3048.11
   19:48:23.000.27-Aug-2021 4678.50 7319.89 82.60 21.00 404.00 3048.11
   19:48:23.200.27-Aug-2021 4678.50 7319.89 82.60 21.00 404.20 3048.11
   19:48:23.400.27-Aug-2021 4678.50 7319.68 82.60 21.00 404.40 3048.11
   19:48:23.600.27-Aug-2021 4678.50 7319.54 82.60 21.00 404.60 3048.11
   19:48:23.800.27-Aug-2021 4678.50 7319.54 82.60 21.00 404.80 3048.11
   19:48:24.000.27-Aug-2021 4678.50 7319.50 82.60 21.00 405.00 3048.11
   19:48:24.200.27-Aug-2021 4678.50 7319.50 82.60 21.00 405.20 3048.11
   19:48:24.400.27-Aug-2021 4678.50 7318.01 82.60 21.00 405.40 3048.11
   19:48:24.600.27-Aug-2021 4678.50 7319.77 82.60 21.00 405.60 3048.11
   19:48:24.800.27-Aug-2021 4678.50 7319.28 82.60 21.00 405.80 3048.11
   19:48:25.000.27-Aug-2021 4678.50 7320.57 82.60 21.00 406.00 3048.11
   19:48:25.200.27-Aug-2021 4678.50 7320.57 82.60 21.00 406.20 3048.11
   19:48:25.400.27-Aug-2021 4678.50 7322.56 82.60 21.00 406.40 3048.11
   19:48:25.600.27-Aug-2021 4678.50 7319.81 82.60 21.00 406.60 3048.11
