~Version Information
 VERS.                  2.0:   CWLS log ASCII Standard -VERSION 2.0
 WRAP.                   NO:   One line per depth step
~Well Information Block
#MNEM.UNIT     VALUE/NAME     DESCRIPTION
#---------     -----------    ---------------------------
 STRT.S             14:18:21 27-Aug-21: START TIME 14:18:21 27-Aug-21
 STOP.S             14:25:11 27-Aug-21: STOP TIME  14:25:11 27-Aug-21
 STEP.S                   0.00: STEP TIME
 NULL.                 -999.25: NULL VALUE
 DFWT.                        :  DIST FWL TEXT
 DFST.                        :  DIST FSL TEXT
 DMF .             Drill Floor:  DRILL MEAS FROM
 STIM.      20.00.00 17-Aug-21:  START TIME
 DATE.      19.00.00 29-Aug-21:  END TIME
 SPUD.               15-Aug-21:  SPUD DATE
 NREF.                    Grid:  NORTH REFERENCE
 HPTY.       Minimum Curvature:  HOLE POS TYPE
 DMOD.             Drill Model:  DRILL MOD DESC
 SVYD.                  Survey:  SURVEY DESC
 ILTD.               Lithology:  INTERP LTH DESC
 FTOP.          Formation Tops:  FORM TOPS DESC
 RIG .              East Azeri:  RIG NAME
 PDAT.          Mean Sea Level:  PERMANENT DATUM
 FLD .                     ACG:  FIELD NAME
 SON .        AZ-XX-0907180857:  JOB NUMBER
 CTRY.              Azerbaijan:  COUNTRY NAME
 WELL.                    D23x:  WELL NAME
 SRVC.     Turan Drilling and Engineering:  CONTRACTOR
 COMP.     BP Exploration (Caspian Sea) Ltd.:  COMPANY
 UWI .            /AZE00000214:  UNIQUE WELL IDENTIFIER
 API .            /AZE00000214:  API NUMBER
 MDS .        Operator Entered:  MAG DATA SOURCE
 BASE.              Azerbaijan:  LOGGING EQUIPMENT BASE LOCATION
 REGN.                   EESSA:  REGION
 PROV.                    Baku:  PROVINCE
 STAT.                    Baku:  STATE NAME
 MWDS.                    Baku:  MWD SHOP
 DOE .                     N/A:  DOE NUMBER
 DCON.         Sperry Drilling:  DIRECTNL CONTR
 UNIT.                     N/A:  LOGGING EQUIPMENT ID
 WTYP.                Deviated:  WELL TYPE
 CNTY.                        :  COUNTY
 LOC .                        :  LOCATION
 LMF .             Drill Floor:  LOG MEASURED FROM
 TVDS.m                  43.60:  TVDSS CORRECTN
 LATI.deg                40.02:  LATITUDE
 LONG.deg                51.45:  LONGITUDE
 WHNS.m                  -7.04:  WELL HEAD N/S
 WHEW.m                  -0.67:  WELL HEAD E/W
 UTMX.m              538762.90:  UTM X
 UTMY.m             4431871.34:  UTM Y
 DFWL.m                   0.00:  DISTANCE FWL
 DFSL.m                   0.00:  DISTANCE FSL
 SDEP.m                4127.00:  START DEPTH
 TDD .m                5084.50:  TOTAL DEPTH (DRILLER)
 VSDR.deg               140.47:  VERT SEC DIRECT
 GVFD.g                   1.00:  GRAVITY FIELD
 MFLD.nT              50362.00:  MAGNETIC FIELD
 MDIP.deg                59.48:  MAGNETIC DIP
 MDEC.deg                 6.47:  MAGNETIC DECL
 GRDC.deg                 0.31:  GRID CORRECTION
 AZTC.deg                 6.16:  AZM TOTAL CORR
 EPD .m                   0.00:  ELEVATION
 EGL .m                   0.00:  GROUND ELEVATION
 WDMS.m                 151.80:  WD ELEV
 APD .m                  43.60:  DEPTH ABOVE PD
 DEP .m                4092.57:  DEPTH
 AGAP.m                  43.60:  AIR GAP
 VSEW.m                  -0.67:  VERT SEC E/W
 VSNS.m                  -7.04:  VERT SEC N/S
 EKB .m                  43.60:  KB ELEVATION
 EDF .m                  43.60:  DF ELEVATION
 TDL .m                 957.50:  TOTAL DEPTH (LOGGER)
 VSC .                       0:  VS TO CLOSURE
 MAGU.                 1851413:  MAGUTM CHECKSUM
~Parameter Information Block
#MNEM.UNIT       Value        Description
#---------     -----------    ---------------------------
 AV  .mps                 1.50:  Ann Velocity 
 AVMX.mps                 2.00:  Max Ann Veloc 
 AZIF.deg               184.66:  Azm, Final 
 BHAT.        Rotary Steerable:  BHA Type 
 BREV.rev               300.00:  Rev Bit Total 
 BROT.°/30m              -0.50:  Build Rotating 
 BS  .in                  8.50:  Bit Size 
 BSZ .in                  8.50:  Bit Size 
 BTPL.psig              370.00:  Bit Press Loss 
 CABU.                      No:  Customer Abuse 
 CGEO.      Behruz Shahbaliyev:  Customer Geo 
 COMM.                     LAp:  Run Comments 1 
 TCS .hr                140.08:  Time Ciculation Ended 
 CV  .mps                 3.00:  Crit Velocity 
 CVMX.mps                 3.20:  Max Crit Veloc 
 DD1 .            Musa Ahmadov:  Direct Drillr 1 
 DD2 .           Hamid Ahmadov:  Direct Drillr 2 
 DDSV.               Geo-Pilot:  DD Service 
 DEFF.%                  98.40:  % Det Eff 
 DLRX.°/30m               3.40:  Dogleg Rot Max 
 DLSO.°/30m               1.45:  Dogleg Oriented 
 DLSX.°/30m               3.40:  Dogleg Str Max 
 DRET.      18.40.00 29-Aug-21:  Drill End Time 
 DRST.      21.00.00 20-Aug-21:  Drill Start Tim 
 DTIM.hr                 69.47:  Time Drilling 
 EDEP.m                5084.50:  End Depth 
 ENG1.      Artemiy Matviyanov:  Engineer 1 
 ENG2.         Almaz Almadatov:  Engineer 2 
 ETIM.      18.40.00 29-Aug-21:  End Time 
 FLOI.gpm               500.00:  Flow In 
 FLON.gpm               400.00:  Flow In Min 
 FLOS.cptm                0.00:  Fluid Loss 
 FLOX.gpm               500.00:  Flow In Max 
 DFT .        Mineral Oil Base:  Mud Type 
 HFLO.                      No:  High Flow 
 HPRE.                      No:  High Pressure 
 HTEM.                      No:  High Temp 
 HYDO.m                   1.80:  Hydro Offset 
 IFIN.deg                25.62:  Inc, Final 
 IMAX.deg                48.69:  Inc Max 
 IMIN.deg                24.01:  Inc Min 
 IMND.m                4962.57:  Inc Min Depth 
 IMXD.m                4119.01:  Inc Max Depth 
 JARR.                      No:  Jarring 
 LETM.      18.40.00 29-Aug-21:  Log End Time 
 LOST.hr                     0:  Lost Rig Time 
 LSTM.      21.00.00 20-Aug-21:  Log Start Time 
 MDCL.ppm             41500.00:  Mud Chlorides 
 MDES.     Inversion Oil/Synthetic:  Mud Desc 
 DFD .sg                  1.56:  Mud Density 
 MDMN.sg                  1.56:  Dens Mud Min 
 MDMX.sg                  1.56:  Dens Mud Max 
 MOIL.                      70:  Run Mud Oil % 
 MOWR.                   70:30:  Run Mud OWR 
 MSND.                     0.2:  Run Mud Sand % 
 MSOL.                    23.3:  Run Mud Solids% 
 DFV .spqt               78.00:  Mud Viscosity 
 MWOD.in                  6.75:  MWD Tool OD 
 MWSI.                      No:  Serv Intrp, MWD 
 OTIM.hr                218.30:  Time Operating 
 PCON.           Look Like New:  Pad Condition 
 PMAX.psia            11015.30:  Press Op, Max 
 PV  .cP                 38.00:  Mud PV 
 RUN .                     300:  Run Number 
 ROPA.m/hr               15.00:  ROP Avg 
 ROPN.m/hr                9.00:  ROP Min 
 ROPX.m/hr               17.00:  ROP Max 
 RPMA.rpm               120.00:  RPM Surface Avg 
 RPMN.rpm                90.00:  RPM Surface Min 
 RPMX.rpm               140.00:  RPM Surface Max 
 RRUN.                     300:  Rig Run Number 
 RTIM.hr                 31.53:  Time Reaming 
 SAZI.deg               331.64:  Azm, Start 
 SDEP.m                4127.00:  Start Depth 
 SIDD.                      No:  Serv Intrp, DD 
 SINC.deg                48.43:  Inc, Start 
 SPPA.psig             5830.00:  SPP Avg 
 SPPN.psig             5600.00:  SPP Min 
 SPPX.psig             5900.00:  SPP Max 
 STIM.      21.00.00 20-Aug-21:  Start Time 
 SVCS.                 DD, MWD:  Services 
 SVER.                    9.20:  Sperry Version 
 TDAT.m                 957.50:  Tot Depth Attmp 
 TDDF.                      No:  Trip for DD 
 TDLG.m                 957.50:  Tot Depth Loggd 
 TFF .                      No:  Trip for Fail 
 TQAA.f-kp               15.00:  Torque Abs Avg 
 TQAN.f-kp               12.00:  Torque Abs Min 
 TQAX.f-kp               19.00:  Torque Abs Max 
 TRRT.°/30m              -3.40:  Turn Rotating 
 MRT .                  EWR-M5:  Maximum Recorded Temperature 
 TTMX.degC              100.00:  Max Tool Temp 
 VS01.                90639251:  Virtual Str1 SN 
 VS02.                90634715:  Virtual Str2 SN 
 VS03.                90652479:  Virtual Str3 SN 
 VS04.                90642262:  Virtual Str4 SN 
 WBMN.klb                 0.00:  WOB Min 
 WITN.           Murad Guliyev:  Customer Rep 
 WITN.          Yashar Gaziyev:  Customer Rep 2 
 WOBA.klb                 9.00:  WOB Avg 
 WOBX.klb                12.00:  WOB Max 
 YP  .lhf2               30.00:  Yield Point 
~Curve Information Block
#MNEM.UNIT                 API CODE     Curve Description
#---------               -----------    ---------------------------
 TIME.HHMMSS            00 000 000 000:  GT Time & Date
 GTDEPTH.m              00 000 000 000:  GT Depth
 GTPQH.psia             00 000 000 000:  GT HR Quartz Pressure
 GTTQ.degC              00 000 000 000:  GT Quartz Temperature
 GTTN.NONE              00 000 000 000:  GT Test Number
 GTET.sec               00 000 000 000:  GT Elapsed Test Time
 GTTVD.m                00 000 000 000:  GT True Vertical Depth
#Other Information
#
#WARRANTY: Halliburton will use its best efforts to furnish customers with 
#accurate information and interpretations that are part of, and incident to, the services 
#provided.  However, Halliburton cannot and does not warrant the accuracy 
#or correctness of such information and interpretations.  Under no circumstances should any 
#such information or interpretation be relied upon as the sole basis for any drilling, 
#completion, production, or financial decision or any procedure involving any risk to the 
#safety of any drilling venture, drilling rig or its crew or any other third party.  The 
#Customer has full responsibility for all drilling, completion and production operation.  
#Halliburton makes no representations or warranties, either expressed or 
#implied, including, but not limited to, the implied warranties of merchantability or fitness 
#for a particular purpose, with respect to the services rendered.  In no event will 
#Halliburton be liable for failure to obtain any particular results or for 
#any damages, including, but not limited to, indirect, special or consequential damages, 
#resulting from the use of any information or interpretation provided by Halliburton.
#
~A           TIME           GTDEPTH  GTPQH  GTTQ  GTTN   GTET   GTTVD  
# ...
   14:20:36.600.27-Aug-2021 4859.50 3528.47 84.39 15.00 135.60 3211.87
   14:20:36.800.27-Aug-2021 4859.50 3531.77 84.39 15.00 135.80 3211.87
   14:20:37.000.27-Aug-2021 4859.50 3534.68 84.39 15.00 136.00 3211.87
   14:20:37.200.27-Aug-2021 4859.50 3534.68 84.39 15.00 136.20 3211.87
   14:20:37.400.27-Aug-2021 4859.50 3541.89 84.39 15.00 136.40 3211.87
   14:20:37.600.27-Aug-2021 4859.50 3545.57 84.39 15.00 136.60 3211.87
   14:20:37.800.27-Aug-2021 4859.50 3549.21 84.39 15.00 136.80 3211.87
   14:20:38.000.27-Aug-2021 4859.50 3552.81 84.39 15.00 137.00 3211.87
   14:20:38.200.27-Aug-2021 4859.50 3552.81 84.39 15.00 137.20 3211.87
   14:20:38.400.27-Aug-2021 4859.50 3560.09 84.39 15.00 137.40 3211.87
   14:20:38.600.27-Aug-2021 4859.50 3563.78 84.39 15.00 137.60 3211.87
   14:20:38.800.27-Aug-2021 4859.50 3567.33 84.39 15.00 137.80 3211.87
   14:20:39.000.27-Aug-2021 4859.50 3570.99 84.39 15.00 138.00 3211.87
   14:20:39.200.27-Aug-2021 4859.50 3570.99 84.39 15.00 138.20 3211.87
   14:20:39.400.27-Aug-2021 4859.50 3576.45 84.39 15.00 138.40 3211.87
   14:20:39.600.27-Aug-2021 4859.50 3579.58 84.39 15.00 138.60 3211.87
   14:20:39.800.27-Aug-2021 4859.50 3583.17 84.39 15.00 138.80 3211.87
   14:20:40.000.27-Aug-2021 4859.50 3586.76 84.39 15.00 139.00 3211.87
   14:20:40.200.27-Aug-2021 4859.50 3586.76 84.39 15.00 139.20 3211.87
   14:20:40.400.27-Aug-2021 4859.50 3592.65 84.39 15.00 139.40 3211.87
   14:20:40.600.27-Aug-2021 4859.50 3596.10 84.39 15.00 139.60 3211.87
   14:20:40.800.27-Aug-2021 4859.50 3599.35 84.39 15.00 139.80 3211.87
   14:20:41.000.27-Aug-2021 4859.50 3602.44 84.39 15.00 140.00 3211.87
   14:20:41.200.27-Aug-2021 4859.50 3602.44 84.39 15.00 140.20 3211.87
   14:20:41.400.27-Aug-2021 4859.50 3609.44 84.39 15.00 140.40 3211.87
   14:20:41.600.27-Aug-2021 4859.50 3612.88 84.39 15.00 140.60 3211.87
   14:20:41.800.27-Aug-2021 4859.50 3616.50 84.39 15.00 140.80 3211.87
   14:20:42.000.27-Aug-2021 4859.50 3619.93 84.39 15.00 141.00 3211.87
   14:20:42.200.27-Aug-2021 4859.50 3619.93 84.39 15.00 141.20 3211.87
   14:20:42.400.27-Aug-2021 4859.50 3626.48 84.39 15.00 141.40 3211.87
   14:20:42.600.27-Aug-2021 4859.50 3629.70 84.39 15.00 141.60 3211.87
   14:20:42.800.27-Aug-2021 4859.50 3633.14 84.39 15.00 141.80 3211.87
   14:20:43.000.27-Aug-2021 4859.50 3635.63 84.39 15.00 142.00 3211.87
   14:20:43.200.27-Aug-2021 4859.50 3635.63 84.39 15.00 142.20 3211.87
   14:20:43.400.27-Aug-2021 4859.50 3641.37 84.39 15.00 142.40 3211.87
   14:20:43.600.27-Aug-2021 4859.50 3644.19 84.39 15.00 142.60 3211.87
   14:20:43.800.27-Aug-2021 4859.50 3647.83 84.39 15.00 142.80 3211.87
   14:20:44.000.27-Aug-2021 4859.50 3651.20 84.39 15.00 143.00 3211.87
   14:20:44.200.27-Aug-2021 4859.50 3651.20 84.39 15.00 143.20 3211.87
   14:20:44.400.27-Aug-2021 4859.50 3658.05 84.39 15.00 143.40 3211.87
   14:20:44.600.27-Aug-2021 4859.50 3661.53 84.39 15.00 143.60 3211.87
   14:20:44.800.27-Aug-2021 4859.50 3664.95 84.39 15.00 143.80 3211.87
   14:20:45.000.27-Aug-2021 4859.50 3668.41 84.39 15.00 144.00 3211.87
   14:20:45.200.27-Aug-2021 4859.50 3668.41 84.39 15.00 144.20 3211.87
   14:20:45.400.27-Aug-2021 4859.50 3675.30 84.39 15.00 144.40 3211.87
   14:20:45.600.27-Aug-2021 4859.50 3678.65 84.39 15.00 144.60 3211.87
   14:20:45.800.27-Aug-2021 4859.50 3682.13 84.39 15.00 144.80 3211.87
   14:20:46.000.27-Aug-2021 4859.50 3685.48 84.39 15.00 145.00 3211.87
   14:20:46.200.27-Aug-2021 4859.50 3685.48 84.39 15.00 145.20 3211.87
   14:20:46.400.27-Aug-2021 4859.50 3692.23 84.39 15.00 145.40 3211.87
   14:20:46.600.27-Aug-2021 4859.50 3694.66 84.39 15.00 145.60 3211.87
   14:20:46.800.27-Aug-2021 4859.50 3695.99 84.39 15.00 145.80 3211.87
   14:20:47.000.27-Aug-2021 4859.50 3699.42 84.39 15.00 146.00 3211.87
   14:20:47.200.27-Aug-2021 4859.50 3699.42 84.39 15.00 146.20 3211.87
   14:20:47.400.27-Aug-2021 4859.50 3705.82 84.39 15.00 146.40 3211.87
   14:20:47.600.27-Aug-2021 4859.50 3709.20 84.39 15.00 146.60 3211.87
   14:20:47.800.27-Aug-2021 4859.50 3712.56 84.39 15.00 146.80 3211.87
   14:20:48.000.27-Aug-2021 4859.50 3715.83 84.39 15.00 147.00 3211.87
   14:20:48.200.27-Aug-2021 4859.50 3715.83 84.39 15.00 147.20 3211.87
   14:20:48.400.27-Aug-2021 4859.50 3722.53 84.39 15.00 147.40 3211.87
   14:20:48.600.27-Aug-2021 4859.50 3725.93 84.39 15.00 147.60 3211.87
   14:20:48.800.27-Aug-2021 4859.50 3729.19 84.39 15.00 147.80 3211.87
   14:20:49.000.27-Aug-2021 4859.50 3732.56 84.39 15.00 148.00 3211.87
   14:20:49.200.27-Aug-2021 4859.50 3732.56 84.39 15.00 148.20 3211.87
   14:20:49.400.27-Aug-2021 4859.50 3739.13 84.39 15.00 148.40 3211.87
   14:20:49.600.27-Aug-2021 4859.50 3742.40 84.39 15.00 148.60 3211.87
   14:20:49.800.27-Aug-2021 4859.50 3745.63 84.40 15.00 148.80 3211.87
   14:20:50.000.27-Aug-2021 4859.50 3748.03 84.40 15.00 149.00 3211.87
   14:20:50.200.27-Aug-2021 4859.50 3748.03 84.40 15.00 149.20 3211.87
   14:20:50.400.27-Aug-2021 4859.50 3754.22 84.40 15.00 149.40 3211.87
   14:20:50.600.27-Aug-2021 4859.50 3756.37 84.40 15.00 149.60 3211.87
   14:20:50.800.27-Aug-2021 4859.50 3757.68 84.40 15.00 149.80 3211.87
   14:20:51.000.27-Aug-2021 4859.50 3761.09 84.40 15.00 150.00 3211.87
   14:20:51.200.27-Aug-2021 4859.50 3761.09 84.40 15.00 150.20 3211.87
   14:20:51.400.27-Aug-2021 4859.50 3767.07 84.40 15.00 150.40 3211.87
   14:20:51.600.27-Aug-2021 4859.50 3770.08 84.40 15.00 150.60 3211.87
   14:20:51.800.27-Aug-2021 4859.50 3773.38 84.40 15.00 150.80 3211.87
   14:20:52.000.27-Aug-2021 4859.50 3776.58 84.40 15.00 151.00 3211.87
   14:20:52.200.27-Aug-2021 4859.50 3776.58 84.40 15.00 151.20 3211.87
   14:20:52.400.27-Aug-2021 4859.50 3783.02 84.40 15.00 151.40 3211.87
   14:20:52.600.27-Aug-2021 4859.50 3786.28 84.40 15.00 151.60 3211.87
   14:20:52.800.27-Aug-2021 4859.50 3789.47 84.40 15.00 151.80 3211.87
   14:20:53.000.27-Aug-2021 4859.50 3791.94 84.40 15.00 152.00 3211.87
   14:20:53.200.27-Aug-2021 4859.50 3791.94 84.40 15.00 152.20 3211.87
   14:20:53.400.27-Aug-2021 4859.50 3798.45 84.40 15.00 152.40 3211.87
   14:20:53.600.27-Aug-2021 4859.50 3801.64 84.40 15.00 152.60 3211.87
   14:20:53.800.27-Aug-2021 4859.50 3804.71 84.40 15.00 152.80 3211.87
   14:20:54.000.27-Aug-2021 4859.50 3808.01 84.40 15.00 153.00 3211.87
   14:20:54.200.27-Aug-2021 4859.50 3808.01 84.40 15.00 153.20 3211.87
   14:20:54.400.27-Aug-2021 4859.50 3814.13 84.40 15.00 153.40 3211.87
   14:20:54.600.27-Aug-2021 4859.50 3815.55 84.40 15.00 153.60 3211.87
   14:20:54.800.27-Aug-2021 4859.50 3818.44 84.40 15.00 153.80 3211.87
   14:20:55.000.27-Aug-2021 4859.50 3821.65 84.40 15.00 154.00 3211.87
   14:20:55.200.27-Aug-2021 4859.50 3821.65 84.40 15.00 154.20 3211.87
   14:20:55.400.27-Aug-2021 4859.50 3828.00 84.40 15.00 154.40 3211.87
   14:20:55.600.27-Aug-2021 4859.50 3831.07 84.40 15.00 154.60 3211.87
   14:20:55.800.27-Aug-2021 4859.50 3834.25 84.40 15.00 154.80 3211.87
   14:20:56.000.27-Aug-2021 4859.50 3837.33 84.40 15.00 155.00 3211.87
   14:20:56.200.27-Aug-2021 4859.50 3837.33 84.40 15.00 155.20 3211.87
   14:20:56.400.27-Aug-2021 4859.50 3842.77 84.40 15.00 155.40 3211.87
   14:20:56.600.27-Aug-2021 4859.50 3845.61 84.40 15.00 155.60 3211.87
   14:20:56.800.27-Aug-2021 4859.50 3848.72 84.40 15.00 155.80 3211.87
   14:20:57.000.27-Aug-2021 4859.50 3851.73 84.40 15.00 156.00 3211.87
   14:20:57.200.27-Aug-2021 4859.50 3851.73 84.40 15.00 156.20 3211.87
   14:20:57.400.27-Aug-2021 4859.50 3857.93 84.40 15.00 156.40 3211.87
   14:20:57.600.27-Aug-2021 4859.50 3861.04 84.40 15.00 156.60 3211.87
   14:20:57.800.27-Aug-2021 4859.50 3864.11 84.40 15.00 156.80 3211.87
   14:20:58.000.27-Aug-2021 4859.50 3867.19 84.40 15.00 157.00 3211.87
   14:20:58.200.27-Aug-2021 4859.50 3867.19 84.40 15.00 157.20 3211.87
   14:20:58.400.27-Aug-2021 4859.50 3873.22 84.40 15.00 157.40 3211.87
   14:20:58.600.27-Aug-2021 4859.50 3874.56 84.40 15.00 157.60 3211.87
   14:20:58.800.27-Aug-2021 4859.50 3877.20 84.40 15.00 157.80 3211.87
   14:20:59.000.27-Aug-2021 4859.50 3880.34 84.40 15.00 158.00 3211.87
