~Version Information
 VERS.                  2.0:   CWLS log ASCII Standard -VERSION 2.0
 WRAP.                   NO:   One line per depth step
~Well Information Block
#MNEM.UNIT     VALUE/NAME     DESCRIPTION
#---------     -----------    ---------------------------
 STRT.S             22:11:58 27-Aug-21: START TIME 22:11:58 27-Aug-21
 STOP.S             22:18:52 27-Aug-21: STOP TIME  22:18:52 27-Aug-21
 STEP.S                   0.00: STEP TIME
 NULL.                 -999.25: NULL VALUE
 DFWT.                        :  DIST FWL TEXT
 DFST.                        :  DIST FSL TEXT
 DMF .             Drill Floor:  DRILL MEAS FROM
 STIM.      20.00.00 17-Aug-21:  START TIME
 DATE.      19.00.00 29-Aug-21:  END TIME
 SPUD.               15-Aug-21:  SPUD DATE
 NREF.                    Grid:  NORTH REFERENCE
 HPTY.       Minimum Curvature:  HOLE POS TYPE
 DMOD.             Drill Model:  DRILL MOD DESC
 SVYD.                  Survey:  SURVEY DESC
 ILTD.               Lithology:  INTERP LTH DESC
 FTOP.          Formation Tops:  FORM TOPS DESC
 RIG .              East Azeri:  RIG NAME
 PDAT.          Mean Sea Level:  PERMANENT DATUM
 FLD .                     ACG:  FIELD NAME
 SON .        AZ-XX-0907180857:  JOB NUMBER
 CTRY.              Azerbaijan:  COUNTRY NAME
 WELL.                    D23x:  WELL NAME
 SRVC.     Turan Drilling and Engineering:  CONTRACTOR
 COMP.     BP Exploration (Caspian Sea) Ltd.:  COMPANY
 UWI .            /AZE00000214:  UNIQUE WELL IDENTIFIER
 API .            /AZE00000214:  API NUMBER
 MDS .        Operator Entered:  MAG DATA SOURCE
 BASE.              Azerbaijan:  LOGGING EQUIPMENT BASE LOCATION
 REGN.                   EESSA:  REGION
 PROV.                    Baku:  PROVINCE
 STAT.                    Baku:  STATE NAME
 MWDS.                    Baku:  MWD SHOP
 DOE .                     N/A:  DOE NUMBER
 DCON.         Sperry Drilling:  DIRECTNL CONTR
 UNIT.                     N/A:  LOGGING EQUIPMENT ID
 WTYP.                Deviated:  WELL TYPE
 CNTY.                        :  COUNTY
 LOC .                        :  LOCATION
 LMF .             Drill Floor:  LOG MEASURED FROM
 TVDS.m                  43.60:  TVDSS CORRECTN
 LATI.deg                40.02:  LATITUDE
 LONG.deg                51.45:  LONGITUDE
 WHNS.m                  -7.04:  WELL HEAD N/S
 WHEW.m                  -0.67:  WELL HEAD E/W
 UTMX.m              538762.90:  UTM X
 UTMY.m             4431871.34:  UTM Y
 DFWL.m                   0.00:  DISTANCE FWL
 DFSL.m                   0.00:  DISTANCE FSL
 SDEP.m                4127.00:  START DEPTH
 TDD .m                5084.50:  TOTAL DEPTH (DRILLER)
 VSDR.deg               140.47:  VERT SEC DIRECT
 GVFD.g                   1.00:  GRAVITY FIELD
 MFLD.nT              50362.00:  MAGNETIC FIELD
 MDIP.deg                59.48:  MAGNETIC DIP
 MDEC.deg                 6.47:  MAGNETIC DECL
 GRDC.deg                 0.31:  GRID CORRECTION
 AZTC.deg                 6.16:  AZM TOTAL CORR
 EPD .m                   0.00:  ELEVATION
 EGL .m                   0.00:  GROUND ELEVATION
 WDMS.m                 151.80:  WD ELEV
 APD .m                  43.60:  DEPTH ABOVE PD
 DEP .m                4092.57:  DEPTH
 AGAP.m                  43.60:  AIR GAP
 VSEW.m                  -0.67:  VERT SEC E/W
 VSNS.m                  -7.04:  VERT SEC N/S
 EKB .m                  43.60:  KB ELEVATION
 EDF .m                  43.60:  DF ELEVATION
 TDL .m                 957.50:  TOTAL DEPTH (LOGGER)
 VSC .                       0:  VS TO CLOSURE
 MAGU.                 1851413:  MAGUTM CHECKSUM
~Parameter Information Block
#MNEM.UNIT       Value        Description
#---------     -----------    ---------------------------
 AV  .mps                 1.50:  Ann Velocity 
 AVMX.mps                 2.00:  Max Ann Veloc 
 AZIF.deg               184.66:  Azm, Final 
 BHAT.        Rotary Steerable:  BHA Type 
 BREV.rev               300.00:  Rev Bit Total 
 BROT.°/30m              -0.50:  Build Rotating 
 BS  .in                  8.50:  Bit Size 
 BSZ .in                  8.50:  Bit Size 
 BTPL.psig              370.00:  Bit Press Loss 
 CABU.                      No:  Customer Abuse 
 CGEO.      Behruz Shahbaliyev:  Customer Geo 
 COMM.                     Tªl:  Run Comments 1 
 TCS .hr                140.08:  Time Ciculation Ended 
 CV  .mps                 3.00:  Crit Velocity 
 CVMX.mps                 3.20:  Max Crit Veloc 
 DD1 .            Musa Ahmadov:  Direct Drillr 1 
 DD2 .           Hamid Ahmadov:  Direct Drillr 2 
 DDSV.               Geo-Pilot:  DD Service 
 DEFF.%                  98.40:  % Det Eff 
 DLRX.°/30m               3.40:  Dogleg Rot Max 
 DLSO.°/30m               1.45:  Dogleg Oriented 
 DLSX.°/30m               3.40:  Dogleg Str Max 
 DRET.      18.40.00 29-Aug-21:  Drill End Time 
 DRST.      21.00.00 20-Aug-21:  Drill Start Tim 
 DTIM.hr                 69.47:  Time Drilling 
 EDEP.m                5084.50:  End Depth 
 ENG1.      Artemiy Matviyanov:  Engineer 1 
 ENG2.         Almaz Almadatov:  Engineer 2 
 ETIM.      18.40.00 29-Aug-21:  End Time 
 FLOI.gpm               500.00:  Flow In 
 FLON.gpm               400.00:  Flow In Min 
 FLOS.cptm                0.00:  Fluid Loss 
 FLOX.gpm               500.00:  Flow In Max 
 DFT .        Mineral Oil Base:  Mud Type 
 HFLO.                      No:  High Flow 
 HPRE.                      No:  High Pressure 
 HTEM.                      No:  High Temp 
 HYDO.m                   1.80:  Hydro Offset 
 IFIN.deg                25.62:  Inc, Final 
 IMAX.deg                48.69:  Inc Max 
 IMIN.deg                24.01:  Inc Min 
 IMND.m                4962.57:  Inc Min Depth 
 IMXD.m                4119.01:  Inc Max Depth 
 JARR.                      No:  Jarring 
 LETM.      18.40.00 29-Aug-21:  Log End Time 
 LOST.hr                     0:  Lost Rig Time 
 LSTM.      21.00.00 20-Aug-21:  Log Start Time 
 MDCL.ppm             41500.00:  Mud Chlorides 
 MDES.     Inversion Oil/Synthetic:  Mud Desc 
 DFD .sg                  1.56:  Mud Density 
 MDMN.sg                  1.56:  Dens Mud Min 
 MDMX.sg                  1.56:  Dens Mud Max 
 MOIL.                      70:  Run Mud Oil % 
 MOWR.                   70:30:  Run Mud OWR 
 MSND.                     0.2:  Run Mud Sand % 
 MSOL.                    23.3:  Run Mud Solids% 
 DFV .spqt               78.00:  Mud Viscosity 
 MWOD.in                  6.75:  MWD Tool OD 
 MWSI.                      No:  Serv Intrp, MWD 
 OTIM.hr                218.30:  Time Operating 
 PCON.           Look Like New:  Pad Condition 
 PMAX.psia            11015.30:  Press Op, Max 
 PV  .cP                 38.00:  Mud PV 
 RUN .                     300:  Run Number 
 ROPA.m/hr               15.00:  ROP Avg 
 ROPN.m/hr                9.00:  ROP Min 
 ROPX.m/hr               17.00:  ROP Max 
 RPMA.rpm               120.00:  RPM Surface Avg 
 RPMN.rpm                90.00:  RPM Surface Min 
 RPMX.rpm               140.00:  RPM Surface Max 
 RRUN.                     300:  Rig Run Number 
 RTIM.hr                 31.53:  Time Reaming 
 SAZI.deg               331.64:  Azm, Start 
 SDEP.m                4127.00:  Start Depth 
 SIDD.                      No:  Serv Intrp, DD 
 SINC.deg                48.43:  Inc, Start 
 SPPA.psig             5830.00:  SPP Avg 
 SPPN.psig             5600.00:  SPP Min 
 SPPX.psig             5900.00:  SPP Max 
 STIM.      21.00.00 20-Aug-21:  Start Time 
 SVCS.                 DD, MWD:  Services 
 SVER.                    9.20:  Sperry Version 
 TDAT.m                 957.50:  Tot Depth Attmp 
 TDDF.                      No:  Trip for DD 
 TDLG.m                 957.50:  Tot Depth Loggd 
 TFF .                      No:  Trip for Fail 
 TQAA.f-kp               15.00:  Torque Abs Avg 
 TQAN.f-kp               12.00:  Torque Abs Min 
 TQAX.f-kp               19.00:  Torque Abs Max 
 TRRT.°/30m              -3.40:  Turn Rotating 
 MRT .                  EWR-M5:  Maximum Recorded Temperature 
 TTMX.degC              100.00:  Max Tool Temp 
 VS01.                90639251:  Virtual Str1 SN 
 VS02.                90634715:  Virtual Str2 SN 
 VS03.                90652479:  Virtual Str3 SN 
 VS04.                90642262:  Virtual Str4 SN 
 WBMN.klb                 0.00:  WOB Min 
 WITN.           Murad Guliyev:  Customer Rep 
 WITN.          Yashar Gaziyev:  Customer Rep 2 
 WOBA.klb                 9.00:  WOB Avg 
 WOBX.klb                12.00:  WOB Max 
 YP  .lhf2               30.00:  Yield Point 
~Curve Information Block
#MNEM.UNIT                 API CODE     Curve Description
#---------               -----------    ---------------------------
 TIME.HHMMSS            00 000 000 000:  GT Time & Date
 GTDEPTH.m              00 000 000 000:  GT Depth
 GTPQH.psia             00 000 000 000:  GT HR Quartz Pressure
 GTTQ.degC              00 000 000 000:  GT Quartz Temperature
 GTTN.NONE              00 000 000 000:  GT Test Number
 GTET.sec               00 000 000 000:  GT Elapsed Test Time
 GTTVD.m                00 000 000 000:  GT True Vertical Depth
#Other Information
#
#WARRANTY: Halliburton will use its best efforts to furnish customers with 
#accurate information and interpretations that are part of, and incident to, the services 
#provided.  However, Halliburton cannot and does not warrant the accuracy 
#or correctness of such information and interpretations.  Under no circumstances should any 
#such information or interpretation be relied upon as the sole basis for any drilling, 
#completion, production, or financial decision or any procedure involving any risk to the 
#safety of any drilling venture, drilling rig or its crew or any other third party.  The 
#Customer has full responsibility for all drilling, completion and production operation.  
#Halliburton makes no representations or warranties, either expressed or 
#implied, including, but not limited to, the implied warranties of merchantability or fitness 
#for a particular purpose, with respect to the services rendered.  In no event will 
#Halliburton be liable for failure to obtain any particular results or for 
#any damages, including, but not limited to, indirect, special or consequential damages, 
#resulting from the use of any information or interpretation provided by Halliburton.
#
~A           TIME           GTDEPTH  GTPQH  GTTQ  GTTN   GTET   GTTVD  
# ...
   22:16:07.171.27-Aug-2021 4635.80 4184.27 82.41 24.00 248.63 3009.39
   22:16:07.371.27-Aug-2021 4635.80 4186.81 82.41 24.00 248.83 3009.39
   22:16:07.571.27-Aug-2021 4635.80 4188.24 82.41 24.00 249.03 3009.39
   22:16:07.771.27-Aug-2021 4635.80 4188.24 82.41 24.00 249.23 3009.39
   22:16:07.971.27-Aug-2021 4635.80 4192.48 82.41 24.00 249.43 3009.39
   22:16:08.171.27-Aug-2021 4635.80 4194.79 82.41 24.00 249.63 3009.39
   22:16:08.371.27-Aug-2021 4635.80 4196.21 82.41 24.00 249.83 3009.39
   22:16:08.571.27-Aug-2021 4635.80 4198.92 82.41 24.00 250.03 3009.39
   22:16:08.771.27-Aug-2021 4635.80 4198.92 82.41 24.00 250.23 3009.39
   22:16:08.971.27-Aug-2021 4635.80 4202.81 82.41 24.00 250.43 3009.39
   22:16:09.171.27-Aug-2021 4635.80 4205.14 82.41 24.00 250.63 3009.39
   22:16:09.371.27-Aug-2021 4635.80 4207.50 82.41 24.00 250.83 3009.39
   22:16:09.571.27-Aug-2021 4635.80 4209.27 82.41 24.00 251.03 3009.39
   22:16:09.771.27-Aug-2021 4635.80 4209.27 82.41 24.00 251.23 3009.39
   22:16:09.971.27-Aug-2021 4635.80 4213.33 82.41 24.00 251.43 3009.39
   22:16:10.171.27-Aug-2021 4635.80 4215.66 82.41 24.00 251.63 3009.39
   22:16:10.372.27-Aug-2021 4635.80 4218.00 82.41 24.00 251.83 3009.39
   22:16:10.572.27-Aug-2021 4635.80 4220.34 82.41 24.00 252.03 3009.39
   22:16:10.772.27-Aug-2021 4635.80 4220.34 82.41 24.00 252.23 3009.39
   22:16:10.972.27-Aug-2021 4635.80 4224.88 82.41 24.00 252.43 3009.39
   22:16:11.172.27-Aug-2021 4635.80 4227.16 82.41 24.00 252.63 3009.39
   22:16:11.372.27-Aug-2021 4635.80 4229.43 82.41 24.00 252.83 3009.39
   22:16:11.572.27-Aug-2021 4635.80 4230.04 82.41 24.00 253.03 3009.39
   22:16:11.772.27-Aug-2021 4635.80 4230.04 82.41 24.00 253.23 3009.39
   22:16:11.972.27-Aug-2021 4635.80 4234.17 82.41 24.00 253.43 3009.39
   22:16:12.172.27-Aug-2021 4635.80 4236.33 82.41 24.00 253.63 3009.39
   22:16:12.372.27-Aug-2021 4635.80 4238.46 82.41 24.00 253.83 3009.39
   22:16:12.572.27-Aug-2021 4635.80 4240.73 82.41 24.00 254.03 3009.39
   22:16:12.772.27-Aug-2021 4635.80 4240.73 82.41 24.00 254.23 3009.39
   22:16:12.972.27-Aug-2021 4635.80 4244.80 82.41 24.00 254.43 3009.39
   22:16:13.172.27-Aug-2021 4635.80 4246.24 82.41 24.00 254.63 3009.39
   22:16:13.372.27-Aug-2021 4635.80 4248.07 82.41 24.00 254.83 3009.39
   22:16:13.572.27-Aug-2021 4635.80 4250.17 82.41 24.00 255.03 3009.39
   22:16:13.772.27-Aug-2021 4635.80 4250.17 82.41 24.00 255.23 3009.39
   22:16:13.972.27-Aug-2021 4635.80 4254.43 82.41 24.00 255.43 3009.39
   22:16:14.172.27-Aug-2021 4635.80 4256.52 82.41 24.00 255.63 3009.39
   22:16:14.372.27-Aug-2021 4635.80 4258.59 82.41 24.00 255.83 3009.39
   22:16:14.572.27-Aug-2021 4635.80 4260.69 82.41 24.00 256.03 3009.39
   22:16:14.772.27-Aug-2021 4635.80 4260.69 82.41 24.00 256.23 3009.39
   22:16:14.972.27-Aug-2021 4635.80 4263.63 82.41 24.00 256.43 3009.39
   22:16:15.172.27-Aug-2021 4635.80 4264.99 82.41 24.00 256.63 3009.39
   22:16:15.372.27-Aug-2021 4635.80 4266.89 82.41 24.00 256.83 3009.39
   22:16:15.572.27-Aug-2021 4635.80 4268.90 82.41 24.00 257.03 3009.39
   22:16:15.772.27-Aug-2021 4635.80 4268.90 82.41 24.00 257.23 3009.39
   22:16:15.972.27-Aug-2021 4635.80 4272.03 82.41 24.00 257.43 3009.39
   22:16:16.172.27-Aug-2021 4635.80 4273.37 82.41 24.00 257.63 3009.39
   22:16:16.372.27-Aug-2021 4635.80 4275.16 82.41 24.00 257.83 3009.39
   22:16:16.572.27-Aug-2021 4635.80 4277.07 82.41 24.00 258.03 3009.39
   22:16:16.772.27-Aug-2021 4635.80 4277.07 82.41 24.00 258.23 3009.39
   22:16:16.972.27-Aug-2021 4635.80 4280.20 82.41 24.00 258.43 3009.39
   22:16:17.172.27-Aug-2021 4635.80 4281.49 82.41 24.00 258.63 3009.39
   22:16:17.372.27-Aug-2021 4635.80 4283.18 82.41 24.00 258.83 3009.39
   22:16:17.572.27-Aug-2021 4635.80 4285.03 82.41 24.00 259.03 3009.39
   22:16:17.772.27-Aug-2021 4635.80 4285.03 82.41 24.00 259.23 3009.39
   22:16:17.972.27-Aug-2021 4635.80 4287.45 82.41 24.00 259.43 3009.39
   22:16:18.172.27-Aug-2021 4635.80 4288.22 82.41 24.00 259.63 3009.39
   22:16:18.372.27-Aug-2021 4635.80 4290.27 82.41 24.00 259.83 3009.39
   22:16:18.572.27-Aug-2021 4635.80 4291.50 82.41 24.00 260.03 3009.39
   22:16:18.772.27-Aug-2021 4635.80 4291.50 82.41 24.00 260.23 3009.39
   22:16:18.972.27-Aug-2021 4635.80 4293.22 82.41 24.00 260.43 3009.39
   22:16:19.172.27-Aug-2021 4635.80 4296.96 82.41 24.00 260.63 3009.39
   22:16:19.372.27-Aug-2021 4635.80 4298.70 82.41 24.00 260.83 3009.39
   22:16:19.572.27-Aug-2021 4635.80 4300.62 82.41 24.00 261.03 3009.39
   22:16:19.772.27-Aug-2021 4635.80 4300.62 82.41 24.00 261.23 3009.39
   22:16:19.972.27-Aug-2021 4635.80 4304.28 82.41 24.00 261.43 3009.39
   22:16:20.173.27-Aug-2021 4635.80 4306.10 82.41 24.00 261.63 3009.39
   22:16:20.373.27-Aug-2021 4635.80 4307.92 82.41 24.00 261.83 3009.39
   22:16:20.573.27-Aug-2021 4635.80 4309.69 82.41 24.00 262.03 3009.39
   22:16:20.773.27-Aug-2021 4635.80 4309.69 82.41 24.00 262.23 3009.39
   22:16:20.973.27-Aug-2021 4635.80 4313.20 82.41 24.00 262.43 3009.39
   22:16:21.173.27-Aug-2021 4635.80 4314.92 82.41 24.00 262.63 3009.39
   22:16:21.373.27-Aug-2021 4635.80 4315.13 82.41 24.00 262.83 3009.39
   22:16:21.573.27-Aug-2021 4635.80 4316.95 82.41 24.00 263.03 3009.39
   22:16:21.773.27-Aug-2021 4635.80 4316.95 82.41 24.00 263.23 3009.39
   22:16:21.973.27-Aug-2021 4635.80 4319.93 82.41 24.00 263.43 3009.39
   22:16:22.173.27-Aug-2021 4635.80 4321.58 82.41 24.00 263.63 3009.39
   22:16:22.373.27-Aug-2021 4635.80 4323.38 82.41 24.00 263.83 3009.39
   22:16:22.573.27-Aug-2021 4635.80 4324.97 82.40 24.00 264.03 3009.39
   22:16:22.773.27-Aug-2021 4635.80 4324.97 82.40 24.00 264.23 3009.39
   22:16:22.973.27-Aug-2021 4635.80 4327.92 82.40 24.00 264.43 3009.39
   22:16:23.173.27-Aug-2021 4635.80 4328.71 82.40 24.00 264.63 3009.39
   22:16:23.373.27-Aug-2021 4635.80 4330.20 82.40 24.00 264.83 3009.39
   22:16:23.573.27-Aug-2021 4635.80 4331.89 82.40 24.00 265.03 3009.39
   22:16:23.773.27-Aug-2021 4635.80 4331.89 82.40 24.00 265.23 3009.39
   22:16:23.973.27-Aug-2021 4635.80 4335.21 82.40 24.00 265.43 3009.39
   22:16:24.173.27-Aug-2021 4635.80 4336.84 82.40 24.00 265.63 3009.39
   22:16:24.373.27-Aug-2021 4635.80 4338.45 82.40 24.00 265.83 3009.39
   22:16:24.573.27-Aug-2021 4635.80 4338.93 82.40 24.00 266.03 3009.39
   22:16:24.773.27-Aug-2021 4635.80 4338.93 82.40 24.00 266.23 3009.39
   22:16:24.973.27-Aug-2021 4635.80 4341.51 82.40 24.00 266.43 3009.39
   22:16:25.173.27-Aug-2021 4635.80 4342.89 82.40 24.00 266.63 3009.39
   22:16:25.373.27-Aug-2021 4635.80 4344.42 82.40 24.00 266.83 3009.39
   22:16:25.573.27-Aug-2021 4635.80 4346.07 82.40 24.00 267.03 3009.39
   22:16:25.773.27-Aug-2021 4635.80 4346.07 82.40 24.00 267.23 3009.39
   22:16:25.973.27-Aug-2021 4635.80 4346.07 82.40 24.00 267.43 3009.39
   22:16:26.173.27-Aug-2021 4635.80 4349.49 82.40 24.00 267.63 3009.39
   22:16:26.373.27-Aug-2021 4635.80 4350.64 82.40 24.00 267.83 3009.39
   22:16:26.573.27-Aug-2021 4635.80 4352.07 82.40 24.00 268.03 3009.39
   22:16:26.773.27-Aug-2021 4635.80 4352.07 82.40 24.00 268.23 3009.39
   22:16:26.973.27-Aug-2021 4635.80 4352.46 82.40 24.00 268.43 3009.39
   22:16:27.173.27-Aug-2021 4635.80 4355.33 82.40 24.00 268.63 3009.39
   22:16:27.373.27-Aug-2021 4635.80 4356.72 82.40 24.00 268.83 3009.39
   22:16:27.573.27-Aug-2021 4635.80 4358.15 82.40 24.00 269.03 3009.39
   22:16:27.773.27-Aug-2021 4635.80 4358.15 82.40 24.00 269.23 3009.39
   22:16:27.973.27-Aug-2021 4635.80 4360.20 82.40 24.00 269.43 3009.39
   22:16:28.173.27-Aug-2021 4635.80 4362.09 82.40 24.00 269.63 3009.39
   22:16:28.373.27-Aug-2021 4635.80 4362.93 82.40 24.00 269.83 3009.39
   22:16:28.573.27-Aug-2021 4635.80 4364.16 82.40 24.00 270.03 3009.39
   22:16:28.773.27-Aug-2021 4635.80 4364.16 82.40 24.00 270.23 3009.39
   22:16:28.973.27-Aug-2021 4635.80 4259.35 82.40 24.00 270.43 3009.39
   22:16:29.173.27-Aug-2021 4635.80 3400.53 82.40 24.00 270.63 3009.39
   22:16:29.373.27-Aug-2021 4635.80 2524.46 82.40 24.00 270.83 3009.39
   22:16:29.573.27-Aug-2021 4635.80 1730.37 82.40 24.00 271.03 3009.39
