~Version Information
 VERS.                  2.0:   CWLS log ASCII Standard -VERSION 2.0
 WRAP.                   NO:   One line per depth step
~Well Information Block
#MNEM.UNIT     VALUE/NAME     DESCRIPTION
#---------     -----------    ---------------------------
 STRT.S             23:43:00 27-Aug-21: START TIME 23:43:00 27-Aug-21
 STOP.S             23:50:14 27-Aug-21: STOP TIME  23:50:14 27-Aug-21
 STEP.S                   0.00: STEP TIME
 NULL.                 -999.25: NULL VALUE
 DFWT.                        :  DIST FWL TEXT
 DFST.                        :  DIST FSL TEXT
 DMF .             Drill Floor:  DRILL MEAS FROM
 STIM.      20.00.00 17-Aug-21:  START TIME
 DATE.      19.00.00 29-Aug-21:  END TIME
 SPUD.               15-Aug-21:  SPUD DATE
 NREF.                    Grid:  NORTH REFERENCE
 HPTY.       Minimum Curvature:  HOLE POS TYPE
 DMOD.             Drill Model:  DRILL MOD DESC
 SVYD.                  Survey:  SURVEY DESC
 ILTD.               Lithology:  INTERP LTH DESC
 FTOP.          Formation Tops:  FORM TOPS DESC
 RIG .              East Azeri:  RIG NAME
 PDAT.          Mean Sea Level:  PERMANENT DATUM
 FLD .                     ACG:  FIELD NAME
 SON .        AZ-XX-0907180857:  JOB NUMBER
 CTRY.              Azerbaijan:  COUNTRY NAME
 WELL.                    D23x:  WELL NAME
 SRVC.     Turan Drilling and Engineering:  CONTRACTOR
 COMP.     BP Exploration (Caspian Sea) Ltd.:  COMPANY
 UWI .            /AZE00000214:  UNIQUE WELL IDENTIFIER
 API .            /AZE00000214:  API NUMBER
 MDS .        Operator Entered:  MAG DATA SOURCE
 BASE.              Azerbaijan:  LOGGING EQUIPMENT BASE LOCATION
 REGN.                   EESSA:  REGION
 PROV.                    Baku:  PROVINCE
 STAT.                    Baku:  STATE NAME
 MWDS.                    Baku:  MWD SHOP
 DOE .                     N/A:  DOE NUMBER
 DCON.         Sperry Drilling:  DIRECTNL CONTR
 UNIT.                     N/A:  LOGGING EQUIPMENT ID
 WTYP.                Deviated:  WELL TYPE
 CNTY.                        :  COUNTY
 LOC .                        :  LOCATION
 LMF .             Drill Floor:  LOG MEASURED FROM
 TVDS.m                  43.60:  TVDSS CORRECTN
 LATI.deg                40.02:  LATITUDE
 LONG.deg                51.45:  LONGITUDE
 WHNS.m                  -7.04:  WELL HEAD N/S
 WHEW.m                  -0.67:  WELL HEAD E/W
 UTMX.m              538762.90:  UTM X
 UTMY.m             4431871.34:  UTM Y
 DFWL.m                   0.00:  DISTANCE FWL
 DFSL.m                   0.00:  DISTANCE FSL
 SDEP.m                4127.00:  START DEPTH
 TDD .m                5084.50:  TOTAL DEPTH (DRILLER)
 VSDR.deg               140.47:  VERT SEC DIRECT
 GVFD.g                   1.00:  GRAVITY FIELD
 MFLD.nT              50362.00:  MAGNETIC FIELD
 MDIP.deg                59.48:  MAGNETIC DIP
 MDEC.deg                 6.47:  MAGNETIC DECL
 GRDC.deg                 0.31:  GRID CORRECTION
 AZTC.deg                 6.16:  AZM TOTAL CORR
 EPD .m                   0.00:  ELEVATION
 EGL .m                   0.00:  GROUND ELEVATION
 WDMS.m                 151.80:  WD ELEV
 APD .m                  43.60:  DEPTH ABOVE PD
 DEP .m                4092.57:  DEPTH
 AGAP.m                  43.60:  AIR GAP
 VSEW.m                  -0.67:  VERT SEC E/W
 VSNS.m                  -7.04:  VERT SEC N/S
 EKB .m                  43.60:  KB ELEVATION
 EDF .m                  43.60:  DF ELEVATION
 TDL .m                 957.50:  TOTAL DEPTH (LOGGER)
 VSC .                       0:  VS TO CLOSURE
 MAGU.                 1851413:  MAGUTM CHECKSUM
~Parameter Information Block
#MNEM.UNIT       Value        Description
#---------     -----------    ---------------------------
 AV  .mps                 1.50:  Ann Velocity 
 AVMX.mps                 2.00:  Max Ann Veloc 
 AZIF.deg               184.66:  Azm, Final 
 BHAT.        Rotary Steerable:  BHA Type 
 BREV.rev               300.00:  Rev Bit Total 
 BROT.°/30m              -0.50:  Build Rotating 
 BS  .in                  8.50:  Bit Size 
 BSZ .in                  8.50:  Bit Size 
 BTPL.psig              370.00:  Bit Press Loss 
 CABU.                      No:  Customer Abuse 
 CGEO.      Behruz Shahbaliyev:  Customer Geo 
 COMM.                     Ì™‡:  Run Comments 1 
 TCS .hr                140.08:  Time Ciculation Ended 
 CV  .mps                 3.00:  Crit Velocity 
 CVMX.mps                 3.20:  Max Crit Veloc 
 DD1 .            Musa Ahmadov:  Direct Drillr 1 
 DD2 .           Hamid Ahmadov:  Direct Drillr 2 
 DDSV.               Geo-Pilot:  DD Service 
 DEFF.%                  98.40:  % Det Eff 
 DLRX.°/30m               3.40:  Dogleg Rot Max 
 DLSO.°/30m               1.45:  Dogleg Oriented 
 DLSX.°/30m               3.40:  Dogleg Str Max 
 DRET.      18.40.00 29-Aug-21:  Drill End Time 
 DRST.      21.00.00 20-Aug-21:  Drill Start Tim 
 DTIM.hr                 69.47:  Time Drilling 
 EDEP.m                5084.50:  End Depth 
 ENG1.      Artemiy Matviyanov:  Engineer 1 
 ENG2.         Almaz Almadatov:  Engineer 2 
 ETIM.      18.40.00 29-Aug-21:  End Time 
 FLOI.gpm               500.00:  Flow In 
 FLON.gpm               400.00:  Flow In Min 
 FLOS.cptm                0.00:  Fluid Loss 
 FLOX.gpm               500.00:  Flow In Max 
 DFT .        Mineral Oil Base:  Mud Type 
 HFLO.                      No:  High Flow 
 HPRE.                      No:  High Pressure 
 HTEM.                      No:  High Temp 
 HYDO.m                   1.80:  Hydro Offset 
 IFIN.deg                25.62:  Inc, Final 
 IMAX.deg                48.69:  Inc Max 
 IMIN.deg                24.01:  Inc Min 
 IMND.m                4962.57:  Inc Min Depth 
 IMXD.m                4119.01:  Inc Max Depth 
 JARR.                      No:  Jarring 
 LETM.      18.40.00 29-Aug-21:  Log End Time 
 LOST.hr                     0:  Lost Rig Time 
 LSTM.      21.00.00 20-Aug-21:  Log Start Time 
 MDCL.ppm             41500.00:  Mud Chlorides 
 MDES.     Inversion Oil/Synthetic:  Mud Desc 
 DFD .sg                  1.56:  Mud Density 
 MDMN.sg                  1.56:  Dens Mud Min 
 MDMX.sg                  1.56:  Dens Mud Max 
 MOIL.                      70:  Run Mud Oil % 
 MOWR.                   70:30:  Run Mud OWR 
 MSND.                     0.2:  Run Mud Sand % 
 MSOL.                    23.3:  Run Mud Solids% 
 DFV .spqt               78.00:  Mud Viscosity 
 MWOD.in                  6.75:  MWD Tool OD 
 MWSI.                      No:  Serv Intrp, MWD 
 OTIM.hr                218.30:  Time Operating 
 PCON.           Look Like New:  Pad Condition 
 PMAX.psia            11015.30:  Press Op, Max 
 PV  .cP                 38.00:  Mud PV 
 RUN .                     300:  Run Number 
 ROPA.m/hr               15.00:  ROP Avg 
 ROPN.m/hr                9.00:  ROP Min 
 ROPX.m/hr               17.00:  ROP Max 
 RPMA.rpm               120.00:  RPM Surface Avg 
 RPMN.rpm                90.00:  RPM Surface Min 
 RPMX.rpm               140.00:  RPM Surface Max 
 RRUN.                     300:  Rig Run Number 
 RTIM.hr                 31.53:  Time Reaming 
 SAZI.deg               331.64:  Azm, Start 
 SDEP.m                4127.00:  Start Depth 
 SIDD.                      No:  Serv Intrp, DD 
 SINC.deg                48.43:  Inc, Start 
 SPPA.psig             5830.00:  SPP Avg 
 SPPN.psig             5600.00:  SPP Min 
 SPPX.psig             5900.00:  SPP Max 
 STIM.      21.00.00 20-Aug-21:  Start Time 
 SVCS.                 DD, MWD:  Services 
 SVER.                    9.20:  Sperry Version 
 TDAT.m                 957.50:  Tot Depth Attmp 
 TDDF.                      No:  Trip for DD 
 TDLG.m                 957.50:  Tot Depth Loggd 
 TFF .                      No:  Trip for Fail 
 TQAA.f-kp               15.00:  Torque Abs Avg 
 TQAN.f-kp               12.00:  Torque Abs Min 
 TQAX.f-kp               19.00:  Torque Abs Max 
 TRRT.°/30m              -3.40:  Turn Rotating 
 MRT .                  EWR-M5:  Maximum Recorded Temperature 
 TTMX.degC              100.00:  Max Tool Temp 
 VS01.                90639251:  Virtual Str1 SN 
 VS02.                90634715:  Virtual Str2 SN 
 VS03.                90652479:  Virtual Str3 SN 
 VS04.                90642262:  Virtual Str4 SN 
 WBMN.klb                 0.00:  WOB Min 
 WITN.           Murad Guliyev:  Customer Rep 
 WITN.          Yashar Gaziyev:  Customer Rep 2 
 WOBA.klb                 9.00:  WOB Avg 
 WOBX.klb                12.00:  WOB Max 
 YP  .lhf2               30.00:  Yield Point 
~Curve Information Block
#MNEM.UNIT                 API CODE     Curve Description
#---------               -----------    ---------------------------
 TIME.HHMMSS            00 000 000 000:  GT Time & Date
 GTDEPTH.m              00 000 000 000:  GT Depth
 GTPQH.psia             00 000 000 000:  GT HR Quartz Pressure
 GTTQ.degC              00 000 000 000:  GT Quartz Temperature
 GTTN.NONE              00 000 000 000:  GT Test Number
 GTET.sec               00 000 000 000:  GT Elapsed Test Time
 GTTVD.m                00 000 000 000:  GT True Vertical Depth
#Other Information
#
#WARRANTY: Halliburton will use its best efforts to furnish customers with 
#accurate information and interpretations that are part of, and incident to, the services 
#provided.  However, Halliburton cannot and does not warrant the accuracy 
#or correctness of such information and interpretations.  Under no circumstances should any 
#such information or interpretation be relied upon as the sole basis for any drilling, 
#completion, production, or financial decision or any procedure involving any risk to the 
#safety of any drilling venture, drilling rig or its crew or any other third party.  The 
#Customer has full responsibility for all drilling, completion and production operation.  
#Halliburton makes no representations or warranties, either expressed or 
#implied, including, but not limited to, the implied warranties of merchantability or fitness 
#for a particular purpose, with respect to the services rendered.  In no event will 
#Halliburton be liable for failure to obtain any particular results or for 
#any damages, including, but not limited to, indirect, special or consequential damages, 
#resulting from the use of any information or interpretation provided by Halliburton.
#
~A           TIME           GTDEPTH  GTPQH  GTTQ  GTTN   GTET   GTTVD  
# ...
   23:45:15.744.27-Aug-2021 4669.00 4471.55 82.08 26.00 135.62 3039.49
   23:45:15.944.27-Aug-2021 4669.00 4471.36 82.08 26.00 135.82 3039.49
   23:45:16.145.27-Aug-2021 4669.00 4471.54 82.08 26.00 136.02 3039.49
   23:45:16.345.27-Aug-2021 4669.00 4471.54 82.08 26.00 136.22 3039.49
   23:45:16.545.27-Aug-2021 4669.00 4471.52 82.08 26.00 136.42 3039.49
   23:45:16.745.27-Aug-2021 4669.00 4471.43 82.08 26.00 136.62 3039.49
   23:45:16.945.27-Aug-2021 4669.00 4471.54 82.08 26.00 136.82 3039.49
   23:45:17.145.27-Aug-2021 4669.00 4471.46 82.08 26.00 137.02 3039.49
   23:45:17.345.27-Aug-2021 4669.00 4471.46 82.08 26.00 137.22 3039.49
   23:45:17.545.27-Aug-2021 4669.00 4471.50 82.08 26.00 137.42 3039.49
   23:45:17.745.27-Aug-2021 4669.00 4471.41 82.08 26.00 137.62 3039.49
   23:45:17.945.27-Aug-2021 4669.00 4471.55 82.08 26.00 137.82 3039.49
   23:45:18.145.27-Aug-2021 4669.00 4471.80 82.08 26.00 138.02 3039.49
   23:45:18.345.27-Aug-2021 4669.00 4471.80 82.08 26.00 138.22 3039.49
   23:45:18.545.27-Aug-2021 4669.00 4471.62 82.08 26.00 138.42 3039.49
   23:45:18.745.27-Aug-2021 4669.00 4471.55 82.08 26.00 138.62 3039.49
   23:45:18.945.27-Aug-2021 4669.00 4471.58 82.08 26.00 138.82 3039.49
   23:45:19.145.27-Aug-2021 4669.00 4471.59 82.08 26.00 139.02 3039.49
   23:45:19.345.27-Aug-2021 4669.00 4471.59 82.08 26.00 139.22 3039.49
   23:45:19.545.27-Aug-2021 4669.00 4471.62 82.08 26.00 139.42 3039.49
   23:45:19.745.27-Aug-2021 4669.00 4471.60 82.08 26.00 139.62 3039.49
   23:45:19.945.27-Aug-2021 4669.00 4471.64 82.08 26.00 139.82 3039.49
   23:45:20.145.27-Aug-2021 4669.00 4471.61 82.08 26.00 140.02 3039.49
   23:45:20.345.27-Aug-2021 4669.00 4471.61 82.08 26.00 140.22 3039.49
   23:45:20.545.27-Aug-2021 4669.00 4471.64 82.08 26.00 140.42 3039.49
   23:45:20.745.27-Aug-2021 4669.00 4471.67 82.08 26.00 140.62 3039.49
   23:45:20.945.27-Aug-2021 4669.00 4471.65 82.08 26.00 140.82 3039.49
   23:45:21.145.27-Aug-2021 4669.00 4471.51 82.08 26.00 141.02 3039.49
   23:45:21.345.27-Aug-2021 4669.00 4471.51 82.08 26.00 141.22 3039.49
   23:45:21.545.27-Aug-2021 4669.00 4471.67 82.08 26.00 141.42 3039.49
   23:45:21.745.27-Aug-2021 4669.00 4471.74 82.08 26.00 141.62 3039.49
   23:45:21.945.27-Aug-2021 4669.00 4471.68 82.08 26.00 141.82 3039.49
   23:45:22.145.27-Aug-2021 4669.00 4471.61 82.08 26.00 142.02 3039.49
   23:45:22.345.27-Aug-2021 4669.00 4471.61 82.08 26.00 142.22 3039.49
   23:45:22.545.27-Aug-2021 4669.00 4471.71 82.08 26.00 142.42 3039.49
   23:45:22.745.27-Aug-2021 4669.00 4471.76 82.08 26.00 142.62 3039.49
   23:45:22.945.27-Aug-2021 4669.00 4471.70 82.08 26.00 142.82 3039.49
   23:45:23.145.27-Aug-2021 4669.00 4471.77 82.08 26.00 143.02 3039.49
   23:45:23.345.27-Aug-2021 4669.00 4471.77 82.08 26.00 143.22 3039.49
   23:45:23.545.27-Aug-2021 4669.00 4471.63 82.08 26.00 143.42 3039.49
   23:45:23.745.27-Aug-2021 4669.00 4471.91 82.08 26.00 143.62 3039.49
   23:45:23.945.27-Aug-2021 4669.00 4471.83 82.08 26.00 143.82 3039.49
   23:45:24.146.27-Aug-2021 4669.00 4471.77 82.08 26.00 144.02 3039.49
   23:45:24.346.27-Aug-2021 4669.00 4471.77 82.08 26.00 144.22 3039.49
   23:45:24.546.27-Aug-2021 4669.00 4471.77 82.08 26.00 144.42 3039.49
   23:45:24.746.27-Aug-2021 4669.00 4471.61 82.08 26.00 144.62 3039.49
   23:45:24.946.27-Aug-2021 4669.00 4471.92 82.08 26.00 144.82 3039.49
   23:45:25.146.27-Aug-2021 4669.00 4471.75 82.08 26.00 145.02 3039.49
   23:45:25.346.27-Aug-2021 4669.00 4471.75 82.08 26.00 145.22 3039.49
   23:45:25.546.27-Aug-2021 4669.00 4471.77 82.08 26.00 145.42 3039.49
   23:45:25.746.27-Aug-2021 4669.00 4471.89 82.08 26.00 145.62 3039.49
   23:45:25.946.27-Aug-2021 4669.00 4471.76 82.08 26.00 145.82 3039.49
   23:45:26.146.27-Aug-2021 4669.00 4471.88 82.08 26.00 146.02 3039.49
   23:45:26.346.27-Aug-2021 4669.00 4471.88 82.08 26.00 146.22 3039.49
   23:45:26.546.27-Aug-2021 4669.00 4471.87 82.08 26.00 146.42 3039.49
   23:45:26.746.27-Aug-2021 4669.00 4471.84 82.08 26.00 146.62 3039.49
   23:45:26.946.27-Aug-2021 4669.00 4471.88 82.08 26.00 146.82 3039.49
   23:45:27.146.27-Aug-2021 4669.00 4471.86 82.08 26.00 147.02 3039.49
   23:45:27.346.27-Aug-2021 4669.00 4471.86 82.08 26.00 147.22 3039.49
   23:45:27.546.27-Aug-2021 4669.00 4471.86 82.08 26.00 147.42 3039.49
   23:45:27.746.27-Aug-2021 4669.00 4471.77 82.08 26.00 147.62 3039.49
   23:45:27.946.27-Aug-2021 4669.00 4471.94 82.08 26.00 147.82 3039.49
   23:45:28.146.27-Aug-2021 4669.00 4472.22 82.08 26.00 148.02 3039.49
   23:45:28.346.27-Aug-2021 4669.00 4472.22 82.08 26.00 148.22 3039.49
   23:45:28.546.27-Aug-2021 4669.00 4472.04 82.08 26.00 148.42 3039.49
   23:45:28.746.27-Aug-2021 4669.00 4471.85 82.08 26.00 148.62 3039.49
   23:45:28.946.27-Aug-2021 4669.00 4472.00 82.08 26.00 148.82 3039.49
   23:45:29.146.27-Aug-2021 4669.00 4471.92 82.08 26.00 149.02 3039.49
   23:45:29.346.27-Aug-2021 4669.00 4471.92 82.08 26.00 149.22 3039.49
   23:45:29.546.27-Aug-2021 4669.00 4471.94 82.08 26.00 149.42 3039.49
   23:45:29.746.27-Aug-2021 4669.00 4472.00 82.08 26.00 149.62 3039.49
   23:45:29.946.27-Aug-2021 4669.00 4471.97 82.08 26.00 149.82 3039.49
   23:45:30.146.27-Aug-2021 4669.00 4471.99 82.08 26.00 150.02 3039.49
   23:45:30.346.27-Aug-2021 4669.00 4471.99 82.08 26.00 150.22 3039.49
   23:45:30.546.27-Aug-2021 4669.00 4472.01 82.08 26.00 150.42 3039.49
   23:45:30.746.27-Aug-2021 4669.00 4472.00 82.08 26.00 150.62 3039.49
   23:45:30.946.27-Aug-2021 4669.00 4472.02 82.08 26.00 150.82 3039.49
   23:45:31.146.27-Aug-2021 4669.00 4471.85 82.08 26.00 151.02 3039.49
   23:45:31.346.27-Aug-2021 4669.00 4471.85 82.08 26.00 151.22 3039.49
   23:45:31.546.27-Aug-2021 4669.00 4472.08 82.08 26.00 151.42 3039.49
   23:45:31.746.27-Aug-2021 4669.00 4472.08 82.08 26.00 151.62 3039.49
   23:45:31.946.27-Aug-2021 4669.00 4472.03 82.08 26.00 151.82 3039.49
   23:45:32.147.27-Aug-2021 4669.00 4471.98 82.08 26.00 152.02 3039.49
   23:45:32.347.27-Aug-2021 4669.00 4471.98 82.08 26.00 152.22 3039.49
   23:45:32.547.27-Aug-2021 4669.00 4472.00 82.08 26.00 152.42 3039.49
   23:45:32.747.27-Aug-2021 4669.00 4472.19 82.08 26.00 152.62 3039.49
   23:45:32.947.27-Aug-2021 4669.00 4472.04 82.08 26.00 152.82 3039.49
   23:45:33.147.27-Aug-2021 4669.00 4472.15 82.08 26.00 153.02 3039.49
   23:45:33.347.27-Aug-2021 4669.00 4472.15 82.08 26.00 153.22 3039.49
   23:45:33.547.27-Aug-2021 4669.00 4471.98 82.08 26.00 153.42 3039.49
   23:45:33.747.27-Aug-2021 4669.00 4472.25 82.08 26.00 153.62 3039.49
   23:45:33.947.27-Aug-2021 4669.00 4472.20 82.08 26.00 153.82 3039.49
   23:45:34.147.27-Aug-2021 4669.00 4472.08 82.08 26.00 154.02 3039.49
   23:45:34.347.27-Aug-2021 4669.00 4472.08 82.08 26.00 154.22 3039.49
   23:45:34.547.27-Aug-2021 4669.00 4472.12 82.08 26.00 154.42 3039.49
   23:45:34.747.27-Aug-2021 4669.00 4471.92 82.08 26.00 154.62 3039.49
   23:45:34.947.27-Aug-2021 4669.00 4472.46 82.08 26.00 154.82 3039.49
   23:45:35.147.27-Aug-2021 4669.00 4471.99 82.08 26.00 155.02 3039.49
   23:45:35.347.27-Aug-2021 4669.00 4471.99 82.08 26.00 155.22 3039.49
   23:45:35.547.27-Aug-2021 4669.00 4472.06 82.08 26.00 155.42 3039.49
   23:45:35.747.27-Aug-2021 4669.00 4472.25 82.08 26.00 155.62 3039.49
   23:45:35.947.27-Aug-2021 4669.00 4472.10 82.08 26.00 155.82 3039.49
   23:45:36.147.27-Aug-2021 4669.00 4472.19 82.08 26.00 156.02 3039.49
   23:45:36.347.27-Aug-2021 4669.00 4472.19 82.08 26.00 156.22 3039.49
   23:45:36.547.27-Aug-2021 4669.00 4472.19 82.08 26.00 156.42 3039.49
   23:45:36.747.27-Aug-2021 4669.00 4472.19 82.08 26.00 156.62 3039.49
   23:45:36.947.27-Aug-2021 4669.00 4472.19 82.08 26.00 156.82 3039.49
   23:45:37.147.27-Aug-2021 4669.00 4472.21 82.08 26.00 157.02 3039.49
   23:45:37.347.27-Aug-2021 4669.00 4472.21 82.08 26.00 157.22 3039.49
   23:45:37.547.27-Aug-2021 4669.00 4472.23 82.08 26.00 157.42 3039.49
   23:45:37.747.27-Aug-2021 4669.00 4472.10 82.08 26.00 157.62 3039.49
   23:45:37.947.27-Aug-2021 4669.00 4472.26 82.08 26.00 157.82 3039.49
   23:45:38.147.27-Aug-2021 4669.00 4472.57 82.08 26.00 158.02 3039.49
