~Version Information
 VERS.                  2.0:   CWLS log ASCII Standard -VERSION 2.0
 WRAP.                   NO:   One line per depth step
~Well Information Block
#MNEM.UNIT     VALUE/NAME     DESCRIPTION
#---------     -----------    ---------------------------
 STRT.S             22:57:07 27-Aug-21: START TIME 22:57:07 27-Aug-21
 STOP.S             23:04:14 27-Aug-21: STOP TIME  23:04:14 27-Aug-21
 STEP.S                   0.00: STEP TIME
 NULL.                 -999.25: NULL VALUE
 DFWT.                        :  DIST FWL TEXT
 DFST.                        :  DIST FSL TEXT
 DMF .             Drill Floor:  DRILL MEAS FROM
 STIM.      20.00.00 17-Aug-21:  START TIME
 DATE.      19.00.00 29-Aug-21:  END TIME
 SPUD.               15-Aug-21:  SPUD DATE
 NREF.                    Grid:  NORTH REFERENCE
 HPTY.       Minimum Curvature:  HOLE POS TYPE
 DMOD.             Drill Model:  DRILL MOD DESC
 SVYD.                  Survey:  SURVEY DESC
 ILTD.               Lithology:  INTERP LTH DESC
 FTOP.          Formation Tops:  FORM TOPS DESC
 RIG .              East Azeri:  RIG NAME
 PDAT.          Mean Sea Level:  PERMANENT DATUM
 FLD .                     ACG:  FIELD NAME
 SON .        AZ-XX-0907180857:  JOB NUMBER
 CTRY.              Azerbaijan:  COUNTRY NAME
 WELL.                    D23x:  WELL NAME
 SRVC.     Turan Drilling and Engineering:  CONTRACTOR
 COMP.     BP Exploration (Caspian Sea) Ltd.:  COMPANY
 UWI .            /AZE00000214:  UNIQUE WELL IDENTIFIER
 API .            /AZE00000214:  API NUMBER
 MDS .        Operator Entered:  MAG DATA SOURCE
 BASE.              Azerbaijan:  LOGGING EQUIPMENT BASE LOCATION
 REGN.                   EESSA:  REGION
 PROV.                    Baku:  PROVINCE
 STAT.                    Baku:  STATE NAME
 MWDS.                    Baku:  MWD SHOP
 DOE .                     N/A:  DOE NUMBER
 DCON.         Sperry Drilling:  DIRECTNL CONTR
 UNIT.                     N/A:  LOGGING EQUIPMENT ID
 WTYP.                Deviated:  WELL TYPE
 CNTY.                        :  COUNTY
 LOC .                        :  LOCATION
 LMF .             Drill Floor:  LOG MEASURED FROM
 TVDS.m                  43.60:  TVDSS CORRECTN
 LATI.deg                40.02:  LATITUDE
 LONG.deg                51.45:  LONGITUDE
 WHNS.m                  -7.04:  WELL HEAD N/S
 WHEW.m                  -0.67:  WELL HEAD E/W
 UTMX.m              538762.90:  UTM X
 UTMY.m             4431871.34:  UTM Y
 DFWL.m                   0.00:  DISTANCE FWL
 DFSL.m                   0.00:  DISTANCE FSL
 SDEP.m                4127.00:  START DEPTH
 TDD .m                5084.50:  TOTAL DEPTH (DRILLER)
 VSDR.deg               140.47:  VERT SEC DIRECT
 GVFD.g                   1.00:  GRAVITY FIELD
 MFLD.nT              50362.00:  MAGNETIC FIELD
 MDIP.deg                59.48:  MAGNETIC DIP
 MDEC.deg                 6.47:  MAGNETIC DECL
 GRDC.deg                 0.31:  GRID CORRECTION
 AZTC.deg                 6.16:  AZM TOTAL CORR
 EPD .m                   0.00:  ELEVATION
 EGL .m                   0.00:  GROUND ELEVATION
 WDMS.m                 151.80:  WD ELEV
 APD .m                  43.60:  DEPTH ABOVE PD
 DEP .m                4092.57:  DEPTH
 AGAP.m                  43.60:  AIR GAP
 VSEW.m                  -0.67:  VERT SEC E/W
 VSNS.m                  -7.04:  VERT SEC N/S
 EKB .m                  43.60:  KB ELEVATION
 EDF .m                  43.60:  DF ELEVATION
 TDL .m                 957.50:  TOTAL DEPTH (LOGGER)
 VSC .                       0:  VS TO CLOSURE
 MAGU.                 1851413:  MAGUTM CHECKSUM
~Parameter Information Block
#MNEM.UNIT       Value        Description
#---------     -----------    ---------------------------
 AV  .mps                 1.50:  Ann Velocity 
 AVMX.mps                 2.00:  Max Ann Veloc 
 AZIF.deg               184.66:  Azm, Final 
 BHAT.        Rotary Steerable:  BHA Type 
 BREV.rev               300.00:  Rev Bit Total 
 BROT.°/30m              -0.50:  Build Rotating 
 BS  .in                  8.50:  Bit Size 
 BSZ .in                  8.50:  Bit Size 
 BTPL.psig              370.00:  Bit Press Loss 
 CABU.                      No:  Customer Abuse 
 CGEO.      Behruz Shahbaliyev:  Customer Geo 
 TCS .hr                140.08:  Time Ciculation Ended 
 CV  .mps                 3.00:  Crit Velocity 
 CVMX.mps                 3.20:  Max Crit Veloc 
 DD1 .            Musa Ahmadov:  Direct Drillr 1 
 DD2 .           Hamid Ahmadov:  Direct Drillr 2 
 DDSV.               Geo-Pilot:  DD Service 
 DEFF.%                  98.40:  % Det Eff 
 DLRX.°/30m               3.40:  Dogleg Rot Max 
 DLSO.°/30m               1.45:  Dogleg Oriented 
 DLSX.°/30m               3.40:  Dogleg Str Max 
 DRET.      18.40.00 29-Aug-21:  Drill End Time 
 DRST.      21.00.00 20-Aug-21:  Drill Start Tim 
 DTIM.hr                 69.47:  Time Drilling 
 EDEP.m                5084.50:  End Depth 
 ENG1.      Artemiy Matviyanov:  Engineer 1 
 ENG2.         Almaz Almadatov:  Engineer 2 
 ETIM.      18.40.00 29-Aug-21:  End Time 
 FLOI.gpm               500.00:  Flow In 
 FLON.gpm               400.00:  Flow In Min 
 FLOS.cptm                0.00:  Fluid Loss 
 FLOX.gpm               500.00:  Flow In Max 
 DFT .        Mineral Oil Base:  Mud Type 
 HFLO.                      No:  High Flow 
 HPRE.                      No:  High Pressure 
 HTEM.                      No:  High Temp 
 HYDO.m                   1.80:  Hydro Offset 
 IFIN.deg                25.62:  Inc, Final 
 IMAX.deg                48.69:  Inc Max 
 IMIN.deg                24.01:  Inc Min 
 IMND.m                4962.57:  Inc Min Depth 
 IMXD.m                4119.01:  Inc Max Depth 
 JARR.                      No:  Jarring 
 LETM.      18.40.00 29-Aug-21:  Log End Time 
 LOST.hr                     0:  Lost Rig Time 
 LSTM.      21.00.00 20-Aug-21:  Log Start Time 
 MDCL.ppm             41500.00:  Mud Chlorides 
 MDES.     Inversion Oil/Synthetic:  Mud Desc 
 DFD .sg                  1.56:  Mud Density 
 MDMN.sg                  1.56:  Dens Mud Min 
 MDMX.sg                  1.56:  Dens Mud Max 
 MOIL.                      70:  Run Mud Oil % 
 MOWR.                   70:30:  Run Mud OWR 
 MSND.                     0.2:  Run Mud Sand % 
 MSOL.                    23.3:  Run Mud Solids% 
 DFV .spqt               78.00:  Mud Viscosity 
 MWOD.in                  6.75:  MWD Tool OD 
 MWSI.                      No:  Serv Intrp, MWD 
 OTIM.hr                218.30:  Time Operating 
 PCON.           Look Like New:  Pad Condition 
 PMAX.psia            11015.30:  Press Op, Max 
 PV  .cP                 38.00:  Mud PV 
 RUN .                     300:  Run Number 
 ROPA.m/hr               15.00:  ROP Avg 
 ROPN.m/hr                9.00:  ROP Min 
 ROPX.m/hr               17.00:  ROP Max 
 RPMA.rpm               120.00:  RPM Surface Avg 
 RPMN.rpm                90.00:  RPM Surface Min 
 RPMX.rpm               140.00:  RPM Surface Max 
 RRUN.                     300:  Rig Run Number 
 RTIM.hr                 31.53:  Time Reaming 
 SAZI.deg               331.64:  Azm, Start 
 SDEP.m                4127.00:  Start Depth 
 SIDD.                      No:  Serv Intrp, DD 
 SINC.deg                48.43:  Inc, Start 
 SPPA.psig             5830.00:  SPP Avg 
 SPPN.psig             5600.00:  SPP Min 
 SPPX.psig             5900.00:  SPP Max 
 STIM.      21.00.00 20-Aug-21:  Start Time 
 SVCS.                 DD, MWD:  Services 
 SVER.                    9.20:  Sperry Version 
 TDAT.m                 957.50:  Tot Depth Attmp 
 TDDF.                      No:  Trip for DD 
 TDLG.m                 957.50:  Tot Depth Loggd 
 TFF .                      No:  Trip for Fail 
 TQAA.f-kp               15.00:  Torque Abs Avg 
 TQAN.f-kp               12.00:  Torque Abs Min 
 TQAX.f-kp               19.00:  Torque Abs Max 
 TRRT.°/30m              -3.40:  Turn Rotating 
 MRT .                  EWR-M5:  Maximum Recorded Temperature 
 TTMX.degC              100.00:  Max Tool Temp 
 VS01.                90639251:  Virtual Str1 SN 
 VS02.                90634715:  Virtual Str2 SN 
 VS03.                90652479:  Virtual Str3 SN 
 VS04.                90642262:  Virtual Str4 SN 
 WBMN.klb                 0.00:  WOB Min 
 WITN.           Murad Guliyev:  Customer Rep 
 WITN.          Yashar Gaziyev:  Customer Rep 2 
 WOBA.klb                 9.00:  WOB Avg 
 WOBX.klb                12.00:  WOB Max 
 YP  .lhf2               30.00:  Yield Point 
~Curve Information Block
#MNEM.UNIT                 API CODE     Curve Description
#---------               -----------    ---------------------------
 TIME.HHMMSS            00 000 000 000:  GT Time & Date
 GTDEPTH.m              00 000 000 000:  GT Depth
 GTPQH.psia             00 000 000 000:  GT HR Quartz Pressure
 GTTQ.degC              00 000 000 000:  GT Quartz Temperature
 GTTN.NONE              00 000 000 000:  GT Test Number
 GTET.sec               00 000 000 000:  GT Elapsed Test Time
 GTTVD.m                00 000 000 000:  GT True Vertical Depth
#Other Information
#
#WARRANTY: Halliburton will use its best efforts to furnish customers with 
#accurate information and interpretations that are part of, and incident to, the services 
#provided.  However, Halliburton cannot and does not warrant the accuracy 
#or correctness of such information and interpretations.  Under no circumstances should any 
#such information or interpretation be relied upon as the sole basis for any drilling, 
#completion, production, or financial decision or any procedure involving any risk to the 
#safety of any drilling venture, drilling rig or its crew or any other third party.  The 
#Customer has full responsibility for all drilling, completion and production operation.  
#Halliburton makes no representations or warranties, either expressed or 
#implied, including, but not limited to, the implied warranties of merchantability or fitness 
#for a particular purpose, with respect to the services rendered.  In no event will 
#Halliburton be liable for failure to obtain any particular results or for 
#any damages, including, but not limited to, indirect, special or consequential damages, 
#resulting from the use of any information or interpretation provided by Halliburton.
#
~A           TIME           GTDEPTH  GTPQH  GTTQ  GTTN   GTET   GTTVD  
# ...
   22:59:46.039.27-Aug-2021 4636.60 4009.46 82.24 25.00 158.22 3010.11
   22:59:46.239.27-Aug-2021 4636.60 4001.92 82.24 25.00 158.42 3010.11
   22:59:46.439.27-Aug-2021 4636.60 3998.00 82.24 25.00 158.62 3010.11
   22:59:46.639.27-Aug-2021 4636.60 3989.80 82.24 25.00 158.82 3010.11
   22:59:46.839.27-Aug-2021 4636.60 3982.69 82.24 25.00 159.02 3010.11
   22:59:47.039.27-Aug-2021 4636.60 3982.69 82.24 25.00 159.22 3010.11
   22:59:47.239.27-Aug-2021 4636.60 3973.26 82.24 25.00 159.42 3010.11
   22:59:47.439.27-Aug-2021 4636.60 3967.40 82.24 25.00 159.62 3010.11
   22:59:47.639.27-Aug-2021 4636.60 3959.59 82.24 25.00 159.82 3010.11
   22:59:47.839.27-Aug-2021 4636.60 3954.74 82.24 25.00 160.02 3010.11
   22:59:48.039.27-Aug-2021 4636.60 3954.74 82.24 25.00 160.22 3010.11
   22:59:48.239.27-Aug-2021 4636.60 3943.96 82.24 25.00 160.42 3010.11
   22:59:48.439.27-Aug-2021 4636.60 3939.44 82.24 25.00 160.62 3010.11
   22:59:48.639.27-Aug-2021 4636.60 3930.00 82.24 25.00 160.82 3010.11
   22:59:48.839.27-Aug-2021 4636.60 3928.21 82.24 25.00 161.02 3010.11
   22:59:49.039.27-Aug-2021 4636.60 3928.21 82.24 25.00 161.22 3010.11
   22:59:49.239.27-Aug-2021 4636.60 3922.80 82.24 25.00 161.42 3010.11
   22:59:49.439.27-Aug-2021 4636.60 3916.66 82.24 25.00 161.62 3010.11
   22:59:49.639.27-Aug-2021 4636.60 3914.34 82.24 25.00 161.82 3010.11
   22:59:49.839.27-Aug-2021 4636.60 3906.37 82.24 25.00 162.02 3010.11
   22:59:50.039.27-Aug-2021 4636.60 3906.37 82.24 25.00 162.22 3010.11
   22:59:50.239.27-Aug-2021 4636.60 3895.09 82.23 25.00 162.42 3010.11
   22:59:50.439.27-Aug-2021 4636.60 3887.21 82.23 25.00 162.62 3010.11
   22:59:50.639.27-Aug-2021 4636.60 3880.91 82.23 25.00 162.82 3010.11
   22:59:50.839.27-Aug-2021 4636.60 3878.59 82.23 25.00 163.02 3010.11
   22:59:51.039.27-Aug-2021 4636.60 3878.59 82.23 25.00 163.22 3010.11
   22:59:51.239.27-Aug-2021 4636.60 3871.47 82.23 25.00 163.42 3010.11
   22:59:51.439.27-Aug-2021 4636.60 3871.47 82.23 25.00 163.62 3010.11
   22:59:51.639.27-Aug-2021 4636.60 3873.73 82.23 25.00 163.82 3010.11
   22:59:51.839.27-Aug-2021 4636.60 3873.20 82.23 25.00 164.02 3010.11
   22:59:52.040.27-Aug-2021 4636.60 3873.20 82.23 25.00 164.22 3010.11
   22:59:52.240.27-Aug-2021 4636.60 3864.67 82.23 25.00 164.42 3010.11
   22:59:52.440.27-Aug-2021 4636.60 3858.88 82.23 25.00 164.62 3010.11
   22:59:52.640.27-Aug-2021 4636.60 3852.79 82.23 25.00 164.82 3010.11
   22:59:52.840.27-Aug-2021 4636.60 3850.04 82.23 25.00 165.02 3010.11
   22:59:53.040.27-Aug-2021 4636.60 3850.04 82.23 25.00 165.22 3010.11
   22:59:53.240.27-Aug-2021 4636.60 3834.90 82.23 25.00 165.42 3010.11
   22:59:53.440.27-Aug-2021 4636.60 3829.08 82.23 25.00 165.62 3010.11
   22:59:53.640.27-Aug-2021 4636.60 3822.91 82.23 25.00 165.82 3010.11
   22:59:53.840.27-Aug-2021 4636.60 3818.36 82.23 25.00 166.02 3010.11
   22:59:54.040.27-Aug-2021 4636.60 3818.36 82.23 25.00 166.22 3010.11
   22:59:54.240.27-Aug-2021 4636.60 3807.16 82.23 25.00 166.42 3010.11
   22:59:54.440.27-Aug-2021 4636.60 3997.41 82.23 25.00 166.62 3010.11
   22:59:54.640.27-Aug-2021 4636.60 4259.12 82.23 25.00 166.82 3010.11
   22:59:54.840.27-Aug-2021 4636.60 4383.16 82.23 25.00 167.02 3010.11
   22:59:55.040.27-Aug-2021 4636.60 4383.16 82.23 25.00 167.22 3010.11
   22:59:55.240.27-Aug-2021 4636.60 4466.12 82.23 25.00 167.42 3010.11
   22:59:55.440.27-Aug-2021 4636.60 4479.22 82.23 25.00 167.62 3010.11
   22:59:55.640.27-Aug-2021 4636.60 4486.13 82.23 25.00 167.82 3010.11
   22:59:55.840.27-Aug-2021 4636.60 4490.16 82.23 25.00 168.02 3010.11
   22:59:56.040.27-Aug-2021 4636.60 4490.16 82.23 25.00 168.22 3010.11
   22:59:56.240.27-Aug-2021 4636.60 4493.78 82.23 25.00 168.42 3010.11
   22:59:56.440.27-Aug-2021 4636.60 4494.76 82.23 25.00 168.62 3010.11
   22:59:56.640.27-Aug-2021 4636.60 4495.39 82.23 25.00 168.82 3010.11
   22:59:56.840.27-Aug-2021 4636.60 4495.96 82.23 25.00 169.02 3010.11
   22:59:57.040.27-Aug-2021 4636.60 4495.96 82.23 25.00 169.22 3010.11
   22:59:57.240.27-Aug-2021 4636.60 4497.94 82.23 25.00 169.42 3010.11
   22:59:57.440.27-Aug-2021 4636.60 4497.77 82.23 25.00 169.62 3010.11
   22:59:57.640.27-Aug-2021 4636.60 4497.68 82.23 25.00 169.82 3010.11
   22:59:57.840.27-Aug-2021 4636.60 4497.65 82.23 25.00 170.02 3010.11
   22:59:58.040.27-Aug-2021 4636.60 4497.65 82.23 25.00 170.22 3010.11
   22:59:58.240.27-Aug-2021 4636.60 4498.64 82.23 25.00 170.42 3010.11
   22:59:58.440.27-Aug-2021 4636.60 4498.53 82.23 25.00 170.62 3010.11
   22:59:58.640.27-Aug-2021 4636.60 4498.33 82.23 25.00 170.82 3010.11
   22:59:58.840.27-Aug-2021 4636.60 4499.37 82.23 25.00 171.02 3010.11
   22:59:59.040.27-Aug-2021 4636.60 4499.37 82.23 25.00 171.22 3010.11
   22:59:59.240.27-Aug-2021 4636.60 4499.05 82.23 25.00 171.42 3010.11
   22:59:59.440.27-Aug-2021 4636.60 4498.95 82.23 25.00 171.62 3010.11
   22:59:59.640.27-Aug-2021 4636.60 4498.92 82.23 25.00 171.82 3010.11
   22:59:59.840.27-Aug-2021 4636.60 4498.87 82.23 25.00 172.02 3010.11
   23:00:00.040.27-Aug-2021 4636.60 4498.87 82.23 25.00 172.22 3010.11
   23:00:00.240.27-Aug-2021 4636.60 4498.81 82.24 25.00 172.42 3010.11
   23:00:00.440.27-Aug-2021 4636.60 4498.80 82.24 25.00 172.62 3010.11
   23:00:00.640.27-Aug-2021 4636.60 4498.81 82.24 25.00 172.82 3010.11
   23:00:00.840.27-Aug-2021 4636.60 4498.82 82.24 25.00 173.02 3010.11
   23:00:01.040.27-Aug-2021 4636.60 4498.82 82.24 25.00 173.22 3010.11
   23:00:01.240.27-Aug-2021 4636.60 4498.87 82.24 25.00 173.42 3010.11
   23:00:01.440.27-Aug-2021 4636.60 4498.88 82.24 25.00 173.62 3010.11
   23:00:01.640.27-Aug-2021 4636.60 4498.88 82.24 25.00 173.82 3010.11
   23:00:01.841.27-Aug-2021 4636.60 4499.85 82.24 25.00 174.02 3010.11
   23:00:02.041.27-Aug-2021 4636.60 4499.85 82.24 25.00 174.22 3010.11
   23:00:02.241.27-Aug-2021 4636.60 4499.91 82.24 25.00 174.42 3010.11
   23:00:02.441.27-Aug-2021 4636.60 4499.81 82.24 25.00 174.62 3010.11
   23:00:02.641.27-Aug-2021 4636.60 4499.76 82.24 25.00 174.82 3010.11
   23:00:02.841.27-Aug-2021 4636.60 4499.69 82.24 25.00 175.02 3010.11
   23:00:03.041.27-Aug-2021 4636.60 4499.69 82.24 25.00 175.22 3010.11
   23:00:03.241.27-Aug-2021 4636.60 4499.61 82.24 25.00 175.42 3010.11
   23:00:03.441.27-Aug-2021 4636.60 4499.58 82.24 25.00 175.62 3010.11
   23:00:03.641.27-Aug-2021 4636.60 4499.54 82.24 25.00 175.82 3010.11
   23:00:03.841.27-Aug-2021 4636.60 4499.53 82.24 25.00 176.02 3010.11
   23:00:04.041.27-Aug-2021 4636.60 4499.53 82.24 25.00 176.22 3010.11
   23:00:04.241.27-Aug-2021 4636.60 4499.49 82.24 25.00 176.42 3010.11
   23:00:04.441.27-Aug-2021 4636.60 4499.48 82.24 25.00 176.62 3010.11
   23:00:04.641.27-Aug-2021 4636.60 4499.47 82.24 25.00 176.82 3010.11
   23:00:04.841.27-Aug-2021 4636.60 4499.46 82.24 25.00 177.02 3010.11
   23:00:05.041.27-Aug-2021 4636.60 4499.46 82.24 25.00 177.22 3010.11
   23:00:05.241.27-Aug-2021 4636.60 4500.63 82.24 25.00 177.42 3010.11
   23:00:05.441.27-Aug-2021 4636.60 4500.46 82.24 25.00 177.62 3010.11
   23:00:05.641.27-Aug-2021 4636.60 4500.34 82.24 25.00 177.82 3010.11
   23:00:05.841.27-Aug-2021 4636.60 4499.94 82.24 25.00 178.02 3010.11
   23:00:06.041.27-Aug-2021 4636.60 4499.94 82.24 25.00 178.22 3010.11
   23:00:06.241.27-Aug-2021 4636.60 4500.66 82.24 25.00 178.42 3010.11
   23:00:06.441.27-Aug-2021 4636.60 4500.57 82.24 25.00 178.62 3010.11
   23:00:06.641.27-Aug-2021 4636.60 4500.48 82.24 25.00 178.82 3010.11
   23:00:06.841.27-Aug-2021 4636.60 4500.44 82.24 25.00 179.02 3010.11
   23:00:07.041.27-Aug-2021 4636.60 4500.44 82.24 25.00 179.22 3010.11
   23:00:07.241.27-Aug-2021 4636.60 4500.75 82.24 25.00 179.42 3010.11
   23:00:07.441.27-Aug-2021 4636.60 4500.66 82.24 25.00 179.62 3010.11
   23:00:07.641.27-Aug-2021 4636.60 4500.21 82.24 25.00 179.82 3010.11
   23:00:07.841.27-Aug-2021 4636.60 4500.71 82.24 25.00 180.02 3010.11
   23:00:08.041.27-Aug-2021 4636.60 4500.71 82.24 25.00 180.22 3010.11
   23:00:08.241.27-Aug-2021 4636.60 4500.70 82.24 25.00 180.42 3010.11
   23:00:08.441.27-Aug-2021 4636.60 4500.64 82.24 25.00 180.62 3010.11
