~Version Information
 VERS.                  2.0:   CWLS log ASCII Standard -VERSION 2.0
 WRAP.                   NO:   One line per depth step
~Well Information Block
#MNEM.UNIT     VALUE/NAME     DESCRIPTION
#---------     -----------    ---------------------------
 STRT.S             23:43:00 27-Aug-21: START TIME 23:43:00 27-Aug-21
 STOP.S             23:50:14 27-Aug-21: STOP TIME  23:50:14 27-Aug-21
 STEP.S                   0.00: STEP TIME
 NULL.                 -999.25: NULL VALUE
 DFWT.                        :  DIST FWL TEXT
 DFST.                        :  DIST FSL TEXT
 DMF .             Drill Floor:  DRILL MEAS FROM
 STIM.      20.00.00 17-Aug-21:  START TIME
 DATE.      19.00.00 29-Aug-21:  END TIME
 SPUD.               15-Aug-21:  SPUD DATE
 NREF.                    Grid:  NORTH REFERENCE
 HPTY.       Minimum Curvature:  HOLE POS TYPE
 DMOD.             Drill Model:  DRILL MOD DESC
 SVYD.                  Survey:  SURVEY DESC
 ILTD.               Lithology:  INTERP LTH DESC
 FTOP.          Formation Tops:  FORM TOPS DESC
 RIG .              East Azeri:  RIG NAME
 PDAT.          Mean Sea Level:  PERMANENT DATUM
 FLD .                     ACG:  FIELD NAME
 SON .        AZ-XX-0907180857:  JOB NUMBER
 CTRY.              Azerbaijan:  COUNTRY NAME
 WELL.                    D23x:  WELL NAME
 SRVC.     Turan Drilling and Engineering:  CONTRACTOR
 COMP.     BP Exploration (Caspian Sea) Ltd.:  COMPANY
 UWI .            /AZE00000214:  UNIQUE WELL IDENTIFIER
 API .            /AZE00000214:  API NUMBER
 MDS .        Operator Entered:  MAG DATA SOURCE
 BASE.              Azerbaijan:  LOGGING EQUIPMENT BASE LOCATION
 REGN.                   EESSA:  REGION
 PROV.                    Baku:  PROVINCE
 STAT.                    Baku:  STATE NAME
 MWDS.                    Baku:  MWD SHOP
 DOE .                     N/A:  DOE NUMBER
 DCON.         Sperry Drilling:  DIRECTNL CONTR
 UNIT.                     N/A:  LOGGING EQUIPMENT ID
 WTYP.                Deviated:  WELL TYPE
 CNTY.                        :  COUNTY
 LOC .                        :  LOCATION
 LMF .             Drill Floor:  LOG MEASURED FROM
 TVDS.m                  43.60:  TVDSS CORRECTN
 LATI.deg                40.02:  LATITUDE
 LONG.deg                51.45:  LONGITUDE
 WHNS.m                  -7.04:  WELL HEAD N/S
 WHEW.m                  -0.67:  WELL HEAD E/W
 UTMX.m              538762.90:  UTM X
 UTMY.m             4431871.34:  UTM Y
 DFWL.m                   0.00:  DISTANCE FWL
 DFSL.m                   0.00:  DISTANCE FSL
 SDEP.m                4127.00:  START DEPTH
 TDD .m                5084.50:  TOTAL DEPTH (DRILLER)
 VSDR.deg               140.47:  VERT SEC DIRECT
 GVFD.g                   1.00:  GRAVITY FIELD
 MFLD.nT              50362.00:  MAGNETIC FIELD
 MDIP.deg                59.48:  MAGNETIC DIP
 MDEC.deg                 6.47:  MAGNETIC DECL
 GRDC.deg                 0.31:  GRID CORRECTION
 AZTC.deg                 6.16:  AZM TOTAL CORR
 EPD .m                   0.00:  ELEVATION
 EGL .m                   0.00:  GROUND ELEVATION
 WDMS.m                 151.80:  WD ELEV
 APD .m                  43.60:  DEPTH ABOVE PD
 DEP .m                4092.57:  DEPTH
 AGAP.m                  43.60:  AIR GAP
 VSEW.m                  -0.67:  VERT SEC E/W
 VSNS.m                  -7.04:  VERT SEC N/S
 EKB .m                  43.60:  KB ELEVATION
 EDF .m                  43.60:  DF ELEVATION
 TDL .m                 957.50:  TOTAL DEPTH (LOGGER)
 VSC .                       0:  VS TO CLOSURE
 MAGU.                 1851413:  MAGUTM CHECKSUM
~Parameter Information Block
#MNEM.UNIT       Value        Description
#---------     -----------    ---------------------------
 AV  .mps                 1.50:  Ann Velocity 
 AVMX.mps                 2.00:  Max Ann Veloc 
 AZIF.deg               184.66:  Azm, Final 
 BHAT.        Rotary Steerable:  BHA Type 
 BREV.rev               300.00:  Rev Bit Total 
 BROT.°/30m              -0.50:  Build Rotating 
 BS  .in                  8.50:  Bit Size 
 BSZ .in                  8.50:  Bit Size 
 BTPL.psig              370.00:  Bit Press Loss 
 CABU.                      No:  Customer Abuse 
 CGEO.      Behruz Shahbaliyev:  Customer Geo 
 COMM.                     Ì™‡:  Run Comments 1 
 TCS .hr                140.08:  Time Ciculation Ended 
 CV  .mps                 3.00:  Crit Velocity 
 CVMX.mps                 3.20:  Max Crit Veloc 
 DD1 .            Musa Ahmadov:  Direct Drillr 1 
 DD2 .           Hamid Ahmadov:  Direct Drillr 2 
 DDSV.               Geo-Pilot:  DD Service 
 DEFF.%                  98.40:  % Det Eff 
 DLRX.°/30m               3.40:  Dogleg Rot Max 
 DLSO.°/30m               1.45:  Dogleg Oriented 
 DLSX.°/30m               3.40:  Dogleg Str Max 
 DRET.      18.40.00 29-Aug-21:  Drill End Time 
 DRST.      21.00.00 20-Aug-21:  Drill Start Tim 
 DTIM.hr                 69.47:  Time Drilling 
 EDEP.m                5084.50:  End Depth 
 ENG1.      Artemiy Matviyanov:  Engineer 1 
 ENG2.         Almaz Almadatov:  Engineer 2 
 ETIM.      18.40.00 29-Aug-21:  End Time 
 FLOI.gpm               500.00:  Flow In 
 FLON.gpm               400.00:  Flow In Min 
 FLOS.cptm                0.00:  Fluid Loss 
 FLOX.gpm               500.00:  Flow In Max 
 DFT .        Mineral Oil Base:  Mud Type 
 HFLO.                      No:  High Flow 
 HPRE.                      No:  High Pressure 
 HTEM.                      No:  High Temp 
 HYDO.m                   1.80:  Hydro Offset 
 IFIN.deg                25.62:  Inc, Final 
 IMAX.deg                48.69:  Inc Max 
 IMIN.deg                24.01:  Inc Min 
 IMND.m                4962.57:  Inc Min Depth 
 IMXD.m                4119.01:  Inc Max Depth 
 JARR.                      No:  Jarring 
 LETM.      18.40.00 29-Aug-21:  Log End Time 
 LOST.hr                     0:  Lost Rig Time 
 LSTM.      21.00.00 20-Aug-21:  Log Start Time 
 MDCL.ppm             41500.00:  Mud Chlorides 
 MDES.     Inversion Oil/Synthetic:  Mud Desc 
 DFD .sg                  1.56:  Mud Density 
 MDMN.sg                  1.56:  Dens Mud Min 
 MDMX.sg                  1.56:  Dens Mud Max 
 MOIL.                      70:  Run Mud Oil % 
 MOWR.                   70:30:  Run Mud OWR 
 MSND.                     0.2:  Run Mud Sand % 
 MSOL.                    23.3:  Run Mud Solids% 
 DFV .spqt               78.00:  Mud Viscosity 
 MWOD.in                  6.75:  MWD Tool OD 
 MWSI.                      No:  Serv Intrp, MWD 
 OTIM.hr                218.30:  Time Operating 
 PCON.           Look Like New:  Pad Condition 
 PMAX.psia            11015.30:  Press Op, Max 
 PV  .cP                 38.00:  Mud PV 
 RUN .                     300:  Run Number 
 ROPA.m/hr               15.00:  ROP Avg 
 ROPN.m/hr                9.00:  ROP Min 
 ROPX.m/hr               17.00:  ROP Max 
 RPMA.rpm               120.00:  RPM Surface Avg 
 RPMN.rpm                90.00:  RPM Surface Min 
 RPMX.rpm               140.00:  RPM Surface Max 
 RRUN.                     300:  Rig Run Number 
 RTIM.hr                 31.53:  Time Reaming 
 SAZI.deg               331.64:  Azm, Start 
 SDEP.m                4127.00:  Start Depth 
 SIDD.                      No:  Serv Intrp, DD 
 SINC.deg                48.43:  Inc, Start 
 SPPA.psig             5830.00:  SPP Avg 
 SPPN.psig             5600.00:  SPP Min 
 SPPX.psig             5900.00:  SPP Max 
 STIM.      21.00.00 20-Aug-21:  Start Time 
 SVCS.                 DD, MWD:  Services 
 SVER.                    9.20:  Sperry Version 
 TDAT.m                 957.50:  Tot Depth Attmp 
 TDDF.                      No:  Trip for DD 
 TDLG.m                 957.50:  Tot Depth Loggd 
 TFF .                      No:  Trip for Fail 
 TQAA.f-kp               15.00:  Torque Abs Avg 
 TQAN.f-kp               12.00:  Torque Abs Min 
 TQAX.f-kp               19.00:  Torque Abs Max 
 TRRT.°/30m              -3.40:  Turn Rotating 
 MRT .                  EWR-M5:  Maximum Recorded Temperature 
 TTMX.degC              100.00:  Max Tool Temp 
 VS01.                90639251:  Virtual Str1 SN 
 VS02.                90634715:  Virtual Str2 SN 
 VS03.                90652479:  Virtual Str3 SN 
 VS04.                90642262:  Virtual Str4 SN 
 WBMN.klb                 0.00:  WOB Min 
 WITN.           Murad Guliyev:  Customer Rep 
 WITN.          Yashar Gaziyev:  Customer Rep 2 
 WOBA.klb                 9.00:  WOB Avg 
 WOBX.klb                12.00:  WOB Max 
 YP  .lhf2               30.00:  Yield Point 
~Curve Information Block
#MNEM.UNIT                 API CODE     Curve Description
#---------               -----------    ---------------------------
 TIME.HHMMSS            00 000 000 000:  GT Time & Date
 GTDEPTH.m              00 000 000 000:  GT Depth
 GTPQH.psia             00 000 000 000:  GT HR Quartz Pressure
 GTTQ.degC              00 000 000 000:  GT Quartz Temperature
 GTTN.NONE              00 000 000 000:  GT Test Number
 GTET.sec               00 000 000 000:  GT Elapsed Test Time
 GTTVD.m                00 000 000 000:  GT True Vertical Depth
#Other Information
#
#WARRANTY: Halliburton will use its best efforts to furnish customers with 
#accurate information and interpretations that are part of, and incident to, the services 
#provided.  However, Halliburton cannot and does not warrant the accuracy 
#or correctness of such information and interpretations.  Under no circumstances should any 
#such information or interpretation be relied upon as the sole basis for any drilling, 
#completion, production, or financial decision or any procedure involving any risk to the 
#safety of any drilling venture, drilling rig or its crew or any other third party.  The 
#Customer has full responsibility for all drilling, completion and production operation.  
#Halliburton makes no representations or warranties, either expressed or 
#implied, including, but not limited to, the implied warranties of merchantability or fitness 
#for a particular purpose, with respect to the services rendered.  In no event will 
#Halliburton be liable for failure to obtain any particular results or for 
#any damages, including, but not limited to, indirect, special or consequential damages, 
#resulting from the use of any information or interpretation provided by Halliburton.
#
~A           TIME           GTDEPTH  GTPQH  GTTQ  GTTN   GTET   GTTVD  
# ...
   23:49:24.376.27-Aug-2021 4669.00 7270.06 82.09 26.00 384.25 3039.49
   23:49:24.576.27-Aug-2021 4669.00 7269.72 82.09 26.00 384.45 3039.49
   23:49:24.776.27-Aug-2021 4669.00 7270.09 82.10 26.00 384.65 3039.49
   23:49:24.976.27-Aug-2021 4669.00 7270.10 82.10 26.00 384.85 3039.49
   23:49:25.176.27-Aug-2021 4669.00 7270.65 82.10 26.00 385.05 3039.49
   23:49:25.376.27-Aug-2021 4669.00 7270.65 82.10 26.00 385.25 3039.49
   23:49:25.576.27-Aug-2021 4669.00 7270.22 82.10 26.00 385.45 3039.49
   23:49:25.776.27-Aug-2021 4669.00 7270.58 82.10 26.00 385.65 3039.49
   23:49:25.976.27-Aug-2021 4669.00 7270.22 82.10 26.00 385.85 3039.49
   23:49:26.176.27-Aug-2021 4669.00 7270.43 82.11 26.00 386.05 3039.49
   23:49:26.376.27-Aug-2021 4669.00 7270.43 82.11 26.00 386.25 3039.49
   23:49:26.576.27-Aug-2021 4669.00 7270.49 82.11 26.00 386.45 3039.49
   23:49:26.776.27-Aug-2021 4669.00 7270.27 82.11 26.00 386.65 3039.49
   23:49:26.976.27-Aug-2021 4669.00 7270.17 82.11 26.00 386.85 3039.49
   23:49:27.176.27-Aug-2021 4669.00 7270.11 82.11 26.00 387.05 3039.49
   23:49:27.376.27-Aug-2021 4669.00 7270.11 82.11 26.00 387.25 3039.49
   23:49:27.576.27-Aug-2021 4669.00 7270.11 82.11 26.00 387.45 3039.49
   23:49:27.776.27-Aug-2021 4669.00 7269.56 82.11 26.00 387.65 3039.49
   23:49:27.976.27-Aug-2021 4669.00 7270.74 82.11 26.00 387.85 3039.49
   23:49:28.176.27-Aug-2021 4669.00 7270.26 82.11 26.00 388.05 3039.49
   23:49:28.376.27-Aug-2021 4669.00 7270.26 82.11 26.00 388.25 3039.49
   23:49:28.576.27-Aug-2021 4669.00 7270.70 82.12 26.00 388.45 3039.49
   23:49:28.776.27-Aug-2021 4669.00 7270.42 82.12 26.00 388.65 3039.49
   23:49:28.976.27-Aug-2021 4669.00 7270.77 82.12 26.00 388.85 3039.49
   23:49:29.176.27-Aug-2021 4669.00 7270.43 82.12 26.00 389.05 3039.49
   23:49:29.376.27-Aug-2021 4669.00 7270.43 82.12 26.00 389.25 3039.49
   23:49:29.576.27-Aug-2021 4669.00 7270.62 82.12 26.00 389.45 3039.49
   23:49:29.776.27-Aug-2021 4669.00 7270.68 82.12 26.00 389.65 3039.49
   23:49:29.976.27-Aug-2021 4669.00 7270.54 82.12 26.00 389.85 3039.49
   23:49:30.176.27-Aug-2021 4669.00 7270.37 82.12 26.00 390.05 3039.49
   23:49:30.376.27-Aug-2021 4669.00 7270.37 82.12 26.00 390.25 3039.49
   23:49:30.576.27-Aug-2021 4669.00 7270.15 82.12 26.00 390.45 3039.49
   23:49:30.776.27-Aug-2021 4669.00 7270.11 82.12 26.00 390.65 3039.49
   23:49:30.976.27-Aug-2021 4669.00 7274.34 82.12 26.00 390.85 3039.49
   23:49:31.176.27-Aug-2021 4669.00 7269.42 82.12 26.00 391.05 3039.49
   23:49:31.376.27-Aug-2021 4669.00 7269.42 82.12 26.00 391.25 3039.49
   23:49:31.576.27-Aug-2021 4669.00 7270.25 82.12 26.00 391.45 3039.49
   23:49:31.776.27-Aug-2021 4669.00 7271.16 82.12 26.00 391.65 3039.49
   23:49:31.977.27-Aug-2021 4669.00 7274.53 82.12 26.00 391.85 3039.49
   23:49:32.177.27-Aug-2021 4669.00 7269.15 82.12 26.00 392.05 3039.49
   23:49:32.377.27-Aug-2021 4669.00 7269.15 82.12 26.00 392.25 3039.49
   23:49:32.577.27-Aug-2021 4669.00 7270.25 82.12 26.00 392.45 3039.49
   23:49:32.777.27-Aug-2021 4669.00 7271.42 82.12 26.00 392.65 3039.49
   23:49:32.977.27-Aug-2021 4669.00 7274.61 82.12 26.00 392.85 3039.49
   23:49:33.177.27-Aug-2021 4669.00 7269.76 82.12 26.00 393.05 3039.49
   23:49:33.377.27-Aug-2021 4669.00 7269.76 82.12 26.00 393.25 3039.49
   23:49:33.577.27-Aug-2021 4669.00 7270.42 82.12 26.00 393.45 3039.49
   23:49:33.777.27-Aug-2021 4669.00 7275.15 82.12 26.00 393.65 3039.49
   23:49:33.977.27-Aug-2021 4669.00 7269.14 82.12 26.00 393.85 3039.49
   23:49:34.177.27-Aug-2021 4669.00 7271.08 82.12 26.00 394.05 3039.49
   23:49:34.377.27-Aug-2021 4669.00 7271.08 82.12 26.00 394.25 3039.49
   23:49:34.577.27-Aug-2021 4669.00 7271.13 82.12 26.00 394.45 3039.49
   23:49:34.777.27-Aug-2021 4669.00 7270.48 82.12 26.00 394.65 3039.49
   23:49:34.977.27-Aug-2021 4669.00 7270.42 82.12 26.00 394.85 3039.49
   23:49:35.177.27-Aug-2021 4669.00 7270.99 82.12 26.00 395.05 3039.49
   23:49:35.377.27-Aug-2021 4669.00 7270.99 82.12 26.00 395.25 3039.49
   23:49:35.577.27-Aug-2021 4669.00 7270.52 82.12 26.00 395.45 3039.49
   23:49:35.777.27-Aug-2021 4669.00 7270.52 82.12 26.00 395.65 3039.49
   23:49:35.977.27-Aug-2021 4669.00 7270.53 82.12 26.00 395.85 3039.49
   23:49:36.177.27-Aug-2021 4669.00 7270.46 82.12 26.00 396.05 3039.49
   23:49:36.377.27-Aug-2021 4669.00 7270.46 82.12 26.00 396.25 3039.49
   23:49:36.577.27-Aug-2021 4669.00 7270.53 82.12 26.00 396.45 3039.49
   23:49:36.777.27-Aug-2021 4669.00 7270.51 82.12 26.00 396.65 3039.49
   23:49:36.977.27-Aug-2021 4669.00 7274.43 82.12 26.00 396.85 3039.49
   23:49:37.177.27-Aug-2021 4669.00 7269.36 82.12 26.00 397.05 3039.49
   23:49:37.377.27-Aug-2021 4669.00 7269.36 82.12 26.00 397.25 3039.49
   23:49:37.577.27-Aug-2021 4669.00 7270.18 82.12 26.00 397.45 3039.49
   23:49:37.777.27-Aug-2021 4669.00 7271.17 82.12 26.00 397.65 3039.49
   23:49:37.977.27-Aug-2021 4669.00 7270.57 82.12 26.00 397.85 3039.49
   23:49:38.177.27-Aug-2021 4669.00 7270.32 82.12 26.00 398.05 3039.49
   23:49:38.377.27-Aug-2021 4669.00 7270.32 82.12 26.00 398.25 3039.49
   23:49:38.577.27-Aug-2021 4669.00 7270.48 82.12 26.00 398.45 3039.49
   23:49:38.777.27-Aug-2021 4669.00 7270.61 82.12 26.00 398.65 3039.49
   23:49:38.977.27-Aug-2021 4669.00 7270.58 82.12 26.00 398.85 3039.49
   23:49:39.177.27-Aug-2021 4669.00 7270.63 82.12 26.00 399.05 3039.49
   23:49:39.377.27-Aug-2021 4669.00 7270.63 82.12 26.00 399.25 3039.49
   23:49:39.577.27-Aug-2021 4669.00 7270.43 82.12 26.00 399.45 3039.49
   23:49:39.777.27-Aug-2021 4669.00 7270.31 82.12 26.00 399.65 3039.49
   23:49:39.978.27-Aug-2021 4669.00 7270.33 82.12 26.00 399.85 3039.49
   23:49:40.178.27-Aug-2021 4669.00 7270.25 82.12 26.00 400.05 3039.49
   23:49:40.378.27-Aug-2021 4669.00 7270.25 82.12 26.00 400.25 3039.49
   23:49:40.578.27-Aug-2021 4669.00 7269.50 82.12 26.00 400.45 3039.49
   23:49:40.778.27-Aug-2021 4669.00 7270.78 82.12 26.00 400.65 3039.49
   23:49:40.978.27-Aug-2021 4669.00 7270.31 82.11 26.00 400.85 3039.49
   23:49:41.178.27-Aug-2021 4669.00 7271.50 82.11 26.00 401.05 3039.49
   23:49:41.378.27-Aug-2021 4669.00 7271.50 82.11 26.00 401.25 3039.49
   23:49:41.578.27-Aug-2021 4669.00 7270.19 82.11 26.00 401.45 3039.49
   23:49:41.778.27-Aug-2021 4669.00 7270.90 82.11 26.00 401.65 3039.49
   23:49:41.978.27-Aug-2021 4669.00 7270.47 82.11 26.00 401.85 3039.49
   23:49:42.178.27-Aug-2021 4669.00 7270.58 82.11 26.00 402.05 3039.49
   23:49:42.378.27-Aug-2021 4669.00 7270.58 82.11 26.00 402.25 3039.49
   23:49:42.578.27-Aug-2021 4669.00 7273.54 82.11 26.00 402.45 3039.49
   23:49:42.778.27-Aug-2021 4669.00 7270.20 82.11 26.00 402.65 3039.49
   23:49:42.978.27-Aug-2021 4669.00 7270.13 82.11 26.00 402.85 3039.49
   23:49:43.178.27-Aug-2021 4669.00 7270.55 82.11 26.00 403.05 3039.49
   23:49:43.378.27-Aug-2021 4669.00 7270.55 82.11 26.00 403.25 3039.49
   23:49:43.578.27-Aug-2021 4669.00 7276.88 82.11 26.00 403.45 3039.49
   23:49:43.778.27-Aug-2021 4669.00 7266.68 82.11 26.00 403.65 3039.49
   23:49:43.978.27-Aug-2021 4669.00 7270.36 82.11 26.00 403.85 3039.49
   23:49:44.178.27-Aug-2021 4669.00 7269.70 82.11 26.00 404.05 3039.49
   23:49:44.378.27-Aug-2021 4669.00 7269.70 82.11 26.00 404.25 3039.49
   23:49:44.578.27-Aug-2021 4669.00 7269.93 82.11 26.00 404.45 3039.49
   23:49:44.778.27-Aug-2021 4669.00 7270.45 82.11 26.00 404.65 3039.49
   23:49:44.978.27-Aug-2021 4669.00 7270.83 82.11 26.00 404.85 3039.49
   23:49:45.178.27-Aug-2021 4669.00 7270.49 82.11 26.00 405.05 3039.49
   23:49:45.378.27-Aug-2021 4669.00 7270.49 82.11 26.00 405.25 3039.49
   23:49:45.578.27-Aug-2021 4669.00 7270.74 82.11 26.00 405.45 3039.49
   23:49:45.778.27-Aug-2021 4669.00 7270.74 82.11 26.00 405.65 3039.49
   23:49:45.978.27-Aug-2021 4669.00 7270.55 82.11 26.00 405.85 3039.49
   23:49:46.178.27-Aug-2021 4669.00 7270.55 82.11 26.00 406.05 3039.49
   23:49:46.378.27-Aug-2021 4669.00 7270.55 82.11 26.00 406.25 3039.49
   23:49:46.578.27-Aug-2021 4669.00 7270.55 82.11 26.00 406.45 3039.49
   23:49:46.778.27-Aug-2021 4669.00 7276.58 82.11 26.00 406.65 3039.49
