~Version Information
 VERS.                  2.0:   CWLS log ASCII Standard -VERSION 2.0
 WRAP.                   NO:   One line per depth step
~Well Information Block
#MNEM.UNIT     VALUE/NAME     DESCRIPTION
#---------     -----------    ---------------------------
 STRT.S             04:10:22 28-Aug-21: START TIME 04:10:22 28-Aug-21
 STOP.S             04:17:14 28-Aug-21: STOP TIME  04:17:14 28-Aug-21
 STEP.S                   0.00: STEP TIME
 NULL.                 -999.25: NULL VALUE
 DFWT.                        :  DIST FWL TEXT
 DFST.                        :  DIST FSL TEXT
 DMF .             Drill Floor:  DRILL MEAS FROM
 STIM.      20.00.00 17-Aug-21:  START TIME
 DATE.      19.00.00 29-Aug-21:  END TIME
 SPUD.               15-Aug-21:  SPUD DATE
 NREF.                    Grid:  NORTH REFERENCE
 HPTY.       Minimum Curvature:  HOLE POS TYPE
 DMOD.             Drill Model:  DRILL MOD DESC
 SVYD.                  Survey:  SURVEY DESC
 ILTD.               Lithology:  INTERP LTH DESC
 FTOP.          Formation Tops:  FORM TOPS DESC
 RIG .              East Azeri:  RIG NAME
 PDAT.          Mean Sea Level:  PERMANENT DATUM
 FLD .                     ACG:  FIELD NAME
 SON .        AZ-XX-0907180857:  JOB NUMBER
 CTRY.              Azerbaijan:  COUNTRY NAME
 WELL.                    D23x:  WELL NAME
 SRVC.     Turan Drilling and Engineering:  CONTRACTOR
 COMP.     BP Exploration (Caspian Sea) Ltd.:  COMPANY
 UWI .            /AZE00000214:  UNIQUE WELL IDENTIFIER
 API .            /AZE00000214:  API NUMBER
 MDS .        Operator Entered:  MAG DATA SOURCE
 BASE.              Azerbaijan:  LOGGING EQUIPMENT BASE LOCATION
 REGN.                   EESSA:  REGION
 PROV.                    Baku:  PROVINCE
 STAT.                    Baku:  STATE NAME
 MWDS.                    Baku:  MWD SHOP
 DOE .                     N/A:  DOE NUMBER
 DCON.         Sperry Drilling:  DIRECTNL CONTR
 UNIT.                     N/A:  LOGGING EQUIPMENT ID
 WTYP.                Deviated:  WELL TYPE
 CNTY.                        :  COUNTY
 LOC .                        :  LOCATION
 LMF .             Drill Floor:  LOG MEASURED FROM
 TVDS.m                  43.60:  TVDSS CORRECTN
 LATI.deg                40.02:  LATITUDE
 LONG.deg                51.45:  LONGITUDE
 WHNS.m                  -7.04:  WELL HEAD N/S
 WHEW.m                  -0.67:  WELL HEAD E/W
 UTMX.m              538762.90:  UTM X
 UTMY.m             4431871.34:  UTM Y
 DFWL.m                   0.00:  DISTANCE FWL
 DFSL.m                   0.00:  DISTANCE FSL
 SDEP.m                4127.00:  START DEPTH
 TDD .m                5084.50:  TOTAL DEPTH (DRILLER)
 VSDR.deg               140.47:  VERT SEC DIRECT
 GVFD.g                   1.00:  GRAVITY FIELD
 MFLD.nT              50362.00:  MAGNETIC FIELD
 MDIP.deg                59.48:  MAGNETIC DIP
 MDEC.deg                 6.47:  MAGNETIC DECL
 GRDC.deg                 0.31:  GRID CORRECTION
 AZTC.deg                 6.16:  AZM TOTAL CORR
 EPD .m                   0.00:  ELEVATION
 EGL .m                   0.00:  GROUND ELEVATION
 WDMS.m                 151.80:  WD ELEV
 APD .m                  43.60:  DEPTH ABOVE PD
 DEP .m                4092.57:  DEPTH
 AGAP.m                  43.60:  AIR GAP
 VSEW.m                  -0.67:  VERT SEC E/W
 VSNS.m                  -7.04:  VERT SEC N/S
 EKB .m                  43.60:  KB ELEVATION
 EDF .m                  43.60:  DF ELEVATION
 TDL .m                 957.50:  TOTAL DEPTH (LOGGER)
 VSC .                       0:  VS TO CLOSURE
 MAGU.                 1851413:  MAGUTM CHECKSUM
~Parameter Information Block
#MNEM.UNIT       Value        Description
#---------     -----------    ---------------------------
 AV  .mps                 1.50:  Ann Velocity 
 AVMX.mps                 2.00:  Max Ann Veloc 
 AZIF.deg               184.66:  Azm, Final 
 BHAT.        Rotary Steerable:  BHA Type 
 BREV.rev               300.00:  Rev Bit Total 
 BROT.°/30m              -0.50:  Build Rotating 
 BS  .in                  8.50:  Bit Size 
 BSZ .in                  8.50:  Bit Size 
 BTPL.psig              370.00:  Bit Press Loss 
 CABU.                      No:  Customer Abuse 
 CGEO.      Behruz Shahbaliyev:  Customer Geo 
 COMM.                     LÁp:  Run Comments 1 
 TCS .hr                140.08:  Time Ciculation Ended 
 CV  .mps                 3.00:  Crit Velocity 
 CVMX.mps                 3.20:  Max Crit Veloc 
 DD1 .            Musa Ahmadov:  Direct Drillr 1 
 DD2 .           Hamid Ahmadov:  Direct Drillr 2 
 DDSV.               Geo-Pilot:  DD Service 
 DEFF.%                  98.40:  % Det Eff 
 DLRX.°/30m               3.40:  Dogleg Rot Max 
 DLSO.°/30m               1.45:  Dogleg Oriented 
 DLSX.°/30m               3.40:  Dogleg Str Max 
 DRET.      18.40.00 29-Aug-21:  Drill End Time 
 DRST.      21.00.00 20-Aug-21:  Drill Start Tim 
 DTIM.hr                 69.47:  Time Drilling 
 EDEP.m                5084.50:  End Depth 
 ENG1.      Artemiy Matviyanov:  Engineer 1 
 ENG2.         Almaz Almadatov:  Engineer 2 
 ETIM.      18.40.00 29-Aug-21:  End Time 
 FLOI.gpm               500.00:  Flow In 
 FLON.gpm               400.00:  Flow In Min 
 FLOS.cptm                0.00:  Fluid Loss 
 FLOX.gpm               500.00:  Flow In Max 
 DFT .        Mineral Oil Base:  Mud Type 
 HFLO.                      No:  High Flow 
 HPRE.                      No:  High Pressure 
 HTEM.                      No:  High Temp 
 HYDO.m                   1.80:  Hydro Offset 
 IFIN.deg                25.62:  Inc, Final 
 IMAX.deg                48.69:  Inc Max 
 IMIN.deg                24.01:  Inc Min 
 IMND.m                4962.57:  Inc Min Depth 
 IMXD.m                4119.01:  Inc Max Depth 
 JARR.                      No:  Jarring 
 LETM.      18.40.00 29-Aug-21:  Log End Time 
 LOST.hr                     0:  Lost Rig Time 
 LSTM.      21.00.00 20-Aug-21:  Log Start Time 
 MDCL.ppm             41500.00:  Mud Chlorides 
 MDES.     Inversion Oil/Synthetic:  Mud Desc 
 DFD .sg                  1.56:  Mud Density 
 MDMN.sg                  1.56:  Dens Mud Min 
 MDMX.sg                  1.56:  Dens Mud Max 
 MOIL.                      70:  Run Mud Oil % 
 MOWR.                   70:30:  Run Mud OWR 
 MSND.                     0.2:  Run Mud Sand % 
 MSOL.                    23.3:  Run Mud Solids% 
 DFV .spqt               78.00:  Mud Viscosity 
 MWOD.in                  6.75:  MWD Tool OD 
 MWSI.                      No:  Serv Intrp, MWD 
 OTIM.hr                218.30:  Time Operating 
 PCON.           Look Like New:  Pad Condition 
 PMAX.psia            11015.30:  Press Op, Max 
 PV  .cP                 38.00:  Mud PV 
 RUN .                     300:  Run Number 
 ROPA.m/hr               15.00:  ROP Avg 
 ROPN.m/hr                9.00:  ROP Min 
 ROPX.m/hr               17.00:  ROP Max 
 RPMA.rpm               120.00:  RPM Surface Avg 
 RPMN.rpm                90.00:  RPM Surface Min 
 RPMX.rpm               140.00:  RPM Surface Max 
 RRUN.                     300:  Rig Run Number 
 RTIM.hr                 31.53:  Time Reaming 
 SAZI.deg               331.64:  Azm, Start 
 SDEP.m                4127.00:  Start Depth 
 SIDD.                      No:  Serv Intrp, DD 
 SINC.deg                48.43:  Inc, Start 
 SPPA.psig             5830.00:  SPP Avg 
 SPPN.psig             5600.00:  SPP Min 
 SPPX.psig             5900.00:  SPP Max 
 STIM.      21.00.00 20-Aug-21:  Start Time 
 SVCS.                 DD, MWD:  Services 
 SVER.                    9.20:  Sperry Version 
 TDAT.m                 957.50:  Tot Depth Attmp 
 TDDF.                      No:  Trip for DD 
 TDLG.m                 957.50:  Tot Depth Loggd 
 TFF .                      No:  Trip for Fail 
 TQAA.f-kp               15.00:  Torque Abs Avg 
 TQAN.f-kp               12.00:  Torque Abs Min 
 TQAX.f-kp               19.00:  Torque Abs Max 
 TRRT.°/30m              -3.40:  Turn Rotating 
 MRT .                  EWR-M5:  Maximum Recorded Temperature 
 TTMX.degC              100.00:  Max Tool Temp 
 VS01.                90639251:  Virtual Str1 SN 
 VS02.                90634715:  Virtual Str2 SN 
 VS03.                90652479:  Virtual Str3 SN 
 VS04.                90642262:  Virtual Str4 SN 
 WBMN.klb                 0.00:  WOB Min 
 WITN.           Murad Guliyev:  Customer Rep 
 WITN.          Yashar Gaziyev:  Customer Rep 2 
 WOBA.klb                 9.00:  WOB Avg 
 WOBX.klb                12.00:  WOB Max 
 YP  .lhf2               30.00:  Yield Point 
~Curve Information Block
#MNEM.UNIT                 API CODE     Curve Description
#---------               -----------    ---------------------------
 TIME.HHMMSS            00 000 000 000:  GT Time & Date
 GTDEPTH.m              00 000 000 000:  GT Depth
 GTPQH.psia             00 000 000 000:  GT HR Quartz Pressure
 GTTQ.degC              00 000 000 000:  GT Quartz Temperature
 GTTN.NONE              00 000 000 000:  GT Test Number
 GTET.sec               00 000 000 000:  GT Elapsed Test Time
 GTTVD.m                00 000 000 000:  GT True Vertical Depth
#Other Information
#
#WARRANTY: Halliburton will use its best efforts to furnish customers with 
#accurate information and interpretations that are part of, and incident to, the services 
#provided.  However, Halliburton cannot and does not warrant the accuracy 
#or correctness of such information and interpretations.  Under no circumstances should any 
#such information or interpretation be relied upon as the sole basis for any drilling, 
#completion, production, or financial decision or any procedure involving any risk to the 
#safety of any drilling venture, drilling rig or its crew or any other third party.  The 
#Customer has full responsibility for all drilling, completion and production operation.  
#Halliburton makes no representations or warranties, either expressed or 
#implied, including, but not limited to, the implied warranties of merchantability or fitness 
#for a particular purpose, with respect to the services rendered.  In no event will 
#Halliburton be liable for failure to obtain any particular results or for 
#any damages, including, but not limited to, indirect, special or consequential damages, 
#resulting from the use of any information or interpretation provided by Halliburton.
#
~A           TIME           GTDEPTH  GTPQH  GTTQ  GTTN   GTET   GTTVD  
   04:10:22.821.28-Aug-2021 4978.00 7912.29 80.53 29.00   0.00 3319.69
   04:10:23.021.28-Aug-2021 4978.00 7912.29 80.53 29.00   0.20 3319.69
   04:10:23.221.28-Aug-2021 4978.00 7911.40 80.53 29.00   0.40 3319.69
   04:10:23.422.28-Aug-2021 4978.00 7911.61 80.53 29.00   0.60 3319.69
   04:10:23.622.28-Aug-2021 4978.00 7911.70 80.53 29.00   0.80 3319.69
   04:10:23.822.28-Aug-2021 4978.00 7911.50 80.53 29.00   1.00 3319.69
   04:10:24.022.28-Aug-2021 4978.00 7911.50 80.53 29.00   1.20 3319.69
   04:10:24.223.28-Aug-2021 4978.00 7911.34 80.53 29.00   1.40 3319.69
   04:10:24.423.28-Aug-2021 4978.00 7911.38 80.53 29.00   1.60 3319.69
   04:10:24.623.28-Aug-2021 4978.00 7911.48 80.53 29.00   1.80 3319.69
   04:10:24.824.28-Aug-2021 4978.00 7911.81 80.53 29.00   2.00 3319.69
   04:10:25.024.28-Aug-2021 4978.00 7911.81 80.53 29.00   2.20 3319.69
   04:10:25.224.28-Aug-2021 4978.00 7916.68 80.53 29.00   2.40 3319.69
   04:10:25.424.28-Aug-2021 4978.00 7912.25 80.53 29.00   2.60 3319.69
   04:10:25.625.28-Aug-2021 4978.00 7912.95 80.53 29.00   2.80 3319.69
   04:10:25.825.28-Aug-2021 4978.00 7913.11 80.53 29.00   3.00 3319.69
   04:10:26.025.28-Aug-2021 4978.00 7913.11 80.53 29.00   3.20 3319.69
   04:10:26.226.28-Aug-2021 4978.00 7913.45 80.53 29.00   3.40 3319.69
   04:10:26.426.28-Aug-2021 4978.00 7913.30 80.53 29.00   3.61 3319.69
   04:10:26.626.28-Aug-2021 4978.00 7915.06 80.53 29.00   3.81 3319.69
   04:10:26.826.28-Aug-2021 4978.00 7914.67 80.53 29.00   4.01 3319.69
   04:10:27.027.28-Aug-2021 4978.00 7914.67 80.53 29.00   4.21 3319.69
   04:10:27.227.28-Aug-2021 4978.00 7914.77 80.53 29.00   4.41 3319.69
   04:10:27.427.28-Aug-2021 4978.00 7915.50 80.53 29.00   4.61 3319.69
   04:10:27.628.28-Aug-2021 4978.00 7919.85 80.53 29.00   4.81 3319.69
   04:10:27.828.28-Aug-2021 4978.00 7915.38 80.53 29.00   5.01 3319.69
   04:10:28.028.28-Aug-2021 4978.00 7915.38 80.53 29.00   5.21 3319.69
   04:10:28.228.28-Aug-2021 4978.00 7915.55 80.53 29.00   5.41 3319.69
   04:10:28.429.28-Aug-2021 4978.00 7916.12 80.53 29.00   5.61 3319.69
   04:10:28.629.28-Aug-2021 4978.00 7921.08 80.53 29.00   5.81 3319.69
   04:10:28.829.28-Aug-2021 4978.00 7916.99 80.53 29.00   6.01 3319.69
   04:10:29.029.28-Aug-2021 4978.00 7916.99 80.53 29.00   6.21 3319.69
   04:10:29.230.28-Aug-2021 4978.00 7917.18 80.53 29.00   6.41 3319.69
   04:10:29.430.28-Aug-2021 4978.00 7917.54 80.53 29.00   6.61 3319.69
   04:10:29.630.28-Aug-2021 4978.00 7918.81 80.53 29.00   6.81 3319.69
   04:10:29.831.28-Aug-2021 4978.00 7919.05 80.53 29.00   7.01 3319.69
   04:10:30.031.28-Aug-2021 4978.00 7919.05 80.53 29.00   7.21 3319.69
   04:10:30.231.28-Aug-2021 4978.00 7917.42 80.53 29.00   7.41 3319.69
   04:10:30.431.28-Aug-2021 4978.00 7919.74 80.53 29.00   7.61 3319.69
   04:10:30.632.28-Aug-2021 4978.00 7920.11 80.53 29.00   7.81 3319.69
   04:10:30.832.28-Aug-2021 4978.00 7923.62 80.53 29.00   8.01 3319.69
   04:10:31.032.28-Aug-2021 4978.00 7923.62 80.53 29.00   8.21 3319.69
   04:10:31.233.28-Aug-2021 4978.00 7920.85 80.53 29.00   8.41 3319.69
   04:10:31.433.28-Aug-2021 4978.00 7920.00 80.53 29.00   8.61 3319.69
   04:10:31.633.28-Aug-2021 4978.00 7922.51 80.53 29.00   8.81 3319.69
   04:10:31.833.28-Aug-2021 4978.00 7921.11 80.53 29.00   9.01 3319.69
   04:10:32.034.28-Aug-2021 4978.00 7921.11 80.53 29.00   9.21 3319.69
   04:10:32.234.28-Aug-2021 4978.00 7920.33 80.53 29.00   9.41 3319.69
   04:10:32.434.28-Aug-2021 4978.00 7920.25 80.53 29.00   9.61 3319.69
   04:10:32.635.28-Aug-2021 4978.00 7924.86 80.53 29.00   9.81 3319.69
   04:10:32.835.28-Aug-2021 4978.00 7920.93 80.53 29.00  10.01 3319.69
   04:10:33.035.28-Aug-2021 4978.00 7920.93 80.53 29.00  10.21 3319.69
   04:10:33.235.28-Aug-2021 4978.00 7921.45 80.53 29.00  10.41 3319.69
   04:10:33.436.28-Aug-2021 4978.00 7921.57 80.53 29.00  10.61 3319.69
   04:10:33.636.28-Aug-2021 4978.00 7922.28 80.53 29.00  10.82 3319.69
   04:10:33.836.28-Aug-2021 4978.00 7922.13 80.53 29.00  11.02 3319.69
   04:10:34.037.28-Aug-2021 4978.00 7922.13 80.53 29.00  11.22 3319.69
   04:10:34.237.28-Aug-2021 4978.00 7921.74 80.53 29.00  11.42 3319.69
   04:10:34.437.28-Aug-2021 4978.00 7922.38 80.53 29.00  11.62 3319.69
   04:10:34.637.28-Aug-2021 4978.00 7923.23 80.52 29.00  11.82 3319.69
   04:10:34.838.28-Aug-2021 4978.00 7923.76 80.52 29.00  12.02 3319.69
   04:10:35.038.28-Aug-2021 4978.00 7923.76 80.52 29.00  12.22 3319.69
   04:10:35.238.28-Aug-2021 4978.00 7924.06 80.52 29.00  12.42 3319.69
   04:10:35.438.28-Aug-2021 4978.00 7924.15 80.52 29.00  12.62 3319.69
   04:10:35.639.28-Aug-2021 4978.00 7924.41 80.52 29.00  12.82 3319.69
   04:10:35.839.28-Aug-2021 4978.00 7924.53 80.52 29.00  13.02 3319.69
   04:10:36.039.28-Aug-2021 4978.00 7924.53 80.52 29.00  13.22 3319.69
   04:10:36.240.28-Aug-2021 4978.00 7926.63 80.52 29.00  13.42 3319.69
   04:10:36.440.28-Aug-2021 4978.00 7926.78 80.52 29.00  13.62 3319.69
   04:10:36.640.28-Aug-2021 4978.00 7926.55 80.52 29.00  13.82 3319.69
   04:10:36.840.28-Aug-2021 4978.00 7925.59 80.52 29.00  14.02 3319.69
   04:10:37.041.28-Aug-2021 4978.00 7925.59 80.52 29.00  14.22 3319.69
   04:10:37.241.28-Aug-2021 4978.00 7926.07 80.52 29.00  14.42 3319.69
   04:10:37.441.28-Aug-2021 4978.00 7926.44 80.52 29.00  14.62 3319.69
   04:10:37.642.28-Aug-2021 4978.00 7926.14 80.52 29.00  14.82 3319.69
   04:10:37.842.28-Aug-2021 4978.00 7926.16 80.52 29.00  15.02 3319.69
   04:10:38.042.28-Aug-2021 4978.00 7926.16 80.52 29.00  15.22 3319.69
   04:10:38.242.28-Aug-2021 4978.00 7927.30 80.52 29.00  15.42 3319.69
   04:10:38.443.28-Aug-2021 4978.00 7928.05 80.52 29.00  15.62 3319.69
   04:10:38.643.28-Aug-2021 4978.00 7928.29 80.52 29.00  15.82 3319.69
   04:10:38.843.28-Aug-2021 4978.00 7928.20 80.52 29.00  16.02 3319.69
   04:10:39.044.28-Aug-2021 4978.00 7928.20 80.52 29.00  16.22 3319.69
   04:10:39.244.28-Aug-2021 4978.00 7928.16 80.52 29.00  16.42 3319.69
   04:10:39.444.28-Aug-2021 4978.00 7929.71 80.52 29.00  16.62 3319.69
   04:10:39.644.28-Aug-2021 4978.00 7930.19 80.52 29.00  16.82 3319.69
   04:10:39.845.28-Aug-2021 4978.00 7929.50 80.52 29.00  17.02 3319.69
   04:10:40.045.28-Aug-2021 4978.00 7929.50 80.52 29.00  17.22 3319.69
   04:10:40.245.28-Aug-2021 4978.00 7928.51 80.52 29.00  17.42 3319.69
   04:10:40.446.28-Aug-2021 4978.00 7928.63 80.52 29.00  17.62 3319.69
   04:10:40.646.28-Aug-2021 4978.00 7930.59 80.52 29.00  17.83 3319.69
   04:10:40.846.28-Aug-2021 4978.00 7930.54 80.52 29.00  18.03 3319.69
   04:10:41.046.28-Aug-2021 4978.00 7930.54 80.52 29.00  18.23 3319.69
   04:10:41.247.28-Aug-2021 4978.00 7929.08 80.52 29.00  18.43 3319.69
   04:10:41.447.28-Aug-2021 4978.00 7929.75 80.52 29.00  18.63 3319.69
   04:10:41.647.28-Aug-2021 4978.00 7930.24 80.52 29.00  18.83 3319.69
   04:10:41.847.28-Aug-2021 4978.00 7935.62 80.52 29.00  19.03 3319.69
   04:10:42.048.28-Aug-2021 4978.00 7935.62 80.52 29.00  19.23 3319.69
   04:10:42.248.28-Aug-2021 4978.00 7930.60 80.52 29.00  19.43 3319.69
   04:10:42.448.28-Aug-2021 4978.00 7930.41 80.52 29.00  19.63 3319.69
   04:10:42.649.28-Aug-2021 4978.00 7931.04 80.52 29.00  19.83 3319.69
   04:10:42.849.28-Aug-2021 4978.00 7931.54 80.52 29.00  20.03 3319.69
   04:10:43.049.28-Aug-2021 4978.00 7931.54 80.52 29.00  20.23 3319.69
   04:10:43.249.28-Aug-2021 4978.00 7932.31 80.52 29.00  20.43 3319.69
   04:10:43.450.28-Aug-2021 4978.00 7930.34 80.52 29.00  20.63 3319.69
   04:10:43.650.28-Aug-2021 4978.00 7931.61 80.52 29.00  20.83 3319.69
   04:10:43.850.28-Aug-2021 4978.00 7934.13 80.52 29.00  21.03 3319.69
   04:10:44.051.28-Aug-2021 4978.00 7934.13 80.52 29.00  21.23 3319.69
   04:10:44.251.28-Aug-2021 4978.00 7933.23 80.52 29.00  21.43 3319.69
   04:10:44.451.28-Aug-2021 4978.00 7932.71 80.52 29.00  21.63 3319.69
   04:10:44.651.28-Aug-2021 4978.00 7932.88 80.52 29.00  21.83 3319.69
   04:10:44.852.28-Aug-2021 4978.00 7936.65 80.52 29.00  22.03 3319.69
   04:10:45.052.28-Aug-2021 4978.00 7936.65 80.52 29.00  22.23 3319.69
   04:10:45.252.28-Aug-2021 4978.00 7934.22 80.52 29.00  22.43 3319.69
