~Version Information
 VERS.                  2.0:   CWLS log ASCII Standard -VERSION 2.0
 WRAP.                   NO:   One line per depth step
~Well Information Block
#MNEM.UNIT     VALUE/NAME     DESCRIPTION
#---------     -----------    ---------------------------
 STRT.S             19:41:39 27-Aug-21: START TIME 19:41:39 27-Aug-21
 STOP.S             19:48:52 27-Aug-21: STOP TIME  19:48:52 27-Aug-21
 STEP.S                   0.00: STEP TIME
 NULL.                 -999.25: NULL VALUE
 DFWT.                        :  DIST FWL TEXT
 DFST.                        :  DIST FSL TEXT
 DMF .             Drill Floor:  DRILL MEAS FROM
 STIM.      20.00.00 17-Aug-21:  START TIME
 DATE.      19.00.00 29-Aug-21:  END TIME
 SPUD.               15-Aug-21:  SPUD DATE
 NREF.                    Grid:  NORTH REFERENCE
 HPTY.       Minimum Curvature:  HOLE POS TYPE
 DMOD.             Drill Model:  DRILL MOD DESC
 SVYD.                  Survey:  SURVEY DESC
 ILTD.               Lithology:  INTERP LTH DESC
 FTOP.          Formation Tops:  FORM TOPS DESC
 RIG .              East Azeri:  RIG NAME
 PDAT.          Mean Sea Level:  PERMANENT DATUM
 FLD .                     ACG:  FIELD NAME
 SON .        AZ-XX-0907180857:  JOB NUMBER
 CTRY.              Azerbaijan:  COUNTRY NAME
 WELL.                    D23x:  WELL NAME
 SRVC.     Turan Drilling and Engineering:  CONTRACTOR
 COMP.     BP Exploration (Caspian Sea) Ltd.:  COMPANY
 UWI .            /AZE00000214:  UNIQUE WELL IDENTIFIER
 API .            /AZE00000214:  API NUMBER
 MDS .        Operator Entered:  MAG DATA SOURCE
 BASE.              Azerbaijan:  LOGGING EQUIPMENT BASE LOCATION
 REGN.                   EESSA:  REGION
 PROV.                    Baku:  PROVINCE
 STAT.                    Baku:  STATE NAME
 MWDS.                    Baku:  MWD SHOP
 DOE .                     N/A:  DOE NUMBER
 DCON.         Sperry Drilling:  DIRECTNL CONTR
 UNIT.                     N/A:  LOGGING EQUIPMENT ID
 WTYP.                Deviated:  WELL TYPE
 CNTY.                        :  COUNTY
 LOC .                        :  LOCATION
 LMF .             Drill Floor:  LOG MEASURED FROM
 TVDS.m                  43.60:  TVDSS CORRECTN
 LATI.deg                40.02:  LATITUDE
 LONG.deg                51.45:  LONGITUDE
 WHNS.m                  -7.04:  WELL HEAD N/S
 WHEW.m                  -0.67:  WELL HEAD E/W
 UTMX.m              538762.90:  UTM X
 UTMY.m             4431871.34:  UTM Y
 DFWL.m                   0.00:  DISTANCE FWL
 DFSL.m                   0.00:  DISTANCE FSL
 SDEP.m                4127.00:  START DEPTH
 TDD .m                5084.50:  TOTAL DEPTH (DRILLER)
 VSDR.deg               140.47:  VERT SEC DIRECT
 GVFD.g                   1.00:  GRAVITY FIELD
 MFLD.nT              50362.00:  MAGNETIC FIELD
 MDIP.deg                59.48:  MAGNETIC DIP
 MDEC.deg                 6.47:  MAGNETIC DECL
 GRDC.deg                 0.31:  GRID CORRECTION
 AZTC.deg                 6.16:  AZM TOTAL CORR
 EPD .m                   0.00:  ELEVATION
 EGL .m                   0.00:  GROUND ELEVATION
 WDMS.m                 151.80:  WD ELEV
 APD .m                  43.60:  DEPTH ABOVE PD
 DEP .m                4092.57:  DEPTH
 AGAP.m                  43.60:  AIR GAP
 VSEW.m                  -0.67:  VERT SEC E/W
 VSNS.m                  -7.04:  VERT SEC N/S
 EKB .m                  43.60:  KB ELEVATION
 EDF .m                  43.60:  DF ELEVATION
 TDL .m                 957.50:  TOTAL DEPTH (LOGGER)
 VSC .                       0:  VS TO CLOSURE
 MAGU.                 1851413:  MAGUTM CHECKSUM
~Parameter Information Block
#MNEM.UNIT       Value        Description
#---------     -----------    ---------------------------
 AV  .mps                 1.50:  Ann Velocity 
 AVMX.mps                 2.00:  Max Ann Veloc 
 AZIF.deg               184.66:  Azm, Final 
 BHAT.        Rotary Steerable:  BHA Type 
 BREV.rev               300.00:  Rev Bit Total 
 BROT.°/30m              -0.50:  Build Rotating 
 BS  .in                  8.50:  Bit Size 
 BSZ .in                  8.50:  Bit Size 
 BTPL.psig              370.00:  Bit Press Loss 
 CABU.                      No:  Customer Abuse 
 CGEO.      Behruz Shahbaliyev:  Customer Geo 
 COMM.                     ,‰€:  Run Comments 1 
 TCS .hr                140.08:  Time Ciculation Ended 
 CV  .mps                 3.00:  Crit Velocity 
 CVMX.mps                 3.20:  Max Crit Veloc 
 DD1 .            Musa Ahmadov:  Direct Drillr 1 
 DD2 .           Hamid Ahmadov:  Direct Drillr 2 
 DDSV.               Geo-Pilot:  DD Service 
 DEFF.%                  98.40:  % Det Eff 
 DLRX.°/30m               3.40:  Dogleg Rot Max 
 DLSO.°/30m               1.45:  Dogleg Oriented 
 DLSX.°/30m               3.40:  Dogleg Str Max 
 DRET.      18.40.00 29-Aug-21:  Drill End Time 
 DRST.      21.00.00 20-Aug-21:  Drill Start Tim 
 DTIM.hr                 69.47:  Time Drilling 
 EDEP.m                5084.50:  End Depth 
 ENG1.      Artemiy Matviyanov:  Engineer 1 
 ENG2.         Almaz Almadatov:  Engineer 2 
 ETIM.      18.40.00 29-Aug-21:  End Time 
 FLOI.gpm               500.00:  Flow In 
 FLON.gpm               400.00:  Flow In Min 
 FLOS.cptm                0.00:  Fluid Loss 
 FLOX.gpm               500.00:  Flow In Max 
 DFT .        Mineral Oil Base:  Mud Type 
 HFLO.                      No:  High Flow 
 HPRE.                      No:  High Pressure 
 HTEM.                      No:  High Temp 
 HYDO.m                   1.80:  Hydro Offset 
 IFIN.deg                25.62:  Inc, Final 
 IMAX.deg                48.69:  Inc Max 
 IMIN.deg                24.01:  Inc Min 
 IMND.m                4962.57:  Inc Min Depth 
 IMXD.m                4119.01:  Inc Max Depth 
 JARR.                      No:  Jarring 
 LETM.      18.40.00 29-Aug-21:  Log End Time 
 LOST.hr                     0:  Lost Rig Time 
 LSTM.      21.00.00 20-Aug-21:  Log Start Time 
 MDCL.ppm             41500.00:  Mud Chlorides 
 MDES.     Inversion Oil/Synthetic:  Mud Desc 
 DFD .sg                  1.56:  Mud Density 
 MDMN.sg                  1.56:  Dens Mud Min 
 MDMX.sg                  1.56:  Dens Mud Max 
 MOIL.                      70:  Run Mud Oil % 
 MOWR.                   70:30:  Run Mud OWR 
 MSND.                     0.2:  Run Mud Sand % 
 MSOL.                    23.3:  Run Mud Solids% 
 DFV .spqt               78.00:  Mud Viscosity 
 MWOD.in                  6.75:  MWD Tool OD 
 MWSI.                      No:  Serv Intrp, MWD 
 OTIM.hr                218.30:  Time Operating 
 PCON.           Look Like New:  Pad Condition 
 PMAX.psia            11015.30:  Press Op, Max 
 PV  .cP                 38.00:  Mud PV 
 RUN .                     300:  Run Number 
 ROPA.m/hr               15.00:  ROP Avg 
 ROPN.m/hr                9.00:  ROP Min 
 ROPX.m/hr               17.00:  ROP Max 
 RPMA.rpm               120.00:  RPM Surface Avg 
 RPMN.rpm                90.00:  RPM Surface Min 
 RPMX.rpm               140.00:  RPM Surface Max 
 RRUN.                     300:  Rig Run Number 
 RTIM.hr                 31.53:  Time Reaming 
 SAZI.deg               331.64:  Azm, Start 
 SDEP.m                4127.00:  Start Depth 
 SIDD.                      No:  Serv Intrp, DD 
 SINC.deg                48.43:  Inc, Start 
 SPPA.psig             5830.00:  SPP Avg 
 SPPN.psig             5600.00:  SPP Min 
 SPPX.psig             5900.00:  SPP Max 
 STIM.      21.00.00 20-Aug-21:  Start Time 
 SVCS.                 DD, MWD:  Services 
 SVER.                    9.20:  Sperry Version 
 TDAT.m                 957.50:  Tot Depth Attmp 
 TDDF.                      No:  Trip for DD 
 TDLG.m                 957.50:  Tot Depth Loggd 
 TFF .                      No:  Trip for Fail 
 TQAA.f-kp               15.00:  Torque Abs Avg 
 TQAN.f-kp               12.00:  Torque Abs Min 
 TQAX.f-kp               19.00:  Torque Abs Max 
 TRRT.°/30m              -3.40:  Turn Rotating 
 MRT .                  EWR-M5:  Maximum Recorded Temperature 
 TTMX.degC              100.00:  Max Tool Temp 
 VS01.                90639251:  Virtual Str1 SN 
 VS02.                90634715:  Virtual Str2 SN 
 VS03.                90652479:  Virtual Str3 SN 
 VS04.                90642262:  Virtual Str4 SN 
 WBMN.klb                 0.00:  WOB Min 
 WITN.           Murad Guliyev:  Customer Rep 
 WITN.          Yashar Gaziyev:  Customer Rep 2 
 WOBA.klb                 9.00:  WOB Avg 
 WOBX.klb                12.00:  WOB Max 
 YP  .lhf2               30.00:  Yield Point 
~Curve Information Block
#MNEM.UNIT                 API CODE     Curve Description
#---------               -----------    ---------------------------
 TIME.HHMMSS            00 000 000 000:  GT Time & Date
 GTDEPTH.m              00 000 000 000:  GT Depth
 GTPQH.psia             00 000 000 000:  GT HR Quartz Pressure
 GTTQ.degC              00 000 000 000:  GT Quartz Temperature
 GTTN.NONE              00 000 000 000:  GT Test Number
 GTET.sec               00 000 000 000:  GT Elapsed Test Time
 GTTVD.m                00 000 000 000:  GT True Vertical Depth
#Other Information
#
#WARRANTY: Halliburton will use its best efforts to furnish customers with 
#accurate information and interpretations that are part of, and incident to, the services 
#provided.  However, Halliburton cannot and does not warrant the accuracy 
#or correctness of such information and interpretations.  Under no circumstances should any 
#such information or interpretation be relied upon as the sole basis for any drilling, 
#completion, production, or financial decision or any procedure involving any risk to the 
#safety of any drilling venture, drilling rig or its crew or any other third party.  The 
#Customer has full responsibility for all drilling, completion and production operation.  
#Halliburton makes no representations or warranties, either expressed or 
#implied, including, but not limited to, the implied warranties of merchantability or fitness 
#for a particular purpose, with respect to the services rendered.  In no event will 
#Halliburton be liable for failure to obtain any particular results or for 
#any damages, including, but not limited to, indirect, special or consequential damages, 
#resulting from the use of any information or interpretation provided by Halliburton.
#
~A           TIME           GTDEPTH  GTPQH  GTTQ  GTTN   GTET   GTTVD  
# ...
   19:44:17.200.27-Aug-2021 4678.50 4406.88 82.39 21.00 158.20 3048.11
   19:44:17.400.27-Aug-2021 4678.50 4406.85 82.39 21.00 158.40 3048.11
   19:44:17.600.27-Aug-2021 4678.50 4406.87 82.39 21.00 158.60 3048.11
   19:44:17.800.27-Aug-2021 4678.50 4406.89 82.39 21.00 158.80 3048.11
   19:44:18.000.27-Aug-2021 4678.50 4406.89 82.39 21.00 159.00 3048.11
   19:44:18.200.27-Aug-2021 4678.50 4406.89 82.39 21.00 159.20 3048.11
   19:44:18.400.27-Aug-2021 4678.50 4406.86 82.39 21.00 159.40 3048.11
   19:44:18.600.27-Aug-2021 4678.50 4406.86 82.39 21.00 159.60 3048.11
   19:44:18.800.27-Aug-2021 4678.50 4406.85 82.39 21.00 159.80 3048.11
   19:44:19.000.27-Aug-2021 4678.50 4406.90 82.39 21.00 160.00 3048.11
   19:44:19.200.27-Aug-2021 4678.50 4406.90 82.39 21.00 160.20 3048.11
   19:44:19.400.27-Aug-2021 4678.50 4406.90 82.39 21.00 160.40 3048.11
   19:44:19.600.27-Aug-2021 4678.50 4406.91 82.39 21.00 160.60 3048.11
   19:44:19.800.27-Aug-2021 4678.50 4406.91 82.39 21.00 160.80 3048.11
   19:44:20.000.27-Aug-2021 4678.50 4406.92 82.39 21.00 161.00 3048.11
   19:44:20.200.27-Aug-2021 4678.50 4406.92 82.39 21.00 161.20 3048.11
   19:44:20.400.27-Aug-2021 4678.50 4406.94 82.39 21.00 161.40 3048.11
   19:44:20.600.27-Aug-2021 4678.50 4406.94 82.39 21.00 161.60 3048.11
   19:44:20.800.27-Aug-2021 4678.50 4406.96 82.39 21.00 161.80 3048.11
   19:44:21.000.27-Aug-2021 4678.50 4406.97 82.39 21.00 162.00 3048.11
   19:44:21.200.27-Aug-2021 4678.50 4406.97 82.39 21.00 162.20 3048.11
   19:44:21.400.27-Aug-2021 4678.50 4407.24 82.39 21.00 162.40 3048.11
   19:44:21.600.27-Aug-2021 4678.50 4406.86 82.39 21.00 162.60 3048.11
   19:44:21.800.27-Aug-2021 4678.50 4406.89 82.39 21.00 162.80 3048.11
   19:44:22.000.27-Aug-2021 4678.50 4406.68 82.39 21.00 163.00 3048.11
   19:44:22.200.27-Aug-2021 4678.50 4406.68 82.39 21.00 163.20 3048.11
   19:44:22.400.27-Aug-2021 4678.50 4184.01 82.39 21.00 163.40 3048.11
   19:44:22.600.27-Aug-2021 4678.50 4152.69 82.39 21.00 163.60 3048.11
   19:44:22.800.27-Aug-2021 4678.50 4146.68 82.39 21.00 163.80 3048.11
   19:44:23.000.27-Aug-2021 4678.50 4145.35 82.39 21.00 164.00 3048.11
   19:44:23.200.27-Aug-2021 4678.50 4145.35 82.39 21.00 164.20 3048.11
   19:44:23.400.27-Aug-2021 4678.50 4145.60 82.39 21.00 164.40 3048.11
   19:44:23.600.27-Aug-2021 4678.50 4145.27 82.39 21.00 164.60 3048.11
   19:44:23.800.27-Aug-2021 4678.50 4145.67 82.39 21.00 164.80 3048.11
   19:44:24.000.27-Aug-2021 4678.50 4146.61 82.39 21.00 165.00 3048.11
   19:44:24.200.27-Aug-2021 4678.50 4146.61 82.39 21.00 165.20 3048.11
   19:44:24.400.27-Aug-2021 4678.50 4147.39 82.39 21.00 165.40 3048.11
   19:44:24.600.27-Aug-2021 4678.50 4148.14 82.39 21.00 165.60 3048.11
   19:44:24.800.27-Aug-2021 4678.50 4146.48 82.39 21.00 165.80 3048.11
   19:44:25.000.27-Aug-2021 4678.50 4150.64 82.39 21.00 166.00 3048.11
   19:44:25.200.27-Aug-2021 4678.50 4150.64 82.39 21.00 166.20 3048.11
   19:44:25.400.27-Aug-2021 4678.50 4150.15 82.39 21.00 166.40 3048.11
   19:44:25.600.27-Aug-2021 4678.50 4149.69 82.39 21.00 166.60 3048.11
   19:44:25.800.27-Aug-2021 4678.50 4149.99 82.39 21.00 166.80 3048.11
   19:44:26.000.27-Aug-2021 4678.50 4151.79 82.39 21.00 167.00 3048.11
   19:44:26.200.27-Aug-2021 4678.50 4151.79 82.39 21.00 167.20 3048.11
   19:44:26.400.27-Aug-2021 4678.50 4150.35 82.39 21.00 167.40 3048.11
   19:44:26.600.27-Aug-2021 4678.50 4150.83 82.39 21.00 167.60 3048.11
   19:44:26.800.27-Aug-2021 4678.50 4151.16 82.39 21.00 167.80 3048.11
   19:44:27.000.27-Aug-2021 4678.50 4152.29 82.39 21.00 168.00 3048.11
   19:44:27.200.27-Aug-2021 4678.50 4152.29 82.39 21.00 168.20 3048.11
   19:44:27.400.27-Aug-2021 4678.50 4150.71 82.39 21.00 168.40 3048.11
   19:44:27.600.27-Aug-2021 4678.50 4149.78 82.39 21.00 168.60 3048.11
   19:44:27.800.27-Aug-2021 4678.50 4151.12 82.39 21.00 168.80 3048.11
   19:44:28.000.27-Aug-2021 4678.50 4151.73 82.39 21.00 169.00 3048.11
   19:44:28.200.27-Aug-2021 4678.50 4151.73 82.39 21.00 169.20 3048.11
   19:44:28.400.27-Aug-2021 4678.50 4151.41 82.39 21.00 169.40 3048.11
   19:44:28.600.27-Aug-2021 4678.50 4152.09 82.39 21.00 169.60 3048.11
   19:44:28.800.27-Aug-2021 4678.50 4151.83 82.39 21.00 169.80 3048.11
   19:44:29.000.27-Aug-2021 4678.50 4151.66 82.39 21.00 170.00 3048.11
   19:44:29.200.27-Aug-2021 4678.50 4151.66 82.39 21.00 170.20 3048.11
   19:44:29.400.27-Aug-2021 4678.50 4151.12 82.39 21.00 170.40 3048.11
   19:44:29.600.27-Aug-2021 4678.50 4151.40 82.39 21.00 170.60 3048.11
   19:44:29.800.27-Aug-2021 4678.50 4151.04 82.39 21.00 170.80 3048.11
   19:44:30.000.27-Aug-2021 4678.50 4152.66 82.39 21.00 171.00 3048.11
   19:44:30.200.27-Aug-2021 4678.50 4152.66 82.39 21.00 171.20 3048.11
   19:44:30.400.27-Aug-2021 4678.50 4150.52 82.39 21.00 171.40 3048.11
   19:44:30.600.27-Aug-2021 4678.50 4151.80 82.39 21.00 171.60 3048.11
   19:44:30.800.27-Aug-2021 4678.50 4151.26 82.39 21.00 171.80 3048.11
   19:44:31.000.27-Aug-2021 4678.50 4149.48 82.39 21.00 172.00 3048.11
   19:44:31.200.27-Aug-2021 4678.50 4149.48 82.39 21.00 172.20 3048.11
   19:44:31.400.27-Aug-2021 4678.50 4150.95 82.39 21.00 172.40 3048.11
   19:44:31.600.27-Aug-2021 4678.50 4151.18 82.39 21.00 172.60 3048.11
   19:44:31.800.27-Aug-2021 4678.50 4151.84 82.39 21.00 172.80 3048.11
   19:44:32.000.27-Aug-2021 4678.50 4153.26 82.39 21.00 173.00 3048.11
   19:44:32.200.27-Aug-2021 4678.50 4153.26 82.39 21.00 173.20 3048.11
   19:44:32.400.27-Aug-2021 4678.50 4298.11 82.39 21.00 173.40 3048.11
   19:44:32.600.27-Aug-2021 4678.50 4387.89 82.39 21.00 173.60 3048.11
   19:44:32.800.27-Aug-2021 4678.50 4400.24 82.39 21.00 173.80 3048.11
   19:44:33.000.27-Aug-2021 4678.50 4402.08 82.39 21.00 174.00 3048.11
   19:44:33.200.27-Aug-2021 4678.50 4402.08 82.39 21.00 174.20 3048.11
   19:44:33.400.27-Aug-2021 4678.50 4402.79 82.39 21.00 174.40 3048.11
   19:44:33.600.27-Aug-2021 4678.50 4403.52 82.39 21.00 174.60 3048.11
   19:44:33.800.27-Aug-2021 4678.50 4403.73 82.39 21.00 174.80 3048.11
   19:44:34.000.27-Aug-2021 4678.50 4403.92 82.39 21.00 175.00 3048.11
   19:44:34.200.27-Aug-2021 4678.50 4403.92 82.39 21.00 175.20 3048.11
   19:44:34.400.27-Aug-2021 4678.50 4404.73 82.39 21.00 175.40 3048.11
   19:44:34.600.27-Aug-2021 4678.50 4404.84 82.40 21.00 175.60 3048.11
   19:44:34.800.27-Aug-2021 4678.50 4404.85 82.40 21.00 175.80 3048.11
   19:44:35.000.27-Aug-2021 4678.50 4404.77 82.40 21.00 176.00 3048.11
   19:44:35.200.27-Aug-2021 4678.50 4404.77 82.40 21.00 176.20 3048.11
   19:44:35.400.27-Aug-2021 4678.50 4405.39 82.40 21.00 176.40 3048.11
   19:44:35.600.27-Aug-2021 4678.50 4405.44 82.40 21.00 176.60 3048.11
   19:44:35.800.27-Aug-2021 4678.50 4405.40 82.40 21.00 176.80 3048.11
   19:44:36.000.27-Aug-2021 4678.50 4405.28 82.40 21.00 177.00 3048.11
   19:44:36.200.27-Aug-2021 4678.50 4405.28 82.40 21.00 177.20 3048.11
   19:44:36.400.27-Aug-2021 4678.50 4405.70 82.40 21.00 177.40 3048.11
   19:44:36.600.27-Aug-2021 4678.50 4405.72 82.40 21.00 177.60 3048.11
   19:44:36.800.27-Aug-2021 4678.50 4405.55 82.40 21.00 177.80 3048.11
   19:44:37.000.27-Aug-2021 4678.50 4405.87 82.40 21.00 178.00 3048.11
   19:44:37.200.27-Aug-2021 4678.50 4405.87 82.40 21.00 178.20 3048.11
   19:44:37.400.27-Aug-2021 4678.50 4405.87 82.40 21.00 178.40 3048.11
   19:44:37.600.27-Aug-2021 4678.50 4405.86 82.40 21.00 178.60 3048.11
   19:44:37.800.27-Aug-2021 4678.50 4405.86 82.40 21.00 178.80 3048.11
   19:44:38.000.27-Aug-2021 4678.50 4405.86 82.40 21.00 179.00 3048.11
   19:44:38.200.27-Aug-2021 4678.50 4405.86 82.40 21.00 179.20 3048.11
   19:44:38.400.27-Aug-2021 4678.50 4405.87 82.40 21.00 179.40 3048.11
   19:44:38.600.27-Aug-2021 4678.50 4405.87 82.40 21.00 179.60 3048.11
   19:44:38.800.27-Aug-2021 4678.50 4405.86 82.40 21.00 179.80 3048.11
   19:44:39.000.27-Aug-2021 4678.50 4405.88 82.40 21.00 180.00 3048.11
   19:44:39.200.27-Aug-2021 4678.50 4405.88 82.40 21.00 180.20 3048.11
   19:44:39.400.27-Aug-2021 4678.50 4405.88 82.40 21.00 180.40 3048.11
   19:44:39.600.27-Aug-2021 4678.50 4405.88 82.40 21.00 180.60 3048.11
