~Version Information
 VERS.                  2.0:   CWLS log ASCII Standard -VERSION 2.0
 WRAP.                   NO:   One line per depth step
~Well Information Block
#MNEM.UNIT     VALUE/NAME     DESCRIPTION
#---------     -----------    ---------------------------
 STRT.S             07:46:52 27-Aug-21: START TIME 07:46:52 27-Aug-21
 STOP.S             07:54:09 27-Aug-21: STOP TIME  07:54:09 27-Aug-21
 STEP.S                   0.00: STEP TIME
 NULL.                 -999.25: NULL VALUE
 DFWT.                        :  DIST FWL TEXT
 DFST.                        :  DIST FSL TEXT
 DMF .             Drill Floor:  DRILL MEAS FROM
 STIM.      20.00.00 17-Aug-21:  START TIME
 DATE.      19.00.00 29-Aug-21:  END TIME
 SPUD.               15-Aug-21:  SPUD DATE
 NREF.                    Grid:  NORTH REFERENCE
 HPTY.       Minimum Curvature:  HOLE POS TYPE
 DMOD.             Drill Model:  DRILL MOD DESC
 SVYD.                  Survey:  SURVEY DESC
 ILTD.               Lithology:  INTERP LTH DESC
 FTOP.          Formation Tops:  FORM TOPS DESC
 RIG .              East Azeri:  RIG NAME
 PDAT.          Mean Sea Level:  PERMANENT DATUM
 FLD .                     ACG:  FIELD NAME
 SON .        AZ-XX-0907180857:  JOB NUMBER
 CTRY.              Azerbaijan:  COUNTRY NAME
 WELL.                    D23x:  WELL NAME
 SRVC.     Turan Drilling and Engineering:  CONTRACTOR
 COMP.     BP Exploration (Caspian Sea) Ltd.:  COMPANY
 UWI .            /AZE00000214:  UNIQUE WELL IDENTIFIER
 API .            /AZE00000214:  API NUMBER
 MDS .        Operator Entered:  MAG DATA SOURCE
 BASE.              Azerbaijan:  LOGGING EQUIPMENT BASE LOCATION
 REGN.                   EESSA:  REGION
 PROV.                    Baku:  PROVINCE
 STAT.                    Baku:  STATE NAME
 MWDS.                    Baku:  MWD SHOP
 DOE .                     N/A:  DOE NUMBER
 DCON.         Sperry Drilling:  DIRECTNL CONTR
 UNIT.                     N/A:  LOGGING EQUIPMENT ID
 WTYP.                Deviated:  WELL TYPE
 CNTY.                        :  COUNTY
 LOC .                        :  LOCATION
 LMF .             Drill Floor:  LOG MEASURED FROM
 TVDS.m                  43.60:  TVDSS CORRECTN
 LATI.deg                40.02:  LATITUDE
 LONG.deg                51.45:  LONGITUDE
 WHNS.m                  -7.04:  WELL HEAD N/S
 WHEW.m                  -0.67:  WELL HEAD E/W
 UTMX.m              538762.90:  UTM X
 UTMY.m             4431871.34:  UTM Y
 DFWL.m                   0.00:  DISTANCE FWL
 DFSL.m                   0.00:  DISTANCE FSL
 SDEP.m                4127.00:  START DEPTH
 TDD .m                5084.50:  TOTAL DEPTH (DRILLER)
 VSDR.deg               140.47:  VERT SEC DIRECT
 GVFD.g                   1.00:  GRAVITY FIELD
 MFLD.nT              50362.00:  MAGNETIC FIELD
 MDIP.deg                59.48:  MAGNETIC DIP
 MDEC.deg                 6.47:  MAGNETIC DECL
 GRDC.deg                 0.31:  GRID CORRECTION
 AZTC.deg                 6.16:  AZM TOTAL CORR
 EPD .m                   0.00:  ELEVATION
 EGL .m                   0.00:  GROUND ELEVATION
 WDMS.m                 151.80:  WD ELEV
 APD .m                  43.60:  DEPTH ABOVE PD
 DEP .m                4092.57:  DEPTH
 AGAP.m                  43.60:  AIR GAP
 VSEW.m                  -0.67:  VERT SEC E/W
 VSNS.m                  -7.04:  VERT SEC N/S
 EKB .m                  43.60:  KB ELEVATION
 EDF .m                  43.60:  DF ELEVATION
 TDL .m                 957.50:  TOTAL DEPTH (LOGGER)
 VSC .                       0:  VS TO CLOSURE
 MAGU.                 1851413:  MAGUTM CHECKSUM
~Parameter Information Block
#MNEM.UNIT       Value        Description
#---------     -----------    ---------------------------
 AV  .mps                 1.50:  Ann Velocity 
 AVMX.mps                 2.00:  Max Ann Veloc 
 AZIF.deg               184.66:  Azm, Final 
 BHAT.        Rotary Steerable:  BHA Type 
 BREV.rev               300.00:  Rev Bit Total 
 BROT.°/30m              -0.50:  Build Rotating 
 BS  .in                  8.50:  Bit Size 
 BSZ .in                  8.50:  Bit Size 
 BTPL.psig              370.00:  Bit Press Loss 
 CABU.                      No:  Customer Abuse 
 CGEO.      Behruz Shahbaliyev:  Customer Geo 
 COMM.                     T\d:  Run Comments 1 
 TCS .hr                140.08:  Time Ciculation Ended 
 CV  .mps                 3.00:  Crit Velocity 
 CVMX.mps                 3.20:  Max Crit Veloc 
 DD1 .            Musa Ahmadov:  Direct Drillr 1 
 DD2 .           Hamid Ahmadov:  Direct Drillr 2 
 DDSV.               Geo-Pilot:  DD Service 
 DEFF.%                  98.40:  % Det Eff 
 DLRX.°/30m               3.40:  Dogleg Rot Max 
 DLSO.°/30m               1.45:  Dogleg Oriented 
 DLSX.°/30m               3.40:  Dogleg Str Max 
 DRET.      18.40.00 29-Aug-21:  Drill End Time 
 DRST.      21.00.00 20-Aug-21:  Drill Start Tim 
 DTIM.hr                 69.47:  Time Drilling 
 EDEP.m                5084.50:  End Depth 
 ENG1.      Artemiy Matviyanov:  Engineer 1 
 ENG2.         Almaz Almadatov:  Engineer 2 
 ETIM.      18.40.00 29-Aug-21:  End Time 
 FLOI.gpm               500.00:  Flow In 
 FLON.gpm               400.00:  Flow In Min 
 FLOS.cptm                0.00:  Fluid Loss 
 FLOX.gpm               500.00:  Flow In Max 
 DFT .        Mineral Oil Base:  Mud Type 
 HFLO.                      No:  High Flow 
 HPRE.                      No:  High Pressure 
 HTEM.                      No:  High Temp 
 HYDO.m                   1.80:  Hydro Offset 
 IFIN.deg                25.62:  Inc, Final 
 IMAX.deg                48.69:  Inc Max 
 IMIN.deg                24.01:  Inc Min 
 IMND.m                4962.57:  Inc Min Depth 
 IMXD.m                4119.01:  Inc Max Depth 
 JARR.                      No:  Jarring 
 LETM.      18.40.00 29-Aug-21:  Log End Time 
 LOST.hr                     0:  Lost Rig Time 
 LSTM.      21.00.00 20-Aug-21:  Log Start Time 
 MDCL.ppm             41500.00:  Mud Chlorides 
 MDES.     Inversion Oil/Synthetic:  Mud Desc 
 DFD .sg                  1.56:  Mud Density 
 MDMN.sg                  1.56:  Dens Mud Min 
 MDMX.sg                  1.56:  Dens Mud Max 
 MOIL.                      70:  Run Mud Oil % 
 MOWR.                   70:30:  Run Mud OWR 
 MSND.                     0.2:  Run Mud Sand % 
 MSOL.                    23.3:  Run Mud Solids% 
 DFV .spqt               78.00:  Mud Viscosity 
 MWOD.in                  6.75:  MWD Tool OD 
 MWSI.                      No:  Serv Intrp, MWD 
 OTIM.hr                218.30:  Time Operating 
 PCON.           Look Like New:  Pad Condition 
 PMAX.psia            11015.30:  Press Op, Max 
 PV  .cP                 38.00:  Mud PV 
 RUN .                     300:  Run Number 
 ROPA.m/hr               15.00:  ROP Avg 
 ROPN.m/hr                9.00:  ROP Min 
 ROPX.m/hr               17.00:  ROP Max 
 RPMA.rpm               120.00:  RPM Surface Avg 
 RPMN.rpm                90.00:  RPM Surface Min 
 RPMX.rpm               140.00:  RPM Surface Max 
 RRUN.                     300:  Rig Run Number 
 RTIM.hr                 31.53:  Time Reaming 
 SAZI.deg               331.64:  Azm, Start 
 SDEP.m                4127.00:  Start Depth 
 SIDD.                      No:  Serv Intrp, DD 
 SINC.deg                48.43:  Inc, Start 
 SPPA.psig             5830.00:  SPP Avg 
 SPPN.psig             5600.00:  SPP Min 
 SPPX.psig             5900.00:  SPP Max 
 STIM.      21.00.00 20-Aug-21:  Start Time 
 SVCS.                 DD, MWD:  Services 
 SVER.                    9.20:  Sperry Version 
 TDAT.m                 957.50:  Tot Depth Attmp 
 TDDF.                      No:  Trip for DD 
 TDLG.m                 957.50:  Tot Depth Loggd 
 TFF .                      No:  Trip for Fail 
 TQAA.f-kp               15.00:  Torque Abs Avg 
 TQAN.f-kp               12.00:  Torque Abs Min 
 TQAX.f-kp               19.00:  Torque Abs Max 
 TRRT.°/30m              -3.40:  Turn Rotating 
 MRT .                  EWR-M5:  Maximum Recorded Temperature 
 TTMX.degC              100.00:  Max Tool Temp 
 VS01.                90639251:  Virtual Str1 SN 
 VS02.                90634715:  Virtual Str2 SN 
 VS03.                90652479:  Virtual Str3 SN 
 VS04.                90642262:  Virtual Str4 SN 
 WBMN.klb                 0.00:  WOB Min 
 WITN.           Murad Guliyev:  Customer Rep 
 WITN.          Yashar Gaziyev:  Customer Rep 2 
 WOBA.klb                 9.00:  WOB Avg 
 WOBX.klb                12.00:  WOB Max 
 YP  .lhf2               30.00:  Yield Point 
~Curve Information Block
#MNEM.UNIT                 API CODE     Curve Description
#---------               -----------    ---------------------------
 TIME.HHMMSS            00 000 000 000:  GT Time & Date
 GTDEPTH.m              00 000 000 000:  GT Depth
 GTPQH.psia             00 000 000 000:  GT HR Quartz Pressure
 GTTQ.degC              00 000 000 000:  GT Quartz Temperature
 GTTN.NONE              00 000 000 000:  GT Test Number
 GTET.sec               00 000 000 000:  GT Elapsed Test Time
 GTTVD.m                00 000 000 000:  GT True Vertical Depth
#Other Information
#
#WARRANTY: Halliburton will use its best efforts to furnish customers with 
#accurate information and interpretations that are part of, and incident to, the services 
#provided.  However, Halliburton cannot and does not warrant the accuracy 
#or correctness of such information and interpretations.  Under no circumstances should any 
#such information or interpretation be relied upon as the sole basis for any drilling, 
#completion, production, or financial decision or any procedure involving any risk to the 
#safety of any drilling venture, drilling rig or its crew or any other third party.  The 
#Customer has full responsibility for all drilling, completion and production operation.  
#Halliburton makes no representations or warranties, either expressed or 
#implied, including, but not limited to, the implied warranties of merchantability or fitness 
#for a particular purpose, with respect to the services rendered.  In no event will 
#Halliburton be liable for failure to obtain any particular results or for 
#any damages, including, but not limited to, indirect, special or consequential damages, 
#resulting from the use of any information or interpretation provided by Halliburton.
#
~A           TIME           GTDEPTH  GTPQH  GTTQ  GTTN  GTET   GTTVD  
# ...
   07:53:23.595.27-Aug-2021 5003.00 7988.13 87.38 4.00 391.06 3342.33
   07:53:23.795.27-Aug-2021 5003.00 7988.13 87.38 4.00 391.26 3342.33
   07:53:23.995.27-Aug-2021 5003.00 7989.87 87.39 4.00 391.46 3342.33
   07:53:24.195.27-Aug-2021 5003.00 7989.48 87.39 4.00 391.66 3342.33
   07:53:24.395.27-Aug-2021 5003.00 7988.61 87.39 4.00 391.86 3342.33
   07:53:24.595.27-Aug-2021 5003.00 7989.37 87.39 4.00 392.06 3342.33
   07:53:24.795.27-Aug-2021 5003.00 7989.37 87.39 4.00 392.26 3342.33
   07:53:24.995.27-Aug-2021 5003.00 7990.22 87.39 4.00 392.46 3342.33
   07:53:25.195.27-Aug-2021 5003.00 7989.80 87.39 4.00 392.66 3342.33
   07:53:25.395.27-Aug-2021 5003.00 7990.33 87.39 4.00 392.86 3342.33
   07:53:25.595.27-Aug-2021 5003.00 7990.92 87.39 4.00 393.06 3342.33
   07:53:25.795.27-Aug-2021 5003.00 7990.92 87.39 4.00 393.26 3342.33
   07:53:25.995.27-Aug-2021 5003.00 7990.13 87.39 4.00 393.46 3342.33
   07:53:26.195.27-Aug-2021 5003.00 7989.80 87.39 4.00 393.66 3342.33
   07:53:26.395.27-Aug-2021 5003.00 7989.70 87.39 4.00 393.86 3342.33
   07:53:26.595.27-Aug-2021 5003.00 7995.29 87.39 4.00 394.06 3342.33
   07:53:26.795.27-Aug-2021 5003.00 7995.29 87.39 4.00 394.26 3342.33
   07:53:26.995.27-Aug-2021 5003.00 7989.75 87.39 4.00 394.46 3342.33
   07:53:27.195.27-Aug-2021 5003.00 7989.55 87.39 4.00 394.66 3342.33
   07:53:27.395.27-Aug-2021 5003.00 7989.95 87.39 4.00 394.86 3342.33
   07:53:27.595.27-Aug-2021 5003.00 7989.55 87.39 4.00 395.06 3342.33
   07:53:27.795.27-Aug-2021 5003.00 7989.55 87.39 4.00 395.26 3342.33
   07:53:27.995.27-Aug-2021 5003.00 7989.17 87.39 4.00 395.46 3342.33
   07:53:28.195.27-Aug-2021 5003.00 7989.40 87.39 4.00 395.66 3342.33
   07:53:28.395.27-Aug-2021 5003.00 7989.54 87.39 4.00 395.87 3342.33
   07:53:28.595.27-Aug-2021 5003.00 7990.25 87.39 4.00 396.07 3342.33
   07:53:28.795.27-Aug-2021 5003.00 7990.25 87.39 4.00 396.27 3342.33
   07:53:28.995.27-Aug-2021 5003.00 7991.05 87.39 4.00 396.47 3342.33
   07:53:29.196.27-Aug-2021 5003.00 7990.55 87.39 4.00 396.67 3342.33
   07:53:29.396.27-Aug-2021 5003.00 7990.02 87.39 4.00 396.87 3342.33
   07:53:29.596.27-Aug-2021 5003.00 7990.09 87.39 4.00 397.07 3342.33
   07:53:29.796.27-Aug-2021 5003.00 7990.09 87.39 4.00 397.27 3342.33
   07:53:29.996.27-Aug-2021 5003.00 7991.79 87.39 4.00 397.47 3342.33
   07:53:30.196.27-Aug-2021 5003.00 7992.31 87.39 4.00 397.67 3342.33
   07:53:30.396.27-Aug-2021 5003.00 7990.71 87.39 4.00 397.87 3342.33
   07:53:30.596.27-Aug-2021 5003.00 7989.45 87.39 4.00 398.07 3342.33
   07:53:30.796.27-Aug-2021 5003.00 7989.45 87.39 4.00 398.27 3342.33
   07:53:30.996.27-Aug-2021 5003.00 7995.75 87.39 4.00 398.47 3342.33
   07:53:31.196.27-Aug-2021 5003.00 7989.42 87.39 4.00 398.67 3342.33
   07:53:31.396.27-Aug-2021 5003.00 7989.07 87.39 4.00 398.87 3342.33
   07:53:31.596.27-Aug-2021 5003.00 7989.15 87.39 4.00 399.07 3342.33
   07:53:31.796.27-Aug-2021 5003.00 7989.15 87.39 4.00 399.27 3342.33
   07:53:31.996.27-Aug-2021 5003.00 7995.76 87.39 4.00 399.47 3342.33
   07:53:32.196.27-Aug-2021 5003.00 7990.69 87.39 4.00 399.67 3342.33
   07:53:32.396.27-Aug-2021 5003.00 7990.25 87.39 4.00 399.87 3342.33
   07:53:32.596.27-Aug-2021 5003.00 7989.12 87.39 4.00 400.07 3342.33
   07:53:32.796.27-Aug-2021 5003.00 7989.12 87.39 4.00 400.27 3342.33
   07:53:32.996.27-Aug-2021 5003.00 7990.43 87.39 4.00 400.47 3342.33
   07:53:33.196.27-Aug-2021 5003.00 7991.43 87.38 4.00 400.67 3342.33
   07:53:33.396.27-Aug-2021 5003.00 7995.58 87.38 4.00 400.87 3342.33
   07:53:33.596.27-Aug-2021 5003.00 7988.83 87.38 4.00 401.07 3342.33
   07:53:33.796.27-Aug-2021 5003.00 7988.83 87.38 4.00 401.27 3342.33
   07:53:33.996.27-Aug-2021 5003.00 7989.75 87.38 4.00 401.47 3342.33
   07:53:34.196.27-Aug-2021 5003.00 7991.06 87.38 4.00 401.67 3342.33
   07:53:34.396.27-Aug-2021 5003.00 7990.55 87.38 4.00 401.87 3342.33
   07:53:34.596.27-Aug-2021 5003.00 7990.35 87.38 4.00 402.07 3342.33
   07:53:34.796.27-Aug-2021 5003.00 7990.35 87.38 4.00 402.27 3342.33
   07:53:34.996.27-Aug-2021 5003.00 7989.32 87.38 4.00 402.47 3342.33
   07:53:35.197.27-Aug-2021 5003.00 7989.92 87.38 4.00 402.67 3342.33
   07:53:35.397.27-Aug-2021 5003.00 7990.87 87.38 4.00 402.87 3342.33
   07:53:35.597.27-Aug-2021 5003.00 7991.88 87.38 4.00 403.07 3342.33
   07:53:35.797.27-Aug-2021 5003.00 7991.88 87.38 4.00 403.27 3342.33
   07:53:35.997.27-Aug-2021 5003.00 7990.74 87.38 4.00 403.47 3342.33
   07:53:36.197.27-Aug-2021 5003.00 7990.19 87.38 4.00 403.67 3342.33
   07:53:36.397.27-Aug-2021 5003.00 7990.54 87.38 4.00 403.87 3342.33
   07:53:36.597.27-Aug-2021 5003.00 7992.36 87.38 4.00 404.07 3342.33
   07:53:36.797.27-Aug-2021 5003.00 7992.36 87.38 4.00 404.27 3342.33
   07:53:36.997.27-Aug-2021 5003.00 7991.18 87.38 4.00 404.47 3342.33
   07:53:37.197.27-Aug-2021 5003.00 7989.15 87.38 4.00 404.67 3342.33
   07:53:37.397.27-Aug-2021 5003.00 7989.69 87.38 4.00 404.87 3342.33
   07:53:37.597.27-Aug-2021 5003.00 7989.31 87.38 4.00 405.07 3342.33
   07:53:37.797.27-Aug-2021 5003.00 7989.31 87.38 4.00 405.27 3342.33
   07:53:37.997.27-Aug-2021 5003.00 7989.31 87.38 4.00 405.47 3342.33
   07:53:38.197.27-Aug-2021 5003.00 7989.48 87.38 4.00 405.67 3342.33
   07:53:38.397.27-Aug-2021 5003.00 7989.51 87.38 4.00 405.87 3342.33
   07:53:38.597.27-Aug-2021 5003.00 7990.14 87.38 4.00 406.07 3342.33
   07:53:38.797.27-Aug-2021 5003.00 7990.14 87.38 4.00 406.27 3342.33
   07:53:38.997.27-Aug-2021 5003.00 7991.45 87.37 4.00 406.47 3342.33
   07:53:39.197.27-Aug-2021 5003.00 7990.83 87.37 4.00 406.67 3342.33
   07:53:39.397.27-Aug-2021 5003.00 7990.09 87.37 4.00 406.87 3342.33
   07:53:39.597.27-Aug-2021 5003.00 7990.10 87.37 4.00 407.07 3342.33
   07:53:39.797.27-Aug-2021 5003.00 7990.10 87.37 4.00 407.27 3342.33
   07:53:39.997.27-Aug-2021 5003.00 7989.89 87.37 4.00 407.47 3342.33
   07:53:40.197.27-Aug-2021 5003.00 7993.44 87.37 4.00 407.67 3342.33
   07:53:40.397.27-Aug-2021 5003.00 7990.91 87.37 4.00 407.87 3342.33
   07:53:40.597.27-Aug-2021 5003.00 7989.34 87.37 4.00 408.07 3342.33
   07:53:40.797.27-Aug-2021 5003.00 7989.34 87.37 4.00 408.27 3342.33
   07:53:40.997.27-Aug-2021 5003.00 7995.31 87.37 4.00 408.47 3342.33
   07:53:41.197.27-Aug-2021 5003.00 7989.74 87.37 4.00 408.67 3342.33
   07:53:41.398.27-Aug-2021 5003.00 7989.41 87.37 4.00 408.87 3342.33
   07:53:41.598.27-Aug-2021 5003.00 7988.88 87.37 4.00 409.07 3342.33
   07:53:41.798.27-Aug-2021 5003.00 7988.88 87.37 4.00 409.27 3342.33
   07:53:41.998.27-Aug-2021 5003.00 7991.17 87.37 4.00 409.47 3342.33
   07:53:42.198.27-Aug-2021 5003.00 7992.99 87.37 4.00 409.67 3342.33
   07:53:42.398.27-Aug-2021 5003.00 7992.99 87.37 4.00 409.87 3342.33
   07:53:42.598.27-Aug-2021 5003.00 7989.01 87.37 4.00 410.07 3342.33
   07:53:42.798.27-Aug-2021 5003.00 7989.01 87.37 4.00 410.27 3342.33
   07:53:42.998.27-Aug-2021 5003.00 7989.60 87.37 4.00 410.47 3342.33
   07:53:43.198.27-Aug-2021 5003.00 7991.12 87.37 4.00 410.67 3342.33
   07:53:43.398.27-Aug-2021 5003.00 7991.97 87.37 4.00 410.87 3342.33
   07:53:43.598.27-Aug-2021 5003.00 7991.83 87.37 4.00 411.07 3342.33
   07:53:43.798.27-Aug-2021 5003.00 7991.83 87.37 4.00 411.27 3342.33
   07:53:43.998.27-Aug-2021 5003.00 7989.28 87.37 4.00 411.47 3342.33
   07:53:44.198.27-Aug-2021 5003.00 7990.81 87.37 4.00 411.67 3342.33
   07:53:44.398.27-Aug-2021 5003.00 7990.41 87.36 4.00 411.87 3342.33
   07:53:44.598.27-Aug-2021 5003.00 7990.50 87.36 4.00 412.07 3342.33
   07:53:44.798.27-Aug-2021 5003.00 7990.50 87.36 4.00 412.27 3342.33
   07:53:44.998.27-Aug-2021 5003.00 7989.36 87.36 4.00 412.47 3342.33
   07:53:45.198.27-Aug-2021 5003.00 7989.32 87.36 4.00 412.67 3342.33
   07:53:45.398.27-Aug-2021 5003.00 7990.04 87.36 4.00 412.87 3342.33
   07:53:45.598.27-Aug-2021 5003.00 7991.40 87.36 4.00 413.07 3342.33
   07:53:45.798.27-Aug-2021 5003.00 7991.40 87.36 4.00 413.27 3342.33
   07:53:45.998.27-Aug-2021 5003.00 7990.40 87.36 4.00 413.47 3342.33
   07:53:46.198.27-Aug-2021 5003.00 7989.73 87.36 4.00 413.67 3342.33
   07:53:46.398.27-Aug-2021 5003.00 7990.03 87.36 4.00 413.87 3342.33
