~Version Information
 VERS.                  2.0:   CWLS log ASCII Standard -VERSION 2.0
 WRAP.                   NO:   One line per depth step
~Well Information Block
#MNEM.UNIT     VALUE/NAME     DESCRIPTION
#---------     -----------    ---------------------------
 STRT.S             12:21:31 27-Aug-21: START TIME 12:21:31 27-Aug-21
 STOP.S             12:28:48 27-Aug-21: STOP TIME  12:28:48 27-Aug-21
 STEP.S                   0.00: STEP TIME
 NULL.                 -999.25: NULL VALUE
 DFWT.                        :  DIST FWL TEXT
 DFST.                        :  DIST FSL TEXT
 DMF .             Drill Floor:  DRILL MEAS FROM
 STIM.      20.00.00 17-Aug-21:  START TIME
 DATE.      19.00.00 29-Aug-21:  END TIME
 SPUD.               15-Aug-21:  SPUD DATE
 NREF.                    Grid:  NORTH REFERENCE
 HPTY.       Minimum Curvature:  HOLE POS TYPE
 DMOD.             Drill Model:  DRILL MOD DESC
 SVYD.                  Survey:  SURVEY DESC
 ILTD.               Lithology:  INTERP LTH DESC
 FTOP.          Formation Tops:  FORM TOPS DESC
 RIG .              East Azeri:  RIG NAME
 PDAT.          Mean Sea Level:  PERMANENT DATUM
 FLD .                     ACG:  FIELD NAME
 SON .        AZ-XX-0907180857:  JOB NUMBER
 CTRY.              Azerbaijan:  COUNTRY NAME
 WELL.                    D23x:  WELL NAME
 SRVC.     Turan Drilling and Engineering:  CONTRACTOR
 COMP.     BP Exploration (Caspian Sea) Ltd.:  COMPANY
 UWI .            /AZE00000214:  UNIQUE WELL IDENTIFIER
 API .            /AZE00000214:  API NUMBER
 MDS .        Operator Entered:  MAG DATA SOURCE
 BASE.              Azerbaijan:  LOGGING EQUIPMENT BASE LOCATION
 REGN.                   EESSA:  REGION
 PROV.                    Baku:  PROVINCE
 STAT.                    Baku:  STATE NAME
 MWDS.                    Baku:  MWD SHOP
 DOE .                     N/A:  DOE NUMBER
 DCON.         Sperry Drilling:  DIRECTNL CONTR
 UNIT.                     N/A:  LOGGING EQUIPMENT ID
 WTYP.                Deviated:  WELL TYPE
 CNTY.                        :  COUNTY
 LOC .                        :  LOCATION
 LMF .             Drill Floor:  LOG MEASURED FROM
 TVDS.m                  43.60:  TVDSS CORRECTN
 LATI.deg                40.02:  LATITUDE
 LONG.deg                51.45:  LONGITUDE
 WHNS.m                  -7.04:  WELL HEAD N/S
 WHEW.m                  -0.67:  WELL HEAD E/W
 UTMX.m              538762.90:  UTM X
 UTMY.m             4431871.34:  UTM Y
 DFWL.m                   0.00:  DISTANCE FWL
 DFSL.m                   0.00:  DISTANCE FSL
 SDEP.m                4127.00:  START DEPTH
 TDD .m                5084.50:  TOTAL DEPTH (DRILLER)
 VSDR.deg               140.47:  VERT SEC DIRECT
 GVFD.g                   1.00:  GRAVITY FIELD
 MFLD.nT              50362.00:  MAGNETIC FIELD
 MDIP.deg                59.48:  MAGNETIC DIP
 MDEC.deg                 6.47:  MAGNETIC DECL
 GRDC.deg                 0.31:  GRID CORRECTION
 AZTC.deg                 6.16:  AZM TOTAL CORR
 EPD .m                   0.00:  ELEVATION
 EGL .m                   0.00:  GROUND ELEVATION
 WDMS.m                 151.80:  WD ELEV
 APD .m                  43.60:  DEPTH ABOVE PD
 DEP .m                4092.57:  DEPTH
 AGAP.m                  43.60:  AIR GAP
 VSEW.m                  -0.67:  VERT SEC E/W
 VSNS.m                  -7.04:  VERT SEC N/S
 EKB .m                  43.60:  KB ELEVATION
 EDF .m                  43.60:  DF ELEVATION
 TDL .m                 957.50:  TOTAL DEPTH (LOGGER)
 VSC .                       0:  VS TO CLOSURE
 MAGU.                 1851413:  MAGUTM CHECKSUM
~Parameter Information Block
#MNEM.UNIT       Value        Description
#---------     -----------    ---------------------------
 AV  .mps                 1.50:  Ann Velocity 
 AVMX.mps                 2.00:  Max Ann Veloc 
 AZIF.deg               184.66:  Azm, Final 
 BHAT.        Rotary Steerable:  BHA Type 
 BREV.rev               300.00:  Rev Bit Total 
 BROT.°/30m              -0.50:  Build Rotating 
 BS  .in                  8.50:  Bit Size 
 BSZ .in                  8.50:  Bit Size 
 BTPL.psig              370.00:  Bit Press Loss 
 CABU.                      No:  Customer Abuse 
 CGEO.      Behruz Shahbaliyev:  Customer Geo 
 TCS .hr                140.08:  Time Ciculation Ended 
 CV  .mps                 3.00:  Crit Velocity 
 CVMX.mps                 3.20:  Max Crit Veloc 
 DD1 .            Musa Ahmadov:  Direct Drillr 1 
 DD2 .           Hamid Ahmadov:  Direct Drillr 2 
 DDSV.               Geo-Pilot:  DD Service 
 DEFF.%                  98.40:  % Det Eff 
 DLRX.°/30m               3.40:  Dogleg Rot Max 
 DLSO.°/30m               1.45:  Dogleg Oriented 
 DLSX.°/30m               3.40:  Dogleg Str Max 
 DRET.      18.40.00 29-Aug-21:  Drill End Time 
 DRST.      21.00.00 20-Aug-21:  Drill Start Tim 
 DTIM.hr                 69.47:  Time Drilling 
 EDEP.m                5084.50:  End Depth 
 ENG1.      Artemiy Matviyanov:  Engineer 1 
 ENG2.         Almaz Almadatov:  Engineer 2 
 ETIM.      18.40.00 29-Aug-21:  End Time 
 FLOI.gpm               500.00:  Flow In 
 FLON.gpm               400.00:  Flow In Min 
 FLOS.cptm                0.00:  Fluid Loss 
 FLOX.gpm               500.00:  Flow In Max 
 DFT .        Mineral Oil Base:  Mud Type 
 HFLO.                      No:  High Flow 
 HPRE.                      No:  High Pressure 
 HTEM.                      No:  High Temp 
 HYDO.m                   1.80:  Hydro Offset 
 IFIN.deg                25.62:  Inc, Final 
 IMAX.deg                48.69:  Inc Max 
 IMIN.deg                24.01:  Inc Min 
 IMND.m                4962.57:  Inc Min Depth 
 IMXD.m                4119.01:  Inc Max Depth 
 JARR.                      No:  Jarring 
 LETM.      18.40.00 29-Aug-21:  Log End Time 
 LOST.hr                     0:  Lost Rig Time 
 LSTM.      21.00.00 20-Aug-21:  Log Start Time 
 MDCL.ppm             41500.00:  Mud Chlorides 
 MDES.     Inversion Oil/Synthetic:  Mud Desc 
 DFD .sg                  1.56:  Mud Density 
 MDMN.sg                  1.56:  Dens Mud Min 
 MDMX.sg                  1.56:  Dens Mud Max 
 MOIL.                      70:  Run Mud Oil % 
 MOWR.                   70:30:  Run Mud OWR 
 MSND.                     0.2:  Run Mud Sand % 
 MSOL.                    23.3:  Run Mud Solids% 
 DFV .spqt               78.00:  Mud Viscosity 
 MWOD.in                  6.75:  MWD Tool OD 
 MWSI.                      No:  Serv Intrp, MWD 
 OTIM.hr                218.30:  Time Operating 
 PCON.           Look Like New:  Pad Condition 
 PMAX.psia            11015.30:  Press Op, Max 
 PV  .cP                 38.00:  Mud PV 
 RUN .                     300:  Run Number 
 ROPA.m/hr               15.00:  ROP Avg 
 ROPN.m/hr                9.00:  ROP Min 
 ROPX.m/hr               17.00:  ROP Max 
 RPMA.rpm               120.00:  RPM Surface Avg 
 RPMN.rpm                90.00:  RPM Surface Min 
 RPMX.rpm               140.00:  RPM Surface Max 
 RRUN.                     300:  Rig Run Number 
 RTIM.hr                 31.53:  Time Reaming 
 SAZI.deg               331.64:  Azm, Start 
 SDEP.m                4127.00:  Start Depth 
 SIDD.                      No:  Serv Intrp, DD 
 SINC.deg                48.43:  Inc, Start 
 SPPA.psig             5830.00:  SPP Avg 
 SPPN.psig             5600.00:  SPP Min 
 SPPX.psig             5900.00:  SPP Max 
 STIM.      21.00.00 20-Aug-21:  Start Time 
 SVCS.                 DD, MWD:  Services 
 SVER.                    9.20:  Sperry Version 
 TDAT.m                 957.50:  Tot Depth Attmp 
 TDDF.                      No:  Trip for DD 
 TDLG.m                 957.50:  Tot Depth Loggd 
 TFF .                      No:  Trip for Fail 
 TQAA.f-kp               15.00:  Torque Abs Avg 
 TQAN.f-kp               12.00:  Torque Abs Min 
 TQAX.f-kp               19.00:  Torque Abs Max 
 TRRT.°/30m              -3.40:  Turn Rotating 
 MRT .                  EWR-M5:  Maximum Recorded Temperature 
 TTMX.degC              100.00:  Max Tool Temp 
 VS01.                90639251:  Virtual Str1 SN 
 VS02.                90634715:  Virtual Str2 SN 
 VS03.                90652479:  Virtual Str3 SN 
 VS04.                90642262:  Virtual Str4 SN 
 WBMN.klb                 0.00:  WOB Min 
 WITN.           Murad Guliyev:  Customer Rep 
 WITN.          Yashar Gaziyev:  Customer Rep 2 
 WOBA.klb                 9.00:  WOB Avg 
 WOBX.klb                12.00:  WOB Max 
 YP  .lhf2               30.00:  Yield Point 
~Curve Information Block
#MNEM.UNIT                 API CODE     Curve Description
#---------               -----------    ---------------------------
 TIME.HHMMSS            00 000 000 000:  GT Time & Date
 GTDEPTH.m              00 000 000 000:  GT Depth
 GTPQH.psia             00 000 000 000:  GT HR Quartz Pressure
 GTTQ.degC              00 000 000 000:  GT Quartz Temperature
 GTTN.NONE              00 000 000 000:  GT Test Number
 GTET.sec               00 000 000 000:  GT Elapsed Test Time
 GTTVD.m                00 000 000 000:  GT True Vertical Depth
#Other Information
#
#WARRANTY: Halliburton will use its best efforts to furnish customers with 
#accurate information and interpretations that are part of, and incident to, the services 
#provided.  However, Halliburton cannot and does not warrant the accuracy 
#or correctness of such information and interpretations.  Under no circumstances should any 
#such information or interpretation be relied upon as the sole basis for any drilling, 
#completion, production, or financial decision or any procedure involving any risk to the 
#safety of any drilling venture, drilling rig or its crew or any other third party.  The 
#Customer has full responsibility for all drilling, completion and production operation.  
#Halliburton makes no representations or warranties, either expressed or 
#implied, including, but not limited to, the implied warranties of merchantability or fitness 
#for a particular purpose, with respect to the services rendered.  In no event will 
#Halliburton be liable for failure to obtain any particular results or for 
#any damages, including, but not limited to, indirect, special or consequential damages, 
#resulting from the use of any information or interpretation provided by Halliburton.
#
~A           TIME           GTDEPTH  GTPQH  GTTQ  GTTN   GTET   GTTVD  
# ...
   12:24:09.598.27-Aug-2021 4914.80 7807.29 85.34 12.00 158.26 3262.04
   12:24:09.798.27-Aug-2021 4914.80 7805.49 85.34 12.00 158.46 3262.04
   12:24:09.998.27-Aug-2021 4914.80 7806.31 85.34 12.00 158.66 3262.04
   12:24:10.198.27-Aug-2021 4914.80 7806.06 85.34 12.00 158.86 3262.04
   12:24:10.398.27-Aug-2021 4914.80 7808.38 85.34 12.00 159.06 3262.04
   12:24:10.598.27-Aug-2021 4914.80 7808.38 85.34 12.00 159.26 3262.04
   12:24:10.799.27-Aug-2021 4914.80 7807.47 85.34 12.00 159.46 3262.04
   12:24:10.999.27-Aug-2021 4914.80 7806.71 85.34 12.00 159.66 3262.04
   12:24:11.199.27-Aug-2021 4914.80 7806.52 85.34 12.00 159.86 3262.04
   12:24:11.399.27-Aug-2021 4914.80 7806.37 85.34 12.00 160.06 3262.04
   12:24:11.599.27-Aug-2021 4914.80 7806.37 85.34 12.00 160.26 3262.04
   12:24:11.799.27-Aug-2021 4914.80 7806.09 85.34 12.00 160.46 3262.04
   12:24:11.999.27-Aug-2021 4914.80 7808.28 85.34 12.00 160.66 3262.04
   12:24:12.199.27-Aug-2021 4914.80 7806.17 85.34 12.00 160.86 3262.04
   12:24:12.399.27-Aug-2021 4914.80 7807.19 85.34 12.00 161.06 3262.04
   12:24:12.599.27-Aug-2021 4914.80 7807.19 85.34 12.00 161.26 3262.04
   12:24:12.799.27-Aug-2021 4914.80 7806.61 85.34 12.00 161.46 3262.04
   12:24:12.999.27-Aug-2021 4914.80 7806.23 85.34 12.00 161.66 3262.04
   12:24:13.199.27-Aug-2021 4914.80 7806.33 85.34 12.00 161.86 3262.04
   12:24:13.399.27-Aug-2021 4914.80 7805.64 85.34 12.00 162.06 3262.04
   12:24:13.600.27-Aug-2021 4914.80 7805.64 85.34 12.00 162.26 3262.04
   12:24:13.800.27-Aug-2021 4914.80 7806.19 85.34 12.00 162.46 3262.04
   12:24:14.000.27-Aug-2021 4914.80 7806.48 85.34 12.00 162.66 3262.04
   12:24:14.200.27-Aug-2021 4914.80 7806.67 85.34 12.00 162.86 3262.04
   12:24:14.400.27-Aug-2021 4914.80 7806.36 85.34 12.00 163.06 3262.04
   12:24:14.600.27-Aug-2021 4914.80 7806.36 85.34 12.00 163.26 3262.04
   12:24:14.800.27-Aug-2021 4914.80 7806.15 85.34 12.00 163.46 3262.04
   12:24:15.000.27-Aug-2021 4914.80 7806.21 85.34 12.00 163.66 3262.04
   12:24:15.200.27-Aug-2021 4914.80 7811.18 85.34 12.00 163.86 3262.04
   12:24:15.400.27-Aug-2021 4914.80 7804.04 85.34 12.00 164.06 3262.04
   12:24:15.600.27-Aug-2021 4914.80 7804.04 85.34 12.00 164.26 3262.04
   12:24:15.800.27-Aug-2021 4914.80 7805.93 85.34 12.00 164.46 3262.04
   12:24:16.000.27-Aug-2021 4914.80 7805.73 85.34 12.00 164.66 3262.04
   12:24:16.200.27-Aug-2021 4914.80 7805.70 85.34 12.00 164.86 3262.04
   12:24:16.401.27-Aug-2021 4914.80 7801.96 85.34 12.00 165.06 3262.04
   12:24:16.601.27-Aug-2021 4914.80 7801.96 85.34 12.00 165.26 3262.04
   12:24:16.801.27-Aug-2021 4914.80 7799.91 85.34 12.00 165.46 3262.04
   12:24:17.001.27-Aug-2021 4914.80 7802.17 85.34 12.00 165.66 3262.04
   12:24:17.201.27-Aug-2021 4914.80 7802.90 85.34 12.00 165.86 3262.04
   12:24:17.401.27-Aug-2021 4914.80 7803.26 85.34 12.00 166.06 3262.04
   12:24:17.601.27-Aug-2021 4914.80 7803.26 85.34 12.00 166.26 3262.04
   12:24:17.801.27-Aug-2021 4914.80 7803.25 85.34 12.00 166.46 3262.04
   12:24:18.001.27-Aug-2021 4914.80 7802.83 85.34 12.00 166.66 3262.04
   12:24:18.201.27-Aug-2021 4914.80 7802.89 85.34 12.00 166.86 3262.04
   12:24:18.401.27-Aug-2021 4914.80 7802.49 85.34 12.00 167.06 3262.04
   12:24:18.601.27-Aug-2021 4914.80 7802.49 85.34 12.00 167.26 3262.04
   12:24:18.801.27-Aug-2021 4914.80 7802.49 85.34 12.00 167.46 3262.04
   12:24:19.001.27-Aug-2021 4914.80 7803.79 85.34 12.00 167.66 3262.04
   12:24:19.202.27-Aug-2021 4914.80 7802.28 85.34 12.00 167.86 3262.04
   12:24:19.402.27-Aug-2021 4914.80 7801.93 85.34 12.00 168.06 3262.04
   12:24:19.602.27-Aug-2021 4914.80 7801.93 85.34 12.00 168.26 3262.04
   12:24:19.802.27-Aug-2021 4914.80 7799.29 85.34 12.00 168.46 3262.04
   12:24:20.002.27-Aug-2021 4914.80 7803.50 85.34 12.00 168.66 3262.04
   12:24:20.202.27-Aug-2021 4914.80 7802.09 85.34 12.00 168.86 3262.04
   12:24:20.402.27-Aug-2021 4914.80 7801.82 85.34 12.00 169.06 3262.04
   12:24:20.602.27-Aug-2021 4914.80 7801.82 85.34 12.00 169.26 3262.04
   12:24:20.802.27-Aug-2021 4914.80 7802.29 85.34 12.00 169.46 3262.04
   12:24:21.002.27-Aug-2021 4914.80 7804.41 85.34 12.00 169.66 3262.04
   12:24:21.202.27-Aug-2021 4914.80 7803.29 85.34 12.00 169.86 3262.04
   12:24:21.402.27-Aug-2021 4914.80 7803.63 85.34 12.00 170.06 3262.04
   12:24:21.602.27-Aug-2021 4914.80 7803.63 85.34 12.00 170.26 3262.04
   12:24:21.802.27-Aug-2021 4914.80 7802.53 85.34 12.00 170.46 3262.04
   12:24:22.003.27-Aug-2021 4914.80 7802.20 85.34 12.00 170.66 3262.04
   12:24:22.203.27-Aug-2021 4914.80 7802.03 85.34 12.00 170.86 3262.04
   12:24:22.403.27-Aug-2021 4914.80 7805.19 85.34 12.00 171.06 3262.04
   12:24:22.603.27-Aug-2021 4914.80 7805.19 85.34 12.00 171.26 3262.04
   12:24:22.803.27-Aug-2021 4914.80 7802.55 85.34 12.00 171.46 3262.04
   12:24:23.003.27-Aug-2021 4914.80 7802.14 85.34 12.00 171.66 3262.04
   12:24:23.203.27-Aug-2021 4914.80 7802.24 85.34 12.00 171.86 3262.04
   12:24:23.403.27-Aug-2021 4914.80 7802.45 85.34 12.00 172.06 3262.04
   12:24:23.603.27-Aug-2021 4914.80 7802.45 85.34 12.00 172.26 3262.04
   12:24:23.803.27-Aug-2021 4914.80 7801.88 85.34 12.00 172.46 3262.04
   12:24:24.003.27-Aug-2021 4914.80 7802.04 85.34 12.00 172.66 3262.04
   12:24:24.203.27-Aug-2021 4914.80 7802.47 85.34 12.00 172.86 3262.04
   12:24:24.403.27-Aug-2021 4914.80 7802.61 85.34 12.00 173.06 3262.04
   12:24:24.603.27-Aug-2021 4914.80 7802.61 85.34 12.00 173.26 3262.04
   12:24:24.804.27-Aug-2021 4914.80 7802.84 85.34 12.00 173.46 3262.04
   12:24:25.004.27-Aug-2021 4914.80 7802.85 85.34 12.00 173.66 3262.04
   12:24:25.204.27-Aug-2021 4914.80 7802.38 85.34 12.00 173.86 3262.04
   12:24:25.404.27-Aug-2021 4914.80 7802.58 85.34 12.00 174.06 3262.04
   12:24:25.604.27-Aug-2021 4914.80 7802.58 85.34 12.00 174.26 3262.04
   12:24:25.804.27-Aug-2021 4914.80 7800.16 85.34 12.00 174.46 3262.04
   12:24:26.004.27-Aug-2021 4914.80 7803.59 85.34 12.00 174.66 3262.04
   12:24:26.204.27-Aug-2021 4914.80 7801.61 85.34 12.00 174.86 3262.04
   12:24:26.404.27-Aug-2021 4914.80 7802.01 85.34 12.00 175.06 3262.04
   12:24:26.604.27-Aug-2021 4914.80 7802.01 85.34 12.00 175.26 3262.04
   12:24:26.804.27-Aug-2021 4914.80 7805.90 85.34 12.00 175.46 3262.04
   12:24:27.004.27-Aug-2021 4914.80 7806.00 85.34 12.00 175.66 3262.04
   12:24:27.204.27-Aug-2021 4914.80 7806.15 85.34 12.00 175.86 3262.04
   12:24:27.404.27-Aug-2021 4914.80 7806.43 85.34 12.00 176.06 3262.04
   12:24:27.605.27-Aug-2021 4914.80 7806.43 85.34 12.00 176.26 3262.04
   12:24:27.805.27-Aug-2021 4914.80 7807.15 85.34 12.00 176.46 3262.04
   12:24:28.005.27-Aug-2021 4914.80 7807.21 85.34 12.00 176.66 3262.04
   12:24:28.205.27-Aug-2021 4914.80 7807.13 85.34 12.00 176.86 3262.04
   12:24:28.405.27-Aug-2021 4914.80 7806.85 85.34 12.00 177.06 3262.04
   12:24:28.605.27-Aug-2021 4914.80 7806.85 85.34 12.00 177.26 3262.04
   12:24:28.805.27-Aug-2021 4914.80 7806.35 85.34 12.00 177.46 3262.04
   12:24:29.005.27-Aug-2021 4914.80 7811.24 85.34 12.00 177.66 3262.04
   12:24:29.205.27-Aug-2021 4914.80 7803.88 85.34 12.00 177.86 3262.04
   12:24:29.405.27-Aug-2021 4914.80 7807.12 85.34 12.00 178.06 3262.04
   12:24:29.605.27-Aug-2021 4914.80 7807.12 85.34 12.00 178.26 3262.04
   12:24:29.805.27-Aug-2021 4914.80 7805.64 85.34 12.00 178.46 3262.04
   12:24:30.005.27-Aug-2021 4914.80 7811.24 85.34 12.00 178.66 3262.04
   12:24:30.205.27-Aug-2021 4914.80 7803.42 85.34 12.00 178.86 3262.04
   12:24:30.406.27-Aug-2021 4914.80 7807.36 85.34 12.00 179.06 3262.04
   12:24:30.606.27-Aug-2021 4914.80 7807.36 85.34 12.00 179.26 3262.04
   12:24:30.806.27-Aug-2021 4914.80 7805.71 85.34 12.00 179.46 3262.04
   12:24:31.006.27-Aug-2021 4914.80 7806.29 85.34 12.00 179.66 3262.04
   12:24:31.206.27-Aug-2021 4914.80 7806.21 85.34 12.00 179.86 3262.04
   12:24:31.406.27-Aug-2021 4914.80 7809.88 85.34 12.00 180.06 3262.04
   12:24:31.606.27-Aug-2021 4914.80 7809.88 85.34 12.00 180.26 3262.04
   12:24:31.806.27-Aug-2021 4914.80 7807.06 85.34 12.00 180.46 3262.04
   12:24:32.006.27-Aug-2021 4914.80 7806.52 85.34 12.00 180.66 3262.04
