~Version Information
 VERS.                  2.0:   CWLS log ASCII Standard -VERSION 2.0
 WRAP.                   NO:   One line per depth step
~Well Information Block
#MNEM.UNIT     VALUE/NAME     DESCRIPTION
#---------     -----------    ---------------------------
 STRT.S             01:57:49 28-Aug-21: START TIME 01:57:49 28-Aug-21
 STOP.S             02:04:41 28-Aug-21: STOP TIME  02:04:41 28-Aug-21
 STEP.S                   0.00: STEP TIME
 NULL.                 -999.25: NULL VALUE
 DFWT.                        :  DIST FWL TEXT
 DFST.                        :  DIST FSL TEXT
 DMF .             Drill Floor:  DRILL MEAS FROM
 STIM.      20.00.00 17-Aug-21:  START TIME
 DATE.      19.00.00 29-Aug-21:  END TIME
 SPUD.               15-Aug-21:  SPUD DATE
 NREF.                    Grid:  NORTH REFERENCE
 HPTY.       Minimum Curvature:  HOLE POS TYPE
 DMOD.             Drill Model:  DRILL MOD DESC
 SVYD.                  Survey:  SURVEY DESC
 ILTD.               Lithology:  INTERP LTH DESC
 FTOP.          Formation Tops:  FORM TOPS DESC
 RIG .              East Azeri:  RIG NAME
 PDAT.          Mean Sea Level:  PERMANENT DATUM
 FLD .                     ACG:  FIELD NAME
 SON .        AZ-XX-0907180857:  JOB NUMBER
 CTRY.              Azerbaijan:  COUNTRY NAME
 WELL.                    D23x:  WELL NAME
 SRVC.     Turan Drilling and Engineering:  CONTRACTOR
 COMP.     BP Exploration (Caspian Sea) Ltd.:  COMPANY
 UWI .            /AZE00000214:  UNIQUE WELL IDENTIFIER
 API .            /AZE00000214:  API NUMBER
 MDS .        Operator Entered:  MAG DATA SOURCE
 BASE.              Azerbaijan:  LOGGING EQUIPMENT BASE LOCATION
 REGN.                   EESSA:  REGION
 PROV.                    Baku:  PROVINCE
 STAT.                    Baku:  STATE NAME
 MWDS.                    Baku:  MWD SHOP
 DOE .                     N/A:  DOE NUMBER
 DCON.         Sperry Drilling:  DIRECTNL CONTR
 UNIT.                     N/A:  LOGGING EQUIPMENT ID
 WTYP.                Deviated:  WELL TYPE
 CNTY.                        :  COUNTY
 LOC .                        :  LOCATION
 LMF .             Drill Floor:  LOG MEASURED FROM
 TVDS.m                  43.60:  TVDSS CORRECTN
 LATI.deg                40.02:  LATITUDE
 LONG.deg                51.45:  LONGITUDE
 WHNS.m                  -7.04:  WELL HEAD N/S
 WHEW.m                  -0.67:  WELL HEAD E/W
 UTMX.m              538762.90:  UTM X
 UTMY.m             4431871.34:  UTM Y
 DFWL.m                   0.00:  DISTANCE FWL
 DFSL.m                   0.00:  DISTANCE FSL
 SDEP.m                4127.00:  START DEPTH
 TDD .m                5084.50:  TOTAL DEPTH (DRILLER)
 VSDR.deg               140.47:  VERT SEC DIRECT
 GVFD.g                   1.00:  GRAVITY FIELD
 MFLD.nT              50362.00:  MAGNETIC FIELD
 MDIP.deg                59.48:  MAGNETIC DIP
 MDEC.deg                 6.47:  MAGNETIC DECL
 GRDC.deg                 0.31:  GRID CORRECTION
 AZTC.deg                 6.16:  AZM TOTAL CORR
 EPD .m                   0.00:  ELEVATION
 EGL .m                   0.00:  GROUND ELEVATION
 WDMS.m                 151.80:  WD ELEV
 APD .m                  43.60:  DEPTH ABOVE PD
 DEP .m                4092.57:  DEPTH
 AGAP.m                  43.60:  AIR GAP
 VSEW.m                  -0.67:  VERT SEC E/W
 VSNS.m                  -7.04:  VERT SEC N/S
 EKB .m                  43.60:  KB ELEVATION
 EDF .m                  43.60:  DF ELEVATION
 TDL .m                 957.50:  TOTAL DEPTH (LOGGER)
 VSC .                       0:  VS TO CLOSURE
 MAGU.                 1851413:  MAGUTM CHECKSUM
~Parameter Information Block
#MNEM.UNIT       Value        Description
#---------     -----------    ---------------------------
 AV  .mps                 1.50:  Ann Velocity 
 AVMX.mps                 2.00:  Max Ann Veloc 
 AZIF.deg               184.66:  Azm, Final 
 BHAT.        Rotary Steerable:  BHA Type 
 BREV.rev               300.00:  Rev Bit Total 
 BROT.°/30m              -0.50:  Build Rotating 
 BS  .in                  8.50:  Bit Size 
 BSZ .in                  8.50:  Bit Size 
 BTPL.psig              370.00:  Bit Press Loss 
 CABU.                      No:  Customer Abuse 
 CGEO.      Behruz Shahbaliyev:  Customer Geo 
 COMM.                     Äi}:  Run Comments 1 
 TCS .hr                140.08:  Time Ciculation Ended 
 CV  .mps                 3.00:  Crit Velocity 
 CVMX.mps                 3.20:  Max Crit Veloc 
 DD1 .            Musa Ahmadov:  Direct Drillr 1 
 DD2 .           Hamid Ahmadov:  Direct Drillr 2 
 DDSV.               Geo-Pilot:  DD Service 
 DEFF.%                  98.40:  % Det Eff 
 DLRX.°/30m               3.40:  Dogleg Rot Max 
 DLSO.°/30m               1.45:  Dogleg Oriented 
 DLSX.°/30m               3.40:  Dogleg Str Max 
 DRET.      18.40.00 29-Aug-21:  Drill End Time 
 DRST.      21.00.00 20-Aug-21:  Drill Start Tim 
 DTIM.hr                 69.47:  Time Drilling 
 EDEP.m                5084.50:  End Depth 
 ENG1.      Artemiy Matviyanov:  Engineer 1 
 ENG2.         Almaz Almadatov:  Engineer 2 
 ETIM.      18.40.00 29-Aug-21:  End Time 
 FLOI.gpm               500.00:  Flow In 
 FLON.gpm               400.00:  Flow In Min 
 FLOS.cptm                0.00:  Fluid Loss 
 FLOX.gpm               500.00:  Flow In Max 
 DFT .        Mineral Oil Base:  Mud Type 
 HFLO.                      No:  High Flow 
 HPRE.                      No:  High Pressure 
 HTEM.                      No:  High Temp 
 HYDO.m                   1.80:  Hydro Offset 
 IFIN.deg                25.62:  Inc, Final 
 IMAX.deg                48.69:  Inc Max 
 IMIN.deg                24.01:  Inc Min 
 IMND.m                4962.57:  Inc Min Depth 
 IMXD.m                4119.01:  Inc Max Depth 
 JARR.                      No:  Jarring 
 LETM.      18.40.00 29-Aug-21:  Log End Time 
 LOST.hr                     0:  Lost Rig Time 
 LSTM.      21.00.00 20-Aug-21:  Log Start Time 
 MDCL.ppm             41500.00:  Mud Chlorides 
 MDES.     Inversion Oil/Synthetic:  Mud Desc 
 DFD .sg                  1.56:  Mud Density 
 MDMN.sg                  1.56:  Dens Mud Min 
 MDMX.sg                  1.56:  Dens Mud Max 
 MOIL.                      70:  Run Mud Oil % 
 MOWR.                   70:30:  Run Mud OWR 
 MSND.                     0.2:  Run Mud Sand % 
 MSOL.                    23.3:  Run Mud Solids% 
 DFV .spqt               78.00:  Mud Viscosity 
 MWOD.in                  6.75:  MWD Tool OD 
 MWSI.                      No:  Serv Intrp, MWD 
 OTIM.hr                218.30:  Time Operating 
 PCON.           Look Like New:  Pad Condition 
 PMAX.psia            11015.30:  Press Op, Max 
 PV  .cP                 38.00:  Mud PV 
 RUN .                     300:  Run Number 
 ROPA.m/hr               15.00:  ROP Avg 
 ROPN.m/hr                9.00:  ROP Min 
 ROPX.m/hr               17.00:  ROP Max 
 RPMA.rpm               120.00:  RPM Surface Avg 
 RPMN.rpm                90.00:  RPM Surface Min 
 RPMX.rpm               140.00:  RPM Surface Max 
 RRUN.                     300:  Rig Run Number 
 RTIM.hr                 31.53:  Time Reaming 
 SAZI.deg               331.64:  Azm, Start 
 SDEP.m                4127.00:  Start Depth 
 SIDD.                      No:  Serv Intrp, DD 
 SINC.deg                48.43:  Inc, Start 
 SPPA.psig             5830.00:  SPP Avg 
 SPPN.psig             5600.00:  SPP Min 
 SPPX.psig             5900.00:  SPP Max 
 STIM.      21.00.00 20-Aug-21:  Start Time 
 SVCS.                 DD, MWD:  Services 
 SVER.                    9.20:  Sperry Version 
 TDAT.m                 957.50:  Tot Depth Attmp 
 TDDF.                      No:  Trip for DD 
 TDLG.m                 957.50:  Tot Depth Loggd 
 TFF .                      No:  Trip for Fail 
 TQAA.f-kp               15.00:  Torque Abs Avg 
 TQAN.f-kp               12.00:  Torque Abs Min 
 TQAX.f-kp               19.00:  Torque Abs Max 
 TRRT.°/30m              -3.40:  Turn Rotating 
 MRT .                  EWR-M5:  Maximum Recorded Temperature 
 TTMX.degC              100.00:  Max Tool Temp 
 VS01.                90639251:  Virtual Str1 SN 
 VS02.                90634715:  Virtual Str2 SN 
 VS03.                90652479:  Virtual Str3 SN 
 VS04.                90642262:  Virtual Str4 SN 
 WBMN.klb                 0.00:  WOB Min 
 WITN.           Murad Guliyev:  Customer Rep 
 WITN.          Yashar Gaziyev:  Customer Rep 2 
 WOBA.klb                 9.00:  WOB Avg 
 WOBX.klb                12.00:  WOB Max 
 YP  .lhf2               30.00:  Yield Point 
~Curve Information Block
#MNEM.UNIT                 API CODE     Curve Description
#---------               -----------    ---------------------------
 TIME.HHMMSS            00 000 000 000:  GT Time & Date
 GTDEPTH.m              00 000 000 000:  GT Depth
 GTPQH.psia             00 000 000 000:  GT HR Quartz Pressure
 GTTQ.degC              00 000 000 000:  GT Quartz Temperature
 GTTN.NONE              00 000 000 000:  GT Test Number
 GTET.sec               00 000 000 000:  GT Elapsed Test Time
 GTTVD.m                00 000 000 000:  GT True Vertical Depth
#Other Information
#
#WARRANTY: Halliburton will use its best efforts to furnish customers with 
#accurate information and interpretations that are part of, and incident to, the services 
#provided.  However, Halliburton cannot and does not warrant the accuracy 
#or correctness of such information and interpretations.  Under no circumstances should any 
#such information or interpretation be relied upon as the sole basis for any drilling, 
#completion, production, or financial decision or any procedure involving any risk to the 
#safety of any drilling venture, drilling rig or its crew or any other third party.  The 
#Customer has full responsibility for all drilling, completion and production operation.  
#Halliburton makes no representations or warranties, either expressed or 
#implied, including, but not limited to, the implied warranties of merchantability or fitness 
#for a particular purpose, with respect to the services rendered.  In no event will 
#Halliburton be liable for failure to obtain any particular results or for 
#any damages, including, but not limited to, indirect, special or consequential damages, 
#resulting from the use of any information or interpretation provided by Halliburton.
#
~A           TIME           GTDEPTH  GTPQH  GTTQ  GTTN   GTET   GTTVD  
# ...
   02:02:20.637.28-Aug-2021 4879.00 7756.64 81.14 27.00 271.29 3229.53
   02:02:20.837.28-Aug-2021 4879.00 7757.35 81.14 27.00 271.49 3229.53
   02:02:21.037.28-Aug-2021 4879.00 7757.30 81.14 27.00 271.69 3229.53
   02:02:21.237.28-Aug-2021 4879.00 7757.69 81.14 27.00 271.89 3229.53
   02:02:21.437.28-Aug-2021 4879.00 7757.57 81.14 27.00 272.09 3229.53
   02:02:21.637.28-Aug-2021 4879.00 7757.57 81.14 27.00 272.29 3229.53
   02:02:21.837.28-Aug-2021 4879.00 7757.43 81.14 27.00 272.49 3229.53
   02:02:22.037.28-Aug-2021 4879.00 7757.44 81.14 27.00 272.69 3229.53
   02:02:22.237.28-Aug-2021 4879.00 7757.18 81.14 27.00 272.89 3229.53
   02:02:22.438.28-Aug-2021 4879.00 7761.60 81.14 27.00 273.09 3229.53
   02:02:22.638.28-Aug-2021 4879.00 7761.60 81.14 27.00 273.29 3229.53
   02:02:22.838.28-Aug-2021 4879.00 7758.47 81.14 27.00 273.49 3229.53
   02:02:23.038.28-Aug-2021 4879.00 7757.31 81.14 27.00 273.69 3229.53
   02:02:23.238.28-Aug-2021 4879.00 7761.48 81.14 27.00 273.89 3229.53
   02:02:23.438.28-Aug-2021 4879.00 7755.74 81.14 27.00 274.09 3229.53
   02:02:23.638.28-Aug-2021 4879.00 7755.74 81.14 27.00 274.29 3229.53
   02:02:23.838.28-Aug-2021 4879.00 7757.08 81.14 27.00 274.49 3229.53
   02:02:24.038.28-Aug-2021 4879.00 7757.03 81.14 27.00 274.69 3229.53
   02:02:24.238.28-Aug-2021 4879.00 7757.38 81.14 27.00 274.89 3229.53
   02:02:24.438.28-Aug-2021 4879.00 7762.70 81.14 27.00 275.09 3229.53
   02:02:24.638.28-Aug-2021 4879.00 7762.70 81.14 27.00 275.29 3229.53
   02:02:24.838.28-Aug-2021 4879.00 7758.87 81.14 27.00 275.49 3229.53
   02:02:25.038.28-Aug-2021 4879.00 7758.31 81.14 27.00 275.69 3229.53
   02:02:25.238.28-Aug-2021 4879.00 7757.89 81.14 27.00 275.89 3229.53
   02:02:25.438.28-Aug-2021 4879.00 7763.60 81.14 27.00 276.09 3229.53
   02:02:25.639.28-Aug-2021 4879.00 7763.60 81.14 27.00 276.29 3229.53
   02:02:25.839.28-Aug-2021 4879.00 7758.38 81.14 27.00 276.49 3229.53
   02:02:26.039.28-Aug-2021 4879.00 7757.72 81.14 27.00 276.69 3229.53
   02:02:26.239.28-Aug-2021 4879.00 7757.40 81.14 27.00 276.89 3229.53
   02:02:26.439.28-Aug-2021 4879.00 7757.23 81.14 27.00 277.09 3229.53
   02:02:26.639.28-Aug-2021 4879.00 7757.23 81.14 27.00 277.29 3229.53
   02:02:26.839.28-Aug-2021 4879.00 7756.92 81.14 27.00 277.49 3229.53
   02:02:27.039.28-Aug-2021 4879.00 7757.22 81.14 27.00 277.69 3229.53
   02:02:27.239.28-Aug-2021 4879.00 7757.44 81.14 27.00 277.89 3229.53
   02:02:27.439.28-Aug-2021 4879.00 7757.61 81.14 27.00 278.09 3229.53
   02:02:27.639.28-Aug-2021 4879.00 7757.61 81.14 27.00 278.29 3229.53
   02:02:27.839.28-Aug-2021 4879.00 7757.71 81.14 27.00 278.49 3229.53
   02:02:28.039.28-Aug-2021 4879.00 7757.61 81.14 27.00 278.69 3229.53
   02:02:28.239.28-Aug-2021 4879.00 7757.52 81.14 27.00 278.89 3229.53
   02:02:28.439.28-Aug-2021 4879.00 7757.36 81.14 27.00 279.09 3229.53
   02:02:28.639.28-Aug-2021 4879.00 7757.36 81.14 27.00 279.29 3229.53
   02:02:28.840.28-Aug-2021 4879.00 7757.64 81.14 27.00 279.49 3229.53
   02:02:29.040.28-Aug-2021 4879.00 7757.98 81.14 27.00 279.69 3229.53
   02:02:29.240.28-Aug-2021 4879.00 7758.10 81.14 27.00 279.89 3229.53
   02:02:29.440.28-Aug-2021 4879.00 7757.45 81.14 27.00 280.09 3229.53
   02:02:29.640.28-Aug-2021 4879.00 7757.45 81.14 27.00 280.29 3229.53
   02:02:29.840.28-Aug-2021 4879.00 7757.02 81.14 27.00 280.49 3229.53
   02:02:30.040.28-Aug-2021 4879.00 7756.99 81.14 27.00 280.69 3229.53
   02:02:30.240.28-Aug-2021 4879.00 7757.19 81.14 27.00 280.89 3229.53
   02:02:30.440.28-Aug-2021 4879.00 7757.28 81.14 27.00 281.09 3229.53
   02:02:30.640.28-Aug-2021 4879.00 7757.28 81.14 27.00 281.29 3229.53
   02:02:30.840.28-Aug-2021 4879.00 7757.81 81.14 27.00 281.49 3229.53
   02:02:31.040.28-Aug-2021 4879.00 7758.01 81.14 27.00 281.69 3229.53
   02:02:31.240.28-Aug-2021 4879.00 7758.01 81.14 27.00 281.89 3229.53
   02:02:31.440.28-Aug-2021 4879.00 7757.88 81.14 27.00 282.09 3229.53
   02:02:31.640.28-Aug-2021 4879.00 7757.88 81.14 27.00 282.29 3229.53
   02:02:31.841.28-Aug-2021 4879.00 7757.65 81.14 27.00 282.49 3229.53
   02:02:32.041.28-Aug-2021 4879.00 7760.23 81.14 27.00 282.69 3229.53
   02:02:32.241.28-Aug-2021 4879.00 7757.95 81.14 27.00 282.89 3229.53
   02:02:32.441.28-Aug-2021 4879.00 7758.17 81.14 27.00 283.09 3229.53
   02:02:32.641.28-Aug-2021 4879.00 7758.17 81.14 27.00 283.29 3229.53
   02:02:32.841.28-Aug-2021 4879.00 7762.04 81.14 27.00 283.49 3229.53
   02:02:33.041.28-Aug-2021 4879.00 7755.93 81.14 27.00 283.69 3229.53
   02:02:33.241.28-Aug-2021 4879.00 7758.44 81.14 27.00 283.89 3229.53
   02:02:33.441.28-Aug-2021 4879.00 7757.34 81.14 27.00 284.09 3229.53
   02:02:33.641.28-Aug-2021 4879.00 7757.34 81.14 27.00 284.29 3229.53
   02:02:33.841.28-Aug-2021 4879.00 7757.07 81.14 27.00 284.49 3229.53
   02:02:34.041.28-Aug-2021 4879.00 7757.25 81.14 27.00 284.69 3229.53
   02:02:34.241.28-Aug-2021 4879.00 7760.22 81.14 27.00 284.89 3229.53
   02:02:34.441.28-Aug-2021 4879.00 7757.88 81.13 27.00 285.09 3229.53
   02:02:34.641.28-Aug-2021 4879.00 7757.88 81.13 27.00 285.29 3229.53
   02:02:34.841.28-Aug-2021 4879.00 7758.17 81.13 27.00 285.49 3229.53
   02:02:35.042.28-Aug-2021 4879.00 7761.03 81.13 27.00 285.69 3229.53
   02:02:35.242.28-Aug-2021 4879.00 7757.74 81.13 27.00 285.89 3229.53
   02:02:35.442.28-Aug-2021 4879.00 7758.52 81.13 27.00 286.09 3229.53
   02:02:35.642.28-Aug-2021 4879.00 7758.52 81.13 27.00 286.29 3229.53
   02:02:35.842.28-Aug-2021 4879.00 7757.01 81.13 27.00 286.49 3229.53
   02:02:36.042.28-Aug-2021 4879.00 7757.13 81.13 27.00 286.69 3229.53
   02:02:36.242.28-Aug-2021 4879.00 7756.89 81.13 27.00 286.89 3229.53
   02:02:36.442.28-Aug-2021 4879.00 7757.08 81.13 27.00 287.09 3229.53
   02:02:36.642.28-Aug-2021 4879.00 7757.08 81.13 27.00 287.29 3229.53
   02:02:36.842.28-Aug-2021 4879.00 7757.62 81.13 27.00 287.49 3229.53
   02:02:37.042.28-Aug-2021 4879.00 7757.54 81.13 27.00 287.69 3229.53
   02:02:37.242.28-Aug-2021 4879.00 7757.89 81.13 27.00 287.89 3229.53
   02:02:37.442.28-Aug-2021 4879.00 7757.74 81.13 27.00 288.09 3229.53
   02:02:37.642.28-Aug-2021 4879.00 7757.74 81.13 27.00 288.29 3229.53
   02:02:37.842.28-Aug-2021 4879.00 7757.57 81.13 27.00 288.49 3229.53
   02:02:38.042.28-Aug-2021 4879.00 7757.51 81.13 27.00 288.69 3229.53
   02:02:38.243.28-Aug-2021 4879.00 7761.78 81.13 27.00 288.89 3229.53
   02:02:38.443.28-Aug-2021 4879.00 7755.89 81.13 27.00 289.09 3229.53
   02:02:38.643.28-Aug-2021 4879.00 7755.89 81.13 27.00 289.29 3229.53
   02:02:38.843.28-Aug-2021 4879.00 7757.51 81.13 27.00 289.49 3229.53
   02:02:39.043.28-Aug-2021 4879.00 7757.42 81.13 27.00 289.69 3229.53
   02:02:39.243.28-Aug-2021 4879.00 7757.27 81.13 27.00 289.89 3229.53
   02:02:39.443.28-Aug-2021 4879.00 7757.16 81.13 27.00 290.09 3229.53
   02:02:39.643.28-Aug-2021 4879.00 7757.16 81.13 27.00 290.29 3229.53
   02:02:39.843.28-Aug-2021 4879.00 7757.35 81.13 27.00 290.49 3229.53
   02:02:40.043.28-Aug-2021 4879.00 7757.77 81.13 27.00 290.69 3229.53
   02:02:40.243.28-Aug-2021 4879.00 7757.80 81.13 27.00 290.89 3229.53
   02:02:40.443.28-Aug-2021 4879.00 7758.18 81.13 27.00 291.09 3229.53
   02:02:40.643.28-Aug-2021 4879.00 7758.18 81.13 27.00 291.29 3229.53
   02:02:40.843.28-Aug-2021 4879.00 7758.09 81.13 27.00 291.49 3229.53
   02:02:41.043.28-Aug-2021 4879.00 7757.89 81.13 27.00 291.69 3229.53
   02:02:41.243.28-Aug-2021 4879.00 7757.92 81.13 27.00 291.89 3229.53
   02:02:41.444.28-Aug-2021 4879.00 7757.65 81.13 27.00 292.09 3229.53
   02:02:41.644.28-Aug-2021 4879.00 7757.65 81.13 27.00 292.29 3229.53
   02:02:41.844.28-Aug-2021 4879.00 7755.93 81.13 27.00 292.49 3229.53
   02:02:42.044.28-Aug-2021 4879.00 7758.82 81.13 27.00 292.69 3229.53
   02:02:42.244.28-Aug-2021 4879.00 7757.62 81.13 27.00 292.89 3229.53
   02:02:42.444.28-Aug-2021 4879.00 7761.85 81.13 27.00 293.09 3229.53
   02:02:42.644.28-Aug-2021 4879.00 7761.85 81.13 27.00 293.29 3229.53
   02:02:42.844.28-Aug-2021 4879.00 7758.44 81.13 27.00 293.49 3229.53
   02:02:43.044.28-Aug-2021 4879.00 7757.24 81.13 27.00 293.69 3229.53
