~Version Information
 VERS.                  2.0:   CWLS log ASCII Standard -VERSION 2.0
 WRAP.                   NO:   One line per depth step
~Well Information Block
#MNEM.UNIT     VALUE/NAME     DESCRIPTION
#---------     -----------    ---------------------------
 STRT.S             14:18:21 27-Aug-21: START TIME 14:18:21 27-Aug-21
 STOP.S             14:25:11 27-Aug-21: STOP TIME  14:25:11 27-Aug-21
 STEP.S                   0.00: STEP TIME
 NULL.                 -999.25: NULL VALUE
 DFWT.                        :  DIST FWL TEXT
 DFST.                        :  DIST FSL TEXT
 DMF .             Drill Floor:  DRILL MEAS FROM
 STIM.      20.00.00 17-Aug-21:  START TIME
 DATE.      19.00.00 29-Aug-21:  END TIME
 SPUD.               15-Aug-21:  SPUD DATE
 NREF.                    Grid:  NORTH REFERENCE
 HPTY.       Minimum Curvature:  HOLE POS TYPE
 DMOD.             Drill Model:  DRILL MOD DESC
 SVYD.                  Survey:  SURVEY DESC
 ILTD.               Lithology:  INTERP LTH DESC
 FTOP.          Formation Tops:  FORM TOPS DESC
 RIG .              East Azeri:  RIG NAME
 PDAT.          Mean Sea Level:  PERMANENT DATUM
 FLD .                     ACG:  FIELD NAME
 SON .        AZ-XX-0907180857:  JOB NUMBER
 CTRY.              Azerbaijan:  COUNTRY NAME
 WELL.                    D23x:  WELL NAME
 SRVC.     Turan Drilling and Engineering:  CONTRACTOR
 COMP.     BP Exploration (Caspian Sea) Ltd.:  COMPANY
 UWI .            /AZE00000214:  UNIQUE WELL IDENTIFIER
 API .            /AZE00000214:  API NUMBER
 MDS .        Operator Entered:  MAG DATA SOURCE
 BASE.              Azerbaijan:  LOGGING EQUIPMENT BASE LOCATION
 REGN.                   EESSA:  REGION
 PROV.                    Baku:  PROVINCE
 STAT.                    Baku:  STATE NAME
 MWDS.                    Baku:  MWD SHOP
 DOE .                     N/A:  DOE NUMBER
 DCON.         Sperry Drilling:  DIRECTNL CONTR
 UNIT.                     N/A:  LOGGING EQUIPMENT ID
 WTYP.                Deviated:  WELL TYPE
 CNTY.                        :  COUNTY
 LOC .                        :  LOCATION
 LMF .             Drill Floor:  LOG MEASURED FROM
 TVDS.m                  43.60:  TVDSS CORRECTN
 LATI.deg                40.02:  LATITUDE
 LONG.deg                51.45:  LONGITUDE
 WHNS.m                  -7.04:  WELL HEAD N/S
 WHEW.m                  -0.67:  WELL HEAD E/W
 UTMX.m              538762.90:  UTM X
 UTMY.m             4431871.34:  UTM Y
 DFWL.m                   0.00:  DISTANCE FWL
 DFSL.m                   0.00:  DISTANCE FSL
 SDEP.m                4127.00:  START DEPTH
 TDD .m                5084.50:  TOTAL DEPTH (DRILLER)
 VSDR.deg               140.47:  VERT SEC DIRECT
 GVFD.g                   1.00:  GRAVITY FIELD
 MFLD.nT              50362.00:  MAGNETIC FIELD
 MDIP.deg                59.48:  MAGNETIC DIP
 MDEC.deg                 6.47:  MAGNETIC DECL
 GRDC.deg                 0.31:  GRID CORRECTION
 AZTC.deg                 6.16:  AZM TOTAL CORR
 EPD .m                   0.00:  ELEVATION
 EGL .m                   0.00:  GROUND ELEVATION
 WDMS.m                 151.80:  WD ELEV
 APD .m                  43.60:  DEPTH ABOVE PD
 DEP .m                4092.57:  DEPTH
 AGAP.m                  43.60:  AIR GAP
 VSEW.m                  -0.67:  VERT SEC E/W
 VSNS.m                  -7.04:  VERT SEC N/S
 EKB .m                  43.60:  KB ELEVATION
 EDF .m                  43.60:  DF ELEVATION
 TDL .m                 957.50:  TOTAL DEPTH (LOGGER)
 VSC .                       0:  VS TO CLOSURE
 MAGU.                 1851413:  MAGUTM CHECKSUM
~Parameter Information Block
#MNEM.UNIT       Value        Description
#---------     -----------    ---------------------------
 AV  .mps                 1.50:  Ann Velocity 
 AVMX.mps                 2.00:  Max Ann Veloc 
 AZIF.deg               184.66:  Azm, Final 
 BHAT.        Rotary Steerable:  BHA Type 
 BREV.rev               300.00:  Rev Bit Total 
 BROT.°/30m              -0.50:  Build Rotating 
 BS  .in                  8.50:  Bit Size 
 BSZ .in                  8.50:  Bit Size 
 BTPL.psig              370.00:  Bit Press Loss 
 CABU.                      No:  Customer Abuse 
 CGEO.      Behruz Shahbaliyev:  Customer Geo 
 COMM.                     LAp:  Run Comments 1 
 TCS .hr                140.08:  Time Ciculation Ended 
 CV  .mps                 3.00:  Crit Velocity 
 CVMX.mps                 3.20:  Max Crit Veloc 
 DD1 .            Musa Ahmadov:  Direct Drillr 1 
 DD2 .           Hamid Ahmadov:  Direct Drillr 2 
 DDSV.               Geo-Pilot:  DD Service 
 DEFF.%                  98.40:  % Det Eff 
 DLRX.°/30m               3.40:  Dogleg Rot Max 
 DLSO.°/30m               1.45:  Dogleg Oriented 
 DLSX.°/30m               3.40:  Dogleg Str Max 
 DRET.      18.40.00 29-Aug-21:  Drill End Time 
 DRST.      21.00.00 20-Aug-21:  Drill Start Tim 
 DTIM.hr                 69.47:  Time Drilling 
 EDEP.m                5084.50:  End Depth 
 ENG1.      Artemiy Matviyanov:  Engineer 1 
 ENG2.         Almaz Almadatov:  Engineer 2 
 ETIM.      18.40.00 29-Aug-21:  End Time 
 FLOI.gpm               500.00:  Flow In 
 FLON.gpm               400.00:  Flow In Min 
 FLOS.cptm                0.00:  Fluid Loss 
 FLOX.gpm               500.00:  Flow In Max 
 DFT .        Mineral Oil Base:  Mud Type 
 HFLO.                      No:  High Flow 
 HPRE.                      No:  High Pressure 
 HTEM.                      No:  High Temp 
 HYDO.m                   1.80:  Hydro Offset 
 IFIN.deg                25.62:  Inc, Final 
 IMAX.deg                48.69:  Inc Max 
 IMIN.deg                24.01:  Inc Min 
 IMND.m                4962.57:  Inc Min Depth 
 IMXD.m                4119.01:  Inc Max Depth 
 JARR.                      No:  Jarring 
 LETM.      18.40.00 29-Aug-21:  Log End Time 
 LOST.hr                     0:  Lost Rig Time 
 LSTM.      21.00.00 20-Aug-21:  Log Start Time 
 MDCL.ppm             41500.00:  Mud Chlorides 
 MDES.     Inversion Oil/Synthetic:  Mud Desc 
 DFD .sg                  1.56:  Mud Density 
 MDMN.sg                  1.56:  Dens Mud Min 
 MDMX.sg                  1.56:  Dens Mud Max 
 MOIL.                      70:  Run Mud Oil % 
 MOWR.                   70:30:  Run Mud OWR 
 MSND.                     0.2:  Run Mud Sand % 
 MSOL.                    23.3:  Run Mud Solids% 
 DFV .spqt               78.00:  Mud Viscosity 
 MWOD.in                  6.75:  MWD Tool OD 
 MWSI.                      No:  Serv Intrp, MWD 
 OTIM.hr                218.30:  Time Operating 
 PCON.           Look Like New:  Pad Condition 
 PMAX.psia            11015.30:  Press Op, Max 
 PV  .cP                 38.00:  Mud PV 
 RUN .                     300:  Run Number 
 ROPA.m/hr               15.00:  ROP Avg 
 ROPN.m/hr                9.00:  ROP Min 
 ROPX.m/hr               17.00:  ROP Max 
 RPMA.rpm               120.00:  RPM Surface Avg 
 RPMN.rpm                90.00:  RPM Surface Min 
 RPMX.rpm               140.00:  RPM Surface Max 
 RRUN.                     300:  Rig Run Number 
 RTIM.hr                 31.53:  Time Reaming 
 SAZI.deg               331.64:  Azm, Start 
 SDEP.m                4127.00:  Start Depth 
 SIDD.                      No:  Serv Intrp, DD 
 SINC.deg                48.43:  Inc, Start 
 SPPA.psig             5830.00:  SPP Avg 
 SPPN.psig             5600.00:  SPP Min 
 SPPX.psig             5900.00:  SPP Max 
 STIM.      21.00.00 20-Aug-21:  Start Time 
 SVCS.                 DD, MWD:  Services 
 SVER.                    9.20:  Sperry Version 
 TDAT.m                 957.50:  Tot Depth Attmp 
 TDDF.                      No:  Trip for DD 
 TDLG.m                 957.50:  Tot Depth Loggd 
 TFF .                      No:  Trip for Fail 
 TQAA.f-kp               15.00:  Torque Abs Avg 
 TQAN.f-kp               12.00:  Torque Abs Min 
 TQAX.f-kp               19.00:  Torque Abs Max 
 TRRT.°/30m              -3.40:  Turn Rotating 
 MRT .                  EWR-M5:  Maximum Recorded Temperature 
 TTMX.degC              100.00:  Max Tool Temp 
 VS01.                90639251:  Virtual Str1 SN 
 VS02.                90634715:  Virtual Str2 SN 
 VS03.                90652479:  Virtual Str3 SN 
 VS04.                90642262:  Virtual Str4 SN 
 WBMN.klb                 0.00:  WOB Min 
 WITN.           Murad Guliyev:  Customer Rep 
 WITN.          Yashar Gaziyev:  Customer Rep 2 
 WOBA.klb                 9.00:  WOB Avg 
 WOBX.klb                12.00:  WOB Max 
 YP  .lhf2               30.00:  Yield Point 
~Curve Information Block
#MNEM.UNIT                 API CODE     Curve Description
#---------               -----------    ---------------------------
 TIME.HHMMSS            00 000 000 000:  GT Time & Date
 GTDEPTH.m              00 000 000 000:  GT Depth
 GTPQH.psia             00 000 000 000:  GT HR Quartz Pressure
 GTTQ.degC              00 000 000 000:  GT Quartz Temperature
 GTTN.NONE              00 000 000 000:  GT Test Number
 GTET.sec               00 000 000 000:  GT Elapsed Test Time
 GTTVD.m                00 000 000 000:  GT True Vertical Depth
#Other Information
#
#WARRANTY: Halliburton will use its best efforts to furnish customers with 
#accurate information and interpretations that are part of, and incident to, the services 
#provided.  However, Halliburton cannot and does not warrant the accuracy 
#or correctness of such information and interpretations.  Under no circumstances should any 
#such information or interpretation be relied upon as the sole basis for any drilling, 
#completion, production, or financial decision or any procedure involving any risk to the 
#safety of any drilling venture, drilling rig or its crew or any other third party.  The 
#Customer has full responsibility for all drilling, completion and production operation.  
#Halliburton makes no representations or warranties, either expressed or 
#implied, including, but not limited to, the implied warranties of merchantability or fitness 
#for a particular purpose, with respect to the services rendered.  In no event will 
#Halliburton be liable for failure to obtain any particular results or for 
#any damages, including, but not limited to, indirect, special or consequential damages, 
#resulting from the use of any information or interpretation provided by Halliburton.
#
~A           TIME           GTDEPTH  GTPQH  GTTQ  GTTN   GTET   GTTVD  
# ...
   14:24:22.600.27-Aug-2021 4859.50 3447.81 84.41 15.00 361.60 3211.87
   14:24:22.800.27-Aug-2021 4859.50 3450.32 84.41 15.00 361.80 3211.87
   14:24:23.000.27-Aug-2021 4859.50 3452.72 84.41 15.00 362.00 3211.87
   14:24:23.200.27-Aug-2021 4859.50 3452.72 84.41 15.00 362.20 3211.87
   14:24:23.400.27-Aug-2021 4859.50 3459.06 84.41 15.00 362.40 3211.87
   14:24:23.600.27-Aug-2021 4859.50 3462.30 84.41 15.00 362.60 3211.87
   14:24:23.800.27-Aug-2021 4859.50 3465.46 84.41 15.00 362.80 3211.87
   14:24:24.000.27-Aug-2021 4859.50 3468.79 84.41 15.00 363.00 3211.87
   14:24:24.200.27-Aug-2021 4859.50 3468.79 84.41 15.00 363.20 3211.87
   14:24:24.400.27-Aug-2021 4859.50 3474.69 84.41 15.00 363.40 3211.87
   14:24:24.600.27-Aug-2021 4859.50 3477.68 84.41 15.00 363.60 3211.87
   14:24:24.800.27-Aug-2021 4859.50 3480.82 84.41 15.00 363.80 3211.87
   14:24:25.000.27-Aug-2021 4859.50 3483.98 84.41 15.00 364.00 3211.87
   14:24:25.200.27-Aug-2021 4859.50 3483.98 84.41 15.00 364.20 3211.87
   14:24:25.400.27-Aug-2021 4859.50 3489.47 84.41 15.00 364.40 3211.87
   14:24:25.600.27-Aug-2021 4859.50 3492.25 84.41 15.00 364.60 3211.87
   14:24:25.800.27-Aug-2021 4859.50 3495.34 84.41 15.00 364.80 3211.87
   14:24:26.000.27-Aug-2021 4859.50 3498.47 84.41 15.00 365.00 3211.87
   14:24:26.200.27-Aug-2021 4859.50 3498.47 84.41 15.00 365.20 3211.87
   14:24:26.400.27-Aug-2021 4859.50 3504.89 84.41 15.00 365.40 3211.87
   14:24:26.600.27-Aug-2021 4859.50 3508.07 84.41 15.00 365.60 3211.87
   14:24:26.800.27-Aug-2021 4859.50 3511.24 84.41 15.00 365.80 3211.87
   14:24:27.000.27-Aug-2021 4859.50 3514.35 84.41 15.00 366.00 3211.87
   14:24:27.200.27-Aug-2021 4859.50 3514.35 84.41 15.00 366.20 3211.87
   14:24:27.400.27-Aug-2021 4859.50 3519.68 84.41 15.00 366.40 3211.87
   14:24:27.600.27-Aug-2021 4859.50 3522.95 84.41 15.00 366.60 3211.87
   14:24:27.800.27-Aug-2021 4859.50 3525.85 84.41 15.00 366.80 3211.87
   14:24:28.000.27-Aug-2021 4859.50 3528.80 84.41 15.00 367.00 3211.87
   14:24:28.200.27-Aug-2021 4859.50 3528.80 84.41 15.00 367.20 3211.87
   14:24:28.400.27-Aug-2021 4859.50 3533.85 84.41 15.00 367.40 3211.87
   14:24:28.600.27-Aug-2021 4859.50 3536.83 84.41 15.00 367.60 3211.87
   14:24:28.800.27-Aug-2021 4859.50 3539.87 84.41 15.00 367.80 3211.87
   14:24:29.000.27-Aug-2021 4859.50 3543.09 84.41 15.00 368.00 3211.87
   14:24:29.200.27-Aug-2021 4859.50 3543.09 84.41 15.00 368.20 3211.87
   14:24:29.400.27-Aug-2021 4859.50 3549.32 84.41 15.00 368.40 3211.87
   14:24:29.600.27-Aug-2021 4859.50 3552.41 84.41 15.00 368.60 3211.87
   14:24:29.800.27-Aug-2021 4859.50 3555.52 84.41 15.00 368.80 3211.87
   14:24:30.000.27-Aug-2021 4859.50 3558.62 84.41 15.00 369.00 3211.87
   14:24:30.200.27-Aug-2021 4859.50 3558.62 84.41 15.00 369.20 3211.87
   14:24:30.400.27-Aug-2021 4859.50 3564.76 84.41 15.00 369.40 3211.87
   14:24:30.600.27-Aug-2021 4859.50 3566.78 84.41 15.00 369.60 3211.87
   14:24:30.800.27-Aug-2021 4859.50 3570.02 84.41 15.00 369.80 3211.87
   14:24:31.000.27-Aug-2021 4859.50 3572.46 84.41 15.00 370.00 3211.87
   14:24:31.200.27-Aug-2021 4859.50 3572.46 84.41 15.00 370.20 3211.87
   14:24:31.400.27-Aug-2021 4859.50 3576.79 84.41 15.00 370.40 3211.87
   14:24:31.600.27-Aug-2021 4859.50 3579.71 84.41 15.00 370.60 3211.87
   14:24:31.800.27-Aug-2021 4859.50 3582.46 84.41 15.00 370.80 3211.87
   14:24:32.000.27-Aug-2021 4859.50 3585.47 84.41 15.00 371.00 3211.87
   14:24:32.200.27-Aug-2021 4859.50 3585.47 84.41 15.00 371.20 3211.87
   14:24:32.400.27-Aug-2021 4859.50 3591.61 84.41 15.00 371.40 3211.87
   14:24:32.600.27-Aug-2021 4859.50 3594.67 84.41 15.00 371.60 3211.87
   14:24:32.800.27-Aug-2021 4859.50 3597.65 84.41 15.00 371.80 3211.87
   14:24:33.000.27-Aug-2021 4859.50 3600.06 84.41 15.00 372.00 3211.87
   14:24:33.200.27-Aug-2021 4859.50 3600.06 84.41 15.00 372.20 3211.87
   14:24:33.400.27-Aug-2021 4859.50 3606.14 84.41 15.00 372.40 3211.87
   14:24:33.600.27-Aug-2021 4859.50 3608.75 84.41 15.00 372.60 3211.87
   14:24:33.800.27-Aug-2021 4859.50 3611.86 84.41 15.00 372.80 3211.87
   14:24:34.000.27-Aug-2021 4859.50 3614.65 84.41 15.00 373.00 3211.87
   14:24:34.200.27-Aug-2021 4859.50 3614.65 84.41 15.00 373.20 3211.87
   14:24:34.400.27-Aug-2021 4859.50 3619.31 84.41 15.00 373.40 3211.87
   14:24:34.600.27-Aug-2021 4859.50 3622.01 84.41 15.00 373.60 3211.87
   14:24:34.800.27-Aug-2021 4859.50 3624.93 84.41 15.00 373.80 3211.87
   14:24:35.000.27-Aug-2021 4859.50 3627.97 84.41 15.00 374.00 3211.87
   14:24:35.200.27-Aug-2021 4859.50 3627.97 84.41 15.00 374.20 3211.87
   14:24:35.400.27-Aug-2021 4859.50 3634.04 84.41 15.00 374.40 3211.87
   14:24:35.600.27-Aug-2021 4859.50 3636.99 84.41 15.00 374.60 3211.87
   14:24:35.800.27-Aug-2021 4859.50 3640.05 84.41 15.00 374.80 3211.87
   14:24:36.000.27-Aug-2021 4859.50 3642.99 84.41 15.00 375.00 3211.87
   14:24:36.200.27-Aug-2021 4859.50 3642.99 84.41 15.00 375.20 3211.87
   14:24:36.400.27-Aug-2021 4859.50 3648.94 84.41 15.00 375.40 3211.87
   14:24:36.600.27-Aug-2021 4859.50 3651.87 84.41 15.00 375.60 3211.87
   14:24:36.800.27-Aug-2021 4859.50 3654.32 84.41 15.00 375.80 3211.87
   14:24:37.000.27-Aug-2021 4859.50 3656.95 84.41 15.00 376.00 3211.87
   14:24:37.200.27-Aug-2021 4859.50 3656.95 84.41 15.00 376.20 3211.87
   14:24:37.400.27-Aug-2021 4859.50 3728.58 84.41 15.00 376.40 3211.87
   14:24:37.600.27-Aug-2021 4859.50 4567.09 84.41 15.00 376.60 3211.87
   14:24:37.800.27-Aug-2021 4859.50 5326.63 84.41 15.00 376.80 3211.87
   14:24:38.000.27-Aug-2021 4859.50 7162.67 84.41 15.00 377.00 3211.87
   14:24:38.200.27-Aug-2021 4859.50 7162.67 84.41 15.00 377.20 3211.87
   14:24:38.400.27-Aug-2021 4859.50 7685.25 84.41 15.00 377.40 3211.87
   14:24:38.600.27-Aug-2021 4859.50 7685.00 84.41 15.00 377.60 3211.87
   14:24:38.800.27-Aug-2021 4859.50 7685.36 84.42 15.00 377.80 3211.87
   14:24:39.000.27-Aug-2021 4859.50 7686.08 84.42 15.00 378.00 3211.87
   14:24:39.200.27-Aug-2021 4859.50 7686.08 84.42 15.00 378.20 3211.87
   14:24:39.400.27-Aug-2021 4859.50 7687.62 84.42 15.00 378.40 3211.87
   14:24:39.600.27-Aug-2021 4859.50 7688.43 84.43 15.00 378.60 3211.87
   14:24:39.800.27-Aug-2021 4859.50 7689.17 84.43 15.00 378.80 3211.87
   14:24:40.000.27-Aug-2021 4859.50 7689.89 84.43 15.00 379.00 3211.87
   14:24:40.200.27-Aug-2021 4859.50 7689.89 84.43 15.00 379.20 3211.87
   14:24:40.400.27-Aug-2021 4859.50 7691.91 84.43 15.00 379.40 3211.87
   14:24:40.600.27-Aug-2021 4859.50 7692.70 84.44 15.00 379.60 3211.87
   14:24:40.800.27-Aug-2021 4859.50 7692.33 84.44 15.00 379.80 3211.87
   14:24:41.000.27-Aug-2021 4859.50 7691.61 84.45 15.00 380.00 3211.87
   14:24:41.200.27-Aug-2021 4859.50 7691.61 84.45 15.00 380.20 3211.87
   14:24:41.400.27-Aug-2021 4859.50 7692.09 84.45 15.00 380.40 3211.87
   14:24:41.600.27-Aug-2021 4859.50 7695.95 84.46 15.00 380.60 3211.87
   14:24:41.800.27-Aug-2021 4859.50 7693.67 84.46 15.00 380.80 3211.87
   14:24:42.000.27-Aug-2021 4859.50 7694.71 84.46 15.00 381.00 3211.87
   14:24:42.200.27-Aug-2021 4859.50 7694.71 84.46 15.00 381.20 3211.87
   14:24:42.400.27-Aug-2021 4859.50 7693.81 84.47 15.00 381.40 3211.87
   14:24:42.600.27-Aug-2021 4859.50 7697.71 84.47 15.00 381.60 3211.87
   14:24:42.800.27-Aug-2021 4859.50 7692.90 84.47 15.00 381.80 3211.87
   14:24:43.000.27-Aug-2021 4859.50 7694.87 84.48 15.00 382.00 3211.87
   14:24:43.200.27-Aug-2021 4859.50 7694.87 84.48 15.00 382.20 3211.87
   14:24:43.400.27-Aug-2021 4859.50 7694.74 84.48 15.00 382.40 3211.87
   14:24:43.600.27-Aug-2021 4859.50 7694.06 84.48 15.00 382.60 3211.87
   14:24:43.800.27-Aug-2021 4859.50 7698.23 84.48 15.00 382.80 3211.87
   14:24:44.000.27-Aug-2021 4859.50 7693.31 84.49 15.00 383.00 3211.87
   14:24:44.200.27-Aug-2021 4859.50 7693.31 84.49 15.00 383.20 3211.87
   14:24:44.400.27-Aug-2021 4859.50 7696.03 84.49 15.00 383.40 3211.87
   14:24:44.600.27-Aug-2021 4859.50 7695.16 84.49 15.00 383.60 3211.87
   14:24:44.800.27-Aug-2021 4859.50 7694.68 84.49 15.00 383.80 3211.87
   14:24:45.000.27-Aug-2021 4859.50 7694.85 84.50 15.00 384.00 3211.87
