~Version Information
 VERS.                  2.0:   CWLS log ASCII Standard -VERSION 2.0
 WRAP.                   NO:   One line per depth step
~Well Information Block
#MNEM.UNIT     VALUE/NAME     DESCRIPTION
#---------     -----------    ---------------------------
 STRT.S             16:35:30 27-Aug-21: START TIME 16:35:30 27-Aug-21
 STOP.S             16:42:43 27-Aug-21: STOP TIME  16:42:43 27-Aug-21
 STEP.S                   0.00: STEP TIME
 NULL.                 -999.25: NULL VALUE
 DFWT.                        :  DIST FWL TEXT
 DFST.                        :  DIST FSL TEXT
 DMF .             Drill Floor:  DRILL MEAS FROM
 STIM.      20.00.00 17-Aug-21:  START TIME
 DATE.      19.00.00 29-Aug-21:  END TIME
 SPUD.               15-Aug-21:  SPUD DATE
 NREF.                    Grid:  NORTH REFERENCE
 HPTY.       Minimum Curvature:  HOLE POS TYPE
 DMOD.             Drill Model:  DRILL MOD DESC
 SVYD.                  Survey:  SURVEY DESC
 ILTD.               Lithology:  INTERP LTH DESC
 FTOP.          Formation Tops:  FORM TOPS DESC
 RIG .              East Azeri:  RIG NAME
 PDAT.          Mean Sea Level:  PERMANENT DATUM
 FLD .                     ACG:  FIELD NAME
 SON .        AZ-XX-0907180857:  JOB NUMBER
 CTRY.              Azerbaijan:  COUNTRY NAME
 WELL.                    D23x:  WELL NAME
 SRVC.     Turan Drilling and Engineering:  CONTRACTOR
 COMP.     BP Exploration (Caspian Sea) Ltd.:  COMPANY
 UWI .            /AZE00000214:  UNIQUE WELL IDENTIFIER
 API .            /AZE00000214:  API NUMBER
 MDS .        Operator Entered:  MAG DATA SOURCE
 BASE.              Azerbaijan:  LOGGING EQUIPMENT BASE LOCATION
 REGN.                   EESSA:  REGION
 PROV.                    Baku:  PROVINCE
 STAT.                    Baku:  STATE NAME
 MWDS.                    Baku:  MWD SHOP
 DOE .                     N/A:  DOE NUMBER
 DCON.         Sperry Drilling:  DIRECTNL CONTR
 UNIT.                     N/A:  LOGGING EQUIPMENT ID
 WTYP.                Deviated:  WELL TYPE
 CNTY.                        :  COUNTY
 LOC .                        :  LOCATION
 LMF .             Drill Floor:  LOG MEASURED FROM
 TVDS.m                  43.60:  TVDSS CORRECTN
 LATI.deg                40.02:  LATITUDE
 LONG.deg                51.45:  LONGITUDE
 WHNS.m                  -7.04:  WELL HEAD N/S
 WHEW.m                  -0.67:  WELL HEAD E/W
 UTMX.m              538762.90:  UTM X
 UTMY.m             4431871.34:  UTM Y
 DFWL.m                   0.00:  DISTANCE FWL
 DFSL.m                   0.00:  DISTANCE FSL
 SDEP.m                4127.00:  START DEPTH
 TDD .m                5084.50:  TOTAL DEPTH (DRILLER)
 VSDR.deg               140.47:  VERT SEC DIRECT
 GVFD.g                   1.00:  GRAVITY FIELD
 MFLD.nT              50362.00:  MAGNETIC FIELD
 MDIP.deg                59.48:  MAGNETIC DIP
 MDEC.deg                 6.47:  MAGNETIC DECL
 GRDC.deg                 0.31:  GRID CORRECTION
 AZTC.deg                 6.16:  AZM TOTAL CORR
 EPD .m                   0.00:  ELEVATION
 EGL .m                   0.00:  GROUND ELEVATION
 WDMS.m                 151.80:  WD ELEV
 APD .m                  43.60:  DEPTH ABOVE PD
 DEP .m                4092.57:  DEPTH
 AGAP.m                  43.60:  AIR GAP
 VSEW.m                  -0.67:  VERT SEC E/W
 VSNS.m                  -7.04:  VERT SEC N/S
 EKB .m                  43.60:  KB ELEVATION
 EDF .m                  43.60:  DF ELEVATION
 TDL .m                 957.50:  TOTAL DEPTH (LOGGER)
 VSC .                       0:  VS TO CLOSURE
 MAGU.                 1851413:  MAGUTM CHECKSUM
~Parameter Information Block
#MNEM.UNIT       Value        Description
#---------     -----------    ---------------------------
 AV  .mps                 1.50:  Ann Velocity 
 AVMX.mps                 2.00:  Max Ann Veloc 
 AZIF.deg               184.66:  Azm, Final 
 BHAT.        Rotary Steerable:  BHA Type 
 BREV.rev               300.00:  Rev Bit Total 
 BROT.°/30m              -0.50:  Build Rotating 
 BS  .in                  8.50:  Bit Size 
 BSZ .in                  8.50:  Bit Size 
 BTPL.psig              370.00:  Bit Press Loss 
 CABU.                      No:  Customer Abuse 
 CGEO.      Behruz Shahbaliyev:  Customer Geo 
 COMM.                     äU:  Run Comments 1 
 TCS .hr                140.08:  Time Ciculation Ended 
 CV  .mps                 3.00:  Crit Velocity 
 CVMX.mps                 3.20:  Max Crit Veloc 
 DD1 .            Musa Ahmadov:  Direct Drillr 1 
 DD2 .           Hamid Ahmadov:  Direct Drillr 2 
 DDSV.               Geo-Pilot:  DD Service 
 DEFF.%                  98.40:  % Det Eff 
 DLRX.°/30m               3.40:  Dogleg Rot Max 
 DLSO.°/30m               1.45:  Dogleg Oriented 
 DLSX.°/30m               3.40:  Dogleg Str Max 
 DRET.      18.40.00 29-Aug-21:  Drill End Time 
 DRST.      21.00.00 20-Aug-21:  Drill Start Tim 
 DTIM.hr                 69.47:  Time Drilling 
 EDEP.m                5084.50:  End Depth 
 ENG1.      Artemiy Matviyanov:  Engineer 1 
 ENG2.         Almaz Almadatov:  Engineer 2 
 ETIM.      18.40.00 29-Aug-21:  End Time 
 FLOI.gpm               500.00:  Flow In 
 FLON.gpm               400.00:  Flow In Min 
 FLOS.cptm                0.00:  Fluid Loss 
 FLOX.gpm               500.00:  Flow In Max 
 DFT .        Mineral Oil Base:  Mud Type 
 HFLO.                      No:  High Flow 
 HPRE.                      No:  High Pressure 
 HTEM.                      No:  High Temp 
 HYDO.m                   1.80:  Hydro Offset 
 IFIN.deg                25.62:  Inc, Final 
 IMAX.deg                48.69:  Inc Max 
 IMIN.deg                24.01:  Inc Min 
 IMND.m                4962.57:  Inc Min Depth 
 IMXD.m                4119.01:  Inc Max Depth 
 JARR.                      No:  Jarring 
 LETM.      18.40.00 29-Aug-21:  Log End Time 
 LOST.hr                     0:  Lost Rig Time 
 LSTM.      21.00.00 20-Aug-21:  Log Start Time 
 MDCL.ppm             41500.00:  Mud Chlorides 
 MDES.     Inversion Oil/Synthetic:  Mud Desc 
 DFD .sg                  1.56:  Mud Density 
 MDMN.sg                  1.56:  Dens Mud Min 
 MDMX.sg                  1.56:  Dens Mud Max 
 MOIL.                      70:  Run Mud Oil % 
 MOWR.                   70:30:  Run Mud OWR 
 MSND.                     0.2:  Run Mud Sand % 
 MSOL.                    23.3:  Run Mud Solids% 
 DFV .spqt               78.00:  Mud Viscosity 
 MWOD.in                  6.75:  MWD Tool OD 
 MWSI.                      No:  Serv Intrp, MWD 
 OTIM.hr                218.30:  Time Operating 
 PCON.           Look Like New:  Pad Condition 
 PMAX.psia            11015.30:  Press Op, Max 
 PV  .cP                 38.00:  Mud PV 
 RUN .                     300:  Run Number 
 ROPA.m/hr               15.00:  ROP Avg 
 ROPN.m/hr                9.00:  ROP Min 
 ROPX.m/hr               17.00:  ROP Max 
 RPMA.rpm               120.00:  RPM Surface Avg 
 RPMN.rpm                90.00:  RPM Surface Min 
 RPMX.rpm               140.00:  RPM Surface Max 
 RRUN.                     300:  Rig Run Number 
 RTIM.hr                 31.53:  Time Reaming 
 SAZI.deg               331.64:  Azm, Start 
 SDEP.m                4127.00:  Start Depth 
 SIDD.                      No:  Serv Intrp, DD 
 SINC.deg                48.43:  Inc, Start 
 SPPA.psig             5830.00:  SPP Avg 
 SPPN.psig             5600.00:  SPP Min 
 SPPX.psig             5900.00:  SPP Max 
 STIM.      21.00.00 20-Aug-21:  Start Time 
 SVCS.                 DD, MWD:  Services 
 SVER.                    9.20:  Sperry Version 
 TDAT.m                 957.50:  Tot Depth Attmp 
 TDDF.                      No:  Trip for DD 
 TDLG.m                 957.50:  Tot Depth Loggd 
 TFF .                      No:  Trip for Fail 
 TQAA.f-kp               15.00:  Torque Abs Avg 
 TQAN.f-kp               12.00:  Torque Abs Min 
 TQAX.f-kp               19.00:  Torque Abs Max 
 TRRT.°/30m              -3.40:  Turn Rotating 
 MRT .                  EWR-M5:  Maximum Recorded Temperature 
 TTMX.degC              100.00:  Max Tool Temp 
 VS01.                90639251:  Virtual Str1 SN 
 VS02.                90634715:  Virtual Str2 SN 
 VS03.                90652479:  Virtual Str3 SN 
 VS04.                90642262:  Virtual Str4 SN 
 WBMN.klb                 0.00:  WOB Min 
 WITN.           Murad Guliyev:  Customer Rep 
 WITN.          Yashar Gaziyev:  Customer Rep 2 
 WOBA.klb                 9.00:  WOB Avg 
 WOBX.klb                12.00:  WOB Max 
 YP  .lhf2               30.00:  Yield Point 
~Curve Information Block
#MNEM.UNIT                 API CODE     Curve Description
#---------               -----------    ---------------------------
 TIME.HHMMSS            00 000 000 000:  GT Time & Date
 GTDEPTH.m              00 000 000 000:  GT Depth
 GTPQH.psia             00 000 000 000:  GT HR Quartz Pressure
 GTTQ.degC              00 000 000 000:  GT Quartz Temperature
 GTTN.NONE              00 000 000 000:  GT Test Number
 GTET.sec               00 000 000 000:  GT Elapsed Test Time
 GTTVD.m                00 000 000 000:  GT True Vertical Depth
#Other Information
#
#WARRANTY: Halliburton will use its best efforts to furnish customers with 
#accurate information and interpretations that are part of, and incident to, the services 
#provided.  However, Halliburton cannot and does not warrant the accuracy 
#or correctness of such information and interpretations.  Under no circumstances should any 
#such information or interpretation be relied upon as the sole basis for any drilling, 
#completion, production, or financial decision or any procedure involving any risk to the 
#safety of any drilling venture, drilling rig or its crew or any other third party.  The 
#Customer has full responsibility for all drilling, completion and production operation.  
#Halliburton makes no representations or warranties, either expressed or 
#implied, including, but not limited to, the implied warranties of merchantability or fitness 
#for a particular purpose, with respect to the services rendered.  In no event will 
#Halliburton be liable for failure to obtain any particular results or for 
#any damages, including, but not limited to, indirect, special or consequential damages, 
#resulting from the use of any information or interpretation provided by Halliburton.
#
~A           TIME           GTDEPTH  GTPQH  GTTQ  GTTN   GTET   GTTVD  
# ...
   16:38:31.052.27-Aug-2021 4788.00 7523.21 83.20 17.00 180.62 3147.22
   16:38:31.252.27-Aug-2021 4788.00 7524.66 83.20 17.00 180.82 3147.22
   16:38:31.451.27-Aug-2021 4788.00 7524.66 83.20 17.00 181.02 3147.22
   16:38:31.651.27-Aug-2021 4788.00 7524.69 83.20 17.00 181.22 3147.22
   16:38:31.851.27-Aug-2021 4788.00 7529.80 83.20 17.00 181.42 3147.22
   16:38:32.051.27-Aug-2021 4788.00 7521.75 83.20 17.00 181.62 3147.22
   16:38:32.251.27-Aug-2021 4788.00 7524.23 83.20 17.00 181.82 3147.22
   16:38:32.450.27-Aug-2021 4788.00 7524.23 83.20 17.00 182.02 3147.22
   16:38:32.650.27-Aug-2021 4788.00 7524.40 83.20 17.00 182.22 3147.22
   16:38:32.850.27-Aug-2021 4788.00 7524.55 83.20 17.00 182.42 3147.22
   16:38:33.050.27-Aug-2021 4788.00 7528.76 83.20 17.00 182.62 3147.22
   16:38:33.250.27-Aug-2021 4788.00 7523.13 83.20 17.00 182.82 3147.22
   16:38:33.449.27-Aug-2021 4788.00 7523.13 83.20 17.00 183.02 3147.22
   16:38:33.649.27-Aug-2021 4788.00 7525.55 83.20 17.00 183.22 3147.22
   16:38:33.849.27-Aug-2021 4788.00 7529.61 83.20 17.00 183.42 3147.22
   16:38:34.049.27-Aug-2021 4788.00 7523.33 83.20 17.00 183.62 3147.22
   16:38:34.249.27-Aug-2021 4788.00 7524.33 83.20 17.00 183.82 3147.22
   16:38:34.448.27-Aug-2021 4788.00 7524.33 83.20 17.00 184.02 3147.22
   16:38:34.648.27-Aug-2021 4788.00 7524.94 83.20 17.00 184.22 3147.22
   16:38:34.848.27-Aug-2021 4788.00 7524.04 83.20 17.00 184.42 3147.22
   16:38:35.048.27-Aug-2021 4788.00 7524.10 83.20 17.00 184.62 3147.22
   16:38:35.248.27-Aug-2021 4788.00 7524.49 83.20 17.00 184.82 3147.22
   16:38:35.447.27-Aug-2021 4788.00 7524.49 83.20 17.00 185.02 3147.22
   16:38:35.647.27-Aug-2021 4788.00 7524.82 83.20 17.00 185.22 3147.22
   16:38:35.847.27-Aug-2021 4788.00 7524.87 83.20 17.00 185.41 3147.22
   16:38:36.047.27-Aug-2021 4788.00 7525.13 83.20 17.00 185.61 3147.22
   16:38:36.247.27-Aug-2021 4788.00 7525.01 83.20 17.00 185.81 3147.22
   16:38:36.446.27-Aug-2021 4788.00 7525.01 83.20 17.00 186.01 3147.22
   16:38:36.646.27-Aug-2021 4788.00 7524.88 83.20 17.00 186.21 3147.22
   16:38:36.846.27-Aug-2021 4788.00 7524.82 83.20 17.00 186.41 3147.22
   16:38:37.046.27-Aug-2021 4788.00 7529.19 83.20 17.00 186.61 3147.22
   16:38:37.246.27-Aug-2021 4788.00 7523.16 83.20 17.00 186.81 3147.22
   16:38:37.445.27-Aug-2021 4788.00 7523.16 83.20 17.00 187.01 3147.22
   16:38:37.645.27-Aug-2021 4788.00 7524.57 83.20 17.00 187.21 3147.22
   16:38:37.845.27-Aug-2021 4788.00 7524.54 83.20 17.00 187.41 3147.22
   16:38:38.045.27-Aug-2021 4788.00 7524.01 83.20 17.00 187.61 3147.22
   16:38:38.245.27-Aug-2021 4788.00 7524.08 83.20 17.00 187.81 3147.22
   16:38:38.444.27-Aug-2021 4788.00 7524.08 83.20 17.00 188.01 3147.22
   16:38:38.644.27-Aug-2021 4788.00 7524.62 83.20 17.00 188.21 3147.22
   16:38:38.844.27-Aug-2021 4788.00 7524.66 83.20 17.00 188.41 3147.22
   16:38:39.044.27-Aug-2021 4788.00 7524.81 83.20 17.00 188.61 3147.22
   16:38:39.244.27-Aug-2021 4788.00 7525.10 83.20 17.00 188.81 3147.22
   16:38:39.443.27-Aug-2021 4788.00 7525.10 83.20 17.00 189.01 3147.22
   16:38:39.643.27-Aug-2021 4788.00 7525.01 83.20 17.00 189.21 3147.22
   16:38:39.843.27-Aug-2021 4788.00 7524.98 83.20 17.00 189.41 3147.22
   16:38:40.043.27-Aug-2021 4788.00 7524.82 83.20 17.00 189.61 3147.22
   16:38:40.243.27-Aug-2021 4788.00 7524.72 83.20 17.00 189.81 3147.22
   16:38:40.442.27-Aug-2021 4788.00 7524.72 83.20 17.00 190.01 3147.22
   16:38:40.642.27-Aug-2021 4788.00 7526.71 83.20 17.00 190.21 3147.22
   16:38:40.842.27-Aug-2021 4788.00 7524.41 83.20 17.00 190.41 3147.22
   16:38:41.042.27-Aug-2021 4788.00 7524.88 83.20 17.00 190.61 3147.22
   16:38:41.242.27-Aug-2021 4788.00 7525.21 83.20 17.00 190.81 3147.22
   16:38:41.441.27-Aug-2021 4788.00 7525.21 83.20 17.00 191.01 3147.22
   16:38:41.641.27-Aug-2021 4788.00 7522.22 83.20 17.00 191.21 3147.22
   16:38:41.841.27-Aug-2021 4788.00 7524.23 83.20 17.00 191.41 3147.22
   16:38:42.041.27-Aug-2021 4788.00 7525.63 83.20 17.00 191.61 3147.22
   16:38:42.241.27-Aug-2021 4788.00 7524.62 83.20 17.00 191.81 3147.22
   16:38:42.440.27-Aug-2021 4788.00 7524.62 83.20 17.00 192.01 3147.22
   16:38:42.640.27-Aug-2021 4788.00 7529.76 83.20 17.00 192.21 3147.22
   16:38:42.840.27-Aug-2021 4788.00 7522.42 83.20 17.00 192.41 3147.22
   16:38:43.040.27-Aug-2021 4788.00 7525.41 83.20 17.00 192.61 3147.22
   16:38:43.240.27-Aug-2021 4788.00 7525.97 83.20 17.00 192.81 3147.22
   16:38:43.439.27-Aug-2021 4788.00 7525.97 83.20 17.00 193.01 3147.22
   16:38:43.639.27-Aug-2021 4788.00 7527.41 83.20 17.00 193.21 3147.22
   16:38:43.839.27-Aug-2021 4788.00 7524.04 83.20 17.00 193.41 3147.22
   16:38:44.039.27-Aug-2021 4788.00 7524.99 83.20 17.00 193.61 3147.22
   16:38:44.239.27-Aug-2021 4788.00 7526.21 83.20 17.00 193.81 3147.22
   16:38:44.438.27-Aug-2021 4788.00 7526.21 83.20 17.00 194.01 3147.22
   16:38:44.638.27-Aug-2021 4788.00 7524.86 83.20 17.00 194.21 3147.22
   16:38:44.838.27-Aug-2021 4788.00 7524.63 83.20 17.00 194.41 3147.22
   16:38:45.038.27-Aug-2021 4788.00 7524.82 83.20 17.00 194.61 3147.22
   16:38:45.238.27-Aug-2021 4788.00 7525.19 83.20 17.00 194.81 3147.22
   16:38:45.437.27-Aug-2021 4788.00 7525.19 83.20 17.00 195.01 3147.22
   16:38:45.637.27-Aug-2021 4788.00 7525.18 83.20 17.00 195.21 3147.22
   16:38:45.837.27-Aug-2021 4788.00 7525.13 83.20 17.00 195.40 3147.22
   16:38:46.037.27-Aug-2021 4788.00 7524.85 83.20 17.00 195.60 3147.22
   16:38:46.237.27-Aug-2021 4788.00 7524.97 83.20 17.00 195.80 3147.22
   16:38:46.436.27-Aug-2021 4788.00 7524.97 83.20 17.00 196.00 3147.22
   16:38:46.636.27-Aug-2021 4788.00 7525.79 83.19 17.00 196.20 3147.22
   16:38:46.836.27-Aug-2021 4788.00 7526.92 83.20 17.00 196.40 3147.22
   16:38:47.036.27-Aug-2021 4788.00 7524.44 83.20 17.00 196.60 3147.22
   16:38:47.236.27-Aug-2021 4788.00 7525.02 83.20 17.00 196.80 3147.22
   16:38:47.435.27-Aug-2021 4788.00 7525.02 83.20 17.00 197.00 3147.22
   16:38:47.635.27-Aug-2021 4788.00 7523.90 83.20 17.00 197.20 3147.22
   16:38:47.835.27-Aug-2021 4788.00 7524.65 83.19 17.00 197.40 3147.22
   16:38:48.035.27-Aug-2021 4788.00 7524.13 83.20 17.00 197.60 3147.22
   16:38:48.235.27-Aug-2021 4788.00 7524.63 83.20 17.00 197.80 3147.22
   16:38:48.434.27-Aug-2021 4788.00 7524.63 83.20 17.00 198.00 3147.22
   16:38:48.634.27-Aug-2021 4788.00 7524.85 83.19 17.00 198.20 3147.22
   16:38:48.834.27-Aug-2021 4788.00 7525.16 83.19 17.00 198.40 3147.22
   16:38:49.034.27-Aug-2021 4788.00 7525.23 83.19 17.00 198.60 3147.22
   16:38:49.234.27-Aug-2021 4788.00 7525.03 83.19 17.00 198.80 3147.22
   16:38:49.433.27-Aug-2021 4788.00 7525.03 83.19 17.00 199.00 3147.22
   16:38:49.633.27-Aug-2021 4788.00 7524.84 83.19 17.00 199.20 3147.22
   16:38:49.833.27-Aug-2021 4788.00 7524.75 83.19 17.00 199.40 3147.22
   16:38:50.033.27-Aug-2021 4788.00 7524.69 83.19 17.00 199.60 3147.22
   16:38:50.233.27-Aug-2021 4788.00 7528.49 83.19 17.00 199.80 3147.22
   16:38:50.432.27-Aug-2021 4788.00 7528.49 83.19 17.00 200.00 3147.22
   16:38:50.632.27-Aug-2021 4788.00 7524.81 83.19 17.00 200.20 3147.22
   16:38:50.832.27-Aug-2021 4788.00 7525.68 83.19 17.00 200.40 3147.22
   16:38:51.032.27-Aug-2021 4788.00 7528.64 83.19 17.00 200.60 3147.22
   16:38:51.232.27-Aug-2021 4788.00 7523.74 83.19 17.00 200.80 3147.22
   16:38:51.431.27-Aug-2021 4788.00 7523.74 83.19 17.00 201.00 3147.22
   16:38:51.631.27-Aug-2021 4788.00 7525.29 83.19 17.00 201.20 3147.22
   16:38:51.831.27-Aug-2021 4788.00 7525.42 83.19 17.00 201.40 3147.22
   16:38:52.031.27-Aug-2021 4788.00 7524.24 83.19 17.00 201.60 3147.22
   16:38:52.231.27-Aug-2021 4788.00 7528.93 83.19 17.00 201.80 3147.22
   16:38:52.430.27-Aug-2021 4788.00 7528.93 83.19 17.00 202.00 3147.22
   16:38:52.630.27-Aug-2021 4788.00 7524.91 83.19 17.00 202.20 3147.22
   16:38:52.830.27-Aug-2021 4788.00 7525.57 83.19 17.00 202.40 3147.22
   16:38:53.030.27-Aug-2021 4788.00 7524.84 83.19 17.00 202.60 3147.22
   16:38:53.230.27-Aug-2021 4788.00 7528.42 83.19 17.00 202.80 3147.22
   16:38:53.429.27-Aug-2021 4788.00 7528.42 83.19 17.00 203.00 3147.22
