~Version Information
 VERS.                  2.0:   CWLS log ASCII Standard -VERSION 2.0
 WRAP.                   NO:   One line per depth step
~Well Information Block
#MNEM.UNIT     VALUE/NAME     DESCRIPTION
#---------     -----------    ---------------------------
 STRT.S             15:52:10 27-Aug-21: START TIME 15:52:10 27-Aug-21
 STOP.S             15:59:26 27-Aug-21: STOP TIME  15:59:26 27-Aug-21
 STEP.S                   0.00: STEP TIME
 NULL.                 -999.25: NULL VALUE
 DFWT.                        :  DIST FWL TEXT
 DFST.                        :  DIST FSL TEXT
 DMF .             Drill Floor:  DRILL MEAS FROM
 STIM.      20.00.00 17-Aug-21:  START TIME
 DATE.      19.00.00 29-Aug-21:  END TIME
 SPUD.               15-Aug-21:  SPUD DATE
 NREF.                    Grid:  NORTH REFERENCE
 HPTY.       Minimum Curvature:  HOLE POS TYPE
 DMOD.             Drill Model:  DRILL MOD DESC
 SVYD.                  Survey:  SURVEY DESC
 ILTD.               Lithology:  INTERP LTH DESC
 FTOP.          Formation Tops:  FORM TOPS DESC
 RIG .              East Azeri:  RIG NAME
 PDAT.          Mean Sea Level:  PERMANENT DATUM
 FLD .                     ACG:  FIELD NAME
 SON .        AZ-XX-0907180857:  JOB NUMBER
 CTRY.              Azerbaijan:  COUNTRY NAME
 WELL.                    D23x:  WELL NAME
 SRVC.     Turan Drilling and Engineering:  CONTRACTOR
 COMP.     BP Exploration (Caspian Sea) Ltd.:  COMPANY
 UWI .            /AZE00000214:  UNIQUE WELL IDENTIFIER
 API .            /AZE00000214:  API NUMBER
 MDS .        Operator Entered:  MAG DATA SOURCE
 BASE.              Azerbaijan:  LOGGING EQUIPMENT BASE LOCATION
 REGN.                   EESSA:  REGION
 PROV.                    Baku:  PROVINCE
 STAT.                    Baku:  STATE NAME
 MWDS.                    Baku:  MWD SHOP
 DOE .                     N/A:  DOE NUMBER
 DCON.         Sperry Drilling:  DIRECTNL CONTR
 UNIT.                     N/A:  LOGGING EQUIPMENT ID
 WTYP.                Deviated:  WELL TYPE
 CNTY.                        :  COUNTY
 LOC .                        :  LOCATION
 LMF .             Drill Floor:  LOG MEASURED FROM
 TVDS.m                  43.60:  TVDSS CORRECTN
 LATI.deg                40.02:  LATITUDE
 LONG.deg                51.45:  LONGITUDE
 WHNS.m                  -7.04:  WELL HEAD N/S
 WHEW.m                  -0.67:  WELL HEAD E/W
 UTMX.m              538762.90:  UTM X
 UTMY.m             4431871.34:  UTM Y
 DFWL.m                   0.00:  DISTANCE FWL
 DFSL.m                   0.00:  DISTANCE FSL
 SDEP.m                4127.00:  START DEPTH
 TDD .m                5084.50:  TOTAL DEPTH (DRILLER)
 VSDR.deg               140.47:  VERT SEC DIRECT
 GVFD.g                   1.00:  GRAVITY FIELD
 MFLD.nT              50362.00:  MAGNETIC FIELD
 MDIP.deg                59.48:  MAGNETIC DIP
 MDEC.deg                 6.47:  MAGNETIC DECL
 GRDC.deg                 0.31:  GRID CORRECTION
 AZTC.deg                 6.16:  AZM TOTAL CORR
 EPD .m                   0.00:  ELEVATION
 EGL .m                   0.00:  GROUND ELEVATION
 WDMS.m                 151.80:  WD ELEV
 APD .m                  43.60:  DEPTH ABOVE PD
 DEP .m                4092.57:  DEPTH
 AGAP.m                  43.60:  AIR GAP
 VSEW.m                  -0.67:  VERT SEC E/W
 VSNS.m                  -7.04:  VERT SEC N/S
 EKB .m                  43.60:  KB ELEVATION
 EDF .m                  43.60:  DF ELEVATION
 TDL .m                 957.50:  TOTAL DEPTH (LOGGER)
 VSC .                       0:  VS TO CLOSURE
 MAGU.                 1851413:  MAGUTM CHECKSUM
~Parameter Information Block
#MNEM.UNIT       Value        Description
#---------     -----------    ---------------------------
 AV  .mps                 1.50:  Ann Velocity 
 AVMX.mps                 2.00:  Max Ann Veloc 
 AZIF.deg               184.66:  Azm, Final 
 BHAT.        Rotary Steerable:  BHA Type 
 BREV.rev               300.00:  Rev Bit Total 
 BROT.°/30m              -0.50:  Build Rotating 
 BS  .in                  8.50:  Bit Size 
 BSZ .in                  8.50:  Bit Size 
 BTPL.psig              370.00:  Bit Press Loss 
 CABU.                      No:  Customer Abuse 
 CGEO.      Behruz Shahbaliyev:  Customer Geo 
 COMM.                     Ìu:  Run Comments 1 
 TCS .hr                140.08:  Time Ciculation Ended 
 CV  .mps                 3.00:  Crit Velocity 
 CVMX.mps                 3.20:  Max Crit Veloc 
 DD1 .            Musa Ahmadov:  Direct Drillr 1 
 DD2 .           Hamid Ahmadov:  Direct Drillr 2 
 DDSV.               Geo-Pilot:  DD Service 
 DEFF.%                  98.40:  % Det Eff 
 DLRX.°/30m               3.40:  Dogleg Rot Max 
 DLSO.°/30m               1.45:  Dogleg Oriented 
 DLSX.°/30m               3.40:  Dogleg Str Max 
 DRET.      18.40.00 29-Aug-21:  Drill End Time 
 DRST.      21.00.00 20-Aug-21:  Drill Start Tim 
 DTIM.hr                 69.47:  Time Drilling 
 EDEP.m                5084.50:  End Depth 
 ENG1.      Artemiy Matviyanov:  Engineer 1 
 ENG2.         Almaz Almadatov:  Engineer 2 
 ETIM.      18.40.00 29-Aug-21:  End Time 
 FLOI.gpm               500.00:  Flow In 
 FLON.gpm               400.00:  Flow In Min 
 FLOS.cptm                0.00:  Fluid Loss 
 FLOX.gpm               500.00:  Flow In Max 
 DFT .        Mineral Oil Base:  Mud Type 
 HFLO.                      No:  High Flow 
 HPRE.                      No:  High Pressure 
 HTEM.                      No:  High Temp 
 HYDO.m                   1.80:  Hydro Offset 
 IFIN.deg                25.62:  Inc, Final 
 IMAX.deg                48.69:  Inc Max 
 IMIN.deg                24.01:  Inc Min 
 IMND.m                4962.57:  Inc Min Depth 
 IMXD.m                4119.01:  Inc Max Depth 
 JARR.                      No:  Jarring 
 LETM.      18.40.00 29-Aug-21:  Log End Time 
 LOST.hr                     0:  Lost Rig Time 
 LSTM.      21.00.00 20-Aug-21:  Log Start Time 
 MDCL.ppm             41500.00:  Mud Chlorides 
 MDES.     Inversion Oil/Synthetic:  Mud Desc 
 DFD .sg                  1.56:  Mud Density 
 MDMN.sg                  1.56:  Dens Mud Min 
 MDMX.sg                  1.56:  Dens Mud Max 
 MOIL.                      70:  Run Mud Oil % 
 MOWR.                   70:30:  Run Mud OWR 
 MSND.                     0.2:  Run Mud Sand % 
 MSOL.                    23.3:  Run Mud Solids% 
 DFV .spqt               78.00:  Mud Viscosity 
 MWOD.in                  6.75:  MWD Tool OD 
 MWSI.                      No:  Serv Intrp, MWD 
 OTIM.hr                218.30:  Time Operating 
 PCON.           Look Like New:  Pad Condition 
 PMAX.psia            11015.30:  Press Op, Max 
 PV  .cP                 38.00:  Mud PV 
 RUN .                     300:  Run Number 
 ROPA.m/hr               15.00:  ROP Avg 
 ROPN.m/hr                9.00:  ROP Min 
 ROPX.m/hr               17.00:  ROP Max 
 RPMA.rpm               120.00:  RPM Surface Avg 
 RPMN.rpm                90.00:  RPM Surface Min 
 RPMX.rpm               140.00:  RPM Surface Max 
 RRUN.                     300:  Rig Run Number 
 RTIM.hr                 31.53:  Time Reaming 
 SAZI.deg               331.64:  Azm, Start 
 SDEP.m                4127.00:  Start Depth 
 SIDD.                      No:  Serv Intrp, DD 
 SINC.deg                48.43:  Inc, Start 
 SPPA.psig             5830.00:  SPP Avg 
 SPPN.psig             5600.00:  SPP Min 
 SPPX.psig             5900.00:  SPP Max 
 STIM.      21.00.00 20-Aug-21:  Start Time 
 SVCS.                 DD, MWD:  Services 
 SVER.                    9.20:  Sperry Version 
 TDAT.m                 957.50:  Tot Depth Attmp 
 TDDF.                      No:  Trip for DD 
 TDLG.m                 957.50:  Tot Depth Loggd 
 TFF .                      No:  Trip for Fail 
 TQAA.f-kp               15.00:  Torque Abs Avg 
 TQAN.f-kp               12.00:  Torque Abs Min 
 TQAX.f-kp               19.00:  Torque Abs Max 
 TRRT.°/30m              -3.40:  Turn Rotating 
 MRT .                  EWR-M5:  Maximum Recorded Temperature 
 TTMX.degC              100.00:  Max Tool Temp 
 VS01.                90639251:  Virtual Str1 SN 
 VS02.                90634715:  Virtual Str2 SN 
 VS03.                90652479:  Virtual Str3 SN 
 VS04.                90642262:  Virtual Str4 SN 
 WBMN.klb                 0.00:  WOB Min 
 WITN.           Murad Guliyev:  Customer Rep 
 WITN.          Yashar Gaziyev:  Customer Rep 2 
 WOBA.klb                 9.00:  WOB Avg 
 WOBX.klb                12.00:  WOB Max 
 YP  .lhf2               30.00:  Yield Point 
~Curve Information Block
#MNEM.UNIT                 API CODE     Curve Description
#---------               -----------    ---------------------------
 TIME.HHMMSS            00 000 000 000:  GT Time & Date
 GTDEPTH.m              00 000 000 000:  GT Depth
 GTPQH.psia             00 000 000 000:  GT HR Quartz Pressure
 GTTQ.degC              00 000 000 000:  GT Quartz Temperature
 GTTN.NONE              00 000 000 000:  GT Test Number
 GTET.sec               00 000 000 000:  GT Elapsed Test Time
 GTTVD.m                00 000 000 000:  GT True Vertical Depth
#Other Information
#
#WARRANTY: Halliburton will use its best efforts to furnish customers with 
#accurate information and interpretations that are part of, and incident to, the services 
#provided.  However, Halliburton cannot and does not warrant the accuracy 
#or correctness of such information and interpretations.  Under no circumstances should any 
#such information or interpretation be relied upon as the sole basis for any drilling, 
#completion, production, or financial decision or any procedure involving any risk to the 
#safety of any drilling venture, drilling rig or its crew or any other third party.  The 
#Customer has full responsibility for all drilling, completion and production operation.  
#Halliburton makes no representations or warranties, either expressed or 
#implied, including, but not limited to, the implied warranties of merchantability or fitness 
#for a particular purpose, with respect to the services rendered.  In no event will 
#Halliburton be liable for failure to obtain any particular results or for 
#any damages, including, but not limited to, indirect, special or consequential damages, 
#resulting from the use of any information or interpretation provided by Halliburton.
#
~A           TIME           GTDEPTH  GTPQH  GTTQ  GTTN   GTET   GTTVD  
# ...
   15:56:42.403.27-Aug-2021 4817.00 5229.71 83.57 16.00 271.63 3173.43
   15:56:42.603.27-Aug-2021 4817.00 5142.72 83.56 16.00 271.83 3173.43
   15:56:42.803.27-Aug-2021 4817.00 5127.78 83.56 16.00 272.03 3173.43
   15:56:43.004.27-Aug-2021 4817.00 5122.77 83.56 16.00 272.23 3173.43
   15:56:43.204.27-Aug-2021 4817.00 5123.63 83.56 16.00 272.43 3173.43
   15:56:43.404.27-Aug-2021 4817.00 5123.63 83.56 16.00 272.63 3173.43
   15:56:43.605.27-Aug-2021 4817.00 5124.12 83.56 16.00 272.83 3173.43
   15:56:43.805.27-Aug-2021 4817.00 5124.25 83.56 16.00 273.03 3173.43
   15:56:44.005.27-Aug-2021 4817.00 5121.83 83.56 16.00 273.23 3173.43
   15:56:44.206.27-Aug-2021 4817.00 5122.56 83.56 16.00 273.43 3173.43
   15:56:44.406.27-Aug-2021 4817.00 5122.56 83.56 16.00 273.63 3173.43
   15:56:44.606.27-Aug-2021 4817.00 5122.47 83.56 16.00 273.84 3173.43
   15:56:44.807.27-Aug-2021 4817.00 5122.28 83.56 16.00 274.04 3173.43
   15:56:45.007.27-Aug-2021 4817.00 5121.66 83.56 16.00 274.24 3173.43
   15:56:45.207.27-Aug-2021 4817.00 5122.31 83.56 16.00 274.44 3173.43
   15:56:45.408.27-Aug-2021 4817.00 5122.31 83.56 16.00 274.64 3173.43
   15:56:45.608.27-Aug-2021 4817.00 5121.58 83.56 16.00 274.84 3173.43
   15:56:45.808.27-Aug-2021 4817.00 5121.89 83.56 16.00 275.04 3173.43
   15:56:46.009.27-Aug-2021 4817.00 5121.70 83.56 16.00 275.24 3173.43
   15:56:46.209.27-Aug-2021 4817.00 5121.07 83.56 16.00 275.44 3173.43
   15:56:46.409.27-Aug-2021 4817.00 5121.07 83.56 16.00 275.64 3173.43
   15:56:46.609.27-Aug-2021 4817.00 5122.30 83.56 16.00 275.84 3173.43
   15:56:46.810.27-Aug-2021 4817.00 5121.82 83.56 16.00 276.04 3173.43
   15:56:47.010.27-Aug-2021 4817.00 5120.64 83.56 16.00 276.24 3173.43
   15:56:47.210.27-Aug-2021 4817.00 5122.43 83.56 16.00 276.44 3173.43
   15:56:47.411.27-Aug-2021 4817.00 5122.43 83.56 16.00 276.64 3173.43
   15:56:47.611.27-Aug-2021 4817.00 5121.94 83.56 16.00 276.84 3173.43
   15:56:47.811.27-Aug-2021 4817.00 5121.79 83.56 16.00 277.04 3173.43
   15:56:48.012.27-Aug-2021 4817.00 5121.59 83.56 16.00 277.24 3173.43
   15:56:48.212.27-Aug-2021 4817.00 5122.69 83.56 16.00 277.44 3173.43
   15:56:48.412.27-Aug-2021 4817.00 5122.69 83.56 16.00 277.64 3173.43
   15:56:48.613.27-Aug-2021 4817.00 5122.38 83.56 16.00 277.84 3173.43
   15:56:48.813.27-Aug-2021 4817.00 5121.91 83.56 16.00 278.04 3173.43
   15:56:49.013.27-Aug-2021 4817.00 5122.92 83.56 16.00 278.24 3173.43
   15:56:49.214.27-Aug-2021 4817.00 5122.17 83.56 16.00 278.44 3173.43
   15:56:49.414.27-Aug-2021 4817.00 5122.17 83.56 16.00 278.64 3173.43
   15:56:49.614.27-Aug-2021 4817.00 5123.32 83.56 16.00 278.84 3173.43
   15:56:49.815.27-Aug-2021 4817.00 5120.99 83.56 16.00 279.04 3173.43
   15:56:50.015.27-Aug-2021 4817.00 5122.66 83.56 16.00 279.24 3173.43
   15:56:50.215.27-Aug-2021 4817.00 5121.84 83.56 16.00 279.44 3173.43
   15:56:50.416.27-Aug-2021 4817.00 5121.84 83.56 16.00 279.64 3173.43
   15:56:50.616.27-Aug-2021 4817.00 5121.16 83.56 16.00 279.84 3173.43
   15:56:50.816.27-Aug-2021 4817.00 5121.63 83.56 16.00 280.05 3173.43
   15:56:51.016.27-Aug-2021 4817.00 5121.71 83.56 16.00 280.25 3173.43
   15:56:51.217.27-Aug-2021 4817.00 5122.60 83.56 16.00 280.45 3173.43
   15:56:51.417.27-Aug-2021 4817.00 5122.60 83.56 16.00 280.65 3173.43
   15:56:51.617.27-Aug-2021 4817.00 5123.00 83.56 16.00 280.85 3173.43
   15:56:51.818.27-Aug-2021 4817.00 5122.13 83.56 16.00 281.05 3173.43
   15:56:52.018.27-Aug-2021 4817.00 5122.31 83.56 16.00 281.25 3173.43
   15:56:52.218.27-Aug-2021 4817.00 5122.17 83.56 16.00 281.45 3173.43
   15:56:52.419.27-Aug-2021 4817.00 5122.17 83.56 16.00 281.65 3173.43
   15:56:52.619.27-Aug-2021 4817.00 5151.72 83.56 16.00 281.85 3173.43
   15:56:52.819.27-Aug-2021 4817.00 5221.06 83.56 16.00 282.05 3173.43
   15:56:53.020.27-Aug-2021 4817.00 5226.50 83.56 16.00 282.25 3173.43
   15:56:53.220.27-Aug-2021 4817.00 5227.09 83.56 16.00 282.45 3173.43
   15:56:53.420.27-Aug-2021 4817.00 5227.09 83.56 16.00 282.65 3173.43
   15:56:53.621.27-Aug-2021 4817.00 5228.17 83.56 16.00 282.85 3173.43
   15:56:53.821.27-Aug-2021 4817.00 5228.43 83.56 16.00 283.05 3173.43
   15:56:54.021.27-Aug-2021 4817.00 5228.58 83.56 16.00 283.25 3173.43
   15:56:54.222.27-Aug-2021 4817.00 5228.89 83.56 16.00 283.45 3173.43
   15:56:54.422.27-Aug-2021 4817.00 5228.89 83.56 16.00 283.65 3173.43
   15:56:54.622.27-Aug-2021 4817.00 5228.98 83.56 16.00 283.85 3173.43
   15:56:54.823.27-Aug-2021 4817.00 5228.95 83.56 16.00 284.05 3173.43
   15:56:55.023.27-Aug-2021 4817.00 5229.08 83.56 16.00 284.25 3173.43
   15:56:55.223.27-Aug-2021 4817.00 5229.34 83.56 16.00 284.45 3173.43
   15:56:55.423.27-Aug-2021 4817.00 5229.34 83.56 16.00 284.65 3173.43
   15:56:55.624.27-Aug-2021 4817.00 5229.23 83.56 16.00 284.85 3173.43
   15:56:55.824.27-Aug-2021 4817.00 5229.22 83.56 16.00 285.05 3173.43
   15:56:56.024.27-Aug-2021 4817.00 5229.21 83.56 16.00 285.25 3173.43
   15:56:56.225.27-Aug-2021 4817.00 5229.19 83.56 16.00 285.45 3173.43
   15:56:56.425.27-Aug-2021 4817.00 5229.19 83.56 16.00 285.65 3173.43
   15:56:56.625.27-Aug-2021 4817.00 5229.49 83.56 16.00 285.85 3173.43
   15:56:56.826.27-Aug-2021 4817.00 5229.40 83.56 16.00 286.05 3173.43
   15:56:57.026.27-Aug-2021 4817.00 5229.41 83.56 16.00 286.25 3173.43
   15:56:57.226.27-Aug-2021 4817.00 5229.38 83.56 16.00 286.46 3173.43
   15:56:57.427.27-Aug-2021 4817.00 5229.38 83.56 16.00 286.66 3173.43
   15:56:57.627.27-Aug-2021 4817.00 5229.36 83.56 16.00 286.86 3173.43
   15:56:57.827.27-Aug-2021 4817.00 5229.36 83.56 16.00 287.06 3173.43
   15:56:58.028.27-Aug-2021 4817.00 5229.37 83.56 16.00 287.26 3173.43
   15:56:58.228.27-Aug-2021 4817.00 5229.35 83.56 16.00 287.46 3173.43
   15:56:58.428.27-Aug-2021 4817.00 5229.35 83.56 16.00 287.66 3173.43
   15:56:58.629.27-Aug-2021 4817.00 5229.35 83.56 16.00 287.86 3173.43
   15:56:58.829.27-Aug-2021 4817.00 5229.35 83.56 16.00 288.06 3173.43
   15:56:59.029.27-Aug-2021 4817.00 5229.34 83.56 16.00 288.26 3173.43
   15:56:59.230.27-Aug-2021 4817.00 5229.32 83.56 16.00 288.46 3173.43
   15:56:59.430.27-Aug-2021 4817.00 5229.32 83.56 16.00 288.66 3173.43
   15:56:59.630.27-Aug-2021 4817.00 5229.23 83.56 16.00 288.86 3173.43
   15:56:59.830.27-Aug-2021 4817.00 5229.53 83.56 16.00 289.06 3173.43
   15:57:00.031.27-Aug-2021 4817.00 5229.53 83.56 16.00 289.26 3173.43
   15:57:00.231.27-Aug-2021 4817.00 5229.49 83.56 16.00 289.46 3173.43
   15:57:00.431.27-Aug-2021 4817.00 5229.49 83.56 16.00 289.66 3173.43
   15:57:00.632.27-Aug-2021 4817.00 5229.48 83.56 16.00 289.86 3173.43
   15:57:00.832.27-Aug-2021 4817.00 5229.47 83.56 16.00 290.06 3173.43
   15:57:01.032.27-Aug-2021 4817.00 5229.47 83.56 16.00 290.26 3173.43
   15:57:01.233.27-Aug-2021 4817.00 5229.47 83.56 16.00 290.46 3173.43
   15:57:01.433.27-Aug-2021 4817.00 5229.47 83.56 16.00 290.66 3173.43
   15:57:01.633.27-Aug-2021 4817.00 5229.46 83.56 16.00 290.86 3173.43
   15:57:01.834.27-Aug-2021 4817.00 5229.45 83.56 16.00 291.06 3173.43
   15:57:02.034.27-Aug-2021 4817.00 5229.44 83.56 16.00 291.26 3173.43
   15:57:02.234.27-Aug-2021 4817.00 5229.43 83.56 16.00 291.46 3173.43
   15:57:02.435.27-Aug-2021 4817.00 5229.43 83.56 16.00 291.66 3173.43
   15:57:02.635.27-Aug-2021 4817.00 5229.42 83.56 16.00 291.86 3173.43
   15:57:02.835.27-Aug-2021 4817.00 5229.67 83.56 16.00 292.06 3173.43
   15:57:03.036.27-Aug-2021 4817.00 5229.27 83.56 16.00 292.26 3173.43
   15:57:03.236.27-Aug-2021 4817.00 5229.57 83.56 16.00 292.46 3173.43
   15:57:03.436.27-Aug-2021 4817.00 5229.57 83.56 16.00 292.67 3173.43
   15:57:03.637.27-Aug-2021 4817.00 5229.55 83.56 16.00 292.87 3173.43
   15:57:03.837.27-Aug-2021 4817.00 5229.66 83.56 16.00 293.07 3173.43
   15:57:04.037.27-Aug-2021 4817.00 5229.44 83.56 16.00 293.27 3173.43
   15:57:04.237.27-Aug-2021 4817.00 5229.57 83.56 16.00 293.47 3173.43
   15:57:04.438.27-Aug-2021 4817.00 5229.57 83.56 16.00 293.67 3173.43
   15:57:04.638.27-Aug-2021 4817.00 5229.55 83.56 16.00 293.87 3173.43
   15:57:04.838.27-Aug-2021 4817.00 5229.58 83.56 16.00 294.07 3173.43
