~Version Information
 VERS.                  2.0:   CWLS log ASCII Standard -VERSION 2.0
 WRAP.                   NO:   One line per depth step
~Well Information Block
#MNEM.UNIT     VALUE/NAME     DESCRIPTION
#---------     -----------    ---------------------------
 STRT.S             22:57:07 27-Aug-21: START TIME 22:57:07 27-Aug-21
 STOP.S             23:04:14 27-Aug-21: STOP TIME  23:04:14 27-Aug-21
 STEP.S                   0.00: STEP TIME
 NULL.                 -999.25: NULL VALUE
 DFWT.                        :  DIST FWL TEXT
 DFST.                        :  DIST FSL TEXT
 DMF .             Drill Floor:  DRILL MEAS FROM
 STIM.      20.00.00 17-Aug-21:  START TIME
 DATE.      19.00.00 29-Aug-21:  END TIME
 SPUD.               15-Aug-21:  SPUD DATE
 NREF.                    Grid:  NORTH REFERENCE
 HPTY.       Minimum Curvature:  HOLE POS TYPE
 DMOD.             Drill Model:  DRILL MOD DESC
 SVYD.                  Survey:  SURVEY DESC
 ILTD.               Lithology:  INTERP LTH DESC
 FTOP.          Formation Tops:  FORM TOPS DESC
 RIG .              East Azeri:  RIG NAME
 PDAT.          Mean Sea Level:  PERMANENT DATUM
 FLD .                     ACG:  FIELD NAME
 SON .        AZ-XX-0907180857:  JOB NUMBER
 CTRY.              Azerbaijan:  COUNTRY NAME
 WELL.                    D23x:  WELL NAME
 SRVC.     Turan Drilling and Engineering:  CONTRACTOR
 COMP.     BP Exploration (Caspian Sea) Ltd.:  COMPANY
 UWI .            /AZE00000214:  UNIQUE WELL IDENTIFIER
 API .            /AZE00000214:  API NUMBER
 MDS .        Operator Entered:  MAG DATA SOURCE
 BASE.              Azerbaijan:  LOGGING EQUIPMENT BASE LOCATION
 REGN.                   EESSA:  REGION
 PROV.                    Baku:  PROVINCE
 STAT.                    Baku:  STATE NAME
 MWDS.                    Baku:  MWD SHOP
 DOE .                     N/A:  DOE NUMBER
 DCON.         Sperry Drilling:  DIRECTNL CONTR
 UNIT.                     N/A:  LOGGING EQUIPMENT ID
 WTYP.                Deviated:  WELL TYPE
 CNTY.                        :  COUNTY
 LOC .                        :  LOCATION
 LMF .             Drill Floor:  LOG MEASURED FROM
 TVDS.m                  43.60:  TVDSS CORRECTN
 LATI.deg                40.02:  LATITUDE
 LONG.deg                51.45:  LONGITUDE
 WHNS.m                  -7.04:  WELL HEAD N/S
 WHEW.m                  -0.67:  WELL HEAD E/W
 UTMX.m              538762.90:  UTM X
 UTMY.m             4431871.34:  UTM Y
 DFWL.m                   0.00:  DISTANCE FWL
 DFSL.m                   0.00:  DISTANCE FSL
 SDEP.m                4127.00:  START DEPTH
 TDD .m                5084.50:  TOTAL DEPTH (DRILLER)
 VSDR.deg               140.47:  VERT SEC DIRECT
 GVFD.g                   1.00:  GRAVITY FIELD
 MFLD.nT              50362.00:  MAGNETIC FIELD
 MDIP.deg                59.48:  MAGNETIC DIP
 MDEC.deg                 6.47:  MAGNETIC DECL
 GRDC.deg                 0.31:  GRID CORRECTION
 AZTC.deg                 6.16:  AZM TOTAL CORR
 EPD .m                   0.00:  ELEVATION
 EGL .m                   0.00:  GROUND ELEVATION
 WDMS.m                 151.80:  WD ELEV
 APD .m                  43.60:  DEPTH ABOVE PD
 DEP .m                4092.57:  DEPTH
 AGAP.m                  43.60:  AIR GAP
 VSEW.m                  -0.67:  VERT SEC E/W
 VSNS.m                  -7.04:  VERT SEC N/S
 EKB .m                  43.60:  KB ELEVATION
 EDF .m                  43.60:  DF ELEVATION
 TDL .m                 957.50:  TOTAL DEPTH (LOGGER)
 VSC .                       0:  VS TO CLOSURE
 MAGU.                 1851413:  MAGUTM CHECKSUM
~Parameter Information Block
#MNEM.UNIT       Value        Description
#---------     -----------    ---------------------------
 AV  .mps                 1.50:  Ann Velocity 
 AVMX.mps                 2.00:  Max Ann Veloc 
 AZIF.deg               184.66:  Azm, Final 
 BHAT.        Rotary Steerable:  BHA Type 
 BREV.rev               300.00:  Rev Bit Total 
 BROT.°/30m              -0.50:  Build Rotating 
 BS  .in                  8.50:  Bit Size 
 BSZ .in                  8.50:  Bit Size 
 BTPL.psig              370.00:  Bit Press Loss 
 CABU.                      No:  Customer Abuse 
 CGEO.      Behruz Shahbaliyev:  Customer Geo 
 TCS .hr                140.08:  Time Ciculation Ended 
 CV  .mps                 3.00:  Crit Velocity 
 CVMX.mps                 3.20:  Max Crit Veloc 
 DD1 .            Musa Ahmadov:  Direct Drillr 1 
 DD2 .           Hamid Ahmadov:  Direct Drillr 2 
 DDSV.               Geo-Pilot:  DD Service 
 DEFF.%                  98.40:  % Det Eff 
 DLRX.°/30m               3.40:  Dogleg Rot Max 
 DLSO.°/30m               1.45:  Dogleg Oriented 
 DLSX.°/30m               3.40:  Dogleg Str Max 
 DRET.      18.40.00 29-Aug-21:  Drill End Time 
 DRST.      21.00.00 20-Aug-21:  Drill Start Tim 
 DTIM.hr                 69.47:  Time Drilling 
 EDEP.m                5084.50:  End Depth 
 ENG1.      Artemiy Matviyanov:  Engineer 1 
 ENG2.         Almaz Almadatov:  Engineer 2 
 ETIM.      18.40.00 29-Aug-21:  End Time 
 FLOI.gpm               500.00:  Flow In 
 FLON.gpm               400.00:  Flow In Min 
 FLOS.cptm                0.00:  Fluid Loss 
 FLOX.gpm               500.00:  Flow In Max 
 DFT .        Mineral Oil Base:  Mud Type 
 HFLO.                      No:  High Flow 
 HPRE.                      No:  High Pressure 
 HTEM.                      No:  High Temp 
 HYDO.m                   1.80:  Hydro Offset 
 IFIN.deg                25.62:  Inc, Final 
 IMAX.deg                48.69:  Inc Max 
 IMIN.deg                24.01:  Inc Min 
 IMND.m                4962.57:  Inc Min Depth 
 IMXD.m                4119.01:  Inc Max Depth 
 JARR.                      No:  Jarring 
 LETM.      18.40.00 29-Aug-21:  Log End Time 
 LOST.hr                     0:  Lost Rig Time 
 LSTM.      21.00.00 20-Aug-21:  Log Start Time 
 MDCL.ppm             41500.00:  Mud Chlorides 
 MDES.     Inversion Oil/Synthetic:  Mud Desc 
 DFD .sg                  1.56:  Mud Density 
 MDMN.sg                  1.56:  Dens Mud Min 
 MDMX.sg                  1.56:  Dens Mud Max 
 MOIL.                      70:  Run Mud Oil % 
 MOWR.                   70:30:  Run Mud OWR 
 MSND.                     0.2:  Run Mud Sand % 
 MSOL.                    23.3:  Run Mud Solids% 
 DFV .spqt               78.00:  Mud Viscosity 
 MWOD.in                  6.75:  MWD Tool OD 
 MWSI.                      No:  Serv Intrp, MWD 
 OTIM.hr                218.30:  Time Operating 
 PCON.           Look Like New:  Pad Condition 
 PMAX.psia            11015.30:  Press Op, Max 
 PV  .cP                 38.00:  Mud PV 
 RUN .                     300:  Run Number 
 ROPA.m/hr               15.00:  ROP Avg 
 ROPN.m/hr                9.00:  ROP Min 
 ROPX.m/hr               17.00:  ROP Max 
 RPMA.rpm               120.00:  RPM Surface Avg 
 RPMN.rpm                90.00:  RPM Surface Min 
 RPMX.rpm               140.00:  RPM Surface Max 
 RRUN.                     300:  Rig Run Number 
 RTIM.hr                 31.53:  Time Reaming 
 SAZI.deg               331.64:  Azm, Start 
 SDEP.m                4127.00:  Start Depth 
 SIDD.                      No:  Serv Intrp, DD 
 SINC.deg                48.43:  Inc, Start 
 SPPA.psig             5830.00:  SPP Avg 
 SPPN.psig             5600.00:  SPP Min 
 SPPX.psig             5900.00:  SPP Max 
 STIM.      21.00.00 20-Aug-21:  Start Time 
 SVCS.                 DD, MWD:  Services 
 SVER.                    9.20:  Sperry Version 
 TDAT.m                 957.50:  Tot Depth Attmp 
 TDDF.                      No:  Trip for DD 
 TDLG.m                 957.50:  Tot Depth Loggd 
 TFF .                      No:  Trip for Fail 
 TQAA.f-kp               15.00:  Torque Abs Avg 
 TQAN.f-kp               12.00:  Torque Abs Min 
 TQAX.f-kp               19.00:  Torque Abs Max 
 TRRT.°/30m              -3.40:  Turn Rotating 
 MRT .                  EWR-M5:  Maximum Recorded Temperature 
 TTMX.degC              100.00:  Max Tool Temp 
 VS01.                90639251:  Virtual Str1 SN 
 VS02.                90634715:  Virtual Str2 SN 
 VS03.                90652479:  Virtual Str3 SN 
 VS04.                90642262:  Virtual Str4 SN 
 WBMN.klb                 0.00:  WOB Min 
 WITN.           Murad Guliyev:  Customer Rep 
 WITN.          Yashar Gaziyev:  Customer Rep 2 
 WOBA.klb                 9.00:  WOB Avg 
 WOBX.klb                12.00:  WOB Max 
 YP  .lhf2               30.00:  Yield Point 
~Curve Information Block
#MNEM.UNIT                 API CODE     Curve Description
#---------               -----------    ---------------------------
 TIME.HHMMSS            00 000 000 000:  GT Time & Date
 GTDEPTH.m              00 000 000 000:  GT Depth
 GTPQH.psia             00 000 000 000:  GT HR Quartz Pressure
 GTTQ.degC              00 000 000 000:  GT Quartz Temperature
 GTTN.NONE              00 000 000 000:  GT Test Number
 GTET.sec               00 000 000 000:  GT Elapsed Test Time
 GTTVD.m                00 000 000 000:  GT True Vertical Depth
#Other Information
#
#WARRANTY: Halliburton will use its best efforts to furnish customers with 
#accurate information and interpretations that are part of, and incident to, the services 
#provided.  However, Halliburton cannot and does not warrant the accuracy 
#or correctness of such information and interpretations.  Under no circumstances should any 
#such information or interpretation be relied upon as the sole basis for any drilling, 
#completion, production, or financial decision or any procedure involving any risk to the 
#safety of any drilling venture, drilling rig or its crew or any other third party.  The 
#Customer has full responsibility for all drilling, completion and production operation.  
#Halliburton makes no representations or warranties, either expressed or 
#implied, including, but not limited to, the implied warranties of merchantability or fitness 
#for a particular purpose, with respect to the services rendered.  In no event will 
#Halliburton be liable for failure to obtain any particular results or for 
#any damages, including, but not limited to, indirect, special or consequential damages, 
#resulting from the use of any information or interpretation provided by Halliburton.
#
~A           TIME           GTDEPTH  GTPQH  GTTQ  GTTN   GTET   GTTVD  
# ...
   22:57:53.027.27-Aug-2021 4636.60 7240.05 82.32 25.00  45.20 3010.11
   22:57:53.227.27-Aug-2021 4636.60 7255.44 82.32 25.00  45.40 3010.11
   22:57:53.427.27-Aug-2021 4636.60 7258.86 82.32 25.00  45.60 3010.11
   22:57:53.627.27-Aug-2021 4636.60 7258.19 82.32 25.00  45.80 3010.11
   22:57:53.827.27-Aug-2021 4636.60 7256.94 82.32 25.00  46.00 3010.11
   22:57:54.027.27-Aug-2021 4636.60 7256.94 82.32 25.00  46.20 3010.11
   22:57:54.227.27-Aug-2021 4636.60 7254.37 82.32 25.00  46.40 3010.11
   22:57:54.427.27-Aug-2021 4636.60 7248.65 82.32 25.00  46.60 3010.11
   22:57:54.628.27-Aug-2021 4636.60 7246.32 82.32 25.00  46.80 3010.11
   22:57:54.828.27-Aug-2021 4636.60 7243.08 82.32 25.00  47.00 3010.11
   22:57:55.028.27-Aug-2021 4636.60 7243.08 82.32 25.00  47.20 3010.11
   22:57:55.228.27-Aug-2021 4636.60 7236.61 82.32 25.00  47.40 3010.11
   22:57:55.428.27-Aug-2021 4636.60 7232.65 82.32 25.00  47.60 3010.11
   22:57:55.628.27-Aug-2021 4636.60 7228.63 82.32 25.00  47.80 3010.11
   22:57:55.828.27-Aug-2021 4636.60 7224.60 82.32 25.00  48.00 3010.11
   22:57:56.028.27-Aug-2021 4636.60 7224.60 82.32 25.00  48.20 3010.11
   22:57:56.228.27-Aug-2021 4636.60 7216.65 82.32 25.00  48.40 3010.11
   22:57:56.428.27-Aug-2021 4636.60 7212.69 82.32 25.00  48.60 3010.11
   22:57:56.628.27-Aug-2021 4636.60 7208.65 82.32 25.00  48.80 3010.11
   22:57:56.828.27-Aug-2021 4636.60 7204.62 82.32 25.00  49.01 3010.11
   22:57:57.028.27-Aug-2021 4636.60 7204.62 82.32 25.00  49.21 3010.11
   22:57:57.228.27-Aug-2021 4636.60 7196.60 82.32 25.00  49.41 3010.11
   22:57:57.428.27-Aug-2021 4636.60 7182.38 82.32 25.00  49.61 3010.11
   22:57:57.628.27-Aug-2021 4636.60 7061.74 82.32 25.00  49.81 3010.11
   22:57:57.828.27-Aug-2021 4636.60 6797.24 82.32 25.00  50.01 3010.11
   22:57:58.028.27-Aug-2021 4636.60 6797.24 82.32 25.00  50.21 3010.11
   22:57:58.228.27-Aug-2021 4636.60 5377.00 82.32 25.00  50.41 3010.11
   22:57:58.428.27-Aug-2021 4636.60 4890.73 82.32 25.00  50.61 3010.11
   22:57:58.628.27-Aug-2021 4636.60 4390.26 82.32 25.00  50.81 3010.11
   22:57:58.828.27-Aug-2021 4636.60 4190.22 82.32 25.00  51.01 3010.11
   22:57:59.028.27-Aug-2021 4636.60 4190.22 82.32 25.00  51.21 3010.11
   22:57:59.228.27-Aug-2021 4636.60 4129.23 82.32 25.00  51.41 3010.11
   22:57:59.428.27-Aug-2021 4636.60 4125.39 82.32 25.00  51.61 3010.11
   22:57:59.628.27-Aug-2021 4636.60 4122.84 82.31 25.00  51.81 3010.11
   22:57:59.828.27-Aug-2021 4636.60 4118.39 82.31 25.00  52.01 3010.11
   22:58:00.028.27-Aug-2021 4636.60 4118.39 82.31 25.00  52.21 3010.11
   22:58:00.228.27-Aug-2021 4636.60 4114.63 82.31 25.00  52.41 3010.11
   22:58:00.428.27-Aug-2021 4636.60 4113.50 82.31 25.00  52.61 3010.11
   22:58:00.628.27-Aug-2021 4636.60 4112.67 82.30 25.00  52.81 3010.11
   22:58:00.828.27-Aug-2021 4636.60 4107.59 82.30 25.00  53.01 3010.11
   22:58:01.028.27-Aug-2021 4636.60 4107.59 82.30 25.00  53.21 3010.11
   22:58:01.228.27-Aug-2021 4636.60 4104.60 82.30 25.00  53.41 3010.11
   22:58:01.428.27-Aug-2021 4636.60 4102.70 82.29 25.00  53.61 3010.11
   22:58:01.628.27-Aug-2021 4636.60 4100.25 82.29 25.00  53.81 3010.11
   22:58:01.828.27-Aug-2021 4636.60 4099.93 82.29 25.00  54.01 3010.11
   22:58:02.028.27-Aug-2021 4636.60 4099.93 82.29 25.00  54.21 3010.11
   22:58:02.228.27-Aug-2021 4636.60 4097.64 82.28 25.00  54.41 3010.11
   22:58:02.428.27-Aug-2021 4636.60 4095.79 82.28 25.00  54.61 3010.11
   22:58:02.628.27-Aug-2021 4636.60 4093.78 82.28 25.00  54.81 3010.11
   22:58:02.828.27-Aug-2021 4636.60 4091.31 82.28 25.00  55.01 3010.11
   22:58:03.028.27-Aug-2021 4636.60 4091.31 82.28 25.00  55.21 3010.11
   22:58:03.228.27-Aug-2021 4636.60 4084.97 82.27 25.00  55.41 3010.11
   22:58:03.428.27-Aug-2021 4636.60 4083.51 82.27 25.00  55.61 3010.11
   22:58:03.628.27-Aug-2021 4636.60 4084.89 82.27 25.00  55.81 3010.11
   22:58:03.828.27-Aug-2021 4636.60 4079.91 82.27 25.00  56.01 3010.11
   22:58:04.028.27-Aug-2021 4636.60 4079.91 82.27 25.00  56.21 3010.11
   22:58:04.228.27-Aug-2021 4636.60 4073.23 82.26 25.00  56.41 3010.11
   22:58:04.429.27-Aug-2021 4636.60 4070.24 82.26 25.00  56.61 3010.11
   22:58:04.629.27-Aug-2021 4636.60 4068.48 82.26 25.00  56.81 3010.11
   22:58:04.829.27-Aug-2021 4636.60 4064.30 82.26 25.00  57.01 3010.11
   22:58:05.029.27-Aug-2021 4636.60 4064.30 82.26 25.00  57.21 3010.11
   22:58:05.229.27-Aug-2021 4636.60 4055.96 82.25 25.00  57.41 3010.11
   22:58:05.429.27-Aug-2021 4636.60 4053.94 82.25 25.00  57.61 3010.11
   22:58:05.629.27-Aug-2021 4636.60 4048.79 82.25 25.00  57.81 3010.11
   22:58:05.829.27-Aug-2021 4636.60 4047.28 82.25 25.00  58.01 3010.11
   22:58:06.029.27-Aug-2021 4636.60 4047.28 82.25 25.00  58.21 3010.11
   22:58:06.229.27-Aug-2021 4636.60 4040.65 82.25 25.00  58.41 3010.11
   22:58:06.429.27-Aug-2021 4636.60 4036.72 82.25 25.00  58.61 3010.11
   22:58:06.629.27-Aug-2021 4636.60 4032.02 82.24 25.00  58.81 3010.11
   22:58:06.829.27-Aug-2021 4636.60 4027.53 82.24 25.00  59.01 3010.11
   22:58:07.029.27-Aug-2021 4636.60 4027.53 82.24 25.00  59.21 3010.11
   22:58:07.229.27-Aug-2021 4636.60 4042.91 82.24 25.00  59.41 3010.11
   22:58:07.429.27-Aug-2021 4636.60 4317.86 82.24 25.00  59.61 3010.11
   22:58:07.629.27-Aug-2021 4636.60 4444.82 82.24 25.00  59.81 3010.11
   22:58:07.829.27-Aug-2021 4636.60 4480.86 82.24 25.00  60.01 3010.11
   22:58:08.029.27-Aug-2021 4636.60 4480.86 82.24 25.00  60.21 3010.11
   22:58:08.229.27-Aug-2021 4636.60 4493.90 82.24 25.00  60.41 3010.11
   22:58:08.429.27-Aug-2021 4636.60 4496.32 82.24 25.00  60.61 3010.11
   22:58:08.629.27-Aug-2021 4636.60 4497.25 82.24 25.00  60.81 3010.11
   22:58:08.829.27-Aug-2021 4636.60 4497.41 82.24 25.00  61.01 3010.11
   22:58:09.029.27-Aug-2021 4636.60 4497.41 82.24 25.00  61.21 3010.11
   22:58:09.229.27-Aug-2021 4636.60 4497.99 82.23 25.00  61.41 3010.11
   22:58:09.429.27-Aug-2021 4636.60 4498.28 82.23 25.00  61.61 3010.11
   22:58:09.629.27-Aug-2021 4636.60 4498.07 82.23 25.00  61.81 3010.11
   22:58:09.829.27-Aug-2021 4636.60 4499.59 82.23 25.00  62.01 3010.11
   22:58:10.029.27-Aug-2021 4636.60 4499.59 82.23 25.00  62.21 3010.11
   22:58:10.229.27-Aug-2021 4636.60 4499.50 82.23 25.00  62.41 3010.11
   22:58:10.429.27-Aug-2021 4636.60 4499.61 82.23 25.00  62.61 3010.11
   22:58:10.629.27-Aug-2021 4636.60 4499.75 82.23 25.00  62.81 3010.11
   22:58:10.829.27-Aug-2021 4636.60 4499.88 82.23 25.00  63.01 3010.11
   22:58:11.029.27-Aug-2021 4636.60 4499.88 82.23 25.00  63.21 3010.11
   22:58:11.229.27-Aug-2021 4636.60 4500.12 82.23 25.00  63.41 3010.11
   22:58:11.429.27-Aug-2021 4636.60 4500.21 82.23 25.00  63.61 3010.11
   22:58:11.629.27-Aug-2021 4636.60 4500.31 82.23 25.00  63.81 3010.11
   22:58:11.829.27-Aug-2021 4636.60 4500.39 82.23 25.00  64.01 3010.11
   22:58:12.029.27-Aug-2021 4636.60 4500.39 82.23 25.00  64.21 3010.11
   22:58:12.229.27-Aug-2021 4636.60 4500.52 82.23 25.00  64.41 3010.11
   22:58:12.429.27-Aug-2021 4636.60 4500.59 82.23 25.00  64.61 3010.11
   22:58:12.629.27-Aug-2021 4636.60 4500.63 82.23 25.00  64.81 3010.11
   22:58:12.829.27-Aug-2021 4636.60 4500.52 82.23 25.00  65.01 3010.11
   22:58:13.029.27-Aug-2021 4636.60 4500.52 82.23 25.00  65.21 3010.11
   22:58:13.229.27-Aug-2021 4636.60 4500.68 82.23 25.00  65.41 3010.11
   22:58:13.429.27-Aug-2021 4636.60 4500.61 82.23 25.00  65.61 3010.11
   22:58:13.629.27-Aug-2021 4636.60 4500.64 82.23 25.00  65.81 3010.11
   22:58:13.829.27-Aug-2021 4636.60 4500.72 82.23 25.00  66.01 3010.11
   22:58:14.029.27-Aug-2021 4636.60 4500.72 82.23 25.00  66.21 3010.11
   22:58:14.230.27-Aug-2021 4636.60 4500.82 82.24 25.00  66.41 3010.11
   22:58:14.430.27-Aug-2021 4636.60 4500.90 82.24 25.00  66.61 3010.11
   22:58:14.630.27-Aug-2021 4636.60 4500.94 82.24 25.00  66.81 3010.11
   22:58:14.830.27-Aug-2021 4636.60 4500.98 82.24 25.00  67.01 3010.11
   22:58:15.030.27-Aug-2021 4636.60 4500.98 82.24 25.00  67.21 3010.11
   22:58:15.230.27-Aug-2021 4636.60 4501.01 82.24 25.00  67.41 3010.11
   22:58:15.430.27-Aug-2021 4636.60 4501.06 82.24 25.00  67.61 3010.11
