~Version Information
 VERS.                  2.0:   CWLS log ASCII Standard -VERSION 2.0
 WRAP.                   NO:   One line per depth step
~Well Information Block
#MNEM.UNIT     VALUE/NAME     DESCRIPTION
#---------     -----------    ---------------------------
 STRT.S             07:19:48 27-Aug-21: START TIME 07:19:48 27-Aug-21
 STOP.S             07:26:57 27-Aug-21: STOP TIME  07:26:57 27-Aug-21
 STEP.S                   0.00: STEP TIME
 NULL.                 -999.25: NULL VALUE
 DFWT.                        :  DIST FWL TEXT
 DFST.                        :  DIST FSL TEXT
 DMF .             Drill Floor:  DRILL MEAS FROM
 STIM.      20.00.00 17-Aug-21:  START TIME
 DATE.      19.00.00 29-Aug-21:  END TIME
 SPUD.               15-Aug-21:  SPUD DATE
 NREF.                    Grid:  NORTH REFERENCE
 HPTY.       Minimum Curvature:  HOLE POS TYPE
 DMOD.             Drill Model:  DRILL MOD DESC
 SVYD.                  Survey:  SURVEY DESC
 ILTD.               Lithology:  INTERP LTH DESC
 FTOP.          Formation Tops:  FORM TOPS DESC
 RIG .              East Azeri:  RIG NAME
 PDAT.          Mean Sea Level:  PERMANENT DATUM
 FLD .                     ACG:  FIELD NAME
 SON .        AZ-XX-0907180857:  JOB NUMBER
 CTRY.              Azerbaijan:  COUNTRY NAME
 WELL.                    D23x:  WELL NAME
 SRVC.     Turan Drilling and Engineering:  CONTRACTOR
 COMP.     BP Exploration (Caspian Sea) Ltd.:  COMPANY
 UWI .            /AZE00000214:  UNIQUE WELL IDENTIFIER
 API .            /AZE00000214:  API NUMBER
 MDS .        Operator Entered:  MAG DATA SOURCE
 BASE.              Azerbaijan:  LOGGING EQUIPMENT BASE LOCATION
 REGN.                   EESSA:  REGION
 PROV.                    Baku:  PROVINCE
 STAT.                    Baku:  STATE NAME
 MWDS.                    Baku:  MWD SHOP
 DOE .                     N/A:  DOE NUMBER
 DCON.         Sperry Drilling:  DIRECTNL CONTR
 UNIT.                     N/A:  LOGGING EQUIPMENT ID
 WTYP.                Deviated:  WELL TYPE
 CNTY.                        :  COUNTY
 LOC .                        :  LOCATION
 LMF .             Drill Floor:  LOG MEASURED FROM
 TVDS.m                  43.60:  TVDSS CORRECTN
 LATI.deg                40.02:  LATITUDE
 LONG.deg                51.45:  LONGITUDE
 WHNS.m                  -7.04:  WELL HEAD N/S
 WHEW.m                  -0.67:  WELL HEAD E/W
 UTMX.m              538762.90:  UTM X
 UTMY.m             4431871.34:  UTM Y
 DFWL.m                   0.00:  DISTANCE FWL
 DFSL.m                   0.00:  DISTANCE FSL
 SDEP.m                4127.00:  START DEPTH
 TDD .m                5084.50:  TOTAL DEPTH (DRILLER)
 VSDR.deg               140.47:  VERT SEC DIRECT
 GVFD.g                   1.00:  GRAVITY FIELD
 MFLD.nT              50362.00:  MAGNETIC FIELD
 MDIP.deg                59.48:  MAGNETIC DIP
 MDEC.deg                 6.47:  MAGNETIC DECL
 GRDC.deg                 0.31:  GRID CORRECTION
 AZTC.deg                 6.16:  AZM TOTAL CORR
 EPD .m                   0.00:  ELEVATION
 EGL .m                   0.00:  GROUND ELEVATION
 WDMS.m                 151.80:  WD ELEV
 APD .m                  43.60:  DEPTH ABOVE PD
 DEP .m                4092.57:  DEPTH
 AGAP.m                  43.60:  AIR GAP
 VSEW.m                  -0.67:  VERT SEC E/W
 VSNS.m                  -7.04:  VERT SEC N/S
 EKB .m                  43.60:  KB ELEVATION
 EDF .m                  43.60:  DF ELEVATION
 TDL .m                 957.50:  TOTAL DEPTH (LOGGER)
 VSC .                       0:  VS TO CLOSURE
 MAGU.                 1851413:  MAGUTM CHECKSUM
~Parameter Information Block
#MNEM.UNIT       Value        Description
#---------     -----------    ---------------------------
 AV  .mps                 1.50:  Ann Velocity 
 AVMX.mps                 2.00:  Max Ann Veloc 
 AZIF.deg               184.66:  Azm, Final 
 BHAT.        Rotary Steerable:  BHA Type 
 BREV.rev               300.00:  Rev Bit Total 
 BROT.°/30m              -0.50:  Build Rotating 
 BS  .in                  8.50:  Bit Size 
 BSZ .in                  8.50:  Bit Size 
 BTPL.psig              370.00:  Bit Press Loss 
 CABU.                      No:  Customer Abuse 
 CGEO.      Behruz Shahbaliyev:  Customer Geo 
 COMM.                     Ô‘[:  Run Comments 1 
 TCS .hr                140.08:  Time Ciculation Ended 
 CV  .mps                 3.00:  Crit Velocity 
 CVMX.mps                 3.20:  Max Crit Veloc 
 DD1 .            Musa Ahmadov:  Direct Drillr 1 
 DD2 .           Hamid Ahmadov:  Direct Drillr 2 
 DDSV.               Geo-Pilot:  DD Service 
 DEFF.%                  98.40:  % Det Eff 
 DLRX.°/30m               3.40:  Dogleg Rot Max 
 DLSO.°/30m               1.45:  Dogleg Oriented 
 DLSX.°/30m               3.40:  Dogleg Str Max 
 DRET.      18.40.00 29-Aug-21:  Drill End Time 
 DRST.      21.00.00 20-Aug-21:  Drill Start Tim 
 DTIM.hr                 69.47:  Time Drilling 
 EDEP.m                5084.50:  End Depth 
 ENG1.      Artemiy Matviyanov:  Engineer 1 
 ENG2.         Almaz Almadatov:  Engineer 2 
 ETIM.      18.40.00 29-Aug-21:  End Time 
 FLOI.gpm               500.00:  Flow In 
 FLON.gpm               400.00:  Flow In Min 
 FLOS.cptm                0.00:  Fluid Loss 
 FLOX.gpm               500.00:  Flow In Max 
 DFT .        Mineral Oil Base:  Mud Type 
 HFLO.                      No:  High Flow 
 HPRE.                      No:  High Pressure 
 HTEM.                      No:  High Temp 
 HYDO.m                   1.80:  Hydro Offset 
 IFIN.deg                25.62:  Inc, Final 
 IMAX.deg                48.69:  Inc Max 
 IMIN.deg                24.01:  Inc Min 
 IMND.m                4962.57:  Inc Min Depth 
 IMXD.m                4119.01:  Inc Max Depth 
 JARR.                      No:  Jarring 
 LETM.      18.40.00 29-Aug-21:  Log End Time 
 LOST.hr                     0:  Lost Rig Time 
 LSTM.      21.00.00 20-Aug-21:  Log Start Time 
 MDCL.ppm             41500.00:  Mud Chlorides 
 MDES.     Inversion Oil/Synthetic:  Mud Desc 
 DFD .sg                  1.56:  Mud Density 
 MDMN.sg                  1.56:  Dens Mud Min 
 MDMX.sg                  1.56:  Dens Mud Max 
 MOIL.                      70:  Run Mud Oil % 
 MOWR.                   70:30:  Run Mud OWR 
 MSND.                     0.2:  Run Mud Sand % 
 MSOL.                    23.3:  Run Mud Solids% 
 DFV .spqt               78.00:  Mud Viscosity 
 MWOD.in                  6.75:  MWD Tool OD 
 MWSI.                      No:  Serv Intrp, MWD 
 OTIM.hr                218.30:  Time Operating 
 PCON.           Look Like New:  Pad Condition 
 PMAX.psia            11015.30:  Press Op, Max 
 PV  .cP                 38.00:  Mud PV 
 RUN .                     300:  Run Number 
 ROPA.m/hr               15.00:  ROP Avg 
 ROPN.m/hr                9.00:  ROP Min 
 ROPX.m/hr               17.00:  ROP Max 
 RPMA.rpm               120.00:  RPM Surface Avg 
 RPMN.rpm                90.00:  RPM Surface Min 
 RPMX.rpm               140.00:  RPM Surface Max 
 RRUN.                     300:  Rig Run Number 
 RTIM.hr                 31.53:  Time Reaming 
 SAZI.deg               331.64:  Azm, Start 
 SDEP.m                4127.00:  Start Depth 
 SIDD.                      No:  Serv Intrp, DD 
 SINC.deg                48.43:  Inc, Start 
 SPPA.psig             5830.00:  SPP Avg 
 SPPN.psig             5600.00:  SPP Min 
 SPPX.psig             5900.00:  SPP Max 
 STIM.      21.00.00 20-Aug-21:  Start Time 
 SVCS.                 DD, MWD:  Services 
 SVER.                    9.20:  Sperry Version 
 TDAT.m                 957.50:  Tot Depth Attmp 
 TDDF.                      No:  Trip for DD 
 TDLG.m                 957.50:  Tot Depth Loggd 
 TFF .                      No:  Trip for Fail 
 TQAA.f-kp               15.00:  Torque Abs Avg 
 TQAN.f-kp               12.00:  Torque Abs Min 
 TQAX.f-kp               19.00:  Torque Abs Max 
 TRRT.°/30m              -3.40:  Turn Rotating 
 MRT .                  EWR-M5:  Maximum Recorded Temperature 
 TTMX.degC              100.00:  Max Tool Temp 
 VS01.                90639251:  Virtual Str1 SN 
 VS02.                90634715:  Virtual Str2 SN 
 VS03.                90652479:  Virtual Str3 SN 
 VS04.                90642262:  Virtual Str4 SN 
 WBMN.klb                 0.00:  WOB Min 
 WITN.           Murad Guliyev:  Customer Rep 
 WITN.          Yashar Gaziyev:  Customer Rep 2 
 WOBA.klb                 9.00:  WOB Avg 
 WOBX.klb                12.00:  WOB Max 
 YP  .lhf2               30.00:  Yield Point 
~Curve Information Block
#MNEM.UNIT                 API CODE     Curve Description
#---------               -----------    ---------------------------
 TIME.HHMMSS            00 000 000 000:  GT Time & Date
 GTDEPTH.m              00 000 000 000:  GT Depth
 GTPQH.psia             00 000 000 000:  GT HR Quartz Pressure
 GTTQ.degC              00 000 000 000:  GT Quartz Temperature
 GTTN.NONE              00 000 000 000:  GT Test Number
 GTET.sec               00 000 000 000:  GT Elapsed Test Time
 GTTVD.m                00 000 000 000:  GT True Vertical Depth
#Other Information
#
#WARRANTY: Halliburton will use its best efforts to furnish customers with 
#accurate information and interpretations that are part of, and incident to, the services 
#provided.  However, Halliburton cannot and does not warrant the accuracy 
#or correctness of such information and interpretations.  Under no circumstances should any 
#such information or interpretation be relied upon as the sole basis for any drilling, 
#completion, production, or financial decision or any procedure involving any risk to the 
#safety of any drilling venture, drilling rig or its crew or any other third party.  The 
#Customer has full responsibility for all drilling, completion and production operation.  
#Halliburton makes no representations or warranties, either expressed or 
#implied, including, but not limited to, the implied warranties of merchantability or fitness 
#for a particular purpose, with respect to the services rendered.  In no event will 
#Halliburton be liable for failure to obtain any particular results or for 
#any damages, including, but not limited to, indirect, special or consequential damages, 
#resulting from the use of any information or interpretation provided by Halliburton.
#
~A           TIME           GTDEPTH  GTPQH  GTTQ  GTTN  GTET   GTTVD  
# ...
   07:24:01.305.27-Aug-2021 5010.50 4281.16 87.52 3.00 253.04 3349.10
   07:24:01.505.27-Aug-2021 5010.50 4281.16 87.52 3.00 253.24 3349.10
   07:24:01.705.27-Aug-2021 5010.50 4281.15 87.52 3.00 253.44 3349.10
   07:24:01.905.27-Aug-2021 5010.50 4281.14 87.52 3.00 253.64 3349.10
   07:24:02.105.27-Aug-2021 5010.50 4281.14 87.52 3.00 253.84 3349.10
   07:24:02.305.27-Aug-2021 5010.50 4281.13 87.52 3.00 254.04 3349.10
   07:24:02.505.27-Aug-2021 5010.50 4281.13 87.52 3.00 254.24 3349.10
   07:24:02.705.27-Aug-2021 5010.50 4281.18 87.52 3.00 254.44 3349.10
   07:24:02.905.27-Aug-2021 5010.50 4281.16 87.52 3.00 254.64 3349.10
   07:24:03.105.27-Aug-2021 5010.50 4281.16 87.52 3.00 254.84 3349.10
   07:24:03.306.27-Aug-2021 5010.50 4281.16 87.52 3.00 255.04 3349.10
   07:24:03.506.27-Aug-2021 5010.50 4281.16 87.52 3.00 255.24 3349.10
   07:24:03.706.27-Aug-2021 5010.50 4281.14 87.52 3.00 255.44 3349.10
   07:24:03.906.27-Aug-2021 5010.50 4281.14 87.52 3.00 255.64 3349.10
   07:24:04.106.27-Aug-2021 5010.50 4281.13 87.52 3.00 255.84 3349.10
   07:24:04.306.27-Aug-2021 5010.50 4281.12 87.52 3.00 256.04 3349.10
   07:24:04.506.27-Aug-2021 5010.50 4281.12 87.52 3.00 256.24 3349.10
   07:24:04.706.27-Aug-2021 5010.50 4281.11 87.52 3.00 256.44 3349.10
   07:24:04.906.27-Aug-2021 5010.50 4281.11 87.52 3.00 256.64 3349.10
   07:24:05.106.27-Aug-2021 5010.50 4281.10 87.52 3.00 256.84 3349.10
   07:24:05.306.27-Aug-2021 5010.50 4281.09 87.52 3.00 257.04 3349.10
   07:24:05.506.27-Aug-2021 5010.50 4281.09 87.52 3.00 257.24 3349.10
   07:24:05.706.27-Aug-2021 5010.50 4281.09 87.52 3.00 257.44 3349.10
   07:24:05.906.27-Aug-2021 5010.50 4281.12 87.52 3.00 257.64 3349.10
   07:24:06.106.27-Aug-2021 5010.50 4281.13 87.52 3.00 257.84 3349.10
   07:24:06.306.27-Aug-2021 5010.50 4281.13 87.52 3.00 258.04 3349.10
   07:24:06.506.27-Aug-2021 5010.50 4281.13 87.52 3.00 258.24 3349.10
   07:24:06.706.27-Aug-2021 5010.50 4281.12 87.52 3.00 258.44 3349.10
   07:24:06.906.27-Aug-2021 5010.50 4281.10 87.52 3.00 258.64 3349.10
   07:24:07.106.27-Aug-2021 5010.50 4281.12 87.52 3.00 258.84 3349.10
   07:24:07.306.27-Aug-2021 5010.50 4281.12 87.52 3.00 259.04 3349.10
   07:24:07.506.27-Aug-2021 5010.50 4281.12 87.52 3.00 259.24 3349.10
   07:24:07.706.27-Aug-2021 5010.50 4281.13 87.52 3.00 259.44 3349.10
   07:24:07.906.27-Aug-2021 5010.50 4281.13 87.52 3.00 259.64 3349.10
   07:24:08.106.27-Aug-2021 5010.50 4281.12 87.52 3.00 259.84 3349.10
   07:24:08.306.27-Aug-2021 5010.50 4281.15 87.52 3.00 260.04 3349.10
   07:24:08.506.27-Aug-2021 5010.50 4281.15 87.52 3.00 260.24 3349.10
   07:24:08.706.27-Aug-2021 5010.50 4281.14 87.52 3.00 260.44 3349.10
   07:24:08.906.27-Aug-2021 5010.50 4281.14 87.52 3.00 260.64 3349.10
   07:24:09.106.27-Aug-2021 5010.50 4281.14 87.52 3.00 260.84 3349.10
   07:24:09.306.27-Aug-2021 5010.50 4281.12 87.52 3.00 261.04 3349.10
   07:24:09.507.27-Aug-2021 5010.50 4281.12 87.52 3.00 261.24 3349.10
   07:24:09.707.27-Aug-2021 5010.50 4281.15 87.52 3.00 261.44 3349.10
   07:24:09.907.27-Aug-2021 5010.50 4281.14 87.52 3.00 261.64 3349.10
   07:24:10.107.27-Aug-2021 5010.50 4281.15 87.52 3.00 261.84 3349.10
   07:24:10.307.27-Aug-2021 5010.50 4281.14 87.52 3.00 262.04 3349.10
   07:24:10.507.27-Aug-2021 5010.50 4281.14 87.52 3.00 262.24 3349.10
   07:24:10.707.27-Aug-2021 5010.50 4281.13 87.52 3.00 262.44 3349.10
   07:24:10.907.27-Aug-2021 5010.50 4281.12 87.52 3.00 262.64 3349.10
   07:24:11.107.27-Aug-2021 5010.50 4281.11 87.52 3.00 262.84 3349.10
   07:24:11.307.27-Aug-2021 5010.50 4281.12 87.52 3.00 263.04 3349.10
   07:24:11.507.27-Aug-2021 5010.50 4281.12 87.52 3.00 263.24 3349.10
   07:24:11.707.27-Aug-2021 5010.50 4281.10 87.52 3.00 263.44 3349.10
   07:24:11.907.27-Aug-2021 5010.50 4281.09 87.52 3.00 263.64 3349.10
   07:24:12.107.27-Aug-2021 5010.50 4281.10 87.52 3.00 263.84 3349.10
   07:24:12.307.27-Aug-2021 5010.50 4281.09 87.52 3.00 264.04 3349.10
   07:24:12.507.27-Aug-2021 5010.50 4281.09 87.52 3.00 264.24 3349.10
   07:24:12.707.27-Aug-2021 5010.50 4281.14 87.52 3.00 264.44 3349.10
   07:24:12.907.27-Aug-2021 5010.50 4281.13 87.52 3.00 264.64 3349.10
   07:24:13.107.27-Aug-2021 5010.50 4281.12 87.52 3.00 264.84 3349.10
   07:24:13.307.27-Aug-2021 5010.50 4281.11 87.52 3.00 265.04 3349.10
   07:24:13.507.27-Aug-2021 5010.50 4281.11 87.52 3.00 265.24 3349.10
   07:24:13.707.27-Aug-2021 5010.50 4281.11 87.52 3.00 265.44 3349.10
   07:24:13.907.27-Aug-2021 5010.50 4281.11 87.52 3.00 265.64 3349.10
   07:24:14.107.27-Aug-2021 5010.50 4279.52 87.52 3.00 265.84 3349.10
   07:24:14.307.27-Aug-2021 5010.50 4278.75 87.52 3.00 266.04 3349.10
   07:24:14.507.27-Aug-2021 5010.50 4278.75 87.52 3.00 266.24 3349.10
   07:24:14.707.27-Aug-2021 5010.50 4278.48 87.52 3.00 266.44 3349.10
   07:24:14.907.27-Aug-2021 5010.50 4278.44 87.52 3.00 266.64 3349.10
   07:24:15.107.27-Aug-2021 5010.50 4278.42 87.52 3.00 266.84 3349.10
   07:24:15.307.27-Aug-2021 5010.50 4278.38 87.52 3.00 267.04 3349.10
   07:24:15.508.27-Aug-2021 5010.50 4278.38 87.52 3.00 267.24 3349.10
   07:24:15.708.27-Aug-2021 5010.50 4278.23 87.52 3.00 267.44 3349.10
   07:24:15.908.27-Aug-2021 5010.50 4277.92 87.52 3.00 267.64 3349.10
   07:24:16.108.27-Aug-2021 5010.50 4277.89 87.52 3.00 267.84 3349.10
   07:24:16.308.27-Aug-2021 5010.50 4277.89 87.51 3.00 268.04 3349.10
   07:24:16.508.27-Aug-2021 5010.50 4277.89 87.51 3.00 268.24 3349.10
   07:24:16.708.27-Aug-2021 5010.50 4277.88 87.51 3.00 268.44 3349.10
   07:24:16.908.27-Aug-2021 5010.50 4277.86 87.51 3.00 268.64 3349.10
   07:24:17.108.27-Aug-2021 5010.50 4277.85 87.51 3.00 268.84 3349.10
   07:24:17.308.27-Aug-2021 5010.50 4277.72 87.51 3.00 269.04 3349.10
   07:24:17.508.27-Aug-2021 5010.50 4277.72 87.51 3.00 269.24 3349.10
   07:24:17.708.27-Aug-2021 5010.50 4277.72 87.51 3.00 269.44 3349.10
   07:24:17.908.27-Aug-2021 5010.50 4277.71 87.51 3.00 269.64 3349.10
   07:24:18.108.27-Aug-2021 5010.50 4277.66 87.51 3.00 269.84 3349.10
   07:24:18.308.27-Aug-2021 5010.50 4277.65 87.51 3.00 270.04 3349.10
   07:24:18.508.27-Aug-2021 5010.50 4277.65 87.51 3.00 270.24 3349.10
   07:24:18.708.27-Aug-2021 5010.50 4277.61 87.51 3.00 270.44 3349.10
   07:24:18.908.27-Aug-2021 5010.50 4277.60 87.51 3.00 270.64 3349.10
   07:24:19.108.27-Aug-2021 5010.50 4277.59 87.51 3.00 270.84 3349.10
   07:24:19.308.27-Aug-2021 5010.50 4277.56 87.51 3.00 271.04 3349.10
   07:24:19.508.27-Aug-2021 5010.50 4277.56 87.51 3.00 271.24 3349.10
   07:24:19.708.27-Aug-2021 5010.50 4277.55 87.51 3.00 271.44 3349.10
   07:24:19.908.27-Aug-2021 5010.50 4277.54 87.51 3.00 271.64 3349.10
   07:24:20.108.27-Aug-2021 5010.50 4277.55 87.51 3.00 271.84 3349.10
   07:24:20.308.27-Aug-2021 5010.50 4277.55 87.51 3.00 272.04 3349.10
   07:24:20.508.27-Aug-2021 5010.50 4277.55 87.51 3.00 272.24 3349.10
   07:24:20.708.27-Aug-2021 5010.50 4277.52 87.51 3.00 272.44 3349.10
   07:24:20.908.27-Aug-2021 5010.50 4277.52 87.51 3.00 272.64 3349.10
   07:24:21.108.27-Aug-2021 5010.50 4277.51 87.51 3.00 272.84 3349.10
   07:24:21.308.27-Aug-2021 5010.50 4277.50 87.51 3.00 273.04 3349.10
   07:24:21.509.27-Aug-2021 5010.50 4277.50 87.51 3.00 273.24 3349.10
   07:24:21.709.27-Aug-2021 5010.50 4277.50 87.51 3.00 273.44 3349.10
   07:24:21.909.27-Aug-2021 5010.50 4277.48 87.51 3.00 273.64 3349.10
   07:24:22.109.27-Aug-2021 5010.50 4277.47 87.51 3.00 273.84 3349.10
   07:24:22.309.27-Aug-2021 5010.50 4277.52 87.51 3.00 274.05 3349.10
   07:24:22.509.27-Aug-2021 5010.50 4277.52 87.51 3.00 274.25 3349.10
   07:24:22.709.27-Aug-2021 5010.50 4277.73 87.51 3.00 274.45 3349.10
   07:24:22.909.27-Aug-2021 5010.50 4277.70 87.51 3.00 274.65 3349.10
   07:24:23.109.27-Aug-2021 5010.50 4277.77 87.51 3.00 274.85 3349.10
   07:24:23.309.27-Aug-2021 5010.50 4277.74 87.51 3.00 275.05 3349.10
   07:24:23.509.27-Aug-2021 5010.50 4277.74 87.51 3.00 275.25 3349.10
   07:24:23.709.27-Aug-2021 5010.50 4277.77 87.51 3.00 275.45 3349.10
   07:24:23.909.27-Aug-2021 5010.50 4277.78 87.51 3.00 275.65 3349.10
   07:24:24.109.27-Aug-2021 5010.50 4278.59 87.51 3.00 275.85 3349.10
