~Version Information
 VERS.                  2.0:   CWLS log ASCII Standard -VERSION 2.0
 WRAP.                   NO:   One line per depth step
~Well Information Block
#MNEM.UNIT     VALUE/NAME     DESCRIPTION
#---------     -----------    ---------------------------
 STRT.S             21:02:56 27-Aug-21: START TIME 21:02:56 27-Aug-21
 STOP.S             21:10:06 27-Aug-21: STOP TIME  21:10:06 27-Aug-21
 STEP.S                   0.00: STEP TIME
 NULL.                 -999.25: NULL VALUE
 DFWT.                        :  DIST FWL TEXT
 DFST.                        :  DIST FSL TEXT
 DMF .             Drill Floor:  DRILL MEAS FROM
 STIM.      20.00.00 17-Aug-21:  START TIME
 DATE.      19.00.00 29-Aug-21:  END TIME
 SPUD.               15-Aug-21:  SPUD DATE
 NREF.                    Grid:  NORTH REFERENCE
 HPTY.       Minimum Curvature:  HOLE POS TYPE
 DMOD.             Drill Model:  DRILL MOD DESC
 SVYD.                  Survey:  SURVEY DESC
 ILTD.               Lithology:  INTERP LTH DESC
 FTOP.          Formation Tops:  FORM TOPS DESC
 RIG .              East Azeri:  RIG NAME
 PDAT.          Mean Sea Level:  PERMANENT DATUM
 FLD .                     ACG:  FIELD NAME
 SON .        AZ-XX-0907180857:  JOB NUMBER
 CTRY.              Azerbaijan:  COUNTRY NAME
 WELL.                    D23x:  WELL NAME
 SRVC.     Turan Drilling and Engineering:  CONTRACTOR
 COMP.     BP Exploration (Caspian Sea) Ltd.:  COMPANY
 UWI .            /AZE00000214:  UNIQUE WELL IDENTIFIER
 API .            /AZE00000214:  API NUMBER
 MDS .        Operator Entered:  MAG DATA SOURCE
 BASE.              Azerbaijan:  LOGGING EQUIPMENT BASE LOCATION
 REGN.                   EESSA:  REGION
 PROV.                    Baku:  PROVINCE
 STAT.                    Baku:  STATE NAME
 MWDS.                    Baku:  MWD SHOP
 DOE .                     N/A:  DOE NUMBER
 DCON.         Sperry Drilling:  DIRECTNL CONTR
 UNIT.                     N/A:  LOGGING EQUIPMENT ID
 WTYP.                Deviated:  WELL TYPE
 CNTY.                        :  COUNTY
 LOC .                        :  LOCATION
 LMF .             Drill Floor:  LOG MEASURED FROM
 TVDS.m                  43.60:  TVDSS CORRECTN
 LATI.deg                40.02:  LATITUDE
 LONG.deg                51.45:  LONGITUDE
 WHNS.m                  -7.04:  WELL HEAD N/S
 WHEW.m                  -0.67:  WELL HEAD E/W
 UTMX.m              538762.90:  UTM X
 UTMY.m             4431871.34:  UTM Y
 DFWL.m                   0.00:  DISTANCE FWL
 DFSL.m                   0.00:  DISTANCE FSL
 SDEP.m                4127.00:  START DEPTH
 TDD .m                5084.50:  TOTAL DEPTH (DRILLER)
 VSDR.deg               140.47:  VERT SEC DIRECT
 GVFD.g                   1.00:  GRAVITY FIELD
 MFLD.nT              50362.00:  MAGNETIC FIELD
 MDIP.deg                59.48:  MAGNETIC DIP
 MDEC.deg                 6.47:  MAGNETIC DECL
 GRDC.deg                 0.31:  GRID CORRECTION
 AZTC.deg                 6.16:  AZM TOTAL CORR
 EPD .m                   0.00:  ELEVATION
 EGL .m                   0.00:  GROUND ELEVATION
 WDMS.m                 151.80:  WD ELEV
 APD .m                  43.60:  DEPTH ABOVE PD
 DEP .m                4092.57:  DEPTH
 AGAP.m                  43.60:  AIR GAP
 VSEW.m                  -0.67:  VERT SEC E/W
 VSNS.m                  -7.04:  VERT SEC N/S
 EKB .m                  43.60:  KB ELEVATION
 EDF .m                  43.60:  DF ELEVATION
 TDL .m                 957.50:  TOTAL DEPTH (LOGGER)
 VSC .                       0:  VS TO CLOSURE
 MAGU.                 1851413:  MAGUTM CHECKSUM
~Parameter Information Block
#MNEM.UNIT       Value        Description
#---------     -----------    ---------------------------
 AV  .mps                 1.50:  Ann Velocity 
 AVMX.mps                 2.00:  Max Ann Veloc 
 AZIF.deg               184.66:  Azm, Final 
 BHAT.        Rotary Steerable:  BHA Type 
 BREV.rev               300.00:  Rev Bit Total 
 BROT.°/30m              -0.50:  Build Rotating 
 BS  .in                  8.50:  Bit Size 
 BSZ .in                  8.50:  Bit Size 
 BTPL.psig              370.00:  Bit Press Loss 
 CABU.                      No:  Customer Abuse 
 CGEO.      Behruz Shahbaliyev:  Customer Geo 
 COMM.                     <]h:  Run Comments 1 
 TCS .hr                140.08:  Time Ciculation Ended 
 CV  .mps                 3.00:  Crit Velocity 
 CVMX.mps                 3.20:  Max Crit Veloc 
 DD1 .            Musa Ahmadov:  Direct Drillr 1 
 DD2 .           Hamid Ahmadov:  Direct Drillr 2 
 DDSV.               Geo-Pilot:  DD Service 
 DEFF.%                  98.40:  % Det Eff 
 DLRX.°/30m               3.40:  Dogleg Rot Max 
 DLSO.°/30m               1.45:  Dogleg Oriented 
 DLSX.°/30m               3.40:  Dogleg Str Max 
 DRET.      18.40.00 29-Aug-21:  Drill End Time 
 DRST.      21.00.00 20-Aug-21:  Drill Start Tim 
 DTIM.hr                 69.47:  Time Drilling 
 EDEP.m                5084.50:  End Depth 
 ENG1.      Artemiy Matviyanov:  Engineer 1 
 ENG2.         Almaz Almadatov:  Engineer 2 
 ETIM.      18.40.00 29-Aug-21:  End Time 
 FLOI.gpm               500.00:  Flow In 
 FLON.gpm               400.00:  Flow In Min 
 FLOS.cptm                0.00:  Fluid Loss 
 FLOX.gpm               500.00:  Flow In Max 
 DFT .        Mineral Oil Base:  Mud Type 
 HFLO.                      No:  High Flow 
 HPRE.                      No:  High Pressure 
 HTEM.                      No:  High Temp 
 HYDO.m                   1.80:  Hydro Offset 
 IFIN.deg                25.62:  Inc, Final 
 IMAX.deg                48.69:  Inc Max 
 IMIN.deg                24.01:  Inc Min 
 IMND.m                4962.57:  Inc Min Depth 
 IMXD.m                4119.01:  Inc Max Depth 
 JARR.                      No:  Jarring 
 LETM.      18.40.00 29-Aug-21:  Log End Time 
 LOST.hr                     0:  Lost Rig Time 
 LSTM.      21.00.00 20-Aug-21:  Log Start Time 
 MDCL.ppm             41500.00:  Mud Chlorides 
 MDES.     Inversion Oil/Synthetic:  Mud Desc 
 DFD .sg                  1.56:  Mud Density 
 MDMN.sg                  1.56:  Dens Mud Min 
 MDMX.sg                  1.56:  Dens Mud Max 
 MOIL.                      70:  Run Mud Oil % 
 MOWR.                   70:30:  Run Mud OWR 
 MSND.                     0.2:  Run Mud Sand % 
 MSOL.                    23.3:  Run Mud Solids% 
 DFV .spqt               78.00:  Mud Viscosity 
 MWOD.in                  6.75:  MWD Tool OD 
 MWSI.                      No:  Serv Intrp, MWD 
 OTIM.hr                218.30:  Time Operating 
 PCON.           Look Like New:  Pad Condition 
 PMAX.psia            11015.30:  Press Op, Max 
 PV  .cP                 38.00:  Mud PV 
 RUN .                     300:  Run Number 
 ROPA.m/hr               15.00:  ROP Avg 
 ROPN.m/hr                9.00:  ROP Min 
 ROPX.m/hr               17.00:  ROP Max 
 RPMA.rpm               120.00:  RPM Surface Avg 
 RPMN.rpm                90.00:  RPM Surface Min 
 RPMX.rpm               140.00:  RPM Surface Max 
 RRUN.                     300:  Rig Run Number 
 RTIM.hr                 31.53:  Time Reaming 
 SAZI.deg               331.64:  Azm, Start 
 SDEP.m                4127.00:  Start Depth 
 SIDD.                      No:  Serv Intrp, DD 
 SINC.deg                48.43:  Inc, Start 
 SPPA.psig             5830.00:  SPP Avg 
 SPPN.psig             5600.00:  SPP Min 
 SPPX.psig             5900.00:  SPP Max 
 STIM.      21.00.00 20-Aug-21:  Start Time 
 SVCS.                 DD, MWD:  Services 
 SVER.                    9.20:  Sperry Version 
 TDAT.m                 957.50:  Tot Depth Attmp 
 TDDF.                      No:  Trip for DD 
 TDLG.m                 957.50:  Tot Depth Loggd 
 TFF .                      No:  Trip for Fail 
 TQAA.f-kp               15.00:  Torque Abs Avg 
 TQAN.f-kp               12.00:  Torque Abs Min 
 TQAX.f-kp               19.00:  Torque Abs Max 
 TRRT.°/30m              -3.40:  Turn Rotating 
 MRT .                  EWR-M5:  Maximum Recorded Temperature 
 TTMX.degC              100.00:  Max Tool Temp 
 VS01.                90639251:  Virtual Str1 SN 
 VS02.                90634715:  Virtual Str2 SN 
 VS03.                90652479:  Virtual Str3 SN 
 VS04.                90642262:  Virtual Str4 SN 
 WBMN.klb                 0.00:  WOB Min 
 WITN.           Murad Guliyev:  Customer Rep 
 WITN.          Yashar Gaziyev:  Customer Rep 2 
 WOBA.klb                 9.00:  WOB Avg 
 WOBX.klb                12.00:  WOB Max 
 YP  .lhf2               30.00:  Yield Point 
~Curve Information Block
#MNEM.UNIT                 API CODE     Curve Description
#---------               -----------    ---------------------------
 TIME.HHMMSS            00 000 000 000:  GT Time & Date
 GTDEPTH.m              00 000 000 000:  GT Depth
 GTPQH.psia             00 000 000 000:  GT HR Quartz Pressure
 GTTQ.degC              00 000 000 000:  GT Quartz Temperature
 GTTN.NONE              00 000 000 000:  GT Test Number
 GTET.sec               00 000 000 000:  GT Elapsed Test Time
 GTTVD.m                00 000 000 000:  GT True Vertical Depth
#Other Information
#
#WARRANTY: Halliburton will use its best efforts to furnish customers with 
#accurate information and interpretations that are part of, and incident to, the services 
#provided.  However, Halliburton cannot and does not warrant the accuracy 
#or correctness of such information and interpretations.  Under no circumstances should any 
#such information or interpretation be relied upon as the sole basis for any drilling, 
#completion, production, or financial decision or any procedure involving any risk to the 
#safety of any drilling venture, drilling rig or its crew or any other third party.  The 
#Customer has full responsibility for all drilling, completion and production operation.  
#Halliburton makes no representations or warranties, either expressed or 
#implied, including, but not limited to, the implied warranties of merchantability or fitness 
#for a particular purpose, with respect to the services rendered.  In no event will 
#Halliburton be liable for failure to obtain any particular results or for 
#any damages, including, but not limited to, indirect, special or consequential damages, 
#resulting from the use of any information or interpretation provided by Halliburton.
#
~A           TIME           GTDEPTH  GTPQH  GTTQ  GTTN   GTET   GTTVD  
# ...
   21:03:41.327.27-Aug-2021 4647.50 7414.74 82.44 22.00  45.20 3019.99
   21:03:41.527.27-Aug-2021 4647.50 7418.54 82.44 22.00  45.40 3019.99
   21:03:41.727.27-Aug-2021 4647.50 7417.37 82.44 22.00  45.60 3019.99
   21:03:41.927.27-Aug-2021 4647.50 7423.23 82.44 22.00  45.80 3019.99
   21:03:42.127.27-Aug-2021 4647.50 7427.33 82.44 22.00  46.00 3019.99
   21:03:42.327.27-Aug-2021 4647.50 7427.33 82.44 22.00  46.20 3019.99
   21:03:42.527.27-Aug-2021 4647.50 7425.59 82.44 22.00  46.40 3019.99
   21:03:42.727.27-Aug-2021 4647.50 7425.30 82.44 22.00  46.60 3019.99
   21:03:42.927.27-Aug-2021 4647.50 7419.70 82.44 22.00  46.80 3019.99
   21:03:43.127.27-Aug-2021 4647.50 7417.33 82.44 22.00  47.00 3019.99
   21:03:43.327.27-Aug-2021 4647.50 7417.33 82.44 22.00  47.20 3019.99
   21:03:43.527.27-Aug-2021 4647.50 7409.10 82.44 22.00  47.40 3019.99
   21:03:43.727.27-Aug-2021 4647.50 7404.86 82.44 22.00  47.60 3019.99
   21:03:43.927.27-Aug-2021 4647.50 7402.48 82.44 22.00  47.80 3019.99
   21:03:44.127.27-Aug-2021 4647.50 7398.16 82.44 22.00  48.00 3019.99
   21:03:44.327.27-Aug-2021 4647.50 7398.16 82.44 22.00  48.20 3019.99
   21:03:44.527.27-Aug-2021 4647.50 7391.79 82.44 22.00  48.40 3019.99
   21:03:44.727.27-Aug-2021 4647.50 7383.86 82.44 22.00  48.60 3019.99
   21:03:44.927.27-Aug-2021 4647.50 7377.38 82.44 22.00  48.80 3019.99
   21:03:45.127.27-Aug-2021 4647.50 7370.53 82.44 22.00  49.01 3019.99
   21:03:45.327.27-Aug-2021 4647.50 7370.53 82.44 22.00  49.21 3019.99
   21:03:45.527.27-Aug-2021 4647.50 7356.86 82.44 22.00  49.41 3019.99
   21:03:45.727.27-Aug-2021 4647.50 7348.26 82.44 22.00  49.61 3019.99
   21:03:45.927.27-Aug-2021 4647.50 7339.10 82.44 22.00  49.81 3019.99
   21:03:46.127.27-Aug-2021 4647.50 7329.31 82.44 22.00  50.01 3019.99
   21:03:46.327.27-Aug-2021 4647.50 7329.31 82.44 22.00  50.21 3019.99
   21:03:46.527.27-Aug-2021 4647.50 7318.40 82.44 22.00  50.41 3019.99
   21:03:46.727.27-Aug-2021 4647.50 7313.49 82.44 22.00  50.61 3019.99
   21:03:46.927.27-Aug-2021 4647.50 7308.91 82.44 22.00  50.81 3019.99
   21:03:47.128.27-Aug-2021 4647.50 7304.83 82.44 22.00  51.01 3019.99
   21:03:47.328.27-Aug-2021 4647.50 7304.83 82.44 22.00  51.21 3019.99
   21:03:47.528.27-Aug-2021 4647.50 7296.83 82.44 22.00  51.41 3019.99
   21:03:47.728.27-Aug-2021 4647.50 7298.64 82.44 22.00  51.61 3019.99
   21:03:47.928.27-Aug-2021 4647.50 7295.66 82.44 22.00  51.81 3019.99
   21:03:48.128.27-Aug-2021 4647.50 7295.06 82.44 22.00  52.01 3019.99
   21:03:48.328.27-Aug-2021 4647.50 7295.06 82.44 22.00  52.21 3019.99
   21:03:48.528.27-Aug-2021 4647.50 7292.92 82.44 22.00  52.41 3019.99
   21:03:48.728.27-Aug-2021 4647.50 7292.05 82.44 22.00  52.61 3019.99
   21:03:48.928.27-Aug-2021 4647.50 7289.16 82.44 22.00  52.81 3019.99
   21:03:49.128.27-Aug-2021 4647.50 7285.19 82.44 22.00  53.01 3019.99
   21:03:49.328.27-Aug-2021 4647.50 7285.19 82.44 22.00  53.21 3019.99
   21:03:49.528.27-Aug-2021 4647.50 6629.40 82.44 22.00  53.41 3019.99
   21:03:49.728.27-Aug-2021 4647.50 5633.04 82.44 22.00  53.61 3019.99
   21:03:49.928.27-Aug-2021 4647.50 4650.43 82.44 22.00  53.81 3019.99
   21:03:50.128.27-Aug-2021 4647.50 4188.65 82.44 22.00  54.01 3019.99
   21:03:50.328.27-Aug-2021 4647.50 4188.65 82.44 22.00  54.21 3019.99
   21:03:50.528.27-Aug-2021 4647.50 4143.92 82.44 22.00  54.41 3019.99
   21:03:50.728.27-Aug-2021 4647.50 4149.80 82.44 22.00  54.61 3019.99
   21:03:50.928.27-Aug-2021 4647.50 4149.87 82.43 22.00  54.81 3019.99
   21:03:51.128.27-Aug-2021 4647.50 4155.10 82.43 22.00  55.01 3019.99
   21:03:51.328.27-Aug-2021 4647.50 4155.10 82.43 22.00  55.21 3019.99
   21:03:51.528.27-Aug-2021 4647.50 4154.42 82.43 22.00  55.41 3019.99
   21:03:51.728.27-Aug-2021 4647.50 4158.44 82.43 22.00  55.61 3019.99
   21:03:51.928.27-Aug-2021 4647.50 4159.33 82.42 22.00  55.81 3019.99
   21:03:52.128.27-Aug-2021 4647.50 4164.92 82.42 22.00  56.01 3019.99
   21:03:52.328.27-Aug-2021 4647.50 4164.92 82.42 22.00  56.21 3019.99
   21:03:52.528.27-Aug-2021 4647.50 4170.77 82.42 22.00  56.41 3019.99
   21:03:52.728.27-Aug-2021 4647.50 4176.89 82.41 22.00  56.61 3019.99
   21:03:52.928.27-Aug-2021 4647.50 4175.59 82.41 22.00  56.81 3019.99
   21:03:53.128.27-Aug-2021 4647.50 4173.37 82.41 22.00  57.01 3019.99
   21:03:53.328.27-Aug-2021 4647.50 4173.37 82.41 22.00  57.21 3019.99
   21:03:53.528.27-Aug-2021 4647.50 4176.04 82.40 22.00  57.41 3019.99
   21:03:53.728.27-Aug-2021 4647.50 4181.11 82.40 22.00  57.61 3019.99
   21:03:53.928.27-Aug-2021 4647.50 4181.25 82.40 22.00  57.81 3019.99
   21:03:54.128.27-Aug-2021 4647.50 4183.79 82.40 22.00  58.01 3019.99
   21:03:54.328.27-Aug-2021 4647.50 4183.79 82.40 22.00  58.21 3019.99
   21:03:54.528.27-Aug-2021 4647.50 4181.82 82.39 22.00  58.41 3019.99
   21:03:54.728.27-Aug-2021 4647.50 4182.79 82.39 22.00  58.61 3019.99
   21:03:54.928.27-Aug-2021 4647.50 4181.65 82.39 22.00  58.81 3019.99
   21:03:55.128.27-Aug-2021 4647.50 4180.02 82.39 22.00  59.01 3019.99
   21:03:55.328.27-Aug-2021 4647.50 4180.02 82.39 22.00  59.21 3019.99
   21:03:55.528.27-Aug-2021 4647.50 4179.19 82.38 22.00  59.41 3019.99
   21:03:55.728.27-Aug-2021 4647.50 4180.12 82.38 22.00  59.61 3019.99
   21:03:55.928.27-Aug-2021 4647.50 4179.10 82.38 22.00  59.81 3019.99
   21:03:56.128.27-Aug-2021 4647.50 4178.65 82.38 22.00  60.01 3019.99
   21:03:56.328.27-Aug-2021 4647.50 4178.65 82.38 22.00  60.21 3019.99
   21:03:56.528.27-Aug-2021 4647.50 4178.11 82.37 22.00  60.41 3019.99
   21:03:56.728.27-Aug-2021 4647.50 4178.13 82.37 22.00  60.61 3019.99
   21:03:56.929.27-Aug-2021 4647.50 4180.75 82.37 22.00  60.81 3019.99
   21:03:57.129.27-Aug-2021 4647.50 4178.24 82.37 22.00  61.01 3019.99
   21:03:57.329.27-Aug-2021 4647.50 4178.24 82.37 22.00  61.21 3019.99
   21:03:57.529.27-Aug-2021 4647.50 4180.93 82.37 22.00  61.41 3019.99
   21:03:57.729.27-Aug-2021 4647.50 4180.56 82.36 22.00  61.61 3019.99
   21:03:57.929.27-Aug-2021 4647.50 4183.93 82.36 22.00  61.81 3019.99
   21:03:58.129.27-Aug-2021 4647.50 4183.10 82.36 22.00  62.01 3019.99
   21:03:58.329.27-Aug-2021 4647.50 4183.10 82.36 22.00  62.21 3019.99
   21:03:58.529.27-Aug-2021 4647.50 4184.28 82.36 22.00  62.41 3019.99
   21:03:58.729.27-Aug-2021 4647.50 4185.41 82.36 22.00  62.61 3019.99
   21:03:58.929.27-Aug-2021 4647.50 4186.41 82.36 22.00  62.81 3019.99
   21:03:59.129.27-Aug-2021 4647.50 4230.49 82.36 22.00  63.01 3019.99
   21:03:59.329.27-Aug-2021 4647.50 4230.49 82.36 22.00  63.21 3019.99
   21:03:59.529.27-Aug-2021 4647.50 4495.44 82.36 22.00  63.41 3019.99
   21:03:59.729.27-Aug-2021 4647.50 4506.44 82.35 22.00  63.61 3019.99
   21:03:59.929.27-Aug-2021 4647.50 4509.78 82.35 22.00  63.81 3019.99
   21:04:00.129.27-Aug-2021 4647.50 4511.41 82.35 22.00  64.01 3019.99
   21:04:00.329.27-Aug-2021 4647.50 4511.41 82.35 22.00  64.21 3019.99
   21:04:00.529.27-Aug-2021 4647.50 4513.17 82.35 22.00  64.41 3019.99
   21:04:00.729.27-Aug-2021 4647.50 4513.44 82.35 22.00  64.61 3019.99
   21:04:00.929.27-Aug-2021 4647.50 4514.80 82.35 22.00  64.81 3019.99
   21:04:01.129.27-Aug-2021 4647.50 4515.20 82.35 22.00  65.01 3019.99
   21:04:01.329.27-Aug-2021 4647.50 4515.20 82.35 22.00  65.21 3019.99
   21:04:01.529.27-Aug-2021 4647.50 4515.60 82.35 22.00  65.41 3019.99
   21:04:01.729.27-Aug-2021 4647.50 4515.79 82.35 22.00  65.61 3019.99
   21:04:01.929.27-Aug-2021 4647.50 4515.76 82.35 22.00  65.81 3019.99
   21:04:02.129.27-Aug-2021 4647.50 4516.28 82.35 22.00  66.01 3019.99
   21:04:02.329.27-Aug-2021 4647.50 4516.28 82.35 22.00  66.21 3019.99
   21:04:02.529.27-Aug-2021 4647.50 4516.40 82.35 22.00  66.41 3019.99
   21:04:02.729.27-Aug-2021 4647.50 4516.29 82.35 22.00  66.61 3019.99
   21:04:02.929.27-Aug-2021 4647.50 4516.67 82.35 22.00  66.81 3019.99
   21:04:03.129.27-Aug-2021 4647.50 4516.65 82.35 22.00  67.01 3019.99
   21:04:03.329.27-Aug-2021 4647.50 4516.65 82.35 22.00  67.21 3019.99
   21:04:03.529.27-Aug-2021 4647.50 4516.74 82.35 22.00  67.41 3019.99
   21:04:03.729.27-Aug-2021 4647.50 4516.94 82.35 22.00  67.61 3019.99
