~Version Information
 VERS.                  2.0:   CWLS log ASCII Standard -VERSION 2.0
 WRAP.                   NO:   One line per depth step
~Well Information Block
#MNEM.UNIT     VALUE/NAME     DESCRIPTION
#---------     -----------    ---------------------------
 STRT.S             12:21:31 27-Aug-21: START TIME 12:21:31 27-Aug-21
 STOP.S             12:28:48 27-Aug-21: STOP TIME  12:28:48 27-Aug-21
 STEP.S                   0.00: STEP TIME
 NULL.                 -999.25: NULL VALUE
 DFWT.                        :  DIST FWL TEXT
 DFST.                        :  DIST FSL TEXT
 DMF .             Drill Floor:  DRILL MEAS FROM
 STIM.      20.00.00 17-Aug-21:  START TIME
 DATE.      19.00.00 29-Aug-21:  END TIME
 SPUD.               15-Aug-21:  SPUD DATE
 NREF.                    Grid:  NORTH REFERENCE
 HPTY.       Minimum Curvature:  HOLE POS TYPE
 DMOD.             Drill Model:  DRILL MOD DESC
 SVYD.                  Survey:  SURVEY DESC
 ILTD.               Lithology:  INTERP LTH DESC
 FTOP.          Formation Tops:  FORM TOPS DESC
 RIG .              East Azeri:  RIG NAME
 PDAT.          Mean Sea Level:  PERMANENT DATUM
 FLD .                     ACG:  FIELD NAME
 SON .        AZ-XX-0907180857:  JOB NUMBER
 CTRY.              Azerbaijan:  COUNTRY NAME
 WELL.                    D23x:  WELL NAME
 SRVC.     Turan Drilling and Engineering:  CONTRACTOR
 COMP.     BP Exploration (Caspian Sea) Ltd.:  COMPANY
 UWI .            /AZE00000214:  UNIQUE WELL IDENTIFIER
 API .            /AZE00000214:  API NUMBER
 MDS .        Operator Entered:  MAG DATA SOURCE
 BASE.              Azerbaijan:  LOGGING EQUIPMENT BASE LOCATION
 REGN.                   EESSA:  REGION
 PROV.                    Baku:  PROVINCE
 STAT.                    Baku:  STATE NAME
 MWDS.                    Baku:  MWD SHOP
 DOE .                     N/A:  DOE NUMBER
 DCON.         Sperry Drilling:  DIRECTNL CONTR
 UNIT.                     N/A:  LOGGING EQUIPMENT ID
 WTYP.                Deviated:  WELL TYPE
 CNTY.                        :  COUNTY
 LOC .                        :  LOCATION
 LMF .             Drill Floor:  LOG MEASURED FROM
 TVDS.m                  43.60:  TVDSS CORRECTN
 LATI.deg                40.02:  LATITUDE
 LONG.deg                51.45:  LONGITUDE
 WHNS.m                  -7.04:  WELL HEAD N/S
 WHEW.m                  -0.67:  WELL HEAD E/W
 UTMX.m              538762.90:  UTM X
 UTMY.m             4431871.34:  UTM Y
 DFWL.m                   0.00:  DISTANCE FWL
 DFSL.m                   0.00:  DISTANCE FSL
 SDEP.m                4127.00:  START DEPTH
 TDD .m                5084.50:  TOTAL DEPTH (DRILLER)
 VSDR.deg               140.47:  VERT SEC DIRECT
 GVFD.g                   1.00:  GRAVITY FIELD
 MFLD.nT              50362.00:  MAGNETIC FIELD
 MDIP.deg                59.48:  MAGNETIC DIP
 MDEC.deg                 6.47:  MAGNETIC DECL
 GRDC.deg                 0.31:  GRID CORRECTION
 AZTC.deg                 6.16:  AZM TOTAL CORR
 EPD .m                   0.00:  ELEVATION
 EGL .m                   0.00:  GROUND ELEVATION
 WDMS.m                 151.80:  WD ELEV
 APD .m                  43.60:  DEPTH ABOVE PD
 DEP .m                4092.57:  DEPTH
 AGAP.m                  43.60:  AIR GAP
 VSEW.m                  -0.67:  VERT SEC E/W
 VSNS.m                  -7.04:  VERT SEC N/S
 EKB .m                  43.60:  KB ELEVATION
 EDF .m                  43.60:  DF ELEVATION
 TDL .m                 957.50:  TOTAL DEPTH (LOGGER)
 VSC .                       0:  VS TO CLOSURE
 MAGU.                 1851413:  MAGUTM CHECKSUM
~Parameter Information Block
#MNEM.UNIT       Value        Description
#---------     -----------    ---------------------------
 AV  .mps                 1.50:  Ann Velocity 
 AVMX.mps                 2.00:  Max Ann Veloc 
 AZIF.deg               184.66:  Azm, Final 
 BHAT.        Rotary Steerable:  BHA Type 
 BREV.rev               300.00:  Rev Bit Total 
 BROT.°/30m              -0.50:  Build Rotating 
 BS  .in                  8.50:  Bit Size 
 BSZ .in                  8.50:  Bit Size 
 BTPL.psig              370.00:  Bit Press Loss 
 CABU.                      No:  Customer Abuse 
 CGEO.      Behruz Shahbaliyev:  Customer Geo 
 TCS .hr                140.08:  Time Ciculation Ended 
 CV  .mps                 3.00:  Crit Velocity 
 CVMX.mps                 3.20:  Max Crit Veloc 
 DD1 .            Musa Ahmadov:  Direct Drillr 1 
 DD2 .           Hamid Ahmadov:  Direct Drillr 2 
 DDSV.               Geo-Pilot:  DD Service 
 DEFF.%                  98.40:  % Det Eff 
 DLRX.°/30m               3.40:  Dogleg Rot Max 
 DLSO.°/30m               1.45:  Dogleg Oriented 
 DLSX.°/30m               3.40:  Dogleg Str Max 
 DRET.      18.40.00 29-Aug-21:  Drill End Time 
 DRST.      21.00.00 20-Aug-21:  Drill Start Tim 
 DTIM.hr                 69.47:  Time Drilling 
 EDEP.m                5084.50:  End Depth 
 ENG1.      Artemiy Matviyanov:  Engineer 1 
 ENG2.         Almaz Almadatov:  Engineer 2 
 ETIM.      18.40.00 29-Aug-21:  End Time 
 FLOI.gpm               500.00:  Flow In 
 FLON.gpm               400.00:  Flow In Min 
 FLOS.cptm                0.00:  Fluid Loss 
 FLOX.gpm               500.00:  Flow In Max 
 DFT .        Mineral Oil Base:  Mud Type 
 HFLO.                      No:  High Flow 
 HPRE.                      No:  High Pressure 
 HTEM.                      No:  High Temp 
 HYDO.m                   1.80:  Hydro Offset 
 IFIN.deg                25.62:  Inc, Final 
 IMAX.deg                48.69:  Inc Max 
 IMIN.deg                24.01:  Inc Min 
 IMND.m                4962.57:  Inc Min Depth 
 IMXD.m                4119.01:  Inc Max Depth 
 JARR.                      No:  Jarring 
 LETM.      18.40.00 29-Aug-21:  Log End Time 
 LOST.hr                     0:  Lost Rig Time 
 LSTM.      21.00.00 20-Aug-21:  Log Start Time 
 MDCL.ppm             41500.00:  Mud Chlorides 
 MDES.     Inversion Oil/Synthetic:  Mud Desc 
 DFD .sg                  1.56:  Mud Density 
 MDMN.sg                  1.56:  Dens Mud Min 
 MDMX.sg                  1.56:  Dens Mud Max 
 MOIL.                      70:  Run Mud Oil % 
 MOWR.                   70:30:  Run Mud OWR 
 MSND.                     0.2:  Run Mud Sand % 
 MSOL.                    23.3:  Run Mud Solids% 
 DFV .spqt               78.00:  Mud Viscosity 
 MWOD.in                  6.75:  MWD Tool OD 
 MWSI.                      No:  Serv Intrp, MWD 
 OTIM.hr                218.30:  Time Operating 
 PCON.           Look Like New:  Pad Condition 
 PMAX.psia            11015.30:  Press Op, Max 
 PV  .cP                 38.00:  Mud PV 
 RUN .                     300:  Run Number 
 ROPA.m/hr               15.00:  ROP Avg 
 ROPN.m/hr                9.00:  ROP Min 
 ROPX.m/hr               17.00:  ROP Max 
 RPMA.rpm               120.00:  RPM Surface Avg 
 RPMN.rpm                90.00:  RPM Surface Min 
 RPMX.rpm               140.00:  RPM Surface Max 
 RRUN.                     300:  Rig Run Number 
 RTIM.hr                 31.53:  Time Reaming 
 SAZI.deg               331.64:  Azm, Start 
 SDEP.m                4127.00:  Start Depth 
 SIDD.                      No:  Serv Intrp, DD 
 SINC.deg                48.43:  Inc, Start 
 SPPA.psig             5830.00:  SPP Avg 
 SPPN.psig             5600.00:  SPP Min 
 SPPX.psig             5900.00:  SPP Max 
 STIM.      21.00.00 20-Aug-21:  Start Time 
 SVCS.                 DD, MWD:  Services 
 SVER.                    9.20:  Sperry Version 
 TDAT.m                 957.50:  Tot Depth Attmp 
 TDDF.                      No:  Trip for DD 
 TDLG.m                 957.50:  Tot Depth Loggd 
 TFF .                      No:  Trip for Fail 
 TQAA.f-kp               15.00:  Torque Abs Avg 
 TQAN.f-kp               12.00:  Torque Abs Min 
 TQAX.f-kp               19.00:  Torque Abs Max 
 TRRT.°/30m              -3.40:  Turn Rotating 
 MRT .                  EWR-M5:  Maximum Recorded Temperature 
 TTMX.degC              100.00:  Max Tool Temp 
 VS01.                90639251:  Virtual Str1 SN 
 VS02.                90634715:  Virtual Str2 SN 
 VS03.                90652479:  Virtual Str3 SN 
 VS04.                90642262:  Virtual Str4 SN 
 WBMN.klb                 0.00:  WOB Min 
 WITN.           Murad Guliyev:  Customer Rep 
 WITN.          Yashar Gaziyev:  Customer Rep 2 
 WOBA.klb                 9.00:  WOB Avg 
 WOBX.klb                12.00:  WOB Max 
 YP  .lhf2               30.00:  Yield Point 
~Curve Information Block
#MNEM.UNIT                 API CODE     Curve Description
#---------               -----------    ---------------------------
 TIME.HHMMSS            00 000 000 000:  GT Time & Date
 GTDEPTH.m              00 000 000 000:  GT Depth
 GTPQH.psia             00 000 000 000:  GT HR Quartz Pressure
 GTTQ.degC              00 000 000 000:  GT Quartz Temperature
 GTTN.NONE              00 000 000 000:  GT Test Number
 GTET.sec               00 000 000 000:  GT Elapsed Test Time
 GTTVD.m                00 000 000 000:  GT True Vertical Depth
#Other Information
#
#WARRANTY: Halliburton will use its best efforts to furnish customers with 
#accurate information and interpretations that are part of, and incident to, the services 
#provided.  However, Halliburton cannot and does not warrant the accuracy 
#or correctness of such information and interpretations.  Under no circumstances should any 
#such information or interpretation be relied upon as the sole basis for any drilling, 
#completion, production, or financial decision or any procedure involving any risk to the 
#safety of any drilling venture, drilling rig or its crew or any other third party.  The 
#Customer has full responsibility for all drilling, completion and production operation.  
#Halliburton makes no representations or warranties, either expressed or 
#implied, including, but not limited to, the implied warranties of merchantability or fitness 
#for a particular purpose, with respect to the services rendered.  In no event will 
#Halliburton be liable for failure to obtain any particular results or for 
#any damages, including, but not limited to, indirect, special or consequential damages, 
#resulting from the use of any information or interpretation provided by Halliburton.
#
~A           TIME           GTDEPTH  GTPQH  GTTQ  GTTN   GTET   GTTVD  
# ...
   12:23:46.990.27-Aug-2021 4914.80 7808.05 85.35 12.00 135.65 3262.04
   12:23:47.190.27-Aug-2021 4914.80 7806.88 85.35 12.00 135.85 3262.04
   12:23:47.390.27-Aug-2021 4914.80 7807.25 85.35 12.00 136.05 3262.04
   12:23:47.590.27-Aug-2021 4914.80 7807.25 85.35 12.00 136.25 3262.04
   12:23:47.790.27-Aug-2021 4914.80 7805.80 85.35 12.00 136.45 3262.04
   12:23:47.990.27-Aug-2021 4914.80 7807.69 85.35 12.00 136.65 3262.04
   12:23:48.191.27-Aug-2021 4914.80 7806.49 85.35 12.00 136.85 3262.04
   12:23:48.391.27-Aug-2021 4914.80 7807.17 85.35 12.00 137.05 3262.04
   12:23:48.591.27-Aug-2021 4914.80 7807.17 85.35 12.00 137.25 3262.04
   12:23:48.791.27-Aug-2021 4914.80 7805.52 85.35 12.00 137.45 3262.04
   12:23:48.991.27-Aug-2021 4914.80 7806.01 85.35 12.00 137.65 3262.04
   12:23:49.191.27-Aug-2021 4914.80 7806.07 85.35 12.00 137.85 3262.04
   12:23:49.391.27-Aug-2021 4914.80 7806.29 85.35 12.00 138.05 3262.04
   12:23:49.591.27-Aug-2021 4914.80 7806.29 85.35 12.00 138.25 3262.04
   12:23:49.791.27-Aug-2021 4914.80 7806.48 85.35 12.00 138.45 3262.04
   12:23:49.991.27-Aug-2021 4914.80 7807.31 85.35 12.00 138.65 3262.04
   12:23:50.191.27-Aug-2021 4914.80 7806.26 85.35 12.00 138.85 3262.04
   12:23:50.391.27-Aug-2021 4914.80 7806.29 85.35 12.00 139.05 3262.04
   12:23:50.591.27-Aug-2021 4914.80 7806.29 85.35 12.00 139.25 3262.04
   12:23:50.791.27-Aug-2021 4914.80 7805.96 85.35 12.00 139.45 3262.04
   12:23:50.992.27-Aug-2021 4914.80 7810.09 85.35 12.00 139.65 3262.04
   12:23:51.192.27-Aug-2021 4914.80 7803.59 85.35 12.00 139.85 3262.04
   12:23:51.392.27-Aug-2021 4914.80 7807.49 85.35 12.00 140.05 3262.04
   12:23:51.592.27-Aug-2021 4914.80 7807.49 85.35 12.00 140.25 3262.04
   12:23:51.792.27-Aug-2021 4914.80 7806.43 85.35 12.00 140.45 3262.04
   12:23:51.992.27-Aug-2021 4914.80 7806.25 85.35 12.00 140.65 3262.04
   12:23:52.192.27-Aug-2021 4914.80 7805.85 85.35 12.00 140.85 3262.04
   12:23:52.392.27-Aug-2021 4914.80 7805.88 85.35 12.00 141.05 3262.04
   12:23:52.592.27-Aug-2021 4914.80 7805.88 85.35 12.00 141.25 3262.04
   12:23:52.792.27-Aug-2021 4914.80 7806.20 85.35 12.00 141.45 3262.04
   12:23:52.992.27-Aug-2021 4914.80 7806.48 85.35 12.00 141.65 3262.04
   12:23:53.192.27-Aug-2021 4914.80 7806.78 85.35 12.00 141.85 3262.04
   12:23:53.392.27-Aug-2021 4914.80 7806.57 85.35 12.00 142.05 3262.04
   12:23:53.592.27-Aug-2021 4914.80 7806.57 85.35 12.00 142.25 3262.04
   12:23:53.793.27-Aug-2021 4914.80 7806.43 85.35 12.00 142.45 3262.04
   12:23:53.993.27-Aug-2021 4914.80 7806.33 85.34 12.00 142.65 3262.04
   12:23:54.193.27-Aug-2021 4914.80 7811.85 85.34 12.00 142.85 3262.04
   12:23:54.393.27-Aug-2021 4914.80 7803.47 85.35 12.00 143.05 3262.04
   12:23:54.593.27-Aug-2021 4914.80 7803.47 85.35 12.00 143.25 3262.04
   12:23:54.793.27-Aug-2021 4914.80 7805.79 85.34 12.00 143.45 3262.04
   12:23:54.993.27-Aug-2021 4914.80 7805.63 85.34 12.00 143.65 3262.04
   12:23:55.193.27-Aug-2021 4914.80 7805.65 85.34 12.00 143.85 3262.04
   12:23:55.393.27-Aug-2021 4914.80 7805.53 85.34 12.00 144.05 3262.04
   12:23:55.593.27-Aug-2021 4914.80 7805.53 85.34 12.00 144.25 3262.04
   12:23:55.793.27-Aug-2021 4914.80 7805.63 85.34 12.00 144.45 3262.04
   12:23:55.993.27-Aug-2021 4914.80 7806.04 85.34 12.00 144.65 3262.04
   12:23:56.193.27-Aug-2021 4914.80 7806.52 85.34 12.00 144.85 3262.04
   12:23:56.393.27-Aug-2021 4914.80 7806.81 85.34 12.00 145.05 3262.04
   12:23:56.594.27-Aug-2021 4914.80 7806.81 85.34 12.00 145.25 3262.04
   12:23:56.794.27-Aug-2021 4914.80 7806.87 85.34 12.00 145.45 3262.04
   12:23:56.994.27-Aug-2021 4914.80 7806.56 85.34 12.00 145.65 3262.04
   12:23:57.194.27-Aug-2021 4914.80 7806.36 85.34 12.00 145.85 3262.04
   12:23:57.394.27-Aug-2021 4914.80 7806.08 85.34 12.00 146.05 3262.04
   12:23:57.594.27-Aug-2021 4914.80 7806.08 85.34 12.00 146.25 3262.04
   12:23:57.794.27-Aug-2021 4914.80 7803.38 85.34 12.00 146.45 3262.04
   12:23:57.994.27-Aug-2021 4914.80 7807.17 85.34 12.00 146.65 3262.04
   12:23:58.194.27-Aug-2021 4914.80 7805.81 85.34 12.00 146.85 3262.04
   12:23:58.394.27-Aug-2021 4914.80 7805.43 85.34 12.00 147.05 3262.04
   12:23:58.594.27-Aug-2021 4914.80 7805.43 85.34 12.00 147.25 3262.04
   12:23:58.794.27-Aug-2021 4914.80 7805.43 85.34 12.00 147.45 3262.04
   12:23:58.994.27-Aug-2021 4914.80 7806.83 85.34 12.00 147.65 3262.04
   12:23:59.194.27-Aug-2021 4914.80 7805.39 85.34 12.00 147.85 3262.04
   12:23:59.394.27-Aug-2021 4914.80 7805.27 85.34 12.00 148.05 3262.04
   12:23:59.595.27-Aug-2021 4914.80 7805.27 85.34 12.00 148.25 3262.04
   12:23:59.795.27-Aug-2021 4914.80 7805.84 85.34 12.00 148.45 3262.04
   12:23:59.995.27-Aug-2021 4914.80 7806.17 85.34 12.00 148.65 3262.04
   12:24:00.195.27-Aug-2021 4914.80 7808.58 85.34 12.00 148.85 3262.04
   12:24:00.395.27-Aug-2021 4914.80 7806.49 85.34 12.00 149.05 3262.04
   12:24:00.595.27-Aug-2021 4914.80 7806.49 85.34 12.00 149.25 3262.04
   12:24:00.795.27-Aug-2021 4914.80 7806.34 85.34 12.00 149.45 3262.04
   12:24:00.995.27-Aug-2021 4914.80 7806.37 85.34 12.00 149.65 3262.04
   12:24:01.195.27-Aug-2021 4914.80 7806.15 85.34 12.00 149.85 3262.04
   12:24:01.395.27-Aug-2021 4914.80 7811.22 85.34 12.00 150.05 3262.04
   12:24:01.595.27-Aug-2021 4914.80 7811.22 85.34 12.00 150.25 3262.04
   12:24:01.795.27-Aug-2021 4914.80 7807.02 85.34 12.00 150.45 3262.04
   12:24:01.995.27-Aug-2021 4914.80 7806.09 85.34 12.00 150.65 3262.04
   12:24:02.195.27-Aug-2021 4914.80 7805.88 85.34 12.00 150.85 3262.04
   12:24:02.396.27-Aug-2021 4914.80 7806.38 85.34 12.00 151.05 3262.04
   12:24:02.596.27-Aug-2021 4914.80 7806.38 85.34 12.00 151.25 3262.04
   12:24:02.796.27-Aug-2021 4914.80 7805.96 85.34 12.00 151.45 3262.04
   12:24:02.996.27-Aug-2021 4914.80 7805.85 85.34 12.00 151.65 3262.04
   12:24:03.196.27-Aug-2021 4914.80 7806.08 85.34 12.00 151.85 3262.04
   12:24:03.396.27-Aug-2021 4914.80 7806.47 85.34 12.00 152.05 3262.04
   12:24:03.596.27-Aug-2021 4914.80 7806.47 85.34 12.00 152.25 3262.04
   12:24:03.796.27-Aug-2021 4914.80 7806.76 85.34 12.00 152.45 3262.04
   12:24:03.996.27-Aug-2021 4914.80 7806.61 85.34 12.00 152.65 3262.04
   12:24:04.196.27-Aug-2021 4914.80 7806.48 85.34 12.00 152.85 3262.04
   12:24:04.396.27-Aug-2021 4914.80 7806.35 85.34 12.00 153.05 3262.04
   12:24:04.596.27-Aug-2021 4914.80 7806.35 85.34 12.00 153.25 3262.04
   12:24:04.796.27-Aug-2021 4914.80 7803.89 85.34 12.00 153.45 3262.04
   12:24:04.996.27-Aug-2021 4914.80 7807.91 85.34 12.00 153.65 3262.04
   12:24:05.197.27-Aug-2021 4914.80 7806.17 85.34 12.00 153.85 3262.04
   12:24:05.397.27-Aug-2021 4914.80 7805.75 85.34 12.00 154.05 3262.04
   12:24:05.597.27-Aug-2021 4914.80 7805.75 85.34 12.00 154.25 3262.04
   12:24:05.797.27-Aug-2021 4914.80 7805.58 85.34 12.00 154.45 3262.04
   12:24:05.997.27-Aug-2021 4914.80 7806.00 85.34 12.00 154.65 3262.04
   12:24:06.197.27-Aug-2021 4914.80 7805.75 85.34 12.00 154.85 3262.04
   12:24:06.397.27-Aug-2021 4914.80 7806.22 85.34 12.00 155.06 3262.04
   12:24:06.597.27-Aug-2021 4914.80 7806.22 85.34 12.00 155.26 3262.04
   12:24:06.797.27-Aug-2021 4914.80 7807.03 85.34 12.00 155.46 3262.04
   12:24:06.997.27-Aug-2021 4914.80 7807.14 85.34 12.00 155.66 3262.04
   12:24:07.197.27-Aug-2021 4914.80 7807.09 85.34 12.00 155.86 3262.04
   12:24:07.397.27-Aug-2021 4914.80 7806.89 85.34 12.00 156.06 3262.04
   12:24:07.597.27-Aug-2021 4914.80 7806.89 85.34 12.00 156.26 3262.04
   12:24:07.797.27-Aug-2021 4914.80 7806.39 85.34 12.00 156.46 3262.04
   12:24:07.998.27-Aug-2021 4914.80 7811.42 85.34 12.00 156.66 3262.04
   12:24:08.198.27-Aug-2021 4914.80 7803.69 85.34 12.00 156.86 3262.04
   12:24:08.398.27-Aug-2021 4914.80 7807.25 85.34 12.00 157.06 3262.04
   12:24:08.598.27-Aug-2021 4914.80 7807.25 85.34 12.00 157.26 3262.04
   12:24:08.798.27-Aug-2021 4914.80 7805.64 85.34 12.00 157.46 3262.04
   12:24:08.998.27-Aug-2021 4914.80 7811.21 85.34 12.00 157.66 3262.04
   12:24:09.198.27-Aug-2021 4914.80 7803.04 85.34 12.00 157.86 3262.04
   12:24:09.398.27-Aug-2021 4914.80 7807.29 85.34 12.00 158.06 3262.04
