~Version Information
 VERS.                  2.0:   CWLS log ASCII Standard -VERSION 2.0
 WRAP.                   NO:   One line per depth step
~Well Information Block
#MNEM.UNIT     VALUE/NAME     DESCRIPTION
#---------     -----------    ---------------------------
 STRT.S             10:06:49 27-Aug-21: START TIME 10:06:49 27-Aug-21
 STOP.S             10:13:57 27-Aug-21: STOP TIME  10:13:57 27-Aug-21
 STEP.S                   0.00: STEP TIME
 NULL.                 -999.25: NULL VALUE
 DFWT.                        :  DIST FWL TEXT
 DFST.                        :  DIST FSL TEXT
 DMF .             Drill Floor:  DRILL MEAS FROM
 STIM.      20.00.00 17-Aug-21:  START TIME
 DATE.      19.00.00 29-Aug-21:  END TIME
 SPUD.               15-Aug-21:  SPUD DATE
 NREF.                    Grid:  NORTH REFERENCE
 HPTY.       Minimum Curvature:  HOLE POS TYPE
 DMOD.             Drill Model:  DRILL MOD DESC
 SVYD.                  Survey:  SURVEY DESC
 ILTD.               Lithology:  INTERP LTH DESC
 FTOP.          Formation Tops:  FORM TOPS DESC
 RIG .              East Azeri:  RIG NAME
 PDAT.          Mean Sea Level:  PERMANENT DATUM
 FLD .                     ACG:  FIELD NAME
 SON .        AZ-XX-0907180857:  JOB NUMBER
 CTRY.              Azerbaijan:  COUNTRY NAME
 WELL.                    D23x:  WELL NAME
 SRVC.     Turan Drilling and Engineering:  CONTRACTOR
 COMP.     BP Exploration (Caspian Sea) Ltd.:  COMPANY
 UWI .            /AZE00000214:  UNIQUE WELL IDENTIFIER
 API .            /AZE00000214:  API NUMBER
 MDS .        Operator Entered:  MAG DATA SOURCE
 BASE.              Azerbaijan:  LOGGING EQUIPMENT BASE LOCATION
 REGN.                   EESSA:  REGION
 PROV.                    Baku:  PROVINCE
 STAT.                    Baku:  STATE NAME
 MWDS.                    Baku:  MWD SHOP
 DOE .                     N/A:  DOE NUMBER
 DCON.         Sperry Drilling:  DIRECTNL CONTR
 UNIT.                     N/A:  LOGGING EQUIPMENT ID
 WTYP.                Deviated:  WELL TYPE
 CNTY.                        :  COUNTY
 LOC .                        :  LOCATION
 LMF .             Drill Floor:  LOG MEASURED FROM
 TVDS.m                  43.60:  TVDSS CORRECTN
 LATI.deg                40.02:  LATITUDE
 LONG.deg                51.45:  LONGITUDE
 WHNS.m                  -7.04:  WELL HEAD N/S
 WHEW.m                  -0.67:  WELL HEAD E/W
 UTMX.m              538762.90:  UTM X
 UTMY.m             4431871.34:  UTM Y
 DFWL.m                   0.00:  DISTANCE FWL
 DFSL.m                   0.00:  DISTANCE FSL
 SDEP.m                4127.00:  START DEPTH
 TDD .m                5084.50:  TOTAL DEPTH (DRILLER)
 VSDR.deg               140.47:  VERT SEC DIRECT
 GVFD.g                   1.00:  GRAVITY FIELD
 MFLD.nT              50362.00:  MAGNETIC FIELD
 MDIP.deg                59.48:  MAGNETIC DIP
 MDEC.deg                 6.47:  MAGNETIC DECL
 GRDC.deg                 0.31:  GRID CORRECTION
 AZTC.deg                 6.16:  AZM TOTAL CORR
 EPD .m                   0.00:  ELEVATION
 EGL .m                   0.00:  GROUND ELEVATION
 WDMS.m                 151.80:  WD ELEV
 APD .m                  43.60:  DEPTH ABOVE PD
 DEP .m                4092.57:  DEPTH
 AGAP.m                  43.60:  AIR GAP
 VSEW.m                  -0.67:  VERT SEC E/W
 VSNS.m                  -7.04:  VERT SEC N/S
 EKB .m                  43.60:  KB ELEVATION
 EDF .m                  43.60:  DF ELEVATION
 TDL .m                 957.50:  TOTAL DEPTH (LOGGER)
 VSC .                       0:  VS TO CLOSURE
 MAGU.                 1851413:  MAGUTM CHECKSUM
~Parameter Information Block
#MNEM.UNIT       Value        Description
#---------     -----------    ---------------------------
 AV  .mps                 1.50:  Ann Velocity 
 AVMX.mps                 2.00:  Max Ann Veloc 
 AZIF.deg               184.66:  Azm, Final 
 BHAT.        Rotary Steerable:  BHA Type 
 BREV.rev               300.00:  Rev Bit Total 
 BROT.°/30m              -0.50:  Build Rotating 
 BS  .in                  8.50:  Bit Size 
 BSZ .in                  8.50:  Bit Size 
 BTPL.psig              370.00:  Bit Press Loss 
 CABU.                      No:  Customer Abuse 
 CGEO.      Behruz Shahbaliyev:  Customer Geo 
 COMM.                     Ììg:  Run Comments 1 
 TCS .hr                140.08:  Time Ciculation Ended 
 CV  .mps                 3.00:  Crit Velocity 
 CVMX.mps                 3.20:  Max Crit Veloc 
 DD1 .            Musa Ahmadov:  Direct Drillr 1 
 DD2 .           Hamid Ahmadov:  Direct Drillr 2 
 DDSV.               Geo-Pilot:  DD Service 
 DEFF.%                  98.40:  % Det Eff 
 DLRX.°/30m               3.40:  Dogleg Rot Max 
 DLSO.°/30m               1.45:  Dogleg Oriented 
 DLSX.°/30m               3.40:  Dogleg Str Max 
 DRET.      18.40.00 29-Aug-21:  Drill End Time 
 DRST.      21.00.00 20-Aug-21:  Drill Start Tim 
 DTIM.hr                 69.47:  Time Drilling 
 EDEP.m                5084.50:  End Depth 
 ENG1.      Artemiy Matviyanov:  Engineer 1 
 ENG2.         Almaz Almadatov:  Engineer 2 
 ETIM.      18.40.00 29-Aug-21:  End Time 
 FLOI.gpm               500.00:  Flow In 
 FLON.gpm               400.00:  Flow In Min 
 FLOS.cptm                0.00:  Fluid Loss 
 FLOX.gpm               500.00:  Flow In Max 
 DFT .        Mineral Oil Base:  Mud Type 
 HFLO.                      No:  High Flow 
 HPRE.                      No:  High Pressure 
 HTEM.                      No:  High Temp 
 HYDO.m                   1.80:  Hydro Offset 
 IFIN.deg                25.62:  Inc, Final 
 IMAX.deg                48.69:  Inc Max 
 IMIN.deg                24.01:  Inc Min 
 IMND.m                4962.57:  Inc Min Depth 
 IMXD.m                4119.01:  Inc Max Depth 
 JARR.                      No:  Jarring 
 LETM.      18.40.00 29-Aug-21:  Log End Time 
 LOST.hr                     0:  Lost Rig Time 
 LSTM.      21.00.00 20-Aug-21:  Log Start Time 
 MDCL.ppm             41500.00:  Mud Chlorides 
 MDES.     Inversion Oil/Synthetic:  Mud Desc 
 DFD .sg                  1.56:  Mud Density 
 MDMN.sg                  1.56:  Dens Mud Min 
 MDMX.sg                  1.56:  Dens Mud Max 
 MOIL.                      70:  Run Mud Oil % 
 MOWR.                   70:30:  Run Mud OWR 
 MSND.                     0.2:  Run Mud Sand % 
 MSOL.                    23.3:  Run Mud Solids% 
 DFV .spqt               78.00:  Mud Viscosity 
 MWOD.in                  6.75:  MWD Tool OD 
 MWSI.                      No:  Serv Intrp, MWD 
 OTIM.hr                218.30:  Time Operating 
 PCON.           Look Like New:  Pad Condition 
 PMAX.psia            11015.30:  Press Op, Max 
 PV  .cP                 38.00:  Mud PV 
 RUN .                     300:  Run Number 
 ROPA.m/hr               15.00:  ROP Avg 
 ROPN.m/hr                9.00:  ROP Min 
 ROPX.m/hr               17.00:  ROP Max 
 RPMA.rpm               120.00:  RPM Surface Avg 
 RPMN.rpm                90.00:  RPM Surface Min 
 RPMX.rpm               140.00:  RPM Surface Max 
 RRUN.                     300:  Rig Run Number 
 RTIM.hr                 31.53:  Time Reaming 
 SAZI.deg               331.64:  Azm, Start 
 SDEP.m                4127.00:  Start Depth 
 SIDD.                      No:  Serv Intrp, DD 
 SINC.deg                48.43:  Inc, Start 
 SPPA.psig             5830.00:  SPP Avg 
 SPPN.psig             5600.00:  SPP Min 
 SPPX.psig             5900.00:  SPP Max 
 STIM.      21.00.00 20-Aug-21:  Start Time 
 SVCS.                 DD, MWD:  Services 
 SVER.                    9.20:  Sperry Version 
 TDAT.m                 957.50:  Tot Depth Attmp 
 TDDF.                      No:  Trip for DD 
 TDLG.m                 957.50:  Tot Depth Loggd 
 TFF .                      No:  Trip for Fail 
 TQAA.f-kp               15.00:  Torque Abs Avg 
 TQAN.f-kp               12.00:  Torque Abs Min 
 TQAX.f-kp               19.00:  Torque Abs Max 
 TRRT.°/30m              -3.40:  Turn Rotating 
 MRT .                  EWR-M5:  Maximum Recorded Temperature 
 TTMX.degC              100.00:  Max Tool Temp 
 VS01.                90639251:  Virtual Str1 SN 
 VS02.                90634715:  Virtual Str2 SN 
 VS03.                90652479:  Virtual Str3 SN 
 VS04.                90642262:  Virtual Str4 SN 
 WBMN.klb                 0.00:  WOB Min 
 WITN.           Murad Guliyev:  Customer Rep 
 WITN.          Yashar Gaziyev:  Customer Rep 2 
 WOBA.klb                 9.00:  WOB Avg 
 WOBX.klb                12.00:  WOB Max 
 YP  .lhf2               30.00:  Yield Point 
~Curve Information Block
#MNEM.UNIT                 API CODE     Curve Description
#---------               -----------    ---------------------------
 TIME.HHMMSS            00 000 000 000:  GT Time & Date
 GTDEPTH.m              00 000 000 000:  GT Depth
 GTPQH.psia             00 000 000 000:  GT HR Quartz Pressure
 GTTQ.degC              00 000 000 000:  GT Quartz Temperature
 GTTN.NONE              00 000 000 000:  GT Test Number
 GTET.sec               00 000 000 000:  GT Elapsed Test Time
 GTTVD.m                00 000 000 000:  GT True Vertical Depth
#Other Information
#
#WARRANTY: Halliburton will use its best efforts to furnish customers with 
#accurate information and interpretations that are part of, and incident to, the services 
#provided.  However, Halliburton cannot and does not warrant the accuracy 
#or correctness of such information and interpretations.  Under no circumstances should any 
#such information or interpretation be relied upon as the sole basis for any drilling, 
#completion, production, or financial decision or any procedure involving any risk to the 
#safety of any drilling venture, drilling rig or its crew or any other third party.  The 
#Customer has full responsibility for all drilling, completion and production operation.  
#Halliburton makes no representations or warranties, either expressed or 
#implied, including, but not limited to, the implied warranties of merchantability or fitness 
#for a particular purpose, with respect to the services rendered.  In no event will 
#Halliburton be liable for failure to obtain any particular results or for 
#any damages, including, but not limited to, indirect, special or consequential damages, 
#resulting from the use of any information or interpretation provided by Halliburton.
#
~A           TIME           GTDEPTH  GTPQH  GTTQ  GTTN  GTET   GTTVD  
# ...
   10:08:43.997.27-Aug-2021 4958.50 7889.75 86.08 8.00 114.86 3301.91
   10:08:44.196.27-Aug-2021 4958.50 7889.75 86.08 8.00 115.06 3301.91
   10:08:44.396.27-Aug-2021 4958.50 7890.12 86.08 8.00 115.26 3301.91
   10:08:44.596.27-Aug-2021 4958.50 7893.41 86.08 8.00 115.46 3301.91
   10:08:44.796.27-Aug-2021 4958.50 7890.90 86.08 8.00 115.66 3301.91
   10:08:44.995.27-Aug-2021 4958.50 7889.91 86.08 8.00 115.86 3301.91
   10:08:45.195.27-Aug-2021 4958.50 7889.91 86.08 8.00 116.06 3301.91
   10:08:45.395.27-Aug-2021 4958.50 7888.64 86.08 8.00 116.26 3301.91
   10:08:45.595.27-Aug-2021 4958.50 7891.31 86.08 8.00 116.46 3301.91
   10:08:45.794.27-Aug-2021 4958.50 7889.83 86.08 8.00 116.66 3301.91
   10:08:45.994.27-Aug-2021 4958.50 7888.76 86.08 8.00 116.86 3301.91
   10:08:46.194.27-Aug-2021 4958.50 7888.76 86.08 8.00 117.06 3301.91
   10:08:46.394.27-Aug-2021 4958.50 7888.73 86.08 8.00 117.26 3301.91
   10:08:46.593.27-Aug-2021 4958.50 7889.48 86.08 8.00 117.46 3301.91
   10:08:46.793.27-Aug-2021 4958.50 7889.53 86.08 8.00 117.66 3301.91
   10:08:46.993.27-Aug-2021 4958.50 7889.93 86.08 8.00 117.86 3301.91
   10:08:47.193.27-Aug-2021 4958.50 7889.93 86.08 8.00 118.06 3301.91
   10:08:47.392.27-Aug-2021 4958.50 7890.67 86.08 8.00 118.26 3301.91
   10:08:47.592.27-Aug-2021 4958.50 7890.82 86.08 8.00 118.46 3301.91
   10:08:47.792.27-Aug-2021 4958.50 7890.62 86.08 8.00 118.66 3301.91
   10:08:47.992.27-Aug-2021 4958.50 7890.42 86.08 8.00 118.86 3301.91
   10:08:48.192.27-Aug-2021 4958.50 7890.42 86.08 8.00 119.06 3301.91
   10:08:48.391.27-Aug-2021 4958.50 7890.92 86.08 8.00 119.26 3301.91
   10:08:48.591.27-Aug-2021 4958.50 7891.63 86.08 8.00 119.46 3301.91
   10:08:48.791.27-Aug-2021 4958.50 7890.66 86.08 8.00 119.66 3301.91
   10:08:48.991.27-Aug-2021 4958.50 7889.77 86.08 8.00 119.86 3301.91
   10:08:49.190.27-Aug-2021 4958.50 7889.77 86.08 8.00 120.06 3301.91
   10:08:49.390.27-Aug-2021 4958.50 7888.99 86.08 8.00 120.26 3301.91
   10:08:49.590.27-Aug-2021 4958.50 7888.90 86.08 8.00 120.46 3301.91
   10:08:49.790.27-Aug-2021 4958.50 7889.07 86.08 8.00 120.66 3301.91
   10:08:49.989.27-Aug-2021 4958.50 7888.90 86.08 8.00 120.86 3301.91
   10:08:50.189.27-Aug-2021 4958.50 7888.90 86.08 8.00 121.06 3301.91
   10:08:50.389.27-Aug-2021 4958.50 7889.68 86.08 8.00 121.26 3301.91
   10:08:50.589.27-Aug-2021 4958.50 7890.23 86.08 8.00 121.45 3301.91
   10:08:50.788.27-Aug-2021 4958.50 7890.72 86.08 8.00 121.65 3301.91
   10:08:50.988.27-Aug-2021 4958.50 7890.71 86.08 8.00 121.85 3301.91
   10:08:51.188.27-Aug-2021 4958.50 7890.71 86.08 8.00 122.05 3301.91
   10:08:51.388.27-Aug-2021 4958.50 7890.18 86.08 8.00 122.25 3301.91
   10:08:51.587.27-Aug-2021 4958.50 7890.09 86.08 8.00 122.45 3301.91
   10:08:51.787.27-Aug-2021 4958.50 7890.95 86.08 8.00 122.65 3301.91
   10:08:51.987.27-Aug-2021 4958.50 7892.29 86.08 8.00 122.85 3301.91
   10:08:52.187.27-Aug-2021 4958.50 7892.29 86.08 8.00 123.05 3301.91
   10:08:52.387.27-Aug-2021 4958.50 7889.82 86.08 8.00 123.25 3301.91
   10:08:52.586.27-Aug-2021 4958.50 7889.26 86.08 8.00 123.45 3301.91
   10:08:52.786.27-Aug-2021 4958.50 7888.93 86.08 8.00 123.65 3301.91
   10:08:52.986.27-Aug-2021 4958.50 7894.81 86.08 8.00 123.85 3301.91
   10:08:53.186.27-Aug-2021 4958.50 7894.81 86.08 8.00 124.05 3301.91
   10:08:53.385.27-Aug-2021 4958.50 7889.66 86.08 8.00 124.25 3301.91
   10:08:53.585.27-Aug-2021 4958.50 7889.15 86.08 8.00 124.45 3301.91
   10:08:53.785.27-Aug-2021 4958.50 7889.48 86.08 8.00 124.65 3301.91
   10:08:53.985.27-Aug-2021 4958.50 7890.10 86.08 8.00 124.85 3301.91
   10:08:54.184.27-Aug-2021 4958.50 7890.10 86.08 8.00 125.05 3301.91
   10:08:54.384.27-Aug-2021 4958.50 7893.51 86.08 8.00 125.25 3301.91
   10:08:54.584.27-Aug-2021 4958.50 7890.70 86.08 8.00 125.45 3301.91
   10:08:54.784.27-Aug-2021 4958.50 7890.07 86.08 8.00 125.65 3301.91
   10:08:54.983.27-Aug-2021 4958.50 7894.94 86.08 8.00 125.85 3301.91
   10:08:55.183.27-Aug-2021 4958.50 7894.94 86.08 8.00 126.05 3301.91
   10:08:55.383.27-Aug-2021 4958.50 7891.65 86.08 8.00 126.25 3301.91
   10:08:55.583.27-Aug-2021 4958.50 7890.01 86.08 8.00 126.45 3301.91
   10:08:55.782.27-Aug-2021 4958.50 7889.16 86.08 8.00 126.65 3301.91
   10:08:55.982.27-Aug-2021 4958.50 7888.92 86.08 8.00 126.85 3301.91
   10:08:56.182.27-Aug-2021 4958.50 7888.92 86.08 8.00 127.05 3301.91
   10:08:56.382.27-Aug-2021 4958.50 7889.81 86.08 8.00 127.25 3301.91
   10:08:56.581.27-Aug-2021 4958.50 7889.81 86.08 8.00 127.45 3301.91
   10:08:56.781.27-Aug-2021 4958.50 7890.25 86.08 8.00 127.65 3301.91
   10:08:56.981.27-Aug-2021 4958.50 7890.72 86.08 8.00 127.85 3301.91
   10:08:57.181.27-Aug-2021 4958.50 7890.72 86.08 8.00 128.05 3301.91
   10:08:57.381.27-Aug-2021 4958.50 7891.27 86.08 8.00 128.25 3301.91
   10:08:57.580.27-Aug-2021 4958.50 7891.18 86.08 8.00 128.45 3301.91
   10:08:57.780.27-Aug-2021 4958.50 7890.86 86.08 8.00 128.65 3301.91
   10:08:57.980.27-Aug-2021 4958.50 7890.65 86.08 8.00 128.85 3301.91
   10:08:58.180.27-Aug-2021 4958.50 7890.65 86.08 8.00 129.05 3301.91
   10:08:58.379.27-Aug-2021 4958.50 7892.31 86.08 8.00 129.25 3301.91
   10:08:58.579.27-Aug-2021 4958.50 7891.15 86.08 8.00 129.45 3301.91
   10:08:58.779.27-Aug-2021 4958.50 7890.19 86.08 8.00 129.65 3301.91
   10:08:58.979.27-Aug-2021 4958.50 7889.55 86.08 8.00 129.84 3301.91
   10:08:59.178.27-Aug-2021 4958.50 7889.55 86.08 8.00 130.04 3301.91
   10:08:59.378.27-Aug-2021 4958.50 7889.47 86.08 8.00 130.24 3301.91
   10:08:59.578.27-Aug-2021 4958.50 7889.34 86.08 8.00 130.44 3301.91
   10:08:59.778.27-Aug-2021 4958.50 7889.40 86.08 8.00 130.64 3301.91
   10:08:59.977.27-Aug-2021 4958.50 7889.74 86.08 8.00 130.84 3301.91
   10:09:00.177.27-Aug-2021 4958.50 7889.74 86.08 8.00 131.04 3301.91
   10:09:00.377.27-Aug-2021 4958.50 7890.88 86.08 8.00 131.24 3301.91
   10:09:00.577.27-Aug-2021 4958.50 7891.19 86.08 8.00 131.44 3301.91
   10:09:00.776.27-Aug-2021 4958.50 7891.13 86.08 8.00 131.64 3301.91
   10:09:00.976.27-Aug-2021 4958.50 7891.03 86.08 8.00 131.84 3301.91
   10:09:01.176.27-Aug-2021 4958.50 7891.03 86.08 8.00 132.04 3301.91
   10:09:01.376.27-Aug-2021 4958.50 7890.53 86.08 8.00 132.24 3301.91
   10:09:01.576.27-Aug-2021 4958.50 7891.37 86.08 8.00 132.44 3301.91
   10:09:01.775.27-Aug-2021 4958.50 7892.56 86.08 8.00 132.64 3301.91
   10:09:01.975.27-Aug-2021 4958.50 7891.14 86.08 8.00 132.84 3301.91
   10:09:02.175.27-Aug-2021 4958.50 7891.14 86.08 8.00 133.04 3301.91
   10:09:02.375.27-Aug-2021 4958.50 7889.72 86.08 8.00 133.24 3301.91
   10:09:02.574.27-Aug-2021 4958.50 7889.49 86.08 8.00 133.44 3301.91
   10:09:02.774.27-Aug-2021 4958.50 7895.30 86.08 8.00 133.64 3301.91
   10:09:02.974.27-Aug-2021 4958.50 7888.47 86.08 8.00 133.84 3301.91
   10:09:03.174.27-Aug-2021 4958.50 7888.47 86.08 8.00 134.04 3301.91
   10:09:03.373.27-Aug-2021 4958.50 7889.81 86.08 8.00 134.24 3301.91
   10:09:03.573.27-Aug-2021 4958.50 7889.96 86.08 8.00 134.44 3301.91
   10:09:03.773.27-Aug-2021 4958.50 7890.42 86.08 8.00 134.64 3301.91
   10:09:03.973.27-Aug-2021 4958.50 7890.50 86.08 8.00 134.84 3301.91
   10:09:04.172.27-Aug-2021 4958.50 7890.50 86.08 8.00 135.04 3301.91
   10:09:04.372.27-Aug-2021 4958.50 7888.22 86.08 8.00 135.24 3301.91
   10:09:04.572.27-Aug-2021 4958.50 7890.58 86.08 8.00 135.44 3301.91
   10:09:04.772.27-Aug-2021 4958.50 7890.42 86.08 8.00 135.64 3301.91
   10:09:04.971.27-Aug-2021 4958.50 7890.51 86.08 8.00 135.84 3301.91
   10:09:05.171.27-Aug-2021 4958.50 7890.51 86.08 8.00 136.04 3301.91
   10:09:05.371.27-Aug-2021 4958.50 7888.71 86.08 8.00 136.24 3301.91
   10:09:05.571.27-Aug-2021 4958.50 7890.55 86.08 8.00 136.44 3301.91
   10:09:05.771.27-Aug-2021 4958.50 7889.11 86.08 8.00 136.64 3301.91
   10:09:05.970.27-Aug-2021 4958.50 7889.15 86.08 8.00 136.84 3301.91
   10:09:06.170.27-Aug-2021 4958.50 7889.15 86.08 8.00 137.04 3301.91
   10:09:06.370.27-Aug-2021 4958.50 7890.37 86.08 8.00 137.24 3301.91
   10:09:06.570.27-Aug-2021 4958.50 7890.27 86.08 8.00 137.44 3301.91
   10:09:06.769.27-Aug-2021 4958.50 7889.82 86.08 8.00 137.64 3301.91
