~Version Information
 VERS.                  2.0:   CWLS log ASCII Standard -VERSION 2.0
 WRAP.                   NO:   One line per depth step
~Well Information Block
#MNEM.UNIT     VALUE/NAME     DESCRIPTION
#---------     -----------    ---------------------------
 STRT.S             22:57:07 27-Aug-21: START TIME 22:57:07 27-Aug-21
 STOP.S             23:04:14 27-Aug-21: STOP TIME  23:04:14 27-Aug-21
 STEP.S                   0.00: STEP TIME
 NULL.                 -999.25: NULL VALUE
 DFWT.                        :  DIST FWL TEXT
 DFST.                        :  DIST FSL TEXT
 DMF .             Drill Floor:  DRILL MEAS FROM
 STIM.      20.00.00 17-Aug-21:  START TIME
 DATE.      19.00.00 29-Aug-21:  END TIME
 SPUD.               15-Aug-21:  SPUD DATE
 NREF.                    Grid:  NORTH REFERENCE
 HPTY.       Minimum Curvature:  HOLE POS TYPE
 DMOD.             Drill Model:  DRILL MOD DESC
 SVYD.                  Survey:  SURVEY DESC
 ILTD.               Lithology:  INTERP LTH DESC
 FTOP.          Formation Tops:  FORM TOPS DESC
 RIG .              East Azeri:  RIG NAME
 PDAT.          Mean Sea Level:  PERMANENT DATUM
 FLD .                     ACG:  FIELD NAME
 SON .        AZ-XX-0907180857:  JOB NUMBER
 CTRY.              Azerbaijan:  COUNTRY NAME
 WELL.                    D23x:  WELL NAME
 SRVC.     Turan Drilling and Engineering:  CONTRACTOR
 COMP.     BP Exploration (Caspian Sea) Ltd.:  COMPANY
 UWI .            /AZE00000214:  UNIQUE WELL IDENTIFIER
 API .            /AZE00000214:  API NUMBER
 MDS .        Operator Entered:  MAG DATA SOURCE
 BASE.              Azerbaijan:  LOGGING EQUIPMENT BASE LOCATION
 REGN.                   EESSA:  REGION
 PROV.                    Baku:  PROVINCE
 STAT.                    Baku:  STATE NAME
 MWDS.                    Baku:  MWD SHOP
 DOE .                     N/A:  DOE NUMBER
 DCON.         Sperry Drilling:  DIRECTNL CONTR
 UNIT.                     N/A:  LOGGING EQUIPMENT ID
 WTYP.                Deviated:  WELL TYPE
 CNTY.                        :  COUNTY
 LOC .                        :  LOCATION
 LMF .             Drill Floor:  LOG MEASURED FROM
 TVDS.m                  43.60:  TVDSS CORRECTN
 LATI.deg                40.02:  LATITUDE
 LONG.deg                51.45:  LONGITUDE
 WHNS.m                  -7.04:  WELL HEAD N/S
 WHEW.m                  -0.67:  WELL HEAD E/W
 UTMX.m              538762.90:  UTM X
 UTMY.m             4431871.34:  UTM Y
 DFWL.m                   0.00:  DISTANCE FWL
 DFSL.m                   0.00:  DISTANCE FSL
 SDEP.m                4127.00:  START DEPTH
 TDD .m                5084.50:  TOTAL DEPTH (DRILLER)
 VSDR.deg               140.47:  VERT SEC DIRECT
 GVFD.g                   1.00:  GRAVITY FIELD
 MFLD.nT              50362.00:  MAGNETIC FIELD
 MDIP.deg                59.48:  MAGNETIC DIP
 MDEC.deg                 6.47:  MAGNETIC DECL
 GRDC.deg                 0.31:  GRID CORRECTION
 AZTC.deg                 6.16:  AZM TOTAL CORR
 EPD .m                   0.00:  ELEVATION
 EGL .m                   0.00:  GROUND ELEVATION
 WDMS.m                 151.80:  WD ELEV
 APD .m                  43.60:  DEPTH ABOVE PD
 DEP .m                4092.57:  DEPTH
 AGAP.m                  43.60:  AIR GAP
 VSEW.m                  -0.67:  VERT SEC E/W
 VSNS.m                  -7.04:  VERT SEC N/S
 EKB .m                  43.60:  KB ELEVATION
 EDF .m                  43.60:  DF ELEVATION
 TDL .m                 957.50:  TOTAL DEPTH (LOGGER)
 VSC .                       0:  VS TO CLOSURE
 MAGU.                 1851413:  MAGUTM CHECKSUM
~Parameter Information Block
#MNEM.UNIT       Value        Description
#---------     -----------    ---------------------------
 AV  .mps                 1.50:  Ann Velocity 
 AVMX.mps                 2.00:  Max Ann Veloc 
 AZIF.deg               184.66:  Azm, Final 
 BHAT.        Rotary Steerable:  BHA Type 
 BREV.rev               300.00:  Rev Bit Total 
 BROT.°/30m              -0.50:  Build Rotating 
 BS  .in                  8.50:  Bit Size 
 BSZ .in                  8.50:  Bit Size 
 BTPL.psig              370.00:  Bit Press Loss 
 CABU.                      No:  Customer Abuse 
 CGEO.      Behruz Shahbaliyev:  Customer Geo 
 TCS .hr                140.08:  Time Ciculation Ended 
 CV  .mps                 3.00:  Crit Velocity 
 CVMX.mps                 3.20:  Max Crit Veloc 
 DD1 .            Musa Ahmadov:  Direct Drillr 1 
 DD2 .           Hamid Ahmadov:  Direct Drillr 2 
 DDSV.               Geo-Pilot:  DD Service 
 DEFF.%                  98.40:  % Det Eff 
 DLRX.°/30m               3.40:  Dogleg Rot Max 
 DLSO.°/30m               1.45:  Dogleg Oriented 
 DLSX.°/30m               3.40:  Dogleg Str Max 
 DRET.      18.40.00 29-Aug-21:  Drill End Time 
 DRST.      21.00.00 20-Aug-21:  Drill Start Tim 
 DTIM.hr                 69.47:  Time Drilling 
 EDEP.m                5084.50:  End Depth 
 ENG1.      Artemiy Matviyanov:  Engineer 1 
 ENG2.         Almaz Almadatov:  Engineer 2 
 ETIM.      18.40.00 29-Aug-21:  End Time 
 FLOI.gpm               500.00:  Flow In 
 FLON.gpm               400.00:  Flow In Min 
 FLOS.cptm                0.00:  Fluid Loss 
 FLOX.gpm               500.00:  Flow In Max 
 DFT .        Mineral Oil Base:  Mud Type 
 HFLO.                      No:  High Flow 
 HPRE.                      No:  High Pressure 
 HTEM.                      No:  High Temp 
 HYDO.m                   1.80:  Hydro Offset 
 IFIN.deg                25.62:  Inc, Final 
 IMAX.deg                48.69:  Inc Max 
 IMIN.deg                24.01:  Inc Min 
 IMND.m                4962.57:  Inc Min Depth 
 IMXD.m                4119.01:  Inc Max Depth 
 JARR.                      No:  Jarring 
 LETM.      18.40.00 29-Aug-21:  Log End Time 
 LOST.hr                     0:  Lost Rig Time 
 LSTM.      21.00.00 20-Aug-21:  Log Start Time 
 MDCL.ppm             41500.00:  Mud Chlorides 
 MDES.     Inversion Oil/Synthetic:  Mud Desc 
 DFD .sg                  1.56:  Mud Density 
 MDMN.sg                  1.56:  Dens Mud Min 
 MDMX.sg                  1.56:  Dens Mud Max 
 MOIL.                      70:  Run Mud Oil % 
 MOWR.                   70:30:  Run Mud OWR 
 MSND.                     0.2:  Run Mud Sand % 
 MSOL.                    23.3:  Run Mud Solids% 
 DFV .spqt               78.00:  Mud Viscosity 
 MWOD.in                  6.75:  MWD Tool OD 
 MWSI.                      No:  Serv Intrp, MWD 
 OTIM.hr                218.30:  Time Operating 
 PCON.           Look Like New:  Pad Condition 
 PMAX.psia            11015.30:  Press Op, Max 
 PV  .cP                 38.00:  Mud PV 
 RUN .                     300:  Run Number 
 ROPA.m/hr               15.00:  ROP Avg 
 ROPN.m/hr                9.00:  ROP Min 
 ROPX.m/hr               17.00:  ROP Max 
 RPMA.rpm               120.00:  RPM Surface Avg 
 RPMN.rpm                90.00:  RPM Surface Min 
 RPMX.rpm               140.00:  RPM Surface Max 
 RRUN.                     300:  Rig Run Number 
 RTIM.hr                 31.53:  Time Reaming 
 SAZI.deg               331.64:  Azm, Start 
 SDEP.m                4127.00:  Start Depth 
 SIDD.                      No:  Serv Intrp, DD 
 SINC.deg                48.43:  Inc, Start 
 SPPA.psig             5830.00:  SPP Avg 
 SPPN.psig             5600.00:  SPP Min 
 SPPX.psig             5900.00:  SPP Max 
 STIM.      21.00.00 20-Aug-21:  Start Time 
 SVCS.                 DD, MWD:  Services 
 SVER.                    9.20:  Sperry Version 
 TDAT.m                 957.50:  Tot Depth Attmp 
 TDDF.                      No:  Trip for DD 
 TDLG.m                 957.50:  Tot Depth Loggd 
 TFF .                      No:  Trip for Fail 
 TQAA.f-kp               15.00:  Torque Abs Avg 
 TQAN.f-kp               12.00:  Torque Abs Min 
 TQAX.f-kp               19.00:  Torque Abs Max 
 TRRT.°/30m              -3.40:  Turn Rotating 
 MRT .                  EWR-M5:  Maximum Recorded Temperature 
 TTMX.degC              100.00:  Max Tool Temp 
 VS01.                90639251:  Virtual Str1 SN 
 VS02.                90634715:  Virtual Str2 SN 
 VS03.                90652479:  Virtual Str3 SN 
 VS04.                90642262:  Virtual Str4 SN 
 WBMN.klb                 0.00:  WOB Min 
 WITN.           Murad Guliyev:  Customer Rep 
 WITN.          Yashar Gaziyev:  Customer Rep 2 
 WOBA.klb                 9.00:  WOB Avg 
 WOBX.klb                12.00:  WOB Max 
 YP  .lhf2               30.00:  Yield Point 
~Curve Information Block
#MNEM.UNIT                 API CODE     Curve Description
#---------               -----------    ---------------------------
 TIME.HHMMSS            00 000 000 000:  GT Time & Date
 GTDEPTH.m              00 000 000 000:  GT Depth
 GTPQH.psia             00 000 000 000:  GT HR Quartz Pressure
 GTTQ.degC              00 000 000 000:  GT Quartz Temperature
 GTTN.NONE              00 000 000 000:  GT Test Number
 GTET.sec               00 000 000 000:  GT Elapsed Test Time
 GTTVD.m                00 000 000 000:  GT True Vertical Depth
#Other Information
#
#WARRANTY: Halliburton will use its best efforts to furnish customers with 
#accurate information and interpretations that are part of, and incident to, the services 
#provided.  However, Halliburton cannot and does not warrant the accuracy 
#or correctness of such information and interpretations.  Under no circumstances should any 
#such information or interpretation be relied upon as the sole basis for any drilling, 
#completion, production, or financial decision or any procedure involving any risk to the 
#safety of any drilling venture, drilling rig or its crew or any other third party.  The 
#Customer has full responsibility for all drilling, completion and production operation.  
#Halliburton makes no representations or warranties, either expressed or 
#implied, including, but not limited to, the implied warranties of merchantability or fitness 
#for a particular purpose, with respect to the services rendered.  In no event will 
#Halliburton be liable for failure to obtain any particular results or for 
#any damages, including, but not limited to, indirect, special or consequential damages, 
#resulting from the use of any information or interpretation provided by Halliburton.
#
~A           TIME           GTDEPTH  GTPQH  GTTQ  GTTN   GTET   GTTVD  
# ...
   23:02:01.653.27-Aug-2021 4636.60 4500.74 82.23 25.00 293.83 3010.11
   23:02:01.853.27-Aug-2021 4636.60 4500.71 82.23 25.00 294.03 3010.11
   23:02:02.053.27-Aug-2021 4636.60 4500.71 82.23 25.00 294.23 3010.11
   23:02:02.253.27-Aug-2021 4636.60 4500.65 82.23 25.00 294.43 3010.11
   23:02:02.453.27-Aug-2021 4636.60 4500.62 82.23 25.00 294.63 3010.11
   23:02:02.653.27-Aug-2021 4636.60 4500.59 82.23 25.00 294.83 3010.11
   23:02:02.853.27-Aug-2021 4636.60 4500.57 82.23 25.00 295.03 3010.11
   23:02:03.053.27-Aug-2021 4636.60 4500.57 82.23 25.00 295.23 3010.11
   23:02:03.253.27-Aug-2021 4636.60 4500.54 82.23 25.00 295.43 3010.11
   23:02:03.453.27-Aug-2021 4636.60 4500.52 82.23 25.00 295.63 3010.11
   23:02:03.653.27-Aug-2021 4636.60 4500.50 82.22 25.00 295.83 3010.11
   23:02:03.853.27-Aug-2021 4636.60 4500.49 82.22 25.00 296.03 3010.11
   23:02:04.053.27-Aug-2021 4636.60 4500.49 82.22 25.00 296.23 3010.11
   23:02:04.253.27-Aug-2021 4636.60 4500.27 82.22 25.00 296.43 3010.11
   23:02:04.453.27-Aug-2021 4636.60 4500.97 82.22 25.00 296.63 3010.11
   23:02:04.653.27-Aug-2021 4636.60 4500.88 82.22 25.00 296.83 3010.11
   23:02:04.853.27-Aug-2021 4636.60 4500.84 82.22 25.00 297.03 3010.11
   23:02:05.053.27-Aug-2021 4636.60 4500.84 82.22 25.00 297.23 3010.11
   23:02:05.253.27-Aug-2021 4636.60 4500.58 82.22 25.00 297.43 3010.11
   23:02:05.453.27-Aug-2021 4636.60 4500.79 82.22 25.00 297.63 3010.11
   23:02:05.653.27-Aug-2021 4636.60 4500.99 82.22 25.00 297.83 3010.11
   23:02:05.853.27-Aug-2021 4636.60 4500.91 82.22 25.00 298.03 3010.11
   23:02:06.053.27-Aug-2021 4636.60 4500.91 82.22 25.00 298.23 3010.11
   23:02:06.253.27-Aug-2021 4636.60 4500.68 82.22 25.00 298.43 3010.11
   23:02:06.453.27-Aug-2021 4636.60 4500.86 82.22 25.00 298.63 3010.11
   23:02:06.653.27-Aug-2021 4636.60 4501.02 82.22 25.00 298.83 3010.11
   23:02:06.853.27-Aug-2021 4636.60 4500.97 82.22 25.00 299.03 3010.11
   23:02:07.053.27-Aug-2021 4636.60 4500.97 82.22 25.00 299.23 3010.11
   23:02:07.253.27-Aug-2021 4636.60 4500.94 82.22 25.00 299.43 3010.11
   23:02:07.453.27-Aug-2021 4636.60 4500.91 82.22 25.00 299.63 3010.11
   23:02:07.653.27-Aug-2021 4636.60 4500.47 82.22 25.00 299.83 3010.11
   23:02:07.853.27-Aug-2021 4636.60 4501.12 82.22 25.00 300.03 3010.11
   23:02:08.053.27-Aug-2021 4636.60 4501.12 82.22 25.00 300.23 3010.11
   23:02:08.253.27-Aug-2021 4636.60 4500.97 82.22 25.00 300.43 3010.11
   23:02:08.453.27-Aug-2021 4636.60 4500.94 82.22 25.00 300.63 3010.11
   23:02:08.653.27-Aug-2021 4636.60 4500.93 82.22 25.00 300.83 3010.11
   23:02:08.854.27-Aug-2021 4636.60 4500.88 82.22 25.00 301.03 3010.11
   23:02:09.054.27-Aug-2021 4636.60 4500.88 82.22 25.00 301.23 3010.11
   23:02:09.254.27-Aug-2021 4636.60 4500.85 82.22 25.00 301.43 3010.11
   23:02:09.454.27-Aug-2021 4636.60 4500.84 82.22 25.00 301.63 3010.11
   23:02:09.654.27-Aug-2021 4636.60 4500.82 82.22 25.00 301.83 3010.11
   23:02:09.854.27-Aug-2021 4636.60 4500.81 82.22 25.00 302.03 3010.11
   23:02:10.054.27-Aug-2021 4636.60 4500.81 82.22 25.00 302.23 3010.11
   23:02:10.254.27-Aug-2021 4636.60 4500.78 82.22 25.00 302.43 3010.11
   23:02:10.454.27-Aug-2021 4636.60 4500.77 82.22 25.00 302.63 3010.11
   23:02:10.654.27-Aug-2021 4636.60 4500.75 82.22 25.00 302.83 3010.11
   23:02:10.854.27-Aug-2021 4636.60 4500.63 82.22 25.00 303.03 3010.11
   23:02:11.054.27-Aug-2021 4636.60 4500.63 82.22 25.00 303.23 3010.11
   23:02:11.254.27-Aug-2021 4636.60 4501.00 82.22 25.00 303.43 3010.11
   23:02:11.454.27-Aug-2021 4636.60 4500.96 82.22 25.00 303.63 3010.11
   23:02:11.654.27-Aug-2021 4636.60 4500.94 82.22 25.00 303.83 3010.11
   23:02:11.854.27-Aug-2021 4636.60 4500.93 82.22 25.00 304.03 3010.11
   23:02:12.054.27-Aug-2021 4636.60 4500.93 82.22 25.00 304.23 3010.11
   23:02:12.254.27-Aug-2021 4636.60 4500.89 82.22 25.00 304.43 3010.11
   23:02:12.454.27-Aug-2021 4636.60 4500.89 82.22 25.00 304.63 3010.11
   23:02:12.654.27-Aug-2021 4636.60 4500.86 82.22 25.00 304.83 3010.11
   23:02:12.854.27-Aug-2021 4636.60 4500.85 82.22 25.00 305.03 3010.11
   23:02:13.054.27-Aug-2021 4636.60 4500.85 82.22 25.00 305.23 3010.11
   23:02:13.254.27-Aug-2021 4636.60 4500.83 82.22 25.00 305.43 3010.11
   23:02:13.454.27-Aug-2021 4636.60 4500.81 82.22 25.00 305.63 3010.11
   23:02:13.654.27-Aug-2021 4636.60 4500.81 82.22 25.00 305.83 3010.11
   23:02:13.854.27-Aug-2021 4636.60 4500.80 82.22 25.00 306.03 3010.11
   23:02:14.054.27-Aug-2021 4636.60 4500.80 82.22 25.00 306.23 3010.11
   23:02:14.254.27-Aug-2021 4636.60 4500.89 82.22 25.00 306.43 3010.11
   23:02:14.454.27-Aug-2021 4636.60 4501.06 82.22 25.00 306.63 3010.11
   23:02:14.654.27-Aug-2021 4636.60 4501.02 82.22 25.00 306.83 3010.11
   23:02:14.854.27-Aug-2021 4636.60 4500.98 82.22 25.00 307.03 3010.11
   23:02:15.054.27-Aug-2021 4636.60 4500.98 82.22 25.00 307.23 3010.11
   23:02:15.254.27-Aug-2021 4636.60 4500.58 82.22 25.00 307.43 3010.11
   23:02:15.454.27-Aug-2021 4636.60 4501.16 82.22 25.00 307.63 3010.11
   23:02:15.654.27-Aug-2021 4636.60 4501.08 82.22 25.00 307.83 3010.11
   23:02:15.854.27-Aug-2021 4636.60 4501.03 82.22 25.00 308.03 3010.11
   23:02:16.054.27-Aug-2021 4636.60 4501.03 82.22 25.00 308.23 3010.11
   23:02:16.254.27-Aug-2021 4636.60 4500.65 82.22 25.00 308.43 3010.11
   23:02:16.454.27-Aug-2021 4636.60 4501.20 82.22 25.00 308.63 3010.11
   23:02:16.654.27-Aug-2021 4636.60 4501.10 82.22 25.00 308.83 3010.11
   23:02:16.854.27-Aug-2021 4636.60 4501.07 82.22 25.00 309.03 3010.11
   23:02:17.054.27-Aug-2021 4636.60 4501.07 82.22 25.00 309.23 3010.11
   23:02:17.254.27-Aug-2021 4636.60 4501.02 82.22 25.00 309.43 3010.11
   23:02:17.454.27-Aug-2021 4636.60 4501.01 82.22 25.00 309.63 3010.11
   23:02:17.654.27-Aug-2021 4636.60 4500.75 82.22 25.00 309.83 3010.11
   23:02:17.854.27-Aug-2021 4636.60 4501.09 82.22 25.00 310.03 3010.11
   23:02:18.054.27-Aug-2021 4636.60 4501.09 82.22 25.00 310.23 3010.11
   23:02:18.254.27-Aug-2021 4636.60 4501.04 82.22 25.00 310.43 3010.11
   23:02:18.454.27-Aug-2021 4636.60 4501.02 82.22 25.00 310.63 3010.11
   23:02:18.655.27-Aug-2021 4636.60 4501.02 82.22 25.00 310.83 3010.11
   23:02:18.855.27-Aug-2021 4636.60 4500.99 82.22 25.00 311.03 3010.11
   23:02:19.055.27-Aug-2021 4636.60 4500.99 82.22 25.00 311.23 3010.11
   23:02:19.255.27-Aug-2021 4636.60 4500.96 82.22 25.00 311.43 3010.11
   23:02:19.455.27-Aug-2021 4636.60 4500.97 82.22 25.00 311.63 3010.11
   23:02:19.655.27-Aug-2021 4636.60 4500.96 82.22 25.00 311.83 3010.11
   23:02:19.855.27-Aug-2021 4636.60 4500.96 82.22 25.00 312.03 3010.11
   23:02:20.055.27-Aug-2021 4636.60 4500.96 82.22 25.00 312.23 3010.11
   23:02:20.255.27-Aug-2021 4636.60 4500.94 82.22 25.00 312.43 3010.11
   23:02:20.455.27-Aug-2021 4636.60 4500.92 82.22 25.00 312.63 3010.11
   23:02:20.655.27-Aug-2021 4636.60 4500.54 82.22 25.00 312.83 3010.11
   23:02:20.855.27-Aug-2021 4636.60 4501.23 82.22 25.00 313.03 3010.11
   23:02:21.055.27-Aug-2021 4636.60 4501.23 82.22 25.00 313.23 3010.11
   23:02:21.255.27-Aug-2021 4636.60 4501.09 82.22 25.00 313.43 3010.11
   23:02:21.455.27-Aug-2021 4636.60 4501.06 82.22 25.00 313.63 3010.11
   23:02:21.655.27-Aug-2021 4636.60 4501.06 82.22 25.00 313.83 3010.11
   23:02:21.855.27-Aug-2021 4636.60 4501.03 82.22 25.00 314.03 3010.11
   23:02:22.055.27-Aug-2021 4636.60 4501.03 82.22 25.00 314.23 3010.11
   23:02:22.255.27-Aug-2021 4636.60 4501.02 82.22 25.00 314.43 3010.11
   23:02:22.455.27-Aug-2021 4636.60 4501.01 82.22 25.00 314.63 3010.11
   23:02:22.655.27-Aug-2021 4636.60 4501.00 82.22 25.00 314.83 3010.11
   23:02:22.855.27-Aug-2021 4636.60 4500.99 82.22 25.00 315.03 3010.11
   23:02:23.055.27-Aug-2021 4636.60 4500.99 82.22 25.00 315.23 3010.11
   23:02:23.255.27-Aug-2021 4636.60 4500.97 82.22 25.00 315.43 3010.11
   23:02:23.455.27-Aug-2021 4636.60 4500.98 82.22 25.00 315.63 3010.11
   23:02:23.655.27-Aug-2021 4636.60 4500.96 82.22 25.00 315.83 3010.11
   23:02:23.855.27-Aug-2021 4636.60 4500.96 82.22 25.00 316.03 3010.11
   23:02:24.055.27-Aug-2021 4636.60 4500.96 82.22 25.00 316.23 3010.11
