~Version Information
 VERS.                  2.0:   CWLS log ASCII Standard -VERSION 2.0
 WRAP.                   NO:   One line per depth step
~Well Information Block
#MNEM.UNIT     VALUE/NAME     DESCRIPTION
#---------     -----------    ---------------------------
 STRT.S             07:46:52 27-Aug-21: START TIME 07:46:52 27-Aug-21
 STOP.S             07:54:09 27-Aug-21: STOP TIME  07:54:09 27-Aug-21
 STEP.S                   0.00: STEP TIME
 NULL.                 -999.25: NULL VALUE
 DFWT.                        :  DIST FWL TEXT
 DFST.                        :  DIST FSL TEXT
 DMF .             Drill Floor:  DRILL MEAS FROM
 STIM.      20.00.00 17-Aug-21:  START TIME
 DATE.      19.00.00 29-Aug-21:  END TIME
 SPUD.               15-Aug-21:  SPUD DATE
 NREF.                    Grid:  NORTH REFERENCE
 HPTY.       Minimum Curvature:  HOLE POS TYPE
 DMOD.             Drill Model:  DRILL MOD DESC
 SVYD.                  Survey:  SURVEY DESC
 ILTD.               Lithology:  INTERP LTH DESC
 FTOP.          Formation Tops:  FORM TOPS DESC
 RIG .              East Azeri:  RIG NAME
 PDAT.          Mean Sea Level:  PERMANENT DATUM
 FLD .                     ACG:  FIELD NAME
 SON .        AZ-XX-0907180857:  JOB NUMBER
 CTRY.              Azerbaijan:  COUNTRY NAME
 WELL.                    D23x:  WELL NAME
 SRVC.     Turan Drilling and Engineering:  CONTRACTOR
 COMP.     BP Exploration (Caspian Sea) Ltd.:  COMPANY
 UWI .            /AZE00000214:  UNIQUE WELL IDENTIFIER
 API .            /AZE00000214:  API NUMBER
 MDS .        Operator Entered:  MAG DATA SOURCE
 BASE.              Azerbaijan:  LOGGING EQUIPMENT BASE LOCATION
 REGN.                   EESSA:  REGION
 PROV.                    Baku:  PROVINCE
 STAT.                    Baku:  STATE NAME
 MWDS.                    Baku:  MWD SHOP
 DOE .                     N/A:  DOE NUMBER
 DCON.         Sperry Drilling:  DIRECTNL CONTR
 UNIT.                     N/A:  LOGGING EQUIPMENT ID
 WTYP.                Deviated:  WELL TYPE
 CNTY.                        :  COUNTY
 LOC .                        :  LOCATION
 LMF .             Drill Floor:  LOG MEASURED FROM
 TVDS.m                  43.60:  TVDSS CORRECTN
 LATI.deg                40.02:  LATITUDE
 LONG.deg                51.45:  LONGITUDE
 WHNS.m                  -7.04:  WELL HEAD N/S
 WHEW.m                  -0.67:  WELL HEAD E/W
 UTMX.m              538762.90:  UTM X
 UTMY.m             4431871.34:  UTM Y
 DFWL.m                   0.00:  DISTANCE FWL
 DFSL.m                   0.00:  DISTANCE FSL
 SDEP.m                4127.00:  START DEPTH
 TDD .m                5084.50:  TOTAL DEPTH (DRILLER)
 VSDR.deg               140.47:  VERT SEC DIRECT
 GVFD.g                   1.00:  GRAVITY FIELD
 MFLD.nT              50362.00:  MAGNETIC FIELD
 MDIP.deg                59.48:  MAGNETIC DIP
 MDEC.deg                 6.47:  MAGNETIC DECL
 GRDC.deg                 0.31:  GRID CORRECTION
 AZTC.deg                 6.16:  AZM TOTAL CORR
 EPD .m                   0.00:  ELEVATION
 EGL .m                   0.00:  GROUND ELEVATION
 WDMS.m                 151.80:  WD ELEV
 APD .m                  43.60:  DEPTH ABOVE PD
 DEP .m                4092.57:  DEPTH
 AGAP.m                  43.60:  AIR GAP
 VSEW.m                  -0.67:  VERT SEC E/W
 VSNS.m                  -7.04:  VERT SEC N/S
 EKB .m                  43.60:  KB ELEVATION
 EDF .m                  43.60:  DF ELEVATION
 TDL .m                 957.50:  TOTAL DEPTH (LOGGER)
 VSC .                       0:  VS TO CLOSURE
 MAGU.                 1851413:  MAGUTM CHECKSUM
~Parameter Information Block
#MNEM.UNIT       Value        Description
#---------     -----------    ---------------------------
 AV  .mps                 1.50:  Ann Velocity 
 AVMX.mps                 2.00:  Max Ann Veloc 
 AZIF.deg               184.66:  Azm, Final 
 BHAT.        Rotary Steerable:  BHA Type 
 BREV.rev               300.00:  Rev Bit Total 
 BROT.°/30m              -0.50:  Build Rotating 
 BS  .in                  8.50:  Bit Size 
 BSZ .in                  8.50:  Bit Size 
 BTPL.psig              370.00:  Bit Press Loss 
 CABU.                      No:  Customer Abuse 
 CGEO.      Behruz Shahbaliyev:  Customer Geo 
 COMM.                     T\d:  Run Comments 1 
 TCS .hr                140.08:  Time Ciculation Ended 
 CV  .mps                 3.00:  Crit Velocity 
 CVMX.mps                 3.20:  Max Crit Veloc 
 DD1 .            Musa Ahmadov:  Direct Drillr 1 
 DD2 .           Hamid Ahmadov:  Direct Drillr 2 
 DDSV.               Geo-Pilot:  DD Service 
 DEFF.%                  98.40:  % Det Eff 
 DLRX.°/30m               3.40:  Dogleg Rot Max 
 DLSO.°/30m               1.45:  Dogleg Oriented 
 DLSX.°/30m               3.40:  Dogleg Str Max 
 DRET.      18.40.00 29-Aug-21:  Drill End Time 
 DRST.      21.00.00 20-Aug-21:  Drill Start Tim 
 DTIM.hr                 69.47:  Time Drilling 
 EDEP.m                5084.50:  End Depth 
 ENG1.      Artemiy Matviyanov:  Engineer 1 
 ENG2.         Almaz Almadatov:  Engineer 2 
 ETIM.      18.40.00 29-Aug-21:  End Time 
 FLOI.gpm               500.00:  Flow In 
 FLON.gpm               400.00:  Flow In Min 
 FLOS.cptm                0.00:  Fluid Loss 
 FLOX.gpm               500.00:  Flow In Max 
 DFT .        Mineral Oil Base:  Mud Type 
 HFLO.                      No:  High Flow 
 HPRE.                      No:  High Pressure 
 HTEM.                      No:  High Temp 
 HYDO.m                   1.80:  Hydro Offset 
 IFIN.deg                25.62:  Inc, Final 
 IMAX.deg                48.69:  Inc Max 
 IMIN.deg                24.01:  Inc Min 
 IMND.m                4962.57:  Inc Min Depth 
 IMXD.m                4119.01:  Inc Max Depth 
 JARR.                      No:  Jarring 
 LETM.      18.40.00 29-Aug-21:  Log End Time 
 LOST.hr                     0:  Lost Rig Time 
 LSTM.      21.00.00 20-Aug-21:  Log Start Time 
 MDCL.ppm             41500.00:  Mud Chlorides 
 MDES.     Inversion Oil/Synthetic:  Mud Desc 
 DFD .sg                  1.56:  Mud Density 
 MDMN.sg                  1.56:  Dens Mud Min 
 MDMX.sg                  1.56:  Dens Mud Max 
 MOIL.                      70:  Run Mud Oil % 
 MOWR.                   70:30:  Run Mud OWR 
 MSND.                     0.2:  Run Mud Sand % 
 MSOL.                    23.3:  Run Mud Solids% 
 DFV .spqt               78.00:  Mud Viscosity 
 MWOD.in                  6.75:  MWD Tool OD 
 MWSI.                      No:  Serv Intrp, MWD 
 OTIM.hr                218.30:  Time Operating 
 PCON.           Look Like New:  Pad Condition 
 PMAX.psia            11015.30:  Press Op, Max 
 PV  .cP                 38.00:  Mud PV 
 RUN .                     300:  Run Number 
 ROPA.m/hr               15.00:  ROP Avg 
 ROPN.m/hr                9.00:  ROP Min 
 ROPX.m/hr               17.00:  ROP Max 
 RPMA.rpm               120.00:  RPM Surface Avg 
 RPMN.rpm                90.00:  RPM Surface Min 
 RPMX.rpm               140.00:  RPM Surface Max 
 RRUN.                     300:  Rig Run Number 
 RTIM.hr                 31.53:  Time Reaming 
 SAZI.deg               331.64:  Azm, Start 
 SDEP.m                4127.00:  Start Depth 
 SIDD.                      No:  Serv Intrp, DD 
 SINC.deg                48.43:  Inc, Start 
 SPPA.psig             5830.00:  SPP Avg 
 SPPN.psig             5600.00:  SPP Min 
 SPPX.psig             5900.00:  SPP Max 
 STIM.      21.00.00 20-Aug-21:  Start Time 
 SVCS.                 DD, MWD:  Services 
 SVER.                    9.20:  Sperry Version 
 TDAT.m                 957.50:  Tot Depth Attmp 
 TDDF.                      No:  Trip for DD 
 TDLG.m                 957.50:  Tot Depth Loggd 
 TFF .                      No:  Trip for Fail 
 TQAA.f-kp               15.00:  Torque Abs Avg 
 TQAN.f-kp               12.00:  Torque Abs Min 
 TQAX.f-kp               19.00:  Torque Abs Max 
 TRRT.°/30m              -3.40:  Turn Rotating 
 MRT .                  EWR-M5:  Maximum Recorded Temperature 
 TTMX.degC              100.00:  Max Tool Temp 
 VS01.                90639251:  Virtual Str1 SN 
 VS02.                90634715:  Virtual Str2 SN 
 VS03.                90652479:  Virtual Str3 SN 
 VS04.                90642262:  Virtual Str4 SN 
 WBMN.klb                 0.00:  WOB Min 
 WITN.           Murad Guliyev:  Customer Rep 
 WITN.          Yashar Gaziyev:  Customer Rep 2 
 WOBA.klb                 9.00:  WOB Avg 
 WOBX.klb                12.00:  WOB Max 
 YP  .lhf2               30.00:  Yield Point 
~Curve Information Block
#MNEM.UNIT                 API CODE     Curve Description
#---------               -----------    ---------------------------
 TIME.HHMMSS            00 000 000 000:  GT Time & Date
 GTDEPTH.m              00 000 000 000:  GT Depth
 GTPQH.psia             00 000 000 000:  GT HR Quartz Pressure
 GTTQ.degC              00 000 000 000:  GT Quartz Temperature
 GTTN.NONE              00 000 000 000:  GT Test Number
 GTET.sec               00 000 000 000:  GT Elapsed Test Time
 GTTVD.m                00 000 000 000:  GT True Vertical Depth
#Other Information
#
#WARRANTY: Halliburton will use its best efforts to furnish customers with 
#accurate information and interpretations that are part of, and incident to, the services 
#provided.  However, Halliburton cannot and does not warrant the accuracy 
#or correctness of such information and interpretations.  Under no circumstances should any 
#such information or interpretation be relied upon as the sole basis for any drilling, 
#completion, production, or financial decision or any procedure involving any risk to the 
#safety of any drilling venture, drilling rig or its crew or any other third party.  The 
#Customer has full responsibility for all drilling, completion and production operation.  
#Halliburton makes no representations or warranties, either expressed or 
#implied, including, but not limited to, the implied warranties of merchantability or fitness 
#for a particular purpose, with respect to the services rendered.  In no event will 
#Halliburton be liable for failure to obtain any particular results or for 
#any damages, including, but not limited to, indirect, special or consequential damages, 
#resulting from the use of any information or interpretation provided by Halliburton.
#
~A           TIME           GTDEPTH  GTPQH  GTTQ  GTTN  GTET   GTTVD  
# ...
   07:52:14.583.27-Aug-2021 5003.00 4272.49 87.32 4.00 322.05 3342.33
   07:52:14.783.27-Aug-2021 5003.00 4272.49 87.32 4.00 322.25 3342.33
   07:52:14.983.27-Aug-2021 5003.00 4272.49 87.32 4.00 322.45 3342.33
   07:52:15.183.27-Aug-2021 5003.00 4272.48 87.32 4.00 322.65 3342.33
   07:52:15.383.27-Aug-2021 5003.00 4272.47 87.32 4.00 322.85 3342.33
   07:52:15.583.27-Aug-2021 5003.00 4272.49 87.32 4.00 323.05 3342.33
   07:52:15.783.27-Aug-2021 5003.00 4272.49 87.32 4.00 323.25 3342.33
   07:52:15.984.27-Aug-2021 5003.00 4272.52 87.32 4.00 323.45 3342.33
   07:52:16.184.27-Aug-2021 5003.00 4272.49 87.32 4.00 323.65 3342.33
   07:52:16.384.27-Aug-2021 5003.00 4272.50 87.32 4.00 323.85 3342.33
   07:52:16.584.27-Aug-2021 5003.00 4272.48 87.32 4.00 324.05 3342.33
   07:52:16.784.27-Aug-2021 5003.00 4272.48 87.32 4.00 324.25 3342.33
   07:52:16.984.27-Aug-2021 5003.00 4272.51 87.32 4.00 324.45 3342.33
   07:52:17.184.27-Aug-2021 5003.00 4272.52 87.32 4.00 324.65 3342.33
   07:52:17.384.27-Aug-2021 5003.00 4272.53 87.32 4.00 324.85 3342.33
   07:52:17.584.27-Aug-2021 5003.00 4272.51 87.32 4.00 325.05 3342.33
   07:52:17.784.27-Aug-2021 5003.00 4272.51 87.32 4.00 325.25 3342.33
   07:52:17.984.27-Aug-2021 5003.00 4272.52 87.32 4.00 325.45 3342.33
   07:52:18.184.27-Aug-2021 5003.00 4272.51 87.32 4.00 325.65 3342.33
   07:52:18.384.27-Aug-2021 5003.00 4272.52 87.32 4.00 325.85 3342.33
   07:52:18.584.27-Aug-2021 5003.00 4272.53 87.32 4.00 326.05 3342.33
   07:52:18.784.27-Aug-2021 5003.00 4272.53 87.32 4.00 326.25 3342.33
   07:52:18.984.27-Aug-2021 5003.00 4272.53 87.32 4.00 326.45 3342.33
   07:52:19.184.27-Aug-2021 5003.00 4272.53 87.32 4.00 326.65 3342.33
   07:52:19.384.27-Aug-2021 5003.00 4272.53 87.32 4.00 326.85 3342.33
   07:52:19.584.27-Aug-2021 5003.00 4272.52 87.32 4.00 327.05 3342.33
   07:52:19.784.27-Aug-2021 5003.00 4272.52 87.32 4.00 327.25 3342.33
   07:52:19.984.27-Aug-2021 5003.00 4272.52 87.32 4.00 327.45 3342.33
   07:52:20.184.27-Aug-2021 5003.00 4272.52 87.32 4.00 327.65 3342.33
   07:52:20.384.27-Aug-2021 5003.00 4272.52 87.32 4.00 327.85 3342.33
   07:52:20.584.27-Aug-2021 5003.00 4272.51 87.32 4.00 328.05 3342.33
   07:52:20.784.27-Aug-2021 5003.00 4272.51 87.32 4.00 328.25 3342.33
   07:52:20.984.27-Aug-2021 5003.00 4272.51 87.32 4.00 328.45 3342.33
   07:52:21.184.27-Aug-2021 5003.00 4272.50 87.32 4.00 328.65 3342.33
   07:52:21.384.27-Aug-2021 5003.00 4272.48 87.32 4.00 328.85 3342.33
   07:52:21.584.27-Aug-2021 5003.00 4272.50 87.32 4.00 329.05 3342.33
   07:52:21.784.27-Aug-2021 5003.00 4272.50 87.32 4.00 329.25 3342.33
   07:52:21.984.27-Aug-2021 5003.00 4272.51 87.32 4.00 329.45 3342.33
   07:52:22.185.27-Aug-2021 5003.00 4272.52 87.32 4.00 329.65 3342.33
   07:52:22.385.27-Aug-2021 5003.00 4272.51 87.32 4.00 329.85 3342.33
   07:52:22.585.27-Aug-2021 5003.00 4272.51 87.32 4.00 330.05 3342.33
   07:52:22.785.27-Aug-2021 5003.00 4272.51 87.32 4.00 330.25 3342.33
   07:52:22.985.27-Aug-2021 5003.00 4272.50 87.32 4.00 330.45 3342.33
   07:52:23.185.27-Aug-2021 5003.00 4272.50 87.32 4.00 330.65 3342.33
   07:52:23.385.27-Aug-2021 5003.00 4272.50 87.32 4.00 330.85 3342.33
   07:52:23.585.27-Aug-2021 5003.00 4272.50 87.32 4.00 331.05 3342.33
   07:52:23.785.27-Aug-2021 5003.00 4272.50 87.32 4.00 331.25 3342.33
   07:52:23.985.27-Aug-2021 5003.00 4272.49 87.32 4.00 331.45 3342.33
   07:52:24.185.27-Aug-2021 5003.00 4272.49 87.32 4.00 331.65 3342.33
   07:52:24.385.27-Aug-2021 5003.00 4272.49 87.32 4.00 331.85 3342.33
   07:52:24.585.27-Aug-2021 5003.00 4272.46 87.32 4.00 332.05 3342.33
   07:52:24.785.27-Aug-2021 5003.00 4272.46 87.32 4.00 332.25 3342.33
   07:52:24.985.27-Aug-2021 5003.00 4272.50 87.32 4.00 332.45 3342.33
   07:52:25.185.27-Aug-2021 5003.00 4272.51 87.32 4.00 332.65 3342.33
   07:52:25.385.27-Aug-2021 5003.00 4272.49 87.32 4.00 332.85 3342.33
   07:52:25.585.27-Aug-2021 5003.00 4272.50 87.32 4.00 333.05 3342.33
   07:52:25.785.27-Aug-2021 5003.00 4272.50 87.32 4.00 333.25 3342.33
   07:52:25.985.27-Aug-2021 5003.00 4272.47 87.32 4.00 333.45 3342.33
   07:52:26.185.27-Aug-2021 5003.00 4272.47 87.32 4.00 333.65 3342.33
   07:52:26.385.27-Aug-2021 5003.00 4272.51 87.32 4.00 333.85 3342.33
   07:52:26.585.27-Aug-2021 5003.00 4272.52 87.32 4.00 334.05 3342.33
   07:52:26.785.27-Aug-2021 5003.00 4272.52 87.32 4.00 334.25 3342.33
   07:52:26.985.27-Aug-2021 5003.00 4272.49 87.32 4.00 334.45 3342.33
   07:52:27.185.27-Aug-2021 5003.00 4272.50 87.32 4.00 334.65 3342.33
   07:52:27.385.27-Aug-2021 5003.00 4272.51 87.32 4.00 334.85 3342.33
   07:52:27.585.27-Aug-2021 5003.00 4272.51 87.32 4.00 335.06 3342.33
   07:52:27.785.27-Aug-2021 5003.00 4272.51 87.32 4.00 335.26 3342.33
   07:52:27.985.27-Aug-2021 5003.00 4272.52 87.32 4.00 335.46 3342.33
   07:52:28.186.27-Aug-2021 5003.00 4272.53 87.32 4.00 335.66 3342.33
   07:52:28.386.27-Aug-2021 5003.00 4272.52 87.32 4.00 335.86 3342.33
   07:52:28.586.27-Aug-2021 5003.00 4272.52 87.31 4.00 336.06 3342.33
   07:52:28.786.27-Aug-2021 5003.00 4272.52 87.31 4.00 336.26 3342.33
   07:52:28.986.27-Aug-2021 5003.00 4272.51 87.31 4.00 336.46 3342.33
   07:52:29.186.27-Aug-2021 5003.00 4272.51 87.31 4.00 336.66 3342.33
   07:52:29.386.27-Aug-2021 5003.00 4272.51 87.31 4.00 336.86 3342.33
   07:52:29.586.27-Aug-2021 5003.00 4272.51 87.31 4.00 337.06 3342.33
   07:52:29.786.27-Aug-2021 5003.00 4272.51 87.31 4.00 337.26 3342.33
   07:52:29.986.27-Aug-2021 5003.00 4272.50 87.31 4.00 337.46 3342.33
   07:52:30.186.27-Aug-2021 5003.00 4272.50 87.31 4.00 337.66 3342.33
   07:52:30.386.27-Aug-2021 5003.00 4272.49 87.31 4.00 337.86 3342.33
   07:52:30.586.27-Aug-2021 5003.00 4272.47 87.31 4.00 338.06 3342.33
   07:52:30.786.27-Aug-2021 5003.00 4272.47 87.31 4.00 338.26 3342.33
   07:52:30.986.27-Aug-2021 5003.00 4272.50 87.31 4.00 338.46 3342.33
   07:52:31.186.27-Aug-2021 5003.00 4272.51 87.31 4.00 338.66 3342.33
   07:52:31.386.27-Aug-2021 5003.00 4272.50 87.31 4.00 338.86 3342.33
   07:52:31.586.27-Aug-2021 5003.00 4272.51 87.31 4.00 339.06 3342.33
   07:52:31.786.27-Aug-2021 5003.00 4272.51 87.31 4.00 339.26 3342.33
   07:52:31.986.27-Aug-2021 5003.00 4272.49 87.31 4.00 339.46 3342.33
   07:52:32.186.27-Aug-2021 5003.00 4272.50 87.31 4.00 339.66 3342.33
   07:52:32.386.27-Aug-2021 5003.00 4272.49 87.31 4.00 339.86 3342.33
   07:52:32.586.27-Aug-2021 5003.00 4272.49 87.31 4.00 340.06 3342.33
   07:52:32.786.27-Aug-2021 5003.00 4272.49 87.31 4.00 340.26 3342.33
   07:52:32.986.27-Aug-2021 5003.00 4272.49 87.31 4.00 340.46 3342.33
   07:52:33.186.27-Aug-2021 5003.00 4272.48 87.31 4.00 340.66 3342.33
   07:52:33.386.27-Aug-2021 5003.00 4272.48 87.31 4.00 340.86 3342.33
   07:52:33.586.27-Aug-2021 5003.00 4272.48 87.31 4.00 341.06 3342.33
   07:52:33.786.27-Aug-2021 5003.00 4272.48 87.31 4.00 341.26 3342.33
   07:52:33.986.27-Aug-2021 5003.00 4272.48 87.31 4.00 341.46 3342.33
   07:52:34.186.27-Aug-2021 5003.00 4272.46 87.31 4.00 341.66 3342.33
   07:52:34.387.27-Aug-2021 5003.00 4272.50 87.31 4.00 341.86 3342.33
   07:52:34.587.27-Aug-2021 5003.00 4272.51 87.31 4.00 342.06 3342.33
   07:52:34.787.27-Aug-2021 5003.00 4272.51 87.31 4.00 342.26 3342.33
   07:52:34.987.27-Aug-2021 5003.00 4272.50 87.31 4.00 342.46 3342.33
   07:52:35.187.27-Aug-2021 5003.00 4272.48 87.31 4.00 342.66 3342.33
   07:52:35.387.27-Aug-2021 5003.00 4272.49 87.31 4.00 342.86 3342.33
   07:52:35.587.27-Aug-2021 5003.00 4272.50 87.31 4.00 343.06 3342.33
   07:52:35.787.27-Aug-2021 5003.00 4272.50 87.31 4.00 343.26 3342.33
   07:52:35.987.27-Aug-2021 5003.00 4272.51 87.31 4.00 343.46 3342.33
   07:52:36.187.27-Aug-2021 5003.00 4272.49 87.31 4.00 343.66 3342.33
   07:52:36.387.27-Aug-2021 5003.00 4272.46 87.31 4.00 343.86 3342.33
   07:52:36.587.27-Aug-2021 5003.00 4272.50 87.31 4.00 344.06 3342.33
   07:52:36.787.27-Aug-2021 5003.00 4272.50 87.31 4.00 344.26 3342.33
   07:52:36.987.27-Aug-2021 5003.00 4272.50 87.31 4.00 344.46 3342.33
   07:52:37.187.27-Aug-2021 5003.00 4272.53 87.31 4.00 344.66 3342.33
   07:52:37.387.27-Aug-2021 5003.00 4272.53 87.31 4.00 344.86 3342.33
