~Version Information
 VERS.                  2.0:   CWLS log ASCII Standard -VERSION 2.0
 WRAP.                   NO:   One line per depth step
~Well Information Block
#MNEM.UNIT     VALUE/NAME     DESCRIPTION
#---------     -----------    ---------------------------
 STRT.S             08:06:40 27-Aug-21: START TIME 08:06:40 27-Aug-21
 STOP.S             08:13:50 27-Aug-21: STOP TIME  08:13:50 27-Aug-21
 STEP.S                   0.00: STEP TIME
 NULL.                 -999.25: NULL VALUE
 DFWT.                        :  DIST FWL TEXT
 DFST.                        :  DIST FSL TEXT
 DMF .             Drill Floor:  DRILL MEAS FROM
 STIM.      20.00.00 17-Aug-21:  START TIME
 DATE.      19.00.00 29-Aug-21:  END TIME
 SPUD.               15-Aug-21:  SPUD DATE
 NREF.                    Grid:  NORTH REFERENCE
 HPTY.       Minimum Curvature:  HOLE POS TYPE
 DMOD.             Drill Model:  DRILL MOD DESC
 SVYD.                  Survey:  SURVEY DESC
 ILTD.               Lithology:  INTERP LTH DESC
 FTOP.          Formation Tops:  FORM TOPS DESC
 RIG .              East Azeri:  RIG NAME
 PDAT.          Mean Sea Level:  PERMANENT DATUM
 FLD .                     ACG:  FIELD NAME
 SON .        AZ-XX-0907180857:  JOB NUMBER
 CTRY.              Azerbaijan:  COUNTRY NAME
 WELL.                    D23x:  WELL NAME
 SRVC.     Turan Drilling and Engineering:  CONTRACTOR
 COMP.     BP Exploration (Caspian Sea) Ltd.:  COMPANY
 UWI .            /AZE00000214:  UNIQUE WELL IDENTIFIER
 API .            /AZE00000214:  API NUMBER
 MDS .        Operator Entered:  MAG DATA SOURCE
 BASE.              Azerbaijan:  LOGGING EQUIPMENT BASE LOCATION
 REGN.                   EESSA:  REGION
 PROV.                    Baku:  PROVINCE
 STAT.                    Baku:  STATE NAME
 MWDS.                    Baku:  MWD SHOP
 DOE .                     N/A:  DOE NUMBER
 DCON.         Sperry Drilling:  DIRECTNL CONTR
 UNIT.                     N/A:  LOGGING EQUIPMENT ID
 WTYP.                Deviated:  WELL TYPE
 CNTY.                        :  COUNTY
 LOC .                        :  LOCATION
 LMF .             Drill Floor:  LOG MEASURED FROM
 TVDS.m                  43.60:  TVDSS CORRECTN
 LATI.deg                40.02:  LATITUDE
 LONG.deg                51.45:  LONGITUDE
 WHNS.m                  -7.04:  WELL HEAD N/S
 WHEW.m                  -0.67:  WELL HEAD E/W
 UTMX.m              538762.90:  UTM X
 UTMY.m             4431871.34:  UTM Y
 DFWL.m                   0.00:  DISTANCE FWL
 DFSL.m                   0.00:  DISTANCE FSL
 SDEP.m                4127.00:  START DEPTH
 TDD .m                5084.50:  TOTAL DEPTH (DRILLER)
 VSDR.deg               140.47:  VERT SEC DIRECT
 GVFD.g                   1.00:  GRAVITY FIELD
 MFLD.nT              50362.00:  MAGNETIC FIELD
 MDIP.deg                59.48:  MAGNETIC DIP
 MDEC.deg                 6.47:  MAGNETIC DECL
 GRDC.deg                 0.31:  GRID CORRECTION
 AZTC.deg                 6.16:  AZM TOTAL CORR
 EPD .m                   0.00:  ELEVATION
 EGL .m                   0.00:  GROUND ELEVATION
 WDMS.m                 151.80:  WD ELEV
 APD .m                  43.60:  DEPTH ABOVE PD
 DEP .m                4092.57:  DEPTH
 AGAP.m                  43.60:  AIR GAP
 VSEW.m                  -0.67:  VERT SEC E/W
 VSNS.m                  -7.04:  VERT SEC N/S
 EKB .m                  43.60:  KB ELEVATION
 EDF .m                  43.60:  DF ELEVATION
 TDL .m                 957.50:  TOTAL DEPTH (LOGGER)
 VSC .                       0:  VS TO CLOSURE
 MAGU.                 1851413:  MAGUTM CHECKSUM
~Parameter Information Block
#MNEM.UNIT       Value        Description
#---------     -----------    ---------------------------
 AV  .mps                 1.50:  Ann Velocity 
 AVMX.mps                 2.00:  Max Ann Veloc 
 AZIF.deg               184.66:  Azm, Final 
 BHAT.        Rotary Steerable:  BHA Type 
 BREV.rev               300.00:  Rev Bit Total 
 BROT.°/30m              -0.50:  Build Rotating 
 BS  .in                  8.50:  Bit Size 
 BSZ .in                  8.50:  Bit Size 
 BTPL.psig              370.00:  Bit Press Loss 
 CABU.                      No:  Customer Abuse 
 CGEO.      Behruz Shahbaliyev:  Customer Geo 
 COMM.                     ü;x:  Run Comments 1 
 TCS .hr                140.08:  Time Ciculation Ended 
 CV  .mps                 3.00:  Crit Velocity 
 CVMX.mps                 3.20:  Max Crit Veloc 
 DD1 .            Musa Ahmadov:  Direct Drillr 1 
 DD2 .           Hamid Ahmadov:  Direct Drillr 2 
 DDSV.               Geo-Pilot:  DD Service 
 DEFF.%                  98.40:  % Det Eff 
 DLRX.°/30m               3.40:  Dogleg Rot Max 
 DLSO.°/30m               1.45:  Dogleg Oriented 
 DLSX.°/30m               3.40:  Dogleg Str Max 
 DRET.      18.40.00 29-Aug-21:  Drill End Time 
 DRST.      21.00.00 20-Aug-21:  Drill Start Tim 
 DTIM.hr                 69.47:  Time Drilling 
 EDEP.m                5084.50:  End Depth 
 ENG1.      Artemiy Matviyanov:  Engineer 1 
 ENG2.         Almaz Almadatov:  Engineer 2 
 ETIM.      18.40.00 29-Aug-21:  End Time 
 FLOI.gpm               500.00:  Flow In 
 FLON.gpm               400.00:  Flow In Min 
 FLOS.cptm                0.00:  Fluid Loss 
 FLOX.gpm               500.00:  Flow In Max 
 DFT .        Mineral Oil Base:  Mud Type 
 HFLO.                      No:  High Flow 
 HPRE.                      No:  High Pressure 
 HTEM.                      No:  High Temp 
 HYDO.m                   1.80:  Hydro Offset 
 IFIN.deg                25.62:  Inc, Final 
 IMAX.deg                48.69:  Inc Max 
 IMIN.deg                24.01:  Inc Min 
 IMND.m                4962.57:  Inc Min Depth 
 IMXD.m                4119.01:  Inc Max Depth 
 JARR.                      No:  Jarring 
 LETM.      18.40.00 29-Aug-21:  Log End Time 
 LOST.hr                     0:  Lost Rig Time 
 LSTM.      21.00.00 20-Aug-21:  Log Start Time 
 MDCL.ppm             41500.00:  Mud Chlorides 
 MDES.     Inversion Oil/Synthetic:  Mud Desc 
 DFD .sg                  1.56:  Mud Density 
 MDMN.sg                  1.56:  Dens Mud Min 
 MDMX.sg                  1.56:  Dens Mud Max 
 MOIL.                      70:  Run Mud Oil % 
 MOWR.                   70:30:  Run Mud OWR 
 MSND.                     0.2:  Run Mud Sand % 
 MSOL.                    23.3:  Run Mud Solids% 
 DFV .spqt               78.00:  Mud Viscosity 
 MWOD.in                  6.75:  MWD Tool OD 
 MWSI.                      No:  Serv Intrp, MWD 
 OTIM.hr                218.30:  Time Operating 
 PCON.           Look Like New:  Pad Condition 
 PMAX.psia            11015.30:  Press Op, Max 
 PV  .cP                 38.00:  Mud PV 
 RUN .                     300:  Run Number 
 ROPA.m/hr               15.00:  ROP Avg 
 ROPN.m/hr                9.00:  ROP Min 
 ROPX.m/hr               17.00:  ROP Max 
 RPMA.rpm               120.00:  RPM Surface Avg 
 RPMN.rpm                90.00:  RPM Surface Min 
 RPMX.rpm               140.00:  RPM Surface Max 
 RRUN.                     300:  Rig Run Number 
 RTIM.hr                 31.53:  Time Reaming 
 SAZI.deg               331.64:  Azm, Start 
 SDEP.m                4127.00:  Start Depth 
 SIDD.                      No:  Serv Intrp, DD 
 SINC.deg                48.43:  Inc, Start 
 SPPA.psig             5830.00:  SPP Avg 
 SPPN.psig             5600.00:  SPP Min 
 SPPX.psig             5900.00:  SPP Max 
 STIM.      21.00.00 20-Aug-21:  Start Time 
 SVCS.                 DD, MWD:  Services 
 SVER.                    9.20:  Sperry Version 
 TDAT.m                 957.50:  Tot Depth Attmp 
 TDDF.                      No:  Trip for DD 
 TDLG.m                 957.50:  Tot Depth Loggd 
 TFF .                      No:  Trip for Fail 
 TQAA.f-kp               15.00:  Torque Abs Avg 
 TQAN.f-kp               12.00:  Torque Abs Min 
 TQAX.f-kp               19.00:  Torque Abs Max 
 TRRT.°/30m              -3.40:  Turn Rotating 
 MRT .                  EWR-M5:  Maximum Recorded Temperature 
 TTMX.degC              100.00:  Max Tool Temp 
 VS01.                90639251:  Virtual Str1 SN 
 VS02.                90634715:  Virtual Str2 SN 
 VS03.                90652479:  Virtual Str3 SN 
 VS04.                90642262:  Virtual Str4 SN 
 WBMN.klb                 0.00:  WOB Min 
 WITN.           Murad Guliyev:  Customer Rep 
 WITN.          Yashar Gaziyev:  Customer Rep 2 
 WOBA.klb                 9.00:  WOB Avg 
 WOBX.klb                12.00:  WOB Max 
 YP  .lhf2               30.00:  Yield Point 
~Curve Information Block
#MNEM.UNIT                 API CODE     Curve Description
#---------               -----------    ---------------------------
 TIME.HHMMSS            00 000 000 000:  GT Time & Date
 GTDEPTH.m              00 000 000 000:  GT Depth
 GTPQH.psia             00 000 000 000:  GT HR Quartz Pressure
 GTTQ.degC              00 000 000 000:  GT Quartz Temperature
 GTTN.NONE              00 000 000 000:  GT Test Number
 GTET.sec               00 000 000 000:  GT Elapsed Test Time
 GTTVD.m                00 000 000 000:  GT True Vertical Depth
#Other Information
#
#WARRANTY: Halliburton will use its best efforts to furnish customers with 
#accurate information and interpretations that are part of, and incident to, the services 
#provided.  However, Halliburton cannot and does not warrant the accuracy 
#or correctness of such information and interpretations.  Under no circumstances should any 
#such information or interpretation be relied upon as the sole basis for any drilling, 
#completion, production, or financial decision or any procedure involving any risk to the 
#safety of any drilling venture, drilling rig or its crew or any other third party.  The 
#Customer has full responsibility for all drilling, completion and production operation.  
#Halliburton makes no representations or warranties, either expressed or 
#implied, including, but not limited to, the implied warranties of merchantability or fitness 
#for a particular purpose, with respect to the services rendered.  In no event will 
#Halliburton be liable for failure to obtain any particular results or for 
#any damages, including, but not limited to, indirect, special or consequential damages, 
#resulting from the use of any information or interpretation provided by Halliburton.
#
~A           TIME           GTDEPTH  GTPQH  GTTQ  GTTN  GTET   GTTVD  
# ...
   08:10:30.763.27-Aug-2021 4992.50 4260.30 86.94 5.00 230.04 3332.84
   08:10:30.963.27-Aug-2021 4992.50 4260.30 86.94 5.00 230.24 3332.84
   08:10:31.163.27-Aug-2021 4992.50 4260.30 86.94 5.00 230.44 3332.84
   08:10:31.363.27-Aug-2021 4992.50 4260.30 86.94 5.00 230.64 3332.84
   08:10:31.563.27-Aug-2021 4992.50 4260.32 86.94 5.00 230.84 3332.84
   08:10:31.763.27-Aug-2021 4992.50 4260.32 86.94 5.00 231.04 3332.84
   08:10:31.963.27-Aug-2021 4992.50 4260.32 86.94 5.00 231.24 3332.84
   08:10:32.164.27-Aug-2021 4992.50 4260.29 86.94 5.00 231.44 3332.84
   08:10:32.364.27-Aug-2021 4992.50 4260.27 86.94 5.00 231.64 3332.84
   08:10:32.564.27-Aug-2021 4992.50 4260.28 86.94 5.00 231.84 3332.84
   08:10:32.764.27-Aug-2021 4992.50 4260.28 86.94 5.00 232.04 3332.84
   08:10:32.964.27-Aug-2021 4992.50 4260.28 86.94 5.00 232.24 3332.84
   08:10:33.164.27-Aug-2021 4992.50 4260.28 86.94 5.00 232.44 3332.84
   08:10:33.364.27-Aug-2021 4992.50 4260.30 86.94 5.00 232.64 3332.84
   08:10:33.564.27-Aug-2021 4992.50 4260.30 86.94 5.00 232.84 3332.84
   08:10:33.764.27-Aug-2021 4992.50 4260.31 86.94 5.00 233.04 3332.84
   08:10:33.964.27-Aug-2021 4992.50 4260.31 86.94 5.00 233.24 3332.84
   08:10:34.164.27-Aug-2021 4992.50 4260.32 86.94 5.00 233.44 3332.84
   08:10:34.364.27-Aug-2021 4992.50 4260.32 86.94 5.00 233.64 3332.84
   08:10:34.564.27-Aug-2021 4992.50 4260.32 86.94 5.00 233.84 3332.84
   08:10:34.764.27-Aug-2021 4992.50 4260.33 86.94 5.00 234.04 3332.84
   08:10:34.964.27-Aug-2021 4992.50 4260.33 86.94 5.00 234.24 3332.84
   08:10:35.164.27-Aug-2021 4992.50 4260.29 86.94 5.00 234.44 3332.84
   08:10:35.364.27-Aug-2021 4992.50 4260.28 86.94 5.00 234.64 3332.84
   08:10:35.564.27-Aug-2021 4992.50 4260.27 86.94 5.00 234.84 3332.84
   08:10:35.764.27-Aug-2021 4992.50 4260.27 86.94 5.00 235.04 3332.84
   08:10:35.964.27-Aug-2021 4992.50 4260.27 86.94 5.00 235.24 3332.84
   08:10:36.164.27-Aug-2021 4992.50 4260.29 86.94 5.00 235.44 3332.84
   08:10:36.364.27-Aug-2021 4992.50 4260.31 86.94 5.00 235.64 3332.84
   08:10:36.564.27-Aug-2021 4992.50 4260.25 86.94 5.00 235.84 3332.84
   08:10:36.764.27-Aug-2021 4992.50 4260.29 86.94 5.00 236.04 3332.84
   08:10:36.964.27-Aug-2021 4992.50 4260.29 86.94 5.00 236.24 3332.84
   08:10:37.164.27-Aug-2021 4992.50 4260.31 86.94 5.00 236.44 3332.84
   08:10:37.364.27-Aug-2021 4992.50 4260.25 86.94 5.00 236.64 3332.84
   08:10:37.564.27-Aug-2021 4992.50 4260.28 86.94 5.00 236.84 3332.84
   08:10:37.764.27-Aug-2021 4992.50 4260.25 86.94 5.00 237.04 3332.84
   08:10:37.964.27-Aug-2021 4992.50 4260.25 86.94 5.00 237.24 3332.84
   08:10:38.165.27-Aug-2021 4992.50 4260.27 86.94 5.00 237.44 3332.84
   08:10:38.365.27-Aug-2021 4992.50 4260.30 86.94 5.00 237.64 3332.84
   08:10:38.565.27-Aug-2021 4992.50 4260.27 86.94 5.00 237.84 3332.84
   08:10:38.765.27-Aug-2021 4992.50 4260.26 86.94 5.00 238.04 3332.84
   08:10:38.965.27-Aug-2021 4992.50 4260.26 86.94 5.00 238.24 3332.84
   08:10:39.165.27-Aug-2021 4992.50 4260.26 86.94 5.00 238.44 3332.84
   08:10:39.365.27-Aug-2021 4992.50 4260.27 86.94 5.00 238.64 3332.84
   08:10:39.565.27-Aug-2021 4992.50 4260.27 86.94 5.00 238.84 3332.84
   08:10:39.765.27-Aug-2021 4992.50 4260.28 86.94 5.00 239.04 3332.84
   08:10:39.965.27-Aug-2021 4992.50 4260.28 86.94 5.00 239.24 3332.84
   08:10:40.165.27-Aug-2021 4992.50 4260.28 86.94 5.00 239.44 3332.84
   08:10:40.365.27-Aug-2021 4992.50 4260.29 86.94 5.00 239.64 3332.84
   08:10:40.565.27-Aug-2021 4992.50 4260.30 86.94 5.00 239.84 3332.84
   08:10:40.765.27-Aug-2021 4992.50 4260.29 86.94 5.00 240.04 3332.84
   08:10:40.965.27-Aug-2021 4992.50 4260.29 86.94 5.00 240.24 3332.84
   08:10:41.165.27-Aug-2021 4992.50 4260.30 86.94 5.00 240.44 3332.84
   08:10:41.365.27-Aug-2021 4992.50 4260.31 86.94 5.00 240.64 3332.84
   08:10:41.565.27-Aug-2021 4992.50 4260.32 86.94 5.00 240.84 3332.84
   08:10:41.765.27-Aug-2021 4992.50 4260.25 86.94 5.00 241.04 3332.84
   08:10:41.965.27-Aug-2021 4992.50 4260.25 86.94 5.00 241.24 3332.84
   08:10:42.165.27-Aug-2021 4992.50 4260.27 86.94 5.00 241.44 3332.84
   08:10:42.365.27-Aug-2021 4992.50 4260.27 86.94 5.00 241.64 3332.84
   08:10:42.565.27-Aug-2021 4992.50 4260.28 86.94 5.00 241.84 3332.84
   08:10:42.765.27-Aug-2021 4992.50 4260.29 86.94 5.00 242.04 3332.84
   08:10:42.965.27-Aug-2021 4992.50 4260.29 86.94 5.00 242.24 3332.84
   08:10:43.165.27-Aug-2021 4992.50 4260.29 86.94 5.00 242.44 3332.84
   08:10:43.365.27-Aug-2021 4992.50 4260.30 86.94 5.00 242.64 3332.84
   08:10:43.565.27-Aug-2021 4992.50 4260.31 86.94 5.00 242.84 3332.84
   08:10:43.765.27-Aug-2021 4992.50 4260.31 86.94 5.00 243.04 3332.84
   08:10:43.965.27-Aug-2021 4992.50 4260.31 86.94 5.00 243.24 3332.84
   08:10:44.165.27-Aug-2021 4992.50 4260.32 86.94 5.00 243.44 3332.84
   08:10:44.366.27-Aug-2021 4992.50 4260.32 86.94 5.00 243.64 3332.84
   08:10:44.566.27-Aug-2021 4992.50 4260.32 86.94 5.00 243.84 3332.84
   08:10:44.766.27-Aug-2021 4992.50 4260.34 86.94 5.00 244.04 3332.84
   08:10:44.966.27-Aug-2021 4992.50 4260.34 86.94 5.00 244.24 3332.84
   08:10:45.166.27-Aug-2021 4992.50 4260.27 86.94 5.00 244.44 3332.84
   08:10:45.366.27-Aug-2021 4992.50 4260.27 86.94 5.00 244.64 3332.84
   08:10:45.566.27-Aug-2021 4992.50 4260.28 86.94 5.00 244.84 3332.84
   08:10:45.766.27-Aug-2021 4992.50 4260.28 86.94 5.00 245.04 3332.84
   08:10:45.966.27-Aug-2021 4992.50 4260.28 86.94 5.00 245.24 3332.84
   08:10:46.166.27-Aug-2021 4992.50 4260.31 86.94 5.00 245.44 3332.84
   08:10:46.366.27-Aug-2021 4992.50 4260.25 86.94 5.00 245.64 3332.84
   08:10:46.566.27-Aug-2021 4992.50 4260.29 86.94 5.00 245.84 3332.84
   08:10:46.766.27-Aug-2021 4992.50 4260.26 86.94 5.00 246.04 3332.84
   08:10:46.966.27-Aug-2021 4992.50 4260.26 86.94 5.00 246.24 3332.84
   08:10:47.166.27-Aug-2021 4992.50 4260.24 86.94 5.00 246.44 3332.84
   08:10:47.366.27-Aug-2021 4992.50 4260.26 86.94 5.00 246.64 3332.84
   08:10:47.566.27-Aug-2021 4992.50 4260.25 86.94 5.00 246.84 3332.84
   08:10:47.766.27-Aug-2021 4992.50 4260.26 86.94 5.00 247.04 3332.84
   08:10:47.966.27-Aug-2021 4992.50 4260.26 86.94 5.00 247.24 3332.84
   08:10:48.166.27-Aug-2021 4992.50 4260.29 86.94 5.00 247.44 3332.84
   08:10:48.366.27-Aug-2021 4992.50 4260.27 86.94 5.00 247.64 3332.84
   08:10:48.566.27-Aug-2021 4992.50 4260.26 86.94 5.00 247.84 3332.84
   08:10:48.766.27-Aug-2021 4992.50 4260.25 86.94 5.00 248.04 3332.84
   08:10:48.966.27-Aug-2021 4992.50 4260.25 86.94 5.00 248.24 3332.84
   08:10:49.166.27-Aug-2021 4992.50 4260.28 86.94 5.00 248.44 3332.84
   08:10:49.366.27-Aug-2021 4992.50 4260.27 86.94 5.00 248.64 3332.84
   08:10:49.566.27-Aug-2021 4992.50 4260.27 86.94 5.00 248.84 3332.84
   08:10:49.766.27-Aug-2021 4992.50 4260.28 86.94 5.00 249.04 3332.84
   08:10:49.966.27-Aug-2021 4992.50 4260.28 86.94 5.00 249.24 3332.84
   08:10:50.166.27-Aug-2021 4992.50 4260.28 86.94 5.00 249.44 3332.84
   08:10:50.367.27-Aug-2021 4992.50 4260.30 86.94 5.00 249.64 3332.84
   08:10:50.567.27-Aug-2021 4992.50 4260.29 86.94 5.00 249.84 3332.84
   08:10:50.767.27-Aug-2021 4992.50 4260.30 86.94 5.00 250.04 3332.84
   08:10:50.967.27-Aug-2021 4992.50 4260.30 86.94 5.00 250.24 3332.84
   08:10:51.167.27-Aug-2021 4992.50 4260.31 86.94 5.00 250.44 3332.84
   08:10:51.367.27-Aug-2021 4992.50 4260.32 86.94 5.00 250.64 3332.84
   08:10:51.567.27-Aug-2021 4992.50 4260.25 86.94 5.00 250.84 3332.84
   08:10:51.767.27-Aug-2021 4992.50 4260.29 86.94 5.00 251.04 3332.84
   08:10:51.967.27-Aug-2021 4992.50 4260.29 86.94 5.00 251.24 3332.84
   08:10:52.167.27-Aug-2021 4992.50 4260.27 86.94 5.00 251.44 3332.84
   08:10:52.367.27-Aug-2021 4992.50 4260.27 86.94 5.00 251.64 3332.84
   08:10:52.567.27-Aug-2021 4992.50 4260.28 86.94 5.00 251.84 3332.84
   08:10:52.767.27-Aug-2021 4992.50 4260.28 86.94 5.00 252.04 3332.84
   08:10:52.967.27-Aug-2021 4992.50 4260.28 86.94 5.00 252.24 3332.84
   08:10:53.167.27-Aug-2021 4992.50 4260.30 86.94 5.00 252.44 3332.84
   08:10:53.367.27-Aug-2021 4992.50 4260.30 86.94 5.00 252.64 3332.84
   08:10:53.567.27-Aug-2021 4992.50 4260.31 86.94 5.00 252.84 3332.84
