~Version Information
 VERS.                  2.0:   CWLS log ASCII Standard -VERSION 2.0
 WRAP.                   NO:   One line per depth step
~Well Information Block
#MNEM.UNIT     VALUE/NAME     DESCRIPTION
#---------     -----------    ---------------------------
 STRT.S             19:41:39 27-Aug-21: START TIME 19:41:39 27-Aug-21
 STOP.S             19:48:52 27-Aug-21: STOP TIME  19:48:52 27-Aug-21
 STEP.S                   0.00: STEP TIME
 NULL.                 -999.25: NULL VALUE
 DFWT.                        :  DIST FWL TEXT
 DFST.                        :  DIST FSL TEXT
 DMF .             Drill Floor:  DRILL MEAS FROM
 STIM.      20.00.00 17-Aug-21:  START TIME
 DATE.      19.00.00 29-Aug-21:  END TIME
 SPUD.               15-Aug-21:  SPUD DATE
 NREF.                    Grid:  NORTH REFERENCE
 HPTY.       Minimum Curvature:  HOLE POS TYPE
 DMOD.             Drill Model:  DRILL MOD DESC
 SVYD.                  Survey:  SURVEY DESC
 ILTD.               Lithology:  INTERP LTH DESC
 FTOP.          Formation Tops:  FORM TOPS DESC
 RIG .              East Azeri:  RIG NAME
 PDAT.          Mean Sea Level:  PERMANENT DATUM
 FLD .                     ACG:  FIELD NAME
 SON .        AZ-XX-0907180857:  JOB NUMBER
 CTRY.              Azerbaijan:  COUNTRY NAME
 WELL.                    D23x:  WELL NAME
 SRVC.     Turan Drilling and Engineering:  CONTRACTOR
 COMP.     BP Exploration (Caspian Sea) Ltd.:  COMPANY
 UWI .            /AZE00000214:  UNIQUE WELL IDENTIFIER
 API .            /AZE00000214:  API NUMBER
 MDS .        Operator Entered:  MAG DATA SOURCE
 BASE.              Azerbaijan:  LOGGING EQUIPMENT BASE LOCATION
 REGN.                   EESSA:  REGION
 PROV.                    Baku:  PROVINCE
 STAT.                    Baku:  STATE NAME
 MWDS.                    Baku:  MWD SHOP
 DOE .                     N/A:  DOE NUMBER
 DCON.         Sperry Drilling:  DIRECTNL CONTR
 UNIT.                     N/A:  LOGGING EQUIPMENT ID
 WTYP.                Deviated:  WELL TYPE
 CNTY.                        :  COUNTY
 LOC .                        :  LOCATION
 LMF .             Drill Floor:  LOG MEASURED FROM
 TVDS.m                  43.60:  TVDSS CORRECTN
 LATI.deg                40.02:  LATITUDE
 LONG.deg                51.45:  LONGITUDE
 WHNS.m                  -7.04:  WELL HEAD N/S
 WHEW.m                  -0.67:  WELL HEAD E/W
 UTMX.m              538762.90:  UTM X
 UTMY.m             4431871.34:  UTM Y
 DFWL.m                   0.00:  DISTANCE FWL
 DFSL.m                   0.00:  DISTANCE FSL
 SDEP.m                4127.00:  START DEPTH
 TDD .m                5084.50:  TOTAL DEPTH (DRILLER)
 VSDR.deg               140.47:  VERT SEC DIRECT
 GVFD.g                   1.00:  GRAVITY FIELD
 MFLD.nT              50362.00:  MAGNETIC FIELD
 MDIP.deg                59.48:  MAGNETIC DIP
 MDEC.deg                 6.47:  MAGNETIC DECL
 GRDC.deg                 0.31:  GRID CORRECTION
 AZTC.deg                 6.16:  AZM TOTAL CORR
 EPD .m                   0.00:  ELEVATION
 EGL .m                   0.00:  GROUND ELEVATION
 WDMS.m                 151.80:  WD ELEV
 APD .m                  43.60:  DEPTH ABOVE PD
 DEP .m                4092.57:  DEPTH
 AGAP.m                  43.60:  AIR GAP
 VSEW.m                  -0.67:  VERT SEC E/W
 VSNS.m                  -7.04:  VERT SEC N/S
 EKB .m                  43.60:  KB ELEVATION
 EDF .m                  43.60:  DF ELEVATION
 TDL .m                 957.50:  TOTAL DEPTH (LOGGER)
 VSC .                       0:  VS TO CLOSURE
 MAGU.                 1851413:  MAGUTM CHECKSUM
~Parameter Information Block
#MNEM.UNIT       Value        Description
#---------     -----------    ---------------------------
 AV  .mps                 1.50:  Ann Velocity 
 AVMX.mps                 2.00:  Max Ann Veloc 
 AZIF.deg               184.66:  Azm, Final 
 BHAT.        Rotary Steerable:  BHA Type 
 BREV.rev               300.00:  Rev Bit Total 
 BROT.°/30m              -0.50:  Build Rotating 
 BS  .in                  8.50:  Bit Size 
 BSZ .in                  8.50:  Bit Size 
 BTPL.psig              370.00:  Bit Press Loss 
 CABU.                      No:  Customer Abuse 
 CGEO.      Behruz Shahbaliyev:  Customer Geo 
 COMM.                     ,‰€:  Run Comments 1 
 TCS .hr                140.08:  Time Ciculation Ended 
 CV  .mps                 3.00:  Crit Velocity 
 CVMX.mps                 3.20:  Max Crit Veloc 
 DD1 .            Musa Ahmadov:  Direct Drillr 1 
 DD2 .           Hamid Ahmadov:  Direct Drillr 2 
 DDSV.               Geo-Pilot:  DD Service 
 DEFF.%                  98.40:  % Det Eff 
 DLRX.°/30m               3.40:  Dogleg Rot Max 
 DLSO.°/30m               1.45:  Dogleg Oriented 
 DLSX.°/30m               3.40:  Dogleg Str Max 
 DRET.      18.40.00 29-Aug-21:  Drill End Time 
 DRST.      21.00.00 20-Aug-21:  Drill Start Tim 
 DTIM.hr                 69.47:  Time Drilling 
 EDEP.m                5084.50:  End Depth 
 ENG1.      Artemiy Matviyanov:  Engineer 1 
 ENG2.         Almaz Almadatov:  Engineer 2 
 ETIM.      18.40.00 29-Aug-21:  End Time 
 FLOI.gpm               500.00:  Flow In 
 FLON.gpm               400.00:  Flow In Min 
 FLOS.cptm                0.00:  Fluid Loss 
 FLOX.gpm               500.00:  Flow In Max 
 DFT .        Mineral Oil Base:  Mud Type 
 HFLO.                      No:  High Flow 
 HPRE.                      No:  High Pressure 
 HTEM.                      No:  High Temp 
 HYDO.m                   1.80:  Hydro Offset 
 IFIN.deg                25.62:  Inc, Final 
 IMAX.deg                48.69:  Inc Max 
 IMIN.deg                24.01:  Inc Min 
 IMND.m                4962.57:  Inc Min Depth 
 IMXD.m                4119.01:  Inc Max Depth 
 JARR.                      No:  Jarring 
 LETM.      18.40.00 29-Aug-21:  Log End Time 
 LOST.hr                     0:  Lost Rig Time 
 LSTM.      21.00.00 20-Aug-21:  Log Start Time 
 MDCL.ppm             41500.00:  Mud Chlorides 
 MDES.     Inversion Oil/Synthetic:  Mud Desc 
 DFD .sg                  1.56:  Mud Density 
 MDMN.sg                  1.56:  Dens Mud Min 
 MDMX.sg                  1.56:  Dens Mud Max 
 MOIL.                      70:  Run Mud Oil % 
 MOWR.                   70:30:  Run Mud OWR 
 MSND.                     0.2:  Run Mud Sand % 
 MSOL.                    23.3:  Run Mud Solids% 
 DFV .spqt               78.00:  Mud Viscosity 
 MWOD.in                  6.75:  MWD Tool OD 
 MWSI.                      No:  Serv Intrp, MWD 
 OTIM.hr                218.30:  Time Operating 
 PCON.           Look Like New:  Pad Condition 
 PMAX.psia            11015.30:  Press Op, Max 
 PV  .cP                 38.00:  Mud PV 
 RUN .                     300:  Run Number 
 ROPA.m/hr               15.00:  ROP Avg 
 ROPN.m/hr                9.00:  ROP Min 
 ROPX.m/hr               17.00:  ROP Max 
 RPMA.rpm               120.00:  RPM Surface Avg 
 RPMN.rpm                90.00:  RPM Surface Min 
 RPMX.rpm               140.00:  RPM Surface Max 
 RRUN.                     300:  Rig Run Number 
 RTIM.hr                 31.53:  Time Reaming 
 SAZI.deg               331.64:  Azm, Start 
 SDEP.m                4127.00:  Start Depth 
 SIDD.                      No:  Serv Intrp, DD 
 SINC.deg                48.43:  Inc, Start 
 SPPA.psig             5830.00:  SPP Avg 
 SPPN.psig             5600.00:  SPP Min 
 SPPX.psig             5900.00:  SPP Max 
 STIM.      21.00.00 20-Aug-21:  Start Time 
 SVCS.                 DD, MWD:  Services 
 SVER.                    9.20:  Sperry Version 
 TDAT.m                 957.50:  Tot Depth Attmp 
 TDDF.                      No:  Trip for DD 
 TDLG.m                 957.50:  Tot Depth Loggd 
 TFF .                      No:  Trip for Fail 
 TQAA.f-kp               15.00:  Torque Abs Avg 
 TQAN.f-kp               12.00:  Torque Abs Min 
 TQAX.f-kp               19.00:  Torque Abs Max 
 TRRT.°/30m              -3.40:  Turn Rotating 
 MRT .                  EWR-M5:  Maximum Recorded Temperature 
 TTMX.degC              100.00:  Max Tool Temp 
 VS01.                90639251:  Virtual Str1 SN 
 VS02.                90634715:  Virtual Str2 SN 
 VS03.                90652479:  Virtual Str3 SN 
 VS04.                90642262:  Virtual Str4 SN 
 WBMN.klb                 0.00:  WOB Min 
 WITN.           Murad Guliyev:  Customer Rep 
 WITN.          Yashar Gaziyev:  Customer Rep 2 
 WOBA.klb                 9.00:  WOB Avg 
 WOBX.klb                12.00:  WOB Max 
 YP  .lhf2               30.00:  Yield Point 
~Curve Information Block
#MNEM.UNIT                 API CODE     Curve Description
#---------               -----------    ---------------------------
 TIME.HHMMSS            00 000 000 000:  GT Time & Date
 GTDEPTH.m              00 000 000 000:  GT Depth
 GTPQH.psia             00 000 000 000:  GT HR Quartz Pressure
 GTTQ.degC              00 000 000 000:  GT Quartz Temperature
 GTTN.NONE              00 000 000 000:  GT Test Number
 GTET.sec               00 000 000 000:  GT Elapsed Test Time
 GTTVD.m                00 000 000 000:  GT True Vertical Depth
#Other Information
#
#WARRANTY: Halliburton will use its best efforts to furnish customers with 
#accurate information and interpretations that are part of, and incident to, the services 
#provided.  However, Halliburton cannot and does not warrant the accuracy 
#or correctness of such information and interpretations.  Under no circumstances should any 
#such information or interpretation be relied upon as the sole basis for any drilling, 
#completion, production, or financial decision or any procedure involving any risk to the 
#safety of any drilling venture, drilling rig or its crew or any other third party.  The 
#Customer has full responsibility for all drilling, completion and production operation.  
#Halliburton makes no representations or warranties, either expressed or 
#implied, including, but not limited to, the implied warranties of merchantability or fitness 
#for a particular purpose, with respect to the services rendered.  In no event will 
#Halliburton be liable for failure to obtain any particular results or for 
#any damages, including, but not limited to, indirect, special or consequential damages, 
#resulting from the use of any information or interpretation provided by Halliburton.
#
~A           TIME           GTDEPTH  GTPQH  GTTQ  GTTN   GTET   GTTVD  
# ...
   19:42:24.200.27-Aug-2021 4678.50 7247.56 82.39 21.00  45.20 3048.11
   19:42:24.400.27-Aug-2021 4678.50 7113.55 82.39 21.00  45.40 3048.11
   19:42:24.600.27-Aug-2021 4678.50 6985.91 82.39 21.00  45.60 3048.11
   19:42:24.800.27-Aug-2021 4678.50 6850.00 82.39 21.00  45.80 3048.11
   19:42:25.000.27-Aug-2021 4678.50 6707.97 82.39 21.00  46.00 3048.11
   19:42:25.200.27-Aug-2021 4678.50 6707.97 82.39 21.00  46.20 3048.11
   19:42:25.400.27-Aug-2021 4678.50 6567.33 82.39 21.00  46.40 3048.11
   19:42:25.600.27-Aug-2021 4678.50 6285.65 82.39 21.00  46.60 3048.11
   19:42:25.800.27-Aug-2021 4678.50 6142.16 82.39 21.00  46.80 3048.11
   19:42:26.000.27-Aug-2021 4678.50 5987.70 82.39 21.00  47.00 3048.11
   19:42:26.200.27-Aug-2021 4678.50 5987.70 82.39 21.00  47.20 3048.11
   19:42:26.400.27-Aug-2021 4678.50 5726.56 82.39 21.00  47.40 3048.11
   19:42:26.600.27-Aug-2021 4678.50 5680.78 82.39 21.00  47.60 3048.11
   19:42:26.800.27-Aug-2021 4678.50 5664.01 82.39 21.00  47.80 3048.11
   19:42:27.000.27-Aug-2021 4678.50 5454.44 82.39 21.00  48.00 3048.11
   19:42:27.200.27-Aug-2021 4678.50 5454.44 82.39 21.00  48.20 3048.11
   19:42:27.400.27-Aug-2021 4678.50 5065.53 82.38 21.00  48.40 3048.11
   19:42:27.600.27-Aug-2021 4678.50 4926.97 82.38 21.00  48.60 3048.11
   19:42:27.800.27-Aug-2021 4678.50 4853.62 82.38 21.00  48.80 3048.11
   19:42:28.000.27-Aug-2021 4678.50 4794.36 82.38 21.00  49.00 3048.11
   19:42:28.200.27-Aug-2021 4678.50 4794.36 82.38 21.00  49.20 3048.11
   19:42:28.400.27-Aug-2021 4678.50 4687.00 82.38 21.00  49.40 3048.11
   19:42:28.600.27-Aug-2021 4678.50 4632.34 82.37 21.00  49.60 3048.11
   19:42:28.800.27-Aug-2021 4678.50 4588.03 82.37 21.00  49.80 3048.11
   19:42:29.000.27-Aug-2021 4678.50 4565.76 82.37 21.00  50.00 3048.11
   19:42:29.200.27-Aug-2021 4678.50 4565.76 82.37 21.00  50.20 3048.11
   19:42:29.400.27-Aug-2021 4678.50 4519.92 82.37 21.00  50.40 3048.11
   19:42:29.600.27-Aug-2021 4678.50 4496.79 82.37 21.00  50.60 3048.11
   19:42:29.800.27-Aug-2021 4678.50 4469.37 82.36 21.00  50.80 3048.11
   19:42:30.000.27-Aug-2021 4678.50 4444.93 82.36 21.00  51.00 3048.11
   19:42:30.200.27-Aug-2021 4678.50 4444.93 82.36 21.00  51.20 3048.11
   19:42:30.400.27-Aug-2021 4678.50 4410.84 82.36 21.00  51.40 3048.11
   19:42:30.600.27-Aug-2021 4678.50 4405.66 82.36 21.00  51.60 3048.11
   19:42:30.800.27-Aug-2021 4678.50 4393.20 82.35 21.00  51.80 3048.11
   19:42:31.000.27-Aug-2021 4678.50 4389.45 82.35 21.00  52.00 3048.11
   19:42:31.200.27-Aug-2021 4678.50 4389.45 82.35 21.00  52.20 3048.11
   19:42:31.400.27-Aug-2021 4678.50 4397.47 82.35 21.00  52.40 3048.11
   19:42:31.600.27-Aug-2021 4678.50 4402.33 82.35 21.00  52.60 3048.11
   19:42:31.800.27-Aug-2021 4678.50 4405.59 82.35 21.00  52.80 3048.11
   19:42:32.000.27-Aug-2021 4678.50 4407.98 82.34 21.00  53.00 3048.11
   19:42:32.200.27-Aug-2021 4678.50 4407.98 82.34 21.00  53.20 3048.11
   19:42:32.400.27-Aug-2021 4678.50 4408.78 82.34 21.00  53.40 3048.11
   19:42:32.600.27-Aug-2021 4678.50 4409.17 82.34 21.00  53.60 3048.11
   19:42:32.800.27-Aug-2021 4678.50 4408.29 82.34 21.00  53.80 3048.11
   19:42:33.000.27-Aug-2021 4678.50 4407.95 82.34 21.00  54.00 3048.11
   19:42:33.200.27-Aug-2021 4678.50 4407.95 82.34 21.00  54.20 3048.11
   19:42:33.400.27-Aug-2021 4678.50 4408.13 82.33 21.00  54.40 3048.11
   19:42:33.600.27-Aug-2021 4678.50 4408.73 82.33 21.00  54.60 3048.11
   19:42:33.800.27-Aug-2021 4678.50 4407.85 82.33 21.00  54.80 3048.11
   19:42:34.000.27-Aug-2021 4678.50 4407.99 82.33 21.00  55.00 3048.11
   19:42:34.200.27-Aug-2021 4678.50 4407.99 82.33 21.00  55.20 3048.11
   19:42:34.400.27-Aug-2021 4678.50 4408.45 82.33 21.00  55.40 3048.11
   19:42:34.600.27-Aug-2021 4678.50 4408.51 82.33 21.00  55.60 3048.11
   19:42:34.800.27-Aug-2021 4678.50 4408.46 82.33 21.00  55.80 3048.11
   19:42:35.000.27-Aug-2021 4678.50 4408.48 82.32 21.00  56.00 3048.11
   19:42:35.200.27-Aug-2021 4678.50 4408.48 82.32 21.00  56.20 3048.11
   19:42:35.400.27-Aug-2021 4678.50 4395.76 82.32 21.00  56.40 3048.11
   19:42:35.600.27-Aug-2021 4678.50 4312.79 82.32 21.00  56.60 3048.11
   19:42:35.800.27-Aug-2021 4678.50 4102.53 82.32 21.00  56.80 3048.11
   19:42:36.000.27-Aug-2021 4678.50 4095.03 82.32 21.00  57.00 3048.11
   19:42:36.200.27-Aug-2021 4678.50 4095.03 82.32 21.00  57.20 3048.11
   19:42:36.400.27-Aug-2021 4678.50 4111.89 82.32 21.00  57.40 3048.11
   19:42:36.600.27-Aug-2021 4678.50 4121.41 82.32 21.00  57.60 3048.11
   19:42:36.800.27-Aug-2021 4678.50 4125.36 82.32 21.00  57.80 3048.11
   19:42:37.000.27-Aug-2021 4678.50 4126.21 82.32 21.00  58.00 3048.11
   19:42:37.200.27-Aug-2021 4678.50 4126.21 82.32 21.00  58.20 3048.11
   19:42:37.400.27-Aug-2021 4678.50 4129.74 82.32 21.00  58.40 3048.11
   19:42:37.600.27-Aug-2021 4678.50 4131.77 82.32 21.00  58.60 3048.11
   19:42:37.800.27-Aug-2021 4678.50 4131.27 82.32 21.00  58.80 3048.11
   19:42:38.000.27-Aug-2021 4678.50 4133.69 82.31 21.00  59.00 3048.11
   19:42:38.200.27-Aug-2021 4678.50 4133.69 82.31 21.00  59.20 3048.11
   19:42:38.400.27-Aug-2021 4678.50 4134.46 82.31 21.00  59.40 3048.11
   19:42:38.600.27-Aug-2021 4678.50 4134.10 82.31 21.00  59.60 3048.11
   19:42:38.800.27-Aug-2021 4678.50 4134.85 82.31 21.00  59.80 3048.11
   19:42:39.000.27-Aug-2021 4678.50 4134.48 82.31 21.00  60.00 3048.11
   19:42:39.200.27-Aug-2021 4678.50 4134.48 82.31 21.00  60.20 3048.11
   19:42:39.400.27-Aug-2021 4678.50 4135.61 82.31 21.00  60.40 3048.11
   19:42:39.600.27-Aug-2021 4678.50 4134.30 82.31 21.00  60.60 3048.11
   19:42:39.800.27-Aug-2021 4678.50 4136.23 82.31 21.00  60.80 3048.11
   19:42:40.000.27-Aug-2021 4678.50 4135.69 82.31 21.00  61.00 3048.11
   19:42:40.200.27-Aug-2021 4678.50 4135.69 82.31 21.00  61.20 3048.11
   19:42:40.400.27-Aug-2021 4678.50 4134.08 82.31 21.00  61.40 3048.11
   19:42:40.600.27-Aug-2021 4678.50 4137.60 82.31 21.00  61.60 3048.11
   19:42:40.800.27-Aug-2021 4678.50 4136.35 82.31 21.00  61.80 3048.11
   19:42:41.000.27-Aug-2021 4678.50 4137.73 82.31 21.00  62.00 3048.11
   19:42:41.200.27-Aug-2021 4678.50 4137.73 82.31 21.00  62.20 3048.11
   19:42:41.400.27-Aug-2021 4678.50 4136.13 82.31 21.00  62.40 3048.11
   19:42:41.600.27-Aug-2021 4678.50 4138.59 82.31 21.00  62.60 3048.11
   19:42:41.800.27-Aug-2021 4678.50 4136.91 82.31 21.00  62.80 3048.11
   19:42:42.000.27-Aug-2021 4678.50 4136.66 82.31 21.00  63.00 3048.11
   19:42:42.200.27-Aug-2021 4678.50 4136.66 82.31 21.00  63.20 3048.11
   19:42:42.400.27-Aug-2021 4678.50 4138.90 82.31 21.00  63.40 3048.11
   19:42:42.600.27-Aug-2021 4678.50 4137.27 82.31 21.00  63.60 3048.11
   19:42:42.800.27-Aug-2021 4678.50 4138.59 82.31 21.00  63.80 3048.11
   19:42:43.000.27-Aug-2021 4678.50 4136.02 82.31 21.00  64.00 3048.11
   19:42:43.200.27-Aug-2021 4678.50 4136.02 82.31 21.00  64.20 3048.11
   19:42:43.400.27-Aug-2021 4678.50 4139.57 82.31 21.00  64.40 3048.11
   19:42:43.600.27-Aug-2021 4678.50 4139.11 82.31 21.00  64.60 3048.11
   19:42:43.800.27-Aug-2021 4678.50 4136.22 82.31 21.00  64.80 3048.11
   19:42:44.000.27-Aug-2021 4678.50 4139.20 82.31 21.00  65.00 3048.11
   19:42:44.200.27-Aug-2021 4678.50 4139.20 82.31 21.00  65.20 3048.11
   19:42:44.400.27-Aug-2021 4678.50 4138.90 82.31 21.00  65.40 3048.11
   19:42:44.600.27-Aug-2021 4678.50 4137.70 82.31 21.00  65.60 3048.11
   19:42:44.800.27-Aug-2021 4678.50 4139.16 82.31 21.00  65.80 3048.11
   19:42:45.000.27-Aug-2021 4678.50 4138.03 82.31 21.00  66.00 3048.11
   19:42:45.200.27-Aug-2021 4678.50 4138.03 82.31 21.00  66.20 3048.11
   19:42:45.400.27-Aug-2021 4678.50 4138.74 82.31 21.00  66.40 3048.11
   19:42:45.600.27-Aug-2021 4678.50 4385.53 82.31 21.00  66.60 3048.11
   19:42:45.800.27-Aug-2021 4678.50 4400.19 82.31 21.00  66.80 3048.11
   19:42:46.000.27-Aug-2021 4678.50 4402.05 82.31 21.00  67.00 3048.11
   19:42:46.200.27-Aug-2021 4678.50 4402.05 82.31 21.00  67.20 3048.11
   19:42:46.400.27-Aug-2021 4678.50 4403.56 82.31 21.00  67.40 3048.11
   19:42:46.600.27-Aug-2021 4678.50 4403.79 82.31 21.00  67.60 3048.11
