~Version Information
 VERS.                  2.0:   CWLS log ASCII Standard -VERSION 2.0
 WRAP.                   NO:   One line per depth step
~Well Information Block
#MNEM.UNIT     VALUE/NAME     DESCRIPTION
#---------     -----------    ---------------------------
 STRT.S             09:25:17 27-Aug-21: START TIME 09:25:17 27-Aug-21
 STOP.S             09:32:27 27-Aug-21: STOP TIME  09:32:27 27-Aug-21
 STEP.S                   0.00: STEP TIME
 NULL.                 -999.25: NULL VALUE
 DFWT.                        :  DIST FWL TEXT
 DFST.                        :  DIST FSL TEXT
 DMF .             Drill Floor:  DRILL MEAS FROM
 STIM.      20.00.00 17-Aug-21:  START TIME
 DATE.      19.00.00 29-Aug-21:  END TIME
 SPUD.               15-Aug-21:  SPUD DATE
 NREF.                    Grid:  NORTH REFERENCE
 HPTY.       Minimum Curvature:  HOLE POS TYPE
 DMOD.             Drill Model:  DRILL MOD DESC
 SVYD.                  Survey:  SURVEY DESC
 ILTD.               Lithology:  INTERP LTH DESC
 FTOP.          Formation Tops:  FORM TOPS DESC
 RIG .              East Azeri:  RIG NAME
 PDAT.          Mean Sea Level:  PERMANENT DATUM
 FLD .                     ACG:  FIELD NAME
 SON .        AZ-XX-0907180857:  JOB NUMBER
 CTRY.              Azerbaijan:  COUNTRY NAME
 WELL.                    D23x:  WELL NAME
 SRVC.     Turan Drilling and Engineering:  CONTRACTOR
 COMP.     BP Exploration (Caspian Sea) Ltd.:  COMPANY
 UWI .            /AZE00000214:  UNIQUE WELL IDENTIFIER
 API .            /AZE00000214:  API NUMBER
 MDS .        Operator Entered:  MAG DATA SOURCE
 BASE.              Azerbaijan:  LOGGING EQUIPMENT BASE LOCATION
 REGN.                   EESSA:  REGION
 PROV.                    Baku:  PROVINCE
 STAT.                    Baku:  STATE NAME
 MWDS.                    Baku:  MWD SHOP
 DOE .                     N/A:  DOE NUMBER
 DCON.         Sperry Drilling:  DIRECTNL CONTR
 UNIT.                     N/A:  LOGGING EQUIPMENT ID
 WTYP.                Deviated:  WELL TYPE
 CNTY.                        :  COUNTY
 LOC .                        :  LOCATION
 LMF .             Drill Floor:  LOG MEASURED FROM
 TVDS.m                  43.60:  TVDSS CORRECTN
 LATI.deg                40.02:  LATITUDE
 LONG.deg                51.45:  LONGITUDE
 WHNS.m                  -7.04:  WELL HEAD N/S
 WHEW.m                  -0.67:  WELL HEAD E/W
 UTMX.m              538762.90:  UTM X
 UTMY.m             4431871.34:  UTM Y
 DFWL.m                   0.00:  DISTANCE FWL
 DFSL.m                   0.00:  DISTANCE FSL
 SDEP.m                4127.00:  START DEPTH
 TDD .m                5084.50:  TOTAL DEPTH (DRILLER)
 VSDR.deg               140.47:  VERT SEC DIRECT
 GVFD.g                   1.00:  GRAVITY FIELD
 MFLD.nT              50362.00:  MAGNETIC FIELD
 MDIP.deg                59.48:  MAGNETIC DIP
 MDEC.deg                 6.47:  MAGNETIC DECL
 GRDC.deg                 0.31:  GRID CORRECTION
 AZTC.deg                 6.16:  AZM TOTAL CORR
 EPD .m                   0.00:  ELEVATION
 EGL .m                   0.00:  GROUND ELEVATION
 WDMS.m                 151.80:  WD ELEV
 APD .m                  43.60:  DEPTH ABOVE PD
 DEP .m                4092.57:  DEPTH
 AGAP.m                  43.60:  AIR GAP
 VSEW.m                  -0.67:  VERT SEC E/W
 VSNS.m                  -7.04:  VERT SEC N/S
 EKB .m                  43.60:  KB ELEVATION
 EDF .m                  43.60:  DF ELEVATION
 TDL .m                 957.50:  TOTAL DEPTH (LOGGER)
 VSC .                       0:  VS TO CLOSURE
 MAGU.                 1851413:  MAGUTM CHECKSUM
~Parameter Information Block
#MNEM.UNIT       Value        Description
#---------     -----------    ---------------------------
 AV  .mps                 1.50:  Ann Velocity 
 AVMX.mps                 2.00:  Max Ann Veloc 
 AZIF.deg               184.66:  Azm, Final 
 BHAT.        Rotary Steerable:  BHA Type 
 BREV.rev               300.00:  Rev Bit Total 
 BROT.°/30m              -0.50:  Build Rotating 
 BS  .in                  8.50:  Bit Size 
 BSZ .in                  8.50:  Bit Size 
 BTPL.psig              370.00:  Bit Press Loss 
 CABU.                      No:  Customer Abuse 
 CGEO.      Behruz Shahbaliyev:  Customer Geo 
 COMM.                     TD\:  Run Comments 1 
 TCS .hr                140.08:  Time Ciculation Ended 
 CV  .mps                 3.00:  Crit Velocity 
 CVMX.mps                 3.20:  Max Crit Veloc 
 DD1 .            Musa Ahmadov:  Direct Drillr 1 
 DD2 .           Hamid Ahmadov:  Direct Drillr 2 
 DDSV.               Geo-Pilot:  DD Service 
 DEFF.%                  98.40:  % Det Eff 
 DLRX.°/30m               3.40:  Dogleg Rot Max 
 DLSO.°/30m               1.45:  Dogleg Oriented 
 DLSX.°/30m               3.40:  Dogleg Str Max 
 DRET.      18.40.00 29-Aug-21:  Drill End Time 
 DRST.      21.00.00 20-Aug-21:  Drill Start Tim 
 DTIM.hr                 69.47:  Time Drilling 
 EDEP.m                5084.50:  End Depth 
 ENG1.      Artemiy Matviyanov:  Engineer 1 
 ENG2.         Almaz Almadatov:  Engineer 2 
 ETIM.      18.40.00 29-Aug-21:  End Time 
 FLOI.gpm               500.00:  Flow In 
 FLON.gpm               400.00:  Flow In Min 
 FLOS.cptm                0.00:  Fluid Loss 
 FLOX.gpm               500.00:  Flow In Max 
 DFT .        Mineral Oil Base:  Mud Type 
 HFLO.                      No:  High Flow 
 HPRE.                      No:  High Pressure 
 HTEM.                      No:  High Temp 
 HYDO.m                   1.80:  Hydro Offset 
 IFIN.deg                25.62:  Inc, Final 
 IMAX.deg                48.69:  Inc Max 
 IMIN.deg                24.01:  Inc Min 
 IMND.m                4962.57:  Inc Min Depth 
 IMXD.m                4119.01:  Inc Max Depth 
 JARR.                      No:  Jarring 
 LETM.      18.40.00 29-Aug-21:  Log End Time 
 LOST.hr                     0:  Lost Rig Time 
 LSTM.      21.00.00 20-Aug-21:  Log Start Time 
 MDCL.ppm             41500.00:  Mud Chlorides 
 MDES.     Inversion Oil/Synthetic:  Mud Desc 
 DFD .sg                  1.56:  Mud Density 
 MDMN.sg                  1.56:  Dens Mud Min 
 MDMX.sg                  1.56:  Dens Mud Max 
 MOIL.                      70:  Run Mud Oil % 
 MOWR.                   70:30:  Run Mud OWR 
 MSND.                     0.2:  Run Mud Sand % 
 MSOL.                    23.3:  Run Mud Solids% 
 DFV .spqt               78.00:  Mud Viscosity 
 MWOD.in                  6.75:  MWD Tool OD 
 MWSI.                      No:  Serv Intrp, MWD 
 OTIM.hr                218.30:  Time Operating 
 PCON.           Look Like New:  Pad Condition 
 PMAX.psia            11015.30:  Press Op, Max 
 PV  .cP                 38.00:  Mud PV 
 RUN .                     300:  Run Number 
 ROPA.m/hr               15.00:  ROP Avg 
 ROPN.m/hr                9.00:  ROP Min 
 ROPX.m/hr               17.00:  ROP Max 
 RPMA.rpm               120.00:  RPM Surface Avg 
 RPMN.rpm                90.00:  RPM Surface Min 
 RPMX.rpm               140.00:  RPM Surface Max 
 RRUN.                     300:  Rig Run Number 
 RTIM.hr                 31.53:  Time Reaming 
 SAZI.deg               331.64:  Azm, Start 
 SDEP.m                4127.00:  Start Depth 
 SIDD.                      No:  Serv Intrp, DD 
 SINC.deg                48.43:  Inc, Start 
 SPPA.psig             5830.00:  SPP Avg 
 SPPN.psig             5600.00:  SPP Min 
 SPPX.psig             5900.00:  SPP Max 
 STIM.      21.00.00 20-Aug-21:  Start Time 
 SVCS.                 DD, MWD:  Services 
 SVER.                    9.20:  Sperry Version 
 TDAT.m                 957.50:  Tot Depth Attmp 
 TDDF.                      No:  Trip for DD 
 TDLG.m                 957.50:  Tot Depth Loggd 
 TFF .                      No:  Trip for Fail 
 TQAA.f-kp               15.00:  Torque Abs Avg 
 TQAN.f-kp               12.00:  Torque Abs Min 
 TQAX.f-kp               19.00:  Torque Abs Max 
 TRRT.°/30m              -3.40:  Turn Rotating 
 MRT .                  EWR-M5:  Maximum Recorded Temperature 
 TTMX.degC              100.00:  Max Tool Temp 
 VS01.                90639251:  Virtual Str1 SN 
 VS02.                90634715:  Virtual Str2 SN 
 VS03.                90652479:  Virtual Str3 SN 
 VS04.                90642262:  Virtual Str4 SN 
 WBMN.klb                 0.00:  WOB Min 
 WITN.           Murad Guliyev:  Customer Rep 
 WITN.          Yashar Gaziyev:  Customer Rep 2 
 WOBA.klb                 9.00:  WOB Avg 
 WOBX.klb                12.00:  WOB Max 
 YP  .lhf2               30.00:  Yield Point 
~Curve Information Block
#MNEM.UNIT                 API CODE     Curve Description
#---------               -----------    ---------------------------
 TIME.HHMMSS            00 000 000 000:  GT Time & Date
 GTDEPTH.m              00 000 000 000:  GT Depth
 GTPQH.psia             00 000 000 000:  GT HR Quartz Pressure
 GTTQ.degC              00 000 000 000:  GT Quartz Temperature
 GTTN.NONE              00 000 000 000:  GT Test Number
 GTET.sec               00 000 000 000:  GT Elapsed Test Time
 GTTVD.m                00 000 000 000:  GT True Vertical Depth
#Other Information
#
#WARRANTY: Halliburton will use its best efforts to furnish customers with 
#accurate information and interpretations that are part of, and incident to, the services 
#provided.  However, Halliburton cannot and does not warrant the accuracy 
#or correctness of such information and interpretations.  Under no circumstances should any 
#such information or interpretation be relied upon as the sole basis for any drilling, 
#completion, production, or financial decision or any procedure involving any risk to the 
#safety of any drilling venture, drilling rig or its crew or any other third party.  The 
#Customer has full responsibility for all drilling, completion and production operation.  
#Halliburton makes no representations or warranties, either expressed or 
#implied, including, but not limited to, the implied warranties of merchantability or fitness 
#for a particular purpose, with respect to the services rendered.  In no event will 
#Halliburton be liable for failure to obtain any particular results or for 
#any damages, including, but not limited to, indirect, special or consequential damages, 
#resulting from the use of any information or interpretation provided by Halliburton.
#
~A           TIME           GTDEPTH  GTPQH  GTTQ  GTTN  GTET   GTTVD  
# ...
   09:27:58.333.27-Aug-2021 4964.50 5151.78 86.33 7.00 161.07 3307.39
   09:27:58.533.27-Aug-2021 4964.50 5151.78 86.33 7.00 161.27 3307.39
   09:27:58.733.27-Aug-2021 4964.50 5151.70 86.33 7.00 161.47 3307.39
   09:27:58.933.27-Aug-2021 4964.50 5152.32 86.33 7.00 161.67 3307.39
   09:27:59.133.27-Aug-2021 4964.50 5152.20 86.33 7.00 161.87 3307.39
   09:27:59.333.27-Aug-2021 4964.50 5152.76 86.33 7.00 162.07 3307.39
   09:27:59.533.27-Aug-2021 4964.50 5152.76 86.33 7.00 162.27 3307.39
   09:27:59.733.27-Aug-2021 4964.50 5153.12 86.33 7.00 162.47 3307.39
   09:27:59.933.27-Aug-2021 4964.50 5152.97 86.33 7.00 162.67 3307.39
   09:28:00.133.27-Aug-2021 4964.50 5153.55 86.33 7.00 162.87 3307.39
   09:28:00.333.27-Aug-2021 4964.50 5153.69 86.33 7.00 163.07 3307.39
   09:28:00.533.27-Aug-2021 4964.50 5153.69 86.33 7.00 163.27 3307.39
   09:28:00.734.27-Aug-2021 4964.50 5153.57 86.33 7.00 163.47 3307.39
   09:28:00.934.27-Aug-2021 4964.50 5154.13 86.33 7.00 163.67 3307.39
   09:28:01.134.27-Aug-2021 4964.50 5154.43 86.33 7.00 163.87 3307.39
   09:28:01.334.27-Aug-2021 4964.50 5153.97 86.33 7.00 164.07 3307.39
   09:28:01.534.27-Aug-2021 4964.50 5153.97 86.33 7.00 164.27 3307.39
   09:28:01.734.27-Aug-2021 4964.50 5154.95 86.33 7.00 164.47 3307.39
   09:28:01.934.27-Aug-2021 4964.50 5155.71 86.33 7.00 164.67 3307.39
   09:28:02.134.27-Aug-2021 4964.50 5155.49 86.33 7.00 164.87 3307.39
   09:28:02.334.27-Aug-2021 4964.50 5156.43 86.33 7.00 165.07 3307.39
   09:28:02.534.27-Aug-2021 4964.50 5156.43 86.33 7.00 165.27 3307.39
   09:28:02.734.27-Aug-2021 4964.50 5155.97 86.33 7.00 165.47 3307.39
   09:28:02.934.27-Aug-2021 4964.50 5155.94 86.33 7.00 165.67 3307.39
   09:28:03.135.27-Aug-2021 4964.50 5156.64 86.33 7.00 165.87 3307.39
   09:28:03.335.27-Aug-2021 4964.50 5156.05 86.33 7.00 166.07 3307.39
   09:28:03.535.27-Aug-2021 4964.50 5156.05 86.33 7.00 166.27 3307.39
   09:28:03.735.27-Aug-2021 4964.50 5157.17 86.33 7.00 166.47 3307.39
   09:28:03.935.27-Aug-2021 4964.50 5156.65 86.33 7.00 166.67 3307.39
   09:28:04.135.27-Aug-2021 4964.50 5156.27 86.33 7.00 166.87 3307.39
   09:28:04.335.27-Aug-2021 4964.50 5156.86 86.33 7.00 167.07 3307.39
   09:28:04.535.27-Aug-2021 4964.50 5156.86 86.33 7.00 167.27 3307.39
   09:28:04.735.27-Aug-2021 4964.50 5156.86 86.33 7.00 167.47 3307.39
   09:28:04.935.27-Aug-2021 4964.50 5157.34 86.33 7.00 167.67 3307.39
   09:28:05.135.27-Aug-2021 4964.50 5157.16 86.33 7.00 167.87 3307.39
   09:28:05.335.27-Aug-2021 4964.50 5157.65 86.33 7.00 168.07 3307.39
   09:28:05.536.27-Aug-2021 4964.50 5157.65 86.33 7.00 168.27 3307.39
   09:28:05.736.27-Aug-2021 4964.50 5157.56 86.33 7.00 168.47 3307.39
   09:28:05.936.27-Aug-2021 4964.50 5157.49 86.33 7.00 168.67 3307.39
   09:28:06.136.27-Aug-2021 4964.50 5157.53 86.33 7.00 168.87 3307.39
   09:28:06.336.27-Aug-2021 4964.50 5157.54 86.33 7.00 169.07 3307.39
   09:28:06.536.27-Aug-2021 4964.50 5157.54 86.33 7.00 169.27 3307.39
   09:28:06.736.27-Aug-2021 4964.50 5157.79 86.33 7.00 169.47 3307.39
   09:28:06.936.27-Aug-2021 4964.50 5157.70 86.33 7.00 169.67 3307.39
   09:28:07.136.27-Aug-2021 4964.50 5166.17 86.33 7.00 169.87 3307.39
   09:28:07.336.27-Aug-2021 4964.50 5196.89 86.33 7.00 170.07 3307.39
   09:28:07.536.27-Aug-2021 4964.50 5196.89 86.33 7.00 170.27 3307.39
   09:28:07.736.27-Aug-2021 4964.50 5197.69 86.33 7.00 170.47 3307.39
   09:28:07.937.27-Aug-2021 4964.50 5197.67 86.33 7.00 170.67 3307.39
   09:28:08.137.27-Aug-2021 4964.50 5197.67 86.33 7.00 170.87 3307.39
   09:28:08.337.27-Aug-2021 4964.50 5197.68 86.33 7.00 171.07 3307.39
   09:28:08.537.27-Aug-2021 4964.50 5197.68 86.33 7.00 171.27 3307.39
   09:28:08.737.27-Aug-2021 4964.50 5197.70 86.33 7.00 171.47 3307.39
   09:28:08.937.27-Aug-2021 4964.50 5197.72 86.33 7.00 171.67 3307.39
   09:28:09.137.27-Aug-2021 4964.50 5197.73 86.33 7.00 171.87 3307.39
   09:28:09.337.27-Aug-2021 4964.50 5197.75 86.33 7.00 172.07 3307.39
   09:28:09.537.27-Aug-2021 4964.50 5197.75 86.33 7.00 172.27 3307.39
   09:28:09.737.27-Aug-2021 4964.50 5197.76 86.33 7.00 172.47 3307.39
   09:28:09.937.27-Aug-2021 4964.50 5197.78 86.33 7.00 172.67 3307.39
   09:28:10.137.27-Aug-2021 4964.50 5197.79 86.33 7.00 172.87 3307.39
   09:28:10.338.27-Aug-2021 4964.50 5197.79 86.33 7.00 173.07 3307.39
   09:28:10.538.27-Aug-2021 4964.50 5197.79 86.33 7.00 173.27 3307.39
   09:28:10.738.27-Aug-2021 4964.50 5198.05 86.33 7.00 173.47 3307.39
   09:28:10.938.27-Aug-2021 4964.50 5198.10 86.33 7.00 173.67 3307.39
   09:28:11.138.27-Aug-2021 4964.50 5198.08 86.33 7.00 173.87 3307.39
   09:28:11.338.27-Aug-2021 4964.50 5198.07 86.33 7.00 174.07 3307.39
   09:28:11.538.27-Aug-2021 4964.50 5198.07 86.33 7.00 174.27 3307.39
   09:28:11.738.27-Aug-2021 4964.50 5198.15 86.33 7.00 174.47 3307.39
   09:28:11.938.27-Aug-2021 4964.50 5198.14 86.33 7.00 174.67 3307.39
   09:28:12.138.27-Aug-2021 4964.50 5198.14 86.33 7.00 174.87 3307.39
   09:28:12.338.27-Aug-2021 4964.50 5198.14 86.33 7.00 175.07 3307.39
   09:28:12.538.27-Aug-2021 4964.50 5198.14 86.33 7.00 175.27 3307.39
   09:28:12.739.27-Aug-2021 4964.50 5198.17 86.33 7.00 175.47 3307.39
   09:28:12.939.27-Aug-2021 4964.50 5198.19 86.33 7.00 175.67 3307.39
   09:28:13.139.27-Aug-2021 4964.50 5198.17 86.33 7.00 175.87 3307.39
   09:28:13.339.27-Aug-2021 4964.50 5198.14 86.33 7.00 176.07 3307.39
   09:28:13.539.27-Aug-2021 4964.50 5198.14 86.33 7.00 176.27 3307.39
   09:28:13.739.27-Aug-2021 4964.50 5198.22 86.33 7.00 176.47 3307.39
   09:28:13.939.27-Aug-2021 4964.50 5198.22 86.33 7.00 176.67 3307.39
   09:28:14.139.27-Aug-2021 4964.50 5198.20 86.33 7.00 176.87 3307.39
   09:28:14.339.27-Aug-2021 4964.50 5198.21 86.33 7.00 177.07 3307.39
   09:28:14.539.27-Aug-2021 4964.50 5198.21 86.33 7.00 177.27 3307.39
   09:28:14.739.27-Aug-2021 4964.50 5198.21 86.33 7.00 177.47 3307.39
   09:28:14.939.27-Aug-2021 4964.50 5198.20 86.33 7.00 177.67 3307.39
   09:28:15.140.27-Aug-2021 4964.50 5198.21 86.33 7.00 177.87 3307.39
   09:28:15.340.27-Aug-2021 4964.50 5198.21 86.33 7.00 178.07 3307.39
   09:28:15.540.27-Aug-2021 4964.50 5198.21 86.33 7.00 178.27 3307.39
   09:28:15.740.27-Aug-2021 4964.50 5198.22 86.33 7.00 178.47 3307.39
   09:28:15.940.27-Aug-2021 4964.50 5198.21 86.33 7.00 178.67 3307.39
   09:28:16.140.27-Aug-2021 4964.50 5198.22 86.33 7.00 178.87 3307.39
   09:28:16.340.27-Aug-2021 4964.50 5198.22 86.33 7.00 179.07 3307.39
   09:28:16.540.27-Aug-2021 4964.50 5198.22 86.33 7.00 179.27 3307.39
   09:28:16.740.27-Aug-2021 4964.50 5198.25 86.33 7.00 179.47 3307.39
   09:28:16.940.27-Aug-2021 4964.50 5198.23 86.33 7.00 179.67 3307.39
   09:28:17.140.27-Aug-2021 4964.50 5198.25 86.33 7.00 179.87 3307.39
   09:28:17.340.27-Aug-2021 4964.50 5198.24 86.33 7.00 180.07 3307.39
   09:28:17.541.27-Aug-2021 4964.50 5198.24 86.33 7.00 180.27 3307.39
   09:28:17.741.27-Aug-2021 4964.50 5198.25 86.33 7.00 180.47 3307.39
   09:28:17.941.27-Aug-2021 4964.50 5198.25 86.33 7.00 180.68 3307.39
   09:28:18.141.27-Aug-2021 4964.50 5198.24 86.33 7.00 180.88 3307.39
   09:28:18.341.27-Aug-2021 4964.50 5198.25 86.33 7.00 181.08 3307.39
   09:28:18.541.27-Aug-2021 4964.50 5198.25 86.33 7.00 181.28 3307.39
   09:28:18.741.27-Aug-2021 4964.50 5198.25 86.33 7.00 181.48 3307.39
   09:28:18.941.27-Aug-2021 4964.50 5198.26 86.33 7.00 181.68 3307.39
   09:28:19.141.27-Aug-2021 4964.50 5198.26 86.33 7.00 181.88 3307.39
   09:28:19.341.27-Aug-2021 4964.50 5198.25 86.33 7.00 182.08 3307.39
   09:28:19.541.27-Aug-2021 4964.50 5198.25 86.33 7.00 182.28 3307.39
   09:28:19.741.27-Aug-2021 4964.50 5198.26 86.33 7.00 182.48 3307.39
   09:28:19.942.27-Aug-2021 4964.50 5198.26 86.33 7.00 182.68 3307.39
   09:28:20.142.27-Aug-2021 4964.50 5198.27 86.33 7.00 182.88 3307.39
   09:28:20.342.27-Aug-2021 4964.50 5198.25 86.33 7.00 183.08 3307.39
   09:28:20.542.27-Aug-2021 4964.50 5198.25 86.33 7.00 183.28 3307.39
   09:28:20.742.27-Aug-2021 4964.50 5198.28 86.33 7.00 183.48 3307.39
   09:28:20.942.27-Aug-2021 4964.50 5198.27 86.33 7.00 183.68 3307.39
   09:28:21.142.27-Aug-2021 4964.50 5198.27 86.33 7.00 183.88 3307.39
