~Version Information
 VERS.                  2.0:   CWLS log ASCII Standard -VERSION 2.0
 WRAP.                   NO:   One line per depth step
~Well Information Block
#MNEM.UNIT     VALUE/NAME     DESCRIPTION
#---------     -----------    ---------------------------
 STRT.S             13:07:39 27-Aug-21: START TIME 13:07:39 27-Aug-21
 STOP.S             13:14:54 27-Aug-21: STOP TIME  13:14:54 27-Aug-21
 STEP.S                   0.00: STEP TIME
 NULL.                 -999.25: NULL VALUE
 DFWT.                        :  DIST FWL TEXT
 DFST.                        :  DIST FSL TEXT
 DMF .             Drill Floor:  DRILL MEAS FROM
 STIM.      20.00.00 17-Aug-21:  START TIME
 DATE.      19.00.00 29-Aug-21:  END TIME
 SPUD.               15-Aug-21:  SPUD DATE
 NREF.                    Grid:  NORTH REFERENCE
 HPTY.       Minimum Curvature:  HOLE POS TYPE
 DMOD.             Drill Model:  DRILL MOD DESC
 SVYD.                  Survey:  SURVEY DESC
 ILTD.               Lithology:  INTERP LTH DESC
 FTOP.          Formation Tops:  FORM TOPS DESC
 RIG .              East Azeri:  RIG NAME
 PDAT.          Mean Sea Level:  PERMANENT DATUM
 FLD .                     ACG:  FIELD NAME
 SON .        AZ-XX-0907180857:  JOB NUMBER
 CTRY.              Azerbaijan:  COUNTRY NAME
 WELL.                    D23x:  WELL NAME
 SRVC.     Turan Drilling and Engineering:  CONTRACTOR
 COMP.     BP Exploration (Caspian Sea) Ltd.:  COMPANY
 UWI .            /AZE00000214:  UNIQUE WELL IDENTIFIER
 API .            /AZE00000214:  API NUMBER
 MDS .        Operator Entered:  MAG DATA SOURCE
 BASE.              Azerbaijan:  LOGGING EQUIPMENT BASE LOCATION
 REGN.                   EESSA:  REGION
 PROV.                    Baku:  PROVINCE
 STAT.                    Baku:  STATE NAME
 MWDS.                    Baku:  MWD SHOP
 DOE .                     N/A:  DOE NUMBER
 DCON.         Sperry Drilling:  DIRECTNL CONTR
 UNIT.                     N/A:  LOGGING EQUIPMENT ID
 WTYP.                Deviated:  WELL TYPE
 CNTY.                        :  COUNTY
 LOC .                        :  LOCATION
 LMF .             Drill Floor:  LOG MEASURED FROM
 TVDS.m                  43.60:  TVDSS CORRECTN
 LATI.deg                40.02:  LATITUDE
 LONG.deg                51.45:  LONGITUDE
 WHNS.m                  -7.04:  WELL HEAD N/S
 WHEW.m                  -0.67:  WELL HEAD E/W
 UTMX.m              538762.90:  UTM X
 UTMY.m             4431871.34:  UTM Y
 DFWL.m                   0.00:  DISTANCE FWL
 DFSL.m                   0.00:  DISTANCE FSL
 SDEP.m                4127.00:  START DEPTH
 TDD .m                5084.50:  TOTAL DEPTH (DRILLER)
 VSDR.deg               140.47:  VERT SEC DIRECT
 GVFD.g                   1.00:  GRAVITY FIELD
 MFLD.nT              50362.00:  MAGNETIC FIELD
 MDIP.deg                59.48:  MAGNETIC DIP
 MDEC.deg                 6.47:  MAGNETIC DECL
 GRDC.deg                 0.31:  GRID CORRECTION
 AZTC.deg                 6.16:  AZM TOTAL CORR
 EPD .m                   0.00:  ELEVATION
 EGL .m                   0.00:  GROUND ELEVATION
 WDMS.m                 151.80:  WD ELEV
 APD .m                  43.60:  DEPTH ABOVE PD
 DEP .m                4092.57:  DEPTH
 AGAP.m                  43.60:  AIR GAP
 VSEW.m                  -0.67:  VERT SEC E/W
 VSNS.m                  -7.04:  VERT SEC N/S
 EKB .m                  43.60:  KB ELEVATION
 EDF .m                  43.60:  DF ELEVATION
 TDL .m                 957.50:  TOTAL DEPTH (LOGGER)
 VSC .                       0:  VS TO CLOSURE
 MAGU.                 1851413:  MAGUTM CHECKSUM
~Parameter Information Block
#MNEM.UNIT       Value        Description
#---------     -----------    ---------------------------
 AV  .mps                 1.50:  Ann Velocity 
 AVMX.mps                 2.00:  Max Ann Veloc 
 AZIF.deg               184.66:  Azm, Final 
 BHAT.        Rotary Steerable:  BHA Type 
 BREV.rev               300.00:  Rev Bit Total 
 BROT.°/30m              -0.50:  Build Rotating 
 BS  .in                  8.50:  Bit Size 
 BSZ .in                  8.50:  Bit Size 
 BTPL.psig              370.00:  Bit Press Loss 
 CABU.                      No:  Customer Abuse 
 CGEO.      Behruz Shahbaliyev:  Customer Geo 
 COMM.                     ¤R:  Run Comments 1 
 TCS .hr                140.08:  Time Ciculation Ended 
 CV  .mps                 3.00:  Crit Velocity 
 CVMX.mps                 3.20:  Max Crit Veloc 
 DD1 .            Musa Ahmadov:  Direct Drillr 1 
 DD2 .           Hamid Ahmadov:  Direct Drillr 2 
 DDSV.               Geo-Pilot:  DD Service 
 DEFF.%                  98.40:  % Det Eff 
 DLRX.°/30m               3.40:  Dogleg Rot Max 
 DLSO.°/30m               1.45:  Dogleg Oriented 
 DLSX.°/30m               3.40:  Dogleg Str Max 
 DRET.      18.40.00 29-Aug-21:  Drill End Time 
 DRST.      21.00.00 20-Aug-21:  Drill Start Tim 
 DTIM.hr                 69.47:  Time Drilling 
 EDEP.m                5084.50:  End Depth 
 ENG1.      Artemiy Matviyanov:  Engineer 1 
 ENG2.         Almaz Almadatov:  Engineer 2 
 ETIM.      18.40.00 29-Aug-21:  End Time 
 FLOI.gpm               500.00:  Flow In 
 FLON.gpm               400.00:  Flow In Min 
 FLOS.cptm                0.00:  Fluid Loss 
 FLOX.gpm               500.00:  Flow In Max 
 DFT .        Mineral Oil Base:  Mud Type 
 HFLO.                      No:  High Flow 
 HPRE.                      No:  High Pressure 
 HTEM.                      No:  High Temp 
 HYDO.m                   1.80:  Hydro Offset 
 IFIN.deg                25.62:  Inc, Final 
 IMAX.deg                48.69:  Inc Max 
 IMIN.deg                24.01:  Inc Min 
 IMND.m                4962.57:  Inc Min Depth 
 IMXD.m                4119.01:  Inc Max Depth 
 JARR.                      No:  Jarring 
 LETM.      18.40.00 29-Aug-21:  Log End Time 
 LOST.hr                     0:  Lost Rig Time 
 LSTM.      21.00.00 20-Aug-21:  Log Start Time 
 MDCL.ppm             41500.00:  Mud Chlorides 
 MDES.     Inversion Oil/Synthetic:  Mud Desc 
 DFD .sg                  1.56:  Mud Density 
 MDMN.sg                  1.56:  Dens Mud Min 
 MDMX.sg                  1.56:  Dens Mud Max 
 MOIL.                      70:  Run Mud Oil % 
 MOWR.                   70:30:  Run Mud OWR 
 MSND.                     0.2:  Run Mud Sand % 
 MSOL.                    23.3:  Run Mud Solids% 
 DFV .spqt               78.00:  Mud Viscosity 
 MWOD.in                  6.75:  MWD Tool OD 
 MWSI.                      No:  Serv Intrp, MWD 
 OTIM.hr                218.30:  Time Operating 
 PCON.           Look Like New:  Pad Condition 
 PMAX.psia            11015.30:  Press Op, Max 
 PV  .cP                 38.00:  Mud PV 
 RUN .                     300:  Run Number 
 ROPA.m/hr               15.00:  ROP Avg 
 ROPN.m/hr                9.00:  ROP Min 
 ROPX.m/hr               17.00:  ROP Max 
 RPMA.rpm               120.00:  RPM Surface Avg 
 RPMN.rpm                90.00:  RPM Surface Min 
 RPMX.rpm               140.00:  RPM Surface Max 
 RRUN.                     300:  Rig Run Number 
 RTIM.hr                 31.53:  Time Reaming 
 SAZI.deg               331.64:  Azm, Start 
 SDEP.m                4127.00:  Start Depth 
 SIDD.                      No:  Serv Intrp, DD 
 SINC.deg                48.43:  Inc, Start 
 SPPA.psig             5830.00:  SPP Avg 
 SPPN.psig             5600.00:  SPP Min 
 SPPX.psig             5900.00:  SPP Max 
 STIM.      21.00.00 20-Aug-21:  Start Time 
 SVCS.                 DD, MWD:  Services 
 SVER.                    9.20:  Sperry Version 
 TDAT.m                 957.50:  Tot Depth Attmp 
 TDDF.                      No:  Trip for DD 
 TDLG.m                 957.50:  Tot Depth Loggd 
 TFF .                      No:  Trip for Fail 
 TQAA.f-kp               15.00:  Torque Abs Avg 
 TQAN.f-kp               12.00:  Torque Abs Min 
 TQAX.f-kp               19.00:  Torque Abs Max 
 TRRT.°/30m              -3.40:  Turn Rotating 
 MRT .                  EWR-M5:  Maximum Recorded Temperature 
 TTMX.degC              100.00:  Max Tool Temp 
 VS01.                90639251:  Virtual Str1 SN 
 VS02.                90634715:  Virtual Str2 SN 
 VS03.                90652479:  Virtual Str3 SN 
 VS04.                90642262:  Virtual Str4 SN 
 WBMN.klb                 0.00:  WOB Min 
 WITN.           Murad Guliyev:  Customer Rep 
 WITN.          Yashar Gaziyev:  Customer Rep 2 
 WOBA.klb                 9.00:  WOB Avg 
 WOBX.klb                12.00:  WOB Max 
 YP  .lhf2               30.00:  Yield Point 
~Curve Information Block
#MNEM.UNIT                 API CODE     Curve Description
#---------               -----------    ---------------------------
 TIME.HHMMSS            00 000 000 000:  GT Time & Date
 GTDEPTH.m              00 000 000 000:  GT Depth
 GTPQH.psia             00 000 000 000:  GT HR Quartz Pressure
 GTTQ.degC              00 000 000 000:  GT Quartz Temperature
 GTTN.NONE              00 000 000 000:  GT Test Number
 GTET.sec               00 000 000 000:  GT Elapsed Test Time
 GTTVD.m                00 000 000 000:  GT True Vertical Depth
#Other Information
#
#WARRANTY: Halliburton will use its best efforts to furnish customers with 
#accurate information and interpretations that are part of, and incident to, the services 
#provided.  However, Halliburton cannot and does not warrant the accuracy 
#or correctness of such information and interpretations.  Under no circumstances should any 
#such information or interpretation be relied upon as the sole basis for any drilling, 
#completion, production, or financial decision or any procedure involving any risk to the 
#safety of any drilling venture, drilling rig or its crew or any other third party.  The 
#Customer has full responsibility for all drilling, completion and production operation.  
#Halliburton makes no representations or warranties, either expressed or 
#implied, including, but not limited to, the implied warranties of merchantability or fitness 
#for a particular purpose, with respect to the services rendered.  In no event will 
#Halliburton be liable for failure to obtain any particular results or for 
#any damages, including, but not limited to, indirect, special or consequential damages, 
#resulting from the use of any information or interpretation provided by Halliburton.
#
~A           TIME           GTDEPTH  GTPQH  GTTQ  GTTN   GTET   GTTVD  
# ...
   13:12:34.030.27-Aug-2021 4901.50 5051.28 84.92 13.00 294.10 3249.95
   13:12:34.230.27-Aug-2021 4901.50 5051.21 84.92 13.00 294.30 3249.95
   13:12:34.430.27-Aug-2021 4901.50 5051.21 84.92 13.00 294.50 3249.95
   13:12:34.631.27-Aug-2021 4901.50 5051.34 84.92 13.00 294.70 3249.95
   13:12:34.831.27-Aug-2021 4901.50 5051.34 84.92 13.00 294.90 3249.95
   13:12:35.031.27-Aug-2021 4901.50 5051.34 84.92 13.00 295.10 3249.95
   13:12:35.231.27-Aug-2021 4901.50 5051.34 84.92 13.00 295.30 3249.95
   13:12:35.431.27-Aug-2021 4901.50 5051.34 84.92 13.00 295.50 3249.95
   13:12:35.632.27-Aug-2021 4901.50 5051.33 84.92 13.00 295.70 3249.95
   13:12:35.832.27-Aug-2021 4901.50 5051.32 84.92 13.00 295.90 3249.95
   13:12:36.032.27-Aug-2021 4901.50 5051.32 84.92 13.00 296.10 3249.95
   13:12:36.232.27-Aug-2021 4901.50 5051.31 84.92 13.00 296.30 3249.95
   13:12:36.432.27-Aug-2021 4901.50 5051.31 84.92 13.00 296.50 3249.95
   13:12:36.633.27-Aug-2021 4901.50 5051.31 84.92 13.00 296.70 3249.95
   13:12:36.833.27-Aug-2021 4901.50 5051.30 84.92 13.00 296.90 3249.95
   13:12:37.033.27-Aug-2021 4901.50 5051.29 84.92 13.00 297.10 3249.95
   13:12:37.233.27-Aug-2021 4901.50 5051.29 84.92 13.00 297.30 3249.95
   13:12:37.434.27-Aug-2021 4901.50 5051.29 84.92 13.00 297.50 3249.95
   13:12:37.634.27-Aug-2021 4901.50 5051.31 84.92 13.00 297.70 3249.95
   13:12:37.834.27-Aug-2021 4901.50 5051.33 84.92 13.00 297.90 3249.95
   13:12:38.034.27-Aug-2021 4901.50 5051.37 84.92 13.00 298.10 3249.95
   13:12:38.234.27-Aug-2021 4901.50 5051.34 84.92 13.00 298.30 3249.95
   13:12:38.435.27-Aug-2021 4901.50 5051.34 84.92 13.00 298.50 3249.95
   13:12:38.635.27-Aug-2021 4901.50 5051.34 84.92 13.00 298.70 3249.95
   13:12:38.835.27-Aug-2021 4901.50 5051.33 84.92 13.00 298.90 3249.95
   13:12:39.035.27-Aug-2021 4901.50 5051.26 84.92 13.00 299.10 3249.95
   13:12:39.235.27-Aug-2021 4901.50 5051.44 84.92 13.00 299.30 3249.95
   13:12:39.436.27-Aug-2021 4901.50 5051.44 84.92 13.00 299.50 3249.95
   13:12:39.636.27-Aug-2021 4901.50 5051.36 84.92 13.00 299.70 3249.95
   13:12:39.836.27-Aug-2021 4901.50 5051.36 84.92 13.00 299.90 3249.95
   13:12:40.036.27-Aug-2021 4901.50 5051.38 84.92 13.00 300.11 3249.95
   13:12:40.236.27-Aug-2021 4901.50 5051.33 84.92 13.00 300.31 3249.95
   13:12:40.437.27-Aug-2021 4901.50 5051.33 84.92 13.00 300.51 3249.95
   13:12:40.637.27-Aug-2021 4901.50 5051.37 84.92 13.00 300.71 3249.95
   13:12:40.837.27-Aug-2021 4901.50 5051.36 84.92 13.00 300.91 3249.95
   13:12:41.037.27-Aug-2021 4901.50 5051.29 84.92 13.00 301.11 3249.95
   13:12:41.237.27-Aug-2021 4901.50 5051.44 84.92 13.00 301.31 3249.95
   13:12:41.438.27-Aug-2021 4901.50 5051.44 84.92 13.00 301.51 3249.95
   13:12:41.638.27-Aug-2021 4901.50 5051.38 84.92 13.00 301.71 3249.95
   13:12:41.838.27-Aug-2021 4901.50 5051.37 84.92 13.00 301.91 3249.95
   13:12:42.038.27-Aug-2021 4901.50 5051.38 84.92 13.00 302.11 3249.95
   13:12:42.238.27-Aug-2021 4901.50 5051.37 84.92 13.00 302.31 3249.95
   13:12:42.439.27-Aug-2021 4901.50 5051.37 84.92 13.00 302.51 3249.95
   13:12:42.639.27-Aug-2021 4901.50 5051.36 84.92 13.00 302.71 3249.95
   13:12:42.839.27-Aug-2021 4901.50 5051.36 84.92 13.00 302.91 3249.95
   13:12:43.039.27-Aug-2021 4901.50 5051.35 84.92 13.00 303.11 3249.95
   13:12:43.239.27-Aug-2021 4901.50 5051.35 84.92 13.00 303.31 3249.95
   13:12:43.440.27-Aug-2021 4901.50 5051.35 84.92 13.00 303.51 3249.95
   13:12:43.640.27-Aug-2021 4901.50 5051.34 84.92 13.00 303.71 3249.95
   13:12:43.840.27-Aug-2021 4901.50 5051.34 84.92 13.00 303.91 3249.95
   13:12:44.040.27-Aug-2021 4901.50 5051.34 84.92 13.00 304.11 3249.95
   13:12:44.240.27-Aug-2021 4901.50 5051.36 84.92 13.00 304.31 3249.95
   13:12:44.441.27-Aug-2021 4901.50 5051.36 84.92 13.00 304.51 3249.95
   13:12:44.641.27-Aug-2021 4901.50 5051.39 84.92 13.00 304.71 3249.95
   13:12:44.841.27-Aug-2021 4901.50 5051.37 84.92 13.00 304.91 3249.95
   13:12:45.041.27-Aug-2021 4901.50 5051.37 84.92 13.00 305.11 3249.95
   13:12:45.241.27-Aug-2021 4901.50 5051.37 84.92 13.00 305.31 3249.95
   13:12:45.442.27-Aug-2021 4901.50 5051.37 84.92 13.00 305.51 3249.95
   13:12:45.642.27-Aug-2021 4901.50 5051.36 84.92 13.00 305.71 3249.95
   13:12:45.842.27-Aug-2021 4901.50 5051.36 84.92 13.00 305.91 3249.95
   13:12:46.042.27-Aug-2021 4901.50 5051.36 84.92 13.00 306.11 3249.95
   13:12:46.242.27-Aug-2021 4901.50 5051.35 84.92 13.00 306.31 3249.95
   13:12:46.443.27-Aug-2021 4901.50 5051.35 84.92 13.00 306.51 3249.95
   13:12:46.643.27-Aug-2021 4901.50 5051.35 84.92 13.00 306.71 3249.95
   13:12:46.843.27-Aug-2021 4901.50 5051.34 84.92 13.00 306.91 3249.95
   13:12:47.043.27-Aug-2021 4901.50 5051.34 84.92 13.00 307.11 3249.95
   13:12:47.243.27-Aug-2021 4901.50 5051.34 84.92 13.00 307.31 3249.95
   13:12:47.444.27-Aug-2021 4901.50 5051.34 84.92 13.00 307.51 3249.95
   13:12:47.644.27-Aug-2021 4901.50 5051.34 84.92 13.00 307.71 3249.95
   13:12:47.844.27-Aug-2021 4901.50 5051.37 84.92 13.00 307.91 3249.95
   13:12:48.044.27-Aug-2021 4901.50 5051.38 84.92 13.00 308.11 3249.95
   13:12:48.244.27-Aug-2021 4901.50 5051.36 84.92 13.00 308.31 3249.95
   13:12:48.445.27-Aug-2021 4901.50 5051.36 84.92 13.00 308.51 3249.95
   13:12:48.645.27-Aug-2021 4901.50 5051.37 84.92 13.00 308.71 3249.95
   13:12:48.845.27-Aug-2021 4901.50 5051.36 84.92 13.00 308.91 3249.95
   13:12:49.045.27-Aug-2021 4901.50 5051.36 84.92 13.00 309.11 3249.95
   13:12:49.246.27-Aug-2021 4901.50 5051.36 84.92 13.00 309.31 3249.95
   13:12:49.446.27-Aug-2021 4901.50 5051.36 84.92 13.00 309.51 3249.95
   13:12:49.646.27-Aug-2021 4901.50 5051.37 84.92 13.00 309.71 3249.95
   13:12:49.846.27-Aug-2021 4901.50 5051.38 84.92 13.00 309.92 3249.95
   13:12:50.046.27-Aug-2021 4901.50 5051.38 84.92 13.00 310.12 3249.95
   13:12:50.247.27-Aug-2021 4901.50 5051.38 84.92 13.00 310.32 3249.95
   13:12:50.447.27-Aug-2021 4901.50 5051.38 84.92 13.00 310.52 3249.95
   13:12:50.647.27-Aug-2021 4901.50 5051.38 84.92 13.00 310.72 3249.95
   13:12:50.847.27-Aug-2021 4901.50 5051.37 84.92 13.00 310.92 3249.95
   13:12:51.047.27-Aug-2021 4901.50 5051.38 84.92 13.00 311.12 3249.95
   13:12:51.248.27-Aug-2021 4901.50 5051.37 84.92 13.00 311.32 3249.95
   13:12:51.448.27-Aug-2021 4901.50 5051.37 84.92 13.00 311.52 3249.95
   13:12:51.648.27-Aug-2021 4901.50 5051.37 84.92 13.00 311.72 3249.95
   13:12:51.848.27-Aug-2021 4901.50 5051.39 84.92 13.00 311.92 3249.95
   13:12:52.048.27-Aug-2021 4901.50 5051.38 84.92 13.00 312.12 3249.95
   13:12:52.249.27-Aug-2021 4901.50 5051.37 84.92 13.00 312.32 3249.95
   13:12:52.449.27-Aug-2021 4901.50 5051.37 84.92 13.00 312.52 3249.95
   13:12:52.649.27-Aug-2021 4901.50 5051.38 84.92 13.00 312.72 3249.95
   13:12:52.849.27-Aug-2021 4901.50 5051.36 84.92 13.00 312.92 3249.95
   13:12:53.049.27-Aug-2021 4901.50 5051.36 84.92 13.00 313.12 3249.95
   13:12:53.250.27-Aug-2021 4901.50 5051.37 84.92 13.00 313.32 3249.95
   13:12:53.450.27-Aug-2021 4901.50 5051.37 84.92 13.00 313.52 3249.95
   13:12:53.650.27-Aug-2021 4901.50 5051.36 84.92 13.00 313.72 3249.95
   13:12:53.850.27-Aug-2021 4901.50 5051.35 84.92 13.00 313.92 3249.95
   13:12:54.050.27-Aug-2021 4901.50 5051.35 84.92 13.00 314.12 3249.95
   13:12:54.251.27-Aug-2021 4901.50 5051.37 84.92 13.00 314.32 3249.95
   13:12:54.451.27-Aug-2021 4901.50 5051.37 84.92 13.00 314.52 3249.95
   13:12:54.651.27-Aug-2021 4901.50 5051.39 84.92 13.00 314.72 3249.95
   13:12:54.851.27-Aug-2021 4901.50 5051.38 84.92 13.00 314.92 3249.95
   13:12:55.051.27-Aug-2021 4901.50 5051.36 84.92 13.00 315.12 3249.95
   13:12:55.252.27-Aug-2021 4901.50 5051.38 84.92 13.00 315.32 3249.95
   13:12:55.452.27-Aug-2021 4901.50 5051.38 84.92 13.00 315.52 3249.95
   13:12:55.652.27-Aug-2021 4901.50 5051.37 84.92 13.00 315.72 3249.95
   13:12:55.852.27-Aug-2021 4901.50 5051.38 84.92 13.00 315.92 3249.95
   13:12:56.052.27-Aug-2021 4901.50 5051.36 84.92 13.00 316.12 3249.95
   13:12:56.253.27-Aug-2021 4901.50 5051.37 84.92 13.00 316.32 3249.95
   13:12:56.453.27-Aug-2021 4901.50 5051.37 84.92 13.00 316.52 3249.95
