~Version Information
 VERS.                  2.0:   CWLS log ASCII Standard -VERSION 2.0
 WRAP.                   NO:   One line per depth step
~Well Information Block
#MNEM.UNIT     VALUE/NAME     DESCRIPTION
#---------     -----------    ---------------------------
 STRT.S             11:29:40 27-Aug-21: START TIME 11:29:40 27-Aug-21
 STOP.S             11:36:51 27-Aug-21: STOP TIME  11:36:51 27-Aug-21
 STEP.S                   0.00: STEP TIME
 NULL.                 -999.25: NULL VALUE
 DFWT.                        :  DIST FWL TEXT
 DFST.                        :  DIST FSL TEXT
 DMF .             Drill Floor:  DRILL MEAS FROM
 STIM.      20.00.00 17-Aug-21:  START TIME
 DATE.      19.00.00 29-Aug-21:  END TIME
 SPUD.               15-Aug-21:  SPUD DATE
 NREF.                    Grid:  NORTH REFERENCE
 HPTY.       Minimum Curvature:  HOLE POS TYPE
 DMOD.             Drill Model:  DRILL MOD DESC
 SVYD.                  Survey:  SURVEY DESC
 ILTD.               Lithology:  INTERP LTH DESC
 FTOP.          Formation Tops:  FORM TOPS DESC
 RIG .              East Azeri:  RIG NAME
 PDAT.          Mean Sea Level:  PERMANENT DATUM
 FLD .                     ACG:  FIELD NAME
 SON .        AZ-XX-0907180857:  JOB NUMBER
 CTRY.              Azerbaijan:  COUNTRY NAME
 WELL.                    D23x:  WELL NAME
 SRVC.     Turan Drilling and Engineering:  CONTRACTOR
 COMP.     BP Exploration (Caspian Sea) Ltd.:  COMPANY
 UWI .            /AZE00000214:  UNIQUE WELL IDENTIFIER
 API .            /AZE00000214:  API NUMBER
 MDS .        Operator Entered:  MAG DATA SOURCE
 BASE.              Azerbaijan:  LOGGING EQUIPMENT BASE LOCATION
 REGN.                   EESSA:  REGION
 PROV.                    Baku:  PROVINCE
 STAT.                    Baku:  STATE NAME
 MWDS.                    Baku:  MWD SHOP
 DOE .                     N/A:  DOE NUMBER
 DCON.         Sperry Drilling:  DIRECTNL CONTR
 UNIT.                     N/A:  LOGGING EQUIPMENT ID
 WTYP.                Deviated:  WELL TYPE
 CNTY.                        :  COUNTY
 LOC .                        :  LOCATION
 LMF .             Drill Floor:  LOG MEASURED FROM
 TVDS.m                  43.60:  TVDSS CORRECTN
 LATI.deg                40.02:  LATITUDE
 LONG.deg                51.45:  LONGITUDE
 WHNS.m                  -7.04:  WELL HEAD N/S
 WHEW.m                  -0.67:  WELL HEAD E/W
 UTMX.m              538762.90:  UTM X
 UTMY.m             4431871.34:  UTM Y
 DFWL.m                   0.00:  DISTANCE FWL
 DFSL.m                   0.00:  DISTANCE FSL
 SDEP.m                4127.00:  START DEPTH
 TDD .m                5084.50:  TOTAL DEPTH (DRILLER)
 VSDR.deg               140.47:  VERT SEC DIRECT
 GVFD.g                   1.00:  GRAVITY FIELD
 MFLD.nT              50362.00:  MAGNETIC FIELD
 MDIP.deg                59.48:  MAGNETIC DIP
 MDEC.deg                 6.47:  MAGNETIC DECL
 GRDC.deg                 0.31:  GRID CORRECTION
 AZTC.deg                 6.16:  AZM TOTAL CORR
 EPD .m                   0.00:  ELEVATION
 EGL .m                   0.00:  GROUND ELEVATION
 WDMS.m                 151.80:  WD ELEV
 APD .m                  43.60:  DEPTH ABOVE PD
 DEP .m                4092.57:  DEPTH
 AGAP.m                  43.60:  AIR GAP
 VSEW.m                  -0.67:  VERT SEC E/W
 VSNS.m                  -7.04:  VERT SEC N/S
 EKB .m                  43.60:  KB ELEVATION
 EDF .m                  43.60:  DF ELEVATION
 TDL .m                 957.50:  TOTAL DEPTH (LOGGER)
 VSC .                       0:  VS TO CLOSURE
 MAGU.                 1851413:  MAGUTM CHECKSUM
~Parameter Information Block
#MNEM.UNIT       Value        Description
#---------     -----------    ---------------------------
 AV  .mps                 1.50:  Ann Velocity 
 AVMX.mps                 2.00:  Max Ann Veloc 
 AZIF.deg               184.66:  Azm, Final 
 BHAT.        Rotary Steerable:  BHA Type 
 BREV.rev               300.00:  Rev Bit Total 
 BROT.°/30m              -0.50:  Build Rotating 
 BS  .in                  8.50:  Bit Size 
 BSZ .in                  8.50:  Bit Size 
 BTPL.psig              370.00:  Bit Press Loss 
 CABU.                      No:  Customer Abuse 
 CGEO.      Behruz Shahbaliyev:  Customer Geo 
 COMM.                     ,A[:  Run Comments 1 
 TCS .hr                140.08:  Time Ciculation Ended 
 CV  .mps                 3.00:  Crit Velocity 
 CVMX.mps                 3.20:  Max Crit Veloc 
 DD1 .            Musa Ahmadov:  Direct Drillr 1 
 DD2 .           Hamid Ahmadov:  Direct Drillr 2 
 DDSV.               Geo-Pilot:  DD Service 
 DEFF.%                  98.40:  % Det Eff 
 DLRX.°/30m               3.40:  Dogleg Rot Max 
 DLSO.°/30m               1.45:  Dogleg Oriented 
 DLSX.°/30m               3.40:  Dogleg Str Max 
 DRET.      18.40.00 29-Aug-21:  Drill End Time 
 DRST.      21.00.00 20-Aug-21:  Drill Start Tim 
 DTIM.hr                 69.47:  Time Drilling 
 EDEP.m                5084.50:  End Depth 
 ENG1.      Artemiy Matviyanov:  Engineer 1 
 ENG2.         Almaz Almadatov:  Engineer 2 
 ETIM.      18.40.00 29-Aug-21:  End Time 
 FLOI.gpm               500.00:  Flow In 
 FLON.gpm               400.00:  Flow In Min 
 FLOS.cptm                0.00:  Fluid Loss 
 FLOX.gpm               500.00:  Flow In Max 
 DFT .        Mineral Oil Base:  Mud Type 
 HFLO.                      No:  High Flow 
 HPRE.                      No:  High Pressure 
 HTEM.                      No:  High Temp 
 HYDO.m                   1.80:  Hydro Offset 
 IFIN.deg                25.62:  Inc, Final 
 IMAX.deg                48.69:  Inc Max 
 IMIN.deg                24.01:  Inc Min 
 IMND.m                4962.57:  Inc Min Depth 
 IMXD.m                4119.01:  Inc Max Depth 
 JARR.                      No:  Jarring 
 LETM.      18.40.00 29-Aug-21:  Log End Time 
 LOST.hr                     0:  Lost Rig Time 
 LSTM.      21.00.00 20-Aug-21:  Log Start Time 
 MDCL.ppm             41500.00:  Mud Chlorides 
 MDES.     Inversion Oil/Synthetic:  Mud Desc 
 DFD .sg                  1.56:  Mud Density 
 MDMN.sg                  1.56:  Dens Mud Min 
 MDMX.sg                  1.56:  Dens Mud Max 
 MOIL.                      70:  Run Mud Oil % 
 MOWR.                   70:30:  Run Mud OWR 
 MSND.                     0.2:  Run Mud Sand % 
 MSOL.                    23.3:  Run Mud Solids% 
 DFV .spqt               78.00:  Mud Viscosity 
 MWOD.in                  6.75:  MWD Tool OD 
 MWSI.                      No:  Serv Intrp, MWD 
 OTIM.hr                218.30:  Time Operating 
 PCON.           Look Like New:  Pad Condition 
 PMAX.psia            11015.30:  Press Op, Max 
 PV  .cP                 38.00:  Mud PV 
 RUN .                     300:  Run Number 
 ROPA.m/hr               15.00:  ROP Avg 
 ROPN.m/hr                9.00:  ROP Min 
 ROPX.m/hr               17.00:  ROP Max 
 RPMA.rpm               120.00:  RPM Surface Avg 
 RPMN.rpm                90.00:  RPM Surface Min 
 RPMX.rpm               140.00:  RPM Surface Max 
 RRUN.                     300:  Rig Run Number 
 RTIM.hr                 31.53:  Time Reaming 
 SAZI.deg               331.64:  Azm, Start 
 SDEP.m                4127.00:  Start Depth 
 SIDD.                      No:  Serv Intrp, DD 
 SINC.deg                48.43:  Inc, Start 
 SPPA.psig             5830.00:  SPP Avg 
 SPPN.psig             5600.00:  SPP Min 
 SPPX.psig             5900.00:  SPP Max 
 STIM.      21.00.00 20-Aug-21:  Start Time 
 SVCS.                 DD, MWD:  Services 
 SVER.                    9.20:  Sperry Version 
 TDAT.m                 957.50:  Tot Depth Attmp 
 TDDF.                      No:  Trip for DD 
 TDLG.m                 957.50:  Tot Depth Loggd 
 TFF .                      No:  Trip for Fail 
 TQAA.f-kp               15.00:  Torque Abs Avg 
 TQAN.f-kp               12.00:  Torque Abs Min 
 TQAX.f-kp               19.00:  Torque Abs Max 
 TRRT.°/30m              -3.40:  Turn Rotating 
 MRT .                  EWR-M5:  Maximum Recorded Temperature 
 TTMX.degC              100.00:  Max Tool Temp 
 VS01.                90639251:  Virtual Str1 SN 
 VS02.                90634715:  Virtual Str2 SN 
 VS03.                90652479:  Virtual Str3 SN 
 VS04.                90642262:  Virtual Str4 SN 
 WBMN.klb                 0.00:  WOB Min 
 WITN.           Murad Guliyev:  Customer Rep 
 WITN.          Yashar Gaziyev:  Customer Rep 2 
 WOBA.klb                 9.00:  WOB Avg 
 WOBX.klb                12.00:  WOB Max 
 YP  .lhf2               30.00:  Yield Point 
~Curve Information Block
#MNEM.UNIT                 API CODE     Curve Description
#---------               -----------    ---------------------------
 TIME.HHMMSS            00 000 000 000:  GT Time & Date
 GTDEPTH.m              00 000 000 000:  GT Depth
 GTPQH.psia             00 000 000 000:  GT HR Quartz Pressure
 GTTQ.degC              00 000 000 000:  GT Quartz Temperature
 GTTN.NONE              00 000 000 000:  GT Test Number
 GTET.sec               00 000 000 000:  GT Elapsed Test Time
 GTTVD.m                00 000 000 000:  GT True Vertical Depth
#Other Information
#
#WARRANTY: Halliburton will use its best efforts to furnish customers with 
#accurate information and interpretations that are part of, and incident to, the services 
#provided.  However, Halliburton cannot and does not warrant the accuracy 
#or correctness of such information and interpretations.  Under no circumstances should any 
#such information or interpretation be relied upon as the sole basis for any drilling, 
#completion, production, or financial decision or any procedure involving any risk to the 
#safety of any drilling venture, drilling rig or its crew or any other third party.  The 
#Customer has full responsibility for all drilling, completion and production operation.  
#Halliburton makes no representations or warranties, either expressed or 
#implied, including, but not limited to, the implied warranties of merchantability or fitness 
#for a particular purpose, with respect to the services rendered.  In no event will 
#Halliburton be liable for failure to obtain any particular results or for 
#any damages, including, but not limited to, indirect, special or consequential damages, 
#resulting from the use of any information or interpretation provided by Halliburton.
#
~A           TIME           GTDEPTH  GTPQH  GTTQ  GTTN   GTET   GTTVD  
# ...
   11:36:27.182.27-Aug-2021 4925.00 7830.21 85.57 10.00 406.94 3271.33
   11:36:27.382.27-Aug-2021 4925.00 7830.47 85.57 10.00 407.14 3271.33
   11:36:27.582.27-Aug-2021 4925.00 7830.47 85.57 10.00 407.34 3271.33
   11:36:27.782.27-Aug-2021 4925.00 7832.18 85.57 10.00 407.54 3271.33
   11:36:27.982.27-Aug-2021 4925.00 7830.37 85.57 10.00 407.74 3271.33
   11:36:28.183.27-Aug-2021 4925.00 7830.05 85.57 10.00 407.94 3271.33
   11:36:28.383.27-Aug-2021 4925.00 7834.29 85.57 10.00 408.14 3271.33
   11:36:28.583.27-Aug-2021 4925.00 7834.29 85.57 10.00 408.34 3271.33
   11:36:28.783.27-Aug-2021 4925.00 7831.72 85.57 10.00 408.55 3271.33
   11:36:28.983.27-Aug-2021 4925.00 7829.56 85.57 10.00 408.75 3271.33
   11:36:29.183.27-Aug-2021 4925.00 7829.77 85.57 10.00 408.95 3271.33
   11:36:29.383.27-Aug-2021 4925.00 7830.08 85.57 10.00 409.15 3271.33
   11:36:29.583.27-Aug-2021 4925.00 7830.08 85.57 10.00 409.35 3271.33
   11:36:29.783.27-Aug-2021 4925.00 7829.94 85.57 10.00 409.55 3271.33
   11:36:29.983.27-Aug-2021 4925.00 7830.41 85.57 10.00 409.75 3271.33
   11:36:30.183.27-Aug-2021 4925.00 7830.55 85.57 10.00 409.95 3271.33
   11:36:30.383.27-Aug-2021 4925.00 7831.00 85.57 10.00 410.15 3271.33
   11:36:30.583.27-Aug-2021 4925.00 7831.00 85.57 10.00 410.35 3271.33
   11:36:30.783.27-Aug-2021 4925.00 7831.11 85.57 10.00 410.55 3271.33
   11:36:30.984.27-Aug-2021 4925.00 7831.06 85.57 10.00 410.75 3271.33
   11:36:31.184.27-Aug-2021 4925.00 7830.77 85.57 10.00 410.95 3271.33
   11:36:31.384.27-Aug-2021 4925.00 7830.71 85.57 10.00 411.15 3271.33
   11:36:31.584.27-Aug-2021 4925.00 7830.71 85.57 10.00 411.35 3271.33
   11:36:31.784.27-Aug-2021 4925.00 7827.52 85.57 10.00 411.55 3271.33
   11:36:31.984.27-Aug-2021 4925.00 7831.66 85.57 10.00 411.75 3271.33
   11:36:32.184.27-Aug-2021 4925.00 7830.62 85.57 10.00 411.95 3271.33
   11:36:32.384.27-Aug-2021 4925.00 7830.22 85.57 10.00 412.15 3271.33
   11:36:32.584.27-Aug-2021 4925.00 7830.22 85.57 10.00 412.35 3271.33
   11:36:32.784.27-Aug-2021 4925.00 7829.84 85.56 10.00 412.55 3271.33
   11:36:32.984.27-Aug-2021 4925.00 7830.09 85.56 10.00 412.75 3271.33
   11:36:33.184.27-Aug-2021 4925.00 7830.03 85.56 10.00 412.95 3271.33
   11:36:33.384.27-Aug-2021 4925.00 7830.25 85.56 10.00 413.15 3271.33
   11:36:33.584.27-Aug-2021 4925.00 7830.25 85.56 10.00 413.35 3271.33
   11:36:33.785.27-Aug-2021 4925.00 7831.09 85.56 10.00 413.55 3271.33
   11:36:33.985.27-Aug-2021 4925.00 7831.46 85.56 10.00 413.75 3271.33
   11:36:34.185.27-Aug-2021 4925.00 7831.32 85.56 10.00 413.95 3271.33
   11:36:34.385.27-Aug-2021 4925.00 7831.15 85.56 10.00 414.15 3271.33
   11:36:34.585.27-Aug-2021 4925.00 7831.15 85.56 10.00 414.35 3271.33
   11:36:34.785.27-Aug-2021 4925.00 7830.72 85.56 10.00 414.55 3271.33
   11:36:34.985.27-Aug-2021 4925.00 7837.06 85.56 10.00 414.75 3271.33
   11:36:35.185.27-Aug-2021 4925.00 7827.58 85.56 10.00 414.95 3271.33
   11:36:35.385.27-Aug-2021 4925.00 7831.97 85.56 10.00 415.15 3271.33
   11:36:35.585.27-Aug-2021 4925.00 7831.97 85.56 10.00 415.35 3271.33
   11:36:35.785.27-Aug-2021 4925.00 7830.25 85.56 10.00 415.55 3271.33
   11:36:35.985.27-Aug-2021 4925.00 7830.28 85.56 10.00 415.75 3271.33
   11:36:36.185.27-Aug-2021 4925.00 7833.95 85.56 10.00 415.95 3271.33
   11:36:36.385.27-Aug-2021 4925.00 7829.82 85.56 10.00 416.15 3271.33
   11:36:36.586.27-Aug-2021 4925.00 7829.82 85.56 10.00 416.35 3271.33
   11:36:36.786.27-Aug-2021 4925.00 7830.13 85.56 10.00 416.55 3271.33
   11:36:36.986.27-Aug-2021 4925.00 7830.60 85.56 10.00 416.75 3271.33
   11:36:37.186.27-Aug-2021 4925.00 7835.09 85.56 10.00 416.95 3271.33
   11:36:37.386.27-Aug-2021 4925.00 7830.16 85.56 10.00 417.15 3271.33
   11:36:37.586.27-Aug-2021 4925.00 7830.16 85.56 10.00 417.35 3271.33
   11:36:37.786.27-Aug-2021 4925.00 7831.17 85.56 10.00 417.55 3271.33
   11:36:37.986.27-Aug-2021 4925.00 7836.18 85.56 10.00 417.75 3271.33
   11:36:38.186.27-Aug-2021 4925.00 7827.61 85.56 10.00 417.95 3271.33
   11:36:38.386.27-Aug-2021 4925.00 7831.87 85.56 10.00 418.15 3271.33
   11:36:38.586.27-Aug-2021 4925.00 7831.87 85.56 10.00 418.35 3271.33
   11:36:38.786.27-Aug-2021 4925.00 7829.96 85.56 10.00 418.55 3271.33
   11:36:38.986.27-Aug-2021 4925.00 7829.89 85.56 10.00 418.75 3271.33
   11:36:39.186.27-Aug-2021 4925.00 7829.97 85.56 10.00 418.95 3271.33
   11:36:39.387.27-Aug-2021 4925.00 7830.68 85.56 10.00 419.15 3271.33
   11:36:39.587.27-Aug-2021 4925.00 7830.68 85.56 10.00 419.35 3271.33
   11:36:39.787.27-Aug-2021 4925.00 7830.34 85.56 10.00 419.55 3271.33
   11:36:39.987.27-Aug-2021 4925.00 7830.95 85.56 10.00 419.75 3271.33
   11:36:40.187.27-Aug-2021 4925.00 7830.98 85.56 10.00 419.95 3271.33
   11:36:40.387.27-Aug-2021 4925.00 7831.08 85.56 10.00 420.15 3271.33
   11:36:40.587.27-Aug-2021 4925.00 7831.08 85.56 10.00 420.35 3271.33
   11:36:40.787.27-Aug-2021 4925.00 7830.60 85.56 10.00 420.55 3271.33
   11:36:40.987.27-Aug-2021 4925.00 7830.40 85.56 10.00 420.75 3271.33
   11:36:41.187.27-Aug-2021 4925.00 7833.55 85.56 10.00 420.95 3271.33
   11:36:41.387.27-Aug-2021 4925.00 7830.20 85.56 10.00 421.15 3271.33
   11:36:41.587.27-Aug-2021 4925.00 7830.20 85.56 10.00 421.35 3271.33
   11:36:41.787.27-Aug-2021 4925.00 7830.62 85.56 10.00 421.55 3271.33
   11:36:41.987.27-Aug-2021 4925.00 7830.09 85.56 10.00 421.75 3271.33
   11:36:42.187.27-Aug-2021 4925.00 7830.22 85.56 10.00 421.95 3271.33
   11:36:42.388.27-Aug-2021 4925.00 7830.01 85.56 10.00 422.15 3271.33
   11:36:42.588.27-Aug-2021 4925.00 7830.01 85.56 10.00 422.35 3271.33
   11:36:42.788.27-Aug-2021 4925.00 7829.88 85.56 10.00 422.55 3271.33
   11:36:42.988.27-Aug-2021 4925.00 7830.26 85.56 10.00 422.75 3271.33
   11:36:43.188.27-Aug-2021 4925.00 7830.99 85.55 10.00 422.95 3271.33
   11:36:43.388.27-Aug-2021 4925.00 7830.98 85.55 10.00 423.15 3271.33
   11:36:43.588.27-Aug-2021 4925.00 7830.98 85.55 10.00 423.35 3271.33
   11:36:43.788.27-Aug-2021 4925.00 7831.41 85.55 10.00 423.55 3271.33
   11:36:43.988.27-Aug-2021 4925.00 7831.10 85.55 10.00 423.75 3271.33
   11:36:44.188.27-Aug-2021 4925.00 7831.00 85.55 10.00 423.95 3271.33
   11:36:44.388.27-Aug-2021 4925.00 7830.71 85.55 10.00 424.15 3271.33
   11:36:44.588.27-Aug-2021 4925.00 7830.71 85.55 10.00 424.35 3271.33
   11:36:44.788.27-Aug-2021 4925.00 7830.40 85.55 10.00 424.55 3271.33
   11:36:44.988.27-Aug-2021 4925.00 7832.08 85.55 10.00 424.75 3271.33
   11:36:45.189.27-Aug-2021 4925.00 7830.49 85.55 10.00 424.95 3271.33
   11:36:45.389.27-Aug-2021 4925.00 7830.09 85.55 10.00 425.15 3271.33
   11:36:45.589.27-Aug-2021 4925.00 7830.09 85.55 10.00 425.35 3271.33
   11:36:45.789.27-Aug-2021 4925.00 7836.10 85.55 10.00 425.55 3271.33
   11:36:45.989.27-Aug-2021 4925.00 7827.46 85.55 10.00 425.75 3271.33
   11:36:46.189.27-Aug-2021 4925.00 7831.06 85.55 10.00 425.95 3271.33
   11:36:46.389.27-Aug-2021 4925.00 7830.43 85.55 10.00 426.15 3271.33
   11:36:46.589.27-Aug-2021 4925.00 7830.43 85.55 10.00 426.35 3271.33
   11:36:46.789.27-Aug-2021 4925.00 7834.38 85.55 10.00 426.55 3271.33
   11:36:46.989.27-Aug-2021 4925.00 7830.74 85.55 10.00 426.75 3271.33
   11:36:47.189.27-Aug-2021 4925.00 7832.56 85.55 10.00 426.95 3271.33
   11:36:47.389.27-Aug-2021 4925.00 7830.99 85.55 10.00 427.15 3271.33
   11:36:47.589.27-Aug-2021 4925.00 7830.99 85.55 10.00 427.35 3271.33
   11:36:47.789.27-Aug-2021 4925.00 7828.22 85.55 10.00 427.55 3271.33
   11:36:47.990.27-Aug-2021 4925.00 7832.26 85.55 10.00 427.75 3271.33
   11:36:48.190.27-Aug-2021 4925.00 7831.49 85.55 10.00 427.95 3271.33
   11:36:48.390.27-Aug-2021 4925.00 7830.32 85.55 10.00 428.15 3271.33
   11:36:48.590.27-Aug-2021 4925.00 7830.32 85.55 10.00 428.35 3271.33
   11:36:48.790.27-Aug-2021 4925.00 7830.27 85.55 10.00 428.55 3271.33
   11:36:48.990.27-Aug-2021 4925.00 7830.64 85.55 10.00 428.75 3271.33
   11:36:49.190.27-Aug-2021 4925.00 7830.51 85.55 10.00 428.95 3271.33
   11:36:49.390.27-Aug-2021 4925.00 7830.56 85.55 10.00 429.15 3271.33
   11:36:49.590.27-Aug-2021 4925.00 7830.56 85.55 10.00 429.35 3271.33
