~Version Information
 VERS.                  2.0:   CWLS log ASCII Standard -VERSION 2.0
 WRAP.                   NO:   One line per depth step
~Well Information Block
#MNEM.UNIT     VALUE/NAME     DESCRIPTION
#---------     -----------    ---------------------------
 STRT.S             08:51:30 27-Aug-21: START TIME 08:51:30 27-Aug-21
 STOP.S             08:58:20 27-Aug-21: STOP TIME  08:58:20 27-Aug-21
 STEP.S                   0.00: STEP TIME
 NULL.                 -999.25: NULL VALUE
 DFWT.                        :  DIST FWL TEXT
 DFST.                        :  DIST FSL TEXT
 DMF .             Drill Floor:  DRILL MEAS FROM
 STIM.      20.00.00 17-Aug-21:  START TIME
 DATE.      19.00.00 29-Aug-21:  END TIME
 SPUD.               15-Aug-21:  SPUD DATE
 NREF.                    Grid:  NORTH REFERENCE
 HPTY.       Minimum Curvature:  HOLE POS TYPE
 DMOD.             Drill Model:  DRILL MOD DESC
 SVYD.                  Survey:  SURVEY DESC
 ILTD.               Lithology:  INTERP LTH DESC
 FTOP.          Formation Tops:  FORM TOPS DESC
 RIG .              East Azeri:  RIG NAME
 PDAT.          Mean Sea Level:  PERMANENT DATUM
 FLD .                     ACG:  FIELD NAME
 SON .        AZ-XX-0907180857:  JOB NUMBER
 CTRY.              Azerbaijan:  COUNTRY NAME
 WELL.                    D23x:  WELL NAME
 SRVC.     Turan Drilling and Engineering:  CONTRACTOR
 COMP.     BP Exploration (Caspian Sea) Ltd.:  COMPANY
 UWI .            /AZE00000214:  UNIQUE WELL IDENTIFIER
 API .            /AZE00000214:  API NUMBER
 MDS .        Operator Entered:  MAG DATA SOURCE
 BASE.              Azerbaijan:  LOGGING EQUIPMENT BASE LOCATION
 REGN.                   EESSA:  REGION
 PROV.                    Baku:  PROVINCE
 STAT.                    Baku:  STATE NAME
 MWDS.                    Baku:  MWD SHOP
 DOE .                     N/A:  DOE NUMBER
 DCON.         Sperry Drilling:  DIRECTNL CONTR
 UNIT.                     N/A:  LOGGING EQUIPMENT ID
 WTYP.                Deviated:  WELL TYPE
 CNTY.                        :  COUNTY
 LOC .                        :  LOCATION
 LMF .             Drill Floor:  LOG MEASURED FROM
 TVDS.m                  43.60:  TVDSS CORRECTN
 LATI.deg                40.02:  LATITUDE
 LONG.deg                51.45:  LONGITUDE
 WHNS.m                  -7.04:  WELL HEAD N/S
 WHEW.m                  -0.67:  WELL HEAD E/W
 UTMX.m              538762.90:  UTM X
 UTMY.m             4431871.34:  UTM Y
 DFWL.m                   0.00:  DISTANCE FWL
 DFSL.m                   0.00:  DISTANCE FSL
 SDEP.m                4127.00:  START DEPTH
 TDD .m                5084.50:  TOTAL DEPTH (DRILLER)
 VSDR.deg               140.47:  VERT SEC DIRECT
 GVFD.g                   1.00:  GRAVITY FIELD
 MFLD.nT              50362.00:  MAGNETIC FIELD
 MDIP.deg                59.48:  MAGNETIC DIP
 MDEC.deg                 6.47:  MAGNETIC DECL
 GRDC.deg                 0.31:  GRID CORRECTION
 AZTC.deg                 6.16:  AZM TOTAL CORR
 EPD .m                   0.00:  ELEVATION
 EGL .m                   0.00:  GROUND ELEVATION
 WDMS.m                 151.80:  WD ELEV
 APD .m                  43.60:  DEPTH ABOVE PD
 DEP .m                4092.57:  DEPTH
 AGAP.m                  43.60:  AIR GAP
 VSEW.m                  -0.67:  VERT SEC E/W
 VSNS.m                  -7.04:  VERT SEC N/S
 EKB .m                  43.60:  KB ELEVATION
 EDF .m                  43.60:  DF ELEVATION
 TDL .m                 957.50:  TOTAL DEPTH (LOGGER)
 VSC .                       0:  VS TO CLOSURE
 MAGU.                 1851413:  MAGUTM CHECKSUM
~Parameter Information Block
#MNEM.UNIT       Value        Description
#---------     -----------    ---------------------------
 AV  .mps                 1.50:  Ann Velocity 
 AVMX.mps                 2.00:  Max Ann Veloc 
 AZIF.deg               184.66:  Azm, Final 
 BHAT.        Rotary Steerable:  BHA Type 
 BREV.rev               300.00:  Rev Bit Total 
 BROT.°/30m              -0.50:  Build Rotating 
 BS  .in                  8.50:  Bit Size 
 BSZ .in                  8.50:  Bit Size 
 BTPL.psig              370.00:  Bit Press Loss 
 CABU.                      No:  Customer Abuse 
 CGEO.      Behruz Shahbaliyev:  Customer Geo 
 COMM.                     <w:  Run Comments 1 
 TCS .hr                140.08:  Time Ciculation Ended 
 CV  .mps                 3.00:  Crit Velocity 
 CVMX.mps                 3.20:  Max Crit Veloc 
 DD1 .            Musa Ahmadov:  Direct Drillr 1 
 DD2 .           Hamid Ahmadov:  Direct Drillr 2 
 DDSV.               Geo-Pilot:  DD Service 
 DEFF.%                  98.40:  % Det Eff 
 DLRX.°/30m               3.40:  Dogleg Rot Max 
 DLSO.°/30m               1.45:  Dogleg Oriented 
 DLSX.°/30m               3.40:  Dogleg Str Max 
 DRET.      18.40.00 29-Aug-21:  Drill End Time 
 DRST.      21.00.00 20-Aug-21:  Drill Start Tim 
 DTIM.hr                 69.47:  Time Drilling 
 EDEP.m                5084.50:  End Depth 
 ENG1.      Artemiy Matviyanov:  Engineer 1 
 ENG2.         Almaz Almadatov:  Engineer 2 
 ETIM.      18.40.00 29-Aug-21:  End Time 
 FLOI.gpm               500.00:  Flow In 
 FLON.gpm               400.00:  Flow In Min 
 FLOS.cptm                0.00:  Fluid Loss 
 FLOX.gpm               500.00:  Flow In Max 
 DFT .        Mineral Oil Base:  Mud Type 
 HFLO.                      No:  High Flow 
 HPRE.                      No:  High Pressure 
 HTEM.                      No:  High Temp 
 HYDO.m                   1.80:  Hydro Offset 
 IFIN.deg                25.62:  Inc, Final 
 IMAX.deg                48.69:  Inc Max 
 IMIN.deg                24.01:  Inc Min 
 IMND.m                4962.57:  Inc Min Depth 
 IMXD.m                4119.01:  Inc Max Depth 
 JARR.                      No:  Jarring 
 LETM.      18.40.00 29-Aug-21:  Log End Time 
 LOST.hr                     0:  Lost Rig Time 
 LSTM.      21.00.00 20-Aug-21:  Log Start Time 
 MDCL.ppm             41500.00:  Mud Chlorides 
 MDES.     Inversion Oil/Synthetic:  Mud Desc 
 DFD .sg                  1.56:  Mud Density 
 MDMN.sg                  1.56:  Dens Mud Min 
 MDMX.sg                  1.56:  Dens Mud Max 
 MOIL.                      70:  Run Mud Oil % 
 MOWR.                   70:30:  Run Mud OWR 
 MSND.                     0.2:  Run Mud Sand % 
 MSOL.                    23.3:  Run Mud Solids% 
 DFV .spqt               78.00:  Mud Viscosity 
 MWOD.in                  6.75:  MWD Tool OD 
 MWSI.                      No:  Serv Intrp, MWD 
 OTIM.hr                218.30:  Time Operating 
 PCON.           Look Like New:  Pad Condition 
 PMAX.psia            11015.30:  Press Op, Max 
 PV  .cP                 38.00:  Mud PV 
 RUN .                     300:  Run Number 
 ROPA.m/hr               15.00:  ROP Avg 
 ROPN.m/hr                9.00:  ROP Min 
 ROPX.m/hr               17.00:  ROP Max 
 RPMA.rpm               120.00:  RPM Surface Avg 
 RPMN.rpm                90.00:  RPM Surface Min 
 RPMX.rpm               140.00:  RPM Surface Max 
 RRUN.                     300:  Rig Run Number 
 RTIM.hr                 31.53:  Time Reaming 
 SAZI.deg               331.64:  Azm, Start 
 SDEP.m                4127.00:  Start Depth 
 SIDD.                      No:  Serv Intrp, DD 
 SINC.deg                48.43:  Inc, Start 
 SPPA.psig             5830.00:  SPP Avg 
 SPPN.psig             5600.00:  SPP Min 
 SPPX.psig             5900.00:  SPP Max 
 STIM.      21.00.00 20-Aug-21:  Start Time 
 SVCS.                 DD, MWD:  Services 
 SVER.                    9.20:  Sperry Version 
 TDAT.m                 957.50:  Tot Depth Attmp 
 TDDF.                      No:  Trip for DD 
 TDLG.m                 957.50:  Tot Depth Loggd 
 TFF .                      No:  Trip for Fail 
 TQAA.f-kp               15.00:  Torque Abs Avg 
 TQAN.f-kp               12.00:  Torque Abs Min 
 TQAX.f-kp               19.00:  Torque Abs Max 
 TRRT.°/30m              -3.40:  Turn Rotating 
 MRT .                  EWR-M5:  Maximum Recorded Temperature 
 TTMX.degC              100.00:  Max Tool Temp 
 VS01.                90639251:  Virtual Str1 SN 
 VS02.                90634715:  Virtual Str2 SN 
 VS03.                90652479:  Virtual Str3 SN 
 VS04.                90642262:  Virtual Str4 SN 
 WBMN.klb                 0.00:  WOB Min 
 WITN.           Murad Guliyev:  Customer Rep 
 WITN.          Yashar Gaziyev:  Customer Rep 2 
 WOBA.klb                 9.00:  WOB Avg 
 WOBX.klb                12.00:  WOB Max 
 YP  .lhf2               30.00:  Yield Point 
~Curve Information Block
#MNEM.UNIT                 API CODE     Curve Description
#---------               -----------    ---------------------------
 TIME.HHMMSS            00 000 000 000:  GT Time & Date
 GTDEPTH.m              00 000 000 000:  GT Depth
 GTPQH.psia             00 000 000 000:  GT HR Quartz Pressure
 GTTQ.degC              00 000 000 000:  GT Quartz Temperature
 GTTN.NONE              00 000 000 000:  GT Test Number
 GTET.sec               00 000 000 000:  GT Elapsed Test Time
 GTTVD.m                00 000 000 000:  GT True Vertical Depth
#Other Information
#
#WARRANTY: Halliburton will use its best efforts to furnish customers with 
#accurate information and interpretations that are part of, and incident to, the services 
#provided.  However, Halliburton cannot and does not warrant the accuracy 
#or correctness of such information and interpretations.  Under no circumstances should any 
#such information or interpretation be relied upon as the sole basis for any drilling, 
#completion, production, or financial decision or any procedure involving any risk to the 
#safety of any drilling venture, drilling rig or its crew or any other third party.  The 
#Customer has full responsibility for all drilling, completion and production operation.  
#Halliburton makes no representations or warranties, either expressed or 
#implied, including, but not limited to, the implied warranties of merchantability or fitness 
#for a particular purpose, with respect to the services rendered.  In no event will 
#Halliburton be liable for failure to obtain any particular results or for 
#any damages, including, but not limited to, indirect, special or consequential damages, 
#resulting from the use of any information or interpretation provided by Halliburton.
#
~A           TIME           GTDEPTH  GTPQH  GTTQ  GTTN  GTET   GTTVD  
# ...
   08:54:11.491.27-Aug-2021 4965.00 2037.09 86.64 6.00 161.07 3307.85
   08:54:11.691.27-Aug-2021 4965.00 2037.09 86.64 6.00 161.27 3307.85
   08:54:11.891.27-Aug-2021 4965.00 1820.64 86.64 6.00 161.47 3307.85
   08:54:12.091.27-Aug-2021 4965.00 1805.06 86.64 6.00 161.67 3307.85
   08:54:12.291.27-Aug-2021 4965.00 1801.47 86.64 6.00 161.87 3307.85
   08:54:12.491.27-Aug-2021 4965.00 1800.09 86.64 6.00 162.07 3307.85
   08:54:12.691.27-Aug-2021 4965.00 1800.09 86.64 6.00 162.27 3307.85
   08:54:12.891.27-Aug-2021 4965.00 1799.89 86.64 6.00 162.47 3307.85
   08:54:13.091.27-Aug-2021 4965.00 1799.16 86.64 6.00 162.67 3307.85
   08:54:13.291.27-Aug-2021 4965.00 1797.83 86.64 6.00 162.87 3307.85
   08:54:13.492.27-Aug-2021 4965.00 1794.73 86.64 6.00 163.07 3307.85
   08:54:13.692.27-Aug-2021 4965.00 1794.73 86.64 6.00 163.27 3307.85
   08:54:13.892.27-Aug-2021 4965.00 1794.49 86.64 6.00 163.47 3307.85
   08:54:14.092.27-Aug-2021 4965.00 1794.60 86.64 6.00 163.67 3307.85
   08:54:14.292.27-Aug-2021 4965.00 1794.93 86.64 6.00 163.87 3307.85
   08:54:14.492.27-Aug-2021 4965.00 1795.23 86.64 6.00 164.07 3307.85
   08:54:14.692.27-Aug-2021 4965.00 1795.23 86.64 6.00 164.27 3307.85
   08:54:14.892.27-Aug-2021 4965.00 1795.55 86.64 6.00 164.47 3307.85
   08:54:15.092.27-Aug-2021 4965.00 1795.94 86.64 6.00 164.67 3307.85
   08:54:15.292.27-Aug-2021 4965.00 1796.17 86.64 6.00 164.87 3307.85
   08:54:15.492.27-Aug-2021 4965.00 1796.34 86.63 6.00 165.07 3307.85
   08:54:15.692.27-Aug-2021 4965.00 1796.34 86.63 6.00 165.27 3307.85
   08:54:15.892.27-Aug-2021 4965.00 1796.75 86.63 6.00 165.47 3307.85
   08:54:16.093.27-Aug-2021 4965.00 1796.91 86.63 6.00 165.67 3307.85
   08:54:16.293.27-Aug-2021 4965.00 1796.71 86.63 6.00 165.87 3307.85
   08:54:16.493.27-Aug-2021 4965.00 1794.95 86.63 6.00 166.07 3307.85
   08:54:16.693.27-Aug-2021 4965.00 1794.95 86.63 6.00 166.27 3307.85
   08:54:16.893.27-Aug-2021 4965.00 1794.63 86.63 6.00 166.47 3307.85
   08:54:17.093.27-Aug-2021 4965.00 1794.96 86.63 6.00 166.67 3307.85
   08:54:17.293.27-Aug-2021 4965.00 1794.41 86.63 6.00 166.87 3307.85
   08:54:17.493.27-Aug-2021 4965.00 1793.77 86.63 6.00 167.07 3307.85
   08:54:17.693.27-Aug-2021 4965.00 1793.77 86.63 6.00 167.27 3307.85
   08:54:17.893.27-Aug-2021 4965.00 1794.39 86.63 6.00 167.47 3307.85
   08:54:18.093.27-Aug-2021 4965.00 1794.90 86.63 6.00 167.67 3307.85
   08:54:18.293.27-Aug-2021 4965.00 1794.32 86.63 6.00 167.87 3307.85
   08:54:18.494.27-Aug-2021 4965.00 1793.02 86.63 6.00 168.07 3307.85
   08:54:18.694.27-Aug-2021 4965.00 1793.02 86.63 6.00 168.27 3307.85
   08:54:18.894.27-Aug-2021 4965.00 1793.69 86.63 6.00 168.47 3307.85
   08:54:19.094.27-Aug-2021 4965.00 1794.19 86.63 6.00 168.67 3307.85
   08:54:19.294.27-Aug-2021 4965.00 1794.75 86.63 6.00 168.87 3307.85
   08:54:19.494.27-Aug-2021 4965.00 1794.38 86.63 6.00 169.07 3307.85
   08:54:19.694.27-Aug-2021 4965.00 1794.38 86.63 6.00 169.27 3307.85
   08:54:19.894.27-Aug-2021 4965.00 1794.77 86.63 6.00 169.47 3307.85
   08:54:20.094.27-Aug-2021 4965.00 1795.06 86.63 6.00 169.67 3307.85
   08:54:20.294.27-Aug-2021 4965.00 1795.54 86.63 6.00 169.87 3307.85
   08:54:20.494.27-Aug-2021 4965.00 1796.10 86.63 6.00 170.07 3307.85
   08:54:20.694.27-Aug-2021 4965.00 1796.10 86.63 6.00 170.27 3307.85
   08:54:20.895.27-Aug-2021 4965.00 1796.82 86.63 6.00 170.47 3307.85
   08:54:21.095.27-Aug-2021 4965.00 1797.25 86.63 6.00 170.67 3307.85
   08:54:21.295.27-Aug-2021 4965.00 1797.68 86.63 6.00 170.87 3307.85
   08:54:21.495.27-Aug-2021 4965.00 1798.17 86.63 6.00 171.07 3307.85
   08:54:21.695.27-Aug-2021 4965.00 1798.17 86.63 6.00 171.27 3307.85
   08:54:21.895.27-Aug-2021 4965.00 1801.19 86.63 6.00 171.47 3307.85
   08:54:22.095.27-Aug-2021 4965.00 1806.74 86.63 6.00 171.67 3307.85
   08:54:22.295.27-Aug-2021 4965.00 1807.15 86.63 6.00 171.87 3307.85
   08:54:22.495.27-Aug-2021 4965.00 1807.07 86.63 6.00 172.07 3307.85
   08:54:22.695.27-Aug-2021 4965.00 1807.07 86.63 6.00 172.27 3307.85
   08:54:22.895.27-Aug-2021 4965.00 1806.23 86.63 6.00 172.47 3307.85
   08:54:23.095.27-Aug-2021 4965.00 1806.46 86.63 6.00 172.67 3307.85
   08:54:23.296.27-Aug-2021 4965.00 1806.77 86.63 6.00 172.87 3307.85
   08:54:23.496.27-Aug-2021 4965.00 1807.19 86.63 6.00 173.07 3307.85
   08:54:23.696.27-Aug-2021 4965.00 1807.19 86.63 6.00 173.27 3307.85
   08:54:23.896.27-Aug-2021 4965.00 1807.90 86.63 6.00 173.47 3307.85
   08:54:24.096.27-Aug-2021 4965.00 1808.28 86.63 6.00 173.67 3307.85
   08:54:24.296.27-Aug-2021 4965.00 1808.63 86.63 6.00 173.87 3307.85
   08:54:24.496.27-Aug-2021 4965.00 1809.01 86.63 6.00 174.07 3307.85
   08:54:24.696.27-Aug-2021 4965.00 1809.01 86.63 6.00 174.27 3307.85
   08:54:24.896.27-Aug-2021 4965.00 1809.79 86.63 6.00 174.47 3307.85
   08:54:25.096.27-Aug-2021 4965.00 1810.15 86.63 6.00 174.67 3307.85
   08:54:25.296.27-Aug-2021 4965.00 1810.52 86.63 6.00 174.87 3307.85
   08:54:25.496.27-Aug-2021 4965.00 1810.88 86.63 6.00 175.07 3307.85
   08:54:25.697.27-Aug-2021 4965.00 1810.88 86.63 6.00 175.27 3307.85
   08:54:25.897.27-Aug-2021 4965.00 1811.06 86.63 6.00 175.47 3307.85
   08:54:26.097.27-Aug-2021 4965.00 1811.44 86.63 6.00 175.67 3307.85
   08:54:26.297.27-Aug-2021 4965.00 1811.60 86.63 6.00 175.87 3307.85
   08:54:26.497.27-Aug-2021 4965.00 1811.46 86.63 6.00 176.07 3307.85
   08:54:26.697.27-Aug-2021 4965.00 1811.46 86.63 6.00 176.27 3307.85
   08:54:26.897.27-Aug-2021 4965.00 1812.29 86.63 6.00 176.47 3307.85
   08:54:27.097.27-Aug-2021 4965.00 1812.41 86.63 6.00 176.67 3307.85
   08:54:27.297.27-Aug-2021 4965.00 1812.01 86.63 6.00 176.87 3307.85
   08:54:27.497.27-Aug-2021 4965.00 1812.69 86.63 6.00 177.07 3307.85
   08:54:27.697.27-Aug-2021 4965.00 1812.69 86.63 6.00 177.27 3307.85
   08:54:27.897.27-Aug-2021 4965.00 1813.10 86.63 6.00 177.47 3307.85
   08:54:28.098.27-Aug-2021 4965.00 1813.30 86.63 6.00 177.67 3307.85
   08:54:28.298.27-Aug-2021 4965.00 1813.44 86.63 6.00 177.87 3307.85
   08:54:28.498.27-Aug-2021 4965.00 1814.19 86.63 6.00 178.07 3307.85
   08:54:28.698.27-Aug-2021 4965.00 1814.19 86.63 6.00 178.27 3307.85
   08:54:28.898.27-Aug-2021 4965.00 1814.49 86.63 6.00 178.47 3307.85
   08:54:29.098.27-Aug-2021 4965.00 1814.74 86.63 6.00 178.67 3307.85
   08:54:29.298.27-Aug-2021 4965.00 1815.05 86.63 6.00 178.87 3307.85
   08:54:29.498.27-Aug-2021 4965.00 1815.29 86.63 6.00 179.07 3307.85
   08:54:29.698.27-Aug-2021 4965.00 1815.29 86.63 6.00 179.27 3307.85
   08:54:29.898.27-Aug-2021 4965.00 1815.81 86.63 6.00 179.47 3307.85
   08:54:30.098.27-Aug-2021 4965.00 1816.07 86.63 6.00 179.67 3307.85
   08:54:30.298.27-Aug-2021 4965.00 1816.34 86.63 6.00 179.87 3307.85
   08:54:30.499.27-Aug-2021 4965.00 1816.66 86.63 6.00 180.07 3307.85
   08:54:30.699.27-Aug-2021 4965.00 1816.66 86.63 6.00 180.27 3307.85
   08:54:30.899.27-Aug-2021 4965.00 1817.18 86.63 6.00 180.47 3307.85
   08:54:31.099.27-Aug-2021 4965.00 1817.43 86.63 6.00 180.68 3307.85
   08:54:31.299.27-Aug-2021 4965.00 1817.48 86.63 6.00 180.88 3307.85
   08:54:31.499.27-Aug-2021 4965.00 1818.06 86.63 6.00 181.08 3307.85
   08:54:31.699.27-Aug-2021 4965.00 1818.06 86.63 6.00 181.28 3307.85
   08:54:31.899.27-Aug-2021 4965.00 1818.61 86.63 6.00 181.48 3307.85
   08:54:32.099.27-Aug-2021 4965.00 1818.72 86.63 6.00 181.68 3307.85
   08:54:32.299.27-Aug-2021 4965.00 1818.96 86.63 6.00 181.88 3307.85
   08:54:32.499.27-Aug-2021 4965.00 1819.16 86.63 6.00 182.08 3307.85
   08:54:32.699.27-Aug-2021 4965.00 1819.16 86.63 6.00 182.28 3307.85
   08:54:32.900.27-Aug-2021 4965.00 1819.59 86.63 6.00 182.48 3307.85
   08:54:33.100.27-Aug-2021 4965.00 1819.86 86.63 6.00 182.68 3307.85
   08:54:33.300.27-Aug-2021 4965.00 1820.09 86.63 6.00 182.88 3307.85
   08:54:33.500.27-Aug-2021 4965.00 1820.38 86.63 6.00 183.08 3307.85
   08:54:33.700.27-Aug-2021 4965.00 1820.38 86.63 6.00 183.28 3307.85
   08:54:33.900.27-Aug-2021 4965.00 1820.83 86.63 6.00 183.48 3307.85
   08:54:34.100.27-Aug-2021 4965.00 1821.07 86.63 6.00 183.68 3307.85
   08:54:34.300.27-Aug-2021 4965.00 1821.30 86.63 6.00 183.88 3307.85
