~Version Information
 VERS.                  2.0:   CWLS log ASCII Standard -VERSION 2.0
 WRAP.                   NO:   One line per depth step
~Well Information Block
#MNEM.UNIT     VALUE/NAME     DESCRIPTION
#---------     -----------    ---------------------------
 STRT.S             14:18:21 27-Aug-21: START TIME 14:18:21 27-Aug-21
 STOP.S             14:25:11 27-Aug-21: STOP TIME  14:25:11 27-Aug-21
 STEP.S                   0.00: STEP TIME
 NULL.                 -999.25: NULL VALUE
 DFWT.                        :  DIST FWL TEXT
 DFST.                        :  DIST FSL TEXT
 DMF .             Drill Floor:  DRILL MEAS FROM
 STIM.      20.00.00 17-Aug-21:  START TIME
 DATE.      19.00.00 29-Aug-21:  END TIME
 SPUD.               15-Aug-21:  SPUD DATE
 NREF.                    Grid:  NORTH REFERENCE
 HPTY.       Minimum Curvature:  HOLE POS TYPE
 DMOD.             Drill Model:  DRILL MOD DESC
 SVYD.                  Survey:  SURVEY DESC
 ILTD.               Lithology:  INTERP LTH DESC
 FTOP.          Formation Tops:  FORM TOPS DESC
 RIG .              East Azeri:  RIG NAME
 PDAT.          Mean Sea Level:  PERMANENT DATUM
 FLD .                     ACG:  FIELD NAME
 SON .        AZ-XX-0907180857:  JOB NUMBER
 CTRY.              Azerbaijan:  COUNTRY NAME
 WELL.                    D23x:  WELL NAME
 SRVC.     Turan Drilling and Engineering:  CONTRACTOR
 COMP.     BP Exploration (Caspian Sea) Ltd.:  COMPANY
 UWI .            /AZE00000214:  UNIQUE WELL IDENTIFIER
 API .            /AZE00000214:  API NUMBER
 MDS .        Operator Entered:  MAG DATA SOURCE
 BASE.              Azerbaijan:  LOGGING EQUIPMENT BASE LOCATION
 REGN.                   EESSA:  REGION
 PROV.                    Baku:  PROVINCE
 STAT.                    Baku:  STATE NAME
 MWDS.                    Baku:  MWD SHOP
 DOE .                     N/A:  DOE NUMBER
 DCON.         Sperry Drilling:  DIRECTNL CONTR
 UNIT.                     N/A:  LOGGING EQUIPMENT ID
 WTYP.                Deviated:  WELL TYPE
 CNTY.                        :  COUNTY
 LOC .                        :  LOCATION
 LMF .             Drill Floor:  LOG MEASURED FROM
 TVDS.m                  43.60:  TVDSS CORRECTN
 LATI.deg                40.02:  LATITUDE
 LONG.deg                51.45:  LONGITUDE
 WHNS.m                  -7.04:  WELL HEAD N/S
 WHEW.m                  -0.67:  WELL HEAD E/W
 UTMX.m              538762.90:  UTM X
 UTMY.m             4431871.34:  UTM Y
 DFWL.m                   0.00:  DISTANCE FWL
 DFSL.m                   0.00:  DISTANCE FSL
 SDEP.m                4127.00:  START DEPTH
 TDD .m                5084.50:  TOTAL DEPTH (DRILLER)
 VSDR.deg               140.47:  VERT SEC DIRECT
 GVFD.g                   1.00:  GRAVITY FIELD
 MFLD.nT              50362.00:  MAGNETIC FIELD
 MDIP.deg                59.48:  MAGNETIC DIP
 MDEC.deg                 6.47:  MAGNETIC DECL
 GRDC.deg                 0.31:  GRID CORRECTION
 AZTC.deg                 6.16:  AZM TOTAL CORR
 EPD .m                   0.00:  ELEVATION
 EGL .m                   0.00:  GROUND ELEVATION
 WDMS.m                 151.80:  WD ELEV
 APD .m                  43.60:  DEPTH ABOVE PD
 DEP .m                4092.57:  DEPTH
 AGAP.m                  43.60:  AIR GAP
 VSEW.m                  -0.67:  VERT SEC E/W
 VSNS.m                  -7.04:  VERT SEC N/S
 EKB .m                  43.60:  KB ELEVATION
 EDF .m                  43.60:  DF ELEVATION
 TDL .m                 957.50:  TOTAL DEPTH (LOGGER)
 VSC .                       0:  VS TO CLOSURE
 MAGU.                 1851413:  MAGUTM CHECKSUM
~Parameter Information Block
#MNEM.UNIT       Value        Description
#---------     -----------    ---------------------------
 AV  .mps                 1.50:  Ann Velocity 
 AVMX.mps                 2.00:  Max Ann Veloc 
 AZIF.deg               184.66:  Azm, Final 
 BHAT.        Rotary Steerable:  BHA Type 
 BREV.rev               300.00:  Rev Bit Total 
 BROT.°/30m              -0.50:  Build Rotating 
 BS  .in                  8.50:  Bit Size 
 BSZ .in                  8.50:  Bit Size 
 BTPL.psig              370.00:  Bit Press Loss 
 CABU.                      No:  Customer Abuse 
 CGEO.      Behruz Shahbaliyev:  Customer Geo 
 COMM.                     LAp:  Run Comments 1 
 TCS .hr                140.08:  Time Ciculation Ended 
 CV  .mps                 3.00:  Crit Velocity 
 CVMX.mps                 3.20:  Max Crit Veloc 
 DD1 .            Musa Ahmadov:  Direct Drillr 1 
 DD2 .           Hamid Ahmadov:  Direct Drillr 2 
 DDSV.               Geo-Pilot:  DD Service 
 DEFF.%                  98.40:  % Det Eff 
 DLRX.°/30m               3.40:  Dogleg Rot Max 
 DLSO.°/30m               1.45:  Dogleg Oriented 
 DLSX.°/30m               3.40:  Dogleg Str Max 
 DRET.      18.40.00 29-Aug-21:  Drill End Time 
 DRST.      21.00.00 20-Aug-21:  Drill Start Tim 
 DTIM.hr                 69.47:  Time Drilling 
 EDEP.m                5084.50:  End Depth 
 ENG1.      Artemiy Matviyanov:  Engineer 1 
 ENG2.         Almaz Almadatov:  Engineer 2 
 ETIM.      18.40.00 29-Aug-21:  End Time 
 FLOI.gpm               500.00:  Flow In 
 FLON.gpm               400.00:  Flow In Min 
 FLOS.cptm                0.00:  Fluid Loss 
 FLOX.gpm               500.00:  Flow In Max 
 DFT .        Mineral Oil Base:  Mud Type 
 HFLO.                      No:  High Flow 
 HPRE.                      No:  High Pressure 
 HTEM.                      No:  High Temp 
 HYDO.m                   1.80:  Hydro Offset 
 IFIN.deg                25.62:  Inc, Final 
 IMAX.deg                48.69:  Inc Max 
 IMIN.deg                24.01:  Inc Min 
 IMND.m                4962.57:  Inc Min Depth 
 IMXD.m                4119.01:  Inc Max Depth 
 JARR.                      No:  Jarring 
 LETM.      18.40.00 29-Aug-21:  Log End Time 
 LOST.hr                     0:  Lost Rig Time 
 LSTM.      21.00.00 20-Aug-21:  Log Start Time 
 MDCL.ppm             41500.00:  Mud Chlorides 
 MDES.     Inversion Oil/Synthetic:  Mud Desc 
 DFD .sg                  1.56:  Mud Density 
 MDMN.sg                  1.56:  Dens Mud Min 
 MDMX.sg                  1.56:  Dens Mud Max 
 MOIL.                      70:  Run Mud Oil % 
 MOWR.                   70:30:  Run Mud OWR 
 MSND.                     0.2:  Run Mud Sand % 
 MSOL.                    23.3:  Run Mud Solids% 
 DFV .spqt               78.00:  Mud Viscosity 
 MWOD.in                  6.75:  MWD Tool OD 
 MWSI.                      No:  Serv Intrp, MWD 
 OTIM.hr                218.30:  Time Operating 
 PCON.           Look Like New:  Pad Condition 
 PMAX.psia            11015.30:  Press Op, Max 
 PV  .cP                 38.00:  Mud PV 
 RUN .                     300:  Run Number 
 ROPA.m/hr               15.00:  ROP Avg 
 ROPN.m/hr                9.00:  ROP Min 
 ROPX.m/hr               17.00:  ROP Max 
 RPMA.rpm               120.00:  RPM Surface Avg 
 RPMN.rpm                90.00:  RPM Surface Min 
 RPMX.rpm               140.00:  RPM Surface Max 
 RRUN.                     300:  Rig Run Number 
 RTIM.hr                 31.53:  Time Reaming 
 SAZI.deg               331.64:  Azm, Start 
 SDEP.m                4127.00:  Start Depth 
 SIDD.                      No:  Serv Intrp, DD 
 SINC.deg                48.43:  Inc, Start 
 SPPA.psig             5830.00:  SPP Avg 
 SPPN.psig             5600.00:  SPP Min 
 SPPX.psig             5900.00:  SPP Max 
 STIM.      21.00.00 20-Aug-21:  Start Time 
 SVCS.                 DD, MWD:  Services 
 SVER.                    9.20:  Sperry Version 
 TDAT.m                 957.50:  Tot Depth Attmp 
 TDDF.                      No:  Trip for DD 
 TDLG.m                 957.50:  Tot Depth Loggd 
 TFF .                      No:  Trip for Fail 
 TQAA.f-kp               15.00:  Torque Abs Avg 
 TQAN.f-kp               12.00:  Torque Abs Min 
 TQAX.f-kp               19.00:  Torque Abs Max 
 TRRT.°/30m              -3.40:  Turn Rotating 
 MRT .                  EWR-M5:  Maximum Recorded Temperature 
 TTMX.degC              100.00:  Max Tool Temp 
 VS01.                90639251:  Virtual Str1 SN 
 VS02.                90634715:  Virtual Str2 SN 
 VS03.                90652479:  Virtual Str3 SN 
 VS04.                90642262:  Virtual Str4 SN 
 WBMN.klb                 0.00:  WOB Min 
 WITN.           Murad Guliyev:  Customer Rep 
 WITN.          Yashar Gaziyev:  Customer Rep 2 
 WOBA.klb                 9.00:  WOB Avg 
 WOBX.klb                12.00:  WOB Max 
 YP  .lhf2               30.00:  Yield Point 
~Curve Information Block
#MNEM.UNIT                 API CODE     Curve Description
#---------               -----------    ---------------------------
 TIME.HHMMSS            00 000 000 000:  GT Time & Date
 GTDEPTH.m              00 000 000 000:  GT Depth
 GTPQH.psia             00 000 000 000:  GT HR Quartz Pressure
 GTTQ.degC              00 000 000 000:  GT Quartz Temperature
 GTTN.NONE              00 000 000 000:  GT Test Number
 GTET.sec               00 000 000 000:  GT Elapsed Test Time
 GTTVD.m                00 000 000 000:  GT True Vertical Depth
#Other Information
#
#WARRANTY: Halliburton will use its best efforts to furnish customers with 
#accurate information and interpretations that are part of, and incident to, the services 
#provided.  However, Halliburton cannot and does not warrant the accuracy 
#or correctness of such information and interpretations.  Under no circumstances should any 
#such information or interpretation be relied upon as the sole basis for any drilling, 
#completion, production, or financial decision or any procedure involving any risk to the 
#safety of any drilling venture, drilling rig or its crew or any other third party.  The 
#Customer has full responsibility for all drilling, completion and production operation.  
#Halliburton makes no representations or warranties, either expressed or 
#implied, including, but not limited to, the implied warranties of merchantability or fitness 
#for a particular purpose, with respect to the services rendered.  In no event will 
#Halliburton be liable for failure to obtain any particular results or for 
#any damages, including, but not limited to, indirect, special or consequential damages, 
#resulting from the use of any information or interpretation provided by Halliburton.
#
~A           TIME           GTDEPTH  GTPQH  GTTQ  GTTN   GTET   GTTVD  
# ...
   14:19:06.200.27-Aug-2021 4859.50 7371.73 84.45 15.00  45.20 3211.87
   14:19:06.400.27-Aug-2021 4859.50 7216.95 84.45 15.00  45.40 3211.87
   14:19:06.600.27-Aug-2021 4859.50 7128.61 84.45 15.00  45.60 3211.87
   14:19:06.800.27-Aug-2021 4859.50 7038.91 84.45 15.00  45.80 3211.87
   14:19:07.000.27-Aug-2021 4859.50 6931.88 84.45 15.00  46.00 3211.87
   14:19:07.200.27-Aug-2021 4859.50 6931.88 84.45 15.00  46.20 3211.87
   14:19:07.400.27-Aug-2021 4859.50 6713.10 84.45 15.00  46.40 3211.87
   14:19:07.600.27-Aug-2021 4859.50 6603.16 84.45 15.00  46.60 3211.87
   14:19:07.800.27-Aug-2021 4859.50 6496.36 84.45 15.00  46.80 3211.87
   14:19:08.000.27-Aug-2021 4859.50 6367.34 84.45 15.00  47.00 3211.87
   14:19:08.200.27-Aug-2021 4859.50 6367.34 84.45 15.00  47.20 3211.87
   14:19:08.400.27-Aug-2021 4859.50 6136.61 84.45 15.00  47.40 3211.87
   14:19:08.600.27-Aug-2021 4859.50 6026.63 84.45 15.00  47.60 3211.87
   14:19:08.800.27-Aug-2021 4859.50 5886.82 84.44 15.00  47.80 3211.87
   14:19:09.000.27-Aug-2021 4859.50 5766.30 84.44 15.00  48.00 3211.87
   14:19:09.200.27-Aug-2021 4859.50 5766.30 84.44 15.00  48.20 3211.87
   14:19:09.400.27-Aug-2021 4859.50 5513.88 84.44 15.00  48.40 3211.87
   14:19:09.600.27-Aug-2021 4859.50 5395.27 84.44 15.00  48.60 3211.87
   14:19:09.800.27-Aug-2021 4859.50 5265.54 84.44 15.00  48.80 3211.87
   14:19:10.000.27-Aug-2021 4859.50 5183.06 84.44 15.00  49.00 3211.87
   14:19:10.200.27-Aug-2021 4859.50 5183.06 84.44 15.00  49.20 3211.87
   14:19:10.400.27-Aug-2021 4859.50 4954.05 84.43 15.00  49.40 3211.87
   14:19:10.600.27-Aug-2021 4859.50 4834.31 84.43 15.00  49.60 3211.87
   14:19:10.800.27-Aug-2021 4859.50 4718.06 84.43 15.00  49.80 3211.87
   14:19:11.000.27-Aug-2021 4859.50 4583.18 84.43 15.00  50.00 3211.87
   14:19:11.200.27-Aug-2021 4859.50 4583.18 84.43 15.00  50.20 3211.87
   14:19:11.400.27-Aug-2021 4859.50 4232.65 84.43 15.00  50.40 3211.87
   14:19:11.600.27-Aug-2021 4859.50 4063.54 84.42 15.00  50.60 3211.87
   14:19:11.800.27-Aug-2021 4859.50 3923.00 84.42 15.00  50.80 3211.87
   14:19:12.000.27-Aug-2021 4859.50 3781.20 84.42 15.00  51.00 3211.87
   14:19:12.200.27-Aug-2021 4859.50 3781.20 84.42 15.00  51.20 3211.87
   14:19:12.400.27-Aug-2021 4859.50 3551.83 84.42 15.00  51.40 3211.87
   14:19:12.600.27-Aug-2021 4859.50 3097.26 84.41 15.00  51.60 3211.87
   14:19:12.800.27-Aug-2021 4859.50 2883.30 84.41 15.00  51.80 3211.87
   14:19:13.000.27-Aug-2021 4859.50 2661.24 84.41 15.00  52.00 3211.87
   14:19:13.200.27-Aug-2021 4859.50 2661.24 84.41 15.00  52.20 3211.87
   14:19:13.400.27-Aug-2021 4859.50 2258.67 84.40 15.00  52.40 3211.87
   14:19:13.600.27-Aug-2021 4859.50 2094.99 84.40 15.00  52.60 3211.87
   14:19:13.800.27-Aug-2021 4859.50 1972.71 84.40 15.00  52.80 3211.87
   14:19:14.000.27-Aug-2021 4859.50 1965.28 84.39 15.00  53.00 3211.87
   14:19:14.200.27-Aug-2021 4859.50 1965.28 84.39 15.00  53.20 3211.87
   14:19:14.400.27-Aug-2021 4859.50 2001.93 84.39 15.00  53.40 3211.87
   14:19:14.600.27-Aug-2021 4859.50 2019.54 84.38 15.00  53.60 3211.87
   14:19:14.800.27-Aug-2021 4859.50 2036.47 84.38 15.00  53.80 3211.87
   14:19:15.000.27-Aug-2021 4859.50 2052.77 84.37 15.00  54.00 3211.87
   14:19:15.200.27-Aug-2021 4859.50 2052.77 84.37 15.00  54.20 3211.87
   14:19:15.400.27-Aug-2021 4859.50 2083.74 84.37 15.00  54.40 3211.87
   14:19:15.600.27-Aug-2021 4859.50 2098.44 84.36 15.00  54.60 3211.87
   14:19:15.800.27-Aug-2021 4859.50 2112.53 84.36 15.00  54.80 3211.87
   14:19:16.000.27-Aug-2021 4859.50 2126.04 84.36 15.00  55.00 3211.87
   14:19:16.200.27-Aug-2021 4859.50 2126.04 84.36 15.00  55.20 3211.87
   14:19:16.400.27-Aug-2021 4859.50 2152.02 84.35 15.00  55.40 3211.87
   14:19:16.600.27-Aug-2021 4859.50 2157.29 84.35 15.00  55.60 3211.87
   14:19:16.800.27-Aug-2021 4859.50 2132.32 84.35 15.00  55.80 3211.87
   14:19:17.000.27-Aug-2021 4859.50 1849.91 84.34 15.00  56.00 3211.87
   14:19:17.200.27-Aug-2021 4859.50 1849.91 84.34 15.00  56.20 3211.87
   14:19:17.400.27-Aug-2021 4859.50 1849.91 84.34 15.00  56.40 3211.87
   14:19:17.600.27-Aug-2021 4859.50 1849.91 84.34 15.00  56.60 3211.87
   14:19:17.800.27-Aug-2021 4859.50 1597.84 84.33 15.00  56.80 3211.87
   14:19:18.000.27-Aug-2021 4859.50 1595.75 84.33 15.00  57.00 3211.87
   14:19:18.200.27-Aug-2021 4859.50 1595.75 84.33 15.00  57.20 3211.87
   14:19:18.400.27-Aug-2021 4859.50 1594.17 84.33 15.00  57.40 3211.87
   14:19:18.600.27-Aug-2021 4859.50 1592.69 84.32 15.00  57.60 3211.87
   14:19:18.800.27-Aug-2021 4859.50 1594.10 84.32 15.00  57.80 3211.87
   14:19:19.000.27-Aug-2021 4859.50 1595.15 84.32 15.00  58.00 3211.87
   14:19:19.200.27-Aug-2021 4859.50 1595.15 84.32 15.00  58.20 3211.87
   14:19:19.400.27-Aug-2021 4859.50 1596.81 84.31 15.00  58.40 3211.87
   14:19:19.600.27-Aug-2021 4859.50 1594.61 84.31 15.00  58.60 3211.87
   14:19:19.800.27-Aug-2021 4859.50 1594.83 84.31 15.00  58.80 3211.87
   14:19:20.000.27-Aug-2021 4859.50 1594.95 84.31 15.00  59.00 3211.87
   14:19:20.200.27-Aug-2021 4859.50 1594.95 84.31 15.00  59.20 3211.87
   14:19:20.400.27-Aug-2021 4859.50 1595.66 84.31 15.00  59.40 3211.87
   14:19:20.600.27-Aug-2021 4859.50 1596.01 84.30 15.00  59.60 3211.87
   14:19:20.800.27-Aug-2021 4859.50 1594.30 84.30 15.00  59.80 3211.87
   14:19:21.000.27-Aug-2021 4859.50 1592.84 84.30 15.00  60.00 3211.87
   14:19:21.200.27-Aug-2021 4859.50 1592.84 84.30 15.00  60.20 3211.87
   14:19:21.400.27-Aug-2021 4859.50 1590.51 84.30 15.00  60.40 3211.87
   14:19:21.600.27-Aug-2021 4859.50 1589.83 84.30 15.00  60.60 3211.87
   14:19:21.800.27-Aug-2021 4859.50 1589.62 84.29 15.00  60.80 3211.87
   14:19:22.000.27-Aug-2021 4859.50 1587.81 84.29 15.00  61.00 3211.87
   14:19:22.200.27-Aug-2021 4859.50 1587.81 84.29 15.00  61.20 3211.87
   14:19:22.400.27-Aug-2021 4859.50 1585.00 84.29 15.00  61.40 3211.87
   14:19:22.600.27-Aug-2021 4859.50 1583.44 84.29 15.00  61.60 3211.87
   14:19:22.800.27-Aug-2021 4859.50 1584.52 84.29 15.00  61.80 3211.87
   14:19:23.000.27-Aug-2021 4859.50 1589.85 84.29 15.00  62.00 3211.87
   14:19:23.200.27-Aug-2021 4859.50 1589.85 84.29 15.00  62.20 3211.87
   14:19:23.400.27-Aug-2021 4859.50 1600.98 84.29 15.00  62.40 3211.87
   14:19:23.600.27-Aug-2021 4859.50 1600.58 84.29 15.00  62.60 3211.87
   14:19:23.800.27-Aug-2021 4859.50 1601.24 84.28 15.00  62.80 3211.87
   14:19:24.000.27-Aug-2021 4859.50 1598.28 84.28 15.00  63.00 3211.87
   14:19:24.200.27-Aug-2021 4859.50 1598.28 84.28 15.00  63.20 3211.87
   14:19:24.400.27-Aug-2021 4859.50 1598.81 84.28 15.00  63.40 3211.87
   14:19:24.600.27-Aug-2021 4859.50 1596.02 84.28 15.00  63.60 3211.87
   14:19:24.800.27-Aug-2021 4859.50 1591.51 84.28 15.00  63.80 3211.87
   14:19:25.000.27-Aug-2021 4859.50 1588.72 84.28 15.00  64.00 3211.87
   14:19:25.200.27-Aug-2021 4859.50 1588.72 84.28 15.00  64.20 3211.87
   14:19:25.400.27-Aug-2021 4859.50 1587.45 84.28 15.00  64.40 3211.87
   14:19:25.600.27-Aug-2021 4859.50 1584.99 84.28 15.00  64.60 3211.87
   14:19:25.800.27-Aug-2021 4859.50 1585.18 84.28 15.00  64.80 3211.87
   14:19:26.000.27-Aug-2021 4859.50 1587.42 84.28 15.00  65.00 3211.87
   14:19:26.200.27-Aug-2021 4859.50 1587.42 84.28 15.00  65.20 3211.87
   14:19:26.400.27-Aug-2021 4859.50 1586.19 84.28 15.00  65.40 3211.87
   14:19:26.600.27-Aug-2021 4859.50 1587.39 84.28 15.00  65.60 3211.87
   14:19:26.800.27-Aug-2021 4859.50 1595.75 84.28 15.00  65.80 3211.87
   14:19:27.000.27-Aug-2021 4859.50 1611.86 84.28 15.00  66.00 3211.87
   14:19:27.200.27-Aug-2021 4859.50 1611.86 84.28 15.00  66.20 3211.87
   14:19:27.400.27-Aug-2021 4859.50 1633.26 84.28 15.00  66.40 3211.87
   14:19:27.600.27-Aug-2021 4859.50 1643.52 84.28 15.00  66.60 3211.87
   14:19:27.800.27-Aug-2021 4859.50 1653.67 84.28 15.00  66.80 3211.87
   14:19:28.000.27-Aug-2021 4859.50 1663.84 84.28 15.00  67.00 3211.87
   14:19:28.200.27-Aug-2021 4859.50 1663.84 84.28 15.00  67.20 3211.87
   14:19:28.400.27-Aug-2021 4859.50 1684.06 84.28 15.00  67.40 3211.87
   14:19:28.600.27-Aug-2021 4859.50 1693.95 84.28 15.00  67.60 3211.87
