~Version Information
 VERS.                  2.0:   CWLS log ASCII Standard -VERSION 2.0
 WRAP.                   NO:   One line per depth step
~Well Information Block
#MNEM.UNIT     VALUE/NAME     DESCRIPTION
#---------     -----------    ---------------------------
 STRT.S             19:41:39 27-Aug-21: START TIME 19:41:39 27-Aug-21
 STOP.S             19:48:52 27-Aug-21: STOP TIME  19:48:52 27-Aug-21
 STEP.S                   0.00: STEP TIME
 NULL.                 -999.25: NULL VALUE
 DFWT.                        :  DIST FWL TEXT
 DFST.                        :  DIST FSL TEXT
 DMF .             Drill Floor:  DRILL MEAS FROM
 STIM.      20.00.00 17-Aug-21:  START TIME
 DATE.      19.00.00 29-Aug-21:  END TIME
 SPUD.               15-Aug-21:  SPUD DATE
 NREF.                    Grid:  NORTH REFERENCE
 HPTY.       Minimum Curvature:  HOLE POS TYPE
 DMOD.             Drill Model:  DRILL MOD DESC
 SVYD.                  Survey:  SURVEY DESC
 ILTD.               Lithology:  INTERP LTH DESC
 FTOP.          Formation Tops:  FORM TOPS DESC
 RIG .              East Azeri:  RIG NAME
 PDAT.          Mean Sea Level:  PERMANENT DATUM
 FLD .                     ACG:  FIELD NAME
 SON .        AZ-XX-0907180857:  JOB NUMBER
 CTRY.              Azerbaijan:  COUNTRY NAME
 WELL.                    D23x:  WELL NAME
 SRVC.     Turan Drilling and Engineering:  CONTRACTOR
 COMP.     BP Exploration (Caspian Sea) Ltd.:  COMPANY
 UWI .            /AZE00000214:  UNIQUE WELL IDENTIFIER
 API .            /AZE00000214:  API NUMBER
 MDS .        Operator Entered:  MAG DATA SOURCE
 BASE.              Azerbaijan:  LOGGING EQUIPMENT BASE LOCATION
 REGN.                   EESSA:  REGION
 PROV.                    Baku:  PROVINCE
 STAT.                    Baku:  STATE NAME
 MWDS.                    Baku:  MWD SHOP
 DOE .                     N/A:  DOE NUMBER
 DCON.         Sperry Drilling:  DIRECTNL CONTR
 UNIT.                     N/A:  LOGGING EQUIPMENT ID
 WTYP.                Deviated:  WELL TYPE
 CNTY.                        :  COUNTY
 LOC .                        :  LOCATION
 LMF .             Drill Floor:  LOG MEASURED FROM
 TVDS.m                  43.60:  TVDSS CORRECTN
 LATI.deg                40.02:  LATITUDE
 LONG.deg                51.45:  LONGITUDE
 WHNS.m                  -7.04:  WELL HEAD N/S
 WHEW.m                  -0.67:  WELL HEAD E/W
 UTMX.m              538762.90:  UTM X
 UTMY.m             4431871.34:  UTM Y
 DFWL.m                   0.00:  DISTANCE FWL
 DFSL.m                   0.00:  DISTANCE FSL
 SDEP.m                4127.00:  START DEPTH
 TDD .m                5084.50:  TOTAL DEPTH (DRILLER)
 VSDR.deg               140.47:  VERT SEC DIRECT
 GVFD.g                   1.00:  GRAVITY FIELD
 MFLD.nT              50362.00:  MAGNETIC FIELD
 MDIP.deg                59.48:  MAGNETIC DIP
 MDEC.deg                 6.47:  MAGNETIC DECL
 GRDC.deg                 0.31:  GRID CORRECTION
 AZTC.deg                 6.16:  AZM TOTAL CORR
 EPD .m                   0.00:  ELEVATION
 EGL .m                   0.00:  GROUND ELEVATION
 WDMS.m                 151.80:  WD ELEV
 APD .m                  43.60:  DEPTH ABOVE PD
 DEP .m                4092.57:  DEPTH
 AGAP.m                  43.60:  AIR GAP
 VSEW.m                  -0.67:  VERT SEC E/W
 VSNS.m                  -7.04:  VERT SEC N/S
 EKB .m                  43.60:  KB ELEVATION
 EDF .m                  43.60:  DF ELEVATION
 TDL .m                 957.50:  TOTAL DEPTH (LOGGER)
 VSC .                       0:  VS TO CLOSURE
 MAGU.                 1851413:  MAGUTM CHECKSUM
~Parameter Information Block
#MNEM.UNIT       Value        Description
#---------     -----------    ---------------------------
 AV  .mps                 1.50:  Ann Velocity 
 AVMX.mps                 2.00:  Max Ann Veloc 
 AZIF.deg               184.66:  Azm, Final 
 BHAT.        Rotary Steerable:  BHA Type 
 BREV.rev               300.00:  Rev Bit Total 
 BROT.°/30m              -0.50:  Build Rotating 
 BS  .in                  8.50:  Bit Size 
 BSZ .in                  8.50:  Bit Size 
 BTPL.psig              370.00:  Bit Press Loss 
 CABU.                      No:  Customer Abuse 
 CGEO.      Behruz Shahbaliyev:  Customer Geo 
 COMM.                     ,‰€:  Run Comments 1 
 TCS .hr                140.08:  Time Ciculation Ended 
 CV  .mps                 3.00:  Crit Velocity 
 CVMX.mps                 3.20:  Max Crit Veloc 
 DD1 .            Musa Ahmadov:  Direct Drillr 1 
 DD2 .           Hamid Ahmadov:  Direct Drillr 2 
 DDSV.               Geo-Pilot:  DD Service 
 DEFF.%                  98.40:  % Det Eff 
 DLRX.°/30m               3.40:  Dogleg Rot Max 
 DLSO.°/30m               1.45:  Dogleg Oriented 
 DLSX.°/30m               3.40:  Dogleg Str Max 
 DRET.      18.40.00 29-Aug-21:  Drill End Time 
 DRST.      21.00.00 20-Aug-21:  Drill Start Tim 
 DTIM.hr                 69.47:  Time Drilling 
 EDEP.m                5084.50:  End Depth 
 ENG1.      Artemiy Matviyanov:  Engineer 1 
 ENG2.         Almaz Almadatov:  Engineer 2 
 ETIM.      18.40.00 29-Aug-21:  End Time 
 FLOI.gpm               500.00:  Flow In 
 FLON.gpm               400.00:  Flow In Min 
 FLOS.cptm                0.00:  Fluid Loss 
 FLOX.gpm               500.00:  Flow In Max 
 DFT .        Mineral Oil Base:  Mud Type 
 HFLO.                      No:  High Flow 
 HPRE.                      No:  High Pressure 
 HTEM.                      No:  High Temp 
 HYDO.m                   1.80:  Hydro Offset 
 IFIN.deg                25.62:  Inc, Final 
 IMAX.deg                48.69:  Inc Max 
 IMIN.deg                24.01:  Inc Min 
 IMND.m                4962.57:  Inc Min Depth 
 IMXD.m                4119.01:  Inc Max Depth 
 JARR.                      No:  Jarring 
 LETM.      18.40.00 29-Aug-21:  Log End Time 
 LOST.hr                     0:  Lost Rig Time 
 LSTM.      21.00.00 20-Aug-21:  Log Start Time 
 MDCL.ppm             41500.00:  Mud Chlorides 
 MDES.     Inversion Oil/Synthetic:  Mud Desc 
 DFD .sg                  1.56:  Mud Density 
 MDMN.sg                  1.56:  Dens Mud Min 
 MDMX.sg                  1.56:  Dens Mud Max 
 MOIL.                      70:  Run Mud Oil % 
 MOWR.                   70:30:  Run Mud OWR 
 MSND.                     0.2:  Run Mud Sand % 
 MSOL.                    23.3:  Run Mud Solids% 
 DFV .spqt               78.00:  Mud Viscosity 
 MWOD.in                  6.75:  MWD Tool OD 
 MWSI.                      No:  Serv Intrp, MWD 
 OTIM.hr                218.30:  Time Operating 
 PCON.           Look Like New:  Pad Condition 
 PMAX.psia            11015.30:  Press Op, Max 
 PV  .cP                 38.00:  Mud PV 
 RUN .                     300:  Run Number 
 ROPA.m/hr               15.00:  ROP Avg 
 ROPN.m/hr                9.00:  ROP Min 
 ROPX.m/hr               17.00:  ROP Max 
 RPMA.rpm               120.00:  RPM Surface Avg 
 RPMN.rpm                90.00:  RPM Surface Min 
 RPMX.rpm               140.00:  RPM Surface Max 
 RRUN.                     300:  Rig Run Number 
 RTIM.hr                 31.53:  Time Reaming 
 SAZI.deg               331.64:  Azm, Start 
 SDEP.m                4127.00:  Start Depth 
 SIDD.                      No:  Serv Intrp, DD 
 SINC.deg                48.43:  Inc, Start 
 SPPA.psig             5830.00:  SPP Avg 
 SPPN.psig             5600.00:  SPP Min 
 SPPX.psig             5900.00:  SPP Max 
 STIM.      21.00.00 20-Aug-21:  Start Time 
 SVCS.                 DD, MWD:  Services 
 SVER.                    9.20:  Sperry Version 
 TDAT.m                 957.50:  Tot Depth Attmp 
 TDDF.                      No:  Trip for DD 
 TDLG.m                 957.50:  Tot Depth Loggd 
 TFF .                      No:  Trip for Fail 
 TQAA.f-kp               15.00:  Torque Abs Avg 
 TQAN.f-kp               12.00:  Torque Abs Min 
 TQAX.f-kp               19.00:  Torque Abs Max 
 TRRT.°/30m              -3.40:  Turn Rotating 
 MRT .                  EWR-M5:  Maximum Recorded Temperature 
 TTMX.degC              100.00:  Max Tool Temp 
 VS01.                90639251:  Virtual Str1 SN 
 VS02.                90634715:  Virtual Str2 SN 
 VS03.                90652479:  Virtual Str3 SN 
 VS04.                90642262:  Virtual Str4 SN 
 WBMN.klb                 0.00:  WOB Min 
 WITN.           Murad Guliyev:  Customer Rep 
 WITN.          Yashar Gaziyev:  Customer Rep 2 
 WOBA.klb                 9.00:  WOB Avg 
 WOBX.klb                12.00:  WOB Max 
 YP  .lhf2               30.00:  Yield Point 
~Curve Information Block
#MNEM.UNIT                 API CODE     Curve Description
#---------               -----------    ---------------------------
 TIME.HHMMSS            00 000 000 000:  GT Time & Date
 GTDEPTH.m              00 000 000 000:  GT Depth
 GTPQH.psia             00 000 000 000:  GT HR Quartz Pressure
 GTTQ.degC              00 000 000 000:  GT Quartz Temperature
 GTTN.NONE              00 000 000 000:  GT Test Number
 GTET.sec               00 000 000 000:  GT Elapsed Test Time
 GTTVD.m                00 000 000 000:  GT True Vertical Depth
#Other Information
#
#WARRANTY: Halliburton will use its best efforts to furnish customers with 
#accurate information and interpretations that are part of, and incident to, the services 
#provided.  However, Halliburton cannot and does not warrant the accuracy 
#or correctness of such information and interpretations.  Under no circumstances should any 
#such information or interpretation be relied upon as the sole basis for any drilling, 
#completion, production, or financial decision or any procedure involving any risk to the 
#safety of any drilling venture, drilling rig or its crew or any other third party.  The 
#Customer has full responsibility for all drilling, completion and production operation.  
#Halliburton makes no representations or warranties, either expressed or 
#implied, including, but not limited to, the implied warranties of merchantability or fitness 
#for a particular purpose, with respect to the services rendered.  In no event will 
#Halliburton be liable for failure to obtain any particular results or for 
#any damages, including, but not limited to, indirect, special or consequential damages, 
#resulting from the use of any information or interpretation provided by Halliburton.
#
~A           TIME           GTDEPTH  GTPQH  GTTQ  GTTN   GTET   GTTVD  
   19:41:39.000.27-Aug-2021 4678.50 7272.53 82.39 21.00   0.00 3048.11
   19:41:39.200.27-Aug-2021 4678.50 7272.53 82.39 21.00   0.20 3048.11
   19:41:39.400.27-Aug-2021 4678.50 7272.94 82.39 21.00   0.40 3048.11
   19:41:39.600.27-Aug-2021 4678.50 7272.91 82.39 21.00   0.60 3048.11
   19:41:39.800.27-Aug-2021 4678.50 7272.76 82.39 21.00   0.80 3048.11
   19:41:40.000.27-Aug-2021 4678.50 7272.73 82.39 21.00   1.00 3048.11
   19:41:40.200.27-Aug-2021 4678.50 7272.73 82.39 21.00   1.20 3048.11
   19:41:40.400.27-Aug-2021 4678.50 7272.56 82.39 21.00   1.40 3048.11
   19:41:40.600.27-Aug-2021 4678.50 7272.56 82.39 21.00   1.60 3048.11
   19:41:40.800.27-Aug-2021 4678.50 7272.68 82.39 21.00   1.80 3048.11
   19:41:41.000.27-Aug-2021 4678.50 7279.01 82.39 21.00   2.00 3048.11
   19:41:41.200.27-Aug-2021 4678.50 7279.01 82.39 21.00   2.20 3048.11
   19:41:41.400.27-Aug-2021 4678.50 7279.01 82.39 21.00   2.40 3048.11
   19:41:41.600.27-Aug-2021 4678.50 7279.01 82.39 21.00   2.60 3048.11
   19:41:41.800.27-Aug-2021 4678.50 7274.14 82.39 21.00   2.80 3048.11
   19:41:42.000.27-Aug-2021 4678.50 7273.22 82.39 21.00   3.00 3048.11
   19:41:42.200.27-Aug-2021 4678.50 7273.22 82.39 21.00   3.20 3048.11
   19:41:42.400.27-Aug-2021 4678.50 7274.74 82.39 21.00   3.40 3048.11
   19:41:42.600.27-Aug-2021 4678.50 7274.70 82.39 21.00   3.60 3048.11
   19:41:42.800.27-Aug-2021 4678.50 7281.01 82.39 21.00   3.80 3048.11
   19:41:43.000.27-Aug-2021 4678.50 7271.74 82.39 21.00   4.00 3048.11
   19:41:43.200.27-Aug-2021 4678.50 7271.74 82.39 21.00   4.20 3048.11
   19:41:43.400.27-Aug-2021 4678.50 7275.26 82.39 21.00   4.40 3048.11
   19:41:43.600.27-Aug-2021 4678.50 7276.09 82.39 21.00   4.60 3048.11
   19:41:43.800.27-Aug-2021 4678.50 7278.37 82.39 21.00   4.80 3048.11
   19:41:44.000.27-Aug-2021 4678.50 7276.27 82.39 21.00   5.00 3048.11
   19:41:44.200.27-Aug-2021 4678.50 7276.27 82.39 21.00   5.20 3048.11
   19:41:44.400.27-Aug-2021 4678.50 7276.97 82.39 21.00   5.40 3048.11
   19:41:44.600.27-Aug-2021 4678.50 7277.43 82.39 21.00   5.60 3048.11
   19:41:44.800.27-Aug-2021 4678.50 7281.13 82.39 21.00   5.80 3048.11
   19:41:45.000.27-Aug-2021 4678.50 7277.68 82.39 21.00   6.00 3048.11
   19:41:45.200.27-Aug-2021 4678.50 7277.68 82.39 21.00   6.20 3048.11
   19:41:45.400.27-Aug-2021 4678.50 7277.68 82.39 21.00   6.40 3048.11
   19:41:45.600.27-Aug-2021 4678.50 7278.94 82.39 21.00   6.60 3048.11
   19:41:45.800.27-Aug-2021 4678.50 7279.25 82.39 21.00   6.80 3048.11
   19:41:46.000.27-Aug-2021 4678.50 7279.04 82.39 21.00   7.00 3048.11
   19:41:46.200.27-Aug-2021 4678.50 7279.04 82.39 21.00   7.20 3048.11
   19:41:46.400.27-Aug-2021 4678.50 7278.44 82.39 21.00   7.40 3048.11
   19:41:46.600.27-Aug-2021 4678.50 7280.09 82.39 21.00   7.60 3048.11
   19:41:46.800.27-Aug-2021 4678.50 7283.27 82.39 21.00   7.80 3048.11
   19:41:47.000.27-Aug-2021 4678.50 7280.40 82.39 21.00   8.00 3048.11
   19:41:47.200.27-Aug-2021 4678.50 7280.40 82.39 21.00   8.20 3048.11
   19:41:47.400.27-Aug-2021 4678.50 7280.79 82.39 21.00   8.40 3048.11
   19:41:47.600.27-Aug-2021 4678.50 7285.36 82.39 21.00   8.60 3048.11
   19:41:47.800.27-Aug-2021 4678.50 7280.24 82.39 21.00   8.80 3048.11
   19:41:48.000.27-Aug-2021 4678.50 7282.03 82.39 21.00   9.00 3048.11
   19:41:48.200.27-Aug-2021 4678.50 7282.03 82.39 21.00   9.20 3048.11
   19:41:48.400.27-Aug-2021 4678.50 7282.68 82.39 21.00   9.40 3048.11
   19:41:48.600.27-Aug-2021 4678.50 7281.68 82.39 21.00   9.60 3048.11
   19:41:48.800.27-Aug-2021 4678.50 7283.00 82.39 21.00   9.80 3048.11
   19:41:49.000.27-Aug-2021 4678.50 7289.31 82.39 21.00  10.00 3048.11
   19:41:49.200.27-Aug-2021 4678.50 7289.31 82.39 21.00  10.20 3048.11
   19:41:49.400.27-Aug-2021 4678.50 7283.00 82.39 21.00  10.40 3048.11
   19:41:49.600.27-Aug-2021 4678.50 7283.00 82.39 21.00  10.60 3048.11
   19:41:49.800.27-Aug-2021 4678.50 7283.78 82.39 21.00  10.80 3048.11
   19:41:50.000.27-Aug-2021 4678.50 7282.65 82.39 21.00  11.00 3048.11
   19:41:50.200.27-Aug-2021 4678.50 7282.65 82.39 21.00  11.20 3048.11
   19:41:50.400.27-Aug-2021 4678.50 7284.29 82.39 21.00  11.40 3048.11
   19:41:50.600.27-Aug-2021 4678.50 7284.23 82.39 21.00  11.60 3048.11
   19:41:50.800.27-Aug-2021 4678.50 7284.28 82.39 21.00  11.80 3048.11
   19:41:51.000.27-Aug-2021 4678.50 7284.58 82.39 21.00  12.00 3048.11
   19:41:51.200.27-Aug-2021 4678.50 7284.58 82.39 21.00  12.20 3048.11
   19:41:51.400.27-Aug-2021 4678.50 7284.84 82.39 21.00  12.40 3048.11
   19:41:51.600.27-Aug-2021 4678.50 7285.02 82.39 21.00  12.60 3048.11
   19:41:51.800.27-Aug-2021 4678.50 7285.16 82.39 21.00  12.80 3048.11
   19:41:52.000.27-Aug-2021 4678.50 7285.40 82.39 21.00  13.00 3048.11
   19:41:52.200.27-Aug-2021 4678.50 7285.40 82.39 21.00  13.20 3048.11
   19:41:52.400.27-Aug-2021 4678.50 7285.93 82.39 21.00  13.40 3048.11
   19:41:52.600.27-Aug-2021 4678.50 7286.28 82.39 21.00  13.60 3048.11
   19:41:52.800.27-Aug-2021 4678.50 7289.66 82.39 21.00  13.80 3048.11
   19:41:53.000.27-Aug-2021 4678.50 7286.44 82.39 21.00  14.00 3048.11
   19:41:53.200.27-Aug-2021 4678.50 7286.44 82.39 21.00  14.20 3048.11
   19:41:53.400.27-Aug-2021 4678.50 7286.81 82.39 21.00  14.40 3048.11
   19:41:53.600.27-Aug-2021 4678.50 7287.38 82.39 21.00  14.60 3048.11
   19:41:53.800.27-Aug-2021 4678.50 7287.76 82.39 21.00  14.80 3048.11
   19:41:54.000.27-Aug-2021 4678.50 7287.75 82.39 21.00  15.00 3048.11
   19:41:54.200.27-Aug-2021 4678.50 7287.75 82.39 21.00  15.20 3048.11
   19:41:54.400.27-Aug-2021 4678.50 7288.40 82.39 21.00  15.40 3048.11
   19:41:54.600.27-Aug-2021 4678.50 7288.56 82.39 21.00  15.60 3048.11
   19:41:54.800.27-Aug-2021 4678.50 7288.48 82.39 21.00  15.80 3048.11
   19:41:55.000.27-Aug-2021 4678.50 7288.61 82.39 21.00  16.00 3048.11
   19:41:55.200.27-Aug-2021 4678.50 7288.61 82.39 21.00  16.20 3048.11
   19:41:55.400.27-Aug-2021 4678.50 7288.84 82.39 21.00  16.40 3048.11
   19:41:55.600.27-Aug-2021 4678.50 7289.02 82.39 21.00  16.60 3048.11
   19:41:55.800.27-Aug-2021 4678.50 7289.24 82.39 21.00  16.80 3048.11
   19:41:56.000.27-Aug-2021 4678.50 7292.65 82.39 21.00  17.00 3048.11
   19:41:56.200.27-Aug-2021 4678.50 7292.65 82.39 21.00  17.20 3048.11
   19:41:56.400.27-Aug-2021 4678.50 7289.63 82.39 21.00  17.40 3048.11
   19:41:56.600.27-Aug-2021 4678.50 7289.55 82.39 21.00  17.60 3048.11
   19:41:56.800.27-Aug-2021 4678.50 7289.91 82.39 21.00  17.80 3048.11
   19:41:57.000.27-Aug-2021 4678.50 7290.36 82.39 21.00  18.00 3048.11
   19:41:57.200.27-Aug-2021 4678.50 7290.36 82.39 21.00  18.20 3048.11
   19:41:57.400.27-Aug-2021 4678.50 7291.05 82.39 21.00  18.40 3048.11
   19:41:57.600.27-Aug-2021 4678.50 7290.90 82.39 21.00  18.60 3048.11
   19:41:57.800.27-Aug-2021 4678.50 7290.94 82.39 21.00  18.80 3048.11
   19:41:58.000.27-Aug-2021 4678.50 7291.31 82.39 21.00  19.00 3048.11
   19:41:58.200.27-Aug-2021 4678.50 7291.31 82.39 21.00  19.20 3048.11
   19:41:58.400.27-Aug-2021 4678.50 7291.10 82.39 21.00  19.40 3048.11
   19:41:58.600.27-Aug-2021 4678.50 7292.17 82.39 21.00  19.60 3048.11
   19:41:58.800.27-Aug-2021 4678.50 7291.99 82.39 21.00  19.80 3048.11
   19:41:59.000.27-Aug-2021 4678.50 7292.40 82.39 21.00  20.00 3048.11
   19:41:59.200.27-Aug-2021 4678.50 7292.40 82.39 21.00  20.20 3048.11
   19:41:59.400.27-Aug-2021 4678.50 7296.86 82.39 21.00  20.40 3048.11
   19:41:59.600.27-Aug-2021 4678.50 7291.40 82.39 21.00  20.60 3048.11
   19:41:59.800.27-Aug-2021 4678.50 7293.03 82.39 21.00  20.80 3048.11
   19:42:00.000.27-Aug-2021 4678.50 7292.47 82.39 21.00  21.00 3048.11
   19:42:00.200.27-Aug-2021 4678.50 7292.47 82.39 21.00  21.20 3048.11
   19:42:00.400.27-Aug-2021 4678.50 7293.18 82.39 21.00  21.40 3048.11
   19:42:00.600.27-Aug-2021 4678.50 7293.34 82.39 21.00  21.60 3048.11
   19:42:00.800.27-Aug-2021 4678.50 7293.98 82.39 21.00  21.80 3048.11
   19:42:01.000.27-Aug-2021 4678.50 7294.07 82.39 21.00  22.00 3048.11
   19:42:01.200.27-Aug-2021 4678.50 7294.07 82.39 21.00  22.20 3048.11
   19:42:01.400.27-Aug-2021 4678.50 7293.01 82.39 21.00  22.40 3048.11
