~Version Information
 VERS.                  2.0:   CWLS log ASCII Standard -VERSION 2.0
 WRAP.                   NO:   One line per depth step
~Well Information Block
#MNEM.UNIT     VALUE/NAME     DESCRIPTION
#---------     -----------    ---------------------------
 STRT.S             12:21:31 27-Aug-21: START TIME 12:21:31 27-Aug-21
 STOP.S             12:28:48 27-Aug-21: STOP TIME  12:28:48 27-Aug-21
 STEP.S                   0.00: STEP TIME
 NULL.                 -999.25: NULL VALUE
 DFWT.                        :  DIST FWL TEXT
 DFST.                        :  DIST FSL TEXT
 DMF .             Drill Floor:  DRILL MEAS FROM
 STIM.      20.00.00 17-Aug-21:  START TIME
 DATE.      19.00.00 29-Aug-21:  END TIME
 SPUD.               15-Aug-21:  SPUD DATE
 NREF.                    Grid:  NORTH REFERENCE
 HPTY.       Minimum Curvature:  HOLE POS TYPE
 DMOD.             Drill Model:  DRILL MOD DESC
 SVYD.                  Survey:  SURVEY DESC
 ILTD.               Lithology:  INTERP LTH DESC
 FTOP.          Formation Tops:  FORM TOPS DESC
 RIG .              East Azeri:  RIG NAME
 PDAT.          Mean Sea Level:  PERMANENT DATUM
 FLD .                     ACG:  FIELD NAME
 SON .        AZ-XX-0907180857:  JOB NUMBER
 CTRY.              Azerbaijan:  COUNTRY NAME
 WELL.                    D23x:  WELL NAME
 SRVC.     Turan Drilling and Engineering:  CONTRACTOR
 COMP.     BP Exploration (Caspian Sea) Ltd.:  COMPANY
 UWI .            /AZE00000214:  UNIQUE WELL IDENTIFIER
 API .            /AZE00000214:  API NUMBER
 MDS .        Operator Entered:  MAG DATA SOURCE
 BASE.              Azerbaijan:  LOGGING EQUIPMENT BASE LOCATION
 REGN.                   EESSA:  REGION
 PROV.                    Baku:  PROVINCE
 STAT.                    Baku:  STATE NAME
 MWDS.                    Baku:  MWD SHOP
 DOE .                     N/A:  DOE NUMBER
 DCON.         Sperry Drilling:  DIRECTNL CONTR
 UNIT.                     N/A:  LOGGING EQUIPMENT ID
 WTYP.                Deviated:  WELL TYPE
 CNTY.                        :  COUNTY
 LOC .                        :  LOCATION
 LMF .             Drill Floor:  LOG MEASURED FROM
 TVDS.m                  43.60:  TVDSS CORRECTN
 LATI.deg                40.02:  LATITUDE
 LONG.deg                51.45:  LONGITUDE
 WHNS.m                  -7.04:  WELL HEAD N/S
 WHEW.m                  -0.67:  WELL HEAD E/W
 UTMX.m              538762.90:  UTM X
 UTMY.m             4431871.34:  UTM Y
 DFWL.m                   0.00:  DISTANCE FWL
 DFSL.m                   0.00:  DISTANCE FSL
 SDEP.m                4127.00:  START DEPTH
 TDD .m                5084.50:  TOTAL DEPTH (DRILLER)
 VSDR.deg               140.47:  VERT SEC DIRECT
 GVFD.g                   1.00:  GRAVITY FIELD
 MFLD.nT              50362.00:  MAGNETIC FIELD
 MDIP.deg                59.48:  MAGNETIC DIP
 MDEC.deg                 6.47:  MAGNETIC DECL
 GRDC.deg                 0.31:  GRID CORRECTION
 AZTC.deg                 6.16:  AZM TOTAL CORR
 EPD .m                   0.00:  ELEVATION
 EGL .m                   0.00:  GROUND ELEVATION
 WDMS.m                 151.80:  WD ELEV
 APD .m                  43.60:  DEPTH ABOVE PD
 DEP .m                4092.57:  DEPTH
 AGAP.m                  43.60:  AIR GAP
 VSEW.m                  -0.67:  VERT SEC E/W
 VSNS.m                  -7.04:  VERT SEC N/S
 EKB .m                  43.60:  KB ELEVATION
 EDF .m                  43.60:  DF ELEVATION
 TDL .m                 957.50:  TOTAL DEPTH (LOGGER)
 VSC .                       0:  VS TO CLOSURE
 MAGU.                 1851413:  MAGUTM CHECKSUM
~Parameter Information Block
#MNEM.UNIT       Value        Description
#---------     -----------    ---------------------------
 AV  .mps                 1.50:  Ann Velocity 
 AVMX.mps                 2.00:  Max Ann Veloc 
 AZIF.deg               184.66:  Azm, Final 
 BHAT.        Rotary Steerable:  BHA Type 
 BREV.rev               300.00:  Rev Bit Total 
 BROT.°/30m              -0.50:  Build Rotating 
 BS  .in                  8.50:  Bit Size 
 BSZ .in                  8.50:  Bit Size 
 BTPL.psig              370.00:  Bit Press Loss 
 CABU.                      No:  Customer Abuse 
 CGEO.      Behruz Shahbaliyev:  Customer Geo 
 TCS .hr                140.08:  Time Ciculation Ended 
 CV  .mps                 3.00:  Crit Velocity 
 CVMX.mps                 3.20:  Max Crit Veloc 
 DD1 .            Musa Ahmadov:  Direct Drillr 1 
 DD2 .           Hamid Ahmadov:  Direct Drillr 2 
 DDSV.               Geo-Pilot:  DD Service 
 DEFF.%                  98.40:  % Det Eff 
 DLRX.°/30m               3.40:  Dogleg Rot Max 
 DLSO.°/30m               1.45:  Dogleg Oriented 
 DLSX.°/30m               3.40:  Dogleg Str Max 
 DRET.      18.40.00 29-Aug-21:  Drill End Time 
 DRST.      21.00.00 20-Aug-21:  Drill Start Tim 
 DTIM.hr                 69.47:  Time Drilling 
 EDEP.m                5084.50:  End Depth 
 ENG1.      Artemiy Matviyanov:  Engineer 1 
 ENG2.         Almaz Almadatov:  Engineer 2 
 ETIM.      18.40.00 29-Aug-21:  End Time 
 FLOI.gpm               500.00:  Flow In 
 FLON.gpm               400.00:  Flow In Min 
 FLOS.cptm                0.00:  Fluid Loss 
 FLOX.gpm               500.00:  Flow In Max 
 DFT .        Mineral Oil Base:  Mud Type 
 HFLO.                      No:  High Flow 
 HPRE.                      No:  High Pressure 
 HTEM.                      No:  High Temp 
 HYDO.m                   1.80:  Hydro Offset 
 IFIN.deg                25.62:  Inc, Final 
 IMAX.deg                48.69:  Inc Max 
 IMIN.deg                24.01:  Inc Min 
 IMND.m                4962.57:  Inc Min Depth 
 IMXD.m                4119.01:  Inc Max Depth 
 JARR.                      No:  Jarring 
 LETM.      18.40.00 29-Aug-21:  Log End Time 
 LOST.hr                     0:  Lost Rig Time 
 LSTM.      21.00.00 20-Aug-21:  Log Start Time 
 MDCL.ppm             41500.00:  Mud Chlorides 
 MDES.     Inversion Oil/Synthetic:  Mud Desc 
 DFD .sg                  1.56:  Mud Density 
 MDMN.sg                  1.56:  Dens Mud Min 
 MDMX.sg                  1.56:  Dens Mud Max 
 MOIL.                      70:  Run Mud Oil % 
 MOWR.                   70:30:  Run Mud OWR 
 MSND.                     0.2:  Run Mud Sand % 
 MSOL.                    23.3:  Run Mud Solids% 
 DFV .spqt               78.00:  Mud Viscosity 
 MWOD.in                  6.75:  MWD Tool OD 
 MWSI.                      No:  Serv Intrp, MWD 
 OTIM.hr                218.30:  Time Operating 
 PCON.           Look Like New:  Pad Condition 
 PMAX.psia            11015.30:  Press Op, Max 
 PV  .cP                 38.00:  Mud PV 
 RUN .                     300:  Run Number 
 ROPA.m/hr               15.00:  ROP Avg 
 ROPN.m/hr                9.00:  ROP Min 
 ROPX.m/hr               17.00:  ROP Max 
 RPMA.rpm               120.00:  RPM Surface Avg 
 RPMN.rpm                90.00:  RPM Surface Min 
 RPMX.rpm               140.00:  RPM Surface Max 
 RRUN.                     300:  Rig Run Number 
 RTIM.hr                 31.53:  Time Reaming 
 SAZI.deg               331.64:  Azm, Start 
 SDEP.m                4127.00:  Start Depth 
 SIDD.                      No:  Serv Intrp, DD 
 SINC.deg                48.43:  Inc, Start 
 SPPA.psig             5830.00:  SPP Avg 
 SPPN.psig             5600.00:  SPP Min 
 SPPX.psig             5900.00:  SPP Max 
 STIM.      21.00.00 20-Aug-21:  Start Time 
 SVCS.                 DD, MWD:  Services 
 SVER.                    9.20:  Sperry Version 
 TDAT.m                 957.50:  Tot Depth Attmp 
 TDDF.                      No:  Trip for DD 
 TDLG.m                 957.50:  Tot Depth Loggd 
 TFF .                      No:  Trip for Fail 
 TQAA.f-kp               15.00:  Torque Abs Avg 
 TQAN.f-kp               12.00:  Torque Abs Min 
 TQAX.f-kp               19.00:  Torque Abs Max 
 TRRT.°/30m              -3.40:  Turn Rotating 
 MRT .                  EWR-M5:  Maximum Recorded Temperature 
 TTMX.degC              100.00:  Max Tool Temp 
 VS01.                90639251:  Virtual Str1 SN 
 VS02.                90634715:  Virtual Str2 SN 
 VS03.                90652479:  Virtual Str3 SN 
 VS04.                90642262:  Virtual Str4 SN 
 WBMN.klb                 0.00:  WOB Min 
 WITN.           Murad Guliyev:  Customer Rep 
 WITN.          Yashar Gaziyev:  Customer Rep 2 
 WOBA.klb                 9.00:  WOB Avg 
 WOBX.klb                12.00:  WOB Max 
 YP  .lhf2               30.00:  Yield Point 
~Curve Information Block
#MNEM.UNIT                 API CODE     Curve Description
#---------               -----------    ---------------------------
 TIME.HHMMSS            00 000 000 000:  GT Time & Date
 GTDEPTH.m              00 000 000 000:  GT Depth
 GTPQH.psia             00 000 000 000:  GT HR Quartz Pressure
 GTTQ.degC              00 000 000 000:  GT Quartz Temperature
 GTTN.NONE              00 000 000 000:  GT Test Number
 GTET.sec               00 000 000 000:  GT Elapsed Test Time
 GTTVD.m                00 000 000 000:  GT True Vertical Depth
#Other Information
#
#WARRANTY: Halliburton will use its best efforts to furnish customers with 
#accurate information and interpretations that are part of, and incident to, the services 
#provided.  However, Halliburton cannot and does not warrant the accuracy 
#or correctness of such information and interpretations.  Under no circumstances should any 
#such information or interpretation be relied upon as the sole basis for any drilling, 
#completion, production, or financial decision or any procedure involving any risk to the 
#safety of any drilling venture, drilling rig or its crew or any other third party.  The 
#Customer has full responsibility for all drilling, completion and production operation.  
#Halliburton makes no representations or warranties, either expressed or 
#implied, including, but not limited to, the implied warranties of merchantability or fitness 
#for a particular purpose, with respect to the services rendered.  In no event will 
#Halliburton be liable for failure to obtain any particular results or for 
#any damages, including, but not limited to, indirect, special or consequential damages, 
#resulting from the use of any information or interpretation provided by Halliburton.
#
~A           TIME           GTDEPTH  GTPQH  GTTQ  GTTN   GTET   GTTVD  
# ...
   12:21:53.950.27-Aug-2021 4914.80 7777.19 85.39 12.00  22.61 3262.04
   12:21:54.150.27-Aug-2021 4914.80 7777.31 85.39 12.00  22.81 3262.04
   12:21:54.350.27-Aug-2021 4914.80 7777.19 85.39 12.00  23.01 3262.04
   12:21:54.550.27-Aug-2021 4914.80 7777.19 85.39 12.00  23.21 3262.04
   12:21:54.750.27-Aug-2021 4914.80 7777.27 85.39 12.00  23.41 3262.04
   12:21:54.950.27-Aug-2021 4914.80 7780.60 85.39 12.00  23.61 3262.04
   12:21:55.150.27-Aug-2021 4914.80 7778.30 85.39 12.00  23.81 3262.04
   12:21:55.350.27-Aug-2021 4914.80 7778.51 85.39 12.00  24.01 3262.04
   12:21:55.551.27-Aug-2021 4914.80 7778.51 85.39 12.00  24.21 3262.04
   12:21:55.751.27-Aug-2021 4914.80 7780.87 85.39 12.00  24.41 3262.04
   12:21:55.951.27-Aug-2021 4914.80 7779.01 85.39 12.00  24.61 3262.04
   12:21:56.151.27-Aug-2021 4914.80 7779.01 85.39 12.00  24.81 3262.04
   12:21:56.351.27-Aug-2021 4914.80 7777.93 85.39 12.00  25.01 3262.04
   12:21:56.551.27-Aug-2021 4914.80 7777.93 85.39 12.00  25.21 3262.04
   12:21:56.751.27-Aug-2021 4914.80 7778.93 85.39 12.00  25.41 3262.04
   12:21:56.951.27-Aug-2021 4914.80 7785.35 85.39 12.00  25.61 3262.04
   12:21:57.151.27-Aug-2021 4914.80 7776.21 85.39 12.00  25.81 3262.04
   12:21:57.351.27-Aug-2021 4914.80 7781.13 85.39 12.00  26.01 3262.04
   12:21:57.551.27-Aug-2021 4914.80 7781.13 85.39 12.00  26.21 3262.04
   12:21:57.751.27-Aug-2021 4914.80 7780.17 85.39 12.00  26.41 3262.04
   12:21:57.951.27-Aug-2021 4914.80 7780.40 85.39 12.00  26.61 3262.04
   12:21:58.151.27-Aug-2021 4914.80 7783.09 85.39 12.00  26.81 3262.04
   12:21:58.352.27-Aug-2021 4914.80 7781.18 85.39 12.00  27.01 3262.04
   12:21:58.552.27-Aug-2021 4914.80 7781.18 85.39 12.00  27.21 3262.04
   12:21:58.752.27-Aug-2021 4914.80 7781.18 85.39 12.00  27.41 3262.04
   12:21:58.952.27-Aug-2021 4914.80 7780.69 85.39 12.00  27.61 3262.04
   12:21:59.152.27-Aug-2021 4914.80 7780.96 85.39 12.00  27.81 3262.04
   12:21:59.352.27-Aug-2021 4914.80 7781.09 85.39 12.00  28.01 3262.04
   12:21:59.552.27-Aug-2021 4914.80 7781.09 85.39 12.00  28.21 3262.04
   12:21:59.752.27-Aug-2021 4914.80 7781.17 85.39 12.00  28.41 3262.04
   12:21:59.952.27-Aug-2021 4914.80 7781.86 85.39 12.00  28.61 3262.04
   12:22:00.152.27-Aug-2021 4914.80 7782.04 85.39 12.00  28.81 3262.04
   12:22:00.352.27-Aug-2021 4914.80 7782.53 85.39 12.00  29.01 3262.04
   12:22:00.552.27-Aug-2021 4914.80 7782.53 85.39 12.00  29.21 3262.04
   12:22:00.752.27-Aug-2021 4914.80 7782.38 85.39 12.00  29.41 3262.04
   12:22:00.952.27-Aug-2021 4914.80 7782.30 85.39 12.00  29.61 3262.04
   12:22:01.153.27-Aug-2021 4914.80 7782.26 85.39 12.00  29.81 3262.04
   12:22:01.353.27-Aug-2021 4914.80 7786.60 85.39 12.00  30.01 3262.04
   12:22:01.553.27-Aug-2021 4914.80 7786.60 85.39 12.00  30.21 3262.04
   12:22:01.753.27-Aug-2021 4914.80 7783.97 85.39 12.00  30.41 3262.04
   12:22:01.953.27-Aug-2021 4914.80 7782.95 85.39 12.00  30.61 3262.04
   12:22:02.153.27-Aug-2021 4914.80 7782.79 85.39 12.00  30.81 3262.04
   12:22:02.353.27-Aug-2021 4914.80 7783.01 85.39 12.00  31.01 3262.04
   12:22:02.553.27-Aug-2021 4914.80 7783.01 85.39 12.00  31.21 3262.04
   12:22:02.753.27-Aug-2021 4914.80 7783.03 85.39 12.00  31.41 3262.04
   12:22:02.953.27-Aug-2021 4914.80 7783.32 85.39 12.00  31.61 3262.04
   12:22:03.153.27-Aug-2021 4914.80 7783.82 85.39 12.00  31.81 3262.04
   12:22:03.353.27-Aug-2021 4914.80 7784.31 85.39 12.00  32.01 3262.04
   12:22:03.553.27-Aug-2021 4914.80 7784.31 85.39 12.00  32.21 3262.04
   12:22:03.753.27-Aug-2021 4914.80 7784.87 85.39 12.00  32.41 3262.04
   12:22:03.954.27-Aug-2021 4914.80 7784.93 85.39 12.00  32.61 3262.04
   12:22:04.154.27-Aug-2021 4914.80 7784.93 85.39 12.00  32.81 3262.04
   12:22:04.354.27-Aug-2021 4914.80 7784.84 85.39 12.00  33.01 3262.04
   12:22:04.554.27-Aug-2021 4914.80 7784.84 85.39 12.00  33.21 3262.04
   12:22:04.754.27-Aug-2021 4914.80 7788.88 85.39 12.00  33.41 3262.04
   12:22:04.954.27-Aug-2021 4914.80 7784.03 85.39 12.00  33.61 3262.04
   12:22:05.154.27-Aug-2021 4914.80 7786.16 85.39 12.00  33.81 3262.04
   12:22:05.354.27-Aug-2021 4914.80 7785.17 85.39 12.00  34.01 3262.04
   12:22:05.554.27-Aug-2021 4914.80 7785.17 85.39 12.00  34.21 3262.04
   12:22:05.754.27-Aug-2021 4914.80 7788.21 85.39 12.00  34.41 3262.04
   12:22:05.954.27-Aug-2021 4914.80 7785.77 85.39 12.00  34.61 3262.04
   12:22:06.154.27-Aug-2021 4914.80 7785.44 85.39 12.00  34.81 3262.04
   12:22:06.354.27-Aug-2021 4914.80 7785.21 85.39 12.00  35.01 3262.04
   12:22:06.554.27-Aug-2021 4914.80 7785.21 85.39 12.00  35.21 3262.04
   12:22:06.755.27-Aug-2021 4914.80 7791.87 85.38 12.00  35.41 3262.04
   12:22:06.955.27-Aug-2021 4914.80 7783.58 85.38 12.00  35.61 3262.04
   12:22:07.155.27-Aug-2021 4914.80 7787.30 85.38 12.00  35.81 3262.04
   12:22:07.355.27-Aug-2021 4914.80 7786.61 85.38 12.00  36.01 3262.04
   12:22:07.555.27-Aug-2021 4914.80 7786.61 85.38 12.00  36.21 3262.04
   12:22:07.755.27-Aug-2021 4914.80 7786.66 85.38 12.00  36.41 3262.04
   12:22:07.955.27-Aug-2021 4914.80 7786.43 85.38 12.00  36.61 3262.04
   12:22:08.155.27-Aug-2021 4914.80 7791.01 85.38 12.00  36.81 3262.04
   12:22:08.355.27-Aug-2021 4914.80 7785.67 85.38 12.00  37.01 3262.04
   12:22:08.555.27-Aug-2021 4914.80 7785.67 85.38 12.00  37.21 3262.04
   12:22:08.755.27-Aug-2021 4914.80 7787.30 85.38 12.00  37.41 3262.04
   12:22:08.955.27-Aug-2021 4914.80 7787.18 85.38 12.00  37.61 3262.04
   12:22:09.155.27-Aug-2021 4914.80 7787.44 85.38 12.00  37.81 3262.04
   12:22:09.355.27-Aug-2021 4914.80 7787.03 85.38 12.00  38.01 3262.04
   12:22:09.556.27-Aug-2021 4914.80 7787.03 85.38 12.00  38.21 3262.04
   12:22:09.756.27-Aug-2021 4914.80 7787.21 85.38 12.00  38.41 3262.04
   12:22:09.956.27-Aug-2021 4914.80 7787.60 85.38 12.00  38.61 3262.04
   12:22:10.156.27-Aug-2021 4914.80 7788.06 85.38 12.00  38.81 3262.04
   12:22:10.356.27-Aug-2021 4914.80 7788.58 85.38 12.00  39.01 3262.04
   12:22:10.556.27-Aug-2021 4914.80 7788.58 85.38 12.00  39.21 3262.04
   12:22:10.756.27-Aug-2021 4914.80 7788.54 85.38 12.00  39.41 3262.04
   12:22:10.956.27-Aug-2021 4914.80 7788.66 85.38 12.00  39.61 3262.04
   12:22:11.156.27-Aug-2021 4914.80 7788.66 85.38 12.00  39.81 3262.04
   12:22:11.356.27-Aug-2021 4914.80 7788.80 85.38 12.00  40.01 3262.04
   12:22:11.556.27-Aug-2021 4914.80 7788.80 85.38 12.00  40.21 3262.04
   12:22:11.756.27-Aug-2021 4914.80 7792.18 85.38 12.00  40.41 3262.04
   12:22:11.956.27-Aug-2021 4914.80 7789.05 85.38 12.00  40.61 3262.04
   12:22:12.156.27-Aug-2021 4914.80 7790.61 85.38 12.00  40.81 3262.04
   12:22:12.357.27-Aug-2021 4914.80 7789.42 85.38 12.00  41.01 3262.04
   12:22:12.557.27-Aug-2021 4914.80 7789.42 85.38 12.00  41.21 3262.04
   12:22:12.757.27-Aug-2021 4914.80 7789.50 85.38 12.00  41.41 3262.04
   12:22:12.957.27-Aug-2021 4914.80 7789.36 85.38 12.00  41.61 3262.04
   12:22:13.157.27-Aug-2021 4914.80 7789.72 85.38 12.00  41.81 3262.04
   12:22:13.357.27-Aug-2021 4914.80 7789.25 85.38 12.00  42.01 3262.04
   12:22:13.557.27-Aug-2021 4914.80 7789.25 85.38 12.00  42.21 3262.04
   12:22:13.757.27-Aug-2021 4914.80 7790.41 85.38 12.00  42.42 3262.04
   12:22:13.957.27-Aug-2021 4914.80 7790.62 85.38 12.00  42.62 3262.04
   12:22:14.157.27-Aug-2021 4914.80 7790.95 85.38 12.00  42.82 3262.04
   12:22:14.357.27-Aug-2021 4914.80 7790.78 85.38 12.00  43.02 3262.04
   12:22:14.557.27-Aug-2021 4914.80 7790.78 85.38 12.00  43.22 3262.04
   12:22:14.757.27-Aug-2021 4914.80 7790.63 85.38 12.00  43.42 3262.04
   12:22:14.957.27-Aug-2021 4914.80 7793.97 85.38 12.00  43.62 3262.04
   12:22:15.157.27-Aug-2021 4914.80 7790.66 85.38 12.00  43.82 3262.04
   12:22:15.358.27-Aug-2021 4914.80 7792.14 85.38 12.00  44.02 3262.04
   12:22:15.558.27-Aug-2021 4914.80 7792.14 85.38 12.00  44.22 3262.04
   12:22:15.758.27-Aug-2021 4914.80 7790.27 85.38 12.00  44.42 3262.04
   12:22:15.958.27-Aug-2021 4914.80 7790.28 85.38 12.00  44.62 3262.04
   12:22:16.158.27-Aug-2021 4914.80 7793.17 85.38 12.00  44.82 3262.04
   12:22:16.358.27-Aug-2021 4914.80 7790.66 85.38 12.00  45.02 3262.04
