~Version Information
 VERS.                  2.0:   CWLS log ASCII Standard -VERSION 2.0
 WRAP.                   NO:   One line per depth step
~Well Information Block
#MNEM.UNIT     VALUE/NAME     DESCRIPTION
#---------     -----------    ---------------------------
 STRT.S             22:11:58 27-Aug-21: START TIME 22:11:58 27-Aug-21
 STOP.S             22:18:52 27-Aug-21: STOP TIME  22:18:52 27-Aug-21
 STEP.S                   0.00: STEP TIME
 NULL.                 -999.25: NULL VALUE
 DFWT.                        :  DIST FWL TEXT
 DFST.                        :  DIST FSL TEXT
 DMF .             Drill Floor:  DRILL MEAS FROM
 STIM.      20.00.00 17-Aug-21:  START TIME
 DATE.      19.00.00 29-Aug-21:  END TIME
 SPUD.               15-Aug-21:  SPUD DATE
 NREF.                    Grid:  NORTH REFERENCE
 HPTY.       Minimum Curvature:  HOLE POS TYPE
 DMOD.             Drill Model:  DRILL MOD DESC
 SVYD.                  Survey:  SURVEY DESC
 ILTD.               Lithology:  INTERP LTH DESC
 FTOP.          Formation Tops:  FORM TOPS DESC
 RIG .              East Azeri:  RIG NAME
 PDAT.          Mean Sea Level:  PERMANENT DATUM
 FLD .                     ACG:  FIELD NAME
 SON .        AZ-XX-0907180857:  JOB NUMBER
 CTRY.              Azerbaijan:  COUNTRY NAME
 WELL.                    D23x:  WELL NAME
 SRVC.     Turan Drilling and Engineering:  CONTRACTOR
 COMP.     BP Exploration (Caspian Sea) Ltd.:  COMPANY
 UWI .            /AZE00000214:  UNIQUE WELL IDENTIFIER
 API .            /AZE00000214:  API NUMBER
 MDS .        Operator Entered:  MAG DATA SOURCE
 BASE.              Azerbaijan:  LOGGING EQUIPMENT BASE LOCATION
 REGN.                   EESSA:  REGION
 PROV.                    Baku:  PROVINCE
 STAT.                    Baku:  STATE NAME
 MWDS.                    Baku:  MWD SHOP
 DOE .                     N/A:  DOE NUMBER
 DCON.         Sperry Drilling:  DIRECTNL CONTR
 UNIT.                     N/A:  LOGGING EQUIPMENT ID
 WTYP.                Deviated:  WELL TYPE
 CNTY.                        :  COUNTY
 LOC .                        :  LOCATION
 LMF .             Drill Floor:  LOG MEASURED FROM
 TVDS.m                  43.60:  TVDSS CORRECTN
 LATI.deg                40.02:  LATITUDE
 LONG.deg                51.45:  LONGITUDE
 WHNS.m                  -7.04:  WELL HEAD N/S
 WHEW.m                  -0.67:  WELL HEAD E/W
 UTMX.m              538762.90:  UTM X
 UTMY.m             4431871.34:  UTM Y
 DFWL.m                   0.00:  DISTANCE FWL
 DFSL.m                   0.00:  DISTANCE FSL
 SDEP.m                4127.00:  START DEPTH
 TDD .m                5084.50:  TOTAL DEPTH (DRILLER)
 VSDR.deg               140.47:  VERT SEC DIRECT
 GVFD.g                   1.00:  GRAVITY FIELD
 MFLD.nT              50362.00:  MAGNETIC FIELD
 MDIP.deg                59.48:  MAGNETIC DIP
 MDEC.deg                 6.47:  MAGNETIC DECL
 GRDC.deg                 0.31:  GRID CORRECTION
 AZTC.deg                 6.16:  AZM TOTAL CORR
 EPD .m                   0.00:  ELEVATION
 EGL .m                   0.00:  GROUND ELEVATION
 WDMS.m                 151.80:  WD ELEV
 APD .m                  43.60:  DEPTH ABOVE PD
 DEP .m                4092.57:  DEPTH
 AGAP.m                  43.60:  AIR GAP
 VSEW.m                  -0.67:  VERT SEC E/W
 VSNS.m                  -7.04:  VERT SEC N/S
 EKB .m                  43.60:  KB ELEVATION
 EDF .m                  43.60:  DF ELEVATION
 TDL .m                 957.50:  TOTAL DEPTH (LOGGER)
 VSC .                       0:  VS TO CLOSURE
 MAGU.                 1851413:  MAGUTM CHECKSUM
~Parameter Information Block
#MNEM.UNIT       Value        Description
#---------     -----------    ---------------------------
 AV  .mps                 1.50:  Ann Velocity 
 AVMX.mps                 2.00:  Max Ann Veloc 
 AZIF.deg               184.66:  Azm, Final 
 BHAT.        Rotary Steerable:  BHA Type 
 BREV.rev               300.00:  Rev Bit Total 
 BROT.°/30m              -0.50:  Build Rotating 
 BS  .in                  8.50:  Bit Size 
 BSZ .in                  8.50:  Bit Size 
 BTPL.psig              370.00:  Bit Press Loss 
 CABU.                      No:  Customer Abuse 
 CGEO.      Behruz Shahbaliyev:  Customer Geo 
 COMM.                     Tªl:  Run Comments 1 
 TCS .hr                140.08:  Time Ciculation Ended 
 CV  .mps                 3.00:  Crit Velocity 
 CVMX.mps                 3.20:  Max Crit Veloc 
 DD1 .            Musa Ahmadov:  Direct Drillr 1 
 DD2 .           Hamid Ahmadov:  Direct Drillr 2 
 DDSV.               Geo-Pilot:  DD Service 
 DEFF.%                  98.40:  % Det Eff 
 DLRX.°/30m               3.40:  Dogleg Rot Max 
 DLSO.°/30m               1.45:  Dogleg Oriented 
 DLSX.°/30m               3.40:  Dogleg Str Max 
 DRET.      18.40.00 29-Aug-21:  Drill End Time 
 DRST.      21.00.00 20-Aug-21:  Drill Start Tim 
 DTIM.hr                 69.47:  Time Drilling 
 EDEP.m                5084.50:  End Depth 
 ENG1.      Artemiy Matviyanov:  Engineer 1 
 ENG2.         Almaz Almadatov:  Engineer 2 
 ETIM.      18.40.00 29-Aug-21:  End Time 
 FLOI.gpm               500.00:  Flow In 
 FLON.gpm               400.00:  Flow In Min 
 FLOS.cptm                0.00:  Fluid Loss 
 FLOX.gpm               500.00:  Flow In Max 
 DFT .        Mineral Oil Base:  Mud Type 
 HFLO.                      No:  High Flow 
 HPRE.                      No:  High Pressure 
 HTEM.                      No:  High Temp 
 HYDO.m                   1.80:  Hydro Offset 
 IFIN.deg                25.62:  Inc, Final 
 IMAX.deg                48.69:  Inc Max 
 IMIN.deg                24.01:  Inc Min 
 IMND.m                4962.57:  Inc Min Depth 
 IMXD.m                4119.01:  Inc Max Depth 
 JARR.                      No:  Jarring 
 LETM.      18.40.00 29-Aug-21:  Log End Time 
 LOST.hr                     0:  Lost Rig Time 
 LSTM.      21.00.00 20-Aug-21:  Log Start Time 
 MDCL.ppm             41500.00:  Mud Chlorides 
 MDES.     Inversion Oil/Synthetic:  Mud Desc 
 DFD .sg                  1.56:  Mud Density 
 MDMN.sg                  1.56:  Dens Mud Min 
 MDMX.sg                  1.56:  Dens Mud Max 
 MOIL.                      70:  Run Mud Oil % 
 MOWR.                   70:30:  Run Mud OWR 
 MSND.                     0.2:  Run Mud Sand % 
 MSOL.                    23.3:  Run Mud Solids% 
 DFV .spqt               78.00:  Mud Viscosity 
 MWOD.in                  6.75:  MWD Tool OD 
 MWSI.                      No:  Serv Intrp, MWD 
 OTIM.hr                218.30:  Time Operating 
 PCON.           Look Like New:  Pad Condition 
 PMAX.psia            11015.30:  Press Op, Max 
 PV  .cP                 38.00:  Mud PV 
 RUN .                     300:  Run Number 
 ROPA.m/hr               15.00:  ROP Avg 
 ROPN.m/hr                9.00:  ROP Min 
 ROPX.m/hr               17.00:  ROP Max 
 RPMA.rpm               120.00:  RPM Surface Avg 
 RPMN.rpm                90.00:  RPM Surface Min 
 RPMX.rpm               140.00:  RPM Surface Max 
 RRUN.                     300:  Rig Run Number 
 RTIM.hr                 31.53:  Time Reaming 
 SAZI.deg               331.64:  Azm, Start 
 SDEP.m                4127.00:  Start Depth 
 SIDD.                      No:  Serv Intrp, DD 
 SINC.deg                48.43:  Inc, Start 
 SPPA.psig             5830.00:  SPP Avg 
 SPPN.psig             5600.00:  SPP Min 
 SPPX.psig             5900.00:  SPP Max 
 STIM.      21.00.00 20-Aug-21:  Start Time 
 SVCS.                 DD, MWD:  Services 
 SVER.                    9.20:  Sperry Version 
 TDAT.m                 957.50:  Tot Depth Attmp 
 TDDF.                      No:  Trip for DD 
 TDLG.m                 957.50:  Tot Depth Loggd 
 TFF .                      No:  Trip for Fail 
 TQAA.f-kp               15.00:  Torque Abs Avg 
 TQAN.f-kp               12.00:  Torque Abs Min 
 TQAX.f-kp               19.00:  Torque Abs Max 
 TRRT.°/30m              -3.40:  Turn Rotating 
 MRT .                  EWR-M5:  Maximum Recorded Temperature 
 TTMX.degC              100.00:  Max Tool Temp 
 VS01.                90639251:  Virtual Str1 SN 
 VS02.                90634715:  Virtual Str2 SN 
 VS03.                90652479:  Virtual Str3 SN 
 VS04.                90642262:  Virtual Str4 SN 
 WBMN.klb                 0.00:  WOB Min 
 WITN.           Murad Guliyev:  Customer Rep 
 WITN.          Yashar Gaziyev:  Customer Rep 2 
 WOBA.klb                 9.00:  WOB Avg 
 WOBX.klb                12.00:  WOB Max 
 YP  .lhf2               30.00:  Yield Point 
~Curve Information Block
#MNEM.UNIT                 API CODE     Curve Description
#---------               -----------    ---------------------------
 TIME.HHMMSS            00 000 000 000:  GT Time & Date
 GTDEPTH.m              00 000 000 000:  GT Depth
 GTPQH.psia             00 000 000 000:  GT HR Quartz Pressure
 GTTQ.degC              00 000 000 000:  GT Quartz Temperature
 GTTN.NONE              00 000 000 000:  GT Test Number
 GTET.sec               00 000 000 000:  GT Elapsed Test Time
 GTTVD.m                00 000 000 000:  GT True Vertical Depth
#Other Information
#
#WARRANTY: Halliburton will use its best efforts to furnish customers with 
#accurate information and interpretations that are part of, and incident to, the services 
#provided.  However, Halliburton cannot and does not warrant the accuracy 
#or correctness of such information and interpretations.  Under no circumstances should any 
#such information or interpretation be relied upon as the sole basis for any drilling, 
#completion, production, or financial decision or any procedure involving any risk to the 
#safety of any drilling venture, drilling rig or its crew or any other third party.  The 
#Customer has full responsibility for all drilling, completion and production operation.  
#Halliburton makes no representations or warranties, either expressed or 
#implied, including, but not limited to, the implied warranties of merchantability or fitness 
#for a particular purpose, with respect to the services rendered.  In no event will 
#Halliburton be liable for failure to obtain any particular results or for 
#any damages, including, but not limited to, indirect, special or consequential damages, 
#resulting from the use of any information or interpretation provided by Halliburton.
#
~A           TIME           GTDEPTH  GTPQH  GTTQ  GTTN   GTET   GTTVD  
# ...
   22:12:43.750.27-Aug-2021 4635.80 7283.36 82.51 24.00  45.20 3009.39
   22:12:43.950.27-Aug-2021 4635.80 7238.15 82.51 24.00  45.40 3009.39
   22:12:44.150.27-Aug-2021 4635.80 7215.61 82.51 24.00  45.60 3009.39
   22:12:44.350.27-Aug-2021 4635.80 7179.80 82.51 24.00  45.80 3009.39
   22:12:44.550.27-Aug-2021 4635.80 7143.17 82.51 24.00  46.00 3009.39
   22:12:44.750.27-Aug-2021 4635.80 7143.17 82.51 24.00  46.20 3009.39
   22:12:44.951.27-Aug-2021 4635.80 7056.20 82.51 24.00  46.40 3009.39
   22:12:45.151.27-Aug-2021 4635.80 7005.37 82.51 24.00  46.60 3009.39
   22:12:45.351.27-Aug-2021 4635.80 6974.45 82.51 24.00  46.80 3009.39
   22:12:45.551.27-Aug-2021 4635.80 6894.21 82.51 24.00  47.00 3009.39
   22:12:45.751.27-Aug-2021 4635.80 6894.21 82.51 24.00  47.20 3009.39
   22:12:45.951.27-Aug-2021 4635.80 6894.21 82.51 24.00  47.40 3009.39
   22:12:46.151.27-Aug-2021 4635.80 6615.92 82.51 24.00  47.60 3009.39
   22:12:46.351.27-Aug-2021 4635.80 6498.12 82.51 24.00  47.80 3009.39
   22:12:46.551.27-Aug-2021 4635.80 6374.79 82.51 24.00  48.00 3009.39
   22:12:46.751.27-Aug-2021 4635.80 6374.79 82.51 24.00  48.20 3009.39
   22:12:46.951.27-Aug-2021 4635.80 6133.54 82.51 24.00  48.40 3009.39
   22:12:47.151.27-Aug-2021 4635.80 6007.79 82.51 24.00  48.60 3009.39
   22:12:47.351.27-Aug-2021 4635.80 5878.71 82.51 24.00  48.80 3009.39
   22:12:47.551.27-Aug-2021 4635.80 5746.62 82.51 24.00  49.01 3009.39
   22:12:47.751.27-Aug-2021 4635.80 5746.62 82.51 24.00  49.21 3009.39
   22:12:47.951.27-Aug-2021 4635.80 5499.88 82.50 24.00  49.41 3009.39
   22:12:48.151.27-Aug-2021 4635.80 5380.11 82.50 24.00  49.61 3009.39
   22:12:48.351.27-Aug-2021 4635.80 5262.77 82.50 24.00  49.81 3009.39
   22:12:48.551.27-Aug-2021 4635.80 5174.67 82.50 24.00  50.01 3009.39
   22:12:48.751.27-Aug-2021 4635.80 5174.67 82.50 24.00  50.21 3009.39
   22:12:48.951.27-Aug-2021 4635.80 4964.99 82.50 24.00  50.41 3009.39
   22:12:49.151.27-Aug-2021 4635.80 4854.76 82.50 24.00  50.61 3009.39
   22:12:49.351.27-Aug-2021 4635.80 4689.54 82.49 24.00  50.81 3009.39
   22:12:49.551.27-Aug-2021 4635.80 4571.02 82.49 24.00  51.01 3009.39
   22:12:49.751.27-Aug-2021 4635.80 4571.02 82.49 24.00  51.21 3009.39
   22:12:49.951.27-Aug-2021 4635.80 4262.09 82.49 24.00  51.41 3009.39
   22:12:50.151.27-Aug-2021 4635.80 4093.98 82.49 24.00  51.61 3009.39
   22:12:50.351.27-Aug-2021 4635.80 3968.63 82.49 24.00  51.81 3009.39
   22:12:50.551.27-Aug-2021 4635.80 3815.05 82.48 24.00  52.01 3009.39
   22:12:50.751.27-Aug-2021 4635.80 3815.05 82.48 24.00  52.21 3009.39
   22:12:50.951.27-Aug-2021 4635.80 3387.60 82.48 24.00  52.41 3009.39
   22:12:51.151.27-Aug-2021 4635.80 3177.44 82.48 24.00  52.61 3009.39
   22:12:51.351.27-Aug-2021 4635.80 2971.11 82.47 24.00  52.81 3009.39
   22:12:51.551.27-Aug-2021 4635.80 2830.33 82.47 24.00  53.01 3009.39
   22:12:51.751.27-Aug-2021 4635.80 2830.33 82.47 24.00  53.21 3009.39
   22:12:51.951.27-Aug-2021 4635.80 2810.45 82.47 24.00  53.41 3009.39
   22:12:52.151.27-Aug-2021 4635.80 2812.73 82.46 24.00  53.61 3009.39
   22:12:52.351.27-Aug-2021 4635.80 2814.01 82.46 24.00  53.81 3009.39
   22:12:52.551.27-Aug-2021 4635.80 2818.33 82.46 24.00  54.01 3009.39
   22:12:52.751.27-Aug-2021 4635.80 2818.33 82.46 24.00  54.21 3009.39
   22:12:52.951.27-Aug-2021 4635.80 2832.89 82.45 24.00  54.41 3009.39
   22:12:53.151.27-Aug-2021 4635.80 2842.97 82.45 24.00  54.61 3009.39
   22:12:53.351.27-Aug-2021 4635.80 2855.03 82.45 24.00  54.81 3009.39
   22:12:53.551.27-Aug-2021 4635.80 2867.46 82.44 24.00  55.01 3009.39
   22:12:53.751.27-Aug-2021 4635.80 2867.46 82.44 24.00  55.21 3009.39
   22:12:53.951.27-Aug-2021 4635.80 2891.61 82.44 24.00  55.41 3009.39
   22:12:54.151.27-Aug-2021 4635.80 2903.61 82.44 24.00  55.61 3009.39
   22:12:54.351.27-Aug-2021 4635.80 2915.51 82.43 24.00  55.81 3009.39
   22:12:54.551.27-Aug-2021 4635.80 2925.86 82.43 24.00  56.01 3009.39
   22:12:54.752.27-Aug-2021 4635.80 2925.86 82.43 24.00  56.21 3009.39
   22:12:54.952.27-Aug-2021 4635.80 2950.02 82.42 24.00  56.41 3009.39
   22:12:55.152.27-Aug-2021 4635.80 2948.03 82.42 24.00  56.61 3009.39
   22:12:55.352.27-Aug-2021 4635.80 2890.95 82.42 24.00  56.81 3009.39
   22:12:55.552.27-Aug-2021 4635.80 2359.17 82.42 24.00  57.01 3009.39
   22:12:55.752.27-Aug-2021 4635.80 2359.17 82.42 24.00  57.21 3009.39
   22:12:55.952.27-Aug-2021 4635.80 1165.74 82.41 24.00  57.41 3009.39
   22:12:56.152.27-Aug-2021 4635.80 1116.47 82.41 24.00  57.61 3009.39
   22:12:56.352.27-Aug-2021 4635.80 1112.91 82.41 24.00  57.81 3009.39
   22:12:56.552.27-Aug-2021 4635.80 1117.24 82.41 24.00  58.01 3009.39
   22:12:56.752.27-Aug-2021 4635.80 1117.24 82.41 24.00  58.21 3009.39
   22:12:56.952.27-Aug-2021 4635.80 1116.33 82.40 24.00  58.41 3009.39
   22:12:57.152.27-Aug-2021 4635.80 1118.38 82.40 24.00  58.61 3009.39
   22:12:57.352.27-Aug-2021 4635.80 1118.47 82.40 24.00  58.81 3009.39
   22:12:57.552.27-Aug-2021 4635.80 1116.70 82.39 24.00  59.01 3009.39
   22:12:57.752.27-Aug-2021 4635.80 1116.70 82.39 24.00  59.21 3009.39
   22:12:57.952.27-Aug-2021 4635.80 1114.78 82.39 24.00  59.41 3009.39
   22:12:58.152.27-Aug-2021 4635.80 1110.00 82.39 24.00  59.61 3009.39
   22:12:58.352.27-Aug-2021 4635.80 1110.67 82.38 24.00  59.81 3009.39
   22:12:58.552.27-Aug-2021 4635.80 1112.15 82.38 24.00  60.01 3009.39
   22:12:58.752.27-Aug-2021 4635.80 1112.15 82.38 24.00  60.21 3009.39
   22:12:58.952.27-Aug-2021 4635.80 1111.22 82.38 24.00  60.41 3009.39
   22:12:59.152.27-Aug-2021 4635.80 1111.08 82.37 24.00  60.61 3009.39
   22:12:59.352.27-Aug-2021 4635.80 1108.18 82.37 24.00  60.81 3009.39
   22:12:59.552.27-Aug-2021 4635.80 1107.03 82.37 24.00  61.01 3009.39
   22:12:59.752.27-Aug-2021 4635.80 1107.03 82.37 24.00  61.21 3009.39
   22:12:59.952.27-Aug-2021 4635.80 1104.93 82.36 24.00  61.41 3009.39
   22:13:00.152.27-Aug-2021 4635.80 1103.52 82.36 24.00  61.61 3009.39
   22:13:00.352.27-Aug-2021 4635.80 1106.57 82.36 24.00  61.81 3009.39
   22:13:00.552.27-Aug-2021 4635.80 1107.63 82.36 24.00  62.01 3009.39
   22:13:00.752.27-Aug-2021 4635.80 1107.63 82.36 24.00  62.21 3009.39
   22:13:00.952.27-Aug-2021 4635.80 1109.12 82.35 24.00  62.41 3009.39
   22:13:01.152.27-Aug-2021 4635.80 1112.51 82.35 24.00  62.61 3009.39
   22:13:01.352.27-Aug-2021 4635.80 1112.41 82.35 24.00  62.81 3009.39
   22:13:01.552.27-Aug-2021 4635.80 1108.71 82.35 24.00  63.01 3009.39
   22:13:01.752.27-Aug-2021 4635.80 1108.71 82.35 24.00  63.21 3009.39
   22:13:01.952.27-Aug-2021 4635.80 1110.95 82.35 24.00  63.41 3009.39
   22:13:02.152.27-Aug-2021 4635.80 1110.34 82.35 24.00  63.61 3009.39
   22:13:02.352.27-Aug-2021 4635.80 1116.67 82.34 24.00  63.81 3009.39
   22:13:02.552.27-Aug-2021 4635.80 1122.31 82.34 24.00  64.01 3009.39
   22:13:02.752.27-Aug-2021 4635.80 1122.31 82.34 24.00  64.21 3009.39
   22:13:02.952.27-Aug-2021 4635.80 1120.04 82.34 24.00  64.41 3009.39
   22:13:03.152.27-Aug-2021 4635.80 1121.88 82.34 24.00  64.61 3009.39
   22:13:03.352.27-Aug-2021 4635.80 1119.58 82.34 24.00  64.81 3009.39
   22:13:03.552.27-Aug-2021 4635.80 1116.09 82.34 24.00  65.01 3009.39
   22:13:03.752.27-Aug-2021 4635.80 1116.09 82.34 24.00  65.21 3009.39
   22:13:03.952.27-Aug-2021 4635.80 1123.03 82.34 24.00  65.41 3009.39
   22:13:04.152.27-Aug-2021 4635.80 1122.84 82.33 24.00  65.61 3009.39
   22:13:04.352.27-Aug-2021 4635.80 1120.06 82.33 24.00  65.81 3009.39
   22:13:04.553.27-Aug-2021 4635.80 1115.82 82.33 24.00  66.01 3009.39
   22:13:04.753.27-Aug-2021 4635.80 1115.82 82.33 24.00  66.21 3009.39
   22:13:04.953.27-Aug-2021 4635.80 1121.69 82.33 24.00  66.41 3009.39
   22:13:05.153.27-Aug-2021 4635.80 1125.73 82.33 24.00  66.61 3009.39
   22:13:05.353.27-Aug-2021 4635.80 1143.39 82.33 24.00  66.81 3009.39
   22:13:05.553.27-Aug-2021 4635.80 1172.06 82.33 24.00  67.01 3009.39
   22:13:05.753.27-Aug-2021 4635.80 1172.06 82.33 24.00  67.21 3009.39
   22:13:05.953.27-Aug-2021 4635.80 1172.06 82.33 24.00  67.41 3009.39
   22:13:06.153.27-Aug-2021 4635.80 1239.10 82.33 24.00  67.61 3009.39
