~Version Information
 VERS.                  2.0:   CWLS log ASCII Standard -VERSION 2.0
 WRAP.                   NO:   One line per depth step
~Well Information Block
#MNEM.UNIT     VALUE/NAME     DESCRIPTION
#---------     -----------    ---------------------------
 STRT.S             11:48:55 27-Aug-21: START TIME 11:48:55 27-Aug-21
 STOP.S             11:56:03 27-Aug-21: STOP TIME  11:56:03 27-Aug-21
 STEP.S                   0.00: STEP TIME
 NULL.                 -999.25: NULL VALUE
 DFWT.                        :  DIST FWL TEXT
 DFST.                        :  DIST FSL TEXT
 DMF .             Drill Floor:  DRILL MEAS FROM
 STIM.      20.00.00 17-Aug-21:  START TIME
 DATE.      19.00.00 29-Aug-21:  END TIME
 SPUD.               15-Aug-21:  SPUD DATE
 NREF.                    Grid:  NORTH REFERENCE
 HPTY.       Minimum Curvature:  HOLE POS TYPE
 DMOD.             Drill Model:  DRILL MOD DESC
 SVYD.                  Survey:  SURVEY DESC
 ILTD.               Lithology:  INTERP LTH DESC
 FTOP.          Formation Tops:  FORM TOPS DESC
 RIG .              East Azeri:  RIG NAME
 PDAT.          Mean Sea Level:  PERMANENT DATUM
 FLD .                     ACG:  FIELD NAME
 SON .        AZ-XX-0907180857:  JOB NUMBER
 CTRY.              Azerbaijan:  COUNTRY NAME
 WELL.                    D23x:  WELL NAME
 SRVC.     Turan Drilling and Engineering:  CONTRACTOR
 COMP.     BP Exploration (Caspian Sea) Ltd.:  COMPANY
 UWI .            /AZE00000214:  UNIQUE WELL IDENTIFIER
 API .            /AZE00000214:  API NUMBER
 MDS .        Operator Entered:  MAG DATA SOURCE
 BASE.              Azerbaijan:  LOGGING EQUIPMENT BASE LOCATION
 REGN.                   EESSA:  REGION
 PROV.                    Baku:  PROVINCE
 STAT.                    Baku:  STATE NAME
 MWDS.                    Baku:  MWD SHOP
 DOE .                     N/A:  DOE NUMBER
 DCON.         Sperry Drilling:  DIRECTNL CONTR
 UNIT.                     N/A:  LOGGING EQUIPMENT ID
 WTYP.                Deviated:  WELL TYPE
 CNTY.                        :  COUNTY
 LOC .                        :  LOCATION
 LMF .             Drill Floor:  LOG MEASURED FROM
 TVDS.m                  43.60:  TVDSS CORRECTN
 LATI.deg                40.02:  LATITUDE
 LONG.deg                51.45:  LONGITUDE
 WHNS.m                  -7.04:  WELL HEAD N/S
 WHEW.m                  -0.67:  WELL HEAD E/W
 UTMX.m              538762.90:  UTM X
 UTMY.m             4431871.34:  UTM Y
 DFWL.m                   0.00:  DISTANCE FWL
 DFSL.m                   0.00:  DISTANCE FSL
 SDEP.m                4127.00:  START DEPTH
 TDD .m                5084.50:  TOTAL DEPTH (DRILLER)
 VSDR.deg               140.47:  VERT SEC DIRECT
 GVFD.g                   1.00:  GRAVITY FIELD
 MFLD.nT              50362.00:  MAGNETIC FIELD
 MDIP.deg                59.48:  MAGNETIC DIP
 MDEC.deg                 6.47:  MAGNETIC DECL
 GRDC.deg                 0.31:  GRID CORRECTION
 AZTC.deg                 6.16:  AZM TOTAL CORR
 EPD .m                   0.00:  ELEVATION
 EGL .m                   0.00:  GROUND ELEVATION
 WDMS.m                 151.80:  WD ELEV
 APD .m                  43.60:  DEPTH ABOVE PD
 DEP .m                4092.57:  DEPTH
 AGAP.m                  43.60:  AIR GAP
 VSEW.m                  -0.67:  VERT SEC E/W
 VSNS.m                  -7.04:  VERT SEC N/S
 EKB .m                  43.60:  KB ELEVATION
 EDF .m                  43.60:  DF ELEVATION
 TDL .m                 957.50:  TOTAL DEPTH (LOGGER)
 VSC .                       0:  VS TO CLOSURE
 MAGU.                 1851413:  MAGUTM CHECKSUM
~Parameter Information Block
#MNEM.UNIT       Value        Description
#---------     -----------    ---------------------------
 AV  .mps                 1.50:  Ann Velocity 
 AVMX.mps                 2.00:  Max Ann Veloc 
 AZIF.deg               184.66:  Azm, Final 
 BHAT.        Rotary Steerable:  BHA Type 
 BREV.rev               300.00:  Rev Bit Total 
 BROT.°/30m              -0.50:  Build Rotating 
 BS  .in                  8.50:  Bit Size 
 BSZ .in                  8.50:  Bit Size 
 BTPL.psig              370.00:  Bit Press Loss 
 CABU.                      No:  Customer Abuse 
 CGEO.      Behruz Shahbaliyev:  Customer Geo 
 COMM.                     L*e:  Run Comments 1 
 TCS .hr                140.08:  Time Ciculation Ended 
 CV  .mps                 3.00:  Crit Velocity 
 CVMX.mps                 3.20:  Max Crit Veloc 
 DD1 .            Musa Ahmadov:  Direct Drillr 1 
 DD2 .           Hamid Ahmadov:  Direct Drillr 2 
 DDSV.               Geo-Pilot:  DD Service 
 DEFF.%                  98.40:  % Det Eff 
 DLRX.°/30m               3.40:  Dogleg Rot Max 
 DLSO.°/30m               1.45:  Dogleg Oriented 
 DLSX.°/30m               3.40:  Dogleg Str Max 
 DRET.      18.40.00 29-Aug-21:  Drill End Time 
 DRST.      21.00.00 20-Aug-21:  Drill Start Tim 
 DTIM.hr                 69.47:  Time Drilling 
 EDEP.m                5084.50:  End Depth 
 ENG1.      Artemiy Matviyanov:  Engineer 1 
 ENG2.         Almaz Almadatov:  Engineer 2 
 ETIM.      18.40.00 29-Aug-21:  End Time 
 FLOI.gpm               500.00:  Flow In 
 FLON.gpm               400.00:  Flow In Min 
 FLOS.cptm                0.00:  Fluid Loss 
 FLOX.gpm               500.00:  Flow In Max 
 DFT .        Mineral Oil Base:  Mud Type 
 HFLO.                      No:  High Flow 
 HPRE.                      No:  High Pressure 
 HTEM.                      No:  High Temp 
 HYDO.m                   1.80:  Hydro Offset 
 IFIN.deg                25.62:  Inc, Final 
 IMAX.deg                48.69:  Inc Max 
 IMIN.deg                24.01:  Inc Min 
 IMND.m                4962.57:  Inc Min Depth 
 IMXD.m                4119.01:  Inc Max Depth 
 JARR.                      No:  Jarring 
 LETM.      18.40.00 29-Aug-21:  Log End Time 
 LOST.hr                     0:  Lost Rig Time 
 LSTM.      21.00.00 20-Aug-21:  Log Start Time 
 MDCL.ppm             41500.00:  Mud Chlorides 
 MDES.     Inversion Oil/Synthetic:  Mud Desc 
 DFD .sg                  1.56:  Mud Density 
 MDMN.sg                  1.56:  Dens Mud Min 
 MDMX.sg                  1.56:  Dens Mud Max 
 MOIL.                      70:  Run Mud Oil % 
 MOWR.                   70:30:  Run Mud OWR 
 MSND.                     0.2:  Run Mud Sand % 
 MSOL.                    23.3:  Run Mud Solids% 
 DFV .spqt               78.00:  Mud Viscosity 
 MWOD.in                  6.75:  MWD Tool OD 
 MWSI.                      No:  Serv Intrp, MWD 
 OTIM.hr                218.30:  Time Operating 
 PCON.           Look Like New:  Pad Condition 
 PMAX.psia            11015.30:  Press Op, Max 
 PV  .cP                 38.00:  Mud PV 
 RUN .                     300:  Run Number 
 ROPA.m/hr               15.00:  ROP Avg 
 ROPN.m/hr                9.00:  ROP Min 
 ROPX.m/hr               17.00:  ROP Max 
 RPMA.rpm               120.00:  RPM Surface Avg 
 RPMN.rpm                90.00:  RPM Surface Min 
 RPMX.rpm               140.00:  RPM Surface Max 
 RRUN.                     300:  Rig Run Number 
 RTIM.hr                 31.53:  Time Reaming 
 SAZI.deg               331.64:  Azm, Start 
 SDEP.m                4127.00:  Start Depth 
 SIDD.                      No:  Serv Intrp, DD 
 SINC.deg                48.43:  Inc, Start 
 SPPA.psig             5830.00:  SPP Avg 
 SPPN.psig             5600.00:  SPP Min 
 SPPX.psig             5900.00:  SPP Max 
 STIM.      21.00.00 20-Aug-21:  Start Time 
 SVCS.                 DD, MWD:  Services 
 SVER.                    9.20:  Sperry Version 
 TDAT.m                 957.50:  Tot Depth Attmp 
 TDDF.                      No:  Trip for DD 
 TDLG.m                 957.50:  Tot Depth Loggd 
 TFF .                      No:  Trip for Fail 
 TQAA.f-kp               15.00:  Torque Abs Avg 
 TQAN.f-kp               12.00:  Torque Abs Min 
 TQAX.f-kp               19.00:  Torque Abs Max 
 TRRT.°/30m              -3.40:  Turn Rotating 
 MRT .                  EWR-M5:  Maximum Recorded Temperature 
 TTMX.degC              100.00:  Max Tool Temp 
 VS01.                90639251:  Virtual Str1 SN 
 VS02.                90634715:  Virtual Str2 SN 
 VS03.                90652479:  Virtual Str3 SN 
 VS04.                90642262:  Virtual Str4 SN 
 WBMN.klb                 0.00:  WOB Min 
 WITN.           Murad Guliyev:  Customer Rep 
 WITN.          Yashar Gaziyev:  Customer Rep 2 
 WOBA.klb                 9.00:  WOB Avg 
 WOBX.klb                12.00:  WOB Max 
 YP  .lhf2               30.00:  Yield Point 
~Curve Information Block
#MNEM.UNIT                 API CODE     Curve Description
#---------               -----------    ---------------------------
 TIME.HHMMSS            00 000 000 000:  GT Time & Date
 GTDEPTH.m              00 000 000 000:  GT Depth
 GTPQH.psia             00 000 000 000:  GT HR Quartz Pressure
 GTTQ.degC              00 000 000 000:  GT Quartz Temperature
 GTTN.NONE              00 000 000 000:  GT Test Number
 GTET.sec               00 000 000 000:  GT Elapsed Test Time
 GTTVD.m                00 000 000 000:  GT True Vertical Depth
#Other Information
#
#WARRANTY: Halliburton will use its best efforts to furnish customers with 
#accurate information and interpretations that are part of, and incident to, the services 
#provided.  However, Halliburton cannot and does not warrant the accuracy 
#or correctness of such information and interpretations.  Under no circumstances should any 
#such information or interpretation be relied upon as the sole basis for any drilling, 
#completion, production, or financial decision or any procedure involving any risk to the 
#safety of any drilling venture, drilling rig or its crew or any other third party.  The 
#Customer has full responsibility for all drilling, completion and production operation.  
#Halliburton makes no representations or warranties, either expressed or 
#implied, including, but not limited to, the implied warranties of merchantability or fitness 
#for a particular purpose, with respect to the services rendered.  In no event will 
#Halliburton be liable for failure to obtain any particular results or for 
#any damages, including, but not limited to, indirect, special or consequential damages, 
#resulting from the use of any information or interpretation provided by Halliburton.
#
~A           TIME           GTDEPTH  GTPQH  GTTQ  GTTN   GTET   GTTVD  
# ...
   11:55:42.592.27-Aug-2021 4914.00 7806.24 85.26 11.00 406.94 3261.31
   11:55:42.792.27-Aug-2021 4914.00 7804.90 85.26 11.00 407.14 3261.31
   11:55:42.992.27-Aug-2021 4914.00 7804.90 85.26 11.00 407.34 3261.31
   11:55:43.192.27-Aug-2021 4914.00 7804.92 85.26 11.00 407.54 3261.31
   11:55:43.393.27-Aug-2021 4914.00 7805.21 85.26 11.00 407.74 3261.31
   11:55:43.593.27-Aug-2021 4914.00 7804.76 85.26 11.00 407.94 3261.31
   11:55:43.793.27-Aug-2021 4914.00 7805.27 85.26 11.00 408.14 3261.31
   11:55:43.993.27-Aug-2021 4914.00 7805.27 85.26 11.00 408.34 3261.31
   11:55:44.193.27-Aug-2021 4914.00 7805.88 85.26 11.00 408.55 3261.31
   11:55:44.393.27-Aug-2021 4914.00 7806.34 85.26 11.00 408.75 3261.31
   11:55:44.593.27-Aug-2021 4914.00 7806.07 85.26 11.00 408.95 3261.31
   11:55:44.793.27-Aug-2021 4914.00 7806.06 85.26 11.00 409.15 3261.31
   11:55:44.993.27-Aug-2021 4914.00 7806.06 85.26 11.00 409.35 3261.31
   11:55:45.193.27-Aug-2021 4914.00 7805.50 85.26 11.00 409.55 3261.31
   11:55:45.393.27-Aug-2021 4914.00 7805.35 85.26 11.00 409.75 3261.31
   11:55:45.593.27-Aug-2021 4914.00 7808.27 85.26 11.00 409.95 3261.31
   11:55:45.793.27-Aug-2021 4914.00 7805.87 85.26 11.00 410.15 3261.31
   11:55:45.993.27-Aug-2021 4914.00 7805.87 85.26 11.00 410.35 3261.31
   11:55:46.194.27-Aug-2021 4914.00 7805.16 85.26 11.00 410.55 3261.31
   11:55:46.394.27-Aug-2021 4914.00 7804.84 85.26 11.00 410.75 3261.31
   11:55:46.594.27-Aug-2021 4914.00 7807.99 85.26 11.00 410.95 3261.31
   11:55:46.794.27-Aug-2021 4914.00 7805.83 85.26 11.00 411.15 3261.31
   11:55:46.994.27-Aug-2021 4914.00 7805.83 85.26 11.00 411.35 3261.31
   11:55:47.194.27-Aug-2021 4914.00 7805.04 85.26 11.00 411.55 3261.31
   11:55:47.394.27-Aug-2021 4914.00 7805.28 85.26 11.00 411.75 3261.31
   11:55:47.594.27-Aug-2021 4914.00 7805.56 85.26 11.00 411.95 3261.31
   11:55:47.794.27-Aug-2021 4914.00 7805.88 85.26 11.00 412.15 3261.31
   11:55:47.994.27-Aug-2021 4914.00 7805.88 85.26 11.00 412.35 3261.31
   11:55:48.194.27-Aug-2021 4914.00 7803.59 85.26 11.00 412.55 3261.31
   11:55:48.394.27-Aug-2021 4914.00 7807.14 85.26 11.00 412.75 3261.31
   11:55:48.594.27-Aug-2021 4914.00 7806.06 85.26 11.00 412.95 3261.31
   11:55:48.794.27-Aug-2021 4914.00 7805.86 85.26 11.00 413.15 3261.31
   11:55:48.995.27-Aug-2021 4914.00 7805.86 85.26 11.00 413.35 3261.31
   11:55:49.195.27-Aug-2021 4914.00 7805.03 85.26 11.00 413.55 3261.31
   11:55:49.395.27-Aug-2021 4914.00 7810.45 85.26 11.00 413.75 3261.31
   11:55:49.595.27-Aug-2021 4914.00 7802.36 85.26 11.00 413.95 3261.31
   11:55:49.795.27-Aug-2021 4914.00 7806.60 85.26 11.00 414.15 3261.31
   11:55:49.995.27-Aug-2021 4914.00 7806.60 85.26 11.00 414.35 3261.31
   11:55:50.195.27-Aug-2021 4914.00 7805.59 85.26 11.00 414.55 3261.31
   11:55:50.395.27-Aug-2021 4914.00 7805.53 85.26 11.00 414.75 3261.31
   11:55:50.595.27-Aug-2021 4914.00 7804.96 85.26 11.00 414.95 3261.31
   11:55:50.795.27-Aug-2021 4914.00 7805.41 85.26 11.00 415.15 3261.31
   11:55:50.995.27-Aug-2021 4914.00 7805.41 85.26 11.00 415.35 3261.31
   11:55:51.195.27-Aug-2021 4914.00 7805.32 85.26 11.00 415.55 3261.31
   11:55:51.395.27-Aug-2021 4914.00 7805.84 85.26 11.00 415.75 3261.31
   11:55:51.595.27-Aug-2021 4914.00 7806.01 85.26 11.00 415.95 3261.31
   11:55:51.796.27-Aug-2021 4914.00 7806.06 85.26 11.00 416.15 3261.31
   11:55:51.996.27-Aug-2021 4914.00 7806.06 85.26 11.00 416.35 3261.31
   11:55:52.196.27-Aug-2021 4914.00 7805.82 85.26 11.00 416.55 3261.31
   11:55:52.396.27-Aug-2021 4914.00 7805.52 85.26 11.00 416.75 3261.31
   11:55:52.596.27-Aug-2021 4914.00 7807.47 85.26 11.00 416.95 3261.31
   11:55:52.796.27-Aug-2021 4914.00 7806.48 85.26 11.00 417.15 3261.31
   11:55:52.996.27-Aug-2021 4914.00 7806.48 85.26 11.00 417.35 3261.31
   11:55:53.196.27-Aug-2021 4914.00 7805.24 85.26 11.00 417.55 3261.31
   11:55:53.396.27-Aug-2021 4914.00 7804.79 85.26 11.00 417.75 3261.31
   11:55:53.596.27-Aug-2021 4914.00 7804.77 85.26 11.00 417.95 3261.31
   11:55:53.796.27-Aug-2021 4914.00 7804.72 85.26 11.00 418.15 3261.31
   11:55:53.996.27-Aug-2021 4914.00 7804.72 85.26 11.00 418.35 3261.31
   11:55:54.196.27-Aug-2021 4914.00 7804.47 85.26 11.00 418.55 3261.31
   11:55:54.396.27-Aug-2021 4914.00 7805.28 85.26 11.00 418.75 3261.31
   11:55:54.597.27-Aug-2021 4914.00 7805.62 85.26 11.00 418.95 3261.31
   11:55:54.797.27-Aug-2021 4914.00 7805.81 85.26 11.00 419.15 3261.31
   11:55:54.997.27-Aug-2021 4914.00 7805.81 85.26 11.00 419.35 3261.31
   11:55:55.197.27-Aug-2021 4914.00 7805.88 85.26 11.00 419.55 3261.31
   11:55:55.397.27-Aug-2021 4914.00 7805.81 85.26 11.00 419.75 3261.31
   11:55:55.597.27-Aug-2021 4914.00 7805.45 85.26 11.00 419.95 3261.31
   11:55:55.797.27-Aug-2021 4914.00 7805.33 85.26 11.00 420.15 3261.31
   11:55:55.997.27-Aug-2021 4914.00 7805.33 85.26 11.00 420.35 3261.31
   11:55:56.197.27-Aug-2021 4914.00 7806.43 85.26 11.00 420.55 3261.31
   11:55:56.397.27-Aug-2021 4914.00 7806.30 85.26 11.00 420.75 3261.31
   11:55:56.597.27-Aug-2021 4914.00 7805.28 85.26 11.00 420.95 3261.31
   11:55:56.797.27-Aug-2021 4914.00 7804.90 85.26 11.00 421.15 3261.31
   11:55:56.997.27-Aug-2021 4914.00 7804.90 85.26 11.00 421.35 3261.31
   11:55:57.197.27-Aug-2021 4914.00 7806.20 85.26 11.00 421.55 3261.31
   11:55:57.398.27-Aug-2021 4914.00 7806.54 85.26 11.00 421.75 3261.31
   11:55:57.598.27-Aug-2021 4914.00 7804.99 85.26 11.00 421.95 3261.31
   11:55:57.798.27-Aug-2021 4914.00 7804.91 85.26 11.00 422.15 3261.31
   11:55:57.998.27-Aug-2021 4914.00 7804.91 85.26 11.00 422.35 3261.31
   11:55:58.198.27-Aug-2021 4914.00 7805.58 85.26 11.00 422.55 3261.31
   11:55:58.398.27-Aug-2021 4914.00 7806.03 85.26 11.00 422.75 3261.31
   11:55:58.598.27-Aug-2021 4914.00 7808.28 85.26 11.00 422.95 3261.31
   11:55:58.798.27-Aug-2021 4914.00 7805.87 85.26 11.00 423.15 3261.31
   11:55:58.998.27-Aug-2021 4914.00 7805.87 85.26 11.00 423.35 3261.31
   11:55:59.198.27-Aug-2021 4914.00 7805.61 85.26 11.00 423.55 3261.31
   11:55:59.398.27-Aug-2021 4914.00 7805.70 85.26 11.00 423.75 3261.31
   11:55:59.598.27-Aug-2021 4914.00 7805.31 85.26 11.00 423.95 3261.31
   11:55:59.798.27-Aug-2021 4914.00 7805.15 85.26 11.00 424.15 3261.31
   11:55:59.998.27-Aug-2021 4914.00 7805.15 85.26 11.00 424.35 3261.31
   11:56:00.199.27-Aug-2021 4914.00 7802.62 85.26 11.00 424.55 3261.31
   11:56:00.399.27-Aug-2021 4914.00 7806.49 85.25 11.00 424.75 3261.31
   11:56:00.599.27-Aug-2021 4914.00 7805.54 85.26 11.00 424.95 3261.31
   11:56:00.799.27-Aug-2021 4914.00 7805.52 85.25 11.00 425.15 3261.31
   11:56:00.999.27-Aug-2021 4914.00 7805.52 85.25 11.00 425.35 3261.31
   11:56:01.199.27-Aug-2021 4914.00 7804.24 85.25 11.00 425.55 3261.31
   11:56:01.399.27-Aug-2021 4914.00 7804.08 85.25 11.00 425.75 3261.31
   11:56:01.599.27-Aug-2021 4914.00 7804.16 85.26 11.00 425.95 3261.31
   11:56:01.799.27-Aug-2021 4914.00 7804.34 85.25 11.00 426.15 3261.31
   11:56:01.999.27-Aug-2021 4914.00 7804.34 85.25 11.00 426.35 3261.31
   11:56:02.199.27-Aug-2021 4914.00 7804.85 85.25 11.00 426.55 3261.31
   11:56:02.399.27-Aug-2021 4914.00 7804.78 85.25 11.00 426.75 3261.31
   11:56:02.599.27-Aug-2021 4914.00 7804.67 85.25 11.00 426.95 3261.31
   11:56:02.799.27-Aug-2021 4914.00 7804.51 85.25 11.00 427.15 3261.31
   11:56:03.000.27-Aug-2021 4914.00 7804.51 85.25 11.00 427.35 3261.31
   11:56:03.200.27-Aug-2021 4914.00 7804.51 85.25 11.00 427.55 3261.31
   11:56:03.400.27-Aug-2021 4914.00 7801.85 85.25 11.00 427.75 3261.31
   11:56:03.600.27-Aug-2021 4914.00 7805.49 85.25 11.00 427.95 3261.31
