~Version Information
 VERS.                  2.0:   CWLS log ASCII Standard -VERSION 2.0
 WRAP.                   NO:   One line per depth step
~Well Information Block
#MNEM.UNIT     VALUE/NAME     DESCRIPTION
#---------     -----------    ---------------------------
 STRT.S             07:19:48 27-Aug-21: START TIME 07:19:48 27-Aug-21
 STOP.S             07:26:57 27-Aug-21: STOP TIME  07:26:57 27-Aug-21
 STEP.S                   0.00: STEP TIME
 NULL.                 -999.25: NULL VALUE
 DFWT.                        :  DIST FWL TEXT
 DFST.                        :  DIST FSL TEXT
 DMF .             Drill Floor:  DRILL MEAS FROM
 STIM.      20.00.00 17-Aug-21:  START TIME
 DATE.      19.00.00 29-Aug-21:  END TIME
 SPUD.               15-Aug-21:  SPUD DATE
 NREF.                    Grid:  NORTH REFERENCE
 HPTY.       Minimum Curvature:  HOLE POS TYPE
 DMOD.             Drill Model:  DRILL MOD DESC
 SVYD.                  Survey:  SURVEY DESC
 ILTD.               Lithology:  INTERP LTH DESC
 FTOP.          Formation Tops:  FORM TOPS DESC
 RIG .              East Azeri:  RIG NAME
 PDAT.          Mean Sea Level:  PERMANENT DATUM
 FLD .                     ACG:  FIELD NAME
 SON .        AZ-XX-0907180857:  JOB NUMBER
 CTRY.              Azerbaijan:  COUNTRY NAME
 WELL.                    D23x:  WELL NAME
 SRVC.     Turan Drilling and Engineering:  CONTRACTOR
 COMP.     BP Exploration (Caspian Sea) Ltd.:  COMPANY
 UWI .            /AZE00000214:  UNIQUE WELL IDENTIFIER
 API .            /AZE00000214:  API NUMBER
 MDS .        Operator Entered:  MAG DATA SOURCE
 BASE.              Azerbaijan:  LOGGING EQUIPMENT BASE LOCATION
 REGN.                   EESSA:  REGION
 PROV.                    Baku:  PROVINCE
 STAT.                    Baku:  STATE NAME
 MWDS.                    Baku:  MWD SHOP
 DOE .                     N/A:  DOE NUMBER
 DCON.         Sperry Drilling:  DIRECTNL CONTR
 UNIT.                     N/A:  LOGGING EQUIPMENT ID
 WTYP.                Deviated:  WELL TYPE
 CNTY.                        :  COUNTY
 LOC .                        :  LOCATION
 LMF .             Drill Floor:  LOG MEASURED FROM
 TVDS.m                  43.60:  TVDSS CORRECTN
 LATI.deg                40.02:  LATITUDE
 LONG.deg                51.45:  LONGITUDE
 WHNS.m                  -7.04:  WELL HEAD N/S
 WHEW.m                  -0.67:  WELL HEAD E/W
 UTMX.m              538762.90:  UTM X
 UTMY.m             4431871.34:  UTM Y
 DFWL.m                   0.00:  DISTANCE FWL
 DFSL.m                   0.00:  DISTANCE FSL
 SDEP.m                4127.00:  START DEPTH
 TDD .m                5084.50:  TOTAL DEPTH (DRILLER)
 VSDR.deg               140.47:  VERT SEC DIRECT
 GVFD.g                   1.00:  GRAVITY FIELD
 MFLD.nT              50362.00:  MAGNETIC FIELD
 MDIP.deg                59.48:  MAGNETIC DIP
 MDEC.deg                 6.47:  MAGNETIC DECL
 GRDC.deg                 0.31:  GRID CORRECTION
 AZTC.deg                 6.16:  AZM TOTAL CORR
 EPD .m                   0.00:  ELEVATION
 EGL .m                   0.00:  GROUND ELEVATION
 WDMS.m                 151.80:  WD ELEV
 APD .m                  43.60:  DEPTH ABOVE PD
 DEP .m                4092.57:  DEPTH
 AGAP.m                  43.60:  AIR GAP
 VSEW.m                  -0.67:  VERT SEC E/W
 VSNS.m                  -7.04:  VERT SEC N/S
 EKB .m                  43.60:  KB ELEVATION
 EDF .m                  43.60:  DF ELEVATION
 TDL .m                 957.50:  TOTAL DEPTH (LOGGER)
 VSC .                       0:  VS TO CLOSURE
 MAGU.                 1851413:  MAGUTM CHECKSUM
~Parameter Information Block
#MNEM.UNIT       Value        Description
#---------     -----------    ---------------------------
 AV  .mps                 1.50:  Ann Velocity 
 AVMX.mps                 2.00:  Max Ann Veloc 
 AZIF.deg               184.66:  Azm, Final 
 BHAT.        Rotary Steerable:  BHA Type 
 BREV.rev               300.00:  Rev Bit Total 
 BROT.°/30m              -0.50:  Build Rotating 
 BS  .in                  8.50:  Bit Size 
 BSZ .in                  8.50:  Bit Size 
 BTPL.psig              370.00:  Bit Press Loss 
 CABU.                      No:  Customer Abuse 
 CGEO.      Behruz Shahbaliyev:  Customer Geo 
 COMM.                     Ô‘[:  Run Comments 1 
 TCS .hr                140.08:  Time Ciculation Ended 
 CV  .mps                 3.00:  Crit Velocity 
 CVMX.mps                 3.20:  Max Crit Veloc 
 DD1 .            Musa Ahmadov:  Direct Drillr 1 
 DD2 .           Hamid Ahmadov:  Direct Drillr 2 
 DDSV.               Geo-Pilot:  DD Service 
 DEFF.%                  98.40:  % Det Eff 
 DLRX.°/30m               3.40:  Dogleg Rot Max 
 DLSO.°/30m               1.45:  Dogleg Oriented 
 DLSX.°/30m               3.40:  Dogleg Str Max 
 DRET.      18.40.00 29-Aug-21:  Drill End Time 
 DRST.      21.00.00 20-Aug-21:  Drill Start Tim 
 DTIM.hr                 69.47:  Time Drilling 
 EDEP.m                5084.50:  End Depth 
 ENG1.      Artemiy Matviyanov:  Engineer 1 
 ENG2.         Almaz Almadatov:  Engineer 2 
 ETIM.      18.40.00 29-Aug-21:  End Time 
 FLOI.gpm               500.00:  Flow In 
 FLON.gpm               400.00:  Flow In Min 
 FLOS.cptm                0.00:  Fluid Loss 
 FLOX.gpm               500.00:  Flow In Max 
 DFT .        Mineral Oil Base:  Mud Type 
 HFLO.                      No:  High Flow 
 HPRE.                      No:  High Pressure 
 HTEM.                      No:  High Temp 
 HYDO.m                   1.80:  Hydro Offset 
 IFIN.deg                25.62:  Inc, Final 
 IMAX.deg                48.69:  Inc Max 
 IMIN.deg                24.01:  Inc Min 
 IMND.m                4962.57:  Inc Min Depth 
 IMXD.m                4119.01:  Inc Max Depth 
 JARR.                      No:  Jarring 
 LETM.      18.40.00 29-Aug-21:  Log End Time 
 LOST.hr                     0:  Lost Rig Time 
 LSTM.      21.00.00 20-Aug-21:  Log Start Time 
 MDCL.ppm             41500.00:  Mud Chlorides 
 MDES.     Inversion Oil/Synthetic:  Mud Desc 
 DFD .sg                  1.56:  Mud Density 
 MDMN.sg                  1.56:  Dens Mud Min 
 MDMX.sg                  1.56:  Dens Mud Max 
 MOIL.                      70:  Run Mud Oil % 
 MOWR.                   70:30:  Run Mud OWR 
 MSND.                     0.2:  Run Mud Sand % 
 MSOL.                    23.3:  Run Mud Solids% 
 DFV .spqt               78.00:  Mud Viscosity 
 MWOD.in                  6.75:  MWD Tool OD 
 MWSI.                      No:  Serv Intrp, MWD 
 OTIM.hr                218.30:  Time Operating 
 PCON.           Look Like New:  Pad Condition 
 PMAX.psia            11015.30:  Press Op, Max 
 PV  .cP                 38.00:  Mud PV 
 RUN .                     300:  Run Number 
 ROPA.m/hr               15.00:  ROP Avg 
 ROPN.m/hr                9.00:  ROP Min 
 ROPX.m/hr               17.00:  ROP Max 
 RPMA.rpm               120.00:  RPM Surface Avg 
 RPMN.rpm                90.00:  RPM Surface Min 
 RPMX.rpm               140.00:  RPM Surface Max 
 RRUN.                     300:  Rig Run Number 
 RTIM.hr                 31.53:  Time Reaming 
 SAZI.deg               331.64:  Azm, Start 
 SDEP.m                4127.00:  Start Depth 
 SIDD.                      No:  Serv Intrp, DD 
 SINC.deg                48.43:  Inc, Start 
 SPPA.psig             5830.00:  SPP Avg 
 SPPN.psig             5600.00:  SPP Min 
 SPPX.psig             5900.00:  SPP Max 
 STIM.      21.00.00 20-Aug-21:  Start Time 
 SVCS.                 DD, MWD:  Services 
 SVER.                    9.20:  Sperry Version 
 TDAT.m                 957.50:  Tot Depth Attmp 
 TDDF.                      No:  Trip for DD 
 TDLG.m                 957.50:  Tot Depth Loggd 
 TFF .                      No:  Trip for Fail 
 TQAA.f-kp               15.00:  Torque Abs Avg 
 TQAN.f-kp               12.00:  Torque Abs Min 
 TQAX.f-kp               19.00:  Torque Abs Max 
 TRRT.°/30m              -3.40:  Turn Rotating 
 MRT .                  EWR-M5:  Maximum Recorded Temperature 
 TTMX.degC              100.00:  Max Tool Temp 
 VS01.                90639251:  Virtual Str1 SN 
 VS02.                90634715:  Virtual Str2 SN 
 VS03.                90652479:  Virtual Str3 SN 
 VS04.                90642262:  Virtual Str4 SN 
 WBMN.klb                 0.00:  WOB Min 
 WITN.           Murad Guliyev:  Customer Rep 
 WITN.          Yashar Gaziyev:  Customer Rep 2 
 WOBA.klb                 9.00:  WOB Avg 
 WOBX.klb                12.00:  WOB Max 
 YP  .lhf2               30.00:  Yield Point 
~Curve Information Block
#MNEM.UNIT                 API CODE     Curve Description
#---------               -----------    ---------------------------
 TIME.HHMMSS            00 000 000 000:  GT Time & Date
 GTDEPTH.m              00 000 000 000:  GT Depth
 GTPQH.psia             00 000 000 000:  GT HR Quartz Pressure
 GTTQ.degC              00 000 000 000:  GT Quartz Temperature
 GTTN.NONE              00 000 000 000:  GT Test Number
 GTET.sec               00 000 000 000:  GT Elapsed Test Time
 GTTVD.m                00 000 000 000:  GT True Vertical Depth
#Other Information
#
#WARRANTY: Halliburton will use its best efforts to furnish customers with 
#accurate information and interpretations that are part of, and incident to, the services 
#provided.  However, Halliburton cannot and does not warrant the accuracy 
#or correctness of such information and interpretations.  Under no circumstances should any 
#such information or interpretation be relied upon as the sole basis for any drilling, 
#completion, production, or financial decision or any procedure involving any risk to the 
#safety of any drilling venture, drilling rig or its crew or any other third party.  The 
#Customer has full responsibility for all drilling, completion and production operation.  
#Halliburton makes no representations or warranties, either expressed or 
#implied, including, but not limited to, the implied warranties of merchantability or fitness 
#for a particular purpose, with respect to the services rendered.  In no event will 
#Halliburton be liable for failure to obtain any particular results or for 
#any damages, including, but not limited to, indirect, special or consequential damages, 
#resulting from the use of any information or interpretation provided by Halliburton.
#
~A           TIME           GTDEPTH  GTPQH  GTTQ  GTTN  GTET   GTTVD  
# ...
   07:20:34.271.27-Aug-2021 5010.50 8138.25 87.74 3.00  46.01 3349.10
   07:20:34.471.27-Aug-2021 5010.50 8138.25 87.74 3.00  46.21 3349.10
   07:20:34.671.27-Aug-2021 5010.50 8139.79 87.74 3.00  46.41 3349.10
   07:20:34.871.27-Aug-2021 5010.50 8140.08 87.74 3.00  46.61 3349.10
   07:20:35.071.27-Aug-2021 5010.50 8136.60 87.74 3.00  46.81 3349.10
   07:20:35.271.27-Aug-2021 5010.50 8132.57 87.74 3.00  47.01 3349.10
   07:20:35.471.27-Aug-2021 5010.50 8132.57 87.74 3.00  47.21 3349.10
   07:20:35.671.27-Aug-2021 5010.50 8135.35 87.74 3.00  47.41 3349.10
   07:20:35.871.27-Aug-2021 5010.50 8130.78 87.74 3.00  47.61 3349.10
   07:20:36.071.27-Aug-2021 5010.50 8126.76 87.74 3.00  47.81 3349.10
   07:20:36.272.27-Aug-2021 5010.50 8125.87 87.74 3.00  48.01 3349.10
   07:20:36.472.27-Aug-2021 5010.50 8125.87 87.74 3.00  48.21 3349.10
   07:20:36.672.27-Aug-2021 5010.50 8125.36 87.74 3.00  48.41 3349.10
   07:20:36.872.27-Aug-2021 5010.50 8126.91 87.74 3.00  48.61 3349.10
   07:20:37.072.27-Aug-2021 5010.50 8129.93 87.74 3.00  48.81 3349.10
   07:20:37.272.27-Aug-2021 5010.50 8130.13 87.74 3.00  49.01 3349.10
   07:20:37.472.27-Aug-2021 5010.50 8130.13 87.74 3.00  49.21 3349.10
   07:20:37.672.27-Aug-2021 5010.50 8129.42 87.74 3.00  49.41 3349.10
   07:20:37.872.27-Aug-2021 5010.50 8130.19 87.74 3.00  49.61 3349.10
   07:20:38.072.27-Aug-2021 5010.50 8134.04 87.74 3.00  49.81 3349.10
   07:20:38.272.27-Aug-2021 5010.50 8134.04 87.74 3.00  50.01 3349.10
   07:20:38.472.27-Aug-2021 5010.50 8134.04 87.74 3.00  50.21 3349.10
   07:20:38.672.27-Aug-2021 5010.50 8133.71 87.74 3.00  50.41 3349.10
   07:20:38.872.27-Aug-2021 5010.50 8134.49 87.74 3.00  50.61 3349.10
   07:20:39.072.27-Aug-2021 5010.50 8134.83 87.74 3.00  50.81 3349.10
   07:20:39.272.27-Aug-2021 5010.50 8138.63 87.73 3.00  51.01 3349.10
   07:20:39.472.27-Aug-2021 5010.50 8138.63 87.73 3.00  51.21 3349.10
   07:20:39.672.27-Aug-2021 5010.50 8137.16 87.73 3.00  51.41 3349.10
   07:20:39.872.27-Aug-2021 5010.50 8136.91 87.73 3.00  51.61 3349.10
   07:20:40.072.27-Aug-2021 5010.50 8136.87 87.73 3.00  51.81 3349.10
   07:20:40.272.27-Aug-2021 5010.50 7996.59 87.73 3.00  52.01 3349.10
   07:20:40.472.27-Aug-2021 5010.50 7996.59 87.73 3.00  52.21 3349.10
   07:20:40.672.27-Aug-2021 5010.50 6714.63 87.73 3.00  52.41 3349.10
   07:20:40.872.27-Aug-2021 5010.50 5691.82 87.73 3.00  52.61 3349.10
   07:20:41.072.27-Aug-2021 5010.50 4725.90 87.73 3.00  52.81 3349.10
   07:20:41.272.27-Aug-2021 5010.50 4151.52 87.73 3.00  53.01 3349.10
   07:20:41.472.27-Aug-2021 5010.50 4151.52 87.73 3.00  53.21 3349.10
   07:20:41.672.27-Aug-2021 5010.50 4269.81 87.73 3.00  53.41 3349.10
   07:20:41.872.27-Aug-2021 5010.50 4274.35 87.73 3.00  53.61 3349.10
   07:20:42.072.27-Aug-2021 5010.50 4275.21 87.72 3.00  53.81 3349.10
   07:20:42.272.27-Aug-2021 5010.50 4278.30 87.72 3.00  54.01 3349.10
   07:20:42.473.27-Aug-2021 5010.50 4278.30 87.72 3.00  54.21 3349.10
   07:20:42.673.27-Aug-2021 5010.50 4276.92 87.72 3.00  54.41 3349.10
   07:20:42.873.27-Aug-2021 5010.50 4276.44 87.71 3.00  54.61 3349.10
   07:20:43.073.27-Aug-2021 5010.50 4276.42 87.71 3.00  54.81 3349.10
   07:20:43.273.27-Aug-2021 5010.50 4276.40 87.71 3.00  55.01 3349.10
   07:20:43.473.27-Aug-2021 5010.50 4276.40 87.71 3.00  55.21 3349.10
   07:20:43.673.27-Aug-2021 5010.50 4276.03 87.70 3.00  55.41 3349.10
   07:20:43.873.27-Aug-2021 5010.50 4281.50 87.70 3.00  55.61 3349.10
   07:20:44.073.27-Aug-2021 5010.50 4276.97 87.70 3.00  55.81 3349.10
   07:20:44.273.27-Aug-2021 5010.50 4276.68 87.69 3.00  56.01 3349.10
   07:20:44.473.27-Aug-2021 5010.50 4276.68 87.69 3.00  56.21 3349.10
   07:20:44.673.27-Aug-2021 5010.50 4277.21 87.69 3.00  56.41 3349.10
   07:20:44.873.27-Aug-2021 5010.50 4277.73 87.68 3.00  56.61 3349.10
   07:20:45.073.27-Aug-2021 5010.50 4278.29 87.68 3.00  56.81 3349.10
   07:20:45.273.27-Aug-2021 5010.50 4277.46 87.68 3.00  57.01 3349.10
   07:20:45.473.27-Aug-2021 5010.50 4277.46 87.68 3.00  57.21 3349.10
   07:20:45.673.27-Aug-2021 5010.50 4276.79 87.67 3.00  57.41 3349.10
   07:20:45.873.27-Aug-2021 5010.50 4277.02 87.67 3.00  57.61 3349.10
   07:20:46.073.27-Aug-2021 5010.50 4276.71 87.67 3.00  57.81 3349.10
   07:20:46.273.27-Aug-2021 5010.50 4277.06 87.66 3.00  58.01 3349.10
   07:20:46.473.27-Aug-2021 5010.50 4277.06 87.66 3.00  58.21 3349.10
   07:20:46.673.27-Aug-2021 5010.50 4277.79 87.66 3.00  58.41 3349.10
   07:20:46.873.27-Aug-2021 5010.50 4277.92 87.66 3.00  58.61 3349.10
   07:20:47.073.27-Aug-2021 5010.50 4277.96 87.65 3.00  58.81 3349.10
   07:20:47.273.27-Aug-2021 5010.50 4277.47 87.65 3.00  59.01 3349.10
   07:20:47.473.27-Aug-2021 5010.50 4277.47 87.65 3.00  59.21 3349.10
   07:20:47.673.27-Aug-2021 5010.50 4278.23 87.65 3.00  59.41 3349.10
   07:20:47.873.27-Aug-2021 5010.50 4278.51 87.65 3.00  59.61 3349.10
   07:20:48.073.27-Aug-2021 5010.50 4278.60 87.64 3.00  59.81 3349.10
   07:20:48.273.27-Aug-2021 5010.50 4278.86 87.64 3.00  60.01 3349.10
   07:20:48.474.27-Aug-2021 5010.50 4278.86 87.64 3.00  60.21 3349.10
   07:20:48.674.27-Aug-2021 5010.50 4278.55 87.64 3.00  60.41 3349.10
   07:20:48.874.27-Aug-2021 5010.50 4279.14 87.64 3.00  60.61 3349.10
   07:20:49.074.27-Aug-2021 5010.50 4279.24 87.64 3.00  60.81 3349.10
   07:20:49.274.27-Aug-2021 5010.50 4278.68 87.63 3.00  61.01 3349.10
   07:20:49.474.27-Aug-2021 5010.50 4278.68 87.63 3.00  61.21 3349.10
   07:20:49.674.27-Aug-2021 5010.50 4279.34 87.63 3.00  61.41 3349.10
   07:20:49.874.27-Aug-2021 5010.50 4279.44 87.63 3.00  61.61 3349.10
   07:20:50.074.27-Aug-2021 5010.50 4279.95 87.63 3.00  61.81 3349.10
   07:20:50.274.27-Aug-2021 5010.50 4281.88 87.63 3.00  62.01 3349.10
   07:20:50.474.27-Aug-2021 5010.50 4281.88 87.63 3.00  62.21 3349.10
   07:20:50.674.27-Aug-2021 5010.50 4282.93 87.63 3.00  62.41 3349.10
   07:20:50.874.27-Aug-2021 5010.50 4283.39 87.62 3.00  62.61 3349.10
   07:20:51.074.27-Aug-2021 5010.50 4283.85 87.62 3.00  62.81 3349.10
   07:20:51.274.27-Aug-2021 5010.50 4284.25 87.62 3.00  63.01 3349.10
   07:20:51.474.27-Aug-2021 5010.50 4284.25 87.62 3.00  63.21 3349.10
   07:20:51.674.27-Aug-2021 5010.50 4284.66 87.62 3.00  63.41 3349.10
   07:20:51.874.27-Aug-2021 5010.50 4284.72 87.62 3.00  63.61 3349.10
   07:20:52.074.27-Aug-2021 5010.50 4284.75 87.62 3.00  63.81 3349.10
   07:20:52.274.27-Aug-2021 5010.50 4284.55 87.62 3.00  64.01 3349.10
   07:20:52.474.27-Aug-2021 5010.50 4284.55 87.62 3.00  64.21 3349.10
   07:20:52.674.27-Aug-2021 5010.50 4284.70 87.62 3.00  64.41 3349.10
   07:20:52.874.27-Aug-2021 5010.50 4284.78 87.62 3.00  64.61 3349.10
   07:20:53.074.27-Aug-2021 5010.50 4284.81 87.62 3.00  64.81 3349.10
   07:20:53.274.27-Aug-2021 5010.50 4284.84 87.62 3.00  65.01 3349.10
   07:20:53.474.27-Aug-2021 5010.50 4284.84 87.62 3.00  65.21 3349.10
   07:20:53.674.27-Aug-2021 5010.50 4284.81 87.62 3.00  65.41 3349.10
   07:20:53.874.27-Aug-2021 5010.50 4284.81 87.61 3.00  65.61 3349.10
   07:20:54.074.27-Aug-2021 5010.50 4284.81 87.61 3.00  65.81 3349.10
   07:20:54.274.27-Aug-2021 5010.50 4284.86 87.61 3.00  66.01 3349.10
   07:20:54.475.27-Aug-2021 5010.50 4284.86 87.61 3.00  66.21 3349.10
   07:20:54.675.27-Aug-2021 5010.50 4284.83 87.61 3.00  66.41 3349.10
   07:20:54.875.27-Aug-2021 5010.50 4284.82 87.61 3.00  66.61 3349.10
   07:20:55.075.27-Aug-2021 5010.50 4284.84 87.61 3.00  66.81 3349.10
   07:20:55.275.27-Aug-2021 5010.50 4284.85 87.61 3.00  67.01 3349.10
   07:20:55.475.27-Aug-2021 5010.50 4284.85 87.61 3.00  67.21 3349.10
   07:20:55.675.27-Aug-2021 5010.50 4284.39 87.61 3.00  67.41 3349.10
   07:20:55.875.27-Aug-2021 5010.50 4284.55 87.61 3.00  67.61 3349.10
   07:20:56.075.27-Aug-2021 5010.50 4284.77 87.61 3.00  67.81 3349.10
   07:20:56.275.27-Aug-2021 5010.50 4284.85 87.61 3.00  68.01 3349.10
   07:20:56.475.27-Aug-2021 5010.50 4284.85 87.61 3.00  68.21 3349.10
   07:20:56.675.27-Aug-2021 5010.50 4284.84 87.61 3.00  68.41 3349.10
   07:20:56.875.27-Aug-2021 5010.50 4284.63 87.61 3.00  68.61 3349.10
   07:20:57.075.27-Aug-2021 5010.50 4284.39 87.61 3.00  68.81 3349.10
