~Version Information
 VERS.                  2.0:   CWLS log ASCII Standard -VERSION 2.0
 WRAP.                   NO:   One line per depth step
~Well Information Block
#MNEM.UNIT     VALUE/NAME     DESCRIPTION
#---------     -----------    ---------------------------
 STRT.S             15:52:10 27-Aug-21: START TIME 15:52:10 27-Aug-21
 STOP.S             15:59:26 27-Aug-21: STOP TIME  15:59:26 27-Aug-21
 STEP.S                   0.00: STEP TIME
 NULL.                 -999.25: NULL VALUE
 DFWT.                        :  DIST FWL TEXT
 DFST.                        :  DIST FSL TEXT
 DMF .             Drill Floor:  DRILL MEAS FROM
 STIM.      20.00.00 17-Aug-21:  START TIME
 DATE.      19.00.00 29-Aug-21:  END TIME
 SPUD.               15-Aug-21:  SPUD DATE
 NREF.                    Grid:  NORTH REFERENCE
 HPTY.       Minimum Curvature:  HOLE POS TYPE
 DMOD.             Drill Model:  DRILL MOD DESC
 SVYD.                  Survey:  SURVEY DESC
 ILTD.               Lithology:  INTERP LTH DESC
 FTOP.          Formation Tops:  FORM TOPS DESC
 RIG .              East Azeri:  RIG NAME
 PDAT.          Mean Sea Level:  PERMANENT DATUM
 FLD .                     ACG:  FIELD NAME
 SON .        AZ-XX-0907180857:  JOB NUMBER
 CTRY.              Azerbaijan:  COUNTRY NAME
 WELL.                    D23x:  WELL NAME
 SRVC.     Turan Drilling and Engineering:  CONTRACTOR
 COMP.     BP Exploration (Caspian Sea) Ltd.:  COMPANY
 UWI .            /AZE00000214:  UNIQUE WELL IDENTIFIER
 API .            /AZE00000214:  API NUMBER
 MDS .        Operator Entered:  MAG DATA SOURCE
 BASE.              Azerbaijan:  LOGGING EQUIPMENT BASE LOCATION
 REGN.                   EESSA:  REGION
 PROV.                    Baku:  PROVINCE
 STAT.                    Baku:  STATE NAME
 MWDS.                    Baku:  MWD SHOP
 DOE .                     N/A:  DOE NUMBER
 DCON.         Sperry Drilling:  DIRECTNL CONTR
 UNIT.                     N/A:  LOGGING EQUIPMENT ID
 WTYP.                Deviated:  WELL TYPE
 CNTY.                        :  COUNTY
 LOC .                        :  LOCATION
 LMF .             Drill Floor:  LOG MEASURED FROM
 TVDS.m                  43.60:  TVDSS CORRECTN
 LATI.deg                40.02:  LATITUDE
 LONG.deg                51.45:  LONGITUDE
 WHNS.m                  -7.04:  WELL HEAD N/S
 WHEW.m                  -0.67:  WELL HEAD E/W
 UTMX.m              538762.90:  UTM X
 UTMY.m             4431871.34:  UTM Y
 DFWL.m                   0.00:  DISTANCE FWL
 DFSL.m                   0.00:  DISTANCE FSL
 SDEP.m                4127.00:  START DEPTH
 TDD .m                5084.50:  TOTAL DEPTH (DRILLER)
 VSDR.deg               140.47:  VERT SEC DIRECT
 GVFD.g                   1.00:  GRAVITY FIELD
 MFLD.nT              50362.00:  MAGNETIC FIELD
 MDIP.deg                59.48:  MAGNETIC DIP
 MDEC.deg                 6.47:  MAGNETIC DECL
 GRDC.deg                 0.31:  GRID CORRECTION
 AZTC.deg                 6.16:  AZM TOTAL CORR
 EPD .m                   0.00:  ELEVATION
 EGL .m                   0.00:  GROUND ELEVATION
 WDMS.m                 151.80:  WD ELEV
 APD .m                  43.60:  DEPTH ABOVE PD
 DEP .m                4092.57:  DEPTH
 AGAP.m                  43.60:  AIR GAP
 VSEW.m                  -0.67:  VERT SEC E/W
 VSNS.m                  -7.04:  VERT SEC N/S
 EKB .m                  43.60:  KB ELEVATION
 EDF .m                  43.60:  DF ELEVATION
 TDL .m                 957.50:  TOTAL DEPTH (LOGGER)
 VSC .                       0:  VS TO CLOSURE
 MAGU.                 1851413:  MAGUTM CHECKSUM
~Parameter Information Block
#MNEM.UNIT       Value        Description
#---------     -----------    ---------------------------
 AV  .mps                 1.50:  Ann Velocity 
 AVMX.mps                 2.00:  Max Ann Veloc 
 AZIF.deg               184.66:  Azm, Final 
 BHAT.        Rotary Steerable:  BHA Type 
 BREV.rev               300.00:  Rev Bit Total 
 BROT.°/30m              -0.50:  Build Rotating 
 BS  .in                  8.50:  Bit Size 
 BSZ .in                  8.50:  Bit Size 
 BTPL.psig              370.00:  Bit Press Loss 
 CABU.                      No:  Customer Abuse 
 CGEO.      Behruz Shahbaliyev:  Customer Geo 
 COMM.                     Ìu:  Run Comments 1 
 TCS .hr                140.08:  Time Ciculation Ended 
 CV  .mps                 3.00:  Crit Velocity 
 CVMX.mps                 3.20:  Max Crit Veloc 
 DD1 .            Musa Ahmadov:  Direct Drillr 1 
 DD2 .           Hamid Ahmadov:  Direct Drillr 2 
 DDSV.               Geo-Pilot:  DD Service 
 DEFF.%                  98.40:  % Det Eff 
 DLRX.°/30m               3.40:  Dogleg Rot Max 
 DLSO.°/30m               1.45:  Dogleg Oriented 
 DLSX.°/30m               3.40:  Dogleg Str Max 
 DRET.      18.40.00 29-Aug-21:  Drill End Time 
 DRST.      21.00.00 20-Aug-21:  Drill Start Tim 
 DTIM.hr                 69.47:  Time Drilling 
 EDEP.m                5084.50:  End Depth 
 ENG1.      Artemiy Matviyanov:  Engineer 1 
 ENG2.         Almaz Almadatov:  Engineer 2 
 ETIM.      18.40.00 29-Aug-21:  End Time 
 FLOI.gpm               500.00:  Flow In 
 FLON.gpm               400.00:  Flow In Min 
 FLOS.cptm                0.00:  Fluid Loss 
 FLOX.gpm               500.00:  Flow In Max 
 DFT .        Mineral Oil Base:  Mud Type 
 HFLO.                      No:  High Flow 
 HPRE.                      No:  High Pressure 
 HTEM.                      No:  High Temp 
 HYDO.m                   1.80:  Hydro Offset 
 IFIN.deg                25.62:  Inc, Final 
 IMAX.deg                48.69:  Inc Max 
 IMIN.deg                24.01:  Inc Min 
 IMND.m                4962.57:  Inc Min Depth 
 IMXD.m                4119.01:  Inc Max Depth 
 JARR.                      No:  Jarring 
 LETM.      18.40.00 29-Aug-21:  Log End Time 
 LOST.hr                     0:  Lost Rig Time 
 LSTM.      21.00.00 20-Aug-21:  Log Start Time 
 MDCL.ppm             41500.00:  Mud Chlorides 
 MDES.     Inversion Oil/Synthetic:  Mud Desc 
 DFD .sg                  1.56:  Mud Density 
 MDMN.sg                  1.56:  Dens Mud Min 
 MDMX.sg                  1.56:  Dens Mud Max 
 MOIL.                      70:  Run Mud Oil % 
 MOWR.                   70:30:  Run Mud OWR 
 MSND.                     0.2:  Run Mud Sand % 
 MSOL.                    23.3:  Run Mud Solids% 
 DFV .spqt               78.00:  Mud Viscosity 
 MWOD.in                  6.75:  MWD Tool OD 
 MWSI.                      No:  Serv Intrp, MWD 
 OTIM.hr                218.30:  Time Operating 
 PCON.           Look Like New:  Pad Condition 
 PMAX.psia            11015.30:  Press Op, Max 
 PV  .cP                 38.00:  Mud PV 
 RUN .                     300:  Run Number 
 ROPA.m/hr               15.00:  ROP Avg 
 ROPN.m/hr                9.00:  ROP Min 
 ROPX.m/hr               17.00:  ROP Max 
 RPMA.rpm               120.00:  RPM Surface Avg 
 RPMN.rpm                90.00:  RPM Surface Min 
 RPMX.rpm               140.00:  RPM Surface Max 
 RRUN.                     300:  Rig Run Number 
 RTIM.hr                 31.53:  Time Reaming 
 SAZI.deg               331.64:  Azm, Start 
 SDEP.m                4127.00:  Start Depth 
 SIDD.                      No:  Serv Intrp, DD 
 SINC.deg                48.43:  Inc, Start 
 SPPA.psig             5830.00:  SPP Avg 
 SPPN.psig             5600.00:  SPP Min 
 SPPX.psig             5900.00:  SPP Max 
 STIM.      21.00.00 20-Aug-21:  Start Time 
 SVCS.                 DD, MWD:  Services 
 SVER.                    9.20:  Sperry Version 
 TDAT.m                 957.50:  Tot Depth Attmp 
 TDDF.                      No:  Trip for DD 
 TDLG.m                 957.50:  Tot Depth Loggd 
 TFF .                      No:  Trip for Fail 
 TQAA.f-kp               15.00:  Torque Abs Avg 
 TQAN.f-kp               12.00:  Torque Abs Min 
 TQAX.f-kp               19.00:  Torque Abs Max 
 TRRT.°/30m              -3.40:  Turn Rotating 
 MRT .                  EWR-M5:  Maximum Recorded Temperature 
 TTMX.degC              100.00:  Max Tool Temp 
 VS01.                90639251:  Virtual Str1 SN 
 VS02.                90634715:  Virtual Str2 SN 
 VS03.                90652479:  Virtual Str3 SN 
 VS04.                90642262:  Virtual Str4 SN 
 WBMN.klb                 0.00:  WOB Min 
 WITN.           Murad Guliyev:  Customer Rep 
 WITN.          Yashar Gaziyev:  Customer Rep 2 
 WOBA.klb                 9.00:  WOB Avg 
 WOBX.klb                12.00:  WOB Max 
 YP  .lhf2               30.00:  Yield Point 
~Curve Information Block
#MNEM.UNIT                 API CODE     Curve Description
#---------               -----------    ---------------------------
 TIME.HHMMSS            00 000 000 000:  GT Time & Date
 GTDEPTH.m              00 000 000 000:  GT Depth
 GTPQH.psia             00 000 000 000:  GT HR Quartz Pressure
 GTTQ.degC              00 000 000 000:  GT Quartz Temperature
 GTTN.NONE              00 000 000 000:  GT Test Number
 GTET.sec               00 000 000 000:  GT Elapsed Test Time
 GTTVD.m                00 000 000 000:  GT True Vertical Depth
#Other Information
#
#WARRANTY: Halliburton will use its best efforts to furnish customers with 
#accurate information and interpretations that are part of, and incident to, the services 
#provided.  However, Halliburton cannot and does not warrant the accuracy 
#or correctness of such information and interpretations.  Under no circumstances should any 
#such information or interpretation be relied upon as the sole basis for any drilling, 
#completion, production, or financial decision or any procedure involving any risk to the 
#safety of any drilling venture, drilling rig or its crew or any other third party.  The 
#Customer has full responsibility for all drilling, completion and production operation.  
#Halliburton makes no representations or warranties, either expressed or 
#implied, including, but not limited to, the implied warranties of merchantability or fitness 
#for a particular purpose, with respect to the services rendered.  In no event will 
#Halliburton be liable for failure to obtain any particular results or for 
#any damages, including, but not limited to, indirect, special or consequential damages, 
#resulting from the use of any information or interpretation provided by Halliburton.
#
~A           TIME           GTDEPTH  GTPQH  GTTQ  GTTN   GTET   GTTVD  
# ...
   15:58:58.219.27-Aug-2021 4817.00 7625.73 83.58 16.00 407.45 3173.43
   15:58:58.419.27-Aug-2021 4817.00 7625.95 83.58 16.00 407.65 3173.43
   15:58:58.619.27-Aug-2021 4817.00 7625.95 83.58 16.00 407.85 3173.43
   15:58:58.820.27-Aug-2021 4817.00 7625.51 83.58 16.00 408.05 3173.43
   15:58:59.020.27-Aug-2021 4817.00 7625.36 83.58 16.00 408.25 3173.43
   15:58:59.220.27-Aug-2021 4817.00 7625.32 83.58 16.00 408.45 3173.43
   15:58:59.421.27-Aug-2021 4817.00 7624.96 83.58 16.00 408.65 3173.43
   15:58:59.621.27-Aug-2021 4817.00 7624.96 83.58 16.00 408.85 3173.43
   15:58:59.821.27-Aug-2021 4817.00 7622.50 83.58 16.00 409.05 3173.43
   15:59:00.022.27-Aug-2021 4817.00 7624.95 83.58 16.00 409.25 3173.43
   15:59:00.222.27-Aug-2021 4817.00 7625.92 83.58 16.00 409.45 3173.43
   15:59:00.422.27-Aug-2021 4817.00 7624.77 83.58 16.00 409.65 3173.43
   15:59:00.622.27-Aug-2021 4817.00 7624.77 83.58 16.00 409.85 3173.43
   15:59:00.823.27-Aug-2021 4817.00 7629.82 83.58 16.00 410.05 3173.43
   15:59:01.023.27-Aug-2021 4817.00 7622.31 83.58 16.00 410.25 3173.43
   15:59:01.223.27-Aug-2021 4817.00 7625.37 83.58 16.00 410.45 3173.43
   15:59:01.424.27-Aug-2021 4817.00 7626.20 83.58 16.00 410.65 3173.43
   15:59:01.624.27-Aug-2021 4817.00 7626.20 83.58 16.00 410.85 3173.43
   15:59:01.824.27-Aug-2021 4817.00 7625.82 83.58 16.00 411.05 3173.43
   15:59:02.025.27-Aug-2021 4817.00 7627.18 83.57 16.00 411.25 3173.43
   15:59:02.225.27-Aug-2021 4817.00 7624.63 83.58 16.00 411.45 3173.43
   15:59:02.425.27-Aug-2021 4817.00 7626.26 83.57 16.00 411.65 3173.43
   15:59:02.626.27-Aug-2021 4817.00 7626.26 83.57 16.00 411.85 3173.43
   15:59:02.826.27-Aug-2021 4817.00 7624.43 83.57 16.00 412.05 3173.43
   15:59:03.026.27-Aug-2021 4817.00 7625.20 83.57 16.00 412.26 3173.43
   15:59:03.227.27-Aug-2021 4817.00 7627.86 83.57 16.00 412.46 3173.43
   15:59:03.427.27-Aug-2021 4817.00 7624.45 83.57 16.00 412.66 3173.43
   15:59:03.627.27-Aug-2021 4817.00 7624.45 83.57 16.00 412.86 3173.43
   15:59:03.828.27-Aug-2021 4817.00 7625.77 83.57 16.00 413.06 3173.43
   15:59:04.028.27-Aug-2021 4817.00 7624.87 83.57 16.00 413.26 3173.43
   15:59:04.228.27-Aug-2021 4817.00 7625.00 83.57 16.00 413.46 3173.43
   15:59:04.429.27-Aug-2021 4817.00 7624.20 83.57 16.00 413.66 3173.43
   15:59:04.629.27-Aug-2021 4817.00 7624.20 83.57 16.00 413.86 3173.43
   15:59:04.829.27-Aug-2021 4817.00 7625.04 83.57 16.00 414.06 3173.43
   15:59:05.029.27-Aug-2021 4817.00 7624.76 83.57 16.00 414.26 3173.43
   15:59:05.230.27-Aug-2021 4817.00 7624.84 83.57 16.00 414.46 3173.43
   15:59:05.430.27-Aug-2021 4817.00 7624.97 83.57 16.00 414.66 3173.43
   15:59:05.630.27-Aug-2021 4817.00 7624.97 83.57 16.00 414.86 3173.43
   15:59:05.831.27-Aug-2021 4817.00 7624.64 83.57 16.00 415.06 3173.43
   15:59:06.031.27-Aug-2021 4817.00 7624.42 83.57 16.00 415.26 3173.43
   15:59:06.231.27-Aug-2021 4817.00 7624.46 83.57 16.00 415.46 3173.43
   15:59:06.432.27-Aug-2021 4817.00 7627.98 83.57 16.00 415.66 3173.43
   15:59:06.632.27-Aug-2021 4817.00 7627.98 83.57 16.00 415.86 3173.43
   15:59:06.832.27-Aug-2021 4817.00 7624.77 83.57 16.00 416.06 3173.43
   15:59:07.033.27-Aug-2021 4817.00 7625.11 83.57 16.00 416.26 3173.43
   15:59:07.233.27-Aug-2021 4817.00 7623.85 83.57 16.00 416.46 3173.43
   15:59:07.433.27-Aug-2021 4817.00 7624.06 83.57 16.00 416.66 3173.43
   15:59:07.634.27-Aug-2021 4817.00 7624.06 83.57 16.00 416.86 3173.43
   15:59:07.834.27-Aug-2021 4817.00 7624.06 83.57 16.00 417.06 3173.43
   15:59:08.034.27-Aug-2021 4817.00 7624.49 83.57 16.00 417.26 3173.43
   15:59:08.235.27-Aug-2021 4817.00 7624.37 83.57 16.00 417.46 3173.43
   15:59:08.435.27-Aug-2021 4817.00 7624.72 83.57 16.00 417.66 3173.43
   15:59:08.635.27-Aug-2021 4817.00 7624.72 83.57 16.00 417.86 3173.43
   15:59:08.836.27-Aug-2021 4817.00 7624.59 83.57 16.00 418.06 3173.43
   15:59:09.036.27-Aug-2021 4817.00 7624.71 83.57 16.00 418.26 3173.43
   15:59:09.236.27-Aug-2021 4817.00 7624.59 83.57 16.00 418.47 3173.43
   15:59:09.436.27-Aug-2021 4817.00 7624.50 83.57 16.00 418.67 3173.43
   15:59:09.637.27-Aug-2021 4817.00 7624.50 83.57 16.00 418.87 3173.43
   15:59:09.837.27-Aug-2021 4817.00 7629.76 83.57 16.00 419.07 3173.43
   15:59:10.037.27-Aug-2021 4817.00 7621.49 83.57 16.00 419.27 3173.43
   15:59:10.238.27-Aug-2021 4817.00 7624.20 83.57 16.00 419.47 3173.43
   15:59:10.438.27-Aug-2021 4817.00 7625.01 83.57 16.00 419.67 3173.43
   15:59:10.638.27-Aug-2021 4817.00 7625.01 83.57 16.00 419.87 3173.43
   15:59:10.839.27-Aug-2021 4817.00 7623.78 83.57 16.00 420.07 3173.43
   15:59:11.039.27-Aug-2021 4817.00 7628.86 83.57 16.00 420.27 3173.43
   15:59:11.239.27-Aug-2021 4817.00 7621.11 83.57 16.00 420.47 3173.43
   15:59:11.440.27-Aug-2021 4817.00 7623.98 83.57 16.00 420.67 3173.43
   15:59:11.640.27-Aug-2021 4817.00 7623.98 83.57 16.00 420.87 3173.43
   15:59:11.840.27-Aug-2021 4817.00 7623.56 83.57 16.00 421.07 3173.43
   15:59:12.041.27-Aug-2021 4817.00 7623.90 83.57 16.00 421.27 3173.43
   15:59:12.241.27-Aug-2021 4817.00 7626.82 83.57 16.00 421.47 3173.43
   15:59:12.441.27-Aug-2021 4817.00 7623.00 83.57 16.00 421.67 3173.43
   15:59:12.642.27-Aug-2021 4817.00 7623.00 83.57 16.00 421.87 3173.43
   15:59:12.842.27-Aug-2021 4817.00 7624.19 83.57 16.00 422.07 3173.43
   15:59:13.042.27-Aug-2021 4817.00 7623.26 83.57 16.00 422.27 3173.43
   15:59:13.243.27-Aug-2021 4817.00 7624.26 83.56 16.00 422.47 3173.43
   15:59:13.443.27-Aug-2021 4817.00 7625.57 83.56 16.00 422.67 3173.43
   15:59:13.643.27-Aug-2021 4817.00 7625.57 83.56 16.00 422.87 3173.43
   15:59:13.843.27-Aug-2021 4817.00 7624.95 83.56 16.00 423.07 3173.43
   15:59:14.044.27-Aug-2021 4817.00 7623.66 83.56 16.00 423.27 3173.43
   15:59:14.244.27-Aug-2021 4817.00 7623.31 83.56 16.00 423.47 3173.43
   15:59:14.444.27-Aug-2021 4817.00 7623.94 83.56 16.00 423.67 3173.43
   15:59:14.645.27-Aug-2021 4817.00 7623.94 83.56 16.00 423.87 3173.43
   15:59:14.845.27-Aug-2021 4817.00 7623.76 83.56 16.00 424.07 3173.43
   15:59:15.045.27-Aug-2021 4817.00 7623.91 83.56 16.00 424.27 3173.43
   15:59:15.246.27-Aug-2021 4817.00 7623.73 83.56 16.00 424.47 3173.43
   15:59:15.446.27-Aug-2021 4817.00 7623.77 83.56 16.00 424.67 3173.43
   15:59:15.646.27-Aug-2021 4817.00 7623.77 83.56 16.00 424.88 3173.43
   15:59:15.847.27-Aug-2021 4817.00 7623.68 83.56 16.00 425.08 3173.43
   15:59:16.047.27-Aug-2021 4817.00 7623.65 83.56 16.00 425.28 3173.43
   15:59:16.247.27-Aug-2021 4817.00 7623.45 83.56 16.00 425.48 3173.43
   15:59:16.448.27-Aug-2021 4817.00 7623.82 83.56 16.00 425.68 3173.43
   15:59:16.648.27-Aug-2021 4817.00 7623.82 83.56 16.00 425.88 3173.43
   15:59:16.848.27-Aug-2021 4817.00 7623.05 83.56 16.00 426.08 3173.43
   15:59:17.049.27-Aug-2021 4817.00 7624.38 83.56 16.00 426.28 3173.43
   15:59:17.249.27-Aug-2021 4817.00 7623.46 83.56 16.00 426.48 3173.43
   15:59:17.449.27-Aug-2021 4817.00 7622.90 83.56 16.00 426.68 3173.43
   15:59:17.650.27-Aug-2021 4817.00 7622.90 83.56 16.00 426.88 3173.43
   15:59:17.850.27-Aug-2021 4817.00 7622.84 83.56 16.00 427.08 3173.43
   15:59:18.050.27-Aug-2021 4817.00 7623.56 83.56 16.00 427.28 3173.43
   15:59:18.250.27-Aug-2021 4817.00 7623.87 83.56 16.00 427.48 3173.43
   15:59:18.451.27-Aug-2021 4817.00 7623.76 83.56 16.00 427.68 3173.43
   15:59:18.651.27-Aug-2021 4817.00 7623.76 83.56 16.00 427.88 3173.43
   15:59:18.851.27-Aug-2021 4817.00 7624.09 83.56 16.00 428.08 3173.43
   15:59:19.052.27-Aug-2021 4817.00 7623.79 83.56 16.00 428.28 3173.43
   15:59:19.252.27-Aug-2021 4817.00 7623.88 83.56 16.00 428.48 3173.43
   15:59:19.452.27-Aug-2021 4817.00 7623.66 83.56 16.00 428.68 3173.43
   15:59:19.653.27-Aug-2021 4817.00 7623.66 83.56 16.00 428.88 3173.43
   15:59:19.853.27-Aug-2021 4817.00 7623.36 83.56 16.00 429.08 3173.43
   15:59:20.053.27-Aug-2021 4817.00 7626.86 83.56 16.00 429.28 3173.43
   15:59:20.254.27-Aug-2021 4817.00 7622.66 83.56 16.00 429.48 3173.43
   15:59:20.454.27-Aug-2021 4817.00 7623.98 83.56 16.00 429.68 3173.43
   15:59:20.654.27-Aug-2021 4817.00 7623.98 83.56 16.00 429.88 3173.43
