~Version Information
 VERS.                  2.0:   CWLS log ASCII Standard -VERSION 2.0
 WRAP.                   NO:   One line per depth step
~Well Information Block
#MNEM.UNIT     VALUE/NAME     DESCRIPTION
#---------     -----------    ---------------------------
 STRT.S             01:57:49 28-Aug-21: START TIME 01:57:49 28-Aug-21
 STOP.S             02:04:41 28-Aug-21: STOP TIME  02:04:41 28-Aug-21
 STEP.S                   0.00: STEP TIME
 NULL.                 -999.25: NULL VALUE
 DFWT.                        :  DIST FWL TEXT
 DFST.                        :  DIST FSL TEXT
 DMF .             Drill Floor:  DRILL MEAS FROM
 STIM.      20.00.00 17-Aug-21:  START TIME
 DATE.      19.00.00 29-Aug-21:  END TIME
 SPUD.               15-Aug-21:  SPUD DATE
 NREF.                    Grid:  NORTH REFERENCE
 HPTY.       Minimum Curvature:  HOLE POS TYPE
 DMOD.             Drill Model:  DRILL MOD DESC
 SVYD.                  Survey:  SURVEY DESC
 ILTD.               Lithology:  INTERP LTH DESC
 FTOP.          Formation Tops:  FORM TOPS DESC
 RIG .              East Azeri:  RIG NAME
 PDAT.          Mean Sea Level:  PERMANENT DATUM
 FLD .                     ACG:  FIELD NAME
 SON .        AZ-XX-0907180857:  JOB NUMBER
 CTRY.              Azerbaijan:  COUNTRY NAME
 WELL.                    D23x:  WELL NAME
 SRVC.     Turan Drilling and Engineering:  CONTRACTOR
 COMP.     BP Exploration (Caspian Sea) Ltd.:  COMPANY
 UWI .            /AZE00000214:  UNIQUE WELL IDENTIFIER
 API .            /AZE00000214:  API NUMBER
 MDS .        Operator Entered:  MAG DATA SOURCE
 BASE.              Azerbaijan:  LOGGING EQUIPMENT BASE LOCATION
 REGN.                   EESSA:  REGION
 PROV.                    Baku:  PROVINCE
 STAT.                    Baku:  STATE NAME
 MWDS.                    Baku:  MWD SHOP
 DOE .                     N/A:  DOE NUMBER
 DCON.         Sperry Drilling:  DIRECTNL CONTR
 UNIT.                     N/A:  LOGGING EQUIPMENT ID
 WTYP.                Deviated:  WELL TYPE
 CNTY.                        :  COUNTY
 LOC .                        :  LOCATION
 LMF .             Drill Floor:  LOG MEASURED FROM
 TVDS.m                  43.60:  TVDSS CORRECTN
 LATI.deg                40.02:  LATITUDE
 LONG.deg                51.45:  LONGITUDE
 WHNS.m                  -7.04:  WELL HEAD N/S
 WHEW.m                  -0.67:  WELL HEAD E/W
 UTMX.m              538762.90:  UTM X
 UTMY.m             4431871.34:  UTM Y
 DFWL.m                   0.00:  DISTANCE FWL
 DFSL.m                   0.00:  DISTANCE FSL
 SDEP.m                4127.00:  START DEPTH
 TDD .m                5084.50:  TOTAL DEPTH (DRILLER)
 VSDR.deg               140.47:  VERT SEC DIRECT
 GVFD.g                   1.00:  GRAVITY FIELD
 MFLD.nT              50362.00:  MAGNETIC FIELD
 MDIP.deg                59.48:  MAGNETIC DIP
 MDEC.deg                 6.47:  MAGNETIC DECL
 GRDC.deg                 0.31:  GRID CORRECTION
 AZTC.deg                 6.16:  AZM TOTAL CORR
 EPD .m                   0.00:  ELEVATION
 EGL .m                   0.00:  GROUND ELEVATION
 WDMS.m                 151.80:  WD ELEV
 APD .m                  43.60:  DEPTH ABOVE PD
 DEP .m                4092.57:  DEPTH
 AGAP.m                  43.60:  AIR GAP
 VSEW.m                  -0.67:  VERT SEC E/W
 VSNS.m                  -7.04:  VERT SEC N/S
 EKB .m                  43.60:  KB ELEVATION
 EDF .m                  43.60:  DF ELEVATION
 TDL .m                 957.50:  TOTAL DEPTH (LOGGER)
 VSC .                       0:  VS TO CLOSURE
 MAGU.                 1851413:  MAGUTM CHECKSUM
~Parameter Information Block
#MNEM.UNIT       Value        Description
#---------     -----------    ---------------------------
 AV  .mps                 1.50:  Ann Velocity 
 AVMX.mps                 2.00:  Max Ann Veloc 
 AZIF.deg               184.66:  Azm, Final 
 BHAT.        Rotary Steerable:  BHA Type 
 BREV.rev               300.00:  Rev Bit Total 
 BROT.°/30m              -0.50:  Build Rotating 
 BS  .in                  8.50:  Bit Size 
 BSZ .in                  8.50:  Bit Size 
 BTPL.psig              370.00:  Bit Press Loss 
 CABU.                      No:  Customer Abuse 
 CGEO.      Behruz Shahbaliyev:  Customer Geo 
 COMM.                     Äi}:  Run Comments 1 
 TCS .hr                140.08:  Time Ciculation Ended 
 CV  .mps                 3.00:  Crit Velocity 
 CVMX.mps                 3.20:  Max Crit Veloc 
 DD1 .            Musa Ahmadov:  Direct Drillr 1 
 DD2 .           Hamid Ahmadov:  Direct Drillr 2 
 DDSV.               Geo-Pilot:  DD Service 
 DEFF.%                  98.40:  % Det Eff 
 DLRX.°/30m               3.40:  Dogleg Rot Max 
 DLSO.°/30m               1.45:  Dogleg Oriented 
 DLSX.°/30m               3.40:  Dogleg Str Max 
 DRET.      18.40.00 29-Aug-21:  Drill End Time 
 DRST.      21.00.00 20-Aug-21:  Drill Start Tim 
 DTIM.hr                 69.47:  Time Drilling 
 EDEP.m                5084.50:  End Depth 
 ENG1.      Artemiy Matviyanov:  Engineer 1 
 ENG2.         Almaz Almadatov:  Engineer 2 
 ETIM.      18.40.00 29-Aug-21:  End Time 
 FLOI.gpm               500.00:  Flow In 
 FLON.gpm               400.00:  Flow In Min 
 FLOS.cptm                0.00:  Fluid Loss 
 FLOX.gpm               500.00:  Flow In Max 
 DFT .        Mineral Oil Base:  Mud Type 
 HFLO.                      No:  High Flow 
 HPRE.                      No:  High Pressure 
 HTEM.                      No:  High Temp 
 HYDO.m                   1.80:  Hydro Offset 
 IFIN.deg                25.62:  Inc, Final 
 IMAX.deg                48.69:  Inc Max 
 IMIN.deg                24.01:  Inc Min 
 IMND.m                4962.57:  Inc Min Depth 
 IMXD.m                4119.01:  Inc Max Depth 
 JARR.                      No:  Jarring 
 LETM.      18.40.00 29-Aug-21:  Log End Time 
 LOST.hr                     0:  Lost Rig Time 
 LSTM.      21.00.00 20-Aug-21:  Log Start Time 
 MDCL.ppm             41500.00:  Mud Chlorides 
 MDES.     Inversion Oil/Synthetic:  Mud Desc 
 DFD .sg                  1.56:  Mud Density 
 MDMN.sg                  1.56:  Dens Mud Min 
 MDMX.sg                  1.56:  Dens Mud Max 
 MOIL.                      70:  Run Mud Oil % 
 MOWR.                   70:30:  Run Mud OWR 
 MSND.                     0.2:  Run Mud Sand % 
 MSOL.                    23.3:  Run Mud Solids% 
 DFV .spqt               78.00:  Mud Viscosity 
 MWOD.in                  6.75:  MWD Tool OD 
 MWSI.                      No:  Serv Intrp, MWD 
 OTIM.hr                218.30:  Time Operating 
 PCON.           Look Like New:  Pad Condition 
 PMAX.psia            11015.30:  Press Op, Max 
 PV  .cP                 38.00:  Mud PV 
 RUN .                     300:  Run Number 
 ROPA.m/hr               15.00:  ROP Avg 
 ROPN.m/hr                9.00:  ROP Min 
 ROPX.m/hr               17.00:  ROP Max 
 RPMA.rpm               120.00:  RPM Surface Avg 
 RPMN.rpm                90.00:  RPM Surface Min 
 RPMX.rpm               140.00:  RPM Surface Max 
 RRUN.                     300:  Rig Run Number 
 RTIM.hr                 31.53:  Time Reaming 
 SAZI.deg               331.64:  Azm, Start 
 SDEP.m                4127.00:  Start Depth 
 SIDD.                      No:  Serv Intrp, DD 
 SINC.deg                48.43:  Inc, Start 
 SPPA.psig             5830.00:  SPP Avg 
 SPPN.psig             5600.00:  SPP Min 
 SPPX.psig             5900.00:  SPP Max 
 STIM.      21.00.00 20-Aug-21:  Start Time 
 SVCS.                 DD, MWD:  Services 
 SVER.                    9.20:  Sperry Version 
 TDAT.m                 957.50:  Tot Depth Attmp 
 TDDF.                      No:  Trip for DD 
 TDLG.m                 957.50:  Tot Depth Loggd 
 TFF .                      No:  Trip for Fail 
 TQAA.f-kp               15.00:  Torque Abs Avg 
 TQAN.f-kp               12.00:  Torque Abs Min 
 TQAX.f-kp               19.00:  Torque Abs Max 
 TRRT.°/30m              -3.40:  Turn Rotating 
 MRT .                  EWR-M5:  Maximum Recorded Temperature 
 TTMX.degC              100.00:  Max Tool Temp 
 VS01.                90639251:  Virtual Str1 SN 
 VS02.                90634715:  Virtual Str2 SN 
 VS03.                90652479:  Virtual Str3 SN 
 VS04.                90642262:  Virtual Str4 SN 
 WBMN.klb                 0.00:  WOB Min 
 WITN.           Murad Guliyev:  Customer Rep 
 WITN.          Yashar Gaziyev:  Customer Rep 2 
 WOBA.klb                 9.00:  WOB Avg 
 WOBX.klb                12.00:  WOB Max 
 YP  .lhf2               30.00:  Yield Point 
~Curve Information Block
#MNEM.UNIT                 API CODE     Curve Description
#---------               -----------    ---------------------------
 TIME.HHMMSS            00 000 000 000:  GT Time & Date
 GTDEPTH.m              00 000 000 000:  GT Depth
 GTPQH.psia             00 000 000 000:  GT HR Quartz Pressure
 GTTQ.degC              00 000 000 000:  GT Quartz Temperature
 GTTN.NONE              00 000 000 000:  GT Test Number
 GTET.sec               00 000 000 000:  GT Elapsed Test Time
 GTTVD.m                00 000 000 000:  GT True Vertical Depth
#Other Information
#
#WARRANTY: Halliburton will use its best efforts to furnish customers with 
#accurate information and interpretations that are part of, and incident to, the services 
#provided.  However, Halliburton cannot and does not warrant the accuracy 
#or correctness of such information and interpretations.  Under no circumstances should any 
#such information or interpretation be relied upon as the sole basis for any drilling, 
#completion, production, or financial decision or any procedure involving any risk to the 
#safety of any drilling venture, drilling rig or its crew or any other third party.  The 
#Customer has full responsibility for all drilling, completion and production operation.  
#Halliburton makes no representations or warranties, either expressed or 
#implied, including, but not limited to, the implied warranties of merchantability or fitness 
#for a particular purpose, with respect to the services rendered.  In no event will 
#Halliburton be liable for failure to obtain any particular results or for 
#any damages, including, but not limited to, indirect, special or consequential damages, 
#resulting from the use of any information or interpretation provided by Halliburton.
#
~A           TIME           GTDEPTH  GTPQH  GTTQ  GTTN   GTET   GTTVD  
   01:57:49.352.28-Aug-2021 4879.00 7698.53 81.34 27.00   0.00 3229.53
   01:57:49.552.28-Aug-2021 4879.00 7698.53 81.34 27.00   0.20 3229.53
   01:57:49.752.28-Aug-2021 4879.00 7701.85 81.34 27.00   0.40 3229.53
   01:57:49.952.28-Aug-2021 4879.00 7695.27 81.34 27.00   0.60 3229.53
   01:57:50.152.28-Aug-2021 4879.00 7698.17 81.34 27.00   0.80 3229.53
   01:57:50.352.28-Aug-2021 4879.00 7698.77 81.34 27.00   1.00 3229.53
   01:57:50.552.28-Aug-2021 4879.00 7698.77 81.34 27.00   1.20 3229.53
   01:57:50.752.28-Aug-2021 4879.00 7697.30 81.34 27.00   1.40 3229.53
   01:57:50.952.28-Aug-2021 4879.00 7698.10 81.34 27.00   1.60 3229.53
   01:57:51.152.28-Aug-2021 4879.00 7702.36 81.34 27.00   1.80 3229.53
   01:57:51.352.28-Aug-2021 4879.00 7695.38 81.34 27.00   2.00 3229.53
   01:57:51.552.28-Aug-2021 4879.00 7695.38 81.34 27.00   2.20 3229.53
   01:57:51.752.28-Aug-2021 4879.00 7698.52 81.34 27.00   2.40 3229.53
   01:57:51.952.28-Aug-2021 4879.00 7703.37 81.34 27.00   2.60 3229.53
   01:57:52.152.28-Aug-2021 4879.00 7697.13 81.34 27.00   2.80 3229.53
   01:57:52.353.28-Aug-2021 4879.00 7700.16 81.34 27.00   3.00 3229.53
   01:57:52.553.28-Aug-2021 4879.00 7700.16 81.34 27.00   3.20 3229.53
   01:57:52.753.28-Aug-2021 4879.00 7699.77 81.34 27.00   3.40 3229.53
   01:57:52.953.28-Aug-2021 4879.00 7704.16 81.34 27.00   3.60 3229.53
   01:57:53.153.28-Aug-2021 4879.00 7698.23 81.34 27.00   3.80 3229.53
   01:57:53.353.28-Aug-2021 4879.00 7701.46 81.34 27.00   4.00 3229.53
   01:57:53.553.28-Aug-2021 4879.00 7701.46 81.34 27.00   4.20 3229.53
   01:57:53.753.28-Aug-2021 4879.00 7701.26 81.34 27.00   4.40 3229.53
   01:57:53.953.28-Aug-2021 4879.00 7701.30 81.34 27.00   4.60 3229.53
   01:57:54.153.28-Aug-2021 4879.00 7701.79 81.34 27.00   4.80 3229.53
   01:57:54.353.28-Aug-2021 4879.00 7701.64 81.34 27.00   5.00 3229.53
   01:57:54.553.28-Aug-2021 4879.00 7701.64 81.34 27.00   5.20 3229.53
   01:57:54.753.28-Aug-2021 4879.00 7702.69 81.34 27.00   5.40 3229.53
   01:57:54.953.28-Aug-2021 4879.00 7703.10 81.34 27.00   5.60 3229.53
   01:57:55.153.28-Aug-2021 4879.00 7703.35 81.34 27.00   5.80 3229.53
   01:57:55.353.28-Aug-2021 4879.00 7703.61 81.34 27.00   6.00 3229.53
   01:57:55.554.28-Aug-2021 4879.00 7703.61 81.34 27.00   6.20 3229.53
   01:57:55.754.28-Aug-2021 4879.00 7704.26 81.34 27.00   6.40 3229.53
   01:57:55.954.28-Aug-2021 4879.00 7704.51 81.34 27.00   6.60 3229.53
   01:57:56.154.28-Aug-2021 4879.00 7704.84 81.34 27.00   6.80 3229.53
   01:57:56.354.28-Aug-2021 4879.00 7705.16 81.34 27.00   7.00 3229.53
   01:57:56.554.28-Aug-2021 4879.00 7705.16 81.34 27.00   7.20 3229.53
   01:57:56.754.28-Aug-2021 4879.00 7707.23 81.34 27.00   7.40 3229.53
   01:57:56.954.28-Aug-2021 4879.00 7706.57 81.34 27.00   7.60 3229.53
   01:57:57.154.28-Aug-2021 4879.00 7707.53 81.34 27.00   7.80 3229.53
   01:57:57.354.28-Aug-2021 4879.00 7707.11 81.34 27.00   8.00 3229.53
   01:57:57.554.28-Aug-2021 4879.00 7707.11 81.34 27.00   8.20 3229.53
   01:57:57.754.28-Aug-2021 4879.00 7707.29 81.34 27.00   8.40 3229.53
   01:57:57.954.28-Aug-2021 4879.00 7707.17 81.34 27.00   8.60 3229.53
   01:57:58.154.28-Aug-2021 4879.00 7707.14 81.34 27.00   8.80 3229.53
   01:57:58.354.28-Aug-2021 4879.00 7707.11 81.34 27.00   9.00 3229.53
   01:57:58.554.28-Aug-2021 4879.00 7707.11 81.34 27.00   9.20 3229.53
   01:57:58.755.28-Aug-2021 4879.00 7707.57 81.34 27.00   9.40 3229.53
   01:57:58.955.28-Aug-2021 4879.00 7707.86 81.34 27.00   9.60 3229.53
   01:57:59.155.28-Aug-2021 4879.00 7707.79 81.34 27.00   9.80 3229.53
   01:57:59.355.28-Aug-2021 4879.00 7708.00 81.34 27.00  10.00 3229.53
   01:57:59.555.28-Aug-2021 4879.00 7708.00 81.34 27.00  10.20 3229.53
   01:57:59.755.28-Aug-2021 4879.00 7709.72 81.34 27.00  10.40 3229.53
   01:57:59.955.28-Aug-2021 4879.00 7709.56 81.33 27.00  10.60 3229.53
   01:58:00.155.28-Aug-2021 4879.00 7708.89 81.33 27.00  10.80 3229.53
   01:58:00.355.28-Aug-2021 4879.00 7709.62 81.33 27.00  11.00 3229.53
   01:58:00.555.28-Aug-2021 4879.00 7709.62 81.33 27.00  11.20 3229.53
   01:58:00.755.28-Aug-2021 4879.00 7708.99 81.33 27.00  11.40 3229.53
   01:58:00.955.28-Aug-2021 4879.00 7710.74 81.33 27.00  11.60 3229.53
   01:58:01.155.28-Aug-2021 4879.00 7710.69 81.33 27.00  11.80 3229.53
   01:58:01.355.28-Aug-2021 4879.00 7710.17 81.33 27.00  12.00 3229.53
   01:58:01.555.28-Aug-2021 4879.00 7710.17 81.33 27.00  12.20 3229.53
   01:58:01.755.28-Aug-2021 4879.00 7711.05 81.33 27.00  12.40 3229.53
   01:58:01.956.28-Aug-2021 4879.00 7710.89 81.33 27.00  12.60 3229.53
   01:58:02.156.28-Aug-2021 4879.00 7716.07 81.33 27.00  12.80 3229.53
   01:58:02.356.28-Aug-2021 4879.00 7709.37 81.33 27.00  13.00 3229.53
   01:58:02.556.28-Aug-2021 4879.00 7709.37 81.33 27.00  13.20 3229.53
   01:58:02.756.28-Aug-2021 4879.00 7712.50 81.33 27.00  13.40 3229.53
   01:58:02.956.28-Aug-2021 4879.00 7712.48 81.33 27.00  13.60 3229.53
   01:58:03.156.28-Aug-2021 4879.00 7712.37 81.33 27.00  13.80 3229.53
   01:58:03.356.28-Aug-2021 4879.00 7715.40 81.33 27.00  14.00 3229.53
   01:58:03.556.28-Aug-2021 4879.00 7715.40 81.33 27.00  14.20 3229.53
   01:58:03.756.28-Aug-2021 4879.00 7714.04 81.33 27.00  14.40 3229.53
   01:58:03.956.28-Aug-2021 4879.00 7715.17 81.33 27.00  14.60 3229.53
   01:58:04.156.28-Aug-2021 4879.00 7714.79 81.33 27.00  14.80 3229.53
   01:58:04.356.28-Aug-2021 4879.00 7714.11 81.33 27.00  15.00 3229.53
   01:58:04.556.28-Aug-2021 4879.00 7714.11 81.33 27.00  15.20 3229.53
   01:58:04.756.28-Aug-2021 4879.00 7714.44 81.33 27.00  15.40 3229.53
   01:58:04.956.28-Aug-2021 4879.00 7714.20 81.33 27.00  15.60 3229.53
   01:58:05.157.28-Aug-2021 4879.00 7717.48 81.33 27.00  15.80 3229.53
   01:58:05.357.28-Aug-2021 4879.00 7714.75 81.33 27.00  16.01 3229.53
   01:58:05.557.28-Aug-2021 4879.00 7714.75 81.33 27.00  16.21 3229.53
   01:58:05.757.28-Aug-2021 4879.00 7715.35 81.33 27.00  16.41 3229.53
   01:58:05.957.28-Aug-2021 4879.00 7715.49 81.33 27.00  16.61 3229.53
   01:58:06.157.28-Aug-2021 4879.00 7715.10 81.33 27.00  16.81 3229.53
   01:58:06.357.28-Aug-2021 4879.00 7715.43 81.33 27.00  17.01 3229.53
   01:58:06.557.28-Aug-2021 4879.00 7715.43 81.33 27.00  17.21 3229.53
   01:58:06.757.28-Aug-2021 4879.00 7715.75 81.33 27.00  17.41 3229.53
   01:58:06.957.28-Aug-2021 4879.00 7716.12 81.33 27.00  17.61 3229.53
   01:58:07.157.28-Aug-2021 4879.00 7716.23 81.33 27.00  17.81 3229.53
   01:58:07.357.28-Aug-2021 4879.00 7716.44 81.33 27.00  18.01 3229.53
   01:58:07.557.28-Aug-2021 4879.00 7716.44 81.33 27.00  18.21 3229.53
   01:58:07.757.28-Aug-2021 4879.00 7716.52 81.33 27.00  18.41 3229.53
   01:58:07.957.28-Aug-2021 4879.00 7716.61 81.33 27.00  18.61 3229.53
   01:58:08.157.28-Aug-2021 4879.00 7716.76 81.33 27.00  18.81 3229.53
   01:58:08.358.28-Aug-2021 4879.00 7721.47 81.33 27.00  19.01 3229.53
   01:58:08.558.28-Aug-2021 4879.00 7721.47 81.33 27.00  19.21 3229.53
   01:58:08.758.28-Aug-2021 4879.00 7718.52 81.33 27.00  19.41 3229.53
   01:58:08.958.28-Aug-2021 4879.00 7718.03 81.33 27.00  19.61 3229.53
   01:58:09.158.28-Aug-2021 4879.00 7717.94 81.33 27.00  19.81 3229.53
   01:58:09.358.28-Aug-2021 4879.00 7718.18 81.33 27.00  20.01 3229.53
   01:58:09.558.28-Aug-2021 4879.00 7718.18 81.33 27.00  20.21 3229.53
   01:58:09.758.28-Aug-2021 4879.00 7718.29 81.33 27.00  20.41 3229.53
   01:58:09.958.28-Aug-2021 4879.00 7718.73 81.33 27.00  20.61 3229.53
   01:58:10.158.28-Aug-2021 4879.00 7719.11 81.33 27.00  20.81 3229.53
   01:58:10.358.28-Aug-2021 4879.00 7719.28 81.33 27.00  21.01 3229.53
   01:58:10.558.28-Aug-2021 4879.00 7719.28 81.33 27.00  21.21 3229.53
   01:58:10.758.28-Aug-2021 4879.00 7719.74 81.32 27.00  21.41 3229.53
   01:58:10.958.28-Aug-2021 4879.00 7719.89 81.32 27.00  21.61 3229.53
   01:58:11.158.28-Aug-2021 4879.00 7720.05 81.32 27.00  21.81 3229.53
   01:58:11.358.28-Aug-2021 4879.00 7720.05 81.32 27.00  22.01 3229.53
   01:58:11.559.28-Aug-2021 4879.00 7720.05 81.32 27.00  22.21 3229.53
   01:58:11.759.28-Aug-2021 4879.00 7724.81 81.32 27.00  22.41 3229.53
