~Version Information
 VERS.                  2.0:   CWLS log ASCII Standard -VERSION 2.0
 WRAP.                   NO:   One line per depth step
~Well Information Block
#MNEM.UNIT     VALUE/NAME     DESCRIPTION
#---------     -----------    ---------------------------
 STRT.S             23:43:00 27-Aug-21: START TIME 23:43:00 27-Aug-21
 STOP.S             23:50:14 27-Aug-21: STOP TIME  23:50:14 27-Aug-21
 STEP.S                   0.00: STEP TIME
 NULL.                 -999.25: NULL VALUE
 DFWT.                        :  DIST FWL TEXT
 DFST.                        :  DIST FSL TEXT
 DMF .             Drill Floor:  DRILL MEAS FROM
 STIM.      20.00.00 17-Aug-21:  START TIME
 DATE.      19.00.00 29-Aug-21:  END TIME
 SPUD.               15-Aug-21:  SPUD DATE
 NREF.                    Grid:  NORTH REFERENCE
 HPTY.       Minimum Curvature:  HOLE POS TYPE
 DMOD.             Drill Model:  DRILL MOD DESC
 SVYD.                  Survey:  SURVEY DESC
 ILTD.               Lithology:  INTERP LTH DESC
 FTOP.          Formation Tops:  FORM TOPS DESC
 RIG .              East Azeri:  RIG NAME
 PDAT.          Mean Sea Level:  PERMANENT DATUM
 FLD .                     ACG:  FIELD NAME
 SON .        AZ-XX-0907180857:  JOB NUMBER
 CTRY.              Azerbaijan:  COUNTRY NAME
 WELL.                    D23x:  WELL NAME
 SRVC.     Turan Drilling and Engineering:  CONTRACTOR
 COMP.     BP Exploration (Caspian Sea) Ltd.:  COMPANY
 UWI .            /AZE00000214:  UNIQUE WELL IDENTIFIER
 API .            /AZE00000214:  API NUMBER
 MDS .        Operator Entered:  MAG DATA SOURCE
 BASE.              Azerbaijan:  LOGGING EQUIPMENT BASE LOCATION
 REGN.                   EESSA:  REGION
 PROV.                    Baku:  PROVINCE
 STAT.                    Baku:  STATE NAME
 MWDS.                    Baku:  MWD SHOP
 DOE .                     N/A:  DOE NUMBER
 DCON.         Sperry Drilling:  DIRECTNL CONTR
 UNIT.                     N/A:  LOGGING EQUIPMENT ID
 WTYP.                Deviated:  WELL TYPE
 CNTY.                        :  COUNTY
 LOC .                        :  LOCATION
 LMF .             Drill Floor:  LOG MEASURED FROM
 TVDS.m                  43.60:  TVDSS CORRECTN
 LATI.deg                40.02:  LATITUDE
 LONG.deg                51.45:  LONGITUDE
 WHNS.m                  -7.04:  WELL HEAD N/S
 WHEW.m                  -0.67:  WELL HEAD E/W
 UTMX.m              538762.90:  UTM X
 UTMY.m             4431871.34:  UTM Y
 DFWL.m                   0.00:  DISTANCE FWL
 DFSL.m                   0.00:  DISTANCE FSL
 SDEP.m                4127.00:  START DEPTH
 TDD .m                5084.50:  TOTAL DEPTH (DRILLER)
 VSDR.deg               140.47:  VERT SEC DIRECT
 GVFD.g                   1.00:  GRAVITY FIELD
 MFLD.nT              50362.00:  MAGNETIC FIELD
 MDIP.deg                59.48:  MAGNETIC DIP
 MDEC.deg                 6.47:  MAGNETIC DECL
 GRDC.deg                 0.31:  GRID CORRECTION
 AZTC.deg                 6.16:  AZM TOTAL CORR
 EPD .m                   0.00:  ELEVATION
 EGL .m                   0.00:  GROUND ELEVATION
 WDMS.m                 151.80:  WD ELEV
 APD .m                  43.60:  DEPTH ABOVE PD
 DEP .m                4092.57:  DEPTH
 AGAP.m                  43.60:  AIR GAP
 VSEW.m                  -0.67:  VERT SEC E/W
 VSNS.m                  -7.04:  VERT SEC N/S
 EKB .m                  43.60:  KB ELEVATION
 EDF .m                  43.60:  DF ELEVATION
 TDL .m                 957.50:  TOTAL DEPTH (LOGGER)
 VSC .                       0:  VS TO CLOSURE
 MAGU.                 1851413:  MAGUTM CHECKSUM
~Parameter Information Block
#MNEM.UNIT       Value        Description
#---------     -----------    ---------------------------
 AV  .mps                 1.50:  Ann Velocity 
 AVMX.mps                 2.00:  Max Ann Veloc 
 AZIF.deg               184.66:  Azm, Final 
 BHAT.        Rotary Steerable:  BHA Type 
 BREV.rev               300.00:  Rev Bit Total 
 BROT.°/30m              -0.50:  Build Rotating 
 BS  .in                  8.50:  Bit Size 
 BSZ .in                  8.50:  Bit Size 
 BTPL.psig              370.00:  Bit Press Loss 
 CABU.                      No:  Customer Abuse 
 CGEO.      Behruz Shahbaliyev:  Customer Geo 
 COMM.                     Ì™‡:  Run Comments 1 
 TCS .hr                140.08:  Time Ciculation Ended 
 CV  .mps                 3.00:  Crit Velocity 
 CVMX.mps                 3.20:  Max Crit Veloc 
 DD1 .            Musa Ahmadov:  Direct Drillr 1 
 DD2 .           Hamid Ahmadov:  Direct Drillr 2 
 DDSV.               Geo-Pilot:  DD Service 
 DEFF.%                  98.40:  % Det Eff 
 DLRX.°/30m               3.40:  Dogleg Rot Max 
 DLSO.°/30m               1.45:  Dogleg Oriented 
 DLSX.°/30m               3.40:  Dogleg Str Max 
 DRET.      18.40.00 29-Aug-21:  Drill End Time 
 DRST.      21.00.00 20-Aug-21:  Drill Start Tim 
 DTIM.hr                 69.47:  Time Drilling 
 EDEP.m                5084.50:  End Depth 
 ENG1.      Artemiy Matviyanov:  Engineer 1 
 ENG2.         Almaz Almadatov:  Engineer 2 
 ETIM.      18.40.00 29-Aug-21:  End Time 
 FLOI.gpm               500.00:  Flow In 
 FLON.gpm               400.00:  Flow In Min 
 FLOS.cptm                0.00:  Fluid Loss 
 FLOX.gpm               500.00:  Flow In Max 
 DFT .        Mineral Oil Base:  Mud Type 
 HFLO.                      No:  High Flow 
 HPRE.                      No:  High Pressure 
 HTEM.                      No:  High Temp 
 HYDO.m                   1.80:  Hydro Offset 
 IFIN.deg                25.62:  Inc, Final 
 IMAX.deg                48.69:  Inc Max 
 IMIN.deg                24.01:  Inc Min 
 IMND.m                4962.57:  Inc Min Depth 
 IMXD.m                4119.01:  Inc Max Depth 
 JARR.                      No:  Jarring 
 LETM.      18.40.00 29-Aug-21:  Log End Time 
 LOST.hr                     0:  Lost Rig Time 
 LSTM.      21.00.00 20-Aug-21:  Log Start Time 
 MDCL.ppm             41500.00:  Mud Chlorides 
 MDES.     Inversion Oil/Synthetic:  Mud Desc 
 DFD .sg                  1.56:  Mud Density 
 MDMN.sg                  1.56:  Dens Mud Min 
 MDMX.sg                  1.56:  Dens Mud Max 
 MOIL.                      70:  Run Mud Oil % 
 MOWR.                   70:30:  Run Mud OWR 
 MSND.                     0.2:  Run Mud Sand % 
 MSOL.                    23.3:  Run Mud Solids% 
 DFV .spqt               78.00:  Mud Viscosity 
 MWOD.in                  6.75:  MWD Tool OD 
 MWSI.                      No:  Serv Intrp, MWD 
 OTIM.hr                218.30:  Time Operating 
 PCON.           Look Like New:  Pad Condition 
 PMAX.psia            11015.30:  Press Op, Max 
 PV  .cP                 38.00:  Mud PV 
 RUN .                     300:  Run Number 
 ROPA.m/hr               15.00:  ROP Avg 
 ROPN.m/hr                9.00:  ROP Min 
 ROPX.m/hr               17.00:  ROP Max 
 RPMA.rpm               120.00:  RPM Surface Avg 
 RPMN.rpm                90.00:  RPM Surface Min 
 RPMX.rpm               140.00:  RPM Surface Max 
 RRUN.                     300:  Rig Run Number 
 RTIM.hr                 31.53:  Time Reaming 
 SAZI.deg               331.64:  Azm, Start 
 SDEP.m                4127.00:  Start Depth 
 SIDD.                      No:  Serv Intrp, DD 
 SINC.deg                48.43:  Inc, Start 
 SPPA.psig             5830.00:  SPP Avg 
 SPPN.psig             5600.00:  SPP Min 
 SPPX.psig             5900.00:  SPP Max 
 STIM.      21.00.00 20-Aug-21:  Start Time 
 SVCS.                 DD, MWD:  Services 
 SVER.                    9.20:  Sperry Version 
 TDAT.m                 957.50:  Tot Depth Attmp 
 TDDF.                      No:  Trip for DD 
 TDLG.m                 957.50:  Tot Depth Loggd 
 TFF .                      No:  Trip for Fail 
 TQAA.f-kp               15.00:  Torque Abs Avg 
 TQAN.f-kp               12.00:  Torque Abs Min 
 TQAX.f-kp               19.00:  Torque Abs Max 
 TRRT.°/30m              -3.40:  Turn Rotating 
 MRT .                  EWR-M5:  Maximum Recorded Temperature 
 TTMX.degC              100.00:  Max Tool Temp 
 VS01.                90639251:  Virtual Str1 SN 
 VS02.                90634715:  Virtual Str2 SN 
 VS03.                90652479:  Virtual Str3 SN 
 VS04.                90642262:  Virtual Str4 SN 
 WBMN.klb                 0.00:  WOB Min 
 WITN.           Murad Guliyev:  Customer Rep 
 WITN.          Yashar Gaziyev:  Customer Rep 2 
 WOBA.klb                 9.00:  WOB Avg 
 WOBX.klb                12.00:  WOB Max 
 YP  .lhf2               30.00:  Yield Point 
~Curve Information Block
#MNEM.UNIT                 API CODE     Curve Description
#---------               -----------    ---------------------------
 TIME.HHMMSS            00 000 000 000:  GT Time & Date
 GTDEPTH.m              00 000 000 000:  GT Depth
 GTPQH.psia             00 000 000 000:  GT HR Quartz Pressure
 GTTQ.degC              00 000 000 000:  GT Quartz Temperature
 GTTN.NONE              00 000 000 000:  GT Test Number
 GTET.sec               00 000 000 000:  GT Elapsed Test Time
 GTTVD.m                00 000 000 000:  GT True Vertical Depth
#Other Information
#
#WARRANTY: Halliburton will use its best efforts to furnish customers with 
#accurate information and interpretations that are part of, and incident to, the services 
#provided.  However, Halliburton cannot and does not warrant the accuracy 
#or correctness of such information and interpretations.  Under no circumstances should any 
#such information or interpretation be relied upon as the sole basis for any drilling, 
#completion, production, or financial decision or any procedure involving any risk to the 
#safety of any drilling venture, drilling rig or its crew or any other third party.  The 
#Customer has full responsibility for all drilling, completion and production operation.  
#Halliburton makes no representations or warranties, either expressed or 
#implied, including, but not limited to, the implied warranties of merchantability or fitness 
#for a particular purpose, with respect to the services rendered.  In no event will 
#Halliburton be liable for failure to obtain any particular results or for 
#any damages, including, but not limited to, indirect, special or consequential damages, 
#resulting from the use of any information or interpretation provided by Halliburton.
#
~A           TIME           GTDEPTH  GTPQH  GTTQ  GTTN   GTET   GTTVD  
# ...
   23:46:46.156.27-Aug-2021 4669.00 4469.97 82.07 26.00 226.03 3039.49
   23:46:46.356.27-Aug-2021 4669.00 4469.97 82.07 26.00 226.23 3039.49
   23:46:46.556.27-Aug-2021 4669.00 4469.97 82.07 26.00 226.43 3039.49
   23:46:46.756.27-Aug-2021 4669.00 4469.95 82.07 26.00 226.63 3039.49
   23:46:46.956.27-Aug-2021 4669.00 4469.97 82.07 26.00 226.83 3039.49
   23:46:47.156.27-Aug-2021 4669.00 4469.97 82.07 26.00 227.03 3039.49
   23:46:47.356.27-Aug-2021 4669.00 4469.97 82.07 26.00 227.23 3039.49
   23:46:47.556.27-Aug-2021 4669.00 4469.97 82.07 26.00 227.43 3039.49
   23:46:47.756.27-Aug-2021 4669.00 4469.91 82.07 26.00 227.63 3039.49
   23:46:47.956.27-Aug-2021 4669.00 4469.96 82.07 26.00 227.83 3039.49
   23:46:48.156.27-Aug-2021 4669.00 4470.38 82.07 26.00 228.03 3039.49
   23:46:48.356.27-Aug-2021 4669.00 4470.38 82.07 26.00 228.23 3039.49
   23:46:48.556.27-Aug-2021 4669.00 4470.22 82.07 26.00 228.43 3039.49
   23:46:48.756.27-Aug-2021 4669.00 4470.07 82.07 26.00 228.63 3039.49
   23:46:48.956.27-Aug-2021 4669.00 4470.22 82.07 26.00 228.83 3039.49
   23:46:49.156.27-Aug-2021 4669.00 4470.12 82.07 26.00 229.03 3039.49
   23:46:49.356.27-Aug-2021 4669.00 4470.12 82.07 26.00 229.23 3039.49
   23:46:49.556.27-Aug-2021 4669.00 4470.16 82.07 26.00 229.43 3039.49
   23:46:49.756.27-Aug-2021 4669.00 4470.20 82.07 26.00 229.63 3039.49
   23:46:49.956.27-Aug-2021 4669.00 4470.21 82.07 26.00 229.83 3039.49
   23:46:50.156.27-Aug-2021 4669.00 4470.20 82.07 26.00 230.03 3039.49
   23:46:50.356.27-Aug-2021 4669.00 4470.20 82.07 26.00 230.23 3039.49
   23:46:50.556.27-Aug-2021 4669.00 4470.22 82.07 26.00 230.43 3039.49
   23:46:50.756.27-Aug-2021 4669.00 4470.24 82.07 26.00 230.63 3039.49
   23:46:50.956.27-Aug-2021 4669.00 4470.24 82.07 26.00 230.83 3039.49
   23:46:51.156.27-Aug-2021 4669.00 4470.10 82.07 26.00 231.03 3039.49
   23:46:51.356.27-Aug-2021 4669.00 4470.10 82.07 26.00 231.23 3039.49
   23:46:51.556.27-Aug-2021 4669.00 4470.51 82.07 26.00 231.43 3039.49
   23:46:51.756.27-Aug-2021 4669.00 4470.29 82.07 26.00 231.63 3039.49
   23:46:51.956.27-Aug-2021 4669.00 4470.40 82.07 26.00 231.83 3039.49
   23:46:52.157.27-Aug-2021 4669.00 4470.19 82.07 26.00 232.03 3039.49
   23:46:52.357.27-Aug-2021 4669.00 4470.19 82.07 26.00 232.23 3039.49
   23:46:52.557.27-Aug-2021 4669.00 4470.36 82.07 26.00 232.43 3039.49
   23:46:52.757.27-Aug-2021 4669.00 4470.57 82.07 26.00 232.63 3039.49
   23:46:52.957.27-Aug-2021 4669.00 4470.40 82.07 26.00 232.83 3039.49
   23:46:53.157.27-Aug-2021 4669.00 4470.55 82.07 26.00 233.03 3039.49
   23:46:53.357.27-Aug-2021 4669.00 4470.55 82.07 26.00 233.23 3039.49
   23:46:53.557.27-Aug-2021 4669.00 4470.41 82.07 26.00 233.43 3039.49
   23:46:53.757.27-Aug-2021 4669.00 4470.66 82.07 26.00 233.63 3039.49
   23:46:53.957.27-Aug-2021 4669.00 4470.50 82.07 26.00 233.83 3039.49
   23:46:54.157.27-Aug-2021 4669.00 4470.63 82.07 26.00 234.03 3039.49
   23:46:54.357.27-Aug-2021 4669.00 4470.63 82.07 26.00 234.23 3039.49
   23:46:54.557.27-Aug-2021 4669.00 4470.61 82.07 26.00 234.43 3039.49
   23:46:54.757.27-Aug-2021 4669.00 4470.52 82.07 26.00 234.63 3039.49
   23:46:54.957.27-Aug-2021 4669.00 4470.53 82.07 26.00 234.83 3039.49
   23:46:55.157.27-Aug-2021 4669.00 4470.79 82.07 26.00 235.03 3039.49
   23:46:55.357.27-Aug-2021 4669.00 4470.79 82.07 26.00 235.23 3039.49
   23:46:55.557.27-Aug-2021 4669.00 4470.76 82.07 26.00 235.43 3039.49
   23:46:55.757.27-Aug-2021 4669.00 4470.57 82.07 26.00 235.63 3039.49
   23:46:55.957.27-Aug-2021 4669.00 4470.72 82.07 26.00 235.83 3039.49
   23:46:56.157.27-Aug-2021 4669.00 4470.63 82.07 26.00 236.03 3039.49
   23:46:56.357.27-Aug-2021 4669.00 4470.63 82.07 26.00 236.23 3039.49
   23:46:56.557.27-Aug-2021 4669.00 4470.66 82.07 26.00 236.43 3039.49
   23:46:56.757.27-Aug-2021 4669.00 4470.72 82.07 26.00 236.63 3039.49
   23:46:56.957.27-Aug-2021 4669.00 4470.69 82.07 26.00 236.83 3039.49
   23:46:57.157.27-Aug-2021 4669.00 4470.72 82.07 26.00 237.03 3039.49
   23:46:57.357.27-Aug-2021 4669.00 4470.72 82.07 26.00 237.23 3039.49
   23:46:57.557.27-Aug-2021 4669.00 4470.72 82.07 26.00 237.43 3039.49
   23:46:57.757.27-Aug-2021 4669.00 4470.73 82.07 26.00 237.63 3039.49
   23:46:57.957.27-Aug-2021 4669.00 4470.57 82.07 26.00 237.83 3039.49
   23:46:58.157.27-Aug-2021 4669.00 4470.95 82.07 26.00 238.03 3039.49
   23:46:58.357.27-Aug-2021 4669.00 4470.95 82.07 26.00 238.23 3039.49
   23:46:58.557.27-Aug-2021 4669.00 4470.83 82.07 26.00 238.43 3039.49
   23:46:58.757.27-Aug-2021 4669.00 4470.83 82.07 26.00 238.63 3039.49
   23:46:58.957.27-Aug-2021 4669.00 4470.88 82.07 26.00 238.83 3039.49
   23:46:59.157.27-Aug-2021 4669.00 4470.82 82.07 26.00 239.03 3039.49
   23:46:59.357.27-Aug-2021 4669.00 4470.82 82.07 26.00 239.23 3039.49
   23:46:59.557.27-Aug-2021 4669.00 4470.86 82.07 26.00 239.43 3039.49
   23:46:59.757.27-Aug-2021 4669.00 4470.89 82.07 26.00 239.63 3039.49
   23:46:59.957.27-Aug-2021 4669.00 4470.87 82.07 26.00 239.83 3039.49
   23:47:00.158.27-Aug-2021 4669.00 4470.91 82.07 26.00 240.03 3039.49
   23:47:00.358.27-Aug-2021 4669.00 4470.91 82.07 26.00 240.23 3039.49
   23:47:00.558.27-Aug-2021 4669.00 4470.91 82.07 26.00 240.43 3039.49
   23:47:00.758.27-Aug-2021 4669.00 4470.89 82.07 26.00 240.63 3039.49
   23:47:00.958.27-Aug-2021 4669.00 4470.93 82.07 26.00 240.83 3039.49
   23:47:01.158.27-Aug-2021 4669.00 4470.91 82.07 26.00 241.03 3039.49
   23:47:01.358.27-Aug-2021 4669.00 4470.91 82.07 26.00 241.23 3039.49
   23:47:01.558.27-Aug-2021 4669.00 4471.15 82.07 26.00 241.43 3039.49
   23:47:01.758.27-Aug-2021 4669.00 4470.94 82.07 26.00 241.63 3039.49
   23:47:01.958.27-Aug-2021 4669.00 4471.07 82.07 26.00 241.83 3039.49
   23:47:02.158.27-Aug-2021 4669.00 4470.97 82.07 26.00 242.03 3039.49
   23:47:02.358.27-Aug-2021 4669.00 4470.97 82.07 26.00 242.23 3039.49
   23:47:02.558.27-Aug-2021 4669.00 4471.19 82.07 26.00 242.43 3039.49
   23:47:02.758.27-Aug-2021 4669.00 4471.02 82.07 26.00 242.63 3039.49
   23:47:02.958.27-Aug-2021 4669.00 4471.17 82.07 26.00 242.83 3039.49
   23:47:03.158.27-Aug-2021 4669.00 4471.01 82.07 26.00 243.03 3039.49
   23:47:03.358.27-Aug-2021 4669.00 4471.01 82.07 26.00 243.23 3039.49
   23:47:03.558.27-Aug-2021 4669.00 4471.06 82.07 26.00 243.43 3039.49
   23:47:03.758.27-Aug-2021 4669.00 4470.95 82.07 26.00 243.63 3039.49
   23:47:03.958.27-Aug-2021 4669.00 4471.29 82.07 26.00 243.83 3039.49
   23:47:04.158.27-Aug-2021 4669.00 4471.07 82.07 26.00 244.03 3039.49
   23:47:04.358.27-Aug-2021 4669.00 4471.07 82.07 26.00 244.23 3039.49
   23:47:04.558.27-Aug-2021 4669.00 4471.08 82.07 26.00 244.43 3039.49
   23:47:04.758.27-Aug-2021 4669.00 4471.23 82.07 26.00 244.63 3039.49
   23:47:04.958.27-Aug-2021 4669.00 4470.94 82.07 26.00 244.83 3039.49
   23:47:05.158.27-Aug-2021 4669.00 4471.43 82.07 26.00 245.03 3039.49
   23:47:05.358.27-Aug-2021 4669.00 4471.43 82.07 26.00 245.23 3039.49
   23:47:05.558.27-Aug-2021 4669.00 4471.33 82.07 26.00 245.43 3039.49
   23:47:05.758.27-Aug-2021 4669.00 4471.15 82.07 26.00 245.63 3039.49
   23:47:05.958.27-Aug-2021 4669.00 4471.29 82.07 26.00 245.83 3039.49
   23:47:06.158.27-Aug-2021 4669.00 4471.16 82.07 26.00 246.03 3039.49
   23:47:06.358.27-Aug-2021 4669.00 4471.16 82.07 26.00 246.23 3039.49
   23:47:06.558.27-Aug-2021 4669.00 4471.21 82.07 26.00 246.43 3039.49
   23:47:06.758.27-Aug-2021 4669.00 4471.28 82.07 26.00 246.63 3039.49
   23:47:06.958.27-Aug-2021 4669.00 4471.24 82.07 26.00 246.83 3039.49
   23:47:07.158.27-Aug-2021 4669.00 4471.28 82.07 26.00 247.03 3039.49
   23:47:07.358.27-Aug-2021 4669.00 4471.28 82.07 26.00 247.23 3039.49
   23:47:07.558.27-Aug-2021 4669.00 4471.28 82.07 26.00 247.43 3039.49
   23:47:07.758.27-Aug-2021 4669.00 4471.27 82.07 26.00 247.63 3039.49
   23:47:07.958.27-Aug-2021 4669.00 4471.21 82.07 26.00 247.83 3039.49
   23:47:08.159.27-Aug-2021 4669.00 4471.21 82.07 26.00 248.03 3039.49
   23:47:08.359.27-Aug-2021 4669.00 4471.21 82.07 26.00 248.23 3039.49
   23:47:08.559.27-Aug-2021 4669.00 4471.24 82.07 26.00 248.43 3039.49
