~Version Information
 VERS.                  2.0:   CWLS log ASCII Standard -VERSION 2.0
 WRAP.                   NO:   One line per depth step
~Well Information Block
#MNEM.UNIT     VALUE/NAME     DESCRIPTION
#---------     -----------    ---------------------------
 STRT.S             13:07:39 27-Aug-21: START TIME 13:07:39 27-Aug-21
 STOP.S             13:14:54 27-Aug-21: STOP TIME  13:14:54 27-Aug-21
 STEP.S                   0.00: STEP TIME
 NULL.                 -999.25: NULL VALUE
 DFWT.                        :  DIST FWL TEXT
 DFST.                        :  DIST FSL TEXT
 DMF .             Drill Floor:  DRILL MEAS FROM
 STIM.      20.00.00 17-Aug-21:  START TIME
 DATE.      19.00.00 29-Aug-21:  END TIME
 SPUD.               15-Aug-21:  SPUD DATE
 NREF.                    Grid:  NORTH REFERENCE
 HPTY.       Minimum Curvature:  HOLE POS TYPE
 DMOD.             Drill Model:  DRILL MOD DESC
 SVYD.                  Survey:  SURVEY DESC
 ILTD.               Lithology:  INTERP LTH DESC
 FTOP.          Formation Tops:  FORM TOPS DESC
 RIG .              East Azeri:  RIG NAME
 PDAT.          Mean Sea Level:  PERMANENT DATUM
 FLD .                     ACG:  FIELD NAME
 SON .        AZ-XX-0907180857:  JOB NUMBER
 CTRY.              Azerbaijan:  COUNTRY NAME
 WELL.                    D23x:  WELL NAME
 SRVC.     Turan Drilling and Engineering:  CONTRACTOR
 COMP.     BP Exploration (Caspian Sea) Ltd.:  COMPANY
 UWI .            /AZE00000214:  UNIQUE WELL IDENTIFIER
 API .            /AZE00000214:  API NUMBER
 MDS .        Operator Entered:  MAG DATA SOURCE
 BASE.              Azerbaijan:  LOGGING EQUIPMENT BASE LOCATION
 REGN.                   EESSA:  REGION
 PROV.                    Baku:  PROVINCE
 STAT.                    Baku:  STATE NAME
 MWDS.                    Baku:  MWD SHOP
 DOE .                     N/A:  DOE NUMBER
 DCON.         Sperry Drilling:  DIRECTNL CONTR
 UNIT.                     N/A:  LOGGING EQUIPMENT ID
 WTYP.                Deviated:  WELL TYPE
 CNTY.                        :  COUNTY
 LOC .                        :  LOCATION
 LMF .             Drill Floor:  LOG MEASURED FROM
 TVDS.m                  43.60:  TVDSS CORRECTN
 LATI.deg                40.02:  LATITUDE
 LONG.deg                51.45:  LONGITUDE
 WHNS.m                  -7.04:  WELL HEAD N/S
 WHEW.m                  -0.67:  WELL HEAD E/W
 UTMX.m              538762.90:  UTM X
 UTMY.m             4431871.34:  UTM Y
 DFWL.m                   0.00:  DISTANCE FWL
 DFSL.m                   0.00:  DISTANCE FSL
 SDEP.m                4127.00:  START DEPTH
 TDD .m                5084.50:  TOTAL DEPTH (DRILLER)
 VSDR.deg               140.47:  VERT SEC DIRECT
 GVFD.g                   1.00:  GRAVITY FIELD
 MFLD.nT              50362.00:  MAGNETIC FIELD
 MDIP.deg                59.48:  MAGNETIC DIP
 MDEC.deg                 6.47:  MAGNETIC DECL
 GRDC.deg                 0.31:  GRID CORRECTION
 AZTC.deg                 6.16:  AZM TOTAL CORR
 EPD .m                   0.00:  ELEVATION
 EGL .m                   0.00:  GROUND ELEVATION
 WDMS.m                 151.80:  WD ELEV
 APD .m                  43.60:  DEPTH ABOVE PD
 DEP .m                4092.57:  DEPTH
 AGAP.m                  43.60:  AIR GAP
 VSEW.m                  -0.67:  VERT SEC E/W
 VSNS.m                  -7.04:  VERT SEC N/S
 EKB .m                  43.60:  KB ELEVATION
 EDF .m                  43.60:  DF ELEVATION
 TDL .m                 957.50:  TOTAL DEPTH (LOGGER)
 VSC .                       0:  VS TO CLOSURE
 MAGU.                 1851413:  MAGUTM CHECKSUM
~Parameter Information Block
#MNEM.UNIT       Value        Description
#---------     -----------    ---------------------------
 AV  .mps                 1.50:  Ann Velocity 
 AVMX.mps                 2.00:  Max Ann Veloc 
 AZIF.deg               184.66:  Azm, Final 
 BHAT.        Rotary Steerable:  BHA Type 
 BREV.rev               300.00:  Rev Bit Total 
 BROT.°/30m              -0.50:  Build Rotating 
 BS  .in                  8.50:  Bit Size 
 BSZ .in                  8.50:  Bit Size 
 BTPL.psig              370.00:  Bit Press Loss 
 CABU.                      No:  Customer Abuse 
 CGEO.      Behruz Shahbaliyev:  Customer Geo 
 COMM.                     ¤R:  Run Comments 1 
 TCS .hr                140.08:  Time Ciculation Ended 
 CV  .mps                 3.00:  Crit Velocity 
 CVMX.mps                 3.20:  Max Crit Veloc 
 DD1 .            Musa Ahmadov:  Direct Drillr 1 
 DD2 .           Hamid Ahmadov:  Direct Drillr 2 
 DDSV.               Geo-Pilot:  DD Service 
 DEFF.%                  98.40:  % Det Eff 
 DLRX.°/30m               3.40:  Dogleg Rot Max 
 DLSO.°/30m               1.45:  Dogleg Oriented 
 DLSX.°/30m               3.40:  Dogleg Str Max 
 DRET.      18.40.00 29-Aug-21:  Drill End Time 
 DRST.      21.00.00 20-Aug-21:  Drill Start Tim 
 DTIM.hr                 69.47:  Time Drilling 
 EDEP.m                5084.50:  End Depth 
 ENG1.      Artemiy Matviyanov:  Engineer 1 
 ENG2.         Almaz Almadatov:  Engineer 2 
 ETIM.      18.40.00 29-Aug-21:  End Time 
 FLOI.gpm               500.00:  Flow In 
 FLON.gpm               400.00:  Flow In Min 
 FLOS.cptm                0.00:  Fluid Loss 
 FLOX.gpm               500.00:  Flow In Max 
 DFT .        Mineral Oil Base:  Mud Type 
 HFLO.                      No:  High Flow 
 HPRE.                      No:  High Pressure 
 HTEM.                      No:  High Temp 
 HYDO.m                   1.80:  Hydro Offset 
 IFIN.deg                25.62:  Inc, Final 
 IMAX.deg                48.69:  Inc Max 
 IMIN.deg                24.01:  Inc Min 
 IMND.m                4962.57:  Inc Min Depth 
 IMXD.m                4119.01:  Inc Max Depth 
 JARR.                      No:  Jarring 
 LETM.      18.40.00 29-Aug-21:  Log End Time 
 LOST.hr                     0:  Lost Rig Time 
 LSTM.      21.00.00 20-Aug-21:  Log Start Time 
 MDCL.ppm             41500.00:  Mud Chlorides 
 MDES.     Inversion Oil/Synthetic:  Mud Desc 
 DFD .sg                  1.56:  Mud Density 
 MDMN.sg                  1.56:  Dens Mud Min 
 MDMX.sg                  1.56:  Dens Mud Max 
 MOIL.                      70:  Run Mud Oil % 
 MOWR.                   70:30:  Run Mud OWR 
 MSND.                     0.2:  Run Mud Sand % 
 MSOL.                    23.3:  Run Mud Solids% 
 DFV .spqt               78.00:  Mud Viscosity 
 MWOD.in                  6.75:  MWD Tool OD 
 MWSI.                      No:  Serv Intrp, MWD 
 OTIM.hr                218.30:  Time Operating 
 PCON.           Look Like New:  Pad Condition 
 PMAX.psia            11015.30:  Press Op, Max 
 PV  .cP                 38.00:  Mud PV 
 RUN .                     300:  Run Number 
 ROPA.m/hr               15.00:  ROP Avg 
 ROPN.m/hr                9.00:  ROP Min 
 ROPX.m/hr               17.00:  ROP Max 
 RPMA.rpm               120.00:  RPM Surface Avg 
 RPMN.rpm                90.00:  RPM Surface Min 
 RPMX.rpm               140.00:  RPM Surface Max 
 RRUN.                     300:  Rig Run Number 
 RTIM.hr                 31.53:  Time Reaming 
 SAZI.deg               331.64:  Azm, Start 
 SDEP.m                4127.00:  Start Depth 
 SIDD.                      No:  Serv Intrp, DD 
 SINC.deg                48.43:  Inc, Start 
 SPPA.psig             5830.00:  SPP Avg 
 SPPN.psig             5600.00:  SPP Min 
 SPPX.psig             5900.00:  SPP Max 
 STIM.      21.00.00 20-Aug-21:  Start Time 
 SVCS.                 DD, MWD:  Services 
 SVER.                    9.20:  Sperry Version 
 TDAT.m                 957.50:  Tot Depth Attmp 
 TDDF.                      No:  Trip for DD 
 TDLG.m                 957.50:  Tot Depth Loggd 
 TFF .                      No:  Trip for Fail 
 TQAA.f-kp               15.00:  Torque Abs Avg 
 TQAN.f-kp               12.00:  Torque Abs Min 
 TQAX.f-kp               19.00:  Torque Abs Max 
 TRRT.°/30m              -3.40:  Turn Rotating 
 MRT .                  EWR-M5:  Maximum Recorded Temperature 
 TTMX.degC              100.00:  Max Tool Temp 
 VS01.                90639251:  Virtual Str1 SN 
 VS02.                90634715:  Virtual Str2 SN 
 VS03.                90652479:  Virtual Str3 SN 
 VS04.                90642262:  Virtual Str4 SN 
 WBMN.klb                 0.00:  WOB Min 
 WITN.           Murad Guliyev:  Customer Rep 
 WITN.          Yashar Gaziyev:  Customer Rep 2 
 WOBA.klb                 9.00:  WOB Avg 
 WOBX.klb                12.00:  WOB Max 
 YP  .lhf2               30.00:  Yield Point 
~Curve Information Block
#MNEM.UNIT                 API CODE     Curve Description
#---------               -----------    ---------------------------
 TIME.HHMMSS            00 000 000 000:  GT Time & Date
 GTDEPTH.m              00 000 000 000:  GT Depth
 GTPQH.psia             00 000 000 000:  GT HR Quartz Pressure
 GTTQ.degC              00 000 000 000:  GT Quartz Temperature
 GTTN.NONE              00 000 000 000:  GT Test Number
 GTET.sec               00 000 000 000:  GT Elapsed Test Time
 GTTVD.m                00 000 000 000:  GT True Vertical Depth
#Other Information
#
#WARRANTY: Halliburton will use its best efforts to furnish customers with 
#accurate information and interpretations that are part of, and incident to, the services 
#provided.  However, Halliburton cannot and does not warrant the accuracy 
#or correctness of such information and interpretations.  Under no circumstances should any 
#such information or interpretation be relied upon as the sole basis for any drilling, 
#completion, production, or financial decision or any procedure involving any risk to the 
#safety of any drilling venture, drilling rig or its crew or any other third party.  The 
#Customer has full responsibility for all drilling, completion and production operation.  
#Halliburton makes no representations or warranties, either expressed or 
#implied, including, but not limited to, the implied warranties of merchantability or fitness 
#for a particular purpose, with respect to the services rendered.  In no event will 
#Halliburton be liable for failure to obtain any particular results or for 
#any damages, including, but not limited to, indirect, special or consequential damages, 
#resulting from the use of any information or interpretation provided by Halliburton.
#
~A           TIME           GTDEPTH  GTPQH  GTTQ  GTTN   GTET   GTTVD  
# ...
   13:14:04.522.27-Aug-2021 4901.50 7768.96 84.94 13.00 384.59 3249.95
   13:14:04.722.27-Aug-2021 4901.50 7767.13 84.95 13.00 384.79 3249.95
   13:14:04.922.27-Aug-2021 4901.50 7767.10 84.95 13.00 384.99 3249.95
   13:14:05.123.27-Aug-2021 4901.50 7766.84 84.95 13.00 385.19 3249.95
   13:14:05.323.27-Aug-2021 4901.50 7766.98 84.95 13.00 385.39 3249.95
   13:14:05.523.27-Aug-2021 4901.50 7766.98 84.95 13.00 385.59 3249.95
   13:14:05.723.27-Aug-2021 4901.50 7767.44 84.95 13.00 385.79 3249.95
   13:14:05.923.27-Aug-2021 4901.50 7767.72 84.95 13.00 385.99 3249.95
   13:14:06.124.27-Aug-2021 4901.50 7768.06 84.96 13.00 386.19 3249.95
   13:14:06.324.27-Aug-2021 4901.50 7768.10 84.96 13.00 386.39 3249.95
   13:14:06.524.27-Aug-2021 4901.50 7768.10 84.96 13.00 386.59 3249.95
   13:14:06.724.27-Aug-2021 4901.50 7767.73 84.96 13.00 386.79 3249.95
   13:14:06.925.27-Aug-2021 4901.50 7767.59 84.96 13.00 386.99 3249.95
   13:14:07.125.27-Aug-2021 4901.50 7767.47 84.96 13.00 387.19 3249.95
   13:14:07.325.27-Aug-2021 4901.50 7771.91 84.96 13.00 387.39 3249.95
   13:14:07.525.27-Aug-2021 4901.50 7771.91 84.96 13.00 387.59 3249.95
   13:14:07.725.27-Aug-2021 4901.50 7769.18 84.96 13.00 387.79 3249.95
   13:14:07.926.27-Aug-2021 4901.50 7768.09 84.96 13.00 387.99 3249.95
   13:14:08.126.27-Aug-2021 4901.50 7770.69 84.96 13.00 388.19 3249.95
   13:14:08.326.27-Aug-2021 4901.50 7768.31 84.96 13.00 388.39 3249.95
   13:14:08.526.27-Aug-2021 4901.50 7768.31 84.96 13.00 388.60 3249.95
   13:14:08.726.27-Aug-2021 4901.50 7767.66 84.96 13.00 388.80 3249.95
   13:14:08.927.27-Aug-2021 4901.50 7767.68 84.96 13.00 389.00 3249.95
   13:14:09.127.27-Aug-2021 4901.50 7771.00 84.97 13.00 389.20 3249.95
   13:14:09.327.27-Aug-2021 4901.50 7768.22 84.97 13.00 389.40 3249.95
   13:14:09.527.27-Aug-2021 4901.50 7768.22 84.97 13.00 389.60 3249.95
   13:14:09.727.27-Aug-2021 4901.50 7768.49 84.97 13.00 389.80 3249.95
   13:14:09.928.27-Aug-2021 4901.50 7768.76 84.97 13.00 390.00 3249.95
   13:14:10.128.27-Aug-2021 4901.50 7768.25 84.97 13.00 390.20 3249.95
   13:14:10.328.27-Aug-2021 4901.50 7768.09 84.97 13.00 390.40 3249.95
   13:14:10.528.27-Aug-2021 4901.50 7768.09 84.97 13.00 390.60 3249.95
   13:14:10.728.27-Aug-2021 4901.50 7764.60 84.97 13.00 390.80 3249.95
   13:14:10.929.27-Aug-2021 4901.50 7769.19 84.97 13.00 391.00 3249.95
   13:14:11.129.27-Aug-2021 4901.50 7768.23 84.97 13.00 391.20 3249.95
   13:14:11.329.27-Aug-2021 4901.50 7767.92 84.97 13.00 391.40 3249.95
   13:14:11.529.27-Aug-2021 4901.50 7767.92 84.97 13.00 391.60 3249.95
   13:14:11.729.27-Aug-2021 4901.50 7767.46 84.97 13.00 391.80 3249.95
   13:14:11.930.27-Aug-2021 4901.50 7767.50 84.97 13.00 392.00 3249.95
   13:14:12.130.27-Aug-2021 4901.50 7767.59 84.97 13.00 392.20 3249.95
   13:14:12.330.27-Aug-2021 4901.50 7767.68 84.97 13.00 392.40 3249.95
   13:14:12.530.27-Aug-2021 4901.50 7767.68 84.97 13.00 392.60 3249.95
   13:14:12.730.27-Aug-2021 4901.50 7768.41 84.97 13.00 392.80 3249.95
   13:14:12.931.27-Aug-2021 4901.50 7768.46 84.97 13.00 393.00 3249.95
   13:14:13.131.27-Aug-2021 4901.50 7768.24 84.97 13.00 393.20 3249.95
   13:14:13.331.27-Aug-2021 4901.50 7768.07 84.97 13.00 393.40 3249.95
   13:14:13.531.27-Aug-2021 4901.50 7768.07 84.97 13.00 393.60 3249.95
   13:14:13.731.27-Aug-2021 4901.50 7770.99 84.97 13.00 393.80 3249.95
   13:14:13.932.27-Aug-2021 4901.50 7768.11 84.97 13.00 394.00 3249.95
   13:14:14.132.27-Aug-2021 4901.50 7769.22 84.97 13.00 394.20 3249.95
   13:14:14.332.27-Aug-2021 4901.50 7768.15 84.97 13.00 394.40 3249.95
   13:14:14.532.27-Aug-2021 4901.50 7768.15 84.97 13.00 394.60 3249.95
   13:14:14.732.27-Aug-2021 4901.50 7767.60 84.97 13.00 394.80 3249.95
   13:14:14.933.27-Aug-2021 4901.50 7767.31 84.97 13.00 395.00 3249.95
   13:14:15.133.27-Aug-2021 4901.50 7767.66 84.97 13.00 395.20 3249.95
   13:14:15.333.27-Aug-2021 4901.50 7767.48 84.97 13.00 395.40 3249.95
   13:14:15.533.27-Aug-2021 4901.50 7767.48 84.97 13.00 395.60 3249.95
   13:14:15.733.27-Aug-2021 4901.50 7768.36 84.97 13.00 395.80 3249.95
   13:14:15.934.27-Aug-2021 4901.50 7768.51 84.97 13.00 396.00 3249.95
   13:14:16.134.27-Aug-2021 4901.50 7768.81 84.97 13.00 396.20 3249.95
   13:14:16.334.27-Aug-2021 4901.50 7768.68 84.97 13.00 396.40 3249.95
   13:14:16.534.27-Aug-2021 4901.50 7768.68 84.97 13.00 396.60 3249.95
   13:14:16.734.27-Aug-2021 4901.50 7768.30 84.97 13.00 396.80 3249.95
   13:14:16.935.27-Aug-2021 4901.50 7768.12 84.97 13.00 397.00 3249.95
   13:14:17.135.27-Aug-2021 4901.50 7770.99 84.97 13.00 397.20 3249.95
   13:14:17.335.27-Aug-2021 4901.50 7767.95 84.97 13.00 397.40 3249.95
   13:14:17.535.27-Aug-2021 4901.50 7767.95 84.97 13.00 397.60 3249.95
   13:14:17.736.27-Aug-2021 4901.50 7767.86 84.96 13.00 397.80 3249.95
   13:14:17.936.27-Aug-2021 4901.50 7767.68 84.96 13.00 398.00 3249.95
   13:14:18.136.27-Aug-2021 4901.50 7770.37 84.96 13.00 398.20 3249.95
   13:14:18.336.27-Aug-2021 4901.50 7767.60 84.96 13.00 398.41 3249.95
   13:14:18.536.27-Aug-2021 4901.50 7767.60 84.96 13.00 398.61 3249.95
   13:14:18.737.27-Aug-2021 4901.50 7767.19 84.96 13.00 398.81 3249.95
   13:14:18.937.27-Aug-2021 4901.50 7767.04 84.96 13.00 399.01 3249.95
   13:14:19.137.27-Aug-2021 4901.50 7767.58 84.96 13.00 399.21 3249.95
   13:14:19.337.27-Aug-2021 4901.50 7771.02 84.96 13.00 399.41 3249.95
   13:14:19.537.27-Aug-2021 4901.50 7771.02 84.96 13.00 399.61 3249.95
   13:14:19.738.27-Aug-2021 4901.50 7767.76 84.96 13.00 399.81 3249.95
   13:14:19.938.27-Aug-2021 4901.50 7768.62 84.96 13.00 400.01 3249.95
   13:14:20.138.27-Aug-2021 4901.50 7768.28 84.96 13.00 400.21 3249.95
   13:14:20.338.27-Aug-2021 4901.50 7768.18 84.96 13.00 400.41 3249.95
   13:14:20.538.27-Aug-2021 4901.50 7768.18 84.96 13.00 400.61 3249.95
   13:14:20.739.27-Aug-2021 4901.50 7771.00 84.96 13.00 400.81 3249.95
   13:14:20.939.27-Aug-2021 4901.50 7767.51 84.96 13.00 401.01 3249.95
   13:14:21.139.27-Aug-2021 4901.50 7768.58 84.96 13.00 401.21 3249.95
   13:14:21.339.27-Aug-2021 4901.50 7768.11 84.96 13.00 401.41 3249.95
   13:14:21.539.27-Aug-2021 4901.50 7768.11 84.96 13.00 401.61 3249.95
   13:14:21.740.27-Aug-2021 4901.50 7767.81 84.96 13.00 401.81 3249.95
   13:14:21.940.27-Aug-2021 4901.50 7767.53 84.96 13.00 402.01 3249.95
   13:14:22.140.27-Aug-2021 4901.50 7767.75 84.96 13.00 402.21 3249.95
   13:14:22.340.27-Aug-2021 4901.50 7767.24 84.96 13.00 402.41 3249.95
   13:14:22.540.27-Aug-2021 4901.50 7767.24 84.96 13.00 402.61 3249.95
   13:14:22.741.27-Aug-2021 4901.50 7767.99 84.96 13.00 402.81 3249.95
   13:14:22.941.27-Aug-2021 4901.50 7768.15 84.96 13.00 403.01 3249.95
   13:14:23.141.27-Aug-2021 4901.50 7768.31 84.96 13.00 403.21 3249.95
   13:14:23.341.27-Aug-2021 4901.50 7768.04 84.96 13.00 403.41 3249.95
   13:14:23.541.27-Aug-2021 4901.50 7768.04 84.96 13.00 403.61 3249.95
   13:14:23.742.27-Aug-2021 4901.50 7767.78 84.96 13.00 403.81 3249.95
   13:14:23.942.27-Aug-2021 4901.50 7767.71 84.96 13.00 404.01 3249.95
   13:14:24.142.27-Aug-2021 4901.50 7770.79 84.96 13.00 404.21 3249.95
   13:14:24.342.27-Aug-2021 4901.50 7768.18 84.96 13.00 404.41 3249.95
   13:14:24.542.27-Aug-2021 4901.50 7768.18 84.96 13.00 404.61 3249.95
   13:14:24.743.27-Aug-2021 4901.50 7767.57 84.96 13.00 404.81 3249.95
   13:14:24.943.27-Aug-2021 4901.50 7767.32 84.96 13.00 405.01 3249.95
   13:14:25.143.27-Aug-2021 4901.50 7767.34 84.96 13.00 405.21 3249.95
   13:14:25.343.27-Aug-2021 4901.50 7767.59 84.96 13.00 405.41 3249.95
   13:14:25.543.27-Aug-2021 4901.50 7767.59 84.96 13.00 405.61 3249.95
   13:14:25.744.27-Aug-2021 4901.50 7767.59 84.95 13.00 405.81 3249.95
   13:14:25.944.27-Aug-2021 4901.50 7767.98 84.95 13.00 406.01 3249.95
   13:14:26.144.27-Aug-2021 4901.50 7768.20 84.95 13.00 406.21 3249.95
   13:14:26.344.27-Aug-2021 4901.50 7768.39 84.95 13.00 406.41 3249.95
   13:14:26.544.27-Aug-2021 4901.50 7768.39 84.95 13.00 406.61 3249.95
   13:14:26.745.27-Aug-2021 4901.50 7768.08 84.95 13.00 406.81 3249.95
   13:14:26.945.27-Aug-2021 4901.50 7767.85 84.95 13.00 407.01 3249.95
