~Version Information
 VERS.                  2.0:   CWLS log ASCII Standard -VERSION 2.0
 WRAP.                   NO:   One line per depth step
~Well Information Block
#MNEM.UNIT     VALUE/NAME     DESCRIPTION
#---------     -----------    ---------------------------
 STRT.S             11:48:55 27-Aug-21: START TIME 11:48:55 27-Aug-21
 STOP.S             11:56:03 27-Aug-21: STOP TIME  11:56:03 27-Aug-21
 STEP.S                   0.00: STEP TIME
 NULL.                 -999.25: NULL VALUE
 DFWT.                        :  DIST FWL TEXT
 DFST.                        :  DIST FSL TEXT
 DMF .             Drill Floor:  DRILL MEAS FROM
 STIM.      20.00.00 17-Aug-21:  START TIME
 DATE.      19.00.00 29-Aug-21:  END TIME
 SPUD.               15-Aug-21:  SPUD DATE
 NREF.                    Grid:  NORTH REFERENCE
 HPTY.       Minimum Curvature:  HOLE POS TYPE
 DMOD.             Drill Model:  DRILL MOD DESC
 SVYD.                  Survey:  SURVEY DESC
 ILTD.               Lithology:  INTERP LTH DESC
 FTOP.          Formation Tops:  FORM TOPS DESC
 RIG .              East Azeri:  RIG NAME
 PDAT.          Mean Sea Level:  PERMANENT DATUM
 FLD .                     ACG:  FIELD NAME
 SON .        AZ-XX-0907180857:  JOB NUMBER
 CTRY.              Azerbaijan:  COUNTRY NAME
 WELL.                    D23x:  WELL NAME
 SRVC.     Turan Drilling and Engineering:  CONTRACTOR
 COMP.     BP Exploration (Caspian Sea) Ltd.:  COMPANY
 UWI .            /AZE00000214:  UNIQUE WELL IDENTIFIER
 API .            /AZE00000214:  API NUMBER
 MDS .        Operator Entered:  MAG DATA SOURCE
 BASE.              Azerbaijan:  LOGGING EQUIPMENT BASE LOCATION
 REGN.                   EESSA:  REGION
 PROV.                    Baku:  PROVINCE
 STAT.                    Baku:  STATE NAME
 MWDS.                    Baku:  MWD SHOP
 DOE .                     N/A:  DOE NUMBER
 DCON.         Sperry Drilling:  DIRECTNL CONTR
 UNIT.                     N/A:  LOGGING EQUIPMENT ID
 WTYP.                Deviated:  WELL TYPE
 CNTY.                        :  COUNTY
 LOC .                        :  LOCATION
 LMF .             Drill Floor:  LOG MEASURED FROM
 TVDS.m                  43.60:  TVDSS CORRECTN
 LATI.deg                40.02:  LATITUDE
 LONG.deg                51.45:  LONGITUDE
 WHNS.m                  -7.04:  WELL HEAD N/S
 WHEW.m                  -0.67:  WELL HEAD E/W
 UTMX.m              538762.90:  UTM X
 UTMY.m             4431871.34:  UTM Y
 DFWL.m                   0.00:  DISTANCE FWL
 DFSL.m                   0.00:  DISTANCE FSL
 SDEP.m                4127.00:  START DEPTH
 TDD .m                5084.50:  TOTAL DEPTH (DRILLER)
 VSDR.deg               140.47:  VERT SEC DIRECT
 GVFD.g                   1.00:  GRAVITY FIELD
 MFLD.nT              50362.00:  MAGNETIC FIELD
 MDIP.deg                59.48:  MAGNETIC DIP
 MDEC.deg                 6.47:  MAGNETIC DECL
 GRDC.deg                 0.31:  GRID CORRECTION
 AZTC.deg                 6.16:  AZM TOTAL CORR
 EPD .m                   0.00:  ELEVATION
 EGL .m                   0.00:  GROUND ELEVATION
 WDMS.m                 151.80:  WD ELEV
 APD .m                  43.60:  DEPTH ABOVE PD
 DEP .m                4092.57:  DEPTH
 AGAP.m                  43.60:  AIR GAP
 VSEW.m                  -0.67:  VERT SEC E/W
 VSNS.m                  -7.04:  VERT SEC N/S
 EKB .m                  43.60:  KB ELEVATION
 EDF .m                  43.60:  DF ELEVATION
 TDL .m                 957.50:  TOTAL DEPTH (LOGGER)
 VSC .                       0:  VS TO CLOSURE
 MAGU.                 1851413:  MAGUTM CHECKSUM
~Parameter Information Block
#MNEM.UNIT       Value        Description
#---------     -----------    ---------------------------
 AV  .mps                 1.50:  Ann Velocity 
 AVMX.mps                 2.00:  Max Ann Veloc 
 AZIF.deg               184.66:  Azm, Final 
 BHAT.        Rotary Steerable:  BHA Type 
 BREV.rev               300.00:  Rev Bit Total 
 BROT.°/30m              -0.50:  Build Rotating 
 BS  .in                  8.50:  Bit Size 
 BSZ .in                  8.50:  Bit Size 
 BTPL.psig              370.00:  Bit Press Loss 
 CABU.                      No:  Customer Abuse 
 CGEO.      Behruz Shahbaliyev:  Customer Geo 
 COMM.                     L*e:  Run Comments 1 
 TCS .hr                140.08:  Time Ciculation Ended 
 CV  .mps                 3.00:  Crit Velocity 
 CVMX.mps                 3.20:  Max Crit Veloc 
 DD1 .            Musa Ahmadov:  Direct Drillr 1 
 DD2 .           Hamid Ahmadov:  Direct Drillr 2 
 DDSV.               Geo-Pilot:  DD Service 
 DEFF.%                  98.40:  % Det Eff 
 DLRX.°/30m               3.40:  Dogleg Rot Max 
 DLSO.°/30m               1.45:  Dogleg Oriented 
 DLSX.°/30m               3.40:  Dogleg Str Max 
 DRET.      18.40.00 29-Aug-21:  Drill End Time 
 DRST.      21.00.00 20-Aug-21:  Drill Start Tim 
 DTIM.hr                 69.47:  Time Drilling 
 EDEP.m                5084.50:  End Depth 
 ENG1.      Artemiy Matviyanov:  Engineer 1 
 ENG2.         Almaz Almadatov:  Engineer 2 
 ETIM.      18.40.00 29-Aug-21:  End Time 
 FLOI.gpm               500.00:  Flow In 
 FLON.gpm               400.00:  Flow In Min 
 FLOS.cptm                0.00:  Fluid Loss 
 FLOX.gpm               500.00:  Flow In Max 
 DFT .        Mineral Oil Base:  Mud Type 
 HFLO.                      No:  High Flow 
 HPRE.                      No:  High Pressure 
 HTEM.                      No:  High Temp 
 HYDO.m                   1.80:  Hydro Offset 
 IFIN.deg                25.62:  Inc, Final 
 IMAX.deg                48.69:  Inc Max 
 IMIN.deg                24.01:  Inc Min 
 IMND.m                4962.57:  Inc Min Depth 
 IMXD.m                4119.01:  Inc Max Depth 
 JARR.                      No:  Jarring 
 LETM.      18.40.00 29-Aug-21:  Log End Time 
 LOST.hr                     0:  Lost Rig Time 
 LSTM.      21.00.00 20-Aug-21:  Log Start Time 
 MDCL.ppm             41500.00:  Mud Chlorides 
 MDES.     Inversion Oil/Synthetic:  Mud Desc 
 DFD .sg                  1.56:  Mud Density 
 MDMN.sg                  1.56:  Dens Mud Min 
 MDMX.sg                  1.56:  Dens Mud Max 
 MOIL.                      70:  Run Mud Oil % 
 MOWR.                   70:30:  Run Mud OWR 
 MSND.                     0.2:  Run Mud Sand % 
 MSOL.                    23.3:  Run Mud Solids% 
 DFV .spqt               78.00:  Mud Viscosity 
 MWOD.in                  6.75:  MWD Tool OD 
 MWSI.                      No:  Serv Intrp, MWD 
 OTIM.hr                218.30:  Time Operating 
 PCON.           Look Like New:  Pad Condition 
 PMAX.psia            11015.30:  Press Op, Max 
 PV  .cP                 38.00:  Mud PV 
 RUN .                     300:  Run Number 
 ROPA.m/hr               15.00:  ROP Avg 
 ROPN.m/hr                9.00:  ROP Min 
 ROPX.m/hr               17.00:  ROP Max 
 RPMA.rpm               120.00:  RPM Surface Avg 
 RPMN.rpm                90.00:  RPM Surface Min 
 RPMX.rpm               140.00:  RPM Surface Max 
 RRUN.                     300:  Rig Run Number 
 RTIM.hr                 31.53:  Time Reaming 
 SAZI.deg               331.64:  Azm, Start 
 SDEP.m                4127.00:  Start Depth 
 SIDD.                      No:  Serv Intrp, DD 
 SINC.deg                48.43:  Inc, Start 
 SPPA.psig             5830.00:  SPP Avg 
 SPPN.psig             5600.00:  SPP Min 
 SPPX.psig             5900.00:  SPP Max 
 STIM.      21.00.00 20-Aug-21:  Start Time 
 SVCS.                 DD, MWD:  Services 
 SVER.                    9.20:  Sperry Version 
 TDAT.m                 957.50:  Tot Depth Attmp 
 TDDF.                      No:  Trip for DD 
 TDLG.m                 957.50:  Tot Depth Loggd 
 TFF .                      No:  Trip for Fail 
 TQAA.f-kp               15.00:  Torque Abs Avg 
 TQAN.f-kp               12.00:  Torque Abs Min 
 TQAX.f-kp               19.00:  Torque Abs Max 
 TRRT.°/30m              -3.40:  Turn Rotating 
 MRT .                  EWR-M5:  Maximum Recorded Temperature 
 TTMX.degC              100.00:  Max Tool Temp 
 VS01.                90639251:  Virtual Str1 SN 
 VS02.                90634715:  Virtual Str2 SN 
 VS03.                90652479:  Virtual Str3 SN 
 VS04.                90642262:  Virtual Str4 SN 
 WBMN.klb                 0.00:  WOB Min 
 WITN.           Murad Guliyev:  Customer Rep 
 WITN.          Yashar Gaziyev:  Customer Rep 2 
 WOBA.klb                 9.00:  WOB Avg 
 WOBX.klb                12.00:  WOB Max 
 YP  .lhf2               30.00:  Yield Point 
~Curve Information Block
#MNEM.UNIT                 API CODE     Curve Description
#---------               -----------    ---------------------------
 TIME.HHMMSS            00 000 000 000:  GT Time & Date
 GTDEPTH.m              00 000 000 000:  GT Depth
 GTPQH.psia             00 000 000 000:  GT HR Quartz Pressure
 GTTQ.degC              00 000 000 000:  GT Quartz Temperature
 GTTN.NONE              00 000 000 000:  GT Test Number
 GTET.sec               00 000 000 000:  GT Elapsed Test Time
 GTTVD.m                00 000 000 000:  GT True Vertical Depth
#Other Information
#
#WARRANTY: Halliburton will use its best efforts to furnish customers with 
#accurate information and interpretations that are part of, and incident to, the services 
#provided.  However, Halliburton cannot and does not warrant the accuracy 
#or correctness of such information and interpretations.  Under no circumstances should any 
#such information or interpretation be relied upon as the sole basis for any drilling, 
#completion, production, or financial decision or any procedure involving any risk to the 
#safety of any drilling venture, drilling rig or its crew or any other third party.  The 
#Customer has full responsibility for all drilling, completion and production operation.  
#Halliburton makes no representations or warranties, either expressed or 
#implied, including, but not limited to, the implied warranties of merchantability or fitness 
#for a particular purpose, with respect to the services rendered.  In no event will 
#Halliburton be liable for failure to obtain any particular results or for 
#any damages, including, but not limited to, indirect, special or consequential damages, 
#resulting from the use of any information or interpretation provided by Halliburton.
#
~A           TIME           GTDEPTH  GTPQH  GTTQ  GTTN   GTET   GTTVD  
# ...
   11:51:33.904.27-Aug-2021 4914.00 7807.28 85.29 11.00 158.26 3261.31
   11:51:34.104.27-Aug-2021 4914.00 7807.04 85.29 11.00 158.46 3261.31
   11:51:34.304.27-Aug-2021 4914.00 7807.55 85.29 11.00 158.66 3261.31
   11:51:34.504.27-Aug-2021 4914.00 7807.90 85.29 11.00 158.86 3261.31
   11:51:34.704.27-Aug-2021 4914.00 7808.35 85.29 11.00 159.06 3261.31
   11:51:34.904.27-Aug-2021 4914.00 7808.35 85.29 11.00 159.26 3261.31
   11:51:35.104.27-Aug-2021 4914.00 7808.50 85.29 11.00 159.46 3261.31
   11:51:35.304.27-Aug-2021 4914.00 7808.33 85.29 11.00 159.66 3261.31
   11:51:35.505.27-Aug-2021 4914.00 7808.02 85.29 11.00 159.86 3261.31
   11:51:35.705.27-Aug-2021 4914.00 7808.00 85.29 11.00 160.06 3261.31
   11:51:35.905.27-Aug-2021 4914.00 7808.00 85.29 11.00 160.26 3261.31
   11:51:36.105.27-Aug-2021 4914.00 7811.45 85.29 11.00 160.46 3261.31
   11:51:36.305.27-Aug-2021 4914.00 7807.42 85.29 11.00 160.66 3261.31
   11:51:36.505.27-Aug-2021 4914.00 7808.57 85.29 11.00 160.86 3261.31
   11:51:36.705.27-Aug-2021 4914.00 7807.55 85.29 11.00 161.06 3261.31
   11:51:36.905.27-Aug-2021 4914.00 7807.55 85.29 11.00 161.26 3261.31
   11:51:37.105.27-Aug-2021 4914.00 7812.18 85.29 11.00 161.46 3261.31
   11:51:37.305.27-Aug-2021 4914.00 7805.93 85.29 11.00 161.66 3261.31
   11:51:37.505.27-Aug-2021 4914.00 7808.64 85.29 11.00 161.86 3261.31
   11:51:37.705.27-Aug-2021 4914.00 7807.59 85.29 11.00 162.06 3261.31
   11:51:37.905.27-Aug-2021 4914.00 7807.59 85.29 11.00 162.26 3261.31
   11:51:38.105.27-Aug-2021 4914.00 7810.41 85.29 11.00 162.46 3261.31
   11:51:38.306.27-Aug-2021 4914.00 7809.19 85.29 11.00 162.66 3261.31
   11:51:38.506.27-Aug-2021 4914.00 7808.85 85.29 11.00 162.86 3261.31
   11:51:38.706.27-Aug-2021 4914.00 7807.59 85.29 11.00 163.06 3261.31
   11:51:38.906.27-Aug-2021 4914.00 7807.59 85.29 11.00 163.26 3261.31
   11:51:39.106.27-Aug-2021 4914.00 7807.60 85.29 11.00 163.46 3261.31
   11:51:39.306.27-Aug-2021 4914.00 7812.65 85.29 11.00 163.66 3261.31
   11:51:39.506.27-Aug-2021 4914.00 7805.93 85.29 11.00 163.86 3261.31
   11:51:39.706.27-Aug-2021 4914.00 7809.22 85.29 11.00 164.06 3261.31
   11:51:39.906.27-Aug-2021 4914.00 7809.22 85.29 11.00 164.26 3261.31
   11:51:40.106.27-Aug-2021 4914.00 7807.77 85.29 11.00 164.46 3261.31
   11:51:40.306.27-Aug-2021 4914.00 7808.07 85.29 11.00 164.66 3261.31
   11:51:40.506.27-Aug-2021 4914.00 7807.50 85.29 11.00 164.86 3261.31
   11:51:40.706.27-Aug-2021 4914.00 7808.09 85.29 11.00 165.06 3261.31
   11:51:40.906.27-Aug-2021 4914.00 7808.09 85.29 11.00 165.26 3261.31
   11:51:41.107.27-Aug-2021 4914.00 7807.68 85.28 11.00 165.46 3261.31
   11:51:41.307.27-Aug-2021 4914.00 7808.32 85.29 11.00 165.66 3261.31
   11:51:41.507.27-Aug-2021 4914.00 7808.52 85.28 11.00 165.86 3261.31
   11:51:41.707.27-Aug-2021 4914.00 7808.59 85.28 11.00 166.06 3261.31
   11:51:41.907.27-Aug-2021 4914.00 7808.59 85.28 11.00 166.26 3261.31
   11:51:42.107.27-Aug-2021 4914.00 7808.43 85.28 11.00 166.46 3261.31
   11:51:42.307.27-Aug-2021 4914.00 7809.22 85.28 11.00 166.66 3261.31
   11:51:42.507.27-Aug-2021 4914.00 7810.33 85.28 11.00 166.86 3261.31
   11:51:42.707.27-Aug-2021 4914.00 7811.81 85.28 11.00 167.06 3261.31
   11:51:42.907.27-Aug-2021 4914.00 7811.81 85.28 11.00 167.26 3261.31
   11:51:43.107.27-Aug-2021 4914.00 7809.86 85.28 11.00 167.46 3261.31
   11:51:43.307.27-Aug-2021 4914.00 7809.07 85.28 11.00 167.66 3261.31
   11:51:43.507.27-Aug-2021 4914.00 7809.09 85.28 11.00 167.86 3261.31
   11:51:43.707.27-Aug-2021 4914.00 7808.93 85.28 11.00 168.06 3261.31
   11:51:43.908.27-Aug-2021 4914.00 7808.93 85.28 11.00 168.26 3261.31
   11:51:44.108.27-Aug-2021 4914.00 7808.47 85.28 11.00 168.46 3261.31
   11:51:44.308.27-Aug-2021 4914.00 7809.25 85.28 11.00 168.66 3261.31
   11:51:44.508.27-Aug-2021 4914.00 7809.71 85.28 11.00 168.86 3261.31
   11:51:44.708.27-Aug-2021 4914.00 7809.94 85.28 11.00 169.06 3261.31
   11:51:44.908.27-Aug-2021 4914.00 7809.94 85.28 11.00 169.26 3261.31
   11:51:45.108.27-Aug-2021 4914.00 7810.27 85.28 11.00 169.46 3261.31
   11:51:45.308.27-Aug-2021 4914.00 7810.22 85.28 11.00 169.66 3261.31
   11:51:45.508.27-Aug-2021 4914.00 7809.93 85.28 11.00 169.86 3261.31
   11:51:45.708.27-Aug-2021 4914.00 7809.99 85.28 11.00 170.06 3261.31
   11:51:45.908.27-Aug-2021 4914.00 7809.99 85.28 11.00 170.26 3261.31
   11:51:46.108.27-Aug-2021 4914.00 7812.13 85.28 11.00 170.46 3261.31
   11:51:46.308.27-Aug-2021 4914.00 7810.51 85.28 11.00 170.66 3261.31
   11:51:46.508.27-Aug-2021 4914.00 7809.87 85.28 11.00 170.86 3261.31
   11:51:46.709.27-Aug-2021 4914.00 7809.22 85.28 11.00 171.06 3261.31
   11:51:46.909.27-Aug-2021 4914.00 7809.22 85.28 11.00 171.26 3261.31
   11:51:47.109.27-Aug-2021 4914.00 7812.66 85.28 11.00 171.46 3261.31
   11:51:47.309.27-Aug-2021 4914.00 7808.95 85.28 11.00 171.66 3261.31
   11:51:47.509.27-Aug-2021 4914.00 7809.81 85.28 11.00 171.86 3261.31
   11:51:47.709.27-Aug-2021 4914.00 7808.93 85.28 11.00 172.06 3261.31
   11:51:47.909.27-Aug-2021 4914.00 7808.93 85.28 11.00 172.26 3261.31
   11:51:48.109.27-Aug-2021 4914.00 7809.30 85.28 11.00 172.46 3261.31
   11:51:48.309.27-Aug-2021 4914.00 7809.47 85.28 11.00 172.66 3261.31
   11:51:48.509.27-Aug-2021 4914.00 7814.77 85.28 11.00 172.86 3261.31
   11:51:48.709.27-Aug-2021 4914.00 7806.40 85.28 11.00 173.06 3261.31
   11:51:48.909.27-Aug-2021 4914.00 7806.40 85.28 11.00 173.26 3261.31
   11:51:49.109.27-Aug-2021 4914.00 7809.54 85.28 11.00 173.46 3261.31
   11:51:49.309.27-Aug-2021 4914.00 7809.55 85.28 11.00 173.66 3261.31
   11:51:49.510.27-Aug-2021 4914.00 7809.29 85.28 11.00 173.86 3261.31
   11:51:49.710.27-Aug-2021 4914.00 7813.20 85.28 11.00 174.06 3261.31
   11:51:49.910.27-Aug-2021 4914.00 7813.20 85.28 11.00 174.26 3261.31
   11:51:50.110.27-Aug-2021 4914.00 7807.08 85.28 11.00 174.46 3261.31
   11:51:50.310.27-Aug-2021 4914.00 7808.76 85.28 11.00 174.66 3261.31
   11:51:50.510.27-Aug-2021 4914.00 7808.92 85.28 11.00 174.86 3261.31
   11:51:50.710.27-Aug-2021 4914.00 7809.34 85.28 11.00 175.06 3261.31
   11:51:50.910.27-Aug-2021 4914.00 7809.34 85.28 11.00 175.26 3261.31
   11:51:51.110.27-Aug-2021 4914.00 7809.38 85.28 11.00 175.46 3261.31
   11:51:51.310.27-Aug-2021 4914.00 7808.81 85.28 11.00 175.66 3261.31
   11:51:51.510.27-Aug-2021 4914.00 7809.07 85.28 11.00 175.86 3261.31
   11:51:51.710.27-Aug-2021 4914.00 7809.76 85.28 11.00 176.06 3261.31
   11:51:51.910.27-Aug-2021 4914.00 7809.76 85.28 11.00 176.26 3261.31
   11:51:52.110.27-Aug-2021 4914.00 7810.01 85.28 11.00 176.46 3261.31
   11:51:52.311.27-Aug-2021 4914.00 7809.76 85.28 11.00 176.66 3261.31
   11:51:52.511.27-Aug-2021 4914.00 7809.73 85.28 11.00 176.86 3261.31
   11:51:52.711.27-Aug-2021 4914.00 7809.42 85.28 11.00 177.06 3261.31
   11:51:52.911.27-Aug-2021 4914.00 7809.42 85.28 11.00 177.26 3261.31
   11:51:53.111.27-Aug-2021 4914.00 7812.00 85.28 11.00 177.46 3261.31
   11:51:53.311.27-Aug-2021 4914.00 7810.31 85.28 11.00 177.66 3261.31
   11:51:53.511.27-Aug-2021 4914.00 7809.75 85.28 11.00 177.86 3261.31
   11:51:53.711.27-Aug-2021 4914.00 7808.85 85.28 11.00 178.06 3261.31
   11:51:53.911.27-Aug-2021 4914.00 7808.85 85.28 11.00 178.26 3261.31
   11:51:54.111.27-Aug-2021 4914.00 7808.96 85.28 11.00 178.46 3261.31
   11:51:54.311.27-Aug-2021 4914.00 7809.29 85.28 11.00 178.66 3261.31
   11:51:54.511.27-Aug-2021 4914.00 7808.65 85.28 11.00 178.86 3261.31
   11:51:54.711.27-Aug-2021 4914.00 7809.26 85.28 11.00 179.06 3261.31
   11:51:54.911.27-Aug-2021 4914.00 7809.26 85.28 11.00 179.26 3261.31
   11:51:55.112.27-Aug-2021 4914.00 7809.91 85.28 11.00 179.46 3261.31
   11:51:55.312.27-Aug-2021 4914.00 7810.21 85.28 11.00 179.66 3261.31
   11:51:55.512.27-Aug-2021 4914.00 7810.00 85.28 11.00 179.86 3261.31
   11:51:55.712.27-Aug-2021 4914.00 7810.00 85.28 11.00 180.06 3261.31
   11:51:55.912.27-Aug-2021 4914.00 7810.00 85.28 11.00 180.26 3261.31
   11:51:56.112.27-Aug-2021 4914.00 7809.65 85.28 11.00 180.46 3261.31
   11:51:56.312.27-Aug-2021 4914.00 7810.04 85.28 11.00 180.66 3261.31
