~Version Information
 VERS.                  2.0:   CWLS log ASCII Standard -VERSION 2.0
 WRAP.                   NO:   One line per depth step
~Well Information Block
#MNEM.UNIT     VALUE/NAME     DESCRIPTION
#---------     -----------    ---------------------------
 STRT.S             10:43:45 27-Aug-21: START TIME 10:43:45 27-Aug-21
 STOP.S             10:50:54 27-Aug-21: STOP TIME  10:50:54 27-Aug-21
 STEP.S                   0.00: STEP TIME
 NULL.                 -999.25: NULL VALUE
 DFWT.                        :  DIST FWL TEXT
 DFST.                        :  DIST FSL TEXT
 DMF .             Drill Floor:  DRILL MEAS FROM
 STIM.      20.00.00 17-Aug-21:  START TIME
 DATE.      19.00.00 29-Aug-21:  END TIME
 SPUD.               15-Aug-21:  SPUD DATE
 NREF.                    Grid:  NORTH REFERENCE
 HPTY.       Minimum Curvature:  HOLE POS TYPE
 DMOD.             Drill Model:  DRILL MOD DESC
 SVYD.                  Survey:  SURVEY DESC
 ILTD.               Lithology:  INTERP LTH DESC
 FTOP.          Formation Tops:  FORM TOPS DESC
 RIG .              East Azeri:  RIG NAME
 PDAT.          Mean Sea Level:  PERMANENT DATUM
 FLD .                     ACG:  FIELD NAME
 SON .        AZ-XX-0907180857:  JOB NUMBER
 CTRY.              Azerbaijan:  COUNTRY NAME
 WELL.                    D23x:  WELL NAME
 SRVC.     Turan Drilling and Engineering:  CONTRACTOR
 COMP.     BP Exploration (Caspian Sea) Ltd.:  COMPANY
 UWI .            /AZE00000214:  UNIQUE WELL IDENTIFIER
 API .            /AZE00000214:  API NUMBER
 MDS .        Operator Entered:  MAG DATA SOURCE
 BASE.              Azerbaijan:  LOGGING EQUIPMENT BASE LOCATION
 REGN.                   EESSA:  REGION
 PROV.                    Baku:  PROVINCE
 STAT.                    Baku:  STATE NAME
 MWDS.                    Baku:  MWD SHOP
 DOE .                     N/A:  DOE NUMBER
 DCON.         Sperry Drilling:  DIRECTNL CONTR
 UNIT.                     N/A:  LOGGING EQUIPMENT ID
 WTYP.                Deviated:  WELL TYPE
 CNTY.                        :  COUNTY
 LOC .                        :  LOCATION
 LMF .             Drill Floor:  LOG MEASURED FROM
 TVDS.m                  43.60:  TVDSS CORRECTN
 LATI.deg                40.02:  LATITUDE
 LONG.deg                51.45:  LONGITUDE
 WHNS.m                  -7.04:  WELL HEAD N/S
 WHEW.m                  -0.67:  WELL HEAD E/W
 UTMX.m              538762.90:  UTM X
 UTMY.m             4431871.34:  UTM Y
 DFWL.m                   0.00:  DISTANCE FWL
 DFSL.m                   0.00:  DISTANCE FSL
 SDEP.m                4127.00:  START DEPTH
 TDD .m                5084.50:  TOTAL DEPTH (DRILLER)
 VSDR.deg               140.47:  VERT SEC DIRECT
 GVFD.g                   1.00:  GRAVITY FIELD
 MFLD.nT              50362.00:  MAGNETIC FIELD
 MDIP.deg                59.48:  MAGNETIC DIP
 MDEC.deg                 6.47:  MAGNETIC DECL
 GRDC.deg                 0.31:  GRID CORRECTION
 AZTC.deg                 6.16:  AZM TOTAL CORR
 EPD .m                   0.00:  ELEVATION
 EGL .m                   0.00:  GROUND ELEVATION
 WDMS.m                 151.80:  WD ELEV
 APD .m                  43.60:  DEPTH ABOVE PD
 DEP .m                4092.57:  DEPTH
 AGAP.m                  43.60:  AIR GAP
 VSEW.m                  -0.67:  VERT SEC E/W
 VSNS.m                  -7.04:  VERT SEC N/S
 EKB .m                  43.60:  KB ELEVATION
 EDF .m                  43.60:  DF ELEVATION
 TDL .m                 957.50:  TOTAL DEPTH (LOGGER)
 VSC .                       0:  VS TO CLOSURE
 MAGU.                 1851413:  MAGUTM CHECKSUM
~Parameter Information Block
#MNEM.UNIT       Value        Description
#---------     -----------    ---------------------------
 AV  .mps                 1.50:  Ann Velocity 
 AVMX.mps                 2.00:  Max Ann Veloc 
 AZIF.deg               184.66:  Azm, Final 
 BHAT.        Rotary Steerable:  BHA Type 
 BREV.rev               300.00:  Rev Bit Total 
 BROT.°/30m              -0.50:  Build Rotating 
 BS  .in                  8.50:  Bit Size 
 BSZ .in                  8.50:  Bit Size 
 BTPL.psig              370.00:  Bit Press Loss 
 CABU.                      No:  Customer Abuse 
 CGEO.      Behruz Shahbaliyev:  Customer Geo 
 COMM.                     $K:  Run Comments 1 
 TCS .hr                140.08:  Time Ciculation Ended 
 CV  .mps                 3.00:  Crit Velocity 
 CVMX.mps                 3.20:  Max Crit Veloc 
 DD1 .            Musa Ahmadov:  Direct Drillr 1 
 DD2 .           Hamid Ahmadov:  Direct Drillr 2 
 DDSV.               Geo-Pilot:  DD Service 
 DEFF.%                  98.40:  % Det Eff 
 DLRX.°/30m               3.40:  Dogleg Rot Max 
 DLSO.°/30m               1.45:  Dogleg Oriented 
 DLSX.°/30m               3.40:  Dogleg Str Max 
 DRET.      18.40.00 29-Aug-21:  Drill End Time 
 DRST.      21.00.00 20-Aug-21:  Drill Start Tim 
 DTIM.hr                 69.47:  Time Drilling 
 EDEP.m                5084.50:  End Depth 
 ENG1.      Artemiy Matviyanov:  Engineer 1 
 ENG2.         Almaz Almadatov:  Engineer 2 
 ETIM.      18.40.00 29-Aug-21:  End Time 
 FLOI.gpm               500.00:  Flow In 
 FLON.gpm               400.00:  Flow In Min 
 FLOS.cptm                0.00:  Fluid Loss 
 FLOX.gpm               500.00:  Flow In Max 
 DFT .        Mineral Oil Base:  Mud Type 
 HFLO.                      No:  High Flow 
 HPRE.                      No:  High Pressure 
 HTEM.                      No:  High Temp 
 HYDO.m                   1.80:  Hydro Offset 
 IFIN.deg                25.62:  Inc, Final 
 IMAX.deg                48.69:  Inc Max 
 IMIN.deg                24.01:  Inc Min 
 IMND.m                4962.57:  Inc Min Depth 
 IMXD.m                4119.01:  Inc Max Depth 
 JARR.                      No:  Jarring 
 LETM.      18.40.00 29-Aug-21:  Log End Time 
 LOST.hr                     0:  Lost Rig Time 
 LSTM.      21.00.00 20-Aug-21:  Log Start Time 
 MDCL.ppm             41500.00:  Mud Chlorides 
 MDES.     Inversion Oil/Synthetic:  Mud Desc 
 DFD .sg                  1.56:  Mud Density 
 MDMN.sg                  1.56:  Dens Mud Min 
 MDMX.sg                  1.56:  Dens Mud Max 
 MOIL.                      70:  Run Mud Oil % 
 MOWR.                   70:30:  Run Mud OWR 
 MSND.                     0.2:  Run Mud Sand % 
 MSOL.                    23.3:  Run Mud Solids% 
 DFV .spqt               78.00:  Mud Viscosity 
 MWOD.in                  6.75:  MWD Tool OD 
 MWSI.                      No:  Serv Intrp, MWD 
 OTIM.hr                218.30:  Time Operating 
 PCON.           Look Like New:  Pad Condition 
 PMAX.psia            11015.30:  Press Op, Max 
 PV  .cP                 38.00:  Mud PV 
 RUN .                     300:  Run Number 
 ROPA.m/hr               15.00:  ROP Avg 
 ROPN.m/hr                9.00:  ROP Min 
 ROPX.m/hr               17.00:  ROP Max 
 RPMA.rpm               120.00:  RPM Surface Avg 
 RPMN.rpm                90.00:  RPM Surface Min 
 RPMX.rpm               140.00:  RPM Surface Max 
 RRUN.                     300:  Rig Run Number 
 RTIM.hr                 31.53:  Time Reaming 
 SAZI.deg               331.64:  Azm, Start 
 SDEP.m                4127.00:  Start Depth 
 SIDD.                      No:  Serv Intrp, DD 
 SINC.deg                48.43:  Inc, Start 
 SPPA.psig             5830.00:  SPP Avg 
 SPPN.psig             5600.00:  SPP Min 
 SPPX.psig             5900.00:  SPP Max 
 STIM.      21.00.00 20-Aug-21:  Start Time 
 SVCS.                 DD, MWD:  Services 
 SVER.                    9.20:  Sperry Version 
 TDAT.m                 957.50:  Tot Depth Attmp 
 TDDF.                      No:  Trip for DD 
 TDLG.m                 957.50:  Tot Depth Loggd 
 TFF .                      No:  Trip for Fail 
 TQAA.f-kp               15.00:  Torque Abs Avg 
 TQAN.f-kp               12.00:  Torque Abs Min 
 TQAX.f-kp               19.00:  Torque Abs Max 
 TRRT.°/30m              -3.40:  Turn Rotating 
 MRT .                  EWR-M5:  Maximum Recorded Temperature 
 TTMX.degC              100.00:  Max Tool Temp 
 VS01.                90639251:  Virtual Str1 SN 
 VS02.                90634715:  Virtual Str2 SN 
 VS03.                90652479:  Virtual Str3 SN 
 VS04.                90642262:  Virtual Str4 SN 
 WBMN.klb                 0.00:  WOB Min 
 WITN.           Murad Guliyev:  Customer Rep 
 WITN.          Yashar Gaziyev:  Customer Rep 2 
 WOBA.klb                 9.00:  WOB Avg 
 WOBX.klb                12.00:  WOB Max 
 YP  .lhf2               30.00:  Yield Point 
~Curve Information Block
#MNEM.UNIT                 API CODE     Curve Description
#---------               -----------    ---------------------------
 TIME.HHMMSS            00 000 000 000:  GT Time & Date
 GTDEPTH.m              00 000 000 000:  GT Depth
 GTPQH.psia             00 000 000 000:  GT HR Quartz Pressure
 GTTQ.degC              00 000 000 000:  GT Quartz Temperature
 GTTN.NONE              00 000 000 000:  GT Test Number
 GTET.sec               00 000 000 000:  GT Elapsed Test Time
 GTTVD.m                00 000 000 000:  GT True Vertical Depth
#Other Information
#
#WARRANTY: Halliburton will use its best efforts to furnish customers with 
#accurate information and interpretations that are part of, and incident to, the services 
#provided.  However, Halliburton cannot and does not warrant the accuracy 
#or correctness of such information and interpretations.  Under no circumstances should any 
#such information or interpretation be relied upon as the sole basis for any drilling, 
#completion, production, or financial decision or any procedure involving any risk to the 
#safety of any drilling venture, drilling rig or its crew or any other third party.  The 
#Customer has full responsibility for all drilling, completion and production operation.  
#Halliburton makes no representations or warranties, either expressed or 
#implied, including, but not limited to, the implied warranties of merchantability or fitness 
#for a particular purpose, with respect to the services rendered.  In no event will 
#Halliburton be liable for failure to obtain any particular results or for 
#any damages, including, but not limited to, indirect, special or consequential damages, 
#resulting from the use of any information or interpretation provided by Halliburton.
#
~A           TIME           GTDEPTH  GTPQH  GTTQ  GTTN  GTET   GTTVD  
# ...
   10:44:31.432.27-Aug-2021 4957.82 7064.62 86.00 9.00  45.95 3301.29
   10:44:31.632.27-Aug-2021 4957.82 7064.62 86.00 9.00  46.14 3301.29
   10:44:31.832.27-Aug-2021 4957.82 6958.51 86.00 9.00  46.34 3301.29
   10:44:32.032.27-Aug-2021 4957.82 6925.97 85.99 9.00  46.54 3301.29
   10:44:32.231.27-Aug-2021 4957.82 6883.46 85.99 9.00  46.74 3301.29
   10:44:32.431.27-Aug-2021 4957.82 6832.63 85.99 9.00  46.94 3301.29
   10:44:32.631.27-Aug-2021 4957.82 6832.63 85.99 9.00  47.14 3301.29
   10:44:32.831.27-Aug-2021 4957.82 6767.98 85.99 9.00  47.34 3301.29
   10:44:33.031.27-Aug-2021 4957.82 6727.10 85.99 9.00  47.54 3301.29
   10:44:33.230.27-Aug-2021 4957.82 6649.61 85.99 9.00  47.74 3301.29
   10:44:33.430.27-Aug-2021 4957.82 6556.01 85.99 9.00  47.94 3301.29
   10:44:33.630.27-Aug-2021 4957.82 6556.01 85.99 9.00  48.14 3301.29
   10:44:33.830.27-Aug-2021 4957.82 6375.31 85.99 9.00  48.34 3301.29
   10:44:34.029.27-Aug-2021 4957.82 6297.60 85.99 9.00  48.54 3301.29
   10:44:34.229.27-Aug-2021 4957.82 6254.49 85.99 9.00  48.74 3301.29
   10:44:34.429.27-Aug-2021 4957.82 6236.70 85.99 9.00  48.94 3301.29
   10:44:34.629.27-Aug-2021 4957.82 6236.70 85.99 9.00  49.14 3301.29
   10:44:34.828.27-Aug-2021 4957.82 6192.26 85.98 9.00  49.34 3301.29
   10:44:35.028.27-Aug-2021 4957.82 6176.23 85.98 9.00  49.54 3301.29
   10:44:35.228.27-Aug-2021 4957.82 6163.59 85.98 9.00  49.74 3301.29
   10:44:35.428.27-Aug-2021 4957.82 6153.83 85.98 9.00  49.94 3301.29
   10:44:35.627.27-Aug-2021 4957.82 6153.83 85.98 9.00  50.14 3301.29
   10:44:35.827.27-Aug-2021 4957.82 6142.22 85.98 9.00  50.34 3301.29
   10:44:36.027.27-Aug-2021 4957.82 6139.52 85.98 9.00  50.54 3301.29
   10:44:36.227.27-Aug-2021 4957.82 6137.37 85.98 9.00  50.74 3301.29
   10:44:36.426.27-Aug-2021 4957.82 6136.19 85.97 9.00  50.94 3301.29
   10:44:36.626.27-Aug-2021 4957.82 6136.19 85.97 9.00  51.14 3301.29
   10:44:36.826.27-Aug-2021 4957.82 6135.29 85.97 9.00  51.34 3301.29
   10:44:37.026.27-Aug-2021 4957.82 6135.39 85.97 9.00  51.54 3301.29
   10:44:37.225.27-Aug-2021 4957.82 6137.74 85.97 9.00  51.74 3301.29
   10:44:37.425.27-Aug-2021 4957.82 6139.82 85.97 9.00  51.94 3301.29
   10:44:37.625.27-Aug-2021 4957.82 6139.82 85.97 9.00  52.14 3301.29
   10:44:37.825.27-Aug-2021 4957.82 6135.49 85.97 9.00  52.34 3301.29
   10:44:38.025.27-Aug-2021 4957.82 6113.77 85.97 9.00  52.54 3301.29
   10:44:38.224.27-Aug-2021 4957.82 5940.65 85.97 9.00  52.74 3301.29
   10:44:38.424.27-Aug-2021 4957.82 5204.79 85.96 9.00  52.94 3301.29
   10:44:38.624.27-Aug-2021 4957.82 5204.79 85.96 9.00  53.14 3301.29
   10:44:38.824.27-Aug-2021 4957.82 5071.20 85.96 9.00  53.34 3301.29
   10:44:39.023.27-Aug-2021 4957.82 5077.06 85.96 9.00  53.54 3301.29
   10:44:39.223.27-Aug-2021 4957.82 5083.08 85.96 9.00  53.74 3301.29
   10:44:39.423.27-Aug-2021 4957.82 5087.56 85.96 9.00  53.94 3301.29
   10:44:39.623.27-Aug-2021 4957.82 5087.56 85.96 9.00  54.14 3301.29
   10:44:39.822.27-Aug-2021 4957.82 5091.34 85.96 9.00  54.34 3301.29
   10:44:40.022.27-Aug-2021 4957.82 5092.63 85.96 9.00  54.53 3301.29
   10:44:40.222.27-Aug-2021 4957.82 5091.90 85.95 9.00  54.73 3301.29
   10:44:40.422.27-Aug-2021 4957.82 5090.30 85.95 9.00  54.93 3301.29
   10:44:40.621.27-Aug-2021 4957.82 5090.30 85.95 9.00  55.13 3301.29
   10:44:40.821.27-Aug-2021 4957.82 5089.64 85.95 9.00  55.33 3301.29
   10:44:41.021.27-Aug-2021 4957.82 5088.94 85.95 9.00  55.53 3301.29
   10:44:41.221.27-Aug-2021 4957.82 5088.56 85.95 9.00  55.73 3301.29
   10:44:41.420.27-Aug-2021 4957.82 5088.06 85.95 9.00  55.93 3301.29
   10:44:41.620.27-Aug-2021 4957.82 5088.06 85.95 9.00  56.13 3301.29
   10:44:41.820.27-Aug-2021 4957.82 5088.15 85.94 9.00  56.33 3301.29
   10:44:42.020.27-Aug-2021 4957.82 5088.51 85.94 9.00  56.53 3301.29
   10:44:42.220.27-Aug-2021 4957.82 5088.40 85.94 9.00  56.73 3301.29
   10:44:42.419.27-Aug-2021 4957.82 5088.64 85.94 9.00  56.93 3301.29
   10:44:42.619.27-Aug-2021 4957.82 5088.64 85.94 9.00  57.13 3301.29
   10:44:42.819.27-Aug-2021 4957.82 5087.96 85.94 9.00  57.33 3301.29
   10:44:43.019.27-Aug-2021 4957.82 5087.55 85.94 9.00  57.53 3301.29
   10:44:43.218.27-Aug-2021 4957.82 5088.59 85.94 9.00  57.73 3301.29
   10:44:43.418.27-Aug-2021 4957.82 5088.11 85.93 9.00  57.93 3301.29
   10:44:43.618.27-Aug-2021 4957.82 5088.11 85.93 9.00  58.13 3301.29
   10:44:43.818.27-Aug-2021 4957.82 5097.82 85.93 9.00  58.33 3301.29
   10:44:44.017.27-Aug-2021 4957.82 5091.23 85.93 9.00  58.53 3301.29
   10:44:44.217.27-Aug-2021 4957.82 5090.64 85.93 9.00  58.73 3301.29
   10:44:44.417.27-Aug-2021 4957.82 5089.42 85.93 9.00  58.93 3301.29
   10:44:44.617.27-Aug-2021 4957.82 5089.42 85.93 9.00  59.13 3301.29
   10:44:44.816.27-Aug-2021 4957.82 5089.46 85.93 9.00  59.33 3301.29
   10:44:45.016.27-Aug-2021 4957.82 5089.19 85.93 9.00  59.53 3301.29
   10:44:45.216.27-Aug-2021 4957.82 5089.38 85.93 9.00  59.73 3301.29
   10:44:45.416.27-Aug-2021 4957.82 5089.76 85.93 9.00  59.93 3301.29
   10:44:45.615.27-Aug-2021 4957.82 5089.76 85.93 9.00  60.13 3301.29
   10:44:45.815.27-Aug-2021 4957.82 5089.01 85.93 9.00  60.33 3301.29
   10:44:46.015.27-Aug-2021 4957.82 5089.23 85.93 9.00  60.53 3301.29
   10:44:46.215.27-Aug-2021 4957.82 5089.28 85.92 9.00  60.73 3301.29
   10:44:46.415.27-Aug-2021 4957.82 5089.41 85.92 9.00  60.93 3301.29
   10:44:46.614.27-Aug-2021 4957.82 5089.41 85.92 9.00  61.13 3301.29
   10:44:46.814.27-Aug-2021 4957.82 5088.85 85.92 9.00  61.33 3301.29
   10:44:47.014.27-Aug-2021 4957.82 5089.64 85.92 9.00  61.53 3301.29
   10:44:47.214.27-Aug-2021 4957.82 5088.37 85.92 9.00  61.73 3301.29
   10:44:47.413.27-Aug-2021 4957.82 5088.64 85.92 9.00  61.93 3301.29
   10:44:47.613.27-Aug-2021 4957.82 5088.64 85.92 9.00  62.13 3301.29
   10:44:47.813.27-Aug-2021 4957.82 5088.93 85.92 9.00  62.33 3301.29
   10:44:48.013.27-Aug-2021 4957.82 5106.73 85.92 9.00  62.53 3301.29
   10:44:48.212.27-Aug-2021 4957.82 5151.10 85.92 9.00  62.73 3301.29
   10:44:48.412.27-Aug-2021 4957.82 5155.22 85.92 9.00  62.92 3301.29
   10:44:48.612.27-Aug-2021 4957.82 5155.22 85.92 9.00  63.12 3301.29
   10:44:48.812.27-Aug-2021 4957.82 5157.44 85.92 9.00  63.32 3301.29
   10:44:49.011.27-Aug-2021 4957.82 5158.23 85.92 9.00  63.52 3301.29
   10:44:49.211.27-Aug-2021 4957.82 5158.89 85.92 9.00  63.72 3301.29
   10:44:49.411.27-Aug-2021 4957.82 5159.49 85.92 9.00  63.92 3301.29
   10:44:49.611.27-Aug-2021 4957.82 5159.49 85.92 9.00  64.12 3301.29
   10:44:49.810.27-Aug-2021 4957.82 5160.39 85.92 9.00  64.32 3301.29
   10:44:50.010.27-Aug-2021 4957.82 5160.80 85.92 9.00  64.52 3301.29
   10:44:50.210.27-Aug-2021 4957.82 5161.17 85.92 9.00  64.72 3301.29
   10:44:50.410.27-Aug-2021 4957.82 5161.51 85.92 9.00  64.92 3301.29
   10:44:50.610.27-Aug-2021 4957.82 5161.51 85.92 9.00  65.12 3301.29
   10:44:50.809.27-Aug-2021 4957.82 5162.28 85.92 9.00  65.32 3301.29
   10:44:51.009.27-Aug-2021 4957.82 5162.74 85.92 9.00  65.52 3301.29
   10:44:51.209.27-Aug-2021 4957.82 5162.84 85.92 9.00  65.72 3301.29
   10:44:51.409.27-Aug-2021 4957.82 5163.04 85.92 9.00  65.92 3301.29
   10:44:51.608.27-Aug-2021 4957.82 5163.04 85.92 9.00  66.12 3301.29
   10:44:51.808.27-Aug-2021 4957.82 5163.48 85.92 9.00  66.32 3301.29
   10:44:52.008.27-Aug-2021 4957.82 5163.60 85.92 9.00  66.52 3301.29
   10:44:52.208.27-Aug-2021 4957.82 5163.93 85.92 9.00  66.72 3301.29
   10:44:52.407.27-Aug-2021 4957.82 5163.97 85.92 9.00  66.92 3301.29
   10:44:52.607.27-Aug-2021 4957.82 5163.97 85.92 9.00  67.12 3301.29
   10:44:52.807.27-Aug-2021 4957.82 5164.25 85.92 9.00  67.32 3301.29
   10:44:53.007.27-Aug-2021 4957.82 5164.42 85.92 9.00  67.52 3301.29
   10:44:53.206.27-Aug-2021 4957.82 5164.53 85.92 9.00  67.72 3301.29
   10:44:53.406.27-Aug-2021 4957.82 5164.80 85.92 9.00  67.92 3301.29
   10:44:53.606.27-Aug-2021 4957.82 5164.80 85.92 9.00  68.12 3301.29
   10:44:53.806.27-Aug-2021 4957.82 5164.84 85.92 9.00  68.32 3301.29
   10:44:54.005.27-Aug-2021 4957.82 5164.98 85.92 9.00  68.52 3301.29
   10:44:54.205.27-Aug-2021 4957.82 5165.26 85.92 9.00  68.72 3301.29
