~Version Information
 VERS.                  2.0:   CWLS log ASCII Standard -VERSION 2.0
 WRAP.                   NO:   One line per depth step
~Well Information Block
#MNEM.UNIT     VALUE/NAME     DESCRIPTION
#---------     -----------    ---------------------------
 STRT.S             14:18:21 27-Aug-21: START TIME 14:18:21 27-Aug-21
 STOP.S             14:25:11 27-Aug-21: STOP TIME  14:25:11 27-Aug-21
 STEP.S                   0.00: STEP TIME
 NULL.                 -999.25: NULL VALUE
 DFWT.                        :  DIST FWL TEXT
 DFST.                        :  DIST FSL TEXT
 DMF .             Drill Floor:  DRILL MEAS FROM
 STIM.      20.00.00 17-Aug-21:  START TIME
 DATE.      19.00.00 29-Aug-21:  END TIME
 SPUD.               15-Aug-21:  SPUD DATE
 NREF.                    Grid:  NORTH REFERENCE
 HPTY.       Minimum Curvature:  HOLE POS TYPE
 DMOD.             Drill Model:  DRILL MOD DESC
 SVYD.                  Survey:  SURVEY DESC
 ILTD.               Lithology:  INTERP LTH DESC
 FTOP.          Formation Tops:  FORM TOPS DESC
 RIG .              East Azeri:  RIG NAME
 PDAT.          Mean Sea Level:  PERMANENT DATUM
 FLD .                     ACG:  FIELD NAME
 SON .        AZ-XX-0907180857:  JOB NUMBER
 CTRY.              Azerbaijan:  COUNTRY NAME
 WELL.                    D23x:  WELL NAME
 SRVC.     Turan Drilling and Engineering:  CONTRACTOR
 COMP.     BP Exploration (Caspian Sea) Ltd.:  COMPANY
 UWI .            /AZE00000214:  UNIQUE WELL IDENTIFIER
 API .            /AZE00000214:  API NUMBER
 MDS .        Operator Entered:  MAG DATA SOURCE
 BASE.              Azerbaijan:  LOGGING EQUIPMENT BASE LOCATION
 REGN.                   EESSA:  REGION
 PROV.                    Baku:  PROVINCE
 STAT.                    Baku:  STATE NAME
 MWDS.                    Baku:  MWD SHOP
 DOE .                     N/A:  DOE NUMBER
 DCON.         Sperry Drilling:  DIRECTNL CONTR
 UNIT.                     N/A:  LOGGING EQUIPMENT ID
 WTYP.                Deviated:  WELL TYPE
 CNTY.                        :  COUNTY
 LOC .                        :  LOCATION
 LMF .             Drill Floor:  LOG MEASURED FROM
 TVDS.m                  43.60:  TVDSS CORRECTN
 LATI.deg                40.02:  LATITUDE
 LONG.deg                51.45:  LONGITUDE
 WHNS.m                  -7.04:  WELL HEAD N/S
 WHEW.m                  -0.67:  WELL HEAD E/W
 UTMX.m              538762.90:  UTM X
 UTMY.m             4431871.34:  UTM Y
 DFWL.m                   0.00:  DISTANCE FWL
 DFSL.m                   0.00:  DISTANCE FSL
 SDEP.m                4127.00:  START DEPTH
 TDD .m                5084.50:  TOTAL DEPTH (DRILLER)
 VSDR.deg               140.47:  VERT SEC DIRECT
 GVFD.g                   1.00:  GRAVITY FIELD
 MFLD.nT              50362.00:  MAGNETIC FIELD
 MDIP.deg                59.48:  MAGNETIC DIP
 MDEC.deg                 6.47:  MAGNETIC DECL
 GRDC.deg                 0.31:  GRID CORRECTION
 AZTC.deg                 6.16:  AZM TOTAL CORR
 EPD .m                   0.00:  ELEVATION
 EGL .m                   0.00:  GROUND ELEVATION
 WDMS.m                 151.80:  WD ELEV
 APD .m                  43.60:  DEPTH ABOVE PD
 DEP .m                4092.57:  DEPTH
 AGAP.m                  43.60:  AIR GAP
 VSEW.m                  -0.67:  VERT SEC E/W
 VSNS.m                  -7.04:  VERT SEC N/S
 EKB .m                  43.60:  KB ELEVATION
 EDF .m                  43.60:  DF ELEVATION
 TDL .m                 957.50:  TOTAL DEPTH (LOGGER)
 VSC .                       0:  VS TO CLOSURE
 MAGU.                 1851413:  MAGUTM CHECKSUM
~Parameter Information Block
#MNEM.UNIT       Value        Description
#---------     -----------    ---------------------------
 AV  .mps                 1.50:  Ann Velocity 
 AVMX.mps                 2.00:  Max Ann Veloc 
 AZIF.deg               184.66:  Azm, Final 
 BHAT.        Rotary Steerable:  BHA Type 
 BREV.rev               300.00:  Rev Bit Total 
 BROT.°/30m              -0.50:  Build Rotating 
 BS  .in                  8.50:  Bit Size 
 BSZ .in                  8.50:  Bit Size 
 BTPL.psig              370.00:  Bit Press Loss 
 CABU.                      No:  Customer Abuse 
 CGEO.      Behruz Shahbaliyev:  Customer Geo 
 COMM.                     LAp:  Run Comments 1 
 TCS .hr                140.08:  Time Ciculation Ended 
 CV  .mps                 3.00:  Crit Velocity 
 CVMX.mps                 3.20:  Max Crit Veloc 
 DD1 .            Musa Ahmadov:  Direct Drillr 1 
 DD2 .           Hamid Ahmadov:  Direct Drillr 2 
 DDSV.               Geo-Pilot:  DD Service 
 DEFF.%                  98.40:  % Det Eff 
 DLRX.°/30m               3.40:  Dogleg Rot Max 
 DLSO.°/30m               1.45:  Dogleg Oriented 
 DLSX.°/30m               3.40:  Dogleg Str Max 
 DRET.      18.40.00 29-Aug-21:  Drill End Time 
 DRST.      21.00.00 20-Aug-21:  Drill Start Tim 
 DTIM.hr                 69.47:  Time Drilling 
 EDEP.m                5084.50:  End Depth 
 ENG1.      Artemiy Matviyanov:  Engineer 1 
 ENG2.         Almaz Almadatov:  Engineer 2 
 ETIM.      18.40.00 29-Aug-21:  End Time 
 FLOI.gpm               500.00:  Flow In 
 FLON.gpm               400.00:  Flow In Min 
 FLOS.cptm                0.00:  Fluid Loss 
 FLOX.gpm               500.00:  Flow In Max 
 DFT .        Mineral Oil Base:  Mud Type 
 HFLO.                      No:  High Flow 
 HPRE.                      No:  High Pressure 
 HTEM.                      No:  High Temp 
 HYDO.m                   1.80:  Hydro Offset 
 IFIN.deg                25.62:  Inc, Final 
 IMAX.deg                48.69:  Inc Max 
 IMIN.deg                24.01:  Inc Min 
 IMND.m                4962.57:  Inc Min Depth 
 IMXD.m                4119.01:  Inc Max Depth 
 JARR.                      No:  Jarring 
 LETM.      18.40.00 29-Aug-21:  Log End Time 
 LOST.hr                     0:  Lost Rig Time 
 LSTM.      21.00.00 20-Aug-21:  Log Start Time 
 MDCL.ppm             41500.00:  Mud Chlorides 
 MDES.     Inversion Oil/Synthetic:  Mud Desc 
 DFD .sg                  1.56:  Mud Density 
 MDMN.sg                  1.56:  Dens Mud Min 
 MDMX.sg                  1.56:  Dens Mud Max 
 MOIL.                      70:  Run Mud Oil % 
 MOWR.                   70:30:  Run Mud OWR 
 MSND.                     0.2:  Run Mud Sand % 
 MSOL.                    23.3:  Run Mud Solids% 
 DFV .spqt               78.00:  Mud Viscosity 
 MWOD.in                  6.75:  MWD Tool OD 
 MWSI.                      No:  Serv Intrp, MWD 
 OTIM.hr                218.30:  Time Operating 
 PCON.           Look Like New:  Pad Condition 
 PMAX.psia            11015.30:  Press Op, Max 
 PV  .cP                 38.00:  Mud PV 
 RUN .                     300:  Run Number 
 ROPA.m/hr               15.00:  ROP Avg 
 ROPN.m/hr                9.00:  ROP Min 
 ROPX.m/hr               17.00:  ROP Max 
 RPMA.rpm               120.00:  RPM Surface Avg 
 RPMN.rpm                90.00:  RPM Surface Min 
 RPMX.rpm               140.00:  RPM Surface Max 
 RRUN.                     300:  Rig Run Number 
 RTIM.hr                 31.53:  Time Reaming 
 SAZI.deg               331.64:  Azm, Start 
 SDEP.m                4127.00:  Start Depth 
 SIDD.                      No:  Serv Intrp, DD 
 SINC.deg                48.43:  Inc, Start 
 SPPA.psig             5830.00:  SPP Avg 
 SPPN.psig             5600.00:  SPP Min 
 SPPX.psig             5900.00:  SPP Max 
 STIM.      21.00.00 20-Aug-21:  Start Time 
 SVCS.                 DD, MWD:  Services 
 SVER.                    9.20:  Sperry Version 
 TDAT.m                 957.50:  Tot Depth Attmp 
 TDDF.                      No:  Trip for DD 
 TDLG.m                 957.50:  Tot Depth Loggd 
 TFF .                      No:  Trip for Fail 
 TQAA.f-kp               15.00:  Torque Abs Avg 
 TQAN.f-kp               12.00:  Torque Abs Min 
 TQAX.f-kp               19.00:  Torque Abs Max 
 TRRT.°/30m              -3.40:  Turn Rotating 
 MRT .                  EWR-M5:  Maximum Recorded Temperature 
 TTMX.degC              100.00:  Max Tool Temp 
 VS01.                90639251:  Virtual Str1 SN 
 VS02.                90634715:  Virtual Str2 SN 
 VS03.                90652479:  Virtual Str3 SN 
 VS04.                90642262:  Virtual Str4 SN 
 WBMN.klb                 0.00:  WOB Min 
 WITN.           Murad Guliyev:  Customer Rep 
 WITN.          Yashar Gaziyev:  Customer Rep 2 
 WOBA.klb                 9.00:  WOB Avg 
 WOBX.klb                12.00:  WOB Max 
 YP  .lhf2               30.00:  Yield Point 
~Curve Information Block
#MNEM.UNIT                 API CODE     Curve Description
#---------               -----------    ---------------------------
 TIME.HHMMSS            00 000 000 000:  GT Time & Date
 GTDEPTH.m              00 000 000 000:  GT Depth
 GTPQH.psia             00 000 000 000:  GT HR Quartz Pressure
 GTTQ.degC              00 000 000 000:  GT Quartz Temperature
 GTTN.NONE              00 000 000 000:  GT Test Number
 GTET.sec               00 000 000 000:  GT Elapsed Test Time
 GTTVD.m                00 000 000 000:  GT True Vertical Depth
#Other Information
#
#WARRANTY: Halliburton will use its best efforts to furnish customers with 
#accurate information and interpretations that are part of, and incident to, the services 
#provided.  However, Halliburton cannot and does not warrant the accuracy 
#or correctness of such information and interpretations.  Under no circumstances should any 
#such information or interpretation be relied upon as the sole basis for any drilling, 
#completion, production, or financial decision or any procedure involving any risk to the 
#safety of any drilling venture, drilling rig or its crew or any other third party.  The 
#Customer has full responsibility for all drilling, completion and production operation.  
#Halliburton makes no representations or warranties, either expressed or 
#implied, including, but not limited to, the implied warranties of merchantability or fitness 
#for a particular purpose, with respect to the services rendered.  In no event will 
#Halliburton be liable for failure to obtain any particular results or for 
#any damages, including, but not limited to, indirect, special or consequential damages, 
#resulting from the use of any information or interpretation provided by Halliburton.
#
~A           TIME           GTDEPTH  GTPQH  GTTQ  GTTN   GTET   GTTVD  
# ...
   14:21:44.400.27-Aug-2021 4859.50 2542.33 84.37 15.00 203.40 3211.87
   14:21:44.600.27-Aug-2021 4859.50 2547.33 84.37 15.00 203.60 3211.87
   14:21:44.800.27-Aug-2021 4859.50 2552.32 84.37 15.00 203.80 3211.87
   14:21:45.000.27-Aug-2021 4859.50 2557.33 84.37 15.00 204.00 3211.87
   14:21:45.200.27-Aug-2021 4859.50 2557.33 84.37 15.00 204.20 3211.87
   14:21:45.400.27-Aug-2021 4859.50 2565.75 84.37 15.00 204.40 3211.87
   14:21:45.600.27-Aug-2021 4859.50 2570.69 84.37 15.00 204.60 3211.87
   14:21:45.800.27-Aug-2021 4859.50 2575.73 84.37 15.00 204.80 3211.87
   14:21:46.000.27-Aug-2021 4859.50 2580.66 84.37 15.00 205.00 3211.87
   14:21:46.200.27-Aug-2021 4859.50 2580.66 84.37 15.00 205.20 3211.87
   14:21:46.400.27-Aug-2021 4859.50 2590.56 84.37 15.00 205.40 3211.87
   14:21:46.600.27-Aug-2021 4859.50 2594.86 84.37 15.00 205.60 3211.87
   14:21:46.800.27-Aug-2021 4859.50 2599.88 84.37 15.00 205.80 3211.87
   14:21:47.000.27-Aug-2021 4859.50 2604.52 84.37 15.00 206.00 3211.87
   14:21:47.200.27-Aug-2021 4859.50 2604.52 84.37 15.00 206.20 3211.87
   14:21:47.400.27-Aug-2021 4859.50 2612.68 84.37 15.00 206.40 3211.87
   14:21:47.600.27-Aug-2021 4859.50 2617.09 84.37 15.00 206.60 3211.87
   14:21:47.800.27-Aug-2021 4859.50 2622.18 84.37 15.00 206.80 3211.87
   14:21:48.000.27-Aug-2021 4859.50 2626.97 84.37 15.00 207.00 3211.87
   14:21:48.200.27-Aug-2021 4859.50 2626.97 84.37 15.00 207.20 3211.87
   14:21:48.400.27-Aug-2021 4859.50 2636.64 84.37 15.00 207.40 3211.87
   14:21:48.600.27-Aug-2021 4859.50 2641.04 84.37 15.00 207.60 3211.87
   14:21:48.800.27-Aug-2021 4859.50 2645.94 84.37 15.00 207.80 3211.87
   14:21:49.000.27-Aug-2021 4859.50 2650.77 84.37 15.00 208.00 3211.87
   14:21:49.200.27-Aug-2021 4859.50 2650.77 84.37 15.00 208.20 3211.87
   14:21:49.400.27-Aug-2021 4859.50 2658.78 84.37 15.00 208.40 3211.87
   14:21:49.600.27-Aug-2021 4859.50 2663.60 84.38 15.00 208.60 3211.87
   14:21:49.800.27-Aug-2021 4859.50 2667.84 84.38 15.00 208.80 3211.87
   14:21:50.000.27-Aug-2021 4859.50 2672.87 84.38 15.00 209.00 3211.87
   14:21:50.200.27-Aug-2021 4859.50 2672.87 84.38 15.00 209.20 3211.87
   14:21:50.400.27-Aug-2021 4859.50 2682.26 84.38 15.00 209.40 3211.87
   14:21:50.600.27-Aug-2021 4859.50 2686.93 84.38 15.00 209.60 3211.87
   14:21:50.800.27-Aug-2021 4859.50 2691.74 84.38 15.00 209.80 3211.87
   14:21:51.000.27-Aug-2021 4859.50 2696.36 84.38 15.00 210.00 3211.87
   14:21:51.200.27-Aug-2021 4859.50 2696.36 84.38 15.00 210.20 3211.87
   14:21:51.400.27-Aug-2021 4859.50 2704.31 84.38 15.00 210.40 3211.87
   14:21:51.600.27-Aug-2021 4859.50 2708.86 84.38 15.00 210.60 3211.87
   14:21:51.800.27-Aug-2021 4859.50 2713.61 84.38 15.00 210.80 3211.87
   14:21:52.000.27-Aug-2021 4859.50 2718.28 84.38 15.00 211.00 3211.87
   14:21:52.200.27-Aug-2021 4859.50 2718.28 84.38 15.00 211.20 3211.87
   14:21:52.400.27-Aug-2021 4859.50 2727.63 84.38 15.00 211.40 3211.87
   14:21:52.600.27-Aug-2021 4859.50 2732.33 84.38 15.00 211.60 3211.87
   14:21:52.800.27-Aug-2021 4859.50 2736.91 84.38 15.00 211.80 3211.87
   14:21:53.000.27-Aug-2021 4859.50 2741.27 84.38 15.00 212.00 3211.87
   14:21:53.200.27-Aug-2021 4859.50 2741.27 84.38 15.00 212.20 3211.87
   14:21:53.400.27-Aug-2021 4859.50 2749.51 84.38 15.00 212.40 3211.87
   14:21:53.600.27-Aug-2021 4859.50 2752.90 84.38 15.00 212.60 3211.87
   14:21:53.800.27-Aug-2021 4859.50 2756.96 84.38 15.00 212.80 3211.87
   14:21:54.000.27-Aug-2021 4859.50 2761.61 84.38 15.00 213.00 3211.87
   14:21:54.200.27-Aug-2021 4859.50 2761.61 84.38 15.00 213.20 3211.87
   14:21:54.400.27-Aug-2021 4859.50 2770.79 84.38 15.00 213.40 3211.87
   14:21:54.600.27-Aug-2021 4859.50 2775.37 84.38 15.00 213.60 3211.87
   14:21:54.800.27-Aug-2021 4859.50 2779.94 84.38 15.00 213.80 3211.87
   14:21:55.000.27-Aug-2021 4859.50 2784.54 84.38 15.00 214.00 3211.87
   14:21:55.200.27-Aug-2021 4859.50 2784.54 84.38 15.00 214.20 3211.87
   14:21:55.400.27-Aug-2021 4859.50 2793.63 84.38 15.00 214.40 3211.87
   14:21:55.600.27-Aug-2021 4859.50 2798.03 84.38 15.00 214.60 3211.87
   14:21:55.800.27-Aug-2021 4859.50 2801.54 84.38 15.00 214.80 3211.87
   14:21:56.000.27-Aug-2021 4859.50 2805.46 84.38 15.00 215.00 3211.87
   14:21:56.200.27-Aug-2021 4859.50 2805.46 84.38 15.00 215.20 3211.87
   14:21:56.400.27-Aug-2021 4859.50 2813.36 84.38 15.00 215.40 3211.87
   14:21:56.600.27-Aug-2021 4859.50 2817.70 84.38 15.00 215.60 3211.87
   14:21:56.800.27-Aug-2021 4859.50 2822.17 84.38 15.00 215.80 3211.87
   14:21:57.000.27-Aug-2021 4859.50 2826.59 84.38 15.00 216.00 3211.87
   14:21:57.200.27-Aug-2021 4859.50 2826.59 84.38 15.00 216.20 3211.87
   14:21:57.400.27-Aug-2021 4859.50 2835.02 84.38 15.00 216.40 3211.87
   14:21:57.600.27-Aug-2021 4859.50 2839.35 84.38 15.00 216.60 3211.87
   14:21:57.800.27-Aug-2021 4859.50 2843.71 84.38 15.00 216.80 3211.87
   14:21:58.000.27-Aug-2021 4859.50 2847.00 84.38 15.00 217.00 3211.87
   14:21:58.200.27-Aug-2021 4859.50 2847.00 84.38 15.00 217.20 3211.87
   14:21:58.400.27-Aug-2021 4859.50 2854.98 84.38 15.00 217.40 3211.87
   14:21:58.600.27-Aug-2021 4859.50 2859.39 84.38 15.00 217.60 3211.87
   14:21:58.800.27-Aug-2021 4859.50 2863.76 84.38 15.00 217.80 3211.87
   14:21:59.000.27-Aug-2021 4859.50 2867.77 84.38 15.00 218.00 3211.87
   14:21:59.200.27-Aug-2021 4859.50 2867.77 84.38 15.00 218.20 3211.87
   14:21:59.400.27-Aug-2021 4859.50 2876.54 84.38 15.00 218.40 3211.87
   14:21:59.600.27-Aug-2021 4859.50 2880.93 84.38 15.00 218.60 3211.87
   14:21:59.800.27-Aug-2021 4859.50 2885.24 84.38 15.00 218.80 3211.87
   14:22:00.000.27-Aug-2021 4859.50 2889.24 84.38 15.00 219.00 3211.87
   14:22:00.200.27-Aug-2021 4859.50 2889.24 84.38 15.00 219.20 3211.87
   14:22:00.400.27-Aug-2021 4859.50 2896.78 84.38 15.00 219.40 3211.87
   14:22:00.600.27-Aug-2021 4859.50 2901.10 84.38 15.00 219.60 3211.87
   14:22:00.800.27-Aug-2021 4859.50 2905.50 84.38 15.00 219.80 3211.87
   14:22:01.000.27-Aug-2021 4859.50 2909.81 84.38 15.00 220.00 3211.87
   14:22:01.200.27-Aug-2021 4859.50 2909.81 84.38 15.00 220.20 3211.87
   14:22:01.400.27-Aug-2021 4859.50 2918.48 84.39 15.00 220.40 3211.87
   14:22:01.600.27-Aug-2021 4859.50 2922.73 84.39 15.00 220.60 3211.87
   14:22:01.800.27-Aug-2021 4859.50 2927.06 84.39 15.00 220.80 3211.87
   14:22:02.000.27-Aug-2021 4859.50 2931.24 84.39 15.00 221.00 3211.87
   14:22:02.200.27-Aug-2021 4859.50 2931.24 84.39 15.00 221.20 3211.87
   14:22:02.400.27-Aug-2021 4859.50 2937.40 84.39 15.00 221.40 3211.87
   14:22:02.600.27-Aug-2021 4859.50 2941.27 84.39 15.00 221.60 3211.87
   14:22:02.800.27-Aug-2021 4859.50 2945.50 84.39 15.00 221.80 3211.87
   14:22:03.000.27-Aug-2021 4859.50 2949.72 84.39 15.00 222.00 3211.87
   14:22:03.200.27-Aug-2021 4859.50 2949.72 84.39 15.00 222.20 3211.87
   14:22:03.400.27-Aug-2021 4859.50 2958.19 84.39 15.00 222.40 3211.87
   14:22:03.600.27-Aug-2021 4859.50 2962.46 84.39 15.00 222.60 3211.87
   14:22:03.800.27-Aug-2021 4859.50 2966.65 84.39 15.00 222.80 3211.87
   14:22:04.000.27-Aug-2021 4859.50 2970.94 84.39 15.00 223.00 3211.87
   14:22:04.200.27-Aug-2021 4859.50 2970.94 84.39 15.00 223.20 3211.87
   14:22:04.400.27-Aug-2021 4859.50 2979.26 84.39 15.00 223.40 3211.87
   14:22:04.600.27-Aug-2021 4859.50 2982.74 84.39 15.00 223.60 3211.87
   14:22:04.800.27-Aug-2021 4859.50 2985.93 84.39 15.00 223.80 3211.87
   14:22:05.000.27-Aug-2021 4859.50 2990.08 84.39 15.00 224.00 3211.87
   14:22:05.200.27-Aug-2021 4859.50 2990.08 84.39 15.00 224.20 3211.87
   14:22:05.400.27-Aug-2021 4859.50 2997.49 84.39 15.00 224.40 3211.87
   14:22:05.600.27-Aug-2021 4859.50 3001.54 84.39 15.00 224.60 3211.87
   14:22:05.800.27-Aug-2021 4859.50 3005.57 84.39 15.00 224.80 3211.87
   14:22:06.000.27-Aug-2021 4859.50 3009.62 84.39 15.00 225.00 3211.87
   14:22:06.200.27-Aug-2021 4859.50 3009.62 84.39 15.00 225.20 3211.87
   14:22:06.400.27-Aug-2021 4859.50 3017.91 84.39 15.00 225.40 3211.87
   14:22:06.600.27-Aug-2021 4859.50 3021.75 84.39 15.00 225.60 3211.87
   14:22:06.800.27-Aug-2021 4859.50 3025.12 84.39 15.00 225.80 3211.87
