~Version Information
 VERS.                  2.0:   CWLS log ASCII Standard -VERSION 2.0
 WRAP.                   NO:   One line per depth step
~Well Information Block
#MNEM.UNIT     VALUE/NAME     DESCRIPTION
#---------     -----------    ---------------------------
 STRT.S             21:02:56 27-Aug-21: START TIME 21:02:56 27-Aug-21
 STOP.S             21:10:06 27-Aug-21: STOP TIME  21:10:06 27-Aug-21
 STEP.S                   0.00: STEP TIME
 NULL.                 -999.25: NULL VALUE
 DFWT.                        :  DIST FWL TEXT
 DFST.                        :  DIST FSL TEXT
 DMF .             Drill Floor:  DRILL MEAS FROM
 STIM.      20.00.00 17-Aug-21:  START TIME
 DATE.      19.00.00 29-Aug-21:  END TIME
 SPUD.               15-Aug-21:  SPUD DATE
 NREF.                    Grid:  NORTH REFERENCE
 HPTY.       Minimum Curvature:  HOLE POS TYPE
 DMOD.             Drill Model:  DRILL MOD DESC
 SVYD.                  Survey:  SURVEY DESC
 ILTD.               Lithology:  INTERP LTH DESC
 FTOP.          Formation Tops:  FORM TOPS DESC
 RIG .              East Azeri:  RIG NAME
 PDAT.          Mean Sea Level:  PERMANENT DATUM
 FLD .                     ACG:  FIELD NAME
 SON .        AZ-XX-0907180857:  JOB NUMBER
 CTRY.              Azerbaijan:  COUNTRY NAME
 WELL.                    D23x:  WELL NAME
 SRVC.     Turan Drilling and Engineering:  CONTRACTOR
 COMP.     BP Exploration (Caspian Sea) Ltd.:  COMPANY
 UWI .            /AZE00000214:  UNIQUE WELL IDENTIFIER
 API .            /AZE00000214:  API NUMBER
 MDS .        Operator Entered:  MAG DATA SOURCE
 BASE.              Azerbaijan:  LOGGING EQUIPMENT BASE LOCATION
 REGN.                   EESSA:  REGION
 PROV.                    Baku:  PROVINCE
 STAT.                    Baku:  STATE NAME
 MWDS.                    Baku:  MWD SHOP
 DOE .                     N/A:  DOE NUMBER
 DCON.         Sperry Drilling:  DIRECTNL CONTR
 UNIT.                     N/A:  LOGGING EQUIPMENT ID
 WTYP.                Deviated:  WELL TYPE
 CNTY.                        :  COUNTY
 LOC .                        :  LOCATION
 LMF .             Drill Floor:  LOG MEASURED FROM
 TVDS.m                  43.60:  TVDSS CORRECTN
 LATI.deg                40.02:  LATITUDE
 LONG.deg                51.45:  LONGITUDE
 WHNS.m                  -7.04:  WELL HEAD N/S
 WHEW.m                  -0.67:  WELL HEAD E/W
 UTMX.m              538762.90:  UTM X
 UTMY.m             4431871.34:  UTM Y
 DFWL.m                   0.00:  DISTANCE FWL
 DFSL.m                   0.00:  DISTANCE FSL
 SDEP.m                4127.00:  START DEPTH
 TDD .m                5084.50:  TOTAL DEPTH (DRILLER)
 VSDR.deg               140.47:  VERT SEC DIRECT
 GVFD.g                   1.00:  GRAVITY FIELD
 MFLD.nT              50362.00:  MAGNETIC FIELD
 MDIP.deg                59.48:  MAGNETIC DIP
 MDEC.deg                 6.47:  MAGNETIC DECL
 GRDC.deg                 0.31:  GRID CORRECTION
 AZTC.deg                 6.16:  AZM TOTAL CORR
 EPD .m                   0.00:  ELEVATION
 EGL .m                   0.00:  GROUND ELEVATION
 WDMS.m                 151.80:  WD ELEV
 APD .m                  43.60:  DEPTH ABOVE PD
 DEP .m                4092.57:  DEPTH
 AGAP.m                  43.60:  AIR GAP
 VSEW.m                  -0.67:  VERT SEC E/W
 VSNS.m                  -7.04:  VERT SEC N/S
 EKB .m                  43.60:  KB ELEVATION
 EDF .m                  43.60:  DF ELEVATION
 TDL .m                 957.50:  TOTAL DEPTH (LOGGER)
 VSC .                       0:  VS TO CLOSURE
 MAGU.                 1851413:  MAGUTM CHECKSUM
~Parameter Information Block
#MNEM.UNIT       Value        Description
#---------     -----------    ---------------------------
 AV  .mps                 1.50:  Ann Velocity 
 AVMX.mps                 2.00:  Max Ann Veloc 
 AZIF.deg               184.66:  Azm, Final 
 BHAT.        Rotary Steerable:  BHA Type 
 BREV.rev               300.00:  Rev Bit Total 
 BROT.°/30m              -0.50:  Build Rotating 
 BS  .in                  8.50:  Bit Size 
 BSZ .in                  8.50:  Bit Size 
 BTPL.psig              370.00:  Bit Press Loss 
 CABU.                      No:  Customer Abuse 
 CGEO.      Behruz Shahbaliyev:  Customer Geo 
 COMM.                     <]h:  Run Comments 1 
 TCS .hr                140.08:  Time Ciculation Ended 
 CV  .mps                 3.00:  Crit Velocity 
 CVMX.mps                 3.20:  Max Crit Veloc 
 DD1 .            Musa Ahmadov:  Direct Drillr 1 
 DD2 .           Hamid Ahmadov:  Direct Drillr 2 
 DDSV.               Geo-Pilot:  DD Service 
 DEFF.%                  98.40:  % Det Eff 
 DLRX.°/30m               3.40:  Dogleg Rot Max 
 DLSO.°/30m               1.45:  Dogleg Oriented 
 DLSX.°/30m               3.40:  Dogleg Str Max 
 DRET.      18.40.00 29-Aug-21:  Drill End Time 
 DRST.      21.00.00 20-Aug-21:  Drill Start Tim 
 DTIM.hr                 69.47:  Time Drilling 
 EDEP.m                5084.50:  End Depth 
 ENG1.      Artemiy Matviyanov:  Engineer 1 
 ENG2.         Almaz Almadatov:  Engineer 2 
 ETIM.      18.40.00 29-Aug-21:  End Time 
 FLOI.gpm               500.00:  Flow In 
 FLON.gpm               400.00:  Flow In Min 
 FLOS.cptm                0.00:  Fluid Loss 
 FLOX.gpm               500.00:  Flow In Max 
 DFT .        Mineral Oil Base:  Mud Type 
 HFLO.                      No:  High Flow 
 HPRE.                      No:  High Pressure 
 HTEM.                      No:  High Temp 
 HYDO.m                   1.80:  Hydro Offset 
 IFIN.deg                25.62:  Inc, Final 
 IMAX.deg                48.69:  Inc Max 
 IMIN.deg                24.01:  Inc Min 
 IMND.m                4962.57:  Inc Min Depth 
 IMXD.m                4119.01:  Inc Max Depth 
 JARR.                      No:  Jarring 
 LETM.      18.40.00 29-Aug-21:  Log End Time 
 LOST.hr                     0:  Lost Rig Time 
 LSTM.      21.00.00 20-Aug-21:  Log Start Time 
 MDCL.ppm             41500.00:  Mud Chlorides 
 MDES.     Inversion Oil/Synthetic:  Mud Desc 
 DFD .sg                  1.56:  Mud Density 
 MDMN.sg                  1.56:  Dens Mud Min 
 MDMX.sg                  1.56:  Dens Mud Max 
 MOIL.                      70:  Run Mud Oil % 
 MOWR.                   70:30:  Run Mud OWR 
 MSND.                     0.2:  Run Mud Sand % 
 MSOL.                    23.3:  Run Mud Solids% 
 DFV .spqt               78.00:  Mud Viscosity 
 MWOD.in                  6.75:  MWD Tool OD 
 MWSI.                      No:  Serv Intrp, MWD 
 OTIM.hr                218.30:  Time Operating 
 PCON.           Look Like New:  Pad Condition 
 PMAX.psia            11015.30:  Press Op, Max 
 PV  .cP                 38.00:  Mud PV 
 RUN .                     300:  Run Number 
 ROPA.m/hr               15.00:  ROP Avg 
 ROPN.m/hr                9.00:  ROP Min 
 ROPX.m/hr               17.00:  ROP Max 
 RPMA.rpm               120.00:  RPM Surface Avg 
 RPMN.rpm                90.00:  RPM Surface Min 
 RPMX.rpm               140.00:  RPM Surface Max 
 RRUN.                     300:  Rig Run Number 
 RTIM.hr                 31.53:  Time Reaming 
 SAZI.deg               331.64:  Azm, Start 
 SDEP.m                4127.00:  Start Depth 
 SIDD.                      No:  Serv Intrp, DD 
 SINC.deg                48.43:  Inc, Start 
 SPPA.psig             5830.00:  SPP Avg 
 SPPN.psig             5600.00:  SPP Min 
 SPPX.psig             5900.00:  SPP Max 
 STIM.      21.00.00 20-Aug-21:  Start Time 
 SVCS.                 DD, MWD:  Services 
 SVER.                    9.20:  Sperry Version 
 TDAT.m                 957.50:  Tot Depth Attmp 
 TDDF.                      No:  Trip for DD 
 TDLG.m                 957.50:  Tot Depth Loggd 
 TFF .                      No:  Trip for Fail 
 TQAA.f-kp               15.00:  Torque Abs Avg 
 TQAN.f-kp               12.00:  Torque Abs Min 
 TQAX.f-kp               19.00:  Torque Abs Max 
 TRRT.°/30m              -3.40:  Turn Rotating 
 MRT .                  EWR-M5:  Maximum Recorded Temperature 
 TTMX.degC              100.00:  Max Tool Temp 
 VS01.                90639251:  Virtual Str1 SN 
 VS02.                90634715:  Virtual Str2 SN 
 VS03.                90652479:  Virtual Str3 SN 
 VS04.                90642262:  Virtual Str4 SN 
 WBMN.klb                 0.00:  WOB Min 
 WITN.           Murad Guliyev:  Customer Rep 
 WITN.          Yashar Gaziyev:  Customer Rep 2 
 WOBA.klb                 9.00:  WOB Avg 
 WOBX.klb                12.00:  WOB Max 
 YP  .lhf2               30.00:  Yield Point 
~Curve Information Block
#MNEM.UNIT                 API CODE     Curve Description
#---------               -----------    ---------------------------
 TIME.HHMMSS            00 000 000 000:  GT Time & Date
 GTDEPTH.m              00 000 000 000:  GT Depth
 GTPQH.psia             00 000 000 000:  GT HR Quartz Pressure
 GTTQ.degC              00 000 000 000:  GT Quartz Temperature
 GTTN.NONE              00 000 000 000:  GT Test Number
 GTET.sec               00 000 000 000:  GT Elapsed Test Time
 GTTVD.m                00 000 000 000:  GT True Vertical Depth
#Other Information
#
#WARRANTY: Halliburton will use its best efforts to furnish customers with 
#accurate information and interpretations that are part of, and incident to, the services 
#provided.  However, Halliburton cannot and does not warrant the accuracy 
#or correctness of such information and interpretations.  Under no circumstances should any 
#such information or interpretation be relied upon as the sole basis for any drilling, 
#completion, production, or financial decision or any procedure involving any risk to the 
#safety of any drilling venture, drilling rig or its crew or any other third party.  The 
#Customer has full responsibility for all drilling, completion and production operation.  
#Halliburton makes no representations or warranties, either expressed or 
#implied, including, but not limited to, the implied warranties of merchantability or fitness 
#for a particular purpose, with respect to the services rendered.  In no event will 
#Halliburton be liable for failure to obtain any particular results or for 
#any damages, including, but not limited to, indirect, special or consequential damages, 
#resulting from the use of any information or interpretation provided by Halliburton.
#
~A           TIME           GTDEPTH  GTPQH  GTTQ  GTTN   GTET   GTTVD  
# ...
   21:07:49.952.27-Aug-2021 4647.50 4517.21 82.36 22.00 293.83 3019.99
   21:07:50.152.27-Aug-2021 4647.50 4517.24 82.36 22.00 294.03 3019.99
   21:07:50.352.27-Aug-2021 4647.50 4517.24 82.36 22.00 294.23 3019.99
   21:07:50.552.27-Aug-2021 4647.50 4517.01 82.36 22.00 294.43 3019.99
   21:07:50.752.27-Aug-2021 4647.50 4517.38 82.36 22.00 294.63 3019.99
   21:07:50.952.27-Aug-2021 4647.50 4517.25 82.36 22.00 294.83 3019.99
   21:07:51.152.27-Aug-2021 4647.50 4517.26 82.36 22.00 295.03 3019.99
   21:07:51.352.27-Aug-2021 4647.50 4517.26 82.36 22.00 295.23 3019.99
   21:07:51.552.27-Aug-2021 4647.50 4517.08 82.36 22.00 295.43 3019.99
   21:07:51.753.27-Aug-2021 4647.50 4517.39 82.36 22.00 295.63 3019.99
   21:07:51.953.27-Aug-2021 4647.50 4517.29 82.36 22.00 295.83 3019.99
   21:07:52.153.27-Aug-2021 4647.50 4517.27 82.36 22.00 296.03 3019.99
   21:07:52.353.27-Aug-2021 4647.50 4517.27 82.36 22.00 296.23 3019.99
   21:07:52.553.27-Aug-2021 4647.50 4517.27 82.36 22.00 296.43 3019.99
   21:07:52.753.27-Aug-2021 4647.50 4517.25 82.36 22.00 296.63 3019.99
   21:07:52.953.27-Aug-2021 4647.50 4517.24 82.36 22.00 296.83 3019.99
   21:07:53.153.27-Aug-2021 4647.50 4517.22 82.36 22.00 297.03 3019.99
   21:07:53.353.27-Aug-2021 4647.50 4517.22 82.36 22.00 297.23 3019.99
   21:07:53.553.27-Aug-2021 4647.50 4517.23 82.36 22.00 297.43 3019.99
   21:07:53.753.27-Aug-2021 4647.50 4517.22 82.36 22.00 297.63 3019.99
   21:07:53.953.27-Aug-2021 4647.50 4517.22 82.36 22.00 297.83 3019.99
   21:07:54.153.27-Aug-2021 4647.50 4517.22 82.36 22.00 298.03 3019.99
   21:07:54.353.27-Aug-2021 4647.50 4517.22 82.36 22.00 298.23 3019.99
   21:07:54.553.27-Aug-2021 4647.50 4517.21 82.36 22.00 298.43 3019.99
   21:07:54.753.27-Aug-2021 4647.50 4517.17 82.36 22.00 298.63 3019.99
   21:07:54.953.27-Aug-2021 4647.50 4517.34 82.36 22.00 298.83 3019.99
   21:07:55.153.27-Aug-2021 4647.50 4517.32 82.36 22.00 299.03 3019.99
   21:07:55.353.27-Aug-2021 4647.50 4517.32 82.36 22.00 299.23 3019.99
   21:07:55.553.27-Aug-2021 4647.50 4517.33 82.36 22.00 299.43 3019.99
   21:07:55.753.27-Aug-2021 4647.50 4517.31 82.36 22.00 299.63 3019.99
   21:07:55.953.27-Aug-2021 4647.50 4517.30 82.36 22.00 299.83 3019.99
   21:07:56.153.27-Aug-2021 4647.50 4517.28 82.36 22.00 300.03 3019.99
   21:07:56.353.27-Aug-2021 4647.50 4517.28 82.36 22.00 300.23 3019.99
   21:07:56.553.27-Aug-2021 4647.50 4517.30 82.36 22.00 300.43 3019.99
   21:07:56.753.27-Aug-2021 4647.50 4517.28 82.36 22.00 300.63 3019.99
   21:07:56.953.27-Aug-2021 4647.50 4517.27 82.36 22.00 300.83 3019.99
   21:07:57.153.27-Aug-2021 4647.50 4517.27 82.36 22.00 301.03 3019.99
   21:07:57.353.27-Aug-2021 4647.50 4517.27 82.36 22.00 301.23 3019.99
   21:07:57.553.27-Aug-2021 4647.50 4517.27 82.36 22.00 301.43 3019.99
   21:07:57.753.27-Aug-2021 4647.50 4517.25 82.36 22.00 301.63 3019.99
   21:07:57.953.27-Aug-2021 4647.50 4517.13 82.36 22.00 301.83 3019.99
   21:07:58.153.27-Aug-2021 4647.50 4517.44 82.36 22.00 302.03 3019.99
   21:07:58.353.27-Aug-2021 4647.50 4517.44 82.36 22.00 302.23 3019.99
   21:07:58.553.27-Aug-2021 4647.50 4517.36 82.36 22.00 302.43 3019.99
   21:07:58.753.27-Aug-2021 4647.50 4517.37 82.36 22.00 302.63 3019.99
   21:07:58.953.27-Aug-2021 4647.50 4517.38 82.36 22.00 302.83 3019.99
   21:07:59.153.27-Aug-2021 4647.50 4517.36 82.36 22.00 303.03 3019.99
   21:07:59.353.27-Aug-2021 4647.50 4517.36 82.36 22.00 303.23 3019.99
   21:07:59.553.27-Aug-2021 4647.50 4517.41 82.36 22.00 303.43 3019.99
   21:07:59.753.27-Aug-2021 4647.50 4517.40 82.36 22.00 303.63 3019.99
   21:07:59.953.27-Aug-2021 4647.50 4517.40 82.36 22.00 303.83 3019.99
   21:08:00.153.27-Aug-2021 4647.50 4517.30 82.36 22.00 304.03 3019.99
   21:08:00.353.27-Aug-2021 4647.50 4517.30 82.36 22.00 304.23 3019.99
   21:08:00.553.27-Aug-2021 4647.50 4517.43 82.36 22.00 304.43 3019.99
   21:08:00.753.27-Aug-2021 4647.50 4517.43 82.36 22.00 304.63 3019.99
   21:08:00.953.27-Aug-2021 4647.50 4517.25 82.36 22.00 304.83 3019.99
   21:08:01.153.27-Aug-2021 4647.50 4517.54 82.36 22.00 305.03 3019.99
   21:08:01.353.27-Aug-2021 4647.50 4517.54 82.36 22.00 305.23 3019.99
   21:08:01.554.27-Aug-2021 4647.50 4517.45 82.36 22.00 305.43 3019.99
   21:08:01.754.27-Aug-2021 4647.50 4517.45 82.36 22.00 305.63 3019.99
   21:08:01.954.27-Aug-2021 4647.50 4517.46 82.36 22.00 305.83 3019.99
   21:08:02.154.27-Aug-2021 4647.50 4517.42 82.36 22.00 306.03 3019.99
   21:08:02.354.27-Aug-2021 4647.50 4517.42 82.36 22.00 306.23 3019.99
   21:08:02.554.27-Aug-2021 4647.50 4517.43 82.36 22.00 306.43 3019.99
   21:08:02.754.27-Aug-2021 4647.50 4517.44 82.36 22.00 306.63 3019.99
   21:08:02.954.27-Aug-2021 4647.50 4517.44 82.36 22.00 306.83 3019.99
   21:08:03.154.27-Aug-2021 4647.50 4517.43 82.36 22.00 307.03 3019.99
   21:08:03.354.27-Aug-2021 4647.50 4517.43 82.36 22.00 307.23 3019.99
   21:08:03.554.27-Aug-2021 4647.50 4517.40 82.36 22.00 307.43 3019.99
   21:08:03.754.27-Aug-2021 4647.50 4517.42 82.36 22.00 307.63 3019.99
   21:08:03.954.27-Aug-2021 4647.50 4517.42 82.36 22.00 307.83 3019.99
   21:08:04.154.27-Aug-2021 4647.50 4517.33 82.36 22.00 308.03 3019.99
   21:08:04.354.27-Aug-2021 4647.50 4517.33 82.36 22.00 308.23 3019.99
   21:08:04.554.27-Aug-2021 4647.50 4517.49 82.36 22.00 308.43 3019.99
   21:08:04.754.27-Aug-2021 4647.50 4517.46 82.36 22.00 308.63 3019.99
   21:08:04.954.27-Aug-2021 4647.50 4517.47 82.36 22.00 308.83 3019.99
   21:08:05.154.27-Aug-2021 4647.50 4517.48 82.36 22.00 309.03 3019.99
   21:08:05.354.27-Aug-2021 4647.50 4517.48 82.36 22.00 309.23 3019.99
   21:08:05.554.27-Aug-2021 4647.50 4517.45 82.36 22.00 309.43 3019.99
   21:08:05.754.27-Aug-2021 4647.50 4517.46 82.36 22.00 309.63 3019.99
   21:08:05.954.27-Aug-2021 4647.50 4517.45 82.36 22.00 309.83 3019.99
   21:08:06.154.27-Aug-2021 4647.50 4517.45 82.36 22.00 310.03 3019.99
   21:08:06.354.27-Aug-2021 4647.50 4517.45 82.36 22.00 310.23 3019.99
   21:08:06.554.27-Aug-2021 4647.50 4517.44 82.36 22.00 310.43 3019.99
   21:08:06.754.27-Aug-2021 4647.50 4517.46 82.36 22.00 310.63 3019.99
   21:08:06.954.27-Aug-2021 4647.50 4517.44 82.36 22.00 310.83 3019.99
   21:08:07.154.27-Aug-2021 4647.50 4517.45 82.36 22.00 311.03 3019.99
   21:08:07.354.27-Aug-2021 4647.50 4517.45 82.36 22.00 311.23 3019.99
   21:08:07.554.27-Aug-2021 4647.50 4517.38 82.36 22.00 311.43 3019.99
   21:08:07.754.27-Aug-2021 4647.50 4517.54 82.36 22.00 311.63 3019.99
   21:08:07.954.27-Aug-2021 4647.50 4517.49 82.36 22.00 311.83 3019.99
   21:08:08.154.27-Aug-2021 4647.50 4517.48 82.36 22.00 312.03 3019.99
   21:08:08.354.27-Aug-2021 4647.50 4517.48 82.36 22.00 312.23 3019.99
   21:08:08.554.27-Aug-2021 4647.50 4517.53 82.36 22.00 312.43 3019.99
   21:08:08.754.27-Aug-2021 4647.50 4517.32 82.36 22.00 312.63 3019.99
   21:08:08.954.27-Aug-2021 4647.50 4517.61 82.36 22.00 312.83 3019.99
   21:08:09.154.27-Aug-2021 4647.50 4517.51 82.36 22.00 313.03 3019.99
   21:08:09.354.27-Aug-2021 4647.50 4517.51 82.36 22.00 313.23 3019.99
   21:08:09.554.27-Aug-2021 4647.50 4517.38 82.36 22.00 313.43 3019.99
   21:08:09.754.27-Aug-2021 4647.50 4517.62 82.36 22.00 313.63 3019.99
   21:08:09.954.27-Aug-2021 4647.50 4517.52 82.36 22.00 313.83 3019.99
   21:08:10.154.27-Aug-2021 4647.50 4517.55 82.36 22.00 314.03 3019.99
   21:08:10.354.27-Aug-2021 4647.50 4517.55 82.36 22.00 314.23 3019.99
   21:08:10.554.27-Aug-2021 4647.50 4517.41 82.36 22.00 314.43 3019.99
   21:08:10.754.27-Aug-2021 4647.50 4517.57 82.36 22.00 314.63 3019.99
   21:08:10.954.27-Aug-2021 4647.50 4517.54 82.36 22.00 314.83 3019.99
   21:08:11.154.27-Aug-2021 4647.50 4517.53 82.36 22.00 315.03 3019.99
   21:08:11.355.27-Aug-2021 4647.50 4517.53 82.36 22.00 315.23 3019.99
   21:08:11.555.27-Aug-2021 4647.50 4517.53 82.36 22.00 315.43 3019.99
   21:08:11.755.27-Aug-2021 4647.50 4517.51 82.36 22.00 315.63 3019.99
   21:08:11.955.27-Aug-2021 4647.50 4517.54 82.36 22.00 315.83 3019.99
   21:08:12.155.27-Aug-2021 4647.50 4517.52 82.36 22.00 316.03 3019.99
   21:08:12.355.27-Aug-2021 4647.50 4517.52 82.36 22.00 316.23 3019.99
