~Version Information
 VERS.                  2.0:   CWLS log ASCII Standard -VERSION 2.0
 WRAP.                   NO:   One line per depth step
~Well Information Block
#MNEM.UNIT     VALUE/NAME     DESCRIPTION
#---------     -----------    ---------------------------
 STRT.S             01:57:49 28-Aug-21: START TIME 01:57:49 28-Aug-21
 STOP.S             02:04:41 28-Aug-21: STOP TIME  02:04:41 28-Aug-21
 STEP.S                   0.00: STEP TIME
 NULL.                 -999.25: NULL VALUE
 DFWT.                        :  DIST FWL TEXT
 DFST.                        :  DIST FSL TEXT
 DMF .             Drill Floor:  DRILL MEAS FROM
 STIM.      20.00.00 17-Aug-21:  START TIME
 DATE.      19.00.00 29-Aug-21:  END TIME
 SPUD.               15-Aug-21:  SPUD DATE
 NREF.                    Grid:  NORTH REFERENCE
 HPTY.       Minimum Curvature:  HOLE POS TYPE
 DMOD.             Drill Model:  DRILL MOD DESC
 SVYD.                  Survey:  SURVEY DESC
 ILTD.               Lithology:  INTERP LTH DESC
 FTOP.          Formation Tops:  FORM TOPS DESC
 RIG .              East Azeri:  RIG NAME
 PDAT.          Mean Sea Level:  PERMANENT DATUM
 FLD .                     ACG:  FIELD NAME
 SON .        AZ-XX-0907180857:  JOB NUMBER
 CTRY.              Azerbaijan:  COUNTRY NAME
 WELL.                    D23x:  WELL NAME
 SRVC.     Turan Drilling and Engineering:  CONTRACTOR
 COMP.     BP Exploration (Caspian Sea) Ltd.:  COMPANY
 UWI .            /AZE00000214:  UNIQUE WELL IDENTIFIER
 API .            /AZE00000214:  API NUMBER
 MDS .        Operator Entered:  MAG DATA SOURCE
 BASE.              Azerbaijan:  LOGGING EQUIPMENT BASE LOCATION
 REGN.                   EESSA:  REGION
 PROV.                    Baku:  PROVINCE
 STAT.                    Baku:  STATE NAME
 MWDS.                    Baku:  MWD SHOP
 DOE .                     N/A:  DOE NUMBER
 DCON.         Sperry Drilling:  DIRECTNL CONTR
 UNIT.                     N/A:  LOGGING EQUIPMENT ID
 WTYP.                Deviated:  WELL TYPE
 CNTY.                        :  COUNTY
 LOC .                        :  LOCATION
 LMF .             Drill Floor:  LOG MEASURED FROM
 TVDS.m                  43.60:  TVDSS CORRECTN
 LATI.deg                40.02:  LATITUDE
 LONG.deg                51.45:  LONGITUDE
 WHNS.m                  -7.04:  WELL HEAD N/S
 WHEW.m                  -0.67:  WELL HEAD E/W
 UTMX.m              538762.90:  UTM X
 UTMY.m             4431871.34:  UTM Y
 DFWL.m                   0.00:  DISTANCE FWL
 DFSL.m                   0.00:  DISTANCE FSL
 SDEP.m                4127.00:  START DEPTH
 TDD .m                5084.50:  TOTAL DEPTH (DRILLER)
 VSDR.deg               140.47:  VERT SEC DIRECT
 GVFD.g                   1.00:  GRAVITY FIELD
 MFLD.nT              50362.00:  MAGNETIC FIELD
 MDIP.deg                59.48:  MAGNETIC DIP
 MDEC.deg                 6.47:  MAGNETIC DECL
 GRDC.deg                 0.31:  GRID CORRECTION
 AZTC.deg                 6.16:  AZM TOTAL CORR
 EPD .m                   0.00:  ELEVATION
 EGL .m                   0.00:  GROUND ELEVATION
 WDMS.m                 151.80:  WD ELEV
 APD .m                  43.60:  DEPTH ABOVE PD
 DEP .m                4092.57:  DEPTH
 AGAP.m                  43.60:  AIR GAP
 VSEW.m                  -0.67:  VERT SEC E/W
 VSNS.m                  -7.04:  VERT SEC N/S
 EKB .m                  43.60:  KB ELEVATION
 EDF .m                  43.60:  DF ELEVATION
 TDL .m                 957.50:  TOTAL DEPTH (LOGGER)
 VSC .                       0:  VS TO CLOSURE
 MAGU.                 1851413:  MAGUTM CHECKSUM
~Parameter Information Block
#MNEM.UNIT       Value        Description
#---------     -----------    ---------------------------
 AV  .mps                 1.50:  Ann Velocity 
 AVMX.mps                 2.00:  Max Ann Veloc 
 AZIF.deg               184.66:  Azm, Final 
 BHAT.        Rotary Steerable:  BHA Type 
 BREV.rev               300.00:  Rev Bit Total 
 BROT.°/30m              -0.50:  Build Rotating 
 BS  .in                  8.50:  Bit Size 
 BSZ .in                  8.50:  Bit Size 
 BTPL.psig              370.00:  Bit Press Loss 
 CABU.                      No:  Customer Abuse 
 CGEO.      Behruz Shahbaliyev:  Customer Geo 
 COMM.                     Äi}:  Run Comments 1 
 TCS .hr                140.08:  Time Ciculation Ended 
 CV  .mps                 3.00:  Crit Velocity 
 CVMX.mps                 3.20:  Max Crit Veloc 
 DD1 .            Musa Ahmadov:  Direct Drillr 1 
 DD2 .           Hamid Ahmadov:  Direct Drillr 2 
 DDSV.               Geo-Pilot:  DD Service 
 DEFF.%                  98.40:  % Det Eff 
 DLRX.°/30m               3.40:  Dogleg Rot Max 
 DLSO.°/30m               1.45:  Dogleg Oriented 
 DLSX.°/30m               3.40:  Dogleg Str Max 
 DRET.      18.40.00 29-Aug-21:  Drill End Time 
 DRST.      21.00.00 20-Aug-21:  Drill Start Tim 
 DTIM.hr                 69.47:  Time Drilling 
 EDEP.m                5084.50:  End Depth 
 ENG1.      Artemiy Matviyanov:  Engineer 1 
 ENG2.         Almaz Almadatov:  Engineer 2 
 ETIM.      18.40.00 29-Aug-21:  End Time 
 FLOI.gpm               500.00:  Flow In 
 FLON.gpm               400.00:  Flow In Min 
 FLOS.cptm                0.00:  Fluid Loss 
 FLOX.gpm               500.00:  Flow In Max 
 DFT .        Mineral Oil Base:  Mud Type 
 HFLO.                      No:  High Flow 
 HPRE.                      No:  High Pressure 
 HTEM.                      No:  High Temp 
 HYDO.m                   1.80:  Hydro Offset 
 IFIN.deg                25.62:  Inc, Final 
 IMAX.deg                48.69:  Inc Max 
 IMIN.deg                24.01:  Inc Min 
 IMND.m                4962.57:  Inc Min Depth 
 IMXD.m                4119.01:  Inc Max Depth 
 JARR.                      No:  Jarring 
 LETM.      18.40.00 29-Aug-21:  Log End Time 
 LOST.hr                     0:  Lost Rig Time 
 LSTM.      21.00.00 20-Aug-21:  Log Start Time 
 MDCL.ppm             41500.00:  Mud Chlorides 
 MDES.     Inversion Oil/Synthetic:  Mud Desc 
 DFD .sg                  1.56:  Mud Density 
 MDMN.sg                  1.56:  Dens Mud Min 
 MDMX.sg                  1.56:  Dens Mud Max 
 MOIL.                      70:  Run Mud Oil % 
 MOWR.                   70:30:  Run Mud OWR 
 MSND.                     0.2:  Run Mud Sand % 
 MSOL.                    23.3:  Run Mud Solids% 
 DFV .spqt               78.00:  Mud Viscosity 
 MWOD.in                  6.75:  MWD Tool OD 
 MWSI.                      No:  Serv Intrp, MWD 
 OTIM.hr                218.30:  Time Operating 
 PCON.           Look Like New:  Pad Condition 
 PMAX.psia            11015.30:  Press Op, Max 
 PV  .cP                 38.00:  Mud PV 
 RUN .                     300:  Run Number 
 ROPA.m/hr               15.00:  ROP Avg 
 ROPN.m/hr                9.00:  ROP Min 
 ROPX.m/hr               17.00:  ROP Max 
 RPMA.rpm               120.00:  RPM Surface Avg 
 RPMN.rpm                90.00:  RPM Surface Min 
 RPMX.rpm               140.00:  RPM Surface Max 
 RRUN.                     300:  Rig Run Number 
 RTIM.hr                 31.53:  Time Reaming 
 SAZI.deg               331.64:  Azm, Start 
 SDEP.m                4127.00:  Start Depth 
 SIDD.                      No:  Serv Intrp, DD 
 SINC.deg                48.43:  Inc, Start 
 SPPA.psig             5830.00:  SPP Avg 
 SPPN.psig             5600.00:  SPP Min 
 SPPX.psig             5900.00:  SPP Max 
 STIM.      21.00.00 20-Aug-21:  Start Time 
 SVCS.                 DD, MWD:  Services 
 SVER.                    9.20:  Sperry Version 
 TDAT.m                 957.50:  Tot Depth Attmp 
 TDDF.                      No:  Trip for DD 
 TDLG.m                 957.50:  Tot Depth Loggd 
 TFF .                      No:  Trip for Fail 
 TQAA.f-kp               15.00:  Torque Abs Avg 
 TQAN.f-kp               12.00:  Torque Abs Min 
 TQAX.f-kp               19.00:  Torque Abs Max 
 TRRT.°/30m              -3.40:  Turn Rotating 
 MRT .                  EWR-M5:  Maximum Recorded Temperature 
 TTMX.degC              100.00:  Max Tool Temp 
 VS01.                90639251:  Virtual Str1 SN 
 VS02.                90634715:  Virtual Str2 SN 
 VS03.                90652479:  Virtual Str3 SN 
 VS04.                90642262:  Virtual Str4 SN 
 WBMN.klb                 0.00:  WOB Min 
 WITN.           Murad Guliyev:  Customer Rep 
 WITN.          Yashar Gaziyev:  Customer Rep 2 
 WOBA.klb                 9.00:  WOB Avg 
 WOBX.klb                12.00:  WOB Max 
 YP  .lhf2               30.00:  Yield Point 
~Curve Information Block
#MNEM.UNIT                 API CODE     Curve Description
#---------               -----------    ---------------------------
 TIME.HHMMSS            00 000 000 000:  GT Time & Date
 GTDEPTH.m              00 000 000 000:  GT Depth
 GTPQH.psia             00 000 000 000:  GT HR Quartz Pressure
 GTTQ.degC              00 000 000 000:  GT Quartz Temperature
 GTTN.NONE              00 000 000 000:  GT Test Number
 GTET.sec               00 000 000 000:  GT Elapsed Test Time
 GTTVD.m                00 000 000 000:  GT True Vertical Depth
#Other Information
#
#WARRANTY: Halliburton will use its best efforts to furnish customers with 
#accurate information and interpretations that are part of, and incident to, the services 
#provided.  However, Halliburton cannot and does not warrant the accuracy 
#or correctness of such information and interpretations.  Under no circumstances should any 
#such information or interpretation be relied upon as the sole basis for any drilling, 
#completion, production, or financial decision or any procedure involving any risk to the 
#safety of any drilling venture, drilling rig or its crew or any other third party.  The 
#Customer has full responsibility for all drilling, completion and production operation.  
#Halliburton makes no representations or warranties, either expressed or 
#implied, including, but not limited to, the implied warranties of merchantability or fitness 
#for a particular purpose, with respect to the services rendered.  In no event will 
#Halliburton be liable for failure to obtain any particular results or for 
#any damages, including, but not limited to, indirect, special or consequential damages, 
#resulting from the use of any information or interpretation provided by Halliburton.
#
~A           TIME           GTDEPTH  GTPQH  GTTQ  GTTN   GTET   GTTVD  
# ...
   01:58:11.959.28-Aug-2021 4879.00 7718.93 81.32 27.00  22.61 3229.53
   01:58:12.159.28-Aug-2021 4879.00 7721.95 81.32 27.00  22.81 3229.53
   01:58:12.359.28-Aug-2021 4879.00 7721.29 81.32 27.00  23.01 3229.53
   01:58:12.559.28-Aug-2021 4879.00 7721.29 81.32 27.00  23.21 3229.53
   01:58:12.759.28-Aug-2021 4879.00 7719.23 81.32 27.00  23.41 3229.53
   01:58:12.959.28-Aug-2021 4879.00 7721.95 81.32 27.00  23.61 3229.53
   01:58:13.159.28-Aug-2021 4879.00 7721.78 81.32 27.00  23.81 3229.53
   01:58:13.359.28-Aug-2021 4879.00 7721.78 81.32 27.00  24.01 3229.53
   01:58:13.559.28-Aug-2021 4879.00 7721.78 81.32 27.00  24.21 3229.53
   01:58:13.759.28-Aug-2021 4879.00 7719.47 81.32 27.00  24.41 3229.53
   01:58:13.959.28-Aug-2021 4879.00 7723.10 81.32 27.00  24.61 3229.53
   01:58:14.159.28-Aug-2021 4879.00 7723.31 81.32 27.00  24.81 3229.53
   01:58:14.359.28-Aug-2021 4879.00 7723.08 81.32 27.00  25.01 3229.53
   01:58:14.560.28-Aug-2021 4879.00 7723.08 81.32 27.00  25.21 3229.53
   01:58:14.760.28-Aug-2021 4879.00 7726.54 81.32 27.00  25.41 3229.53
   01:58:14.960.28-Aug-2021 4879.00 7721.44 81.32 27.00  25.61 3229.53
   01:58:15.160.28-Aug-2021 4879.00 7724.80 81.32 27.00  25.81 3229.53
   01:58:15.360.28-Aug-2021 4879.00 7724.09 81.32 27.00  26.01 3229.53
   01:58:15.560.28-Aug-2021 4879.00 7724.09 81.32 27.00  26.21 3229.53
   01:58:15.760.28-Aug-2021 4879.00 7724.22 81.32 27.00  26.41 3229.53
   01:58:15.960.28-Aug-2021 4879.00 7724.19 81.32 27.00  26.61 3229.53
   01:58:16.160.28-Aug-2021 4879.00 7723.88 81.32 27.00  26.81 3229.53
   01:58:16.360.28-Aug-2021 4879.00 7724.51 81.32 27.00  27.01 3229.53
   01:58:16.560.28-Aug-2021 4879.00 7724.51 81.32 27.00  27.21 3229.53
   01:58:16.760.28-Aug-2021 4879.00 7725.15 81.32 27.00  27.41 3229.53
   01:58:16.960.28-Aug-2021 4879.00 7725.38 81.32 27.00  27.61 3229.53
   01:58:17.160.28-Aug-2021 4879.00 7725.52 81.32 27.00  27.81 3229.53
   01:58:17.360.28-Aug-2021 4879.00 7725.49 81.32 27.00  28.01 3229.53
   01:58:17.560.28-Aug-2021 4879.00 7725.49 81.32 27.00  28.21 3229.53
   01:58:17.761.28-Aug-2021 4879.00 7725.79 81.32 27.00  28.41 3229.53
   01:58:17.961.28-Aug-2021 4879.00 7730.78 81.32 27.00  28.61 3229.53
   01:58:18.161.28-Aug-2021 4879.00 7724.07 81.32 27.00  28.81 3229.53
   01:58:18.361.28-Aug-2021 4879.00 7727.02 81.32 27.00  29.01 3229.53
   01:58:18.561.28-Aug-2021 4879.00 7727.02 81.32 27.00  29.21 3229.53
   01:58:18.761.28-Aug-2021 4879.00 7726.46 81.32 27.00  29.41 3229.53
   01:58:18.961.28-Aug-2021 4879.00 7726.54 81.32 27.00  29.61 3229.53
   01:58:19.161.28-Aug-2021 4879.00 7726.44 81.32 27.00  29.81 3229.53
   01:58:19.361.28-Aug-2021 4879.00 7726.52 81.32 27.00  30.01 3229.53
   01:58:19.561.28-Aug-2021 4879.00 7726.52 81.32 27.00  30.21 3229.53
   01:58:19.761.28-Aug-2021 4879.00 7727.30 81.32 27.00  30.41 3229.53
   01:58:19.961.28-Aug-2021 4879.00 7727.60 81.32 27.00  30.61 3229.53
   01:58:20.161.28-Aug-2021 4879.00 7728.01 81.32 27.00  30.81 3229.53
   01:58:20.361.28-Aug-2021 4879.00 7728.44 81.32 27.00  31.01 3229.53
   01:58:20.561.28-Aug-2021 4879.00 7728.44 81.32 27.00  31.21 3229.53
   01:58:20.761.28-Aug-2021 4879.00 7728.53 81.32 27.00  31.41 3229.53
   01:58:20.962.28-Aug-2021 4879.00 7728.36 81.31 27.00  31.61 3229.53
   01:58:21.162.28-Aug-2021 4879.00 7728.52 81.32 27.00  31.81 3229.53
   01:58:21.362.28-Aug-2021 4879.00 7733.26 81.31 27.00  32.01 3229.53
   01:58:21.562.28-Aug-2021 4879.00 7733.26 81.31 27.00  32.21 3229.53
   01:58:21.762.28-Aug-2021 4879.00 7729.36 81.31 27.00  32.41 3229.53
   01:58:21.962.28-Aug-2021 4879.00 7729.35 81.31 27.00  32.61 3229.53
   01:58:22.162.28-Aug-2021 4879.00 7728.93 81.31 27.00  32.81 3229.53
   01:58:22.362.28-Aug-2021 4879.00 7733.90 81.31 27.00  33.01 3229.53
   01:58:22.562.28-Aug-2021 4879.00 7733.90 81.31 27.00  33.21 3229.53
   01:58:22.762.28-Aug-2021 4879.00 7729.84 81.31 27.00  33.41 3229.53
   01:58:22.962.28-Aug-2021 4879.00 7730.04 81.31 27.00  33.61 3229.53
   01:58:23.162.28-Aug-2021 4879.00 7732.88 81.31 27.00  33.81 3229.53
   01:58:23.362.28-Aug-2021 4879.00 7730.21 81.31 27.00  34.01 3229.53
   01:58:23.562.28-Aug-2021 4879.00 7730.21 81.31 27.00  34.21 3229.53
   01:58:23.762.28-Aug-2021 4879.00 7735.32 81.31 27.00  34.41 3229.53
   01:58:23.962.28-Aug-2021 4879.00 7726.79 81.31 27.00  34.61 3229.53
   01:58:24.163.28-Aug-2021 4879.00 7730.08 81.31 27.00  34.81 3229.53
   01:58:24.363.28-Aug-2021 4879.00 7730.02 81.31 27.00  35.01 3229.53
   01:58:24.563.28-Aug-2021 4879.00 7730.02 81.31 27.00  35.21 3229.53
   01:58:24.763.28-Aug-2021 4879.00 7729.77 81.31 27.00  35.41 3229.53
   01:58:24.963.28-Aug-2021 4879.00 7729.97 81.31 27.00  35.61 3229.53
   01:58:25.163.28-Aug-2021 4879.00 7729.85 81.31 27.00  35.81 3229.53
   01:58:25.363.28-Aug-2021 4879.00 7730.60 81.31 27.00  36.01 3229.53
   01:58:25.563.28-Aug-2021 4879.00 7730.60 81.31 27.00  36.21 3229.53
   01:58:25.763.28-Aug-2021 4879.00 7730.92 81.31 27.00  36.41 3229.53
   01:58:25.963.28-Aug-2021 4879.00 7731.24 81.31 27.00  36.61 3229.53
   01:58:26.163.28-Aug-2021 4879.00 7731.24 81.31 27.00  36.81 3229.53
   01:58:26.363.28-Aug-2021 4879.00 7731.26 81.31 27.00  37.01 3229.53
   01:58:26.563.28-Aug-2021 4879.00 7731.26 81.31 27.00  37.21 3229.53
   01:58:26.763.28-Aug-2021 4879.00 7731.34 81.31 27.00  37.41 3229.53
   01:58:26.963.28-Aug-2021 4879.00 7731.33 81.31 27.00  37.61 3229.53
   01:58:27.163.28-Aug-2021 4879.00 7731.39 81.31 27.00  37.81 3229.53
   01:58:27.364.28-Aug-2021 4879.00 7731.43 81.31 27.00  38.01 3229.53
   01:58:27.564.28-Aug-2021 4879.00 7731.43 81.31 27.00  38.21 3229.53
   01:58:27.764.28-Aug-2021 4879.00 7731.74 81.31 27.00  38.41 3229.53
   01:58:27.964.28-Aug-2021 4879.00 7732.80 81.31 27.00  38.61 3229.53
   01:58:28.164.28-Aug-2021 4879.00 7732.13 81.31 27.00  38.81 3229.53
   01:58:28.364.28-Aug-2021 4879.00 7731.90 81.31 27.00  39.01 3229.53
   01:58:28.564.28-Aug-2021 4879.00 7731.90 81.31 27.00  39.21 3229.53
   01:58:28.764.28-Aug-2021 4879.00 7731.94 81.31 27.00  39.41 3229.53
   01:58:28.964.28-Aug-2021 4879.00 7732.05 81.31 27.00  39.61 3229.53
   01:58:29.164.28-Aug-2021 4879.00 7732.27 81.31 27.00  39.81 3229.53
   01:58:29.364.28-Aug-2021 4879.00 7732.93 81.31 27.00  40.01 3229.53
   01:58:29.564.28-Aug-2021 4879.00 7732.93 81.31 27.00  40.21 3229.53
   01:58:29.764.28-Aug-2021 4879.00 7733.37 81.31 27.00  40.41 3229.53
   01:58:29.964.28-Aug-2021 4879.00 7733.33 81.31 27.00  40.61 3229.53
   01:58:30.164.28-Aug-2021 4879.00 7733.50 81.31 27.00  40.81 3229.53
   01:58:30.364.28-Aug-2021 4879.00 7733.46 81.31 27.00  41.01 3229.53
   01:58:30.565.28-Aug-2021 4879.00 7733.46 81.31 27.00  41.21 3229.53
   01:58:30.765.28-Aug-2021 4879.00 7736.90 81.31 27.00  41.41 3229.53
   01:58:30.965.28-Aug-2021 4879.00 7733.62 81.31 27.00  41.61 3229.53
   01:58:31.165.28-Aug-2021 4879.00 7734.77 81.31 27.00  41.81 3229.53
   01:58:31.365.28-Aug-2021 4879.00 7733.84 81.31 27.00  42.01 3229.53
   01:58:31.565.28-Aug-2021 4879.00 7733.84 81.31 27.00  42.21 3229.53
   01:58:31.765.28-Aug-2021 4879.00 7733.54 81.31 27.00  42.41 3229.53
   01:58:31.965.28-Aug-2021 4879.00 7737.06 81.30 27.00  42.61 3229.53
   01:58:32.165.28-Aug-2021 4879.00 7733.82 81.30 27.00  42.81 3229.53
   01:58:32.365.28-Aug-2021 4879.00 7735.06 81.30 27.00  43.01 3229.53
   01:58:32.565.28-Aug-2021 4879.00 7735.06 81.30 27.00  43.21 3229.53
   01:58:32.765.28-Aug-2021 4879.00 7734.07 81.30 27.00  43.41 3229.53
   01:58:32.965.28-Aug-2021 4879.00 7735.10 81.30 27.00  43.61 3229.53
   01:58:33.165.28-Aug-2021 4879.00 7735.23 81.30 27.00  43.81 3229.53
   01:58:33.365.28-Aug-2021 4879.00 7735.56 81.30 27.00  44.01 3229.53
   01:58:33.565.28-Aug-2021 4879.00 7735.56 81.30 27.00  44.21 3229.53
   01:58:33.766.28-Aug-2021 4879.00 7736.57 81.30 27.00  44.41 3229.53
   01:58:33.966.28-Aug-2021 4879.00 7735.97 81.30 27.00  44.61 3229.53
   01:58:34.166.28-Aug-2021 4879.00 7741.17 81.30 27.00  44.81 3229.53
   01:58:34.366.28-Aug-2021 4879.00 7734.04 81.30 27.00  45.01 3229.53
