~Version Information
 VERS.                  2.0:   CWLS log ASCII Standard -VERSION 2.0
 WRAP.                   NO:   One line per depth step
~Well Information Block
#MNEM.UNIT     VALUE/NAME     DESCRIPTION
#---------     -----------    ---------------------------
 STRT.S             21:02:56 27-Aug-21: START TIME 21:02:56 27-Aug-21
 STOP.S             21:10:06 27-Aug-21: STOP TIME  21:10:06 27-Aug-21
 STEP.S                   0.00: STEP TIME
 NULL.                 -999.25: NULL VALUE
 DFWT.                        :  DIST FWL TEXT
 DFST.                        :  DIST FSL TEXT
 DMF .             Drill Floor:  DRILL MEAS FROM
 STIM.      20.00.00 17-Aug-21:  START TIME
 DATE.      19.00.00 29-Aug-21:  END TIME
 SPUD.               15-Aug-21:  SPUD DATE
 NREF.                    Grid:  NORTH REFERENCE
 HPTY.       Minimum Curvature:  HOLE POS TYPE
 DMOD.             Drill Model:  DRILL MOD DESC
 SVYD.                  Survey:  SURVEY DESC
 ILTD.               Lithology:  INTERP LTH DESC
 FTOP.          Formation Tops:  FORM TOPS DESC
 RIG .              East Azeri:  RIG NAME
 PDAT.          Mean Sea Level:  PERMANENT DATUM
 FLD .                     ACG:  FIELD NAME
 SON .        AZ-XX-0907180857:  JOB NUMBER
 CTRY.              Azerbaijan:  COUNTRY NAME
 WELL.                    D23x:  WELL NAME
 SRVC.     Turan Drilling and Engineering:  CONTRACTOR
 COMP.     BP Exploration (Caspian Sea) Ltd.:  COMPANY
 UWI .            /AZE00000214:  UNIQUE WELL IDENTIFIER
 API .            /AZE00000214:  API NUMBER
 MDS .        Operator Entered:  MAG DATA SOURCE
 BASE.              Azerbaijan:  LOGGING EQUIPMENT BASE LOCATION
 REGN.                   EESSA:  REGION
 PROV.                    Baku:  PROVINCE
 STAT.                    Baku:  STATE NAME
 MWDS.                    Baku:  MWD SHOP
 DOE .                     N/A:  DOE NUMBER
 DCON.         Sperry Drilling:  DIRECTNL CONTR
 UNIT.                     N/A:  LOGGING EQUIPMENT ID
 WTYP.                Deviated:  WELL TYPE
 CNTY.                        :  COUNTY
 LOC .                        :  LOCATION
 LMF .             Drill Floor:  LOG MEASURED FROM
 TVDS.m                  43.60:  TVDSS CORRECTN
 LATI.deg                40.02:  LATITUDE
 LONG.deg                51.45:  LONGITUDE
 WHNS.m                  -7.04:  WELL HEAD N/S
 WHEW.m                  -0.67:  WELL HEAD E/W
 UTMX.m              538762.90:  UTM X
 UTMY.m             4431871.34:  UTM Y
 DFWL.m                   0.00:  DISTANCE FWL
 DFSL.m                   0.00:  DISTANCE FSL
 SDEP.m                4127.00:  START DEPTH
 TDD .m                5084.50:  TOTAL DEPTH (DRILLER)
 VSDR.deg               140.47:  VERT SEC DIRECT
 GVFD.g                   1.00:  GRAVITY FIELD
 MFLD.nT              50362.00:  MAGNETIC FIELD
 MDIP.deg                59.48:  MAGNETIC DIP
 MDEC.deg                 6.47:  MAGNETIC DECL
 GRDC.deg                 0.31:  GRID CORRECTION
 AZTC.deg                 6.16:  AZM TOTAL CORR
 EPD .m                   0.00:  ELEVATION
 EGL .m                   0.00:  GROUND ELEVATION
 WDMS.m                 151.80:  WD ELEV
 APD .m                  43.60:  DEPTH ABOVE PD
 DEP .m                4092.57:  DEPTH
 AGAP.m                  43.60:  AIR GAP
 VSEW.m                  -0.67:  VERT SEC E/W
 VSNS.m                  -7.04:  VERT SEC N/S
 EKB .m                  43.60:  KB ELEVATION
 EDF .m                  43.60:  DF ELEVATION
 TDL .m                 957.50:  TOTAL DEPTH (LOGGER)
 VSC .                       0:  VS TO CLOSURE
 MAGU.                 1851413:  MAGUTM CHECKSUM
~Parameter Information Block
#MNEM.UNIT       Value        Description
#---------     -----------    ---------------------------
 AV  .mps                 1.50:  Ann Velocity 
 AVMX.mps                 2.00:  Max Ann Veloc 
 AZIF.deg               184.66:  Azm, Final 
 BHAT.        Rotary Steerable:  BHA Type 
 BREV.rev               300.00:  Rev Bit Total 
 BROT.°/30m              -0.50:  Build Rotating 
 BS  .in                  8.50:  Bit Size 
 BSZ .in                  8.50:  Bit Size 
 BTPL.psig              370.00:  Bit Press Loss 
 CABU.                      No:  Customer Abuse 
 CGEO.      Behruz Shahbaliyev:  Customer Geo 
 COMM.                     <]h:  Run Comments 1 
 TCS .hr                140.08:  Time Ciculation Ended 
 CV  .mps                 3.00:  Crit Velocity 
 CVMX.mps                 3.20:  Max Crit Veloc 
 DD1 .            Musa Ahmadov:  Direct Drillr 1 
 DD2 .           Hamid Ahmadov:  Direct Drillr 2 
 DDSV.               Geo-Pilot:  DD Service 
 DEFF.%                  98.40:  % Det Eff 
 DLRX.°/30m               3.40:  Dogleg Rot Max 
 DLSO.°/30m               1.45:  Dogleg Oriented 
 DLSX.°/30m               3.40:  Dogleg Str Max 
 DRET.      18.40.00 29-Aug-21:  Drill End Time 
 DRST.      21.00.00 20-Aug-21:  Drill Start Tim 
 DTIM.hr                 69.47:  Time Drilling 
 EDEP.m                5084.50:  End Depth 
 ENG1.      Artemiy Matviyanov:  Engineer 1 
 ENG2.         Almaz Almadatov:  Engineer 2 
 ETIM.      18.40.00 29-Aug-21:  End Time 
 FLOI.gpm               500.00:  Flow In 
 FLON.gpm               400.00:  Flow In Min 
 FLOS.cptm                0.00:  Fluid Loss 
 FLOX.gpm               500.00:  Flow In Max 
 DFT .        Mineral Oil Base:  Mud Type 
 HFLO.                      No:  High Flow 
 HPRE.                      No:  High Pressure 
 HTEM.                      No:  High Temp 
 HYDO.m                   1.80:  Hydro Offset 
 IFIN.deg                25.62:  Inc, Final 
 IMAX.deg                48.69:  Inc Max 
 IMIN.deg                24.01:  Inc Min 
 IMND.m                4962.57:  Inc Min Depth 
 IMXD.m                4119.01:  Inc Max Depth 
 JARR.                      No:  Jarring 
 LETM.      18.40.00 29-Aug-21:  Log End Time 
 LOST.hr                     0:  Lost Rig Time 
 LSTM.      21.00.00 20-Aug-21:  Log Start Time 
 MDCL.ppm             41500.00:  Mud Chlorides 
 MDES.     Inversion Oil/Synthetic:  Mud Desc 
 DFD .sg                  1.56:  Mud Density 
 MDMN.sg                  1.56:  Dens Mud Min 
 MDMX.sg                  1.56:  Dens Mud Max 
 MOIL.                      70:  Run Mud Oil % 
 MOWR.                   70:30:  Run Mud OWR 
 MSND.                     0.2:  Run Mud Sand % 
 MSOL.                    23.3:  Run Mud Solids% 
 DFV .spqt               78.00:  Mud Viscosity 
 MWOD.in                  6.75:  MWD Tool OD 
 MWSI.                      No:  Serv Intrp, MWD 
 OTIM.hr                218.30:  Time Operating 
 PCON.           Look Like New:  Pad Condition 
 PMAX.psia            11015.30:  Press Op, Max 
 PV  .cP                 38.00:  Mud PV 
 RUN .                     300:  Run Number 
 ROPA.m/hr               15.00:  ROP Avg 
 ROPN.m/hr                9.00:  ROP Min 
 ROPX.m/hr               17.00:  ROP Max 
 RPMA.rpm               120.00:  RPM Surface Avg 
 RPMN.rpm                90.00:  RPM Surface Min 
 RPMX.rpm               140.00:  RPM Surface Max 
 RRUN.                     300:  Rig Run Number 
 RTIM.hr                 31.53:  Time Reaming 
 SAZI.deg               331.64:  Azm, Start 
 SDEP.m                4127.00:  Start Depth 
 SIDD.                      No:  Serv Intrp, DD 
 SINC.deg                48.43:  Inc, Start 
 SPPA.psig             5830.00:  SPP Avg 
 SPPN.psig             5600.00:  SPP Min 
 SPPX.psig             5900.00:  SPP Max 
 STIM.      21.00.00 20-Aug-21:  Start Time 
 SVCS.                 DD, MWD:  Services 
 SVER.                    9.20:  Sperry Version 
 TDAT.m                 957.50:  Tot Depth Attmp 
 TDDF.                      No:  Trip for DD 
 TDLG.m                 957.50:  Tot Depth Loggd 
 TFF .                      No:  Trip for Fail 
 TQAA.f-kp               15.00:  Torque Abs Avg 
 TQAN.f-kp               12.00:  Torque Abs Min 
 TQAX.f-kp               19.00:  Torque Abs Max 
 TRRT.°/30m              -3.40:  Turn Rotating 
 MRT .                  EWR-M5:  Maximum Recorded Temperature 
 TTMX.degC              100.00:  Max Tool Temp 
 VS01.                90639251:  Virtual Str1 SN 
 VS02.                90634715:  Virtual Str2 SN 
 VS03.                90652479:  Virtual Str3 SN 
 VS04.                90642262:  Virtual Str4 SN 
 WBMN.klb                 0.00:  WOB Min 
 WITN.           Murad Guliyev:  Customer Rep 
 WITN.          Yashar Gaziyev:  Customer Rep 2 
 WOBA.klb                 9.00:  WOB Avg 
 WOBX.klb                12.00:  WOB Max 
 YP  .lhf2               30.00:  Yield Point 
~Curve Information Block
#MNEM.UNIT                 API CODE     Curve Description
#---------               -----------    ---------------------------
 TIME.HHMMSS            00 000 000 000:  GT Time & Date
 GTDEPTH.m              00 000 000 000:  GT Depth
 GTPQH.psia             00 000 000 000:  GT HR Quartz Pressure
 GTTQ.degC              00 000 000 000:  GT Quartz Temperature
 GTTN.NONE              00 000 000 000:  GT Test Number
 GTET.sec               00 000 000 000:  GT Elapsed Test Time
 GTTVD.m                00 000 000 000:  GT True Vertical Depth
#Other Information
#
#WARRANTY: Halliburton will use its best efforts to furnish customers with 
#accurate information and interpretations that are part of, and incident to, the services 
#provided.  However, Halliburton cannot and does not warrant the accuracy 
#or correctness of such information and interpretations.  Under no circumstances should any 
#such information or interpretation be relied upon as the sole basis for any drilling, 
#completion, production, or financial decision or any procedure involving any risk to the 
#safety of any drilling venture, drilling rig or its crew or any other third party.  The 
#Customer has full responsibility for all drilling, completion and production operation.  
#Halliburton makes no representations or warranties, either expressed or 
#implied, including, but not limited to, the implied warranties of merchantability or fitness 
#for a particular purpose, with respect to the services rendered.  In no event will 
#Halliburton be liable for failure to obtain any particular results or for 
#any damages, including, but not limited to, indirect, special or consequential damages, 
#resulting from the use of any information or interpretation provided by Halliburton.
#
~A           TIME           GTDEPTH  GTPQH  GTTQ  GTTN   GTET   GTTVD  
# ...
   21:09:42.964.27-Aug-2021 4647.50 7271.01 82.42 22.00 406.84 3019.99
   21:09:43.164.27-Aug-2021 4647.50 7270.96 82.42 22.00 407.04 3019.99
   21:09:43.364.27-Aug-2021 4647.50 7270.96 82.42 22.00 407.24 3019.99
   21:09:43.564.27-Aug-2021 4647.50 7270.83 82.42 22.00 407.44 3019.99
   21:09:43.764.27-Aug-2021 4647.50 7270.70 82.42 22.00 407.64 3019.99
   21:09:43.964.27-Aug-2021 4647.50 7270.61 82.42 22.00 407.84 3019.99
   21:09:44.164.27-Aug-2021 4647.50 7270.62 82.42 22.00 408.04 3019.99
   21:09:44.364.27-Aug-2021 4647.50 7270.62 82.42 22.00 408.24 3019.99
   21:09:44.564.27-Aug-2021 4647.50 7270.32 82.41 22.00 408.44 3019.99
   21:09:44.764.27-Aug-2021 4647.50 7270.54 82.41 22.00 408.64 3019.99
   21:09:44.964.27-Aug-2021 4647.50 7270.54 82.41 22.00 408.84 3019.99
   21:09:45.164.27-Aug-2021 4647.50 7272.38 82.41 22.00 409.04 3019.99
   21:09:45.364.27-Aug-2021 4647.50 7272.38 82.41 22.00 409.24 3019.99
   21:09:45.564.27-Aug-2021 4647.50 7270.38 82.41 22.00 409.44 3019.99
   21:09:45.764.27-Aug-2021 4647.50 7270.27 82.41 22.00 409.64 3019.99
   21:09:45.964.27-Aug-2021 4647.50 7270.87 82.41 22.00 409.84 3019.99
   21:09:46.164.27-Aug-2021 4647.50 7270.61 82.41 22.00 410.04 3019.99
   21:09:46.364.27-Aug-2021 4647.50 7270.61 82.41 22.00 410.24 3019.99
   21:09:46.564.27-Aug-2021 4647.50 7272.46 82.41 22.00 410.44 3019.99
   21:09:46.764.27-Aug-2021 4647.50 7270.05 82.41 22.00 410.64 3019.99
   21:09:46.964.27-Aug-2021 4647.50 7270.34 82.41 22.00 410.84 3019.99
   21:09:47.164.27-Aug-2021 4647.50 7271.11 82.41 22.00 411.04 3019.99
   21:09:47.364.27-Aug-2021 4647.50 7271.11 82.41 22.00 411.24 3019.99
   21:09:47.564.27-Aug-2021 4647.50 7275.94 82.41 22.00 411.44 3019.99
   21:09:47.764.27-Aug-2021 4647.50 7268.31 82.41 22.00 411.64 3019.99
   21:09:47.964.27-Aug-2021 4647.50 7270.40 82.41 22.00 411.84 3019.99
   21:09:48.164.27-Aug-2021 4647.50 7270.09 82.41 22.00 412.04 3019.99
   21:09:48.364.27-Aug-2021 4647.50 7270.09 82.41 22.00 412.24 3019.99
   21:09:48.564.27-Aug-2021 4647.50 7271.22 82.41 22.00 412.44 3019.99
   21:09:48.764.27-Aug-2021 4647.50 7270.28 82.41 22.00 412.64 3019.99
   21:09:48.964.27-Aug-2021 4647.50 7270.76 82.41 22.00 412.84 3019.99
   21:09:49.165.27-Aug-2021 4647.50 7270.50 82.41 22.00 413.04 3019.99
   21:09:49.365.27-Aug-2021 4647.50 7270.50 82.41 22.00 413.24 3019.99
   21:09:49.565.27-Aug-2021 4647.50 7270.62 82.41 22.00 413.44 3019.99
   21:09:49.765.27-Aug-2021 4647.50 7270.57 82.41 22.00 413.64 3019.99
   21:09:49.965.27-Aug-2021 4647.50 7270.43 82.41 22.00 413.84 3019.99
   21:09:50.165.27-Aug-2021 4647.50 7270.53 82.41 22.00 414.04 3019.99
   21:09:50.365.27-Aug-2021 4647.50 7270.53 82.41 22.00 414.24 3019.99
   21:09:50.565.27-Aug-2021 4647.50 7270.41 82.41 22.00 414.44 3019.99
   21:09:50.765.27-Aug-2021 4647.50 7275.91 82.41 22.00 414.64 3019.99
   21:09:50.965.27-Aug-2021 4647.50 7267.94 82.41 22.00 414.84 3019.99
   21:09:51.165.27-Aug-2021 4647.50 7270.46 82.41 22.00 415.04 3019.99
   21:09:51.365.27-Aug-2021 4647.50 7270.46 82.41 22.00 415.24 3019.99
   21:09:51.565.27-Aug-2021 4647.50 7271.02 82.41 22.00 415.44 3019.99
   21:09:51.765.27-Aug-2021 4647.50 7271.10 82.41 22.00 415.64 3019.99
   21:09:51.965.27-Aug-2021 4647.50 7270.28 82.41 22.00 415.84 3019.99
   21:09:52.165.27-Aug-2021 4647.50 7270.88 82.41 22.00 416.04 3019.99
   21:09:52.365.27-Aug-2021 4647.50 7270.88 82.41 22.00 416.24 3019.99
   21:09:52.565.27-Aug-2021 4647.50 7270.63 82.41 22.00 416.44 3019.99
   21:09:52.765.27-Aug-2021 4647.50 7270.73 82.41 22.00 416.64 3019.99
   21:09:52.965.27-Aug-2021 4647.50 7270.78 82.41 22.00 416.84 3019.99
   21:09:53.165.27-Aug-2021 4647.50 7270.60 82.41 22.00 417.04 3019.99
   21:09:53.365.27-Aug-2021 4647.50 7270.60 82.41 22.00 417.24 3019.99
   21:09:53.565.27-Aug-2021 4647.50 7270.49 82.41 22.00 417.44 3019.99
   21:09:53.765.27-Aug-2021 4647.50 7270.46 82.41 22.00 417.64 3019.99
   21:09:53.965.27-Aug-2021 4647.50 7270.39 82.41 22.00 417.84 3019.99
   21:09:54.165.27-Aug-2021 4647.50 7275.82 82.41 22.00 418.04 3019.99
   21:09:54.365.27-Aug-2021 4647.50 7275.82 82.41 22.00 418.24 3019.99
   21:09:54.565.27-Aug-2021 4647.50 7270.34 82.41 22.00 418.44 3019.99
   21:09:54.765.27-Aug-2021 4647.50 7269.96 82.41 22.00 418.64 3019.99
   21:09:54.965.27-Aug-2021 4647.50 7270.91 82.41 22.00 418.84 3019.99
   21:09:55.165.27-Aug-2021 4647.50 7276.26 82.41 22.00 419.04 3019.99
   21:09:55.365.27-Aug-2021 4647.50 7276.26 82.41 22.00 419.24 3019.99
   21:09:55.565.27-Aug-2021 4647.50 7270.33 82.41 22.00 419.44 3019.99
   21:09:55.765.27-Aug-2021 4647.50 7269.98 82.41 22.00 419.64 3019.99
   21:09:55.965.27-Aug-2021 4647.50 7271.02 82.41 22.00 419.84 3019.99
   21:09:56.165.27-Aug-2021 4647.50 7271.14 82.41 22.00 420.04 3019.99
   21:09:56.365.27-Aug-2021 4647.50 7271.14 82.41 22.00 420.24 3019.99
   21:09:56.565.27-Aug-2021 4647.50 7270.10 82.41 22.00 420.44 3019.99
   21:09:56.765.27-Aug-2021 4647.50 7270.44 82.41 22.00 420.64 3019.99
   21:09:56.965.27-Aug-2021 4647.50 7270.48 82.41 22.00 420.84 3019.99
   21:09:57.165.27-Aug-2021 4647.50 7273.87 82.41 22.00 421.04 3019.99
   21:09:57.365.27-Aug-2021 4647.50 7273.87 82.41 22.00 421.24 3019.99
   21:09:57.565.27-Aug-2021 4647.50 7270.29 82.41 22.00 421.44 3019.99
   21:09:57.765.27-Aug-2021 4647.50 7270.36 82.41 22.00 421.64 3019.99
   21:09:57.965.27-Aug-2021 4647.50 7270.44 82.41 22.00 421.84 3019.99
   21:09:58.165.27-Aug-2021 4647.50 7271.24 82.41 22.00 422.04 3019.99
   21:09:58.365.27-Aug-2021 4647.50 7271.24 82.41 22.00 422.24 3019.99
   21:09:58.565.27-Aug-2021 4647.50 7270.44 82.40 22.00 422.44 3019.99
   21:09:58.765.27-Aug-2021 4647.50 7270.33 82.40 22.00 422.64 3019.99
   21:09:58.966.27-Aug-2021 4647.50 7270.63 82.40 22.00 422.84 3019.99
   21:09:59.166.27-Aug-2021 4647.50 7270.46 82.40 22.00 423.04 3019.99
   21:09:59.366.27-Aug-2021 4647.50 7270.46 82.40 22.00 423.24 3019.99
   21:09:59.566.27-Aug-2021 4647.50 7270.13 82.40 22.00 423.44 3019.99
   21:09:59.766.27-Aug-2021 4647.50 7270.29 82.40 22.00 423.64 3019.99
   21:09:59.966.27-Aug-2021 4647.50 7270.26 82.40 22.00 423.84 3019.99
   21:10:00.166.27-Aug-2021 4647.50 7270.25 82.40 22.00 424.04 3019.99
   21:10:00.366.27-Aug-2021 4647.50 7270.25 82.40 22.00 424.24 3019.99
   21:10:00.566.27-Aug-2021 4647.50 7270.14 82.40 22.00 424.44 3019.99
   21:10:00.766.27-Aug-2021 4647.50 7270.59 82.40 22.00 424.64 3019.99
   21:10:00.966.27-Aug-2021 4647.50 7270.60 82.40 22.00 424.84 3019.99
   21:10:01.166.27-Aug-2021 4647.50 7270.67 82.40 22.00 425.04 3019.99
   21:10:01.366.27-Aug-2021 4647.50 7270.67 82.40 22.00 425.24 3019.99
   21:10:01.566.27-Aug-2021 4647.50 7270.66 82.40 22.00 425.44 3019.99
   21:10:01.766.27-Aug-2021 4647.50 7270.73 82.40 22.00 425.64 3019.99
   21:10:01.966.27-Aug-2021 4647.50 7270.78 82.40 22.00 425.84 3019.99
   21:10:02.166.27-Aug-2021 4647.50 7271.00 82.40 22.00 426.04 3019.99
   21:10:02.366.27-Aug-2021 4647.50 7271.00 82.40 22.00 426.24 3019.99
   21:10:02.566.27-Aug-2021 4647.50 7270.91 82.40 22.00 426.44 3019.99
   21:10:02.766.27-Aug-2021 4647.50 7270.81 82.40 22.00 426.64 3019.99
   21:10:02.966.27-Aug-2021 4647.50 7270.84 82.40 22.00 426.84 3019.99
   21:10:03.166.27-Aug-2021 4647.50 7270.59 82.40 22.00 427.04 3019.99
   21:10:03.366.27-Aug-2021 4647.50 7270.59 82.40 22.00 427.24 3019.99
   21:10:03.566.27-Aug-2021 4647.50 7270.54 82.40 22.00 427.44 3019.99
   21:10:03.766.27-Aug-2021 4647.50 7273.95 82.40 22.00 427.64 3019.99
   21:10:03.966.27-Aug-2021 4647.50 7269.98 82.40 22.00 427.84 3019.99
   21:10:04.166.27-Aug-2021 4647.50 7270.16 82.40 22.00 428.04 3019.99
   21:10:04.366.27-Aug-2021 4647.50 7270.16 82.40 22.00 428.24 3019.99
   21:10:04.566.27-Aug-2021 4647.50 7272.02 82.40 22.00 428.44 3019.99
   21:10:04.766.27-Aug-2021 4647.50 7272.46 82.40 22.00 428.64 3019.99
   21:10:04.966.27-Aug-2021 4647.50 7270.01 82.40 22.00 428.84 3019.99
   21:10:05.166.27-Aug-2021 4647.50 7270.01 82.40 22.00 429.04 3019.99
   21:10:05.366.27-Aug-2021 4647.50 7270.01 82.40 22.00 429.24 3019.99
