~Version Information
 VERS.                  2.0:   CWLS log ASCII Standard -VERSION 2.0
 WRAP.                   NO:   One line per depth step
~Well Information Block
#MNEM.UNIT     VALUE/NAME     DESCRIPTION
#---------     -----------    ---------------------------
 STRT.S             02:31:31 28-Aug-21: START TIME 02:31:31 28-Aug-21
 STOP.S             02:38:23 28-Aug-21: STOP TIME  02:38:23 28-Aug-21
 STEP.S                   0.00: STEP TIME
 NULL.                 -999.25: NULL VALUE
 DFWT.                        :  DIST FWL TEXT
 DFST.                        :  DIST FSL TEXT
 DMF .             Drill Floor:  DRILL MEAS FROM
 STIM.      20.00.00 17-Aug-21:  START TIME
 DATE.      19.00.00 29-Aug-21:  END TIME
 SPUD.               15-Aug-21:  SPUD DATE
 NREF.                    Grid:  NORTH REFERENCE
 HPTY.       Minimum Curvature:  HOLE POS TYPE
 DMOD.             Drill Model:  DRILL MOD DESC
 SVYD.                  Survey:  SURVEY DESC
 ILTD.               Lithology:  INTERP LTH DESC
 FTOP.          Formation Tops:  FORM TOPS DESC
 RIG .              East Azeri:  RIG NAME
 PDAT.          Mean Sea Level:  PERMANENT DATUM
 FLD .                     ACG:  FIELD NAME
 SON .        AZ-XX-0907180857:  JOB NUMBER
 CTRY.              Azerbaijan:  COUNTRY NAME
 WELL.                    D23x:  WELL NAME
 SRVC.     Turan Drilling and Engineering:  CONTRACTOR
 COMP.     BP Exploration (Caspian Sea) Ltd.:  COMPANY
 UWI .            /AZE00000214:  UNIQUE WELL IDENTIFIER
 API .            /AZE00000214:  API NUMBER
 MDS .        Operator Entered:  MAG DATA SOURCE
 BASE.              Azerbaijan:  LOGGING EQUIPMENT BASE LOCATION
 REGN.                   EESSA:  REGION
 PROV.                    Baku:  PROVINCE
 STAT.                    Baku:  STATE NAME
 MWDS.                    Baku:  MWD SHOP
 DOE .                     N/A:  DOE NUMBER
 DCON.         Sperry Drilling:  DIRECTNL CONTR
 UNIT.                     N/A:  LOGGING EQUIPMENT ID
 WTYP.                Deviated:  WELL TYPE
 CNTY.                        :  COUNTY
 LOC .                        :  LOCATION
 LMF .             Drill Floor:  LOG MEASURED FROM
 TVDS.m                  43.60:  TVDSS CORRECTN
 LATI.deg                40.02:  LATITUDE
 LONG.deg                51.45:  LONGITUDE
 WHNS.m                  -7.04:  WELL HEAD N/S
 WHEW.m                  -0.67:  WELL HEAD E/W
 UTMX.m              538762.90:  UTM X
 UTMY.m             4431871.34:  UTM Y
 DFWL.m                   0.00:  DISTANCE FWL
 DFSL.m                   0.00:  DISTANCE FSL
 SDEP.m                4127.00:  START DEPTH
 TDD .m                5084.50:  TOTAL DEPTH (DRILLER)
 VSDR.deg               140.47:  VERT SEC DIRECT
 GVFD.g                   1.00:  GRAVITY FIELD
 MFLD.nT              50362.00:  MAGNETIC FIELD
 MDIP.deg                59.48:  MAGNETIC DIP
 MDEC.deg                 6.47:  MAGNETIC DECL
 GRDC.deg                 0.31:  GRID CORRECTION
 AZTC.deg                 6.16:  AZM TOTAL CORR
 EPD .m                   0.00:  ELEVATION
 EGL .m                   0.00:  GROUND ELEVATION
 WDMS.m                 151.80:  WD ELEV
 APD .m                  43.60:  DEPTH ABOVE PD
 DEP .m                4092.57:  DEPTH
 AGAP.m                  43.60:  AIR GAP
 VSEW.m                  -0.67:  VERT SEC E/W
 VSNS.m                  -7.04:  VERT SEC N/S
 EKB .m                  43.60:  KB ELEVATION
 EDF .m                  43.60:  DF ELEVATION
 TDL .m                 957.50:  TOTAL DEPTH (LOGGER)
 VSC .                       0:  VS TO CLOSURE
 MAGU.                 1851413:  MAGUTM CHECKSUM
~Parameter Information Block
#MNEM.UNIT       Value        Description
#---------     -----------    ---------------------------
 AV  .mps                 1.50:  Ann Velocity 
 AVMX.mps                 2.00:  Max Ann Veloc 
 AZIF.deg               184.66:  Azm, Final 
 BHAT.        Rotary Steerable:  BHA Type 
 BREV.rev               300.00:  Rev Bit Total 
 BROT.°/30m              -0.50:  Build Rotating 
 BS  .in                  8.50:  Bit Size 
 BSZ .in                  8.50:  Bit Size 
 BTPL.psig              370.00:  Bit Press Loss 
 CABU.                      No:  Customer Abuse 
 CGEO.      Behruz Shahbaliyev:  Customer Geo 
 COMM.                     Œjp:  Run Comments 1 
 TCS .hr                140.08:  Time Ciculation Ended 
 CV  .mps                 3.00:  Crit Velocity 
 CVMX.mps                 3.20:  Max Crit Veloc 
 DD1 .            Musa Ahmadov:  Direct Drillr 1 
 DD2 .           Hamid Ahmadov:  Direct Drillr 2 
 DDSV.               Geo-Pilot:  DD Service 
 DEFF.%                  98.40:  % Det Eff 
 DLRX.°/30m               3.40:  Dogleg Rot Max 
 DLSO.°/30m               1.45:  Dogleg Oriented 
 DLSX.°/30m               3.40:  Dogleg Str Max 
 DRET.      18.40.00 29-Aug-21:  Drill End Time 
 DRST.      21.00.00 20-Aug-21:  Drill Start Tim 
 DTIM.hr                 69.47:  Time Drilling 
 EDEP.m                5084.50:  End Depth 
 ENG1.      Artemiy Matviyanov:  Engineer 1 
 ENG2.         Almaz Almadatov:  Engineer 2 
 ETIM.      18.40.00 29-Aug-21:  End Time 
 FLOI.gpm               500.00:  Flow In 
 FLON.gpm               400.00:  Flow In Min 
 FLOS.cptm                0.00:  Fluid Loss 
 FLOX.gpm               500.00:  Flow In Max 
 DFT .        Mineral Oil Base:  Mud Type 
 HFLO.                      No:  High Flow 
 HPRE.                      No:  High Pressure 
 HTEM.                      No:  High Temp 
 HYDO.m                   1.80:  Hydro Offset 
 IFIN.deg                25.62:  Inc, Final 
 IMAX.deg                48.69:  Inc Max 
 IMIN.deg                24.01:  Inc Min 
 IMND.m                4962.57:  Inc Min Depth 
 IMXD.m                4119.01:  Inc Max Depth 
 JARR.                      No:  Jarring 
 LETM.      18.40.00 29-Aug-21:  Log End Time 
 LOST.hr                     0:  Lost Rig Time 
 LSTM.      21.00.00 20-Aug-21:  Log Start Time 
 MDCL.ppm             41500.00:  Mud Chlorides 
 MDES.     Inversion Oil/Synthetic:  Mud Desc 
 DFD .sg                  1.56:  Mud Density 
 MDMN.sg                  1.56:  Dens Mud Min 
 MDMX.sg                  1.56:  Dens Mud Max 
 MOIL.                      70:  Run Mud Oil % 
 MOWR.                   70:30:  Run Mud OWR 
 MSND.                     0.2:  Run Mud Sand % 
 MSOL.                    23.3:  Run Mud Solids% 
 DFV .spqt               78.00:  Mud Viscosity 
 MWOD.in                  6.75:  MWD Tool OD 
 MWSI.                      No:  Serv Intrp, MWD 
 OTIM.hr                218.30:  Time Operating 
 PCON.           Look Like New:  Pad Condition 
 PMAX.psia            11015.30:  Press Op, Max 
 PV  .cP                 38.00:  Mud PV 
 RUN .                     300:  Run Number 
 ROPA.m/hr               15.00:  ROP Avg 
 ROPN.m/hr                9.00:  ROP Min 
 ROPX.m/hr               17.00:  ROP Max 
 RPMA.rpm               120.00:  RPM Surface Avg 
 RPMN.rpm                90.00:  RPM Surface Min 
 RPMX.rpm               140.00:  RPM Surface Max 
 RRUN.                     300:  Rig Run Number 
 RTIM.hr                 31.53:  Time Reaming 
 SAZI.deg               331.64:  Azm, Start 
 SDEP.m                4127.00:  Start Depth 
 SIDD.                      No:  Serv Intrp, DD 
 SINC.deg                48.43:  Inc, Start 
 SPPA.psig             5830.00:  SPP Avg 
 SPPN.psig             5600.00:  SPP Min 
 SPPX.psig             5900.00:  SPP Max 
 STIM.      21.00.00 20-Aug-21:  Start Time 
 SVCS.                 DD, MWD:  Services 
 SVER.                    9.20:  Sperry Version 
 TDAT.m                 957.50:  Tot Depth Attmp 
 TDDF.                      No:  Trip for DD 
 TDLG.m                 957.50:  Tot Depth Loggd 
 TFF .                      No:  Trip for Fail 
 TQAA.f-kp               15.00:  Torque Abs Avg 
 TQAN.f-kp               12.00:  Torque Abs Min 
 TQAX.f-kp               19.00:  Torque Abs Max 
 TRRT.°/30m              -3.40:  Turn Rotating 
 MRT .                  EWR-M5:  Maximum Recorded Temperature 
 TTMX.degC              100.00:  Max Tool Temp 
 VS01.                90639251:  Virtual Str1 SN 
 VS02.                90634715:  Virtual Str2 SN 
 VS03.                90652479:  Virtual Str3 SN 
 VS04.                90642262:  Virtual Str4 SN 
 WBMN.klb                 0.00:  WOB Min 
 WITN.           Murad Guliyev:  Customer Rep 
 WITN.          Yashar Gaziyev:  Customer Rep 2 
 WOBA.klb                 9.00:  WOB Avg 
 WOBX.klb                12.00:  WOB Max 
 YP  .lhf2               30.00:  Yield Point 
~Curve Information Block
#MNEM.UNIT                 API CODE     Curve Description
#---------               -----------    ---------------------------
 TIME.HHMMSS            00 000 000 000:  GT Time & Date
 GTDEPTH.m              00 000 000 000:  GT Depth
 GTPQH.psia             00 000 000 000:  GT HR Quartz Pressure
 GTTQ.degC              00 000 000 000:  GT Quartz Temperature
 GTTN.NONE              00 000 000 000:  GT Test Number
 GTET.sec               00 000 000 000:  GT Elapsed Test Time
 GTTVD.m                00 000 000 000:  GT True Vertical Depth
#Other Information
#
#WARRANTY: Halliburton will use its best efforts to furnish customers with 
#accurate information and interpretations that are part of, and incident to, the services 
#provided.  However, Halliburton cannot and does not warrant the accuracy 
#or correctness of such information and interpretations.  Under no circumstances should any 
#such information or interpretation be relied upon as the sole basis for any drilling, 
#completion, production, or financial decision or any procedure involving any risk to the 
#safety of any drilling venture, drilling rig or its crew or any other third party.  The 
#Customer has full responsibility for all drilling, completion and production operation.  
#Halliburton makes no representations or warranties, either expressed or 
#implied, including, but not limited to, the implied warranties of merchantability or fitness 
#for a particular purpose, with respect to the services rendered.  In no event will 
#Halliburton be liable for failure to obtain any particular results or for 
#any damages, including, but not limited to, indirect, special or consequential damages, 
#resulting from the use of any information or interpretation provided by Halliburton.
#
~A           TIME           GTDEPTH  GTPQH  GTTQ  GTTN   GTET   GTTVD  
# ...
   02:33:47.631.28-Aug-2021 4891.00 7789.44 80.67 28.00 135.64 3240.41
   02:33:47.831.28-Aug-2021 4891.00 7788.76 80.67 28.00 135.84 3240.41
   02:33:48.031.28-Aug-2021 4891.00 7789.04 80.66 28.00 136.04 3240.41
   02:33:48.231.28-Aug-2021 4891.00 7789.04 80.66 28.00 136.24 3240.41
   02:33:48.431.28-Aug-2021 4891.00 7791.59 80.66 28.00 136.44 3240.41
   02:33:48.631.28-Aug-2021 4891.00 7789.45 80.66 28.00 136.64 3240.41
   02:33:48.831.28-Aug-2021 4891.00 7789.70 80.66 28.00 136.84 3240.41
   02:33:49.031.28-Aug-2021 4891.00 7789.80 80.66 28.00 137.04 3240.41
   02:33:49.232.28-Aug-2021 4891.00 7789.80 80.66 28.00 137.24 3240.41
   02:33:49.432.28-Aug-2021 4891.00 7787.30 80.66 28.00 137.44 3240.41
   02:33:49.632.28-Aug-2021 4891.00 7790.09 80.66 28.00 137.64 3240.41
   02:33:49.832.28-Aug-2021 4891.00 7788.84 80.66 28.00 137.84 3240.41
   02:33:50.032.28-Aug-2021 4891.00 7788.44 80.66 28.00 138.04 3240.41
   02:33:50.232.28-Aug-2021 4891.00 7788.44 80.66 28.00 138.24 3240.41
   02:33:50.432.28-Aug-2021 4891.00 7788.22 80.66 28.00 138.44 3240.41
   02:33:50.632.28-Aug-2021 4891.00 7788.49 80.66 28.00 138.64 3240.41
   02:33:50.832.28-Aug-2021 4891.00 7788.74 80.66 28.00 138.84 3240.41
   02:33:51.032.28-Aug-2021 4891.00 7788.57 80.66 28.00 139.04 3240.41
   02:33:51.232.28-Aug-2021 4891.00 7788.57 80.66 28.00 139.24 3240.41
   02:33:51.432.28-Aug-2021 4891.00 7789.33 80.66 28.00 139.44 3240.41
   02:33:51.632.28-Aug-2021 4891.00 7789.48 80.66 28.00 139.64 3240.41
   02:33:51.832.28-Aug-2021 4891.00 7789.33 80.66 28.00 139.84 3240.41
   02:33:52.032.28-Aug-2021 4891.00 7789.46 80.66 28.00 140.04 3240.41
   02:33:52.232.28-Aug-2021 4891.00 7789.46 80.66 28.00 140.24 3240.41
   02:33:52.433.28-Aug-2021 4891.00 7789.26 80.66 28.00 140.44 3240.41
   02:33:52.633.28-Aug-2021 4891.00 7790.16 80.66 28.00 140.64 3240.41
   02:33:52.833.28-Aug-2021 4891.00 7788.09 80.66 28.00 140.84 3240.41
   02:33:53.033.28-Aug-2021 4891.00 7788.33 80.66 28.00 141.04 3240.41
   02:33:53.233.28-Aug-2021 4891.00 7788.33 80.66 28.00 141.24 3240.41
   02:33:53.433.28-Aug-2021 4891.00 7787.23 80.66 28.00 141.44 3240.41
   02:33:53.633.28-Aug-2021 4891.00 7787.03 80.66 28.00 141.64 3240.41
   02:33:53.833.28-Aug-2021 4891.00 7787.40 80.66 28.00 141.84 3240.41
   02:33:54.033.28-Aug-2021 4891.00 7787.02 80.66 28.00 142.04 3240.41
   02:33:54.233.28-Aug-2021 4891.00 7787.02 80.66 28.00 142.24 3240.41
   02:33:54.433.28-Aug-2021 4891.00 7787.99 80.66 28.00 142.44 3240.41
   02:33:54.633.28-Aug-2021 4891.00 7788.08 80.66 28.00 142.64 3240.41
   02:33:54.833.28-Aug-2021 4891.00 7788.24 80.66 28.00 142.84 3240.41
   02:33:55.033.28-Aug-2021 4891.00 7788.23 80.66 28.00 143.05 3240.41
   02:33:55.233.28-Aug-2021 4891.00 7788.23 80.66 28.00 143.25 3240.41
   02:33:55.433.28-Aug-2021 4891.00 7788.07 80.66 28.00 143.45 3240.41
   02:33:55.634.28-Aug-2021 4891.00 7787.82 80.66 28.00 143.65 3240.41
   02:33:55.834.28-Aug-2021 4891.00 7788.46 80.66 28.00 143.85 3240.41
   02:33:56.034.28-Aug-2021 4891.00 7790.29 80.66 28.00 144.05 3240.41
   02:33:56.234.28-Aug-2021 4891.00 7790.29 80.66 28.00 144.25 3240.41
   02:33:56.434.28-Aug-2021 4891.00 7788.48 80.66 28.00 144.45 3240.41
   02:33:56.634.28-Aug-2021 4891.00 7787.77 80.66 28.00 144.65 3240.41
   02:33:56.834.28-Aug-2021 4891.00 7788.24 80.66 28.00 144.85 3240.41
   02:33:57.034.28-Aug-2021 4891.00 7789.86 80.66 28.00 145.05 3240.41
   02:33:57.234.28-Aug-2021 4891.00 7789.86 80.66 28.00 145.25 3240.41
   02:33:57.434.28-Aug-2021 4891.00 7788.08 80.66 28.00 145.45 3240.41
   02:33:57.634.28-Aug-2021 4891.00 7787.69 80.66 28.00 145.65 3240.41
   02:33:57.834.28-Aug-2021 4891.00 7787.76 80.66 28.00 145.85 3240.41
   02:33:58.034.28-Aug-2021 4891.00 7788.26 80.66 28.00 146.05 3240.41
   02:33:58.234.28-Aug-2021 4891.00 7788.26 80.66 28.00 146.25 3240.41
   02:33:58.434.28-Aug-2021 4891.00 7788.12 80.66 28.00 146.45 3240.41
   02:33:58.634.28-Aug-2021 4891.00 7788.51 80.66 28.00 146.65 3240.41
   02:33:58.835.28-Aug-2021 4891.00 7788.40 80.66 28.00 146.85 3240.41
   02:33:59.035.28-Aug-2021 4891.00 7792.29 80.66 28.00 147.05 3240.41
   02:33:59.235.28-Aug-2021 4891.00 7792.29 80.66 28.00 147.25 3240.41
   02:33:59.435.28-Aug-2021 4891.00 7789.20 80.66 28.00 147.45 3240.41
   02:33:59.635.28-Aug-2021 4891.00 7787.64 80.66 28.00 147.65 3240.41
   02:33:59.835.28-Aug-2021 4891.00 7787.55 80.66 28.00 147.85 3240.41
   02:34:00.035.28-Aug-2021 4891.00 7787.79 80.66 28.00 148.05 3240.41
   02:34:00.235.28-Aug-2021 4891.00 7787.79 80.66 28.00 148.25 3240.41
   02:34:00.435.28-Aug-2021 4891.00 7787.54 80.66 28.00 148.45 3240.41
   02:34:00.635.28-Aug-2021 4891.00 7787.76 80.66 28.00 148.65 3240.41
   02:34:00.835.28-Aug-2021 4891.00 7787.76 80.66 28.00 148.85 3240.41
   02:34:01.035.28-Aug-2021 4891.00 7788.27 80.66 28.00 149.05 3240.41
   02:34:01.235.28-Aug-2021 4891.00 7788.27 80.66 28.00 149.25 3240.41
   02:34:01.435.28-Aug-2021 4891.00 7788.29 80.66 28.00 149.45 3240.41
   02:34:01.635.28-Aug-2021 4891.00 7788.34 80.66 28.00 149.65 3240.41
   02:34:01.835.28-Aug-2021 4891.00 7788.07 80.66 28.00 149.85 3240.41
   02:34:02.036.28-Aug-2021 4891.00 7788.03 80.66 28.00 150.05 3240.41
   02:34:02.236.28-Aug-2021 4891.00 7788.03 80.66 28.00 150.25 3240.41
   02:34:02.436.28-Aug-2021 4891.00 7788.63 80.66 28.00 150.45 3240.41
   02:34:02.636.28-Aug-2021 4891.00 7789.41 80.66 28.00 150.65 3240.41
   02:34:02.836.28-Aug-2021 4891.00 7790.16 80.66 28.00 150.85 3240.41
   02:34:03.036.28-Aug-2021 4891.00 7789.31 80.66 28.00 151.05 3240.41
   02:34:03.236.28-Aug-2021 4891.00 7789.31 80.66 28.00 151.25 3240.41
   02:34:03.436.28-Aug-2021 4891.00 7788.77 80.66 28.00 151.45 3240.41
   02:34:03.636.28-Aug-2021 4891.00 7789.01 80.66 28.00 151.65 3240.41
   02:34:03.836.28-Aug-2021 4891.00 7788.80 80.66 28.00 151.85 3240.41
   02:34:04.036.28-Aug-2021 4891.00 7788.95 80.66 28.00 152.05 3240.41
   02:34:04.236.28-Aug-2021 4891.00 7788.95 80.66 28.00 152.25 3240.41
   02:34:04.436.28-Aug-2021 4891.00 7789.54 80.66 28.00 152.45 3240.41
   02:34:04.636.28-Aug-2021 4891.00 7790.01 80.66 28.00 152.65 3240.41
   02:34:04.836.28-Aug-2021 4891.00 7789.74 80.66 28.00 152.85 3240.41
   02:34:05.037.28-Aug-2021 4891.00 7789.82 80.66 28.00 153.05 3240.41
   02:34:05.237.28-Aug-2021 4891.00 7789.82 80.66 28.00 153.25 3240.41
   02:34:05.437.28-Aug-2021 4891.00 7789.61 80.66 28.00 153.45 3240.41
   02:34:05.637.28-Aug-2021 4891.00 7790.16 80.66 28.00 153.65 3240.41
   02:34:05.837.28-Aug-2021 4891.00 7791.83 80.66 28.00 153.85 3240.41
   02:34:06.037.28-Aug-2021 4891.00 7789.81 80.66 28.00 154.05 3240.41
   02:34:06.237.28-Aug-2021 4891.00 7789.81 80.66 28.00 154.25 3240.41
   02:34:06.437.28-Aug-2021 4891.00 7789.60 80.66 28.00 154.45 3240.41
   02:34:06.637.28-Aug-2021 4891.00 7789.75 80.66 28.00 154.65 3240.41
   02:34:06.837.28-Aug-2021 4891.00 7791.50 80.66 28.00 154.85 3240.41
   02:34:07.037.28-Aug-2021 4891.00 7789.79 80.66 28.00 155.05 3240.41
   02:34:07.237.28-Aug-2021 4891.00 7789.79 80.66 28.00 155.25 3240.41
   02:34:07.437.28-Aug-2021 4891.00 7789.46 80.66 28.00 155.45 3240.41
   02:34:07.637.28-Aug-2021 4891.00 7789.81 80.66 28.00 155.65 3240.41
   02:34:07.837.28-Aug-2021 4891.00 7790.05 80.66 28.00 155.85 3240.41
   02:34:08.037.28-Aug-2021 4891.00 7792.46 80.66 28.00 156.05 3240.41
   02:34:08.238.28-Aug-2021 4891.00 7792.46 80.66 28.00 156.25 3240.41
   02:34:08.438.28-Aug-2021 4891.00 7790.46 80.66 28.00 156.45 3240.41
   02:34:08.638.28-Aug-2021 4891.00 7790.44 80.66 28.00 156.65 3240.41
   02:34:08.838.28-Aug-2021 4891.00 7793.92 80.66 28.00 156.85 3240.41
   02:34:09.038.28-Aug-2021 4891.00 7788.38 80.66 28.00 157.05 3240.41
   02:34:09.238.28-Aug-2021 4891.00 7788.38 80.66 28.00 157.25 3240.41
   02:34:09.438.28-Aug-2021 4891.00 7789.81 80.66 28.00 157.45 3240.41
   02:34:09.638.28-Aug-2021 4891.00 7789.44 80.66 28.00 157.65 3240.41
   02:34:09.838.28-Aug-2021 4891.00 7789.89 80.66 28.00 157.85 3240.41
   02:34:10.038.28-Aug-2021 4891.00 7789.12 80.66 28.00 158.05 3240.41
