~Version Information
 VERS.                  2.0:   CWLS log ASCII Standard -VERSION 2.0
 WRAP.                   NO:   One line per depth step
~Well Information Block
#MNEM.UNIT     VALUE/NAME     DESCRIPTION
#---------     -----------    ---------------------------
 STRT.S             09:25:17 27-Aug-21: START TIME 09:25:17 27-Aug-21
 STOP.S             09:32:27 27-Aug-21: STOP TIME  09:32:27 27-Aug-21
 STEP.S                   0.00: STEP TIME
 NULL.                 -999.25: NULL VALUE
 DFWT.                        :  DIST FWL TEXT
 DFST.                        :  DIST FSL TEXT
 DMF .             Drill Floor:  DRILL MEAS FROM
 STIM.      20.00.00 17-Aug-21:  START TIME
 DATE.      19.00.00 29-Aug-21:  END TIME
 SPUD.               15-Aug-21:  SPUD DATE
 NREF.                    Grid:  NORTH REFERENCE
 HPTY.       Minimum Curvature:  HOLE POS TYPE
 DMOD.             Drill Model:  DRILL MOD DESC
 SVYD.                  Survey:  SURVEY DESC
 ILTD.               Lithology:  INTERP LTH DESC
 FTOP.          Formation Tops:  FORM TOPS DESC
 RIG .              East Azeri:  RIG NAME
 PDAT.          Mean Sea Level:  PERMANENT DATUM
 FLD .                     ACG:  FIELD NAME
 SON .        AZ-XX-0907180857:  JOB NUMBER
 CTRY.              Azerbaijan:  COUNTRY NAME
 WELL.                    D23x:  WELL NAME
 SRVC.     Turan Drilling and Engineering:  CONTRACTOR
 COMP.     BP Exploration (Caspian Sea) Ltd.:  COMPANY
 UWI .            /AZE00000214:  UNIQUE WELL IDENTIFIER
 API .            /AZE00000214:  API NUMBER
 MDS .        Operator Entered:  MAG DATA SOURCE
 BASE.              Azerbaijan:  LOGGING EQUIPMENT BASE LOCATION
 REGN.                   EESSA:  REGION
 PROV.                    Baku:  PROVINCE
 STAT.                    Baku:  STATE NAME
 MWDS.                    Baku:  MWD SHOP
 DOE .                     N/A:  DOE NUMBER
 DCON.         Sperry Drilling:  DIRECTNL CONTR
 UNIT.                     N/A:  LOGGING EQUIPMENT ID
 WTYP.                Deviated:  WELL TYPE
 CNTY.                        :  COUNTY
 LOC .                        :  LOCATION
 LMF .             Drill Floor:  LOG MEASURED FROM
 TVDS.m                  43.60:  TVDSS CORRECTN
 LATI.deg                40.02:  LATITUDE
 LONG.deg                51.45:  LONGITUDE
 WHNS.m                  -7.04:  WELL HEAD N/S
 WHEW.m                  -0.67:  WELL HEAD E/W
 UTMX.m              538762.90:  UTM X
 UTMY.m             4431871.34:  UTM Y
 DFWL.m                   0.00:  DISTANCE FWL
 DFSL.m                   0.00:  DISTANCE FSL
 SDEP.m                4127.00:  START DEPTH
 TDD .m                5084.50:  TOTAL DEPTH (DRILLER)
 VSDR.deg               140.47:  VERT SEC DIRECT
 GVFD.g                   1.00:  GRAVITY FIELD
 MFLD.nT              50362.00:  MAGNETIC FIELD
 MDIP.deg                59.48:  MAGNETIC DIP
 MDEC.deg                 6.47:  MAGNETIC DECL
 GRDC.deg                 0.31:  GRID CORRECTION
 AZTC.deg                 6.16:  AZM TOTAL CORR
 EPD .m                   0.00:  ELEVATION
 EGL .m                   0.00:  GROUND ELEVATION
 WDMS.m                 151.80:  WD ELEV
 APD .m                  43.60:  DEPTH ABOVE PD
 DEP .m                4092.57:  DEPTH
 AGAP.m                  43.60:  AIR GAP
 VSEW.m                  -0.67:  VERT SEC E/W
 VSNS.m                  -7.04:  VERT SEC N/S
 EKB .m                  43.60:  KB ELEVATION
 EDF .m                  43.60:  DF ELEVATION
 TDL .m                 957.50:  TOTAL DEPTH (LOGGER)
 VSC .                       0:  VS TO CLOSURE
 MAGU.                 1851413:  MAGUTM CHECKSUM
~Parameter Information Block
#MNEM.UNIT       Value        Description
#---------     -----------    ---------------------------
 AV  .mps                 1.50:  Ann Velocity 
 AVMX.mps                 2.00:  Max Ann Veloc 
 AZIF.deg               184.66:  Azm, Final 
 BHAT.        Rotary Steerable:  BHA Type 
 BREV.rev               300.00:  Rev Bit Total 
 BROT.°/30m              -0.50:  Build Rotating 
 BS  .in                  8.50:  Bit Size 
 BSZ .in                  8.50:  Bit Size 
 BTPL.psig              370.00:  Bit Press Loss 
 CABU.                      No:  Customer Abuse 
 CGEO.      Behruz Shahbaliyev:  Customer Geo 
 COMM.                     TD\:  Run Comments 1 
 TCS .hr                140.08:  Time Ciculation Ended 
 CV  .mps                 3.00:  Crit Velocity 
 CVMX.mps                 3.20:  Max Crit Veloc 
 DD1 .            Musa Ahmadov:  Direct Drillr 1 
 DD2 .           Hamid Ahmadov:  Direct Drillr 2 
 DDSV.               Geo-Pilot:  DD Service 
 DEFF.%                  98.40:  % Det Eff 
 DLRX.°/30m               3.40:  Dogleg Rot Max 
 DLSO.°/30m               1.45:  Dogleg Oriented 
 DLSX.°/30m               3.40:  Dogleg Str Max 
 DRET.      18.40.00 29-Aug-21:  Drill End Time 
 DRST.      21.00.00 20-Aug-21:  Drill Start Tim 
 DTIM.hr                 69.47:  Time Drilling 
 EDEP.m                5084.50:  End Depth 
 ENG1.      Artemiy Matviyanov:  Engineer 1 
 ENG2.         Almaz Almadatov:  Engineer 2 
 ETIM.      18.40.00 29-Aug-21:  End Time 
 FLOI.gpm               500.00:  Flow In 
 FLON.gpm               400.00:  Flow In Min 
 FLOS.cptm                0.00:  Fluid Loss 
 FLOX.gpm               500.00:  Flow In Max 
 DFT .        Mineral Oil Base:  Mud Type 
 HFLO.                      No:  High Flow 
 HPRE.                      No:  High Pressure 
 HTEM.                      No:  High Temp 
 HYDO.m                   1.80:  Hydro Offset 
 IFIN.deg                25.62:  Inc, Final 
 IMAX.deg                48.69:  Inc Max 
 IMIN.deg                24.01:  Inc Min 
 IMND.m                4962.57:  Inc Min Depth 
 IMXD.m                4119.01:  Inc Max Depth 
 JARR.                      No:  Jarring 
 LETM.      18.40.00 29-Aug-21:  Log End Time 
 LOST.hr                     0:  Lost Rig Time 
 LSTM.      21.00.00 20-Aug-21:  Log Start Time 
 MDCL.ppm             41500.00:  Mud Chlorides 
 MDES.     Inversion Oil/Synthetic:  Mud Desc 
 DFD .sg                  1.56:  Mud Density 
 MDMN.sg                  1.56:  Dens Mud Min 
 MDMX.sg                  1.56:  Dens Mud Max 
 MOIL.                      70:  Run Mud Oil % 
 MOWR.                   70:30:  Run Mud OWR 
 MSND.                     0.2:  Run Mud Sand % 
 MSOL.                    23.3:  Run Mud Solids% 
 DFV .spqt               78.00:  Mud Viscosity 
 MWOD.in                  6.75:  MWD Tool OD 
 MWSI.                      No:  Serv Intrp, MWD 
 OTIM.hr                218.30:  Time Operating 
 PCON.           Look Like New:  Pad Condition 
 PMAX.psia            11015.30:  Press Op, Max 
 PV  .cP                 38.00:  Mud PV 
 RUN .                     300:  Run Number 
 ROPA.m/hr               15.00:  ROP Avg 
 ROPN.m/hr                9.00:  ROP Min 
 ROPX.m/hr               17.00:  ROP Max 
 RPMA.rpm               120.00:  RPM Surface Avg 
 RPMN.rpm                90.00:  RPM Surface Min 
 RPMX.rpm               140.00:  RPM Surface Max 
 RRUN.                     300:  Rig Run Number 
 RTIM.hr                 31.53:  Time Reaming 
 SAZI.deg               331.64:  Azm, Start 
 SDEP.m                4127.00:  Start Depth 
 SIDD.                      No:  Serv Intrp, DD 
 SINC.deg                48.43:  Inc, Start 
 SPPA.psig             5830.00:  SPP Avg 
 SPPN.psig             5600.00:  SPP Min 
 SPPX.psig             5900.00:  SPP Max 
 STIM.      21.00.00 20-Aug-21:  Start Time 
 SVCS.                 DD, MWD:  Services 
 SVER.                    9.20:  Sperry Version 
 TDAT.m                 957.50:  Tot Depth Attmp 
 TDDF.                      No:  Trip for DD 
 TDLG.m                 957.50:  Tot Depth Loggd 
 TFF .                      No:  Trip for Fail 
 TQAA.f-kp               15.00:  Torque Abs Avg 
 TQAN.f-kp               12.00:  Torque Abs Min 
 TQAX.f-kp               19.00:  Torque Abs Max 
 TRRT.°/30m              -3.40:  Turn Rotating 
 MRT .                  EWR-M5:  Maximum Recorded Temperature 
 TTMX.degC              100.00:  Max Tool Temp 
 VS01.                90639251:  Virtual Str1 SN 
 VS02.                90634715:  Virtual Str2 SN 
 VS03.                90652479:  Virtual Str3 SN 
 VS04.                90642262:  Virtual Str4 SN 
 WBMN.klb                 0.00:  WOB Min 
 WITN.           Murad Guliyev:  Customer Rep 
 WITN.          Yashar Gaziyev:  Customer Rep 2 
 WOBA.klb                 9.00:  WOB Avg 
 WOBX.klb                12.00:  WOB Max 
 YP  .lhf2               30.00:  Yield Point 
~Curve Information Block
#MNEM.UNIT                 API CODE     Curve Description
#---------               -----------    ---------------------------
 TIME.HHMMSS            00 000 000 000:  GT Time & Date
 GTDEPTH.m              00 000 000 000:  GT Depth
 GTPQH.psia             00 000 000 000:  GT HR Quartz Pressure
 GTTQ.degC              00 000 000 000:  GT Quartz Temperature
 GTTN.NONE              00 000 000 000:  GT Test Number
 GTET.sec               00 000 000 000:  GT Elapsed Test Time
 GTTVD.m                00 000 000 000:  GT True Vertical Depth
#Other Information
#
#WARRANTY: Halliburton will use its best efforts to furnish customers with 
#accurate information and interpretations that are part of, and incident to, the services 
#provided.  However, Halliburton cannot and does not warrant the accuracy 
#or correctness of such information and interpretations.  Under no circumstances should any 
#such information or interpretation be relied upon as the sole basis for any drilling, 
#completion, production, or financial decision or any procedure involving any risk to the 
#safety of any drilling venture, drilling rig or its crew or any other third party.  The 
#Customer has full responsibility for all drilling, completion and production operation.  
#Halliburton makes no representations or warranties, either expressed or 
#implied, including, but not limited to, the implied warranties of merchantability or fitness 
#for a particular purpose, with respect to the services rendered.  In no event will 
#Halliburton be liable for failure to obtain any particular results or for 
#any damages, including, but not limited to, indirect, special or consequential damages, 
#resulting from the use of any information or interpretation provided by Halliburton.
#
~A           TIME           GTDEPTH  GTPQH  GTTQ  GTTN  GTET   GTTVD  
# ...
   09:27:35.323.27-Aug-2021 4964.50 5198.69 86.34 7.00 138.06 3307.39
   09:27:35.523.27-Aug-2021 4964.50 5198.69 86.34 7.00 138.26 3307.39
   09:27:35.723.27-Aug-2021 4964.50 5198.69 86.34 7.00 138.46 3307.39
   09:27:35.923.27-Aug-2021 4964.50 5198.72 86.34 7.00 138.66 3307.39
   09:27:36.123.27-Aug-2021 4964.50 5198.71 86.34 7.00 138.86 3307.39
   09:27:36.323.27-Aug-2021 4964.50 5198.64 86.34 7.00 139.06 3307.39
   09:27:36.523.27-Aug-2021 4964.50 5198.64 86.34 7.00 139.26 3307.39
   09:27:36.724.27-Aug-2021 4964.50 5198.68 86.34 7.00 139.46 3307.39
   09:27:36.924.27-Aug-2021 4964.50 5198.70 86.34 7.00 139.66 3307.39
   09:27:37.124.27-Aug-2021 4964.50 5198.71 86.34 7.00 139.86 3307.39
   09:27:37.324.27-Aug-2021 4964.50 5198.72 86.34 7.00 140.06 3307.39
   09:27:37.524.27-Aug-2021 4964.50 5198.72 86.34 7.00 140.26 3307.39
   09:27:37.724.27-Aug-2021 4964.50 5198.73 86.34 7.00 140.46 3307.39
   09:27:37.924.27-Aug-2021 4964.50 5198.75 86.34 7.00 140.66 3307.39
   09:27:38.124.27-Aug-2021 4964.50 5198.75 86.34 7.00 140.86 3307.39
   09:27:38.324.27-Aug-2021 4964.50 5198.76 86.34 7.00 141.06 3307.39
   09:27:38.524.27-Aug-2021 4964.50 5198.76 86.34 7.00 141.26 3307.39
   09:27:38.724.27-Aug-2021 4964.50 5198.78 86.34 7.00 141.46 3307.39
   09:27:38.924.27-Aug-2021 4964.50 5198.75 86.34 7.00 141.66 3307.39
   09:27:39.125.27-Aug-2021 4964.50 5198.77 86.34 7.00 141.86 3307.39
   09:27:39.325.27-Aug-2021 4964.50 5198.69 86.34 7.00 142.06 3307.39
   09:27:39.525.27-Aug-2021 4964.50 5198.69 86.34 7.00 142.26 3307.39
   09:27:39.725.27-Aug-2021 4964.50 5198.70 86.34 7.00 142.46 3307.39
   09:27:39.925.27-Aug-2021 4964.50 5198.71 86.34 7.00 142.66 3307.39
   09:27:40.125.27-Aug-2021 4964.50 5198.71 86.34 7.00 142.86 3307.39
   09:27:40.325.27-Aug-2021 4964.50 5198.73 86.34 7.00 143.06 3307.39
   09:27:40.525.27-Aug-2021 4964.50 5198.73 86.34 7.00 143.26 3307.39
   09:27:40.725.27-Aug-2021 4964.50 5198.75 86.34 7.00 143.46 3307.39
   09:27:40.925.27-Aug-2021 4964.50 5198.75 86.34 7.00 143.66 3307.39
   09:27:41.125.27-Aug-2021 4964.50 5198.77 86.34 7.00 143.86 3307.39
   09:27:41.325.27-Aug-2021 4964.50 5198.77 86.34 7.00 144.06 3307.39
   09:27:41.526.27-Aug-2021 4964.50 5198.77 86.34 7.00 144.26 3307.39
   09:27:41.726.27-Aug-2021 4964.50 5198.78 86.34 7.00 144.46 3307.39
   09:27:41.926.27-Aug-2021 4964.50 5198.79 86.34 7.00 144.66 3307.39
   09:27:42.126.27-Aug-2021 4964.50 5198.80 86.34 7.00 144.86 3307.39
   09:27:42.326.27-Aug-2021 4964.50 5198.77 86.34 7.00 145.06 3307.39
   09:27:42.526.27-Aug-2021 4964.50 5198.77 86.34 7.00 145.26 3307.39
   09:27:42.726.27-Aug-2021 4964.50 5198.69 86.34 7.00 145.46 3307.39
   09:27:42.926.27-Aug-2021 4964.50 5198.69 86.34 7.00 145.66 3307.39
   09:27:43.126.27-Aug-2021 4964.50 5198.71 86.34 7.00 145.86 3307.39
   09:27:43.326.27-Aug-2021 4964.50 5198.73 86.34 7.00 146.06 3307.39
   09:27:43.526.27-Aug-2021 4964.50 5198.73 86.34 7.00 146.26 3307.39
   09:27:43.726.27-Aug-2021 4964.50 5198.67 86.34 7.00 146.46 3307.39
   09:27:43.927.27-Aug-2021 4964.50 5198.68 86.33 7.00 146.66 3307.39
   09:27:44.127.27-Aug-2021 4964.50 5198.69 86.34 7.00 146.86 3307.39
   09:27:44.327.27-Aug-2021 4964.50 5198.70 86.34 7.00 147.06 3307.39
   09:27:44.527.27-Aug-2021 4964.50 5198.70 86.34 7.00 147.26 3307.39
   09:27:44.727.27-Aug-2021 4964.50 5198.67 86.34 7.00 147.46 3307.39
   09:27:44.927.27-Aug-2021 4964.50 5198.66 86.33 7.00 147.66 3307.39
   09:27:45.127.27-Aug-2021 4964.50 5198.67 86.34 7.00 147.86 3307.39
   09:27:45.327.27-Aug-2021 4964.50 5198.69 86.33 7.00 148.06 3307.39
   09:27:45.527.27-Aug-2021 4964.50 5198.69 86.33 7.00 148.26 3307.39
   09:27:45.727.27-Aug-2021 4964.50 5198.63 86.33 7.00 148.46 3307.39
   09:27:45.927.27-Aug-2021 4964.50 5198.65 86.33 7.00 148.66 3307.39
   09:27:46.127.27-Aug-2021 4964.50 5198.67 86.33 7.00 148.86 3307.39
   09:27:46.328.27-Aug-2021 4964.50 5198.67 86.33 7.00 149.06 3307.39
   09:27:46.528.27-Aug-2021 4964.50 5198.67 86.33 7.00 149.26 3307.39
   09:27:46.728.27-Aug-2021 4964.50 5198.68 86.33 7.00 149.46 3307.39
   09:27:46.928.27-Aug-2021 4964.50 5198.69 86.33 7.00 149.66 3307.39
   09:27:47.128.27-Aug-2021 4964.50 5198.71 86.33 7.00 149.86 3307.39
   09:27:47.328.27-Aug-2021 4964.50 5198.70 86.33 7.00 150.06 3307.39
   09:27:47.528.27-Aug-2021 4964.50 5198.70 86.33 7.00 150.26 3307.39
   09:27:47.728.27-Aug-2021 4964.50 5198.71 86.33 7.00 150.46 3307.39
   09:27:47.928.27-Aug-2021 4964.50 5198.72 86.33 7.00 150.66 3307.39
   09:27:48.128.27-Aug-2021 4964.50 5198.73 86.33 7.00 150.86 3307.39
   09:27:48.328.27-Aug-2021 4964.50 5198.71 86.33 7.00 151.06 3307.39
   09:27:48.528.27-Aug-2021 4964.50 5198.71 86.33 7.00 151.26 3307.39
   09:27:48.729.27-Aug-2021 4964.50 5198.66 86.33 7.00 151.46 3307.39
   09:27:48.929.27-Aug-2021 4964.50 5198.66 86.33 7.00 151.66 3307.39
   09:27:49.129.27-Aug-2021 4964.50 5198.66 86.33 7.00 151.86 3307.39
   09:27:49.329.27-Aug-2021 4964.50 5198.67 86.33 7.00 152.06 3307.39
   09:27:49.529.27-Aug-2021 4964.50 5198.67 86.33 7.00 152.26 3307.39
   09:27:49.729.27-Aug-2021 4964.50 5198.68 86.33 7.00 152.46 3307.39
   09:27:49.929.27-Aug-2021 4964.50 5198.69 86.33 7.00 152.66 3307.39
   09:27:50.129.27-Aug-2021 4964.50 5198.70 86.33 7.00 152.86 3307.39
   09:27:50.329.27-Aug-2021 4964.50 5198.70 86.33 7.00 153.06 3307.39
   09:27:50.529.27-Aug-2021 4964.50 5198.70 86.33 7.00 153.26 3307.39
   09:27:50.729.27-Aug-2021 4964.50 5198.71 86.33 7.00 153.46 3307.39
   09:27:50.929.27-Aug-2021 4964.50 5198.72 86.33 7.00 153.66 3307.39
   09:27:51.130.27-Aug-2021 4964.50 5198.72 86.33 7.00 153.86 3307.39
   09:27:51.330.27-Aug-2021 4964.50 5198.73 86.33 7.00 154.06 3307.39
   09:27:51.530.27-Aug-2021 4964.50 5198.73 86.33 7.00 154.26 3307.39
   09:27:51.730.27-Aug-2021 4964.50 5198.71 86.33 7.00 154.46 3307.39
   09:27:51.930.27-Aug-2021 4964.50 5198.72 86.33 7.00 154.66 3307.39
   09:27:52.130.27-Aug-2021 4964.50 5198.67 86.33 7.00 154.86 3307.39
   09:27:52.330.27-Aug-2021 4964.50 5198.67 86.33 7.00 155.06 3307.39
   09:27:52.530.27-Aug-2021 4964.50 5198.67 86.33 7.00 155.26 3307.39
   09:27:52.730.27-Aug-2021 4964.50 5198.69 86.33 7.00 155.46 3307.39
   09:27:52.930.27-Aug-2021 4964.50 5198.65 86.33 7.00 155.66 3307.39
   09:27:53.130.27-Aug-2021 4964.50 5198.64 86.33 7.00 155.86 3307.39
   09:27:53.330.27-Aug-2021 4964.50 5198.65 86.33 7.00 156.06 3307.39
   09:27:53.531.27-Aug-2021 4964.50 5198.65 86.33 7.00 156.26 3307.39
   09:27:53.731.27-Aug-2021 4964.50 5198.67 86.33 7.00 156.46 3307.39
   09:27:53.931.27-Aug-2021 4964.50 5198.67 86.33 7.00 156.67 3307.39
   09:27:54.131.27-Aug-2021 4964.50 5198.64 86.33 7.00 156.87 3307.39
   09:27:54.331.27-Aug-2021 4964.50 5198.63 86.33 7.00 157.07 3307.39
   09:27:54.531.27-Aug-2021 4964.50 5198.63 86.33 7.00 157.27 3307.39
   09:27:54.731.27-Aug-2021 4964.50 5198.66 86.33 7.00 157.47 3307.39
   09:27:54.931.27-Aug-2021 4964.50 5198.66 86.33 7.00 157.67 3307.39
   09:27:55.131.27-Aug-2021 4964.50 5198.62 86.33 7.00 157.87 3307.39
   09:27:55.331.27-Aug-2021 4964.50 5198.62 86.33 7.00 158.07 3307.39
   09:27:55.531.27-Aug-2021 4964.50 5198.62 86.33 7.00 158.27 3307.39
   09:27:55.731.27-Aug-2021 4964.50 5198.64 86.33 7.00 158.47 3307.39
   09:27:55.932.27-Aug-2021 4964.50 5198.66 86.33 7.00 158.67 3307.39
   09:27:56.132.27-Aug-2021 4964.50 5198.66 86.33 7.00 158.87 3307.39
   09:27:56.332.27-Aug-2021 4964.50 5198.66 86.33 7.00 159.07 3307.39
   09:27:56.532.27-Aug-2021 4964.50 5198.66 86.33 7.00 159.27 3307.39
   09:27:56.732.27-Aug-2021 4964.50 5198.67 86.33 7.00 159.47 3307.39
   09:27:56.932.27-Aug-2021 4964.50 5198.43 86.33 7.00 159.67 3307.39
   09:27:57.132.27-Aug-2021 4964.50 5163.18 86.33 7.00 159.87 3307.39
   09:27:57.332.27-Aug-2021 4964.50 5151.81 86.33 7.00 160.07 3307.39
   09:27:57.532.27-Aug-2021 4964.50 5151.81 86.33 7.00 160.27 3307.39
   09:27:57.732.27-Aug-2021 4964.50 5151.27 86.33 7.00 160.47 3307.39
   09:27:57.932.27-Aug-2021 4964.50 5150.62 86.33 7.00 160.67 3307.39
   09:27:58.132.27-Aug-2021 4964.50 5152.10 86.33 7.00 160.87 3307.39
