~Version Information
 VERS.                  2.0:   CWLS log ASCII Standard -VERSION 2.0
 WRAP.                   NO:   One line per depth step
~Well Information Block
#MNEM.UNIT     VALUE/NAME     DESCRIPTION
#---------     -----------    ---------------------------
 STRT.S             23:43:00 27-Aug-21: START TIME 23:43:00 27-Aug-21
 STOP.S             23:50:14 27-Aug-21: STOP TIME  23:50:14 27-Aug-21
 STEP.S                   0.00: STEP TIME
 NULL.                 -999.25: NULL VALUE
 DFWT.                        :  DIST FWL TEXT
 DFST.                        :  DIST FSL TEXT
 DMF .             Drill Floor:  DRILL MEAS FROM
 STIM.      20.00.00 17-Aug-21:  START TIME
 DATE.      19.00.00 29-Aug-21:  END TIME
 SPUD.               15-Aug-21:  SPUD DATE
 NREF.                    Grid:  NORTH REFERENCE
 HPTY.       Minimum Curvature:  HOLE POS TYPE
 DMOD.             Drill Model:  DRILL MOD DESC
 SVYD.                  Survey:  SURVEY DESC
 ILTD.               Lithology:  INTERP LTH DESC
 FTOP.          Formation Tops:  FORM TOPS DESC
 RIG .              East Azeri:  RIG NAME
 PDAT.          Mean Sea Level:  PERMANENT DATUM
 FLD .                     ACG:  FIELD NAME
 SON .        AZ-XX-0907180857:  JOB NUMBER
 CTRY.              Azerbaijan:  COUNTRY NAME
 WELL.                    D23x:  WELL NAME
 SRVC.     Turan Drilling and Engineering:  CONTRACTOR
 COMP.     BP Exploration (Caspian Sea) Ltd.:  COMPANY
 UWI .            /AZE00000214:  UNIQUE WELL IDENTIFIER
 API .            /AZE00000214:  API NUMBER
 MDS .        Operator Entered:  MAG DATA SOURCE
 BASE.              Azerbaijan:  LOGGING EQUIPMENT BASE LOCATION
 REGN.                   EESSA:  REGION
 PROV.                    Baku:  PROVINCE
 STAT.                    Baku:  STATE NAME
 MWDS.                    Baku:  MWD SHOP
 DOE .                     N/A:  DOE NUMBER
 DCON.         Sperry Drilling:  DIRECTNL CONTR
 UNIT.                     N/A:  LOGGING EQUIPMENT ID
 WTYP.                Deviated:  WELL TYPE
 CNTY.                        :  COUNTY
 LOC .                        :  LOCATION
 LMF .             Drill Floor:  LOG MEASURED FROM
 TVDS.m                  43.60:  TVDSS CORRECTN
 LATI.deg                40.02:  LATITUDE
 LONG.deg                51.45:  LONGITUDE
 WHNS.m                  -7.04:  WELL HEAD N/S
 WHEW.m                  -0.67:  WELL HEAD E/W
 UTMX.m              538762.90:  UTM X
 UTMY.m             4431871.34:  UTM Y
 DFWL.m                   0.00:  DISTANCE FWL
 DFSL.m                   0.00:  DISTANCE FSL
 SDEP.m                4127.00:  START DEPTH
 TDD .m                5084.50:  TOTAL DEPTH (DRILLER)
 VSDR.deg               140.47:  VERT SEC DIRECT
 GVFD.g                   1.00:  GRAVITY FIELD
 MFLD.nT              50362.00:  MAGNETIC FIELD
 MDIP.deg                59.48:  MAGNETIC DIP
 MDEC.deg                 6.47:  MAGNETIC DECL
 GRDC.deg                 0.31:  GRID CORRECTION
 AZTC.deg                 6.16:  AZM TOTAL CORR
 EPD .m                   0.00:  ELEVATION
 EGL .m                   0.00:  GROUND ELEVATION
 WDMS.m                 151.80:  WD ELEV
 APD .m                  43.60:  DEPTH ABOVE PD
 DEP .m                4092.57:  DEPTH
 AGAP.m                  43.60:  AIR GAP
 VSEW.m                  -0.67:  VERT SEC E/W
 VSNS.m                  -7.04:  VERT SEC N/S
 EKB .m                  43.60:  KB ELEVATION
 EDF .m                  43.60:  DF ELEVATION
 TDL .m                 957.50:  TOTAL DEPTH (LOGGER)
 VSC .                       0:  VS TO CLOSURE
 MAGU.                 1851413:  MAGUTM CHECKSUM
~Parameter Information Block
#MNEM.UNIT       Value        Description
#---------     -----------    ---------------------------
 AV  .mps                 1.50:  Ann Velocity 
 AVMX.mps                 2.00:  Max Ann Veloc 
 AZIF.deg               184.66:  Azm, Final 
 BHAT.        Rotary Steerable:  BHA Type 
 BREV.rev               300.00:  Rev Bit Total 
 BROT.°/30m              -0.50:  Build Rotating 
 BS  .in                  8.50:  Bit Size 
 BSZ .in                  8.50:  Bit Size 
 BTPL.psig              370.00:  Bit Press Loss 
 CABU.                      No:  Customer Abuse 
 CGEO.      Behruz Shahbaliyev:  Customer Geo 
 COMM.                     Ì™‡:  Run Comments 1 
 TCS .hr                140.08:  Time Ciculation Ended 
 CV  .mps                 3.00:  Crit Velocity 
 CVMX.mps                 3.20:  Max Crit Veloc 
 DD1 .            Musa Ahmadov:  Direct Drillr 1 
 DD2 .           Hamid Ahmadov:  Direct Drillr 2 
 DDSV.               Geo-Pilot:  DD Service 
 DEFF.%                  98.40:  % Det Eff 
 DLRX.°/30m               3.40:  Dogleg Rot Max 
 DLSO.°/30m               1.45:  Dogleg Oriented 
 DLSX.°/30m               3.40:  Dogleg Str Max 
 DRET.      18.40.00 29-Aug-21:  Drill End Time 
 DRST.      21.00.00 20-Aug-21:  Drill Start Tim 
 DTIM.hr                 69.47:  Time Drilling 
 EDEP.m                5084.50:  End Depth 
 ENG1.      Artemiy Matviyanov:  Engineer 1 
 ENG2.         Almaz Almadatov:  Engineer 2 
 ETIM.      18.40.00 29-Aug-21:  End Time 
 FLOI.gpm               500.00:  Flow In 
 FLON.gpm               400.00:  Flow In Min 
 FLOS.cptm                0.00:  Fluid Loss 
 FLOX.gpm               500.00:  Flow In Max 
 DFT .        Mineral Oil Base:  Mud Type 
 HFLO.                      No:  High Flow 
 HPRE.                      No:  High Pressure 
 HTEM.                      No:  High Temp 
 HYDO.m                   1.80:  Hydro Offset 
 IFIN.deg                25.62:  Inc, Final 
 IMAX.deg                48.69:  Inc Max 
 IMIN.deg                24.01:  Inc Min 
 IMND.m                4962.57:  Inc Min Depth 
 IMXD.m                4119.01:  Inc Max Depth 
 JARR.                      No:  Jarring 
 LETM.      18.40.00 29-Aug-21:  Log End Time 
 LOST.hr                     0:  Lost Rig Time 
 LSTM.      21.00.00 20-Aug-21:  Log Start Time 
 MDCL.ppm             41500.00:  Mud Chlorides 
 MDES.     Inversion Oil/Synthetic:  Mud Desc 
 DFD .sg                  1.56:  Mud Density 
 MDMN.sg                  1.56:  Dens Mud Min 
 MDMX.sg                  1.56:  Dens Mud Max 
 MOIL.                      70:  Run Mud Oil % 
 MOWR.                   70:30:  Run Mud OWR 
 MSND.                     0.2:  Run Mud Sand % 
 MSOL.                    23.3:  Run Mud Solids% 
 DFV .spqt               78.00:  Mud Viscosity 
 MWOD.in                  6.75:  MWD Tool OD 
 MWSI.                      No:  Serv Intrp, MWD 
 OTIM.hr                218.30:  Time Operating 
 PCON.           Look Like New:  Pad Condition 
 PMAX.psia            11015.30:  Press Op, Max 
 PV  .cP                 38.00:  Mud PV 
 RUN .                     300:  Run Number 
 ROPA.m/hr               15.00:  ROP Avg 
 ROPN.m/hr                9.00:  ROP Min 
 ROPX.m/hr               17.00:  ROP Max 
 RPMA.rpm               120.00:  RPM Surface Avg 
 RPMN.rpm                90.00:  RPM Surface Min 
 RPMX.rpm               140.00:  RPM Surface Max 
 RRUN.                     300:  Rig Run Number 
 RTIM.hr                 31.53:  Time Reaming 
 SAZI.deg               331.64:  Azm, Start 
 SDEP.m                4127.00:  Start Depth 
 SIDD.                      No:  Serv Intrp, DD 
 SINC.deg                48.43:  Inc, Start 
 SPPA.psig             5830.00:  SPP Avg 
 SPPN.psig             5600.00:  SPP Min 
 SPPX.psig             5900.00:  SPP Max 
 STIM.      21.00.00 20-Aug-21:  Start Time 
 SVCS.                 DD, MWD:  Services 
 SVER.                    9.20:  Sperry Version 
 TDAT.m                 957.50:  Tot Depth Attmp 
 TDDF.                      No:  Trip for DD 
 TDLG.m                 957.50:  Tot Depth Loggd 
 TFF .                      No:  Trip for Fail 
 TQAA.f-kp               15.00:  Torque Abs Avg 
 TQAN.f-kp               12.00:  Torque Abs Min 
 TQAX.f-kp               19.00:  Torque Abs Max 
 TRRT.°/30m              -3.40:  Turn Rotating 
 MRT .                  EWR-M5:  Maximum Recorded Temperature 
 TTMX.degC              100.00:  Max Tool Temp 
 VS01.                90639251:  Virtual Str1 SN 
 VS02.                90634715:  Virtual Str2 SN 
 VS03.                90652479:  Virtual Str3 SN 
 VS04.                90642262:  Virtual Str4 SN 
 WBMN.klb                 0.00:  WOB Min 
 WITN.           Murad Guliyev:  Customer Rep 
 WITN.          Yashar Gaziyev:  Customer Rep 2 
 WOBA.klb                 9.00:  WOB Avg 
 WOBX.klb                12.00:  WOB Max 
 YP  .lhf2               30.00:  Yield Point 
~Curve Information Block
#MNEM.UNIT                 API CODE     Curve Description
#---------               -----------    ---------------------------
 TIME.HHMMSS            00 000 000 000:  GT Time & Date
 GTDEPTH.m              00 000 000 000:  GT Depth
 GTPQH.psia             00 000 000 000:  GT HR Quartz Pressure
 GTTQ.degC              00 000 000 000:  GT Quartz Temperature
 GTTN.NONE              00 000 000 000:  GT Test Number
 GTET.sec               00 000 000 000:  GT Elapsed Test Time
 GTTVD.m                00 000 000 000:  GT True Vertical Depth
#Other Information
#
#WARRANTY: Halliburton will use its best efforts to furnish customers with 
#accurate information and interpretations that are part of, and incident to, the services 
#provided.  However, Halliburton cannot and does not warrant the accuracy 
#or correctness of such information and interpretations.  Under no circumstances should any 
#such information or interpretation be relied upon as the sole basis for any drilling, 
#completion, production, or financial decision or any procedure involving any risk to the 
#safety of any drilling venture, drilling rig or its crew or any other third party.  The 
#Customer has full responsibility for all drilling, completion and production operation.  
#Halliburton makes no representations or warranties, either expressed or 
#implied, including, but not limited to, the implied warranties of merchantability or fitness 
#for a particular purpose, with respect to the services rendered.  In no event will 
#Halliburton be liable for failure to obtain any particular results or for 
#any damages, including, but not limited to, indirect, special or consequential damages, 
#resulting from the use of any information or interpretation provided by Halliburton.
#
~A           TIME           GTDEPTH  GTPQH  GTTQ  GTTN   GTET   GTTVD  
   23:43:00.127.27-Aug-2021 4669.00 7224.55 82.18 26.00   0.00 3039.49
   23:43:00.328.27-Aug-2021 4669.00 7224.55 82.18 26.00   0.20 3039.49
   23:43:00.528.27-Aug-2021 4669.00 7224.89 82.18 26.00   0.40 3039.49
   23:43:00.728.27-Aug-2021 4669.00 7224.50 82.18 26.00   0.60 3039.49
   23:43:00.928.27-Aug-2021 4669.00 7224.77 82.18 26.00   0.80 3039.49
   23:43:01.128.27-Aug-2021 4669.00 7224.37 82.18 26.00   1.00 3039.49
   23:43:01.328.27-Aug-2021 4669.00 7224.37 82.18 26.00   1.20 3039.49
   23:43:01.528.27-Aug-2021 4669.00 7224.63 82.18 26.00   1.40 3039.49
   23:43:01.728.27-Aug-2021 4669.00 7224.54 82.18 26.00   1.60 3039.49
   23:43:01.928.27-Aug-2021 4669.00 7224.61 82.18 26.00   1.80 3039.49
   23:43:02.128.27-Aug-2021 4669.00 7224.76 82.18 26.00   2.00 3039.49
   23:43:02.328.27-Aug-2021 4669.00 7224.76 82.18 26.00   2.20 3039.49
   23:43:02.528.27-Aug-2021 4669.00 7224.91 82.18 26.00   2.40 3039.49
   23:43:02.728.27-Aug-2021 4669.00 7225.12 82.18 26.00   2.60 3039.49
   23:43:02.928.27-Aug-2021 4669.00 7225.26 82.18 26.00   2.80 3039.49
   23:43:03.128.27-Aug-2021 4669.00 7225.45 82.18 26.00   3.00 3039.49
   23:43:03.328.27-Aug-2021 4669.00 7225.45 82.18 26.00   3.20 3039.49
   23:43:03.528.27-Aug-2021 4669.00 7225.89 82.18 26.00   3.40 3039.49
   23:43:03.728.27-Aug-2021 4669.00 7226.00 82.18 26.00   3.60 3039.49
   23:43:03.928.27-Aug-2021 4669.00 7226.25 82.18 26.00   3.80 3039.49
   23:43:04.128.27-Aug-2021 4669.00 7226.43 82.18 26.00   4.00 3039.49
   23:43:04.328.27-Aug-2021 4669.00 7226.43 82.18 26.00   4.20 3039.49
   23:43:04.528.27-Aug-2021 4669.00 7226.98 82.18 26.00   4.40 3039.49
   23:43:04.728.27-Aug-2021 4669.00 7227.26 82.18 26.00   4.60 3039.49
   23:43:04.928.27-Aug-2021 4669.00 7227.54 82.18 26.00   4.80 3039.49
   23:43:05.128.27-Aug-2021 4669.00 7227.78 82.18 26.00   5.00 3039.49
   23:43:05.328.27-Aug-2021 4669.00 7227.78 82.18 26.00   5.20 3039.49
   23:43:05.528.27-Aug-2021 4669.00 7228.41 82.18 26.00   5.40 3039.49
   23:43:05.728.27-Aug-2021 4669.00 7229.13 82.18 26.00   5.60 3039.49
   23:43:05.928.27-Aug-2021 4669.00 7231.32 82.18 26.00   5.80 3039.49
   23:43:06.128.27-Aug-2021 4669.00 7228.72 82.18 26.00   6.00 3039.49
   23:43:06.328.27-Aug-2021 4669.00 7228.72 82.18 26.00   6.20 3039.49
   23:43:06.528.27-Aug-2021 4669.00 7228.72 82.18 26.00   6.40 3039.49
   23:43:06.728.27-Aug-2021 4669.00 7231.66 82.18 26.00   6.60 3039.49
   23:43:06.928.27-Aug-2021 4669.00 7230.17 82.18 26.00   6.80 3039.49
   23:43:07.128.27-Aug-2021 4669.00 7230.16 82.18 26.00   7.00 3039.49
   23:43:07.328.27-Aug-2021 4669.00 7230.16 82.18 26.00   7.20 3039.49
   23:43:07.528.27-Aug-2021 4669.00 7230.16 82.18 26.00   7.40 3039.49
   23:43:07.728.27-Aug-2021 4669.00 7235.76 82.18 26.00   7.60 3039.49
   23:43:07.928.27-Aug-2021 4669.00 7230.54 82.18 26.00   7.80 3039.49
   23:43:08.128.27-Aug-2021 4669.00 7231.91 82.18 26.00   8.00 3039.49
   23:43:08.329.27-Aug-2021 4669.00 7231.91 82.18 26.00   8.20 3039.49
   23:43:08.529.27-Aug-2021 4669.00 7232.36 82.18 26.00   8.40 3039.49
   23:43:08.729.27-Aug-2021 4669.00 7237.01 82.18 26.00   8.60 3039.49
   23:43:08.929.27-Aug-2021 4669.00 7229.82 82.18 26.00   8.80 3039.49
   23:43:09.129.27-Aug-2021 4669.00 7232.98 82.18 26.00   9.00 3039.49
   23:43:09.329.27-Aug-2021 4669.00 7232.98 82.18 26.00   9.20 3039.49
   23:43:09.529.27-Aug-2021 4669.00 7233.22 82.18 26.00   9.40 3039.49
   23:43:09.729.27-Aug-2021 4669.00 7232.45 82.18 26.00   9.60 3039.49
   23:43:09.929.27-Aug-2021 4669.00 7232.93 82.18 26.00   9.80 3039.49
   23:43:10.129.27-Aug-2021 4669.00 7238.84 82.18 26.00  10.00 3039.49
   23:43:10.329.27-Aug-2021 4669.00 7238.84 82.18 26.00  10.20 3039.49
   23:43:10.529.27-Aug-2021 4669.00 7233.32 82.18 26.00  10.40 3039.49
   23:43:10.729.27-Aug-2021 4669.00 7233.01 82.18 26.00  10.60 3039.49
   23:43:10.929.27-Aug-2021 4669.00 7234.13 82.18 26.00  10.80 3039.49
   23:43:11.129.27-Aug-2021 4669.00 7233.20 82.18 26.00  11.00 3039.49
   23:43:11.329.27-Aug-2021 4669.00 7233.20 82.18 26.00  11.20 3039.49
   23:43:11.529.27-Aug-2021 4669.00 7234.69 82.18 26.00  11.40 3039.49
   23:43:11.729.27-Aug-2021 4669.00 7234.47 82.18 26.00  11.60 3039.49
   23:43:11.929.27-Aug-2021 4669.00 7240.09 82.18 26.00  11.80 3039.49
   23:43:12.129.27-Aug-2021 4669.00 7232.15 82.18 26.00  12.00 3039.49
   23:43:12.329.27-Aug-2021 4669.00 7232.15 82.18 26.00  12.20 3039.49
   23:43:12.529.27-Aug-2021 4669.00 7234.87 82.18 26.00  12.40 3039.49
   23:43:12.729.27-Aug-2021 4669.00 7235.74 82.17 26.00  12.60 3039.49
   23:43:12.929.27-Aug-2021 4669.00 7235.04 82.17 26.00  12.80 3039.49
   23:43:13.129.27-Aug-2021 4669.00 7235.71 82.17 26.00  13.00 3039.49
   23:43:13.329.27-Aug-2021 4669.00 7235.71 82.17 26.00  13.20 3039.49
   23:43:13.529.27-Aug-2021 4669.00 7236.55 82.17 26.00  13.40 3039.49
   23:43:13.729.27-Aug-2021 4669.00 7236.77 82.17 26.00  13.60 3039.49
   23:43:13.929.27-Aug-2021 4669.00 7237.05 82.17 26.00  13.80 3039.49
   23:43:14.129.27-Aug-2021 4669.00 7237.29 82.17 26.00  14.00 3039.49
   23:43:14.329.27-Aug-2021 4669.00 7237.29 82.17 26.00  14.20 3039.49
   23:43:14.529.27-Aug-2021 4669.00 7237.56 82.17 26.00  14.40 3039.49
   23:43:14.729.27-Aug-2021 4669.00 7237.65 82.17 26.00  14.60 3039.49
   23:43:14.929.27-Aug-2021 4669.00 7237.94 82.17 26.00  14.80 3039.49
   23:43:15.129.27-Aug-2021 4669.00 7238.13 82.17 26.00  15.00 3039.49
   23:43:15.329.27-Aug-2021 4669.00 7238.13 82.17 26.00  15.20 3039.49
   23:43:15.529.27-Aug-2021 4669.00 7238.99 82.17 26.00  15.40 3039.49
   23:43:15.729.27-Aug-2021 4669.00 7241.22 82.17 26.00  15.60 3039.49
   23:43:15.929.27-Aug-2021 4669.00 7238.47 82.17 26.00  15.80 3039.49
   23:43:16.129.27-Aug-2021 4669.00 7238.89 82.17 26.00  16.00 3039.49
   23:43:16.330.27-Aug-2021 4669.00 7238.89 82.17 26.00  16.20 3039.49
   23:43:16.530.27-Aug-2021 4669.00 7239.05 82.17 26.00  16.40 3039.49
   23:43:16.730.27-Aug-2021 4669.00 7240.00 82.17 26.00  16.60 3039.49
   23:43:16.930.27-Aug-2021 4669.00 7239.79 82.17 26.00  16.80 3039.49
   23:43:17.130.27-Aug-2021 4669.00 7240.43 82.17 26.00  17.00 3039.49
   23:43:17.330.27-Aug-2021 4669.00 7240.43 82.17 26.00  17.20 3039.49
   23:43:17.530.27-Aug-2021 4669.00 7240.64 82.17 26.00  17.40 3039.49
   23:43:17.730.27-Aug-2021 4669.00 7240.68 82.17 26.00  17.60 3039.49
   23:43:17.930.27-Aug-2021 4669.00 7240.62 82.17 26.00  17.80 3039.49
   23:43:18.130.27-Aug-2021 4669.00 7240.67 82.17 26.00  18.00 3039.49
   23:43:18.330.27-Aug-2021 4669.00 7240.67 82.17 26.00  18.20 3039.49
   23:43:18.530.27-Aug-2021 4669.00 7240.84 82.17 26.00  18.40 3039.49
   23:43:18.730.27-Aug-2021 4669.00 7241.44 82.17 26.00  18.60 3039.49
   23:43:18.930.27-Aug-2021 4669.00 7243.62 82.17 26.00  18.80 3039.49
   23:43:19.130.27-Aug-2021 4669.00 7240.96 82.17 26.00  19.00 3039.49
   23:43:19.330.27-Aug-2021 4669.00 7240.96 82.17 26.00  19.20 3039.49
   23:43:19.530.27-Aug-2021 4669.00 7241.49 82.17 26.00  19.40 3039.49
   23:43:19.730.27-Aug-2021 4669.00 7241.43 82.17 26.00  19.60 3039.49
   23:43:19.930.27-Aug-2021 4669.00 7242.84 82.17 26.00  19.80 3039.49
   23:43:20.130.27-Aug-2021 4669.00 7244.76 82.17 26.00  20.00 3039.49
   23:43:20.330.27-Aug-2021 4669.00 7244.76 82.17 26.00  20.20 3039.49
   23:43:20.530.27-Aug-2021 4669.00 7242.53 82.17 26.00  20.40 3039.49
   23:43:20.730.27-Aug-2021 4669.00 7242.64 82.17 26.00  20.60 3039.49
   23:43:20.930.27-Aug-2021 4669.00 7242.53 82.17 26.00  20.80 3039.49
   23:43:21.130.27-Aug-2021 4669.00 7247.37 82.17 26.00  21.00 3039.49
   23:43:21.330.27-Aug-2021 4669.00 7247.37 82.17 26.00  21.20 3039.49
   23:43:21.530.27-Aug-2021 4669.00 7243.82 82.17 26.00  21.40 3039.49
   23:43:21.730.27-Aug-2021 4669.00 7243.65 82.17 26.00  21.60 3039.49
   23:43:21.930.27-Aug-2021 4669.00 7244.23 82.17 26.00  21.80 3039.49
   23:43:22.130.27-Aug-2021 4669.00 7243.25 82.17 26.00  22.00 3039.49
   23:43:22.330.27-Aug-2021 4669.00 7243.25 82.17 26.00  22.20 3039.49
   23:43:22.530.27-Aug-2021 4669.00 7243.69 82.17 26.00  22.40 3039.49
