~Version Information
 VERS.                  2.0:   CWLS log ASCII Standard -VERSION 2.0
 WRAP.                   NO:   One line per depth step
~Well Information Block
#MNEM.UNIT     VALUE/NAME     DESCRIPTION
#---------     -----------    ---------------------------
 STRT.S             05:44:14 27-Aug-21: START TIME 05:44:14 27-Aug-21
 STOP.S             05:51:24 27-Aug-21: STOP TIME  05:51:24 27-Aug-21
 STEP.S                   0.00: STEP TIME
 NULL.                 -999.25: NULL VALUE
 DFWT.                        :  DIST FWL TEXT
 DFST.                        :  DIST FSL TEXT
 DMF .             Drill Floor:  DRILL MEAS FROM
 STIM.      20.00.00 17-Aug-21:  START TIME
 DATE.      19.00.00 29-Aug-21:  END TIME
 SPUD.               15-Aug-21:  SPUD DATE
 NREF.                    Grid:  NORTH REFERENCE
 HPTY.       Minimum Curvature:  HOLE POS TYPE
 DMOD.             Drill Model:  DRILL MOD DESC
 SVYD.                  Survey:  SURVEY DESC
 ILTD.               Lithology:  INTERP LTH DESC
 FTOP.          Formation Tops:  FORM TOPS DESC
 RIG .              East Azeri:  RIG NAME
 PDAT.          Mean Sea Level:  PERMANENT DATUM
 FLD .                     ACG:  FIELD NAME
 SON .        AZ-XX-0907180857:  JOB NUMBER
 CTRY.              Azerbaijan:  COUNTRY NAME
 WELL.                    D23x:  WELL NAME
 SRVC.     Turan Drilling and Engineering:  CONTRACTOR
 COMP.     BP Exploration (Caspian Sea) Ltd.:  COMPANY
 UWI .            /AZE00000214:  UNIQUE WELL IDENTIFIER
 API .            /AZE00000214:  API NUMBER
 MDS .        Operator Entered:  MAG DATA SOURCE
 BASE.              Azerbaijan:  LOGGING EQUIPMENT BASE LOCATION
 REGN.                   EESSA:  REGION
 PROV.                    Baku:  PROVINCE
 STAT.                    Baku:  STATE NAME
 MWDS.                    Baku:  MWD SHOP
 DOE .                     N/A:  DOE NUMBER
 DCON.         Sperry Drilling:  DIRECTNL CONTR
 UNIT.                     N/A:  LOGGING EQUIPMENT ID
 WTYP.                Deviated:  WELL TYPE
 CNTY.                        :  COUNTY
 LOC .                        :  LOCATION
 LMF .             Drill Floor:  LOG MEASURED FROM
 TVDS.m                  43.60:  TVDSS CORRECTN
 LATI.deg                40.02:  LATITUDE
 LONG.deg                51.45:  LONGITUDE
 WHNS.m                  -7.04:  WELL HEAD N/S
 WHEW.m                  -0.67:  WELL HEAD E/W
 UTMX.m              538762.90:  UTM X
 UTMY.m             4431871.34:  UTM Y
 DFWL.m                   0.00:  DISTANCE FWL
 DFSL.m                   0.00:  DISTANCE FSL
 SDEP.m                4127.00:  START DEPTH
 TDD .m                5084.50:  TOTAL DEPTH (DRILLER)
 VSDR.deg               140.47:  VERT SEC DIRECT
 GVFD.g                   1.00:  GRAVITY FIELD
 MFLD.nT              50362.00:  MAGNETIC FIELD
 MDIP.deg                59.48:  MAGNETIC DIP
 MDEC.deg                 6.47:  MAGNETIC DECL
 GRDC.deg                 0.31:  GRID CORRECTION
 AZTC.deg                 6.16:  AZM TOTAL CORR
 EPD .m                   0.00:  ELEVATION
 EGL .m                   0.00:  GROUND ELEVATION
 WDMS.m                 151.80:  WD ELEV
 APD .m                  43.60:  DEPTH ABOVE PD
 DEP .m                4092.57:  DEPTH
 AGAP.m                  43.60:  AIR GAP
 VSEW.m                  -0.67:  VERT SEC E/W
 VSNS.m                  -7.04:  VERT SEC N/S
 EKB .m                  43.60:  KB ELEVATION
 EDF .m                  43.60:  DF ELEVATION
 TDL .m                 957.50:  TOTAL DEPTH (LOGGER)
 VSC .                       0:  VS TO CLOSURE
 MAGU.                 1851413:  MAGUTM CHECKSUM
~Parameter Information Block
#MNEM.UNIT       Value        Description
#---------     -----------    ---------------------------
 AV  .mps                 1.50:  Ann Velocity 
 AVMX.mps                 2.00:  Max Ann Veloc 
 AZIF.deg               184.66:  Azm, Final 
 BHAT.        Rotary Steerable:  BHA Type 
 BREV.rev               300.00:  Rev Bit Total 
 BROT.°/30m              -0.50:  Build Rotating 
 BS  .in                  8.50:  Bit Size 
 BSZ .in                  8.50:  Bit Size 
 BTPL.psig              370.00:  Bit Press Loss 
 CABU.                      No:  Customer Abuse 
 CGEO.      Behruz Shahbaliyev:  Customer Geo 
 COMM.                     ä=U:  Run Comments 1 
 TCS .hr                140.08:  Time Ciculation Ended 
 CV  .mps                 3.00:  Crit Velocity 
 CVMX.mps                 3.20:  Max Crit Veloc 
 DD1 .            Musa Ahmadov:  Direct Drillr 1 
 DD2 .           Hamid Ahmadov:  Direct Drillr 2 
 DDSV.               Geo-Pilot:  DD Service 
 DEFF.%                  98.40:  % Det Eff 
 DLRX.°/30m               3.40:  Dogleg Rot Max 
 DLSO.°/30m               1.45:  Dogleg Oriented 
 DLSX.°/30m               3.40:  Dogleg Str Max 
 DRET.      18.40.00 29-Aug-21:  Drill End Time 
 DRST.      21.00.00 20-Aug-21:  Drill Start Tim 
 DTIM.hr                 69.47:  Time Drilling 
 EDEP.m                5084.50:  End Depth 
 ENG1.      Artemiy Matviyanov:  Engineer 1 
 ENG2.         Almaz Almadatov:  Engineer 2 
 ETIM.      18.40.00 29-Aug-21:  End Time 
 FLOI.gpm               500.00:  Flow In 
 FLON.gpm               400.00:  Flow In Min 
 FLOS.cptm                0.00:  Fluid Loss 
 FLOX.gpm               500.00:  Flow In Max 
 DFT .        Mineral Oil Base:  Mud Type 
 HFLO.                      No:  High Flow 
 HPRE.                      No:  High Pressure 
 HTEM.                      No:  High Temp 
 HYDO.m                   1.80:  Hydro Offset 
 IFIN.deg                25.62:  Inc, Final 
 IMAX.deg                48.69:  Inc Max 
 IMIN.deg                24.01:  Inc Min 
 IMND.m                4962.57:  Inc Min Depth 
 IMXD.m                4119.01:  Inc Max Depth 
 JARR.                      No:  Jarring 
 LETM.      18.40.00 29-Aug-21:  Log End Time 
 LOST.hr                     0:  Lost Rig Time 
 LSTM.      21.00.00 20-Aug-21:  Log Start Time 
 MDCL.ppm             41500.00:  Mud Chlorides 
 MDES.     Inversion Oil/Synthetic:  Mud Desc 
 DFD .sg                  1.56:  Mud Density 
 MDMN.sg                  1.56:  Dens Mud Min 
 MDMX.sg                  1.56:  Dens Mud Max 
 MOIL.                      70:  Run Mud Oil % 
 MOWR.                   70:30:  Run Mud OWR 
 MSND.                     0.2:  Run Mud Sand % 
 MSOL.                    23.3:  Run Mud Solids% 
 DFV .spqt               78.00:  Mud Viscosity 
 MWOD.in                  6.75:  MWD Tool OD 
 MWSI.                      No:  Serv Intrp, MWD 
 OTIM.hr                218.30:  Time Operating 
 PCON.           Look Like New:  Pad Condition 
 PMAX.psia            11015.30:  Press Op, Max 
 PV  .cP                 38.00:  Mud PV 
 RUN .                     300:  Run Number 
 ROPA.m/hr               15.00:  ROP Avg 
 ROPN.m/hr                9.00:  ROP Min 
 ROPX.m/hr               17.00:  ROP Max 
 RPMA.rpm               120.00:  RPM Surface Avg 
 RPMN.rpm                90.00:  RPM Surface Min 
 RPMX.rpm               140.00:  RPM Surface Max 
 RRUN.                     300:  Rig Run Number 
 RTIM.hr                 31.53:  Time Reaming 
 SAZI.deg               331.64:  Azm, Start 
 SDEP.m                4127.00:  Start Depth 
 SIDD.                      No:  Serv Intrp, DD 
 SINC.deg                48.43:  Inc, Start 
 SPPA.psig             5830.00:  SPP Avg 
 SPPN.psig             5600.00:  SPP Min 
 SPPX.psig             5900.00:  SPP Max 
 STIM.      21.00.00 20-Aug-21:  Start Time 
 SVCS.                 DD, MWD:  Services 
 SVER.                    9.20:  Sperry Version 
 TDAT.m                 957.50:  Tot Depth Attmp 
 TDDF.                      No:  Trip for DD 
 TDLG.m                 957.50:  Tot Depth Loggd 
 TFF .                      No:  Trip for Fail 
 TQAA.f-kp               15.00:  Torque Abs Avg 
 TQAN.f-kp               12.00:  Torque Abs Min 
 TQAX.f-kp               19.00:  Torque Abs Max 
 TRRT.°/30m              -3.40:  Turn Rotating 
 MRT .                  EWR-M5:  Maximum Recorded Temperature 
 TTMX.degC              100.00:  Max Tool Temp 
 VS01.                90639251:  Virtual Str1 SN 
 VS02.                90634715:  Virtual Str2 SN 
 VS03.                90652479:  Virtual Str3 SN 
 VS04.                90642262:  Virtual Str4 SN 
 WBMN.klb                 0.00:  WOB Min 
 WITN.           Murad Guliyev:  Customer Rep 
 WITN.          Yashar Gaziyev:  Customer Rep 2 
 WOBA.klb                 9.00:  WOB Avg 
 WOBX.klb                12.00:  WOB Max 
 YP  .lhf2               30.00:  Yield Point 
~Curve Information Block
#MNEM.UNIT                 API CODE     Curve Description
#---------               -----------    ---------------------------
 TIME.HHMMSS            00 000 000 000:  GT Time & Date
 GTDEPTH.m              00 000 000 000:  GT Depth
 GTPQH.psia             00 000 000 000:  GT HR Quartz Pressure
 GTTQ.degC              00 000 000 000:  GT Quartz Temperature
 GTTN.NONE              00 000 000 000:  GT Test Number
 GTET.sec               00 000 000 000:  GT Elapsed Test Time
 GTTVD.m                00 000 000 000:  GT True Vertical Depth
#Other Information
#
#WARRANTY: Halliburton will use its best efforts to furnish customers with 
#accurate information and interpretations that are part of, and incident to, the services 
#provided.  However, Halliburton cannot and does not warrant the accuracy 
#or correctness of such information and interpretations.  Under no circumstances should any 
#such information or interpretation be relied upon as the sole basis for any drilling, 
#completion, production, or financial decision or any procedure involving any risk to the 
#safety of any drilling venture, drilling rig or its crew or any other third party.  The 
#Customer has full responsibility for all drilling, completion and production operation.  
#Halliburton makes no representations or warranties, either expressed or 
#implied, including, but not limited to, the implied warranties of merchantability or fitness 
#for a particular purpose, with respect to the services rendered.  In no event will 
#Halliburton be liable for failure to obtain any particular results or for 
#any damages, including, but not limited to, indirect, special or consequential damages, 
#resulting from the use of any information or interpretation provided by Halliburton.
#
~A           TIME           GTDEPTH  GTPQH  GTTQ  GTTN  GTET   GTTVD  
# ...
   05:46:09.341.27-Aug-2021 5021.00 8000.48 88.65 1.00 115.02 3358.56
   05:46:09.541.27-Aug-2021 5021.00 8000.48 88.65 1.00 115.22 3358.56
   05:46:09.741.27-Aug-2021 5021.00 8000.15 88.65 1.00 115.42 3358.56
   05:46:09.941.27-Aug-2021 5021.00 8000.36 88.65 1.00 115.62 3358.56
   05:46:10.141.27-Aug-2021 5021.00 7999.63 88.65 1.00 115.82 3358.56
   05:46:10.341.27-Aug-2021 5021.00 8002.78 88.65 1.00 116.02 3358.56
   05:46:10.541.27-Aug-2021 5021.00 8002.78 88.65 1.00 116.22 3358.56
   05:46:10.741.27-Aug-2021 5021.00 8000.25 88.65 1.00 116.42 3358.56
   05:46:10.941.27-Aug-2021 5021.00 7999.02 88.65 1.00 116.62 3358.56
   05:46:11.141.27-Aug-2021 5021.00 7999.21 88.65 1.00 116.82 3358.56
   05:46:11.341.27-Aug-2021 5021.00 7999.24 88.65 1.00 117.02 3358.56
   05:46:11.541.27-Aug-2021 5021.00 7999.24 88.65 1.00 117.22 3358.56
   05:46:11.741.27-Aug-2021 5021.00 7999.15 88.65 1.00 117.42 3358.56
   05:46:11.941.27-Aug-2021 5021.00 7999.25 88.65 1.00 117.62 3358.56
   05:46:12.141.27-Aug-2021 5021.00 7999.33 88.65 1.00 117.82 3358.56
   05:46:12.341.27-Aug-2021 5021.00 7999.77 88.65 1.00 118.02 3358.56
   05:46:12.541.27-Aug-2021 5021.00 7999.77 88.65 1.00 118.22 3358.56
   05:46:12.741.27-Aug-2021 5021.00 8001.16 88.65 1.00 118.42 3358.56
   05:46:12.941.27-Aug-2021 5021.00 8000.64 88.65 1.00 118.62 3358.56
   05:46:13.141.27-Aug-2021 5021.00 8000.57 88.65 1.00 118.82 3358.56
   05:46:13.341.27-Aug-2021 5021.00 8000.10 88.65 1.00 119.02 3358.56
   05:46:13.542.27-Aug-2021 5021.00 8000.10 88.65 1.00 119.22 3358.56
   05:46:13.742.27-Aug-2021 5021.00 7999.85 88.65 1.00 119.42 3358.56
   05:46:13.942.27-Aug-2021 5021.00 8003.56 88.65 1.00 119.62 3358.56
   05:46:14.142.27-Aug-2021 5021.00 8001.67 88.65 1.00 119.82 3358.56
   05:46:14.342.27-Aug-2021 5021.00 7999.09 88.65 1.00 120.02 3358.56
   05:46:14.542.27-Aug-2021 5021.00 7999.09 88.65 1.00 120.22 3358.56
   05:46:14.742.27-Aug-2021 5021.00 7996.93 88.65 1.00 120.42 3358.56
   05:46:14.942.27-Aug-2021 5021.00 7999.78 88.65 1.00 120.62 3358.56
   05:46:15.142.27-Aug-2021 5021.00 7998.60 88.65 1.00 120.82 3358.56
   05:46:15.342.27-Aug-2021 5021.00 7999.06 88.65 1.00 121.02 3358.56
   05:46:15.542.27-Aug-2021 5021.00 7999.06 88.65 1.00 121.22 3358.56
   05:46:15.742.27-Aug-2021 5021.00 8002.56 88.65 1.00 121.42 3358.56
   05:46:15.942.27-Aug-2021 5021.00 8001.42 88.65 1.00 121.62 3358.56
   05:46:16.142.27-Aug-2021 5021.00 7999.45 88.65 1.00 121.82 3358.56
   05:46:16.342.27-Aug-2021 5021.00 8007.37 88.65 1.00 122.02 3358.56
   05:46:16.542.27-Aug-2021 5021.00 8007.37 88.65 1.00 122.22 3358.56
   05:46:16.742.27-Aug-2021 5021.00 8001.05 88.65 1.00 122.42 3358.56
   05:46:16.942.27-Aug-2021 5021.00 7999.66 88.65 1.00 122.62 3358.56
   05:46:17.142.27-Aug-2021 5021.00 7999.86 88.65 1.00 122.82 3358.56
   05:46:17.342.27-Aug-2021 5021.00 7998.85 88.65 1.00 123.02 3358.56
   05:46:17.542.27-Aug-2021 5021.00 7998.85 88.65 1.00 123.22 3358.56
   05:46:17.742.27-Aug-2021 5021.00 7999.45 88.65 1.00 123.42 3358.56
   05:46:17.942.27-Aug-2021 5021.00 7999.76 88.65 1.00 123.62 3358.56
   05:46:18.142.27-Aug-2021 5021.00 7999.85 88.65 1.00 123.82 3358.56
   05:46:18.342.27-Aug-2021 5021.00 7999.88 88.64 1.00 124.02 3358.56
   05:46:18.542.27-Aug-2021 5021.00 7999.88 88.64 1.00 124.22 3358.56
   05:46:18.742.27-Aug-2021 5021.00 8000.84 88.64 1.00 124.42 3358.56
   05:46:18.942.27-Aug-2021 5021.00 8000.74 88.64 1.00 124.62 3358.56
   05:46:19.142.27-Aug-2021 5021.00 8000.74 88.64 1.00 124.82 3358.56
   05:46:19.342.27-Aug-2021 5021.00 8000.43 88.64 1.00 125.02 3358.56
   05:46:19.543.27-Aug-2021 5021.00 8000.43 88.64 1.00 125.22 3358.56
   05:46:19.743.27-Aug-2021 5021.00 8001.54 88.64 1.00 125.42 3358.56
   05:46:19.943.27-Aug-2021 5021.00 8001.14 88.64 1.00 125.62 3358.56
   05:46:20.143.27-Aug-2021 5021.00 7999.45 88.64 1.00 125.82 3358.56
   05:46:20.343.27-Aug-2021 5021.00 8000.07 88.64 1.00 126.02 3358.56
   05:46:20.543.27-Aug-2021 5021.00 8000.07 88.64 1.00 126.22 3358.56
   05:46:20.743.27-Aug-2021 5021.00 8000.12 88.64 1.00 126.42 3358.56
   05:46:20.943.27-Aug-2021 5021.00 7999.34 88.64 1.00 126.62 3358.56
   05:46:21.143.27-Aug-2021 5021.00 7999.45 88.64 1.00 126.82 3358.56
   05:46:21.343.27-Aug-2021 5021.00 7999.46 88.64 1.00 127.02 3358.56
   05:46:21.543.27-Aug-2021 5021.00 7999.46 88.64 1.00 127.22 3358.56
   05:46:21.743.27-Aug-2021 5021.00 8000.93 88.64 1.00 127.42 3358.56
   05:46:21.943.27-Aug-2021 5021.00 8001.09 88.64 1.00 127.62 3358.56
   05:46:22.143.27-Aug-2021 5021.00 8001.00 88.64 1.00 127.82 3358.56
   05:46:22.343.27-Aug-2021 5021.00 8000.54 88.64 1.00 128.02 3358.56
   05:46:22.543.27-Aug-2021 5021.00 8000.54 88.64 1.00 128.22 3358.56
   05:46:22.743.27-Aug-2021 5021.00 8000.54 88.64 1.00 128.42 3358.56
   05:46:22.943.27-Aug-2021 5021.00 8000.10 88.64 1.00 128.62 3358.56
   05:46:23.143.27-Aug-2021 5021.00 8003.81 88.64 1.00 128.82 3358.56
   05:46:23.343.27-Aug-2021 5021.00 8001.67 88.64 1.00 129.02 3358.56
   05:46:23.543.27-Aug-2021 5021.00 8001.67 88.64 1.00 129.22 3358.56
   05:46:23.743.27-Aug-2021 5021.00 8007.06 88.64 1.00 129.42 3358.56
   05:46:23.943.27-Aug-2021 5021.00 7997.57 88.64 1.00 129.62 3358.56
   05:46:24.143.27-Aug-2021 5021.00 8000.13 88.64 1.00 129.82 3358.56
   05:46:24.343.27-Aug-2021 5021.00 7999.23 88.64 1.00 130.02 3358.56
   05:46:24.543.27-Aug-2021 5021.00 7999.23 88.64 1.00 130.22 3358.56
   05:46:24.743.27-Aug-2021 5021.00 7998.75 88.64 1.00 130.42 3358.56
   05:46:24.943.27-Aug-2021 5021.00 8003.40 88.64 1.00 130.62 3358.56
   05:46:25.143.27-Aug-2021 5021.00 8001.85 88.64 1.00 130.82 3358.56
   05:46:25.343.27-Aug-2021 5021.00 8000.40 88.64 1.00 131.02 3358.56
   05:46:25.543.27-Aug-2021 5021.00 8000.40 88.64 1.00 131.22 3358.56
   05:46:25.744.27-Aug-2021 5021.00 7998.50 88.64 1.00 131.42 3358.56
   05:46:25.944.27-Aug-2021 5021.00 8001.56 88.64 1.00 131.62 3358.56
   05:46:26.144.27-Aug-2021 5021.00 8000.24 88.64 1.00 131.82 3358.56
   05:46:26.344.27-Aug-2021 5021.00 8000.47 88.64 1.00 132.02 3358.56
   05:46:26.544.27-Aug-2021 5021.00 8000.47 88.64 1.00 132.22 3358.56
   05:46:26.744.27-Aug-2021 5021.00 8000.18 88.64 1.00 132.42 3358.56
   05:46:26.944.27-Aug-2021 5021.00 7999.75 88.64 1.00 132.62 3358.56
   05:46:27.144.27-Aug-2021 5021.00 8000.55 88.64 1.00 132.82 3358.56
   05:46:27.344.27-Aug-2021 5021.00 8000.09 88.64 1.00 133.02 3358.56
   05:46:27.544.27-Aug-2021 5021.00 8000.09 88.64 1.00 133.22 3358.56
   05:46:27.744.27-Aug-2021 5021.00 8001.46 88.64 1.00 133.42 3358.56
   05:46:27.944.27-Aug-2021 5021.00 8001.24 88.64 1.00 133.62 3358.56
   05:46:28.144.27-Aug-2021 5021.00 8001.43 88.64 1.00 133.82 3358.56
   05:46:28.344.27-Aug-2021 5021.00 8001.06 88.64 1.00 134.02 3358.56
   05:46:28.544.27-Aug-2021 5021.00 8001.06 88.64 1.00 134.22 3358.56
   05:46:28.744.27-Aug-2021 5021.00 8003.58 88.64 1.00 134.42 3358.56
   05:46:28.944.27-Aug-2021 5021.00 8002.41 88.64 1.00 134.62 3358.56
   05:46:29.144.27-Aug-2021 5021.00 8001.48 88.63 1.00 134.82 3358.56
   05:46:29.344.27-Aug-2021 5021.00 8000.08 88.63 1.00 135.02 3358.56
   05:46:29.544.27-Aug-2021 5021.00 8000.08 88.63 1.00 135.22 3358.56
   05:46:29.744.27-Aug-2021 5021.00 7999.95 88.63 1.00 135.42 3358.56
   05:46:29.944.27-Aug-2021 5021.00 8000.97 88.63 1.00 135.62 3358.56
   05:46:30.144.27-Aug-2021 5021.00 7999.76 88.63 1.00 135.82 3358.56
   05:46:30.344.27-Aug-2021 5021.00 8000.35 88.63 1.00 136.02 3358.56
   05:46:30.544.27-Aug-2021 5021.00 8000.35 88.63 1.00 136.22 3358.56
   05:46:30.744.27-Aug-2021 5021.00 8000.46 88.63 1.00 136.42 3358.56
   05:46:30.944.27-Aug-2021 5021.00 8001.49 88.63 1.00 136.62 3358.56
   05:46:31.144.27-Aug-2021 5021.00 8001.76 88.63 1.00 136.82 3358.56
   05:46:31.344.27-Aug-2021 5021.00 8001.60 88.63 1.00 137.02 3358.56
   05:46:31.544.27-Aug-2021 5021.00 8001.60 88.63 1.00 137.22 3358.56
   05:46:31.745.27-Aug-2021 5021.00 8001.05 88.63 1.00 137.42 3358.56
   05:46:31.945.27-Aug-2021 5021.00 8000.68 88.63 1.00 137.62 3358.56
   05:46:32.145.27-Aug-2021 5021.00 8000.86 88.63 1.00 137.82 3358.56
