~Version Information
 VERS.                  2.0:   CWLS log ASCII Standard -VERSION 2.0
 WRAP.                   NO:   One line per depth step
~Well Information Block
#MNEM.UNIT     VALUE/NAME     DESCRIPTION
#---------     -----------    ---------------------------
 STRT.S             19:41:39 27-Aug-21: START TIME 19:41:39 27-Aug-21
 STOP.S             19:48:52 27-Aug-21: STOP TIME  19:48:52 27-Aug-21
 STEP.S                   0.00: STEP TIME
 NULL.                 -999.25: NULL VALUE
 DFWT.                        :  DIST FWL TEXT
 DFST.                        :  DIST FSL TEXT
 DMF .             Drill Floor:  DRILL MEAS FROM
 STIM.      20.00.00 17-Aug-21:  START TIME
 DATE.      19.00.00 29-Aug-21:  END TIME
 SPUD.               15-Aug-21:  SPUD DATE
 NREF.                    Grid:  NORTH REFERENCE
 HPTY.       Minimum Curvature:  HOLE POS TYPE
 DMOD.             Drill Model:  DRILL MOD DESC
 SVYD.                  Survey:  SURVEY DESC
 ILTD.               Lithology:  INTERP LTH DESC
 FTOP.          Formation Tops:  FORM TOPS DESC
 RIG .              East Azeri:  RIG NAME
 PDAT.          Mean Sea Level:  PERMANENT DATUM
 FLD .                     ACG:  FIELD NAME
 SON .        AZ-XX-0907180857:  JOB NUMBER
 CTRY.              Azerbaijan:  COUNTRY NAME
 WELL.                    D23x:  WELL NAME
 SRVC.     Turan Drilling and Engineering:  CONTRACTOR
 COMP.     BP Exploration (Caspian Sea) Ltd.:  COMPANY
 UWI .            /AZE00000214:  UNIQUE WELL IDENTIFIER
 API .            /AZE00000214:  API NUMBER
 MDS .        Operator Entered:  MAG DATA SOURCE
 BASE.              Azerbaijan:  LOGGING EQUIPMENT BASE LOCATION
 REGN.                   EESSA:  REGION
 PROV.                    Baku:  PROVINCE
 STAT.                    Baku:  STATE NAME
 MWDS.                    Baku:  MWD SHOP
 DOE .                     N/A:  DOE NUMBER
 DCON.         Sperry Drilling:  DIRECTNL CONTR
 UNIT.                     N/A:  LOGGING EQUIPMENT ID
 WTYP.                Deviated:  WELL TYPE
 CNTY.                        :  COUNTY
 LOC .                        :  LOCATION
 LMF .             Drill Floor:  LOG MEASURED FROM
 TVDS.m                  43.60:  TVDSS CORRECTN
 LATI.deg                40.02:  LATITUDE
 LONG.deg                51.45:  LONGITUDE
 WHNS.m                  -7.04:  WELL HEAD N/S
 WHEW.m                  -0.67:  WELL HEAD E/W
 UTMX.m              538762.90:  UTM X
 UTMY.m             4431871.34:  UTM Y
 DFWL.m                   0.00:  DISTANCE FWL
 DFSL.m                   0.00:  DISTANCE FSL
 SDEP.m                4127.00:  START DEPTH
 TDD .m                5084.50:  TOTAL DEPTH (DRILLER)
 VSDR.deg               140.47:  VERT SEC DIRECT
 GVFD.g                   1.00:  GRAVITY FIELD
 MFLD.nT              50362.00:  MAGNETIC FIELD
 MDIP.deg                59.48:  MAGNETIC DIP
 MDEC.deg                 6.47:  MAGNETIC DECL
 GRDC.deg                 0.31:  GRID CORRECTION
 AZTC.deg                 6.16:  AZM TOTAL CORR
 EPD .m                   0.00:  ELEVATION
 EGL .m                   0.00:  GROUND ELEVATION
 WDMS.m                 151.80:  WD ELEV
 APD .m                  43.60:  DEPTH ABOVE PD
 DEP .m                4092.57:  DEPTH
 AGAP.m                  43.60:  AIR GAP
 VSEW.m                  -0.67:  VERT SEC E/W
 VSNS.m                  -7.04:  VERT SEC N/S
 EKB .m                  43.60:  KB ELEVATION
 EDF .m                  43.60:  DF ELEVATION
 TDL .m                 957.50:  TOTAL DEPTH (LOGGER)
 VSC .                       0:  VS TO CLOSURE
 MAGU.                 1851413:  MAGUTM CHECKSUM
~Parameter Information Block
#MNEM.UNIT       Value        Description
#---------     -----------    ---------------------------
 AV  .mps                 1.50:  Ann Velocity 
 AVMX.mps                 2.00:  Max Ann Veloc 
 AZIF.deg               184.66:  Azm, Final 
 BHAT.        Rotary Steerable:  BHA Type 
 BREV.rev               300.00:  Rev Bit Total 
 BROT.°/30m              -0.50:  Build Rotating 
 BS  .in                  8.50:  Bit Size 
 BSZ .in                  8.50:  Bit Size 
 BTPL.psig              370.00:  Bit Press Loss 
 CABU.                      No:  Customer Abuse 
 CGEO.      Behruz Shahbaliyev:  Customer Geo 
 COMM.                     ,‰€:  Run Comments 1 
 TCS .hr                140.08:  Time Ciculation Ended 
 CV  .mps                 3.00:  Crit Velocity 
 CVMX.mps                 3.20:  Max Crit Veloc 
 DD1 .            Musa Ahmadov:  Direct Drillr 1 
 DD2 .           Hamid Ahmadov:  Direct Drillr 2 
 DDSV.               Geo-Pilot:  DD Service 
 DEFF.%                  98.40:  % Det Eff 
 DLRX.°/30m               3.40:  Dogleg Rot Max 
 DLSO.°/30m               1.45:  Dogleg Oriented 
 DLSX.°/30m               3.40:  Dogleg Str Max 
 DRET.      18.40.00 29-Aug-21:  Drill End Time 
 DRST.      21.00.00 20-Aug-21:  Drill Start Tim 
 DTIM.hr                 69.47:  Time Drilling 
 EDEP.m                5084.50:  End Depth 
 ENG1.      Artemiy Matviyanov:  Engineer 1 
 ENG2.         Almaz Almadatov:  Engineer 2 
 ETIM.      18.40.00 29-Aug-21:  End Time 
 FLOI.gpm               500.00:  Flow In 
 FLON.gpm               400.00:  Flow In Min 
 FLOS.cptm                0.00:  Fluid Loss 
 FLOX.gpm               500.00:  Flow In Max 
 DFT .        Mineral Oil Base:  Mud Type 
 HFLO.                      No:  High Flow 
 HPRE.                      No:  High Pressure 
 HTEM.                      No:  High Temp 
 HYDO.m                   1.80:  Hydro Offset 
 IFIN.deg                25.62:  Inc, Final 
 IMAX.deg                48.69:  Inc Max 
 IMIN.deg                24.01:  Inc Min 
 IMND.m                4962.57:  Inc Min Depth 
 IMXD.m                4119.01:  Inc Max Depth 
 JARR.                      No:  Jarring 
 LETM.      18.40.00 29-Aug-21:  Log End Time 
 LOST.hr                     0:  Lost Rig Time 
 LSTM.      21.00.00 20-Aug-21:  Log Start Time 
 MDCL.ppm             41500.00:  Mud Chlorides 
 MDES.     Inversion Oil/Synthetic:  Mud Desc 
 DFD .sg                  1.56:  Mud Density 
 MDMN.sg                  1.56:  Dens Mud Min 
 MDMX.sg                  1.56:  Dens Mud Max 
 MOIL.                      70:  Run Mud Oil % 
 MOWR.                   70:30:  Run Mud OWR 
 MSND.                     0.2:  Run Mud Sand % 
 MSOL.                    23.3:  Run Mud Solids% 
 DFV .spqt               78.00:  Mud Viscosity 
 MWOD.in                  6.75:  MWD Tool OD 
 MWSI.                      No:  Serv Intrp, MWD 
 OTIM.hr                218.30:  Time Operating 
 PCON.           Look Like New:  Pad Condition 
 PMAX.psia            11015.30:  Press Op, Max 
 PV  .cP                 38.00:  Mud PV 
 RUN .                     300:  Run Number 
 ROPA.m/hr               15.00:  ROP Avg 
 ROPN.m/hr                9.00:  ROP Min 
 ROPX.m/hr               17.00:  ROP Max 
 RPMA.rpm               120.00:  RPM Surface Avg 
 RPMN.rpm                90.00:  RPM Surface Min 
 RPMX.rpm               140.00:  RPM Surface Max 
 RRUN.                     300:  Rig Run Number 
 RTIM.hr                 31.53:  Time Reaming 
 SAZI.deg               331.64:  Azm, Start 
 SDEP.m                4127.00:  Start Depth 
 SIDD.                      No:  Serv Intrp, DD 
 SINC.deg                48.43:  Inc, Start 
 SPPA.psig             5830.00:  SPP Avg 
 SPPN.psig             5600.00:  SPP Min 
 SPPX.psig             5900.00:  SPP Max 
 STIM.      21.00.00 20-Aug-21:  Start Time 
 SVCS.                 DD, MWD:  Services 
 SVER.                    9.20:  Sperry Version 
 TDAT.m                 957.50:  Tot Depth Attmp 
 TDDF.                      No:  Trip for DD 
 TDLG.m                 957.50:  Tot Depth Loggd 
 TFF .                      No:  Trip for Fail 
 TQAA.f-kp               15.00:  Torque Abs Avg 
 TQAN.f-kp               12.00:  Torque Abs Min 
 TQAX.f-kp               19.00:  Torque Abs Max 
 TRRT.°/30m              -3.40:  Turn Rotating 
 MRT .                  EWR-M5:  Maximum Recorded Temperature 
 TTMX.degC              100.00:  Max Tool Temp 
 VS01.                90639251:  Virtual Str1 SN 
 VS02.                90634715:  Virtual Str2 SN 
 VS03.                90652479:  Virtual Str3 SN 
 VS04.                90642262:  Virtual Str4 SN 
 WBMN.klb                 0.00:  WOB Min 
 WITN.           Murad Guliyev:  Customer Rep 
 WITN.          Yashar Gaziyev:  Customer Rep 2 
 WOBA.klb                 9.00:  WOB Avg 
 WOBX.klb                12.00:  WOB Max 
 YP  .lhf2               30.00:  Yield Point 
~Curve Information Block
#MNEM.UNIT                 API CODE     Curve Description
#---------               -----------    ---------------------------
 TIME.HHMMSS            00 000 000 000:  GT Time & Date
 GTDEPTH.m              00 000 000 000:  GT Depth
 GTPQH.psia             00 000 000 000:  GT HR Quartz Pressure
 GTTQ.degC              00 000 000 000:  GT Quartz Temperature
 GTTN.NONE              00 000 000 000:  GT Test Number
 GTET.sec               00 000 000 000:  GT Elapsed Test Time
 GTTVD.m                00 000 000 000:  GT True Vertical Depth
#Other Information
#
#WARRANTY: Halliburton will use its best efforts to furnish customers with 
#accurate information and interpretations that are part of, and incident to, the services 
#provided.  However, Halliburton cannot and does not warrant the accuracy 
#or correctness of such information and interpretations.  Under no circumstances should any 
#such information or interpretation be relied upon as the sole basis for any drilling, 
#completion, production, or financial decision or any procedure involving any risk to the 
#safety of any drilling venture, drilling rig or its crew or any other third party.  The 
#Customer has full responsibility for all drilling, completion and production operation.  
#Halliburton makes no representations or warranties, either expressed or 
#implied, including, but not limited to, the implied warranties of merchantability or fitness 
#for a particular purpose, with respect to the services rendered.  In no event will 
#Halliburton be liable for failure to obtain any particular results or for 
#any damages, including, but not limited to, indirect, special or consequential damages, 
#resulting from the use of any information or interpretation provided by Halliburton.
#
~A           TIME           GTDEPTH  GTPQH  GTTQ  GTTN   GTET   GTTVD  
# ...
   19:43:32.000.27-Aug-2021 4678.50 4406.92 82.36 21.00 113.00 3048.11
   19:43:32.200.27-Aug-2021 4678.50 4406.92 82.36 21.00 113.20 3048.11
   19:43:32.400.27-Aug-2021 4678.50 4406.97 82.36 21.00 113.40 3048.11
   19:43:32.600.27-Aug-2021 4678.50 4406.97 82.36 21.00 113.60 3048.11
   19:43:32.800.27-Aug-2021 4678.50 4406.99 82.36 21.00 113.80 3048.11
   19:43:33.000.27-Aug-2021 4678.50 4407.00 82.36 21.00 114.00 3048.11
   19:43:33.200.27-Aug-2021 4678.50 4407.00 82.36 21.00 114.20 3048.11
   19:43:33.400.27-Aug-2021 4678.50 4406.77 82.36 21.00 114.40 3048.11
   19:43:33.600.27-Aug-2021 4678.50 4406.83 82.36 21.00 114.60 3048.11
   19:43:33.800.27-Aug-2021 4678.50 4406.85 82.36 21.00 114.80 3048.11
   19:43:34.000.27-Aug-2021 4678.50 4406.88 82.36 21.00 115.00 3048.11
   19:43:34.200.27-Aug-2021 4678.50 4406.88 82.36 21.00 115.20 3048.11
   19:43:34.400.27-Aug-2021 4678.50 4406.89 82.36 21.00 115.40 3048.11
   19:43:34.600.27-Aug-2021 4678.50 4406.91 82.36 21.00 115.60 3048.11
   19:43:34.800.27-Aug-2021 4678.50 4406.94 82.36 21.00 115.80 3048.11
   19:43:35.000.27-Aug-2021 4678.50 4406.96 82.36 21.00 116.00 3048.11
   19:43:35.200.27-Aug-2021 4678.50 4406.96 82.36 21.00 116.20 3048.11
   19:43:35.400.27-Aug-2021 4678.50 4406.98 82.36 21.00 116.40 3048.11
   19:43:35.600.27-Aug-2021 4678.50 4406.99 82.36 21.00 116.60 3048.11
   19:43:35.800.27-Aug-2021 4678.50 4407.01 82.36 21.00 116.80 3048.11
   19:43:36.000.27-Aug-2021 4678.50 4407.03 82.36 21.00 117.00 3048.11
   19:43:36.200.27-Aug-2021 4678.50 4407.03 82.36 21.00 117.20 3048.11
   19:43:36.400.27-Aug-2021 4678.50 4407.04 82.36 21.00 117.40 3048.11
   19:43:36.600.27-Aug-2021 4678.50 4406.66 82.36 21.00 117.60 3048.11
   19:43:36.800.27-Aug-2021 4678.50 4407.16 82.36 21.00 117.80 3048.11
   19:43:37.000.27-Aug-2021 4678.50 4406.84 82.36 21.00 118.00 3048.11
   19:43:37.200.27-Aug-2021 4678.50 4406.84 82.36 21.00 118.20 3048.11
   19:43:37.400.27-Aug-2021 4678.50 4406.86 82.36 21.00 118.40 3048.11
   19:43:37.600.27-Aug-2021 4678.50 4406.77 82.37 21.00 118.60 3048.11
   19:43:37.800.27-Aug-2021 4678.50 4406.92 82.37 21.00 118.80 3048.11
   19:43:38.000.27-Aug-2021 4678.50 4406.85 82.37 21.00 119.00 3048.11
   19:43:38.200.27-Aug-2021 4678.50 4406.85 82.37 21.00 119.20 3048.11
   19:43:38.400.27-Aug-2021 4678.50 4406.87 82.37 21.00 119.40 3048.11
   19:43:38.600.27-Aug-2021 4678.50 4406.76 82.37 21.00 119.60 3048.11
   19:43:38.800.27-Aug-2021 4678.50 4406.92 82.37 21.00 119.80 3048.11
   19:43:39.000.27-Aug-2021 4678.50 4406.84 82.37 21.00 120.00 3048.11
   19:43:39.200.27-Aug-2021 4678.50 4406.84 82.37 21.00 120.20 3048.11
   19:43:39.400.27-Aug-2021 4678.50 4406.89 82.37 21.00 120.40 3048.11
   19:43:39.600.27-Aug-2021 4678.50 4406.88 82.37 21.00 120.60 3048.11
   19:43:39.800.27-Aug-2021 4678.50 4406.77 82.37 21.00 120.80 3048.11
   19:43:40.000.27-Aug-2021 4678.50 4406.96 82.37 21.00 121.00 3048.11
   19:43:40.200.27-Aug-2021 4678.50 4406.96 82.37 21.00 121.20 3048.11
   19:43:40.400.27-Aug-2021 4678.50 4406.86 82.37 21.00 121.40 3048.11
   19:43:40.600.27-Aug-2021 4678.50 4406.89 82.37 21.00 121.60 3048.11
   19:43:40.800.27-Aug-2021 4678.50 4406.87 82.37 21.00 121.80 3048.11
   19:43:41.000.27-Aug-2021 4678.50 4406.91 82.37 21.00 122.00 3048.11
   19:43:41.200.27-Aug-2021 4678.50 4406.91 82.37 21.00 122.20 3048.11
   19:43:41.400.27-Aug-2021 4678.50 4406.94 82.37 21.00 122.40 3048.11
   19:43:41.600.27-Aug-2021 4678.50 4406.93 82.37 21.00 122.60 3048.11
   19:43:41.800.27-Aug-2021 4678.50 4406.96 82.37 21.00 122.80 3048.11
   19:43:42.000.27-Aug-2021 4678.50 4406.98 82.37 21.00 123.00 3048.11
   19:43:42.200.27-Aug-2021 4678.50 4406.98 82.37 21.00 123.20 3048.11
   19:43:42.400.27-Aug-2021 4678.50 4406.99 82.37 21.00 123.40 3048.11
   19:43:42.600.27-Aug-2021 4678.50 4407.00 82.37 21.00 123.60 3048.11
   19:43:42.800.27-Aug-2021 4678.50 4406.77 82.37 21.00 123.80 3048.11
   19:43:43.000.27-Aug-2021 4678.50 4407.08 82.37 21.00 124.00 3048.11
   19:43:43.200.27-Aug-2021 4678.50 4407.08 82.37 21.00 124.20 3048.11
   19:43:43.400.27-Aug-2021 4678.50 4406.87 82.37 21.00 124.40 3048.11
   19:43:43.600.27-Aug-2021 4678.50 4406.88 82.37 21.00 124.60 3048.11
   19:43:43.800.27-Aug-2021 4678.50 4406.92 82.37 21.00 124.80 3048.11
   19:43:44.000.27-Aug-2021 4678.50 4406.89 82.37 21.00 125.00 3048.11
   19:43:44.200.27-Aug-2021 4678.50 4406.89 82.37 21.00 125.20 3048.11
   19:43:44.400.27-Aug-2021 4678.50 4406.94 82.37 21.00 125.40 3048.11
   19:43:44.600.27-Aug-2021 4678.50 4406.95 82.37 21.00 125.60 3048.11
   19:43:44.800.27-Aug-2021 4678.50 4406.96 82.37 21.00 125.80 3048.11
   19:43:45.000.27-Aug-2021 4678.50 4406.98 82.37 21.00 126.00 3048.11
   19:43:45.200.27-Aug-2021 4678.50 4406.98 82.37 21.00 126.20 3048.11
   19:43:45.400.27-Aug-2021 4678.50 4407.00 82.37 21.00 126.40 3048.11
   19:43:45.600.27-Aug-2021 4678.50 4407.00 82.37 21.00 126.60 3048.11
   19:43:45.800.27-Aug-2021 4678.50 4407.03 82.37 21.00 126.80 3048.11
   19:43:46.000.27-Aug-2021 4678.50 4407.03 82.37 21.00 127.00 3048.11
   19:43:46.200.27-Aug-2021 4678.50 4407.03 82.37 21.00 127.20 3048.11
   19:43:46.400.27-Aug-2021 4678.50 4407.19 82.37 21.00 127.40 3048.11
   19:43:46.600.27-Aug-2021 4678.50 4406.86 82.37 21.00 127.60 3048.11
   19:43:46.800.27-Aug-2021 4678.50 4406.88 82.37 21.00 127.80 3048.11
   19:43:47.000.27-Aug-2021 4678.50 4406.90 82.37 21.00 128.00 3048.11
   19:43:47.200.27-Aug-2021 4678.50 4406.90 82.37 21.00 128.20 3048.11
   19:43:47.400.27-Aug-2021 4678.50 4406.96 82.37 21.00 128.40 3048.11
   19:43:47.600.27-Aug-2021 4678.50 4406.85 82.37 21.00 128.60 3048.11
   19:43:47.800.27-Aug-2021 4678.50 4406.88 82.37 21.00 128.80 3048.11
   19:43:48.000.27-Aug-2021 4678.50 4406.88 82.37 21.00 129.00 3048.11
   19:43:48.200.27-Aug-2021 4678.50 4406.88 82.37 21.00 129.20 3048.11
   19:43:48.400.27-Aug-2021 4678.50 4406.96 82.37 21.00 129.40 3048.11
   19:43:48.600.27-Aug-2021 4678.50 4406.84 82.37 21.00 129.60 3048.11
   19:43:48.800.27-Aug-2021 4678.50 4406.86 82.37 21.00 129.80 3048.11
   19:43:49.000.27-Aug-2021 4678.50 4406.88 82.37 21.00 130.00 3048.11
   19:43:49.200.27-Aug-2021 4678.50 4406.88 82.37 21.00 130.20 3048.11
   19:43:49.400.27-Aug-2021 4678.50 4406.77 82.37 21.00 130.40 3048.11
   19:43:49.600.27-Aug-2021 4678.50 4406.95 82.37 21.00 130.60 3048.11
   19:43:49.800.27-Aug-2021 4678.50 4406.83 82.37 21.00 130.80 3048.11
   19:43:50.000.27-Aug-2021 4678.50 4406.87 82.37 21.00 131.00 3048.11
   19:43:50.200.27-Aug-2021 4678.50 4406.87 82.37 21.00 131.20 3048.11
   19:43:50.400.27-Aug-2021 4678.50 4406.86 82.37 21.00 131.40 3048.11
   19:43:50.600.27-Aug-2021 4678.50 4406.90 82.37 21.00 131.60 3048.11
   19:43:50.800.27-Aug-2021 4678.50 4406.92 82.37 21.00 131.80 3048.11
   19:43:51.000.27-Aug-2021 4678.50 4406.92 82.37 21.00 132.00 3048.11
   19:43:51.200.27-Aug-2021 4678.50 4406.92 82.37 21.00 132.20 3048.11
   19:43:51.400.27-Aug-2021 4678.50 4406.94 82.37 21.00 132.40 3048.11
   19:43:51.600.27-Aug-2021 4678.50 4406.96 82.37 21.00 132.60 3048.11
   19:43:51.800.27-Aug-2021 4678.50 4406.95 82.37 21.00 132.80 3048.11
   19:43:52.000.27-Aug-2021 4678.50 4406.97 82.38 21.00 133.00 3048.11
   19:43:52.200.27-Aug-2021 4678.50 4406.97 82.38 21.00 133.20 3048.11
   19:43:52.400.27-Aug-2021 4678.50 4406.77 82.38 21.00 133.40 3048.11
   19:43:52.600.27-Aug-2021 4678.50 4407.08 82.38 21.00 133.60 3048.11
   19:43:52.800.27-Aug-2021 4678.50 4406.84 82.38 21.00 133.80 3048.11
   19:43:53.000.27-Aug-2021 4678.50 4406.86 82.38 21.00 134.00 3048.11
   19:43:53.200.27-Aug-2021 4678.50 4406.86 82.38 21.00 134.20 3048.11
   19:43:53.400.27-Aug-2021 4678.50 4406.91 82.38 21.00 134.40 3048.11
   19:43:53.600.27-Aug-2021 4678.50 4406.90 82.38 21.00 134.60 3048.11
   19:43:53.800.27-Aug-2021 4678.50 4406.91 82.38 21.00 134.80 3048.11
   19:43:54.000.27-Aug-2021 4678.50 4406.93 82.38 21.00 135.00 3048.11
   19:43:54.200.27-Aug-2021 4678.50 4406.93 82.38 21.00 135.20 3048.11
   19:43:54.400.27-Aug-2021 4678.50 4406.95 82.38 21.00 135.40 3048.11
