~Version Information
 VERS.                  2.0:   CWLS log ASCII Standard -VERSION 2.0
 WRAP.                   NO:   One line per depth step
~Well Information Block
#MNEM.UNIT     VALUE/NAME     DESCRIPTION
#---------     -----------    ---------------------------
 STRT.S             16:35:30 27-Aug-21: START TIME 16:35:30 27-Aug-21
 STOP.S             16:42:43 27-Aug-21: STOP TIME  16:42:43 27-Aug-21
 STEP.S                   0.00: STEP TIME
 NULL.                 -999.25: NULL VALUE
 DFWT.                        :  DIST FWL TEXT
 DFST.                        :  DIST FSL TEXT
 DMF .             Drill Floor:  DRILL MEAS FROM
 STIM.      20.00.00 17-Aug-21:  START TIME
 DATE.      19.00.00 29-Aug-21:  END TIME
 SPUD.               15-Aug-21:  SPUD DATE
 NREF.                    Grid:  NORTH REFERENCE
 HPTY.       Minimum Curvature:  HOLE POS TYPE
 DMOD.             Drill Model:  DRILL MOD DESC
 SVYD.                  Survey:  SURVEY DESC
 ILTD.               Lithology:  INTERP LTH DESC
 FTOP.          Formation Tops:  FORM TOPS DESC
 RIG .              East Azeri:  RIG NAME
 PDAT.          Mean Sea Level:  PERMANENT DATUM
 FLD .                     ACG:  FIELD NAME
 SON .        AZ-XX-0907180857:  JOB NUMBER
 CTRY.              Azerbaijan:  COUNTRY NAME
 WELL.                    D23x:  WELL NAME
 SRVC.     Turan Drilling and Engineering:  CONTRACTOR
 COMP.     BP Exploration (Caspian Sea) Ltd.:  COMPANY
 UWI .            /AZE00000214:  UNIQUE WELL IDENTIFIER
 API .            /AZE00000214:  API NUMBER
 MDS .        Operator Entered:  MAG DATA SOURCE
 BASE.              Azerbaijan:  LOGGING EQUIPMENT BASE LOCATION
 REGN.                   EESSA:  REGION
 PROV.                    Baku:  PROVINCE
 STAT.                    Baku:  STATE NAME
 MWDS.                    Baku:  MWD SHOP
 DOE .                     N/A:  DOE NUMBER
 DCON.         Sperry Drilling:  DIRECTNL CONTR
 UNIT.                     N/A:  LOGGING EQUIPMENT ID
 WTYP.                Deviated:  WELL TYPE
 CNTY.                        :  COUNTY
 LOC .                        :  LOCATION
 LMF .             Drill Floor:  LOG MEASURED FROM
 TVDS.m                  43.60:  TVDSS CORRECTN
 LATI.deg                40.02:  LATITUDE
 LONG.deg                51.45:  LONGITUDE
 WHNS.m                  -7.04:  WELL HEAD N/S
 WHEW.m                  -0.67:  WELL HEAD E/W
 UTMX.m              538762.90:  UTM X
 UTMY.m             4431871.34:  UTM Y
 DFWL.m                   0.00:  DISTANCE FWL
 DFSL.m                   0.00:  DISTANCE FSL
 SDEP.m                4127.00:  START DEPTH
 TDD .m                5084.50:  TOTAL DEPTH (DRILLER)
 VSDR.deg               140.47:  VERT SEC DIRECT
 GVFD.g                   1.00:  GRAVITY FIELD
 MFLD.nT              50362.00:  MAGNETIC FIELD
 MDIP.deg                59.48:  MAGNETIC DIP
 MDEC.deg                 6.47:  MAGNETIC DECL
 GRDC.deg                 0.31:  GRID CORRECTION
 AZTC.deg                 6.16:  AZM TOTAL CORR
 EPD .m                   0.00:  ELEVATION
 EGL .m                   0.00:  GROUND ELEVATION
 WDMS.m                 151.80:  WD ELEV
 APD .m                  43.60:  DEPTH ABOVE PD
 DEP .m                4092.57:  DEPTH
 AGAP.m                  43.60:  AIR GAP
 VSEW.m                  -0.67:  VERT SEC E/W
 VSNS.m                  -7.04:  VERT SEC N/S
 EKB .m                  43.60:  KB ELEVATION
 EDF .m                  43.60:  DF ELEVATION
 TDL .m                 957.50:  TOTAL DEPTH (LOGGER)
 VSC .                       0:  VS TO CLOSURE
 MAGU.                 1851413:  MAGUTM CHECKSUM
~Parameter Information Block
#MNEM.UNIT       Value        Description
#---------     -----------    ---------------------------
 AV  .mps                 1.50:  Ann Velocity 
 AVMX.mps                 2.00:  Max Ann Veloc 
 AZIF.deg               184.66:  Azm, Final 
 BHAT.        Rotary Steerable:  BHA Type 
 BREV.rev               300.00:  Rev Bit Total 
 BROT.°/30m              -0.50:  Build Rotating 
 BS  .in                  8.50:  Bit Size 
 BSZ .in                  8.50:  Bit Size 
 BTPL.psig              370.00:  Bit Press Loss 
 CABU.                      No:  Customer Abuse 
 CGEO.      Behruz Shahbaliyev:  Customer Geo 
 COMM.                     äU:  Run Comments 1 
 TCS .hr                140.08:  Time Ciculation Ended 
 CV  .mps                 3.00:  Crit Velocity 
 CVMX.mps                 3.20:  Max Crit Veloc 
 DD1 .            Musa Ahmadov:  Direct Drillr 1 
 DD2 .           Hamid Ahmadov:  Direct Drillr 2 
 DDSV.               Geo-Pilot:  DD Service 
 DEFF.%                  98.40:  % Det Eff 
 DLRX.°/30m               3.40:  Dogleg Rot Max 
 DLSO.°/30m               1.45:  Dogleg Oriented 
 DLSX.°/30m               3.40:  Dogleg Str Max 
 DRET.      18.40.00 29-Aug-21:  Drill End Time 
 DRST.      21.00.00 20-Aug-21:  Drill Start Tim 
 DTIM.hr                 69.47:  Time Drilling 
 EDEP.m                5084.50:  End Depth 
 ENG1.      Artemiy Matviyanov:  Engineer 1 
 ENG2.         Almaz Almadatov:  Engineer 2 
 ETIM.      18.40.00 29-Aug-21:  End Time 
 FLOI.gpm               500.00:  Flow In 
 FLON.gpm               400.00:  Flow In Min 
 FLOS.cptm                0.00:  Fluid Loss 
 FLOX.gpm               500.00:  Flow In Max 
 DFT .        Mineral Oil Base:  Mud Type 
 HFLO.                      No:  High Flow 
 HPRE.                      No:  High Pressure 
 HTEM.                      No:  High Temp 
 HYDO.m                   1.80:  Hydro Offset 
 IFIN.deg                25.62:  Inc, Final 
 IMAX.deg                48.69:  Inc Max 
 IMIN.deg                24.01:  Inc Min 
 IMND.m                4962.57:  Inc Min Depth 
 IMXD.m                4119.01:  Inc Max Depth 
 JARR.                      No:  Jarring 
 LETM.      18.40.00 29-Aug-21:  Log End Time 
 LOST.hr                     0:  Lost Rig Time 
 LSTM.      21.00.00 20-Aug-21:  Log Start Time 
 MDCL.ppm             41500.00:  Mud Chlorides 
 MDES.     Inversion Oil/Synthetic:  Mud Desc 
 DFD .sg                  1.56:  Mud Density 
 MDMN.sg                  1.56:  Dens Mud Min 
 MDMX.sg                  1.56:  Dens Mud Max 
 MOIL.                      70:  Run Mud Oil % 
 MOWR.                   70:30:  Run Mud OWR 
 MSND.                     0.2:  Run Mud Sand % 
 MSOL.                    23.3:  Run Mud Solids% 
 DFV .spqt               78.00:  Mud Viscosity 
 MWOD.in                  6.75:  MWD Tool OD 
 MWSI.                      No:  Serv Intrp, MWD 
 OTIM.hr                218.30:  Time Operating 
 PCON.           Look Like New:  Pad Condition 
 PMAX.psia            11015.30:  Press Op, Max 
 PV  .cP                 38.00:  Mud PV 
 RUN .                     300:  Run Number 
 ROPA.m/hr               15.00:  ROP Avg 
 ROPN.m/hr                9.00:  ROP Min 
 ROPX.m/hr               17.00:  ROP Max 
 RPMA.rpm               120.00:  RPM Surface Avg 
 RPMN.rpm                90.00:  RPM Surface Min 
 RPMX.rpm               140.00:  RPM Surface Max 
 RRUN.                     300:  Rig Run Number 
 RTIM.hr                 31.53:  Time Reaming 
 SAZI.deg               331.64:  Azm, Start 
 SDEP.m                4127.00:  Start Depth 
 SIDD.                      No:  Serv Intrp, DD 
 SINC.deg                48.43:  Inc, Start 
 SPPA.psig             5830.00:  SPP Avg 
 SPPN.psig             5600.00:  SPP Min 
 SPPX.psig             5900.00:  SPP Max 
 STIM.      21.00.00 20-Aug-21:  Start Time 
 SVCS.                 DD, MWD:  Services 
 SVER.                    9.20:  Sperry Version 
 TDAT.m                 957.50:  Tot Depth Attmp 
 TDDF.                      No:  Trip for DD 
 TDLG.m                 957.50:  Tot Depth Loggd 
 TFF .                      No:  Trip for Fail 
 TQAA.f-kp               15.00:  Torque Abs Avg 
 TQAN.f-kp               12.00:  Torque Abs Min 
 TQAX.f-kp               19.00:  Torque Abs Max 
 TRRT.°/30m              -3.40:  Turn Rotating 
 MRT .                  EWR-M5:  Maximum Recorded Temperature 
 TTMX.degC              100.00:  Max Tool Temp 
 VS01.                90639251:  Virtual Str1 SN 
 VS02.                90634715:  Virtual Str2 SN 
 VS03.                90652479:  Virtual Str3 SN 
 VS04.                90642262:  Virtual Str4 SN 
 WBMN.klb                 0.00:  WOB Min 
 WITN.           Murad Guliyev:  Customer Rep 
 WITN.          Yashar Gaziyev:  Customer Rep 2 
 WOBA.klb                 9.00:  WOB Avg 
 WOBX.klb                12.00:  WOB Max 
 YP  .lhf2               30.00:  Yield Point 
~Curve Information Block
#MNEM.UNIT                 API CODE     Curve Description
#---------               -----------    ---------------------------
 TIME.HHMMSS            00 000 000 000:  GT Time & Date
 GTDEPTH.m              00 000 000 000:  GT Depth
 GTPQH.psia             00 000 000 000:  GT HR Quartz Pressure
 GTTQ.degC              00 000 000 000:  GT Quartz Temperature
 GTTN.NONE              00 000 000 000:  GT Test Number
 GTET.sec               00 000 000 000:  GT Elapsed Test Time
 GTTVD.m                00 000 000 000:  GT True Vertical Depth
#Other Information
#
#WARRANTY: Halliburton will use its best efforts to furnish customers with 
#accurate information and interpretations that are part of, and incident to, the services 
#provided.  However, Halliburton cannot and does not warrant the accuracy 
#or correctness of such information and interpretations.  Under no circumstances should any 
#such information or interpretation be relied upon as the sole basis for any drilling, 
#completion, production, or financial decision or any procedure involving any risk to the 
#safety of any drilling venture, drilling rig or its crew or any other third party.  The 
#Customer has full responsibility for all drilling, completion and production operation.  
#Halliburton makes no representations or warranties, either expressed or 
#implied, including, but not limited to, the implied warranties of merchantability or fitness 
#for a particular purpose, with respect to the services rendered.  In no event will 
#Halliburton be liable for failure to obtain any particular results or for 
#any damages, including, but not limited to, indirect, special or consequential damages, 
#resulting from the use of any information or interpretation provided by Halliburton.
#
~A           TIME           GTDEPTH  GTPQH  GTTQ  GTTN   GTET   GTTVD  
# ...
   16:41:54.249.27-Aug-2021 4788.00 7524.63 83.18 17.00 383.82 3147.22
   16:41:54.449.27-Aug-2021 4788.00 7524.28 83.18 17.00 384.02 3147.22
   16:41:54.649.27-Aug-2021 4788.00 7524.14 83.18 17.00 384.22 3147.22
   16:41:54.848.27-Aug-2021 4788.00 7527.95 83.18 17.00 384.42 3147.22
   16:41:55.048.27-Aug-2021 4788.00 7521.94 83.18 17.00 384.62 3147.22
   16:41:55.248.27-Aug-2021 4788.00 7521.94 83.18 17.00 384.82 3147.22
   16:41:55.448.27-Aug-2021 4788.00 7524.69 83.18 17.00 385.02 3147.22
   16:41:55.648.27-Aug-2021 4788.00 7523.21 83.18 17.00 385.22 3147.22
   16:41:55.847.27-Aug-2021 4788.00 7523.59 83.18 17.00 385.42 3147.22
   16:41:56.047.27-Aug-2021 4788.00 7526.31 83.18 17.00 385.62 3147.22
   16:41:56.247.27-Aug-2021 4788.00 7526.31 83.18 17.00 385.81 3147.22
   16:41:56.447.27-Aug-2021 4788.00 7524.18 83.18 17.00 386.01 3147.22
   16:41:56.647.27-Aug-2021 4788.00 7524.28 83.18 17.00 386.21 3147.22
   16:41:56.846.27-Aug-2021 4788.00 7526.44 83.18 17.00 386.41 3147.22
   16:41:57.046.27-Aug-2021 4788.00 7523.80 83.18 17.00 386.61 3147.22
   16:41:57.246.27-Aug-2021 4788.00 7523.80 83.18 17.00 386.81 3147.22
   16:41:57.446.27-Aug-2021 4788.00 7524.31 83.18 17.00 387.01 3147.22
   16:41:57.646.27-Aug-2021 4788.00 7523.16 83.18 17.00 387.21 3147.22
   16:41:57.845.27-Aug-2021 4788.00 7523.42 83.18 17.00 387.41 3147.22
   16:41:58.045.27-Aug-2021 4788.00 7523.01 83.18 17.00 387.61 3147.22
   16:41:58.245.27-Aug-2021 4788.00 7523.01 83.18 17.00 387.81 3147.22
   16:41:58.445.27-Aug-2021 4788.00 7523.83 83.18 17.00 388.01 3147.22
   16:41:58.645.27-Aug-2021 4788.00 7523.61 83.18 17.00 388.21 3147.22
   16:41:58.844.27-Aug-2021 4788.00 7523.93 83.18 17.00 388.41 3147.22
   16:41:59.044.27-Aug-2021 4788.00 7524.05 83.18 17.00 388.61 3147.22
   16:41:59.244.27-Aug-2021 4788.00 7524.05 83.18 17.00 388.81 3147.22
   16:41:59.444.27-Aug-2021 4788.00 7523.88 83.18 17.00 389.01 3147.22
   16:41:59.644.27-Aug-2021 4788.00 7523.88 83.18 17.00 389.21 3147.22
   16:41:59.843.27-Aug-2021 4788.00 7523.74 83.18 17.00 389.41 3147.22
   16:42:00.043.27-Aug-2021 4788.00 7526.97 83.18 17.00 389.61 3147.22
   16:42:00.243.27-Aug-2021 4788.00 7526.97 83.18 17.00 389.81 3147.22
   16:42:00.443.27-Aug-2021 4788.00 7523.82 83.18 17.00 390.01 3147.22
   16:42:00.643.27-Aug-2021 4788.00 7524.48 83.18 17.00 390.21 3147.22
   16:42:00.842.27-Aug-2021 4788.00 7522.87 83.18 17.00 390.41 3147.22
   16:42:01.042.27-Aug-2021 4788.00 7523.63 83.18 17.00 390.61 3147.22
   16:42:01.242.27-Aug-2021 4788.00 7523.63 83.18 17.00 390.81 3147.22
   16:42:01.442.27-Aug-2021 4788.00 7523.19 83.18 17.00 391.01 3147.22
   16:42:01.642.27-Aug-2021 4788.00 7523.78 83.18 17.00 391.21 3147.22
   16:42:01.841.27-Aug-2021 4788.00 7523.43 83.18 17.00 391.41 3147.22
   16:42:02.041.27-Aug-2021 4788.00 7523.67 83.18 17.00 391.61 3147.22
   16:42:02.241.27-Aug-2021 4788.00 7523.67 83.18 17.00 391.81 3147.22
   16:42:02.441.27-Aug-2021 4788.00 7523.66 83.18 17.00 392.01 3147.22
   16:42:02.641.27-Aug-2021 4788.00 7523.80 83.18 17.00 392.21 3147.22
   16:42:02.840.27-Aug-2021 4788.00 7523.73 83.18 17.00 392.41 3147.22
   16:42:03.040.27-Aug-2021 4788.00 7523.59 83.18 17.00 392.61 3147.22
   16:42:03.240.27-Aug-2021 4788.00 7523.59 83.18 17.00 392.81 3147.22
   16:42:03.440.27-Aug-2021 4788.00 7528.35 83.18 17.00 393.01 3147.22
   16:42:03.640.27-Aug-2021 4788.00 7521.89 83.18 17.00 393.21 3147.22
   16:42:03.839.27-Aug-2021 4788.00 7523.66 83.18 17.00 393.41 3147.22
   16:42:04.039.27-Aug-2021 4788.00 7524.47 83.18 17.00 393.61 3147.22
   16:42:04.239.27-Aug-2021 4788.00 7524.47 83.18 17.00 393.81 3147.22
   16:42:04.439.27-Aug-2021 4788.00 7524.37 83.18 17.00 394.01 3147.22
   16:42:04.639.27-Aug-2021 4788.00 7522.43 83.18 17.00 394.21 3147.22
   16:42:04.838.27-Aug-2021 4788.00 7523.67 83.18 17.00 394.41 3147.22
   16:42:05.038.27-Aug-2021 4788.00 7524.28 83.18 17.00 394.61 3147.22
   16:42:05.238.27-Aug-2021 4788.00 7524.28 83.18 17.00 394.81 3147.22
   16:42:05.438.27-Aug-2021 4788.00 7525.80 83.18 17.00 395.01 3147.22
   16:42:05.638.27-Aug-2021 4788.00 7524.09 83.18 17.00 395.21 3147.22
   16:42:05.837.27-Aug-2021 4788.00 7523.26 83.18 17.00 395.41 3147.22
   16:42:06.037.27-Aug-2021 4788.00 7524.02 83.18 17.00 395.61 3147.22
   16:42:06.237.27-Aug-2021 4788.00 7524.02 83.18 17.00 395.80 3147.22
   16:42:06.437.27-Aug-2021 4788.00 7527.82 83.18 17.00 396.00 3147.22
   16:42:06.637.27-Aug-2021 4788.00 7521.65 83.18 17.00 396.20 3147.22
   16:42:06.836.27-Aug-2021 4788.00 7523.14 83.18 17.00 396.40 3147.22
   16:42:07.036.27-Aug-2021 4788.00 7524.49 83.18 17.00 396.60 3147.22
   16:42:07.236.27-Aug-2021 4788.00 7524.49 83.18 17.00 396.80 3147.22
   16:42:07.436.27-Aug-2021 4788.00 7523.31 83.18 17.00 397.00 3147.22
   16:42:07.636.27-Aug-2021 4788.00 7522.70 83.18 17.00 397.20 3147.22
   16:42:07.835.27-Aug-2021 4788.00 7523.27 83.18 17.00 397.40 3147.22
   16:42:08.035.27-Aug-2021 4788.00 7524.00 83.18 17.00 397.60 3147.22
   16:42:08.235.27-Aug-2021 4788.00 7524.00 83.18 17.00 397.80 3147.22
   16:42:08.435.27-Aug-2021 4788.00 7523.91 83.18 17.00 398.00 3147.22
   16:42:08.635.27-Aug-2021 4788.00 7524.14 83.18 17.00 398.20 3147.22
   16:42:08.834.27-Aug-2021 4788.00 7523.95 83.18 17.00 398.40 3147.22
   16:42:09.034.27-Aug-2021 4788.00 7523.93 83.18 17.00 398.60 3147.22
   16:42:09.234.27-Aug-2021 4788.00 7523.93 83.18 17.00 398.80 3147.22
   16:42:09.434.27-Aug-2021 4788.00 7523.82 83.18 17.00 399.00 3147.22
   16:42:09.634.27-Aug-2021 4788.00 7528.47 83.18 17.00 399.20 3147.22
   16:42:09.833.27-Aug-2021 4788.00 7521.95 83.18 17.00 399.40 3147.22
   16:42:10.033.27-Aug-2021 4788.00 7523.71 83.18 17.00 399.60 3147.22
   16:42:10.233.27-Aug-2021 4788.00 7523.71 83.18 17.00 399.80 3147.22
   16:42:10.433.27-Aug-2021 4788.00 7523.14 83.18 17.00 400.00 3147.22
   16:42:10.633.27-Aug-2021 4788.00 7523.68 83.18 17.00 400.20 3147.22
   16:42:10.832.27-Aug-2021 4788.00 7522.88 83.18 17.00 400.40 3147.22
   16:42:11.032.27-Aug-2021 4788.00 7523.47 83.18 17.00 400.60 3147.22
   16:42:11.232.27-Aug-2021 4788.00 7523.47 83.18 17.00 400.80 3147.22
   16:42:11.432.27-Aug-2021 4788.00 7523.87 83.18 17.00 401.00 3147.22
   16:42:11.632.27-Aug-2021 4788.00 7524.21 83.18 17.00 401.20 3147.22
   16:42:11.831.27-Aug-2021 4788.00 7524.38 83.18 17.00 401.40 3147.22
   16:42:12.031.27-Aug-2021 4788.00 7524.24 83.18 17.00 401.60 3147.22
   16:42:12.231.27-Aug-2021 4788.00 7524.24 83.18 17.00 401.80 3147.22
   16:42:12.431.27-Aug-2021 4788.00 7524.15 83.18 17.00 402.00 3147.22
   16:42:12.631.27-Aug-2021 4788.00 7524.04 83.18 17.00 402.20 3147.22
   16:42:12.830.27-Aug-2021 4788.00 7523.95 83.18 17.00 402.40 3147.22
   16:42:13.030.27-Aug-2021 4788.00 7529.46 83.18 17.00 402.60 3147.22
   16:42:13.230.27-Aug-2021 4788.00 7529.46 83.18 17.00 402.80 3147.22
   16:42:13.430.27-Aug-2021 4788.00 7524.19 83.18 17.00 403.00 3147.22
   16:42:13.630.27-Aug-2021 4788.00 7525.04 83.18 17.00 403.20 3147.22
   16:42:13.829.27-Aug-2021 4788.00 7523.83 83.18 17.00 403.40 3147.22
   16:42:14.029.27-Aug-2021 4788.00 7528.63 83.18 17.00 403.60 3147.22
   16:42:14.229.27-Aug-2021 4788.00 7528.63 83.18 17.00 403.80 3147.22
   16:42:14.429.27-Aug-2021 4788.00 7523.81 83.18 17.00 404.00 3147.22
   16:42:14.629.27-Aug-2021 4788.00 7525.44 83.18 17.00 404.20 3147.22
   16:42:14.828.27-Aug-2021 4788.00 7523.48 83.18 17.00 404.40 3147.22
   16:42:15.028.27-Aug-2021 4788.00 7523.99 83.18 17.00 404.60 3147.22
   16:42:15.228.27-Aug-2021 4788.00 7523.99 83.18 17.00 404.80 3147.22
   16:42:15.428.27-Aug-2021 4788.00 7526.59 83.18 17.00 405.00 3147.22
   16:42:15.628.27-Aug-2021 4788.00 7524.52 83.18 17.00 405.20 3147.22
   16:42:15.827.27-Aug-2021 4788.00 7524.55 83.18 17.00 405.40 3147.22
   16:42:16.027.27-Aug-2021 4788.00 7523.34 83.18 17.00 405.60 3147.22
   16:42:16.227.27-Aug-2021 4788.00 7523.34 83.18 17.00 405.79 3147.22
   16:42:16.427.27-Aug-2021 4788.00 7522.85 83.18 17.00 405.99 3147.22
   16:42:16.627.27-Aug-2021 4788.00 7523.68 83.18 17.00 406.19 3147.22
