~Version Information
 VERS.                  2.0:   CWLS log ASCII Standard -VERSION 2.0
 WRAP.                   NO:   One line per depth step
~Well Information Block
#MNEM.UNIT     VALUE/NAME     DESCRIPTION
#---------     -----------    ---------------------------
 STRT.S             04:10:22 28-Aug-21: START TIME 04:10:22 28-Aug-21
 STOP.S             04:17:14 28-Aug-21: STOP TIME  04:17:14 28-Aug-21
 STEP.S                   0.00: STEP TIME
 NULL.                 -999.25: NULL VALUE
 DFWT.                        :  DIST FWL TEXT
 DFST.                        :  DIST FSL TEXT
 DMF .             Drill Floor:  DRILL MEAS FROM
 STIM.      20.00.00 17-Aug-21:  START TIME
 DATE.      19.00.00 29-Aug-21:  END TIME
 SPUD.               15-Aug-21:  SPUD DATE
 NREF.                    Grid:  NORTH REFERENCE
 HPTY.       Minimum Curvature:  HOLE POS TYPE
 DMOD.             Drill Model:  DRILL MOD DESC
 SVYD.                  Survey:  SURVEY DESC
 ILTD.               Lithology:  INTERP LTH DESC
 FTOP.          Formation Tops:  FORM TOPS DESC
 RIG .              East Azeri:  RIG NAME
 PDAT.          Mean Sea Level:  PERMANENT DATUM
 FLD .                     ACG:  FIELD NAME
 SON .        AZ-XX-0907180857:  JOB NUMBER
 CTRY.              Azerbaijan:  COUNTRY NAME
 WELL.                    D23x:  WELL NAME
 SRVC.     Turan Drilling and Engineering:  CONTRACTOR
 COMP.     BP Exploration (Caspian Sea) Ltd.:  COMPANY
 UWI .            /AZE00000214:  UNIQUE WELL IDENTIFIER
 API .            /AZE00000214:  API NUMBER
 MDS .        Operator Entered:  MAG DATA SOURCE
 BASE.              Azerbaijan:  LOGGING EQUIPMENT BASE LOCATION
 REGN.                   EESSA:  REGION
 PROV.                    Baku:  PROVINCE
 STAT.                    Baku:  STATE NAME
 MWDS.                    Baku:  MWD SHOP
 DOE .                     N/A:  DOE NUMBER
 DCON.         Sperry Drilling:  DIRECTNL CONTR
 UNIT.                     N/A:  LOGGING EQUIPMENT ID
 WTYP.                Deviated:  WELL TYPE
 CNTY.                        :  COUNTY
 LOC .                        :  LOCATION
 LMF .             Drill Floor:  LOG MEASURED FROM
 TVDS.m                  43.60:  TVDSS CORRECTN
 LATI.deg                40.02:  LATITUDE
 LONG.deg                51.45:  LONGITUDE
 WHNS.m                  -7.04:  WELL HEAD N/S
 WHEW.m                  -0.67:  WELL HEAD E/W
 UTMX.m              538762.90:  UTM X
 UTMY.m             4431871.34:  UTM Y
 DFWL.m                   0.00:  DISTANCE FWL
 DFSL.m                   0.00:  DISTANCE FSL
 SDEP.m                4127.00:  START DEPTH
 TDD .m                5084.50:  TOTAL DEPTH (DRILLER)
 VSDR.deg               140.47:  VERT SEC DIRECT
 GVFD.g                   1.00:  GRAVITY FIELD
 MFLD.nT              50362.00:  MAGNETIC FIELD
 MDIP.deg                59.48:  MAGNETIC DIP
 MDEC.deg                 6.47:  MAGNETIC DECL
 GRDC.deg                 0.31:  GRID CORRECTION
 AZTC.deg                 6.16:  AZM TOTAL CORR
 EPD .m                   0.00:  ELEVATION
 EGL .m                   0.00:  GROUND ELEVATION
 WDMS.m                 151.80:  WD ELEV
 APD .m                  43.60:  DEPTH ABOVE PD
 DEP .m                4092.57:  DEPTH
 AGAP.m                  43.60:  AIR GAP
 VSEW.m                  -0.67:  VERT SEC E/W
 VSNS.m                  -7.04:  VERT SEC N/S
 EKB .m                  43.60:  KB ELEVATION
 EDF .m                  43.60:  DF ELEVATION
 TDL .m                 957.50:  TOTAL DEPTH (LOGGER)
 VSC .                       0:  VS TO CLOSURE
 MAGU.                 1851413:  MAGUTM CHECKSUM
~Parameter Information Block
#MNEM.UNIT       Value        Description
#---------     -----------    ---------------------------
 AV  .mps                 1.50:  Ann Velocity 
 AVMX.mps                 2.00:  Max Ann Veloc 
 AZIF.deg               184.66:  Azm, Final 
 BHAT.        Rotary Steerable:  BHA Type 
 BREV.rev               300.00:  Rev Bit Total 
 BROT.°/30m              -0.50:  Build Rotating 
 BS  .in                  8.50:  Bit Size 
 BSZ .in                  8.50:  Bit Size 
 BTPL.psig              370.00:  Bit Press Loss 
 CABU.                      No:  Customer Abuse 
 CGEO.      Behruz Shahbaliyev:  Customer Geo 
 COMM.                     LÁp:  Run Comments 1 
 TCS .hr                140.08:  Time Ciculation Ended 
 CV  .mps                 3.00:  Crit Velocity 
 CVMX.mps                 3.20:  Max Crit Veloc 
 DD1 .            Musa Ahmadov:  Direct Drillr 1 
 DD2 .           Hamid Ahmadov:  Direct Drillr 2 
 DDSV.               Geo-Pilot:  DD Service 
 DEFF.%                  98.40:  % Det Eff 
 DLRX.°/30m               3.40:  Dogleg Rot Max 
 DLSO.°/30m               1.45:  Dogleg Oriented 
 DLSX.°/30m               3.40:  Dogleg Str Max 
 DRET.      18.40.00 29-Aug-21:  Drill End Time 
 DRST.      21.00.00 20-Aug-21:  Drill Start Tim 
 DTIM.hr                 69.47:  Time Drilling 
 EDEP.m                5084.50:  End Depth 
 ENG1.      Artemiy Matviyanov:  Engineer 1 
 ENG2.         Almaz Almadatov:  Engineer 2 
 ETIM.      18.40.00 29-Aug-21:  End Time 
 FLOI.gpm               500.00:  Flow In 
 FLON.gpm               400.00:  Flow In Min 
 FLOS.cptm                0.00:  Fluid Loss 
 FLOX.gpm               500.00:  Flow In Max 
 DFT .        Mineral Oil Base:  Mud Type 
 HFLO.                      No:  High Flow 
 HPRE.                      No:  High Pressure 
 HTEM.                      No:  High Temp 
 HYDO.m                   1.80:  Hydro Offset 
 IFIN.deg                25.62:  Inc, Final 
 IMAX.deg                48.69:  Inc Max 
 IMIN.deg                24.01:  Inc Min 
 IMND.m                4962.57:  Inc Min Depth 
 IMXD.m                4119.01:  Inc Max Depth 
 JARR.                      No:  Jarring 
 LETM.      18.40.00 29-Aug-21:  Log End Time 
 LOST.hr                     0:  Lost Rig Time 
 LSTM.      21.00.00 20-Aug-21:  Log Start Time 
 MDCL.ppm             41500.00:  Mud Chlorides 
 MDES.     Inversion Oil/Synthetic:  Mud Desc 
 DFD .sg                  1.56:  Mud Density 
 MDMN.sg                  1.56:  Dens Mud Min 
 MDMX.sg                  1.56:  Dens Mud Max 
 MOIL.                      70:  Run Mud Oil % 
 MOWR.                   70:30:  Run Mud OWR 
 MSND.                     0.2:  Run Mud Sand % 
 MSOL.                    23.3:  Run Mud Solids% 
 DFV .spqt               78.00:  Mud Viscosity 
 MWOD.in                  6.75:  MWD Tool OD 
 MWSI.                      No:  Serv Intrp, MWD 
 OTIM.hr                218.30:  Time Operating 
 PCON.           Look Like New:  Pad Condition 
 PMAX.psia            11015.30:  Press Op, Max 
 PV  .cP                 38.00:  Mud PV 
 RUN .                     300:  Run Number 
 ROPA.m/hr               15.00:  ROP Avg 
 ROPN.m/hr                9.00:  ROP Min 
 ROPX.m/hr               17.00:  ROP Max 
 RPMA.rpm               120.00:  RPM Surface Avg 
 RPMN.rpm                90.00:  RPM Surface Min 
 RPMX.rpm               140.00:  RPM Surface Max 
 RRUN.                     300:  Rig Run Number 
 RTIM.hr                 31.53:  Time Reaming 
 SAZI.deg               331.64:  Azm, Start 
 SDEP.m                4127.00:  Start Depth 
 SIDD.                      No:  Serv Intrp, DD 
 SINC.deg                48.43:  Inc, Start 
 SPPA.psig             5830.00:  SPP Avg 
 SPPN.psig             5600.00:  SPP Min 
 SPPX.psig             5900.00:  SPP Max 
 STIM.      21.00.00 20-Aug-21:  Start Time 
 SVCS.                 DD, MWD:  Services 
 SVER.                    9.20:  Sperry Version 
 TDAT.m                 957.50:  Tot Depth Attmp 
 TDDF.                      No:  Trip for DD 
 TDLG.m                 957.50:  Tot Depth Loggd 
 TFF .                      No:  Trip for Fail 
 TQAA.f-kp               15.00:  Torque Abs Avg 
 TQAN.f-kp               12.00:  Torque Abs Min 
 TQAX.f-kp               19.00:  Torque Abs Max 
 TRRT.°/30m              -3.40:  Turn Rotating 
 MRT .                  EWR-M5:  Maximum Recorded Temperature 
 TTMX.degC              100.00:  Max Tool Temp 
 VS01.                90639251:  Virtual Str1 SN 
 VS02.                90634715:  Virtual Str2 SN 
 VS03.                90652479:  Virtual Str3 SN 
 VS04.                90642262:  Virtual Str4 SN 
 WBMN.klb                 0.00:  WOB Min 
 WITN.           Murad Guliyev:  Customer Rep 
 WITN.          Yashar Gaziyev:  Customer Rep 2 
 WOBA.klb                 9.00:  WOB Avg 
 WOBX.klb                12.00:  WOB Max 
 YP  .lhf2               30.00:  Yield Point 
~Curve Information Block
#MNEM.UNIT                 API CODE     Curve Description
#---------               -----------    ---------------------------
 TIME.HHMMSS            00 000 000 000:  GT Time & Date
 GTDEPTH.m              00 000 000 000:  GT Depth
 GTPQH.psia             00 000 000 000:  GT HR Quartz Pressure
 GTTQ.degC              00 000 000 000:  GT Quartz Temperature
 GTTN.NONE              00 000 000 000:  GT Test Number
 GTET.sec               00 000 000 000:  GT Elapsed Test Time
 GTTVD.m                00 000 000 000:  GT True Vertical Depth
#Other Information
#
#WARRANTY: Halliburton will use its best efforts to furnish customers with 
#accurate information and interpretations that are part of, and incident to, the services 
#provided.  However, Halliburton cannot and does not warrant the accuracy 
#or correctness of such information and interpretations.  Under no circumstances should any 
#such information or interpretation be relied upon as the sole basis for any drilling, 
#completion, production, or financial decision or any procedure involving any risk to the 
#safety of any drilling venture, drilling rig or its crew or any other third party.  The 
#Customer has full responsibility for all drilling, completion and production operation.  
#Halliburton makes no representations or warranties, either expressed or 
#implied, including, but not limited to, the implied warranties of merchantability or fitness 
#for a particular purpose, with respect to the services rendered.  In no event will 
#Halliburton be liable for failure to obtain any particular results or for 
#any damages, including, but not limited to, indirect, special or consequential damages, 
#resulting from the use of any information or interpretation provided by Halliburton.
#
~A           TIME           GTDEPTH  GTPQH  GTTQ  GTTN   GTET   GTTVD  
# ...
   04:12:38.612.28-Aug-2021 4978.00 7969.46 80.46 29.00 135.79 3319.69
   04:12:38.812.28-Aug-2021 4978.00 7969.47 80.46 29.00 135.99 3319.69
   04:12:39.012.28-Aug-2021 4978.00 7969.57 80.46 29.00 136.19 3319.69
   04:12:39.212.28-Aug-2021 4978.00 7969.57 80.46 29.00 136.39 3319.69
   04:12:39.413.28-Aug-2021 4978.00 7968.57 80.46 29.00 136.59 3319.69
   04:12:39.613.28-Aug-2021 4978.00 7969.28 80.46 29.00 136.79 3319.69
   04:12:39.813.28-Aug-2021 4978.00 7969.42 80.46 29.00 136.99 3319.69
   04:12:40.014.28-Aug-2021 4978.00 7970.26 80.46 29.00 137.19 3319.69
   04:12:40.214.28-Aug-2021 4978.00 7970.26 80.46 29.00 137.39 3319.69
   04:12:40.414.28-Aug-2021 4978.00 7970.85 80.46 29.00 137.59 3319.69
   04:12:40.614.28-Aug-2021 4978.00 7969.21 80.46 29.00 137.79 3319.69
   04:12:40.815.28-Aug-2021 4978.00 7972.93 80.46 29.00 137.99 3319.69
   04:12:41.015.28-Aug-2021 4978.00 7968.71 80.46 29.00 138.19 3319.69
   04:12:41.215.28-Aug-2021 4978.00 7968.71 80.46 29.00 138.39 3319.69
   04:12:41.416.28-Aug-2021 4978.00 7969.85 80.46 29.00 138.59 3319.69
   04:12:41.616.28-Aug-2021 4978.00 7973.59 80.46 29.00 138.80 3319.69
   04:12:41.816.28-Aug-2021 4978.00 7969.27 80.46 29.00 139.00 3319.69
   04:12:42.016.28-Aug-2021 4978.00 7970.86 80.46 29.00 139.20 3319.69
   04:12:42.217.28-Aug-2021 4978.00 7970.86 80.46 29.00 139.40 3319.69
   04:12:42.417.28-Aug-2021 4978.00 7969.75 80.46 29.00 139.60 3319.69
   04:12:42.617.28-Aug-2021 4978.00 7969.63 80.46 29.00 139.80 3319.69
   04:12:42.818.28-Aug-2021 4978.00 7970.17 80.46 29.00 140.00 3319.69
   04:12:43.018.28-Aug-2021 4978.00 7969.35 80.46 29.00 140.20 3319.69
   04:12:43.218.28-Aug-2021 4978.00 7969.35 80.46 29.00 140.40 3319.69
   04:12:43.418.28-Aug-2021 4978.00 7968.12 80.46 29.00 140.60 3319.69
   04:12:43.619.28-Aug-2021 4978.00 7968.59 80.46 29.00 140.80 3319.69
   04:12:43.819.28-Aug-2021 4978.00 7969.16 80.46 29.00 141.00 3319.69
   04:12:44.019.28-Aug-2021 4978.00 7969.01 80.46 29.00 141.20 3319.69
   04:12:44.219.28-Aug-2021 4978.00 7969.01 80.46 29.00 141.40 3319.69
   04:12:44.420.28-Aug-2021 4978.00 7968.66 80.46 29.00 141.60 3319.69
   04:12:44.620.28-Aug-2021 4978.00 7968.60 80.46 29.00 141.80 3319.69
   04:12:44.820.28-Aug-2021 4978.00 7969.02 80.46 29.00 142.00 3319.69
   04:12:45.021.28-Aug-2021 4978.00 7971.60 80.46 29.00 142.20 3319.69
   04:12:45.221.28-Aug-2021 4978.00 7971.60 80.46 29.00 142.40 3319.69
   04:12:45.421.28-Aug-2021 4978.00 7968.43 80.46 29.00 142.60 3319.69
   04:12:45.621.28-Aug-2021 4978.00 7968.25 80.46 29.00 142.80 3319.69
   04:12:45.822.28-Aug-2021 4978.00 7968.17 80.46 29.00 143.00 3319.69
   04:12:46.022.28-Aug-2021 4978.00 7968.59 80.46 29.00 143.20 3319.69
   04:12:46.222.28-Aug-2021 4978.00 7968.59 80.46 29.00 143.40 3319.69
   04:12:46.423.28-Aug-2021 4978.00 7967.69 80.46 29.00 143.60 3319.69
   04:12:46.623.28-Aug-2021 4978.00 7967.96 80.46 29.00 143.80 3319.69
   04:12:46.823.28-Aug-2021 4978.00 7968.32 80.46 29.00 144.00 3319.69
   04:12:47.023.28-Aug-2021 4978.00 7968.97 80.46 29.00 144.20 3319.69
   04:12:47.224.28-Aug-2021 4978.00 7968.97 80.46 29.00 144.40 3319.69
   04:12:47.424.28-Aug-2021 4978.00 7968.72 80.46 29.00 144.60 3319.69
   04:12:47.624.28-Aug-2021 4978.00 7968.60 80.46 29.00 144.80 3319.69
   04:12:47.825.28-Aug-2021 4978.00 7968.61 80.46 29.00 145.00 3319.69
   04:12:48.025.28-Aug-2021 4978.00 7968.56 80.46 29.00 145.20 3319.69
   04:12:48.225.28-Aug-2021 4978.00 7968.56 80.46 29.00 145.40 3319.69
   04:12:48.425.28-Aug-2021 4978.00 7972.45 80.46 29.00 145.60 3319.69
   04:12:48.626.28-Aug-2021 4978.00 7969.12 80.46 29.00 145.80 3319.69
   04:12:48.826.28-Aug-2021 4978.00 7968.33 80.46 29.00 146.01 3319.69
   04:12:49.026.28-Aug-2021 4978.00 7968.33 80.46 29.00 146.21 3319.69
   04:12:49.227.28-Aug-2021 4978.00 7968.33 80.46 29.00 146.41 3319.69
   04:12:49.427.28-Aug-2021 4978.00 7968.68 80.46 29.00 146.61 3319.69
   04:12:49.627.28-Aug-2021 4978.00 7969.28 80.46 29.00 146.81 3319.69
   04:12:49.827.28-Aug-2021 4978.00 7967.83 80.46 29.00 147.01 3319.69
   04:12:50.028.28-Aug-2021 4978.00 7973.78 80.46 29.00 147.21 3319.69
   04:12:50.228.28-Aug-2021 4978.00 7973.78 80.46 29.00 147.41 3319.69
   04:12:50.428.28-Aug-2021 4978.00 7969.18 80.46 29.00 147.61 3319.69
   04:12:50.628.28-Aug-2021 4978.00 7968.69 80.46 29.00 147.81 3319.69
   04:12:50.829.28-Aug-2021 4978.00 7973.98 80.46 29.00 148.01 3319.69
   04:12:51.029.28-Aug-2021 4978.00 7967.29 80.46 29.00 148.21 3319.69
   04:12:51.229.28-Aug-2021 4978.00 7967.29 80.46 29.00 148.41 3319.69
   04:12:51.430.28-Aug-2021 4978.00 7968.82 80.46 29.00 148.61 3319.69
   04:12:51.630.28-Aug-2021 4978.00 7968.52 80.46 29.00 148.81 3319.69
   04:12:51.830.28-Aug-2021 4978.00 7968.12 80.46 29.00 149.01 3319.69
   04:12:52.030.28-Aug-2021 4978.00 7968.71 80.45 29.00 149.21 3319.69
   04:12:52.231.28-Aug-2021 4978.00 7968.71 80.45 29.00 149.41 3319.69
   04:12:52.431.28-Aug-2021 4978.00 7968.27 80.45 29.00 149.61 3319.69
   04:12:52.631.28-Aug-2021 4978.00 7968.38 80.45 29.00 149.81 3319.69
   04:12:52.832.28-Aug-2021 4978.00 7969.16 80.45 29.00 150.01 3319.69
   04:12:53.032.28-Aug-2021 4978.00 7969.43 80.45 29.00 150.21 3319.69
   04:12:53.232.28-Aug-2021 4978.00 7969.43 80.45 29.00 150.41 3319.69
   04:12:53.432.28-Aug-2021 4978.00 7970.97 80.45 29.00 150.61 3319.69
   04:12:53.633.28-Aug-2021 4978.00 7970.98 80.45 29.00 150.81 3319.69
   04:12:53.833.28-Aug-2021 4978.00 7970.90 80.45 29.00 151.01 3319.69
   04:12:54.033.28-Aug-2021 4978.00 7974.67 80.45 29.00 151.21 3319.69
   04:12:54.234.28-Aug-2021 4978.00 7974.67 80.45 29.00 151.41 3319.69
   04:12:54.434.28-Aug-2021 4978.00 7971.55 80.45 29.00 151.61 3319.69
   04:12:54.634.28-Aug-2021 4978.00 7970.38 80.45 29.00 151.81 3319.69
   04:12:54.834.28-Aug-2021 4978.00 7970.46 80.45 29.00 152.01 3319.69
   04:12:55.035.28-Aug-2021 4978.00 7970.48 80.45 29.00 152.21 3319.69
   04:12:55.235.28-Aug-2021 4978.00 7970.48 80.45 29.00 152.41 3319.69
   04:12:55.435.28-Aug-2021 4978.00 7969.93 80.45 29.00 152.61 3319.69
   04:12:55.636.28-Aug-2021 4978.00 7969.70 80.45 29.00 152.81 3319.69
   04:12:55.836.28-Aug-2021 4978.00 7970.06 80.45 29.00 153.02 3319.69
   04:12:56.036.28-Aug-2021 4978.00 7970.62 80.45 29.00 153.22 3319.69
   04:12:56.236.28-Aug-2021 4978.00 7970.62 80.45 29.00 153.42 3319.69
   04:12:56.437.28-Aug-2021 4978.00 7971.14 80.45 29.00 153.62 3319.69
   04:12:56.637.28-Aug-2021 4978.00 7970.92 80.45 29.00 153.82 3319.69
   04:12:56.837.28-Aug-2021 4978.00 7970.84 80.45 29.00 154.02 3319.69
   04:12:57.038.28-Aug-2021 4978.00 7970.79 80.45 29.00 154.22 3319.69
   04:12:57.238.28-Aug-2021 4978.00 7970.79 80.45 29.00 154.42 3319.69
   04:12:57.438.28-Aug-2021 4978.00 7970.94 80.45 29.00 154.62 3319.69
   04:12:57.638.28-Aug-2021 4978.00 7973.72 80.45 29.00 154.82 3319.69
   04:12:57.839.28-Aug-2021 4978.00 7971.85 80.45 29.00 155.02 3319.69
   04:12:58.039.28-Aug-2021 4978.00 7970.53 80.45 29.00 155.22 3319.69
   04:12:58.239.28-Aug-2021 4978.00 7970.53 80.45 29.00 155.42 3319.69
   04:12:58.439.28-Aug-2021 4978.00 7976.29 80.45 29.00 155.62 3319.69
   04:12:58.640.28-Aug-2021 4978.00 7969.69 80.45 29.00 155.82 3319.69
   04:12:58.840.28-Aug-2021 4978.00 7970.32 80.45 29.00 156.02 3319.69
   04:12:59.040.28-Aug-2021 4978.00 7970.38 80.45 29.00 156.22 3319.69
   04:12:59.241.28-Aug-2021 4978.00 7970.38 80.45 29.00 156.42 3319.69
   04:12:59.441.28-Aug-2021 4978.00 7972.35 80.45 29.00 156.62 3319.69
   04:12:59.641.28-Aug-2021 4978.00 7971.25 80.45 29.00 156.82 3319.69
   04:12:59.841.28-Aug-2021 4978.00 7976.61 80.45 29.00 157.02 3319.69
   04:13:00.042.28-Aug-2021 4978.00 7968.88 80.45 29.00 157.22 3319.69
   04:13:00.242.28-Aug-2021 4978.00 7968.88 80.45 29.00 157.42 3319.69
   04:13:00.442.28-Aug-2021 4978.00 7970.74 80.45 29.00 157.62 3319.69
   04:13:00.643.28-Aug-2021 4978.00 7970.72 80.45 29.00 157.82 3319.69
   04:13:00.843.28-Aug-2021 4978.00 7970.95 80.45 29.00 158.02 3319.69
   04:13:01.043.28-Aug-2021 4978.00 7970.64 80.45 29.00 158.22 3319.69
