~Version Information
 VERS.                  2.0:   CWLS log ASCII Standard -VERSION 2.0
 WRAP.                   NO:   One line per depth step
~Well Information Block
#MNEM.UNIT     VALUE/NAME     DESCRIPTION
#---------     -----------    ---------------------------
 STRT.S             05:44:14 27-Aug-21: START TIME 05:44:14 27-Aug-21
 STOP.S             05:51:24 27-Aug-21: STOP TIME  05:51:24 27-Aug-21
 STEP.S                   0.00: STEP TIME
 NULL.                 -999.25: NULL VALUE
 DFWT.                        :  DIST FWL TEXT
 DFST.                        :  DIST FSL TEXT
 DMF .             Drill Floor:  DRILL MEAS FROM
 STIM.      20.00.00 17-Aug-21:  START TIME
 DATE.      19.00.00 29-Aug-21:  END TIME
 SPUD.               15-Aug-21:  SPUD DATE
 NREF.                    Grid:  NORTH REFERENCE
 HPTY.       Minimum Curvature:  HOLE POS TYPE
 DMOD.             Drill Model:  DRILL MOD DESC
 SVYD.                  Survey:  SURVEY DESC
 ILTD.               Lithology:  INTERP LTH DESC
 FTOP.          Formation Tops:  FORM TOPS DESC
 RIG .              East Azeri:  RIG NAME
 PDAT.          Mean Sea Level:  PERMANENT DATUM
 FLD .                     ACG:  FIELD NAME
 SON .        AZ-XX-0907180857:  JOB NUMBER
 CTRY.              Azerbaijan:  COUNTRY NAME
 WELL.                    D23x:  WELL NAME
 SRVC.     Turan Drilling and Engineering:  CONTRACTOR
 COMP.     BP Exploration (Caspian Sea) Ltd.:  COMPANY
 UWI .            /AZE00000214:  UNIQUE WELL IDENTIFIER
 API .            /AZE00000214:  API NUMBER
 MDS .        Operator Entered:  MAG DATA SOURCE
 BASE.              Azerbaijan:  LOGGING EQUIPMENT BASE LOCATION
 REGN.                   EESSA:  REGION
 PROV.                    Baku:  PROVINCE
 STAT.                    Baku:  STATE NAME
 MWDS.                    Baku:  MWD SHOP
 DOE .                     N/A:  DOE NUMBER
 DCON.         Sperry Drilling:  DIRECTNL CONTR
 UNIT.                     N/A:  LOGGING EQUIPMENT ID
 WTYP.                Deviated:  WELL TYPE
 CNTY.                        :  COUNTY
 LOC .                        :  LOCATION
 LMF .             Drill Floor:  LOG MEASURED FROM
 TVDS.m                  43.60:  TVDSS CORRECTN
 LATI.deg                40.02:  LATITUDE
 LONG.deg                51.45:  LONGITUDE
 WHNS.m                  -7.04:  WELL HEAD N/S
 WHEW.m                  -0.67:  WELL HEAD E/W
 UTMX.m              538762.90:  UTM X
 UTMY.m             4431871.34:  UTM Y
 DFWL.m                   0.00:  DISTANCE FWL
 DFSL.m                   0.00:  DISTANCE FSL
 SDEP.m                4127.00:  START DEPTH
 TDD .m                5084.50:  TOTAL DEPTH (DRILLER)
 VSDR.deg               140.47:  VERT SEC DIRECT
 GVFD.g                   1.00:  GRAVITY FIELD
 MFLD.nT              50362.00:  MAGNETIC FIELD
 MDIP.deg                59.48:  MAGNETIC DIP
 MDEC.deg                 6.47:  MAGNETIC DECL
 GRDC.deg                 0.31:  GRID CORRECTION
 AZTC.deg                 6.16:  AZM TOTAL CORR
 EPD .m                   0.00:  ELEVATION
 EGL .m                   0.00:  GROUND ELEVATION
 WDMS.m                 151.80:  WD ELEV
 APD .m                  43.60:  DEPTH ABOVE PD
 DEP .m                4092.57:  DEPTH
 AGAP.m                  43.60:  AIR GAP
 VSEW.m                  -0.67:  VERT SEC E/W
 VSNS.m                  -7.04:  VERT SEC N/S
 EKB .m                  43.60:  KB ELEVATION
 EDF .m                  43.60:  DF ELEVATION
 TDL .m                 957.50:  TOTAL DEPTH (LOGGER)
 VSC .                       0:  VS TO CLOSURE
 MAGU.                 1851413:  MAGUTM CHECKSUM
~Parameter Information Block
#MNEM.UNIT       Value        Description
#---------     -----------    ---------------------------
 AV  .mps                 1.50:  Ann Velocity 
 AVMX.mps                 2.00:  Max Ann Veloc 
 AZIF.deg               184.66:  Azm, Final 
 BHAT.        Rotary Steerable:  BHA Type 
 BREV.rev               300.00:  Rev Bit Total 
 BROT.°/30m              -0.50:  Build Rotating 
 BS  .in                  8.50:  Bit Size 
 BSZ .in                  8.50:  Bit Size 
 BTPL.psig              370.00:  Bit Press Loss 
 CABU.                      No:  Customer Abuse 
 CGEO.      Behruz Shahbaliyev:  Customer Geo 
 COMM.                     ä=U:  Run Comments 1 
 TCS .hr                140.08:  Time Ciculation Ended 
 CV  .mps                 3.00:  Crit Velocity 
 CVMX.mps                 3.20:  Max Crit Veloc 
 DD1 .            Musa Ahmadov:  Direct Drillr 1 
 DD2 .           Hamid Ahmadov:  Direct Drillr 2 
 DDSV.               Geo-Pilot:  DD Service 
 DEFF.%                  98.40:  % Det Eff 
 DLRX.°/30m               3.40:  Dogleg Rot Max 
 DLSO.°/30m               1.45:  Dogleg Oriented 
 DLSX.°/30m               3.40:  Dogleg Str Max 
 DRET.      18.40.00 29-Aug-21:  Drill End Time 
 DRST.      21.00.00 20-Aug-21:  Drill Start Tim 
 DTIM.hr                 69.47:  Time Drilling 
 EDEP.m                5084.50:  End Depth 
 ENG1.      Artemiy Matviyanov:  Engineer 1 
 ENG2.         Almaz Almadatov:  Engineer 2 
 ETIM.      18.40.00 29-Aug-21:  End Time 
 FLOI.gpm               500.00:  Flow In 
 FLON.gpm               400.00:  Flow In Min 
 FLOS.cptm                0.00:  Fluid Loss 
 FLOX.gpm               500.00:  Flow In Max 
 DFT .        Mineral Oil Base:  Mud Type 
 HFLO.                      No:  High Flow 
 HPRE.                      No:  High Pressure 
 HTEM.                      No:  High Temp 
 HYDO.m                   1.80:  Hydro Offset 
 IFIN.deg                25.62:  Inc, Final 
 IMAX.deg                48.69:  Inc Max 
 IMIN.deg                24.01:  Inc Min 
 IMND.m                4962.57:  Inc Min Depth 
 IMXD.m                4119.01:  Inc Max Depth 
 JARR.                      No:  Jarring 
 LETM.      18.40.00 29-Aug-21:  Log End Time 
 LOST.hr                     0:  Lost Rig Time 
 LSTM.      21.00.00 20-Aug-21:  Log Start Time 
 MDCL.ppm             41500.00:  Mud Chlorides 
 MDES.     Inversion Oil/Synthetic:  Mud Desc 
 DFD .sg                  1.56:  Mud Density 
 MDMN.sg                  1.56:  Dens Mud Min 
 MDMX.sg                  1.56:  Dens Mud Max 
 MOIL.                      70:  Run Mud Oil % 
 MOWR.                   70:30:  Run Mud OWR 
 MSND.                     0.2:  Run Mud Sand % 
 MSOL.                    23.3:  Run Mud Solids% 
 DFV .spqt               78.00:  Mud Viscosity 
 MWOD.in                  6.75:  MWD Tool OD 
 MWSI.                      No:  Serv Intrp, MWD 
 OTIM.hr                218.30:  Time Operating 
 PCON.           Look Like New:  Pad Condition 
 PMAX.psia            11015.30:  Press Op, Max 
 PV  .cP                 38.00:  Mud PV 
 RUN .                     300:  Run Number 
 ROPA.m/hr               15.00:  ROP Avg 
 ROPN.m/hr                9.00:  ROP Min 
 ROPX.m/hr               17.00:  ROP Max 
 RPMA.rpm               120.00:  RPM Surface Avg 
 RPMN.rpm                90.00:  RPM Surface Min 
 RPMX.rpm               140.00:  RPM Surface Max 
 RRUN.                     300:  Rig Run Number 
 RTIM.hr                 31.53:  Time Reaming 
 SAZI.deg               331.64:  Azm, Start 
 SDEP.m                4127.00:  Start Depth 
 SIDD.                      No:  Serv Intrp, DD 
 SINC.deg                48.43:  Inc, Start 
 SPPA.psig             5830.00:  SPP Avg 
 SPPN.psig             5600.00:  SPP Min 
 SPPX.psig             5900.00:  SPP Max 
 STIM.      21.00.00 20-Aug-21:  Start Time 
 SVCS.                 DD, MWD:  Services 
 SVER.                    9.20:  Sperry Version 
 TDAT.m                 957.50:  Tot Depth Attmp 
 TDDF.                      No:  Trip for DD 
 TDLG.m                 957.50:  Tot Depth Loggd 
 TFF .                      No:  Trip for Fail 
 TQAA.f-kp               15.00:  Torque Abs Avg 
 TQAN.f-kp               12.00:  Torque Abs Min 
 TQAX.f-kp               19.00:  Torque Abs Max 
 TRRT.°/30m              -3.40:  Turn Rotating 
 MRT .                  EWR-M5:  Maximum Recorded Temperature 
 TTMX.degC              100.00:  Max Tool Temp 
 VS01.                90639251:  Virtual Str1 SN 
 VS02.                90634715:  Virtual Str2 SN 
 VS03.                90652479:  Virtual Str3 SN 
 VS04.                90642262:  Virtual Str4 SN 
 WBMN.klb                 0.00:  WOB Min 
 WITN.           Murad Guliyev:  Customer Rep 
 WITN.          Yashar Gaziyev:  Customer Rep 2 
 WOBA.klb                 9.00:  WOB Avg 
 WOBX.klb                12.00:  WOB Max 
 YP  .lhf2               30.00:  Yield Point 
~Curve Information Block
#MNEM.UNIT                 API CODE     Curve Description
#---------               -----------    ---------------------------
 TIME.HHMMSS            00 000 000 000:  GT Time & Date
 GTDEPTH.m              00 000 000 000:  GT Depth
 GTPQH.psia             00 000 000 000:  GT HR Quartz Pressure
 GTTQ.degC              00 000 000 000:  GT Quartz Temperature
 GTTN.NONE              00 000 000 000:  GT Test Number
 GTET.sec               00 000 000 000:  GT Elapsed Test Time
 GTTVD.m                00 000 000 000:  GT True Vertical Depth
#Other Information
#
#WARRANTY: Halliburton will use its best efforts to furnish customers with 
#accurate information and interpretations that are part of, and incident to, the services 
#provided.  However, Halliburton cannot and does not warrant the accuracy 
#or correctness of such information and interpretations.  Under no circumstances should any 
#such information or interpretation be relied upon as the sole basis for any drilling, 
#completion, production, or financial decision or any procedure involving any risk to the 
#safety of any drilling venture, drilling rig or its crew or any other third party.  The 
#Customer has full responsibility for all drilling, completion and production operation.  
#Halliburton makes no representations or warranties, either expressed or 
#implied, including, but not limited to, the implied warranties of merchantability or fitness 
#for a particular purpose, with respect to the services rendered.  In no event will 
#Halliburton be liable for failure to obtain any particular results or for 
#any damages, including, but not limited to, indirect, special or consequential damages, 
#resulting from the use of any information or interpretation provided by Halliburton.
#
~A           TIME           GTDEPTH  GTPQH  GTTQ  GTTN  GTET   GTTVD  
# ...
   05:48:50.367.27-Aug-2021 5021.00 7995.53 88.53 1.00 276.05 3358.56
   05:48:50.567.27-Aug-2021 5021.00 7995.53 88.53 1.00 276.25 3358.56
   05:48:50.767.27-Aug-2021 5021.00 7997.40 88.53 1.00 276.45 3358.56
   05:48:50.967.27-Aug-2021 5021.00 7997.28 88.53 1.00 276.65 3358.56
   05:48:51.167.27-Aug-2021 5021.00 7997.14 88.53 1.00 276.85 3358.56
   05:48:51.367.27-Aug-2021 5021.00 7997.65 88.53 1.00 277.05 3358.56
   05:48:51.567.27-Aug-2021 5021.00 7997.65 88.53 1.00 277.25 3358.56
   05:48:51.768.27-Aug-2021 5021.00 7997.29 88.53 1.00 277.45 3358.56
   05:48:51.968.27-Aug-2021 5021.00 7997.09 88.53 1.00 277.65 3358.56
   05:48:52.168.27-Aug-2021 5021.00 7997.99 88.53 1.00 277.85 3358.56
   05:48:52.368.27-Aug-2021 5021.00 7998.85 88.53 1.00 278.05 3358.56
   05:48:52.568.27-Aug-2021 5021.00 7998.85 88.53 1.00 278.25 3358.56
   05:48:52.768.27-Aug-2021 5021.00 7998.50 88.53 1.00 278.45 3358.56
   05:48:52.968.27-Aug-2021 5021.00 7998.03 88.53 1.00 278.65 3358.56
   05:48:53.168.27-Aug-2021 5021.00 7998.03 88.53 1.00 278.85 3358.56
   05:48:53.368.27-Aug-2021 5021.00 7997.69 88.53 1.00 279.05 3358.56
   05:48:53.568.27-Aug-2021 5021.00 7997.69 88.53 1.00 279.25 3358.56
   05:48:53.768.27-Aug-2021 5021.00 7997.12 88.53 1.00 279.45 3358.56
   05:48:53.968.27-Aug-2021 5021.00 7997.78 88.53 1.00 279.65 3358.56
   05:48:54.168.27-Aug-2021 5021.00 7996.91 88.53 1.00 279.85 3358.56
   05:48:54.368.27-Aug-2021 5021.00 7997.14 88.53 1.00 280.05 3358.56
   05:48:54.568.27-Aug-2021 5021.00 7997.14 88.53 1.00 280.25 3358.56
   05:48:54.768.27-Aug-2021 5021.00 7997.11 88.53 1.00 280.45 3358.56
   05:48:54.968.27-Aug-2021 5021.00 7997.15 88.52 1.00 280.65 3358.56
   05:48:55.168.27-Aug-2021 5021.00 7996.59 88.52 1.00 280.85 3358.56
   05:48:55.368.27-Aug-2021 5021.00 7996.87 88.52 1.00 281.05 3358.56
   05:48:55.568.27-Aug-2021 5021.00 7996.87 88.52 1.00 281.25 3358.56
   05:48:55.768.27-Aug-2021 5021.00 7998.07 88.52 1.00 281.45 3358.56
   05:48:55.968.27-Aug-2021 5021.00 7997.93 88.52 1.00 281.65 3358.56
   05:48:56.168.27-Aug-2021 5021.00 7997.21 88.52 1.00 281.85 3358.56
   05:48:56.368.27-Aug-2021 5021.00 7997.15 88.52 1.00 282.05 3358.56
   05:48:56.568.27-Aug-2021 5021.00 7997.15 88.52 1.00 282.25 3358.56
   05:48:56.768.27-Aug-2021 5021.00 7999.52 88.52 1.00 282.45 3358.56
   05:48:56.968.27-Aug-2021 5021.00 7996.87 88.52 1.00 282.65 3358.56
   05:48:57.168.27-Aug-2021 5021.00 7997.40 88.52 1.00 282.85 3358.56
   05:48:57.368.27-Aug-2021 5021.00 7996.38 88.52 1.00 283.05 3358.56
   05:48:57.568.27-Aug-2021 5021.00 7996.38 88.52 1.00 283.25 3358.56
   05:48:57.768.27-Aug-2021 5021.00 7997.28 88.52 1.00 283.45 3358.56
   05:48:57.969.27-Aug-2021 5021.00 7997.12 88.52 1.00 283.65 3358.56
   05:48:58.169.27-Aug-2021 5021.00 7997.08 88.52 1.00 283.85 3358.56
   05:48:58.369.27-Aug-2021 5021.00 7996.76 88.52 1.00 284.05 3358.56
   05:48:58.569.27-Aug-2021 5021.00 7996.76 88.52 1.00 284.25 3358.56
   05:48:58.769.27-Aug-2021 5021.00 7998.28 88.52 1.00 284.45 3358.56
   05:48:58.969.27-Aug-2021 5021.00 7998.29 88.52 1.00 284.65 3358.56
   05:48:59.169.27-Aug-2021 5021.00 7997.97 88.52 1.00 284.85 3358.56
   05:48:59.369.27-Aug-2021 5021.00 7997.64 88.52 1.00 285.05 3358.56
   05:48:59.569.27-Aug-2021 5021.00 7997.64 88.52 1.00 285.25 3358.56
   05:48:59.769.27-Aug-2021 5021.00 8005.01 88.52 1.00 285.45 3358.56
   05:48:59.969.27-Aug-2021 5021.00 7995.54 88.52 1.00 285.65 3358.56
   05:49:00.169.27-Aug-2021 5021.00 7996.89 88.52 1.00 285.85 3358.56
   05:49:00.369.27-Aug-2021 5021.00 7997.17 88.52 1.00 286.05 3358.56
   05:49:00.569.27-Aug-2021 5021.00 7997.17 88.52 1.00 286.25 3358.56
   05:49:00.769.27-Aug-2021 5021.00 7996.89 88.52 1.00 286.45 3358.56
   05:49:00.969.27-Aug-2021 5021.00 7997.13 88.52 1.00 286.65 3358.56
   05:49:01.169.27-Aug-2021 5021.00 7996.60 88.52 1.00 286.85 3358.56
   05:49:01.369.27-Aug-2021 5021.00 7996.98 88.52 1.00 287.05 3358.56
   05:49:01.569.27-Aug-2021 5021.00 7996.98 88.52 1.00 287.25 3358.56
   05:49:01.769.27-Aug-2021 5021.00 7997.85 88.52 1.00 287.45 3358.56
   05:49:01.969.27-Aug-2021 5021.00 7998.51 88.52 1.00 287.65 3358.56
   05:49:02.169.27-Aug-2021 5021.00 7998.78 88.52 1.00 287.85 3358.56
   05:49:02.369.27-Aug-2021 5021.00 7998.31 88.52 1.00 288.05 3358.56
   05:49:02.569.27-Aug-2021 5021.00 7998.31 88.52 1.00 288.25 3358.56
   05:49:02.769.27-Aug-2021 5021.00 7997.86 88.52 1.00 288.45 3358.56
   05:49:02.969.27-Aug-2021 5021.00 7997.58 88.52 1.00 288.65 3358.56
   05:49:03.169.27-Aug-2021 5021.00 8003.24 88.52 1.00 288.85 3358.56
   05:49:03.369.27-Aug-2021 5021.00 7997.03 88.52 1.00 289.05 3358.56
   05:49:03.569.27-Aug-2021 5021.00 7997.03 88.52 1.00 289.25 3358.56
   05:49:03.769.27-Aug-2021 5021.00 7996.66 88.52 1.00 289.45 3358.56
   05:49:03.970.27-Aug-2021 5021.00 7997.08 88.52 1.00 289.65 3358.56
   05:49:04.170.27-Aug-2021 5021.00 8002.32 88.52 1.00 289.85 3358.56
   05:49:04.370.27-Aug-2021 5021.00 7996.89 88.52 1.00 290.05 3358.56
   05:49:04.570.27-Aug-2021 5021.00 7996.89 88.52 1.00 290.25 3358.56
   05:49:04.770.27-Aug-2021 5021.00 7996.34 88.52 1.00 290.45 3358.56
   05:49:04.970.27-Aug-2021 5021.00 7996.64 88.52 1.00 290.65 3358.56
   05:49:05.170.27-Aug-2021 5021.00 7997.58 88.52 1.00 290.85 3358.56
   05:49:05.370.27-Aug-2021 5021.00 8001.00 88.52 1.00 291.05 3358.56
   05:49:05.570.27-Aug-2021 5021.00 8001.00 88.52 1.00 291.25 3358.56
   05:49:05.770.27-Aug-2021 5021.00 7996.81 88.52 1.00 291.45 3358.56
   05:49:05.970.27-Aug-2021 5021.00 7996.67 88.52 1.00 291.65 3358.56
   05:49:06.170.27-Aug-2021 5021.00 7997.58 88.52 1.00 291.85 3358.56
   05:49:06.370.27-Aug-2021 5021.00 8001.30 88.52 1.00 292.05 3358.56
   05:49:06.570.27-Aug-2021 5021.00 8001.30 88.52 1.00 292.25 3358.56
   05:49:06.770.27-Aug-2021 5021.00 7996.95 88.52 1.00 292.45 3358.56
   05:49:06.970.27-Aug-2021 5021.00 7996.47 88.52 1.00 292.65 3358.56
   05:49:07.170.27-Aug-2021 5021.00 7996.74 88.52 1.00 292.85 3358.56
   05:49:07.370.27-Aug-2021 5021.00 7998.02 88.52 1.00 293.05 3358.56
   05:49:07.570.27-Aug-2021 5021.00 7998.02 88.52 1.00 293.25 3358.56
   05:49:07.770.27-Aug-2021 5021.00 7997.40 88.52 1.00 293.45 3358.56
   05:49:07.970.27-Aug-2021 5021.00 7996.90 88.52 1.00 293.65 3358.56
   05:49:08.170.27-Aug-2021 5021.00 7997.35 88.52 1.00 293.85 3358.56
   05:49:08.370.27-Aug-2021 5021.00 7998.01 88.52 1.00 294.05 3358.56
   05:49:08.570.27-Aug-2021 5021.00 7998.01 88.52 1.00 294.25 3358.56
   05:49:08.770.27-Aug-2021 5021.00 7998.21 88.52 1.00 294.45 3358.56
   05:49:08.970.27-Aug-2021 5021.00 7997.86 88.52 1.00 294.65 3358.56
   05:49:09.170.27-Aug-2021 5021.00 7997.53 88.52 1.00 294.85 3358.56
   05:49:09.370.27-Aug-2021 5021.00 7997.19 88.52 1.00 295.05 3358.56
   05:49:09.570.27-Aug-2021 5021.00 7997.19 88.52 1.00 295.25 3358.56
   05:49:09.770.27-Aug-2021 5021.00 7997.75 88.52 1.00 295.45 3358.56
   05:49:09.970.27-Aug-2021 5021.00 7996.70 88.52 1.00 295.65 3358.56
   05:49:10.171.27-Aug-2021 5021.00 7996.64 88.52 1.00 295.85 3358.56
   05:49:10.371.27-Aug-2021 5021.00 7996.42 88.52 1.00 296.05 3358.56
   05:49:10.571.27-Aug-2021 5021.00 7996.42 88.52 1.00 296.25 3358.56
   05:49:10.771.27-Aug-2021 5021.00 7996.23 88.51 1.00 296.45 3358.56
   05:49:10.971.27-Aug-2021 5021.00 7996.19 88.51 1.00 296.65 3358.56
   05:49:11.171.27-Aug-2021 5021.00 7996.33 88.51 1.00 296.85 3358.56
   05:49:11.371.27-Aug-2021 5021.00 7996.83 88.51 1.00 297.05 3358.56
   05:49:11.571.27-Aug-2021 5021.00 7996.83 88.51 1.00 297.25 3358.56
   05:49:11.771.27-Aug-2021 5021.00 7998.63 88.51 1.00 297.45 3358.56
   05:49:11.971.27-Aug-2021 5021.00 7998.24 88.51 1.00 297.65 3358.56
   05:49:12.171.27-Aug-2021 5021.00 7998.22 88.51 1.00 297.85 3358.56
   05:49:12.371.27-Aug-2021 5021.00 7997.83 88.51 1.00 298.05 3358.56
   05:49:12.571.27-Aug-2021 5021.00 7997.83 88.51 1.00 298.25 3358.56
   05:49:12.771.27-Aug-2021 5021.00 7997.67 88.51 1.00 298.45 3358.56
   05:49:12.971.27-Aug-2021 5021.00 8005.11 88.51 1.00 298.65 3358.56
   05:49:13.171.27-Aug-2021 5021.00 7995.07 88.51 1.00 298.85 3358.56
