~Version Information
 VERS.                  2.0:   CWLS log ASCII Standard -VERSION 2.0
 WRAP.                   NO:   One line per depth step
~Well Information Block
#MNEM.UNIT     VALUE/NAME     DESCRIPTION
#---------     -----------    ---------------------------
 STRT.S             18:53:24 27-Aug-21: START TIME 18:53:24 27-Aug-21
 STOP.S             19:00:39 27-Aug-21: STOP TIME  19:00:39 27-Aug-21
 STEP.S                   0.00: STEP TIME
 NULL.                 -999.25: NULL VALUE
 DFWT.                        :  DIST FWL TEXT
 DFST.                        :  DIST FSL TEXT
 DMF .             Drill Floor:  DRILL MEAS FROM
 STIM.      20.00.00 17-Aug-21:  START TIME
 DATE.      19.00.00 29-Aug-21:  END TIME
 SPUD.               15-Aug-21:  SPUD DATE
 NREF.                    Grid:  NORTH REFERENCE
 HPTY.       Minimum Curvature:  HOLE POS TYPE
 DMOD.             Drill Model:  DRILL MOD DESC
 SVYD.                  Survey:  SURVEY DESC
 ILTD.               Lithology:  INTERP LTH DESC
 FTOP.          Formation Tops:  FORM TOPS DESC
 RIG .              East Azeri:  RIG NAME
 PDAT.          Mean Sea Level:  PERMANENT DATUM
 FLD .                     ACG:  FIELD NAME
 SON .        AZ-XX-0907180857:  JOB NUMBER
 CTRY.              Azerbaijan:  COUNTRY NAME
 WELL.                    D23x:  WELL NAME
 SRVC.     Turan Drilling and Engineering:  CONTRACTOR
 COMP.     BP Exploration (Caspian Sea) Ltd.:  COMPANY
 UWI .            /AZE00000214:  UNIQUE WELL IDENTIFIER
 API .            /AZE00000214:  API NUMBER
 MDS .        Operator Entered:  MAG DATA SOURCE
 BASE.              Azerbaijan:  LOGGING EQUIPMENT BASE LOCATION
 REGN.                   EESSA:  REGION
 PROV.                    Baku:  PROVINCE
 STAT.                    Baku:  STATE NAME
 MWDS.                    Baku:  MWD SHOP
 DOE .                     N/A:  DOE NUMBER
 DCON.         Sperry Drilling:  DIRECTNL CONTR
 UNIT.                     N/A:  LOGGING EQUIPMENT ID
 WTYP.                Deviated:  WELL TYPE
 CNTY.                        :  COUNTY
 LOC .                        :  LOCATION
 LMF .             Drill Floor:  LOG MEASURED FROM
 TVDS.m                  43.60:  TVDSS CORRECTN
 LATI.deg                40.02:  LATITUDE
 LONG.deg                51.45:  LONGITUDE
 WHNS.m                  -7.04:  WELL HEAD N/S
 WHEW.m                  -0.67:  WELL HEAD E/W
 UTMX.m              538762.90:  UTM X
 UTMY.m             4431871.34:  UTM Y
 DFWL.m                   0.00:  DISTANCE FWL
 DFSL.m                   0.00:  DISTANCE FSL
 SDEP.m                4127.00:  START DEPTH
 TDD .m                5084.50:  TOTAL DEPTH (DRILLER)
 VSDR.deg               140.47:  VERT SEC DIRECT
 GVFD.g                   1.00:  GRAVITY FIELD
 MFLD.nT              50362.00:  MAGNETIC FIELD
 MDIP.deg                59.48:  MAGNETIC DIP
 MDEC.deg                 6.47:  MAGNETIC DECL
 GRDC.deg                 0.31:  GRID CORRECTION
 AZTC.deg                 6.16:  AZM TOTAL CORR
 EPD .m                   0.00:  ELEVATION
 EGL .m                   0.00:  GROUND ELEVATION
 WDMS.m                 151.80:  WD ELEV
 APD .m                  43.60:  DEPTH ABOVE PD
 DEP .m                4092.57:  DEPTH
 AGAP.m                  43.60:  AIR GAP
 VSEW.m                  -0.67:  VERT SEC E/W
 VSNS.m                  -7.04:  VERT SEC N/S
 EKB .m                  43.60:  KB ELEVATION
 EDF .m                  43.60:  DF ELEVATION
 TDL .m                 957.50:  TOTAL DEPTH (LOGGER)
 VSC .                       0:  VS TO CLOSURE
 MAGU.                 1851413:  MAGUTM CHECKSUM
~Parameter Information Block
#MNEM.UNIT       Value        Description
#---------     -----------    ---------------------------
 AV  .mps                 1.50:  Ann Velocity 
 AVMX.mps                 2.00:  Max Ann Veloc 
 AZIF.deg               184.66:  Azm, Final 
 BHAT.        Rotary Steerable:  BHA Type 
 BREV.rev               300.00:  Rev Bit Total 
 BROT.°/30m              -0.50:  Build Rotating 
 BS  .in                  8.50:  Bit Size 
 BSZ .in                  8.50:  Bit Size 
 BTPL.psig              370.00:  Bit Press Loss 
 CABU.                      No:  Customer Abuse 
 CGEO.      Behruz Shahbaliyev:  Customer Geo 
 COMM.                     |?d:  Run Comments 1 
 TCS .hr                140.08:  Time Ciculation Ended 
 CV  .mps                 3.00:  Crit Velocity 
 CVMX.mps                 3.20:  Max Crit Veloc 
 DD1 .            Musa Ahmadov:  Direct Drillr 1 
 DD2 .           Hamid Ahmadov:  Direct Drillr 2 
 DDSV.               Geo-Pilot:  DD Service 
 DEFF.%                  98.40:  % Det Eff 
 DLRX.°/30m               3.40:  Dogleg Rot Max 
 DLSO.°/30m               1.45:  Dogleg Oriented 
 DLSX.°/30m               3.40:  Dogleg Str Max 
 DRET.      18.40.00 29-Aug-21:  Drill End Time 
 DRST.      21.00.00 20-Aug-21:  Drill Start Tim 
 DTIM.hr                 69.47:  Time Drilling 
 EDEP.m                5084.50:  End Depth 
 ENG1.      Artemiy Matviyanov:  Engineer 1 
 ENG2.         Almaz Almadatov:  Engineer 2 
 ETIM.      18.40.00 29-Aug-21:  End Time 
 FLOI.gpm               500.00:  Flow In 
 FLON.gpm               400.00:  Flow In Min 
 FLOS.cptm                0.00:  Fluid Loss 
 FLOX.gpm               500.00:  Flow In Max 
 DFT .        Mineral Oil Base:  Mud Type 
 HFLO.                      No:  High Flow 
 HPRE.                      No:  High Pressure 
 HTEM.                      No:  High Temp 
 HYDO.m                   1.80:  Hydro Offset 
 IFIN.deg                25.62:  Inc, Final 
 IMAX.deg                48.69:  Inc Max 
 IMIN.deg                24.01:  Inc Min 
 IMND.m                4962.57:  Inc Min Depth 
 IMXD.m                4119.01:  Inc Max Depth 
 JARR.                      No:  Jarring 
 LETM.      18.40.00 29-Aug-21:  Log End Time 
 LOST.hr                     0:  Lost Rig Time 
 LSTM.      21.00.00 20-Aug-21:  Log Start Time 
 MDCL.ppm             41500.00:  Mud Chlorides 
 MDES.     Inversion Oil/Synthetic:  Mud Desc 
 DFD .sg                  1.56:  Mud Density 
 MDMN.sg                  1.56:  Dens Mud Min 
 MDMX.sg                  1.56:  Dens Mud Max 
 MOIL.                      70:  Run Mud Oil % 
 MOWR.                   70:30:  Run Mud OWR 
 MSND.                     0.2:  Run Mud Sand % 
 MSOL.                    23.3:  Run Mud Solids% 
 DFV .spqt               78.00:  Mud Viscosity 
 MWOD.in                  6.75:  MWD Tool OD 
 MWSI.                      No:  Serv Intrp, MWD 
 OTIM.hr                218.30:  Time Operating 
 PCON.           Look Like New:  Pad Condition 
 PMAX.psia            11015.30:  Press Op, Max 
 PV  .cP                 38.00:  Mud PV 
 RUN .                     300:  Run Number 
 ROPA.m/hr               15.00:  ROP Avg 
 ROPN.m/hr                9.00:  ROP Min 
 ROPX.m/hr               17.00:  ROP Max 
 RPMA.rpm               120.00:  RPM Surface Avg 
 RPMN.rpm                90.00:  RPM Surface Min 
 RPMX.rpm               140.00:  RPM Surface Max 
 RRUN.                     300:  Rig Run Number 
 RTIM.hr                 31.53:  Time Reaming 
 SAZI.deg               331.64:  Azm, Start 
 SDEP.m                4127.00:  Start Depth 
 SIDD.                      No:  Serv Intrp, DD 
 SINC.deg                48.43:  Inc, Start 
 SPPA.psig             5830.00:  SPP Avg 
 SPPN.psig             5600.00:  SPP Min 
 SPPX.psig             5900.00:  SPP Max 
 STIM.      21.00.00 20-Aug-21:  Start Time 
 SVCS.                 DD, MWD:  Services 
 SVER.                    9.20:  Sperry Version 
 TDAT.m                 957.50:  Tot Depth Attmp 
 TDDF.                      No:  Trip for DD 
 TDLG.m                 957.50:  Tot Depth Loggd 
 TFF .                      No:  Trip for Fail 
 TQAA.f-kp               15.00:  Torque Abs Avg 
 TQAN.f-kp               12.00:  Torque Abs Min 
 TQAX.f-kp               19.00:  Torque Abs Max 
 TRRT.°/30m              -3.40:  Turn Rotating 
 MRT .                  EWR-M5:  Maximum Recorded Temperature 
 TTMX.degC              100.00:  Max Tool Temp 
 VS01.                90639251:  Virtual Str1 SN 
 VS02.                90634715:  Virtual Str2 SN 
 VS03.                90652479:  Virtual Str3 SN 
 VS04.                90642262:  Virtual Str4 SN 
 WBMN.klb                 0.00:  WOB Min 
 WITN.           Murad Guliyev:  Customer Rep 
 WITN.          Yashar Gaziyev:  Customer Rep 2 
 WOBA.klb                 9.00:  WOB Avg 
 WOBX.klb                12.00:  WOB Max 
 YP  .lhf2               30.00:  Yield Point 
~Curve Information Block
#MNEM.UNIT                 API CODE     Curve Description
#---------               -----------    ---------------------------
 TIME.HHMMSS            00 000 000 000:  GT Time & Date
 GTDEPTH.m              00 000 000 000:  GT Depth
 GTPQH.psia             00 000 000 000:  GT HR Quartz Pressure
 GTTQ.degC              00 000 000 000:  GT Quartz Temperature
 GTTN.NONE              00 000 000 000:  GT Test Number
 GTET.sec               00 000 000 000:  GT Elapsed Test Time
 GTTVD.m                00 000 000 000:  GT True Vertical Depth
#Other Information
#
#WARRANTY: Halliburton will use its best efforts to furnish customers with 
#accurate information and interpretations that are part of, and incident to, the services 
#provided.  However, Halliburton cannot and does not warrant the accuracy 
#or correctness of such information and interpretations.  Under no circumstances should any 
#such information or interpretation be relied upon as the sole basis for any drilling, 
#completion, production, or financial decision or any procedure involving any risk to the 
#safety of any drilling venture, drilling rig or its crew or any other third party.  The 
#Customer has full responsibility for all drilling, completion and production operation.  
#Halliburton makes no representations or warranties, either expressed or 
#implied, including, but not limited to, the implied warranties of merchantability or fitness 
#for a particular purpose, with respect to the services rendered.  In no event will 
#Halliburton be liable for failure to obtain any particular results or for 
#any damages, including, but not limited to, indirect, special or consequential damages, 
#resulting from the use of any information or interpretation provided by Halliburton.
#
~A           TIME           GTDEPTH  GTPQH  GTTQ  GTTN   GTET   GTTVD  
   18:53:24.000.27-Aug-2021 4697.00 7354.07 82.62 19.00   0.00 3064.88
   18:53:24.200.27-Aug-2021 4697.00 7354.07 82.62 19.00   0.20 3064.88
   18:53:24.400.27-Aug-2021 4697.00 7355.83 82.62 19.00   0.40 3064.88
   18:53:24.600.27-Aug-2021 4697.00 7356.51 82.62 19.00   0.60 3064.88
   18:53:24.800.27-Aug-2021 4697.00 7355.61 82.62 19.00   0.80 3064.88
   18:53:25.000.27-Aug-2021 4697.00 7356.10 82.62 19.00   1.00 3064.88
   18:53:25.200.27-Aug-2021 4697.00 7356.10 82.62 19.00   1.20 3064.88
   18:53:25.400.27-Aug-2021 4697.00 7355.81 82.61 19.00   1.40 3064.88
   18:53:25.600.27-Aug-2021 4697.00 7355.57 82.61 19.00   1.60 3064.88
   18:53:25.800.27-Aug-2021 4697.00 7355.51 82.61 19.00   1.80 3064.88
   18:53:26.000.27-Aug-2021 4697.00 7355.23 82.61 19.00   2.00 3064.88
   18:53:26.200.27-Aug-2021 4697.00 7355.23 82.61 19.00   2.20 3064.88
   18:53:26.400.27-Aug-2021 4697.00 7355.18 82.61 19.00   2.40 3064.88
   18:53:26.600.27-Aug-2021 4697.00 7355.21 82.61 19.00   2.60 3064.88
   18:53:26.800.27-Aug-2021 4697.00 7355.27 82.61 19.00   2.80 3064.88
   18:53:27.000.27-Aug-2021 4697.00 7355.37 82.61 19.00   3.00 3064.88
   18:53:27.200.27-Aug-2021 4697.00 7355.37 82.61 19.00   3.20 3064.88
   18:53:27.400.27-Aug-2021 4697.00 7360.93 82.61 19.00   3.40 3064.88
   18:53:27.600.27-Aug-2021 4697.00 7353.89 82.61 19.00   3.60 3064.88
   18:53:27.800.27-Aug-2021 4697.00 7356.15 82.61 19.00   3.80 3064.88
   18:53:28.000.27-Aug-2021 4697.00 7356.43 82.61 19.00   4.00 3064.88
   18:53:28.200.27-Aug-2021 4697.00 7356.43 82.61 19.00   4.20 3064.88
   18:53:28.400.27-Aug-2021 4697.00 7356.99 82.61 19.00   4.40 3064.88
   18:53:28.600.27-Aug-2021 4697.00 7357.45 82.61 19.00   4.60 3064.88
   18:53:28.800.27-Aug-2021 4697.00 7357.67 82.61 19.00   4.80 3064.88
   18:53:29.000.27-Aug-2021 4697.00 7358.24 82.61 19.00   5.00 3064.88
   18:53:29.200.27-Aug-2021 4697.00 7358.24 82.61 19.00   5.20 3064.88
   18:53:29.400.27-Aug-2021 4697.00 7358.53 82.61 19.00   5.40 3064.88
   18:53:29.600.27-Aug-2021 4697.00 7358.68 82.61 19.00   5.60 3064.88
   18:53:29.800.27-Aug-2021 4697.00 7358.98 82.61 19.00   5.80 3064.88
   18:53:30.000.27-Aug-2021 4697.00 7359.16 82.61 19.00   6.00 3064.88
   18:53:30.200.27-Aug-2021 4697.00 7359.16 82.61 19.00   6.20 3064.88
   18:53:30.400.27-Aug-2021 4697.00 7359.16 82.61 19.00   6.40 3064.88
   18:53:30.600.27-Aug-2021 4697.00 7364.80 82.61 19.00   6.60 3064.88
   18:53:30.800.27-Aug-2021 4697.00 7357.91 82.61 19.00   6.80 3064.88
   18:53:31.000.27-Aug-2021 4697.00 7360.36 82.61 19.00   7.00 3064.88
   18:53:31.200.27-Aug-2021 4697.00 7360.36 82.61 19.00   7.20 3064.88
   18:53:31.400.27-Aug-2021 4697.00 7361.27 82.61 19.00   7.40 3064.88
   18:53:31.600.27-Aug-2021 4697.00 7360.81 82.61 19.00   7.60 3064.88
   18:53:31.800.27-Aug-2021 4697.00 7366.85 82.61 19.00   7.80 3064.88
   18:53:32.000.27-Aug-2021 4697.00 7359.78 82.61 19.00   8.00 3064.88
   18:53:32.200.27-Aug-2021 4697.00 7359.78 82.61 19.00   8.20 3064.88
   18:53:32.400.27-Aug-2021 4697.00 7362.52 82.61 19.00   8.40 3064.88
   18:53:32.600.27-Aug-2021 4697.00 7363.16 82.61 19.00   8.60 3064.88
   18:53:32.800.27-Aug-2021 4697.00 7362.57 82.61 19.00   8.80 3064.88
   18:53:33.000.27-Aug-2021 4697.00 7368.28 82.61 19.00   9.00 3064.88
   18:53:33.200.27-Aug-2021 4697.00 7368.28 82.61 19.00   9.20 3064.88
   18:53:33.400.27-Aug-2021 4697.00 7363.98 82.60 19.00   9.40 3064.88
   18:53:33.600.27-Aug-2021 4697.00 7363.61 82.60 19.00   9.60 3064.88
   18:53:33.800.27-Aug-2021 4697.00 7364.18 82.60 19.00   9.80 3064.88
   18:53:34.000.27-Aug-2021 4697.00 7364.86 82.60 19.00  10.00 3064.88
   18:53:34.200.27-Aug-2021 4697.00 7364.86 82.60 19.00  10.20 3064.88
   18:53:34.400.27-Aug-2021 4697.00 7364.15 82.60 19.00  10.40 3064.88
   18:53:34.600.27-Aug-2021 4697.00 7364.23 82.60 19.00  10.60 3064.88
   18:53:34.800.27-Aug-2021 4697.00 7369.09 82.60 19.00  10.80 3064.88
   18:53:35.000.27-Aug-2021 4697.00 7362.13 82.60 19.00  11.00 3064.88
   18:53:35.200.27-Aug-2021 4697.00 7362.13 82.60 19.00  11.20 3064.88
   18:53:35.400.27-Aug-2021 4697.00 7364.65 82.60 19.00  11.40 3064.88
   18:53:35.600.27-Aug-2021 4697.00 7365.59 82.60 19.00  11.60 3064.88
   18:53:35.800.27-Aug-2021 4697.00 7366.14 82.60 19.00  11.80 3064.88
   18:53:36.000.27-Aug-2021 4697.00 7366.89 82.60 19.00  12.00 3064.88
   18:53:36.200.27-Aug-2021 4697.00 7366.89 82.60 19.00  12.20 3064.88
   18:53:36.400.27-Aug-2021 4697.00 7366.30 82.60 19.00  12.40 3064.88
   18:53:36.600.27-Aug-2021 4697.00 7366.10 82.60 19.00  12.60 3064.88
   18:53:36.800.27-Aug-2021 4697.00 7366.74 82.60 19.00  12.80 3064.88
   18:53:37.000.27-Aug-2021 4697.00 7366.98 82.60 19.00  13.00 3064.88
   18:53:37.200.27-Aug-2021 4697.00 7366.98 82.60 19.00  13.20 3064.88
   18:53:37.400.27-Aug-2021 4697.00 7367.89 82.60 19.00  13.40 3064.88
   18:53:37.600.27-Aug-2021 4697.00 7367.85 82.60 19.00  13.60 3064.88
   18:53:37.800.27-Aug-2021 4697.00 7368.16 82.60 19.00  13.80 3064.88
   18:53:38.000.27-Aug-2021 4697.00 7368.26 82.60 19.00  14.00 3064.88
   18:53:38.200.27-Aug-2021 4697.00 7368.26 82.60 19.00  14.20 3064.88
   18:53:38.400.27-Aug-2021 4697.00 7368.66 82.60 19.00  14.40 3064.88
   18:53:38.600.27-Aug-2021 4697.00 7368.94 82.60 19.00  14.60 3064.88
   18:53:38.800.27-Aug-2021 4697.00 7369.11 82.60 19.00  14.80 3064.88
   18:53:39.000.27-Aug-2021 4697.00 7371.01 82.60 19.00  15.00 3064.88
   18:53:39.200.27-Aug-2021 4697.00 7371.01 82.60 19.00  15.20 3064.88
   18:53:39.400.27-Aug-2021 4697.00 7369.59 82.60 19.00  15.40 3064.88
   18:53:39.600.27-Aug-2021 4697.00 7370.03 82.60 19.00  15.60 3064.88
   18:53:39.800.27-Aug-2021 4697.00 7370.06 82.60 19.00  15.80 3064.88
   18:53:40.000.27-Aug-2021 4697.00 7370.46 82.60 19.00  16.00 3064.88
   18:53:40.200.27-Aug-2021 4697.00 7370.46 82.60 19.00  16.20 3064.88
   18:53:40.400.27-Aug-2021 4697.00 7370.95 82.60 19.00  16.40 3064.88
   18:53:40.600.27-Aug-2021 4697.00 7371.63 82.60 19.00  16.60 3064.88
   18:53:40.800.27-Aug-2021 4697.00 7371.34 82.60 19.00  16.80 3064.88
   18:53:41.000.27-Aug-2021 4697.00 7371.48 82.60 19.00  17.00 3064.88
   18:53:41.200.27-Aug-2021 4697.00 7371.48 82.60 19.00  17.20 3064.88
   18:53:41.400.27-Aug-2021 4697.00 7371.84 82.60 19.00  17.40 3064.88
   18:53:41.600.27-Aug-2021 4697.00 7371.85 82.60 19.00  17.60 3064.88
   18:53:41.800.27-Aug-2021 4697.00 7371.94 82.59 19.00  17.80 3064.88
   18:53:42.000.27-Aug-2021 4697.00 7371.98 82.59 19.00  18.00 3064.88
   18:53:42.200.27-Aug-2021 4697.00 7371.98 82.59 19.00  18.20 3064.88
   18:53:42.400.27-Aug-2021 4697.00 7374.24 82.59 19.00  18.40 3064.88
   18:53:42.600.27-Aug-2021 4697.00 7374.29 82.59 19.00  18.60 3064.88
   18:53:42.800.27-Aug-2021 4697.00 7372.72 82.59 19.00  18.80 3064.88
   18:53:43.000.27-Aug-2021 4697.00 7373.07 82.59 19.00  19.00 3064.88
   18:53:43.200.27-Aug-2021 4697.00 7373.07 82.59 19.00  19.20 3064.88
   18:53:43.400.27-Aug-2021 4697.00 7373.37 82.59 19.00  19.40 3064.88
   18:53:43.600.27-Aug-2021 4697.00 7373.53 82.59 19.00  19.60 3064.88
   18:53:43.800.27-Aug-2021 4697.00 7373.72 82.59 19.00  19.80 3064.88
   18:53:44.000.27-Aug-2021 4697.00 7377.49 82.59 19.00  20.00 3064.88
   18:53:44.200.27-Aug-2021 4697.00 7377.49 82.59 19.00  20.20 3064.88
   18:53:44.400.27-Aug-2021 4697.00 7374.72 82.59 19.00  20.40 3064.88
   18:53:44.600.27-Aug-2021 4697.00 7374.37 82.59 19.00  20.60 3064.88
   18:53:44.800.27-Aug-2021 4697.00 7375.16 82.59 19.00  20.80 3064.88
   18:53:45.000.27-Aug-2021 4697.00 7379.26 82.59 19.00  21.00 3064.88
   18:53:45.200.27-Aug-2021 4697.00 7379.26 82.59 19.00  21.20 3064.88
   18:53:45.400.27-Aug-2021 4697.00 7376.02 82.59 19.00  21.40 3064.88
   18:53:45.600.27-Aug-2021 4697.00 7375.74 82.59 19.00  21.60 3064.88
   18:53:45.800.27-Aug-2021 4697.00 7376.02 82.59 19.00  21.80 3064.88
   18:53:46.000.27-Aug-2021 4697.00 7375.23 82.59 19.00  22.00 3064.88
   18:53:46.200.27-Aug-2021 4697.00 7375.23 82.59 19.00  22.20 3064.88
   18:53:46.400.27-Aug-2021 4697.00 7376.18 82.59 19.00  22.40 3064.88
