~Version Information
 VERS.                  2.0:   CWLS log ASCII Standard -VERSION 2.0
 WRAP.                   NO:   One line per depth step
~Well Information Block
#MNEM.UNIT     VALUE/NAME     DESCRIPTION
#---------     -----------    ---------------------------
 STRT.S             08:51:30 27-Aug-21: START TIME 08:51:30 27-Aug-21
 STOP.S             08:58:20 27-Aug-21: STOP TIME  08:58:20 27-Aug-21
 STEP.S                   0.00: STEP TIME
 NULL.                 -999.25: NULL VALUE
 DFWT.                        :  DIST FWL TEXT
 DFST.                        :  DIST FSL TEXT
 DMF .             Drill Floor:  DRILL MEAS FROM
 STIM.      20.00.00 17-Aug-21:  START TIME
 DATE.      19.00.00 29-Aug-21:  END TIME
 SPUD.               15-Aug-21:  SPUD DATE
 NREF.                    Grid:  NORTH REFERENCE
 HPTY.       Minimum Curvature:  HOLE POS TYPE
 DMOD.             Drill Model:  DRILL MOD DESC
 SVYD.                  Survey:  SURVEY DESC
 ILTD.               Lithology:  INTERP LTH DESC
 FTOP.          Formation Tops:  FORM TOPS DESC
 RIG .              East Azeri:  RIG NAME
 PDAT.          Mean Sea Level:  PERMANENT DATUM
 FLD .                     ACG:  FIELD NAME
 SON .        AZ-XX-0907180857:  JOB NUMBER
 CTRY.              Azerbaijan:  COUNTRY NAME
 WELL.                    D23x:  WELL NAME
 SRVC.     Turan Drilling and Engineering:  CONTRACTOR
 COMP.     BP Exploration (Caspian Sea) Ltd.:  COMPANY
 UWI .            /AZE00000214:  UNIQUE WELL IDENTIFIER
 API .            /AZE00000214:  API NUMBER
 MDS .        Operator Entered:  MAG DATA SOURCE
 BASE.              Azerbaijan:  LOGGING EQUIPMENT BASE LOCATION
 REGN.                   EESSA:  REGION
 PROV.                    Baku:  PROVINCE
 STAT.                    Baku:  STATE NAME
 MWDS.                    Baku:  MWD SHOP
 DOE .                     N/A:  DOE NUMBER
 DCON.         Sperry Drilling:  DIRECTNL CONTR
 UNIT.                     N/A:  LOGGING EQUIPMENT ID
 WTYP.                Deviated:  WELL TYPE
 CNTY.                        :  COUNTY
 LOC .                        :  LOCATION
 LMF .             Drill Floor:  LOG MEASURED FROM
 TVDS.m                  43.60:  TVDSS CORRECTN
 LATI.deg                40.02:  LATITUDE
 LONG.deg                51.45:  LONGITUDE
 WHNS.m                  -7.04:  WELL HEAD N/S
 WHEW.m                  -0.67:  WELL HEAD E/W
 UTMX.m              538762.90:  UTM X
 UTMY.m             4431871.34:  UTM Y
 DFWL.m                   0.00:  DISTANCE FWL
 DFSL.m                   0.00:  DISTANCE FSL
 SDEP.m                4127.00:  START DEPTH
 TDD .m                5084.50:  TOTAL DEPTH (DRILLER)
 VSDR.deg               140.47:  VERT SEC DIRECT
 GVFD.g                   1.00:  GRAVITY FIELD
 MFLD.nT              50362.00:  MAGNETIC FIELD
 MDIP.deg                59.48:  MAGNETIC DIP
 MDEC.deg                 6.47:  MAGNETIC DECL
 GRDC.deg                 0.31:  GRID CORRECTION
 AZTC.deg                 6.16:  AZM TOTAL CORR
 EPD .m                   0.00:  ELEVATION
 EGL .m                   0.00:  GROUND ELEVATION
 WDMS.m                 151.80:  WD ELEV
 APD .m                  43.60:  DEPTH ABOVE PD
 DEP .m                4092.57:  DEPTH
 AGAP.m                  43.60:  AIR GAP
 VSEW.m                  -0.67:  VERT SEC E/W
 VSNS.m                  -7.04:  VERT SEC N/S
 EKB .m                  43.60:  KB ELEVATION
 EDF .m                  43.60:  DF ELEVATION
 TDL .m                 957.50:  TOTAL DEPTH (LOGGER)
 VSC .                       0:  VS TO CLOSURE
 MAGU.                 1851413:  MAGUTM CHECKSUM
~Parameter Information Block
#MNEM.UNIT       Value        Description
#---------     -----------    ---------------------------
 AV  .mps                 1.50:  Ann Velocity 
 AVMX.mps                 2.00:  Max Ann Veloc 
 AZIF.deg               184.66:  Azm, Final 
 BHAT.        Rotary Steerable:  BHA Type 
 BREV.rev               300.00:  Rev Bit Total 
 BROT.°/30m              -0.50:  Build Rotating 
 BS  .in                  8.50:  Bit Size 
 BSZ .in                  8.50:  Bit Size 
 BTPL.psig              370.00:  Bit Press Loss 
 CABU.                      No:  Customer Abuse 
 CGEO.      Behruz Shahbaliyev:  Customer Geo 
 COMM.                     <w:  Run Comments 1 
 TCS .hr                140.08:  Time Ciculation Ended 
 CV  .mps                 3.00:  Crit Velocity 
 CVMX.mps                 3.20:  Max Crit Veloc 
 DD1 .            Musa Ahmadov:  Direct Drillr 1 
 DD2 .           Hamid Ahmadov:  Direct Drillr 2 
 DDSV.               Geo-Pilot:  DD Service 
 DEFF.%                  98.40:  % Det Eff 
 DLRX.°/30m               3.40:  Dogleg Rot Max 
 DLSO.°/30m               1.45:  Dogleg Oriented 
 DLSX.°/30m               3.40:  Dogleg Str Max 
 DRET.      18.40.00 29-Aug-21:  Drill End Time 
 DRST.      21.00.00 20-Aug-21:  Drill Start Tim 
 DTIM.hr                 69.47:  Time Drilling 
 EDEP.m                5084.50:  End Depth 
 ENG1.      Artemiy Matviyanov:  Engineer 1 
 ENG2.         Almaz Almadatov:  Engineer 2 
 ETIM.      18.40.00 29-Aug-21:  End Time 
 FLOI.gpm               500.00:  Flow In 
 FLON.gpm               400.00:  Flow In Min 
 FLOS.cptm                0.00:  Fluid Loss 
 FLOX.gpm               500.00:  Flow In Max 
 DFT .        Mineral Oil Base:  Mud Type 
 HFLO.                      No:  High Flow 
 HPRE.                      No:  High Pressure 
 HTEM.                      No:  High Temp 
 HYDO.m                   1.80:  Hydro Offset 
 IFIN.deg                25.62:  Inc, Final 
 IMAX.deg                48.69:  Inc Max 
 IMIN.deg                24.01:  Inc Min 
 IMND.m                4962.57:  Inc Min Depth 
 IMXD.m                4119.01:  Inc Max Depth 
 JARR.                      No:  Jarring 
 LETM.      18.40.00 29-Aug-21:  Log End Time 
 LOST.hr                     0:  Lost Rig Time 
 LSTM.      21.00.00 20-Aug-21:  Log Start Time 
 MDCL.ppm             41500.00:  Mud Chlorides 
 MDES.     Inversion Oil/Synthetic:  Mud Desc 
 DFD .sg                  1.56:  Mud Density 
 MDMN.sg                  1.56:  Dens Mud Min 
 MDMX.sg                  1.56:  Dens Mud Max 
 MOIL.                      70:  Run Mud Oil % 
 MOWR.                   70:30:  Run Mud OWR 
 MSND.                     0.2:  Run Mud Sand % 
 MSOL.                    23.3:  Run Mud Solids% 
 DFV .spqt               78.00:  Mud Viscosity 
 MWOD.in                  6.75:  MWD Tool OD 
 MWSI.                      No:  Serv Intrp, MWD 
 OTIM.hr                218.30:  Time Operating 
 PCON.           Look Like New:  Pad Condition 
 PMAX.psia            11015.30:  Press Op, Max 
 PV  .cP                 38.00:  Mud PV 
 RUN .                     300:  Run Number 
 ROPA.m/hr               15.00:  ROP Avg 
 ROPN.m/hr                9.00:  ROP Min 
 ROPX.m/hr               17.00:  ROP Max 
 RPMA.rpm               120.00:  RPM Surface Avg 
 RPMN.rpm                90.00:  RPM Surface Min 
 RPMX.rpm               140.00:  RPM Surface Max 
 RRUN.                     300:  Rig Run Number 
 RTIM.hr                 31.53:  Time Reaming 
 SAZI.deg               331.64:  Azm, Start 
 SDEP.m                4127.00:  Start Depth 
 SIDD.                      No:  Serv Intrp, DD 
 SINC.deg                48.43:  Inc, Start 
 SPPA.psig             5830.00:  SPP Avg 
 SPPN.psig             5600.00:  SPP Min 
 SPPX.psig             5900.00:  SPP Max 
 STIM.      21.00.00 20-Aug-21:  Start Time 
 SVCS.                 DD, MWD:  Services 
 SVER.                    9.20:  Sperry Version 
 TDAT.m                 957.50:  Tot Depth Attmp 
 TDDF.                      No:  Trip for DD 
 TDLG.m                 957.50:  Tot Depth Loggd 
 TFF .                      No:  Trip for Fail 
 TQAA.f-kp               15.00:  Torque Abs Avg 
 TQAN.f-kp               12.00:  Torque Abs Min 
 TQAX.f-kp               19.00:  Torque Abs Max 
 TRRT.°/30m              -3.40:  Turn Rotating 
 MRT .                  EWR-M5:  Maximum Recorded Temperature 
 TTMX.degC              100.00:  Max Tool Temp 
 VS01.                90639251:  Virtual Str1 SN 
 VS02.                90634715:  Virtual Str2 SN 
 VS03.                90652479:  Virtual Str3 SN 
 VS04.                90642262:  Virtual Str4 SN 
 WBMN.klb                 0.00:  WOB Min 
 WITN.           Murad Guliyev:  Customer Rep 
 WITN.          Yashar Gaziyev:  Customer Rep 2 
 WOBA.klb                 9.00:  WOB Avg 
 WOBX.klb                12.00:  WOB Max 
 YP  .lhf2               30.00:  Yield Point 
~Curve Information Block
#MNEM.UNIT                 API CODE     Curve Description
#---------               -----------    ---------------------------
 TIME.HHMMSS            00 000 000 000:  GT Time & Date
 GTDEPTH.m              00 000 000 000:  GT Depth
 GTPQH.psia             00 000 000 000:  GT HR Quartz Pressure
 GTTQ.degC              00 000 000 000:  GT Quartz Temperature
 GTTN.NONE              00 000 000 000:  GT Test Number
 GTET.sec               00 000 000 000:  GT Elapsed Test Time
 GTTVD.m                00 000 000 000:  GT True Vertical Depth
#Other Information
#
#WARRANTY: Halliburton will use its best efforts to furnish customers with 
#accurate information and interpretations that are part of, and incident to, the services 
#provided.  However, Halliburton cannot and does not warrant the accuracy 
#or correctness of such information and interpretations.  Under no circumstances should any 
#such information or interpretation be relied upon as the sole basis for any drilling, 
#completion, production, or financial decision or any procedure involving any risk to the 
#safety of any drilling venture, drilling rig or its crew or any other third party.  The 
#Customer has full responsibility for all drilling, completion and production operation.  
#Halliburton makes no representations or warranties, either expressed or 
#implied, including, but not limited to, the implied warranties of merchantability or fitness 
#for a particular purpose, with respect to the services rendered.  In no event will 
#Halliburton be liable for failure to obtain any particular results or for 
#any damages, including, but not limited to, indirect, special or consequential damages, 
#resulting from the use of any information or interpretation provided by Halliburton.
#
~A           TIME           GTDEPTH  GTPQH  GTTQ  GTTN  GTET   GTTVD  
# ...
   08:52:39.452.27-Aug-2021 4965.00 1814.86 86.58 6.00  69.03 3307.85
   08:52:39.653.27-Aug-2021 4965.00 1814.86 86.58 6.00  69.23 3307.85
   08:52:39.853.27-Aug-2021 4965.00 1818.47 86.58 6.00  69.43 3307.85
   08:52:40.053.27-Aug-2021 4965.00 1820.24 86.58 6.00  69.63 3307.85
   08:52:40.253.27-Aug-2021 4965.00 1821.90 86.58 6.00  69.83 3307.85
   08:52:40.453.27-Aug-2021 4965.00 1823.56 86.58 6.00  70.03 3307.85
   08:52:40.653.27-Aug-2021 4965.00 1823.56 86.58 6.00  70.23 3307.85
   08:52:40.853.27-Aug-2021 4965.00 1826.80 86.58 6.00  70.43 3307.85
   08:52:41.053.27-Aug-2021 4965.00 1828.42 86.58 6.00  70.63 3307.85
   08:52:41.253.27-Aug-2021 4965.00 1829.99 86.58 6.00  70.83 3307.85
   08:52:41.453.27-Aug-2021 4965.00 1831.43 86.58 6.00  71.03 3307.85
   08:52:41.653.27-Aug-2021 4965.00 1831.43 86.58 6.00  71.23 3307.85
   08:52:41.853.27-Aug-2021 4965.00 1834.24 86.58 6.00  71.43 3307.85
   08:52:42.054.27-Aug-2021 4965.00 1835.49 86.58 6.00  71.63 3307.85
   08:52:42.254.27-Aug-2021 4965.00 1835.80 86.58 6.00  71.83 3307.85
   08:52:42.454.27-Aug-2021 4965.00 1836.82 86.58 6.00  72.03 3307.85
   08:52:42.654.27-Aug-2021 4965.00 1836.82 86.58 6.00  72.23 3307.85
   08:52:42.854.27-Aug-2021 4965.00 1839.13 86.58 6.00  72.43 3307.85
   08:52:43.054.27-Aug-2021 4965.00 1840.54 86.58 6.00  72.63 3307.85
   08:52:43.254.27-Aug-2021 4965.00 1841.98 86.58 6.00  72.83 3307.85
   08:52:43.454.27-Aug-2021 4965.00 1843.31 86.58 6.00  73.03 3307.85
   08:52:43.654.27-Aug-2021 4965.00 1843.31 86.58 6.00  73.23 3307.85
   08:52:43.854.27-Aug-2021 4965.00 1845.41 86.58 6.00  73.43 3307.85
   08:52:44.054.27-Aug-2021 4965.00 1846.60 86.58 6.00  73.63 3307.85
   08:52:44.254.27-Aug-2021 4965.00 1847.79 86.58 6.00  73.83 3307.85
   08:52:44.455.27-Aug-2021 4965.00 1849.18 86.58 6.00  74.03 3307.85
   08:52:44.655.27-Aug-2021 4965.00 1849.18 86.58 6.00  74.23 3307.85
   08:52:44.855.27-Aug-2021 4965.00 1852.00 86.58 6.00  74.43 3307.85
   08:52:45.055.27-Aug-2021 4965.00 1853.41 86.59 6.00  74.63 3307.85
   08:52:45.255.27-Aug-2021 4965.00 1854.57 86.59 6.00  74.83 3307.85
   08:52:45.455.27-Aug-2021 4965.00 1855.86 86.59 6.00  75.03 3307.85
   08:52:45.655.27-Aug-2021 4965.00 1855.86 86.59 6.00  75.23 3307.85
   08:52:45.855.27-Aug-2021 4965.00 1858.48 86.59 6.00  75.43 3307.85
   08:52:46.055.27-Aug-2021 4965.00 1860.15 86.59 6.00  75.63 3307.85
   08:52:46.255.27-Aug-2021 4965.00 1861.55 86.59 6.00  75.83 3307.85
   08:52:46.455.27-Aug-2021 4965.00 1862.88 86.59 6.00  76.03 3307.85
   08:52:46.655.27-Aug-2021 4965.00 1862.88 86.59 6.00  76.23 3307.85
   08:52:46.856.27-Aug-2021 4965.00 1866.01 86.59 6.00  76.43 3307.85
   08:52:47.056.27-Aug-2021 4965.00 1867.50 86.59 6.00  76.63 3307.85
   08:52:47.256.27-Aug-2021 4965.00 1868.88 86.59 6.00  76.83 3307.85
   08:52:47.456.27-Aug-2021 4965.00 1870.30 86.59 6.00  77.03 3307.85
   08:52:47.656.27-Aug-2021 4965.00 1870.30 86.59 6.00  77.23 3307.85
   08:52:47.856.27-Aug-2021 4965.00 1872.86 86.59 6.00  77.43 3307.85
   08:52:48.056.27-Aug-2021 4965.00 1874.12 86.59 6.00  77.63 3307.85
   08:52:48.256.27-Aug-2021 4965.00 1875.32 86.59 6.00  77.83 3307.85
   08:52:48.456.27-Aug-2021 4965.00 1876.37 86.59 6.00  78.03 3307.85
   08:52:48.656.27-Aug-2021 4965.00 1876.37 86.59 6.00  78.23 3307.85
   08:52:48.856.27-Aug-2021 4965.00 1878.02 86.59 6.00  78.43 3307.85
   08:52:49.056.27-Aug-2021 4965.00 1878.76 86.59 6.00  78.63 3307.85
   08:52:49.257.27-Aug-2021 4965.00 1879.98 86.59 6.00  78.83 3307.85
   08:52:49.457.27-Aug-2021 4965.00 1881.11 86.59 6.00  79.03 3307.85
   08:52:49.657.27-Aug-2021 4965.00 1881.11 86.59 6.00  79.23 3307.85
   08:52:49.857.27-Aug-2021 4965.00 1883.94 86.59 6.00  79.43 3307.85
   08:52:50.057.27-Aug-2021 4965.00 1885.22 86.59 6.00  79.63 3307.85
   08:52:50.257.27-Aug-2021 4965.00 1886.33 86.59 6.00  79.83 3307.85
   08:52:50.457.27-Aug-2021 4965.00 1887.52 86.59 6.00  80.03 3307.85
   08:52:50.657.27-Aug-2021 4965.00 1887.52 86.59 6.00  80.23 3307.85
   08:52:50.857.27-Aug-2021 4965.00 1889.80 86.59 6.00  80.43 3307.85
   08:52:51.057.27-Aug-2021 4965.00 1890.96 86.60 6.00  80.63 3307.85
   08:52:51.257.27-Aug-2021 4965.00 1892.07 86.60 6.00  80.83 3307.85
   08:52:51.457.27-Aug-2021 4965.00 1893.09 86.60 6.00  81.03 3307.85
   08:52:51.658.27-Aug-2021 4965.00 1893.09 86.60 6.00  81.23 3307.85
   08:52:51.858.27-Aug-2021 4965.00 1894.92 86.60 6.00  81.43 3307.85
   08:52:52.058.27-Aug-2021 4965.00 1895.84 86.60 6.00  81.63 3307.85
   08:52:52.258.27-Aug-2021 4965.00 1895.99 86.60 6.00  81.83 3307.85
   08:52:52.458.27-Aug-2021 4965.00 1897.04 86.60 6.00  82.03 3307.85
   08:52:52.658.27-Aug-2021 4965.00 1897.04 86.60 6.00  82.23 3307.85
   08:52:52.858.27-Aug-2021 4965.00 1897.04 86.60 6.00  82.43 3307.85
   08:52:53.058.27-Aug-2021 4965.00 1897.04 86.60 6.00  82.63 3307.85
   08:52:53.258.27-Aug-2021 4965.00 1901.33 86.60 6.00  82.83 3307.85
   08:52:53.458.27-Aug-2021 4965.00 1902.85 86.60 6.00  83.03 3307.85
   08:52:53.658.27-Aug-2021 4965.00 1902.85 86.60 6.00  83.23 3307.85
   08:52:53.858.27-Aug-2021 4965.00 1905.08 86.60 6.00  83.43 3307.85
   08:52:54.059.27-Aug-2021 4965.00 1905.70 86.60 6.00  83.63 3307.85
   08:52:54.259.27-Aug-2021 4965.00 1907.40 86.60 6.00  83.83 3307.85
   08:52:54.459.27-Aug-2021 4965.00 1908.81 86.60 6.00  84.03 3307.85
   08:52:54.659.27-Aug-2021 4965.00 1908.81 86.60 6.00  84.23 3307.85
   08:52:54.859.27-Aug-2021 4965.00 1911.74 86.60 6.00  84.44 3307.85
   08:52:55.059.27-Aug-2021 4965.00 1913.14 86.60 6.00  84.64 3307.85
   08:52:55.259.27-Aug-2021 4965.00 1913.62 86.60 6.00  84.84 3307.85
   08:52:55.459.27-Aug-2021 4965.00 1914.77 86.60 6.00  85.04 3307.85
   08:52:55.659.27-Aug-2021 4965.00 1914.77 86.60 6.00  85.24 3307.85
   08:52:55.859.27-Aug-2021 4965.00 1917.75 86.60 6.00  85.44 3307.85
   08:52:56.059.27-Aug-2021 4965.00 1919.32 86.60 6.00  85.64 3307.85
   08:52:56.259.27-Aug-2021 4965.00 1920.77 86.60 6.00  85.84 3307.85
   08:52:56.460.27-Aug-2021 4965.00 1922.02 86.60 6.00  86.04 3307.85
   08:52:56.660.27-Aug-2021 4965.00 1922.02 86.60 6.00  86.24 3307.85
   08:52:56.860.27-Aug-2021 4965.00 1924.38 86.60 6.00  86.44 3307.85
   08:52:57.060.27-Aug-2021 4965.00 1925.51 86.60 6.00  86.64 3307.85
   08:52:57.260.27-Aug-2021 4965.00 1926.66 86.60 6.00  86.84 3307.85
   08:52:57.460.27-Aug-2021 4965.00 1927.89 86.60 6.00  87.04 3307.85
   08:52:57.660.27-Aug-2021 4965.00 1927.89 86.60 6.00  87.24 3307.85
   08:52:57.860.27-Aug-2021 4965.00 1929.90 86.61 6.00  87.44 3307.85
   08:52:58.060.27-Aug-2021 4965.00 1930.92 86.61 6.00  87.64 3307.85
   08:52:58.260.27-Aug-2021 4965.00 1932.01 86.61 6.00  87.84 3307.85
   08:52:58.460.27-Aug-2021 4965.00 1931.90 86.61 6.00  88.04 3307.85
   08:52:58.660.27-Aug-2021 4965.00 1931.90 86.61 6.00  88.24 3307.85
   08:52:58.861.27-Aug-2021 4965.00 1933.71 86.61 6.00  88.44 3307.85
   08:52:59.061.27-Aug-2021 4965.00 1934.67 86.61 6.00  88.64 3307.85
   08:52:59.261.27-Aug-2021 4965.00 1935.89 86.61 6.00  88.84 3307.85
   08:52:59.461.27-Aug-2021 4965.00 1936.98 86.61 6.00  89.04 3307.85
   08:52:59.661.27-Aug-2021 4965.00 1936.98 86.61 6.00  89.24 3307.85
   08:52:59.861.27-Aug-2021 4965.00 1938.87 86.61 6.00  89.44 3307.85
   08:53:00.061.27-Aug-2021 4965.00 1939.86 86.61 6.00  89.64 3307.85
   08:53:00.261.27-Aug-2021 4965.00 1940.72 86.61 6.00  89.84 3307.85
   08:53:00.461.27-Aug-2021 4965.00 1941.62 86.61 6.00  90.04 3307.85
   08:53:00.661.27-Aug-2021 4965.00 1941.62 86.61 6.00  90.24 3307.85
   08:53:00.861.27-Aug-2021 4965.00 1943.37 86.61 6.00  90.44 3307.85
   08:53:01.061.27-Aug-2021 4965.00 1944.11 86.61 6.00  90.64 3307.85
   08:53:01.261.27-Aug-2021 4965.00 1944.88 86.61 6.00  90.84 3307.85
   08:53:01.462.27-Aug-2021 4965.00 1945.69 86.61 6.00  91.04 3307.85
   08:53:01.662.27-Aug-2021 4965.00 1945.69 86.61 6.00  91.24 3307.85
   08:53:01.862.27-Aug-2021 4965.00 1945.85 86.61 6.00  91.44 3307.85
   08:53:02.062.27-Aug-2021 4965.00 1946.54 86.61 6.00  91.64 3307.85
   08:53:02.262.27-Aug-2021 4965.00 1947.05 86.61 6.00  91.84 3307.85
