~Version Information
 VERS.                  2.0:   CWLS log ASCII Standard -VERSION 2.0
 WRAP.                   NO:   One line per depth step
~Well Information Block
#MNEM.UNIT     VALUE/NAME     DESCRIPTION
#---------     -----------    ---------------------------
 STRT.S             22:11:58 27-Aug-21: START TIME 22:11:58 27-Aug-21
 STOP.S             22:18:52 27-Aug-21: STOP TIME  22:18:52 27-Aug-21
 STEP.S                   0.00: STEP TIME
 NULL.                 -999.25: NULL VALUE
 DFWT.                        :  DIST FWL TEXT
 DFST.                        :  DIST FSL TEXT
 DMF .             Drill Floor:  DRILL MEAS FROM
 STIM.      20.00.00 17-Aug-21:  START TIME
 DATE.      19.00.00 29-Aug-21:  END TIME
 SPUD.               15-Aug-21:  SPUD DATE
 NREF.                    Grid:  NORTH REFERENCE
 HPTY.       Minimum Curvature:  HOLE POS TYPE
 DMOD.             Drill Model:  DRILL MOD DESC
 SVYD.                  Survey:  SURVEY DESC
 ILTD.               Lithology:  INTERP LTH DESC
 FTOP.          Formation Tops:  FORM TOPS DESC
 RIG .              East Azeri:  RIG NAME
 PDAT.          Mean Sea Level:  PERMANENT DATUM
 FLD .                     ACG:  FIELD NAME
 SON .        AZ-XX-0907180857:  JOB NUMBER
 CTRY.              Azerbaijan:  COUNTRY NAME
 WELL.                    D23x:  WELL NAME
 SRVC.     Turan Drilling and Engineering:  CONTRACTOR
 COMP.     BP Exploration (Caspian Sea) Ltd.:  COMPANY
 UWI .            /AZE00000214:  UNIQUE WELL IDENTIFIER
 API .            /AZE00000214:  API NUMBER
 MDS .        Operator Entered:  MAG DATA SOURCE
 BASE.              Azerbaijan:  LOGGING EQUIPMENT BASE LOCATION
 REGN.                   EESSA:  REGION
 PROV.                    Baku:  PROVINCE
 STAT.                    Baku:  STATE NAME
 MWDS.                    Baku:  MWD SHOP
 DOE .                     N/A:  DOE NUMBER
 DCON.         Sperry Drilling:  DIRECTNL CONTR
 UNIT.                     N/A:  LOGGING EQUIPMENT ID
 WTYP.                Deviated:  WELL TYPE
 CNTY.                        :  COUNTY
 LOC .                        :  LOCATION
 LMF .             Drill Floor:  LOG MEASURED FROM
 TVDS.m                  43.60:  TVDSS CORRECTN
 LATI.deg                40.02:  LATITUDE
 LONG.deg                51.45:  LONGITUDE
 WHNS.m                  -7.04:  WELL HEAD N/S
 WHEW.m                  -0.67:  WELL HEAD E/W
 UTMX.m              538762.90:  UTM X
 UTMY.m             4431871.34:  UTM Y
 DFWL.m                   0.00:  DISTANCE FWL
 DFSL.m                   0.00:  DISTANCE FSL
 SDEP.m                4127.00:  START DEPTH
 TDD .m                5084.50:  TOTAL DEPTH (DRILLER)
 VSDR.deg               140.47:  VERT SEC DIRECT
 GVFD.g                   1.00:  GRAVITY FIELD
 MFLD.nT              50362.00:  MAGNETIC FIELD
 MDIP.deg                59.48:  MAGNETIC DIP
 MDEC.deg                 6.47:  MAGNETIC DECL
 GRDC.deg                 0.31:  GRID CORRECTION
 AZTC.deg                 6.16:  AZM TOTAL CORR
 EPD .m                   0.00:  ELEVATION
 EGL .m                   0.00:  GROUND ELEVATION
 WDMS.m                 151.80:  WD ELEV
 APD .m                  43.60:  DEPTH ABOVE PD
 DEP .m                4092.57:  DEPTH
 AGAP.m                  43.60:  AIR GAP
 VSEW.m                  -0.67:  VERT SEC E/W
 VSNS.m                  -7.04:  VERT SEC N/S
 EKB .m                  43.60:  KB ELEVATION
 EDF .m                  43.60:  DF ELEVATION
 TDL .m                 957.50:  TOTAL DEPTH (LOGGER)
 VSC .                       0:  VS TO CLOSURE
 MAGU.                 1851413:  MAGUTM CHECKSUM
~Parameter Information Block
#MNEM.UNIT       Value        Description
#---------     -----------    ---------------------------
 AV  .mps                 1.50:  Ann Velocity 
 AVMX.mps                 2.00:  Max Ann Veloc 
 AZIF.deg               184.66:  Azm, Final 
 BHAT.        Rotary Steerable:  BHA Type 
 BREV.rev               300.00:  Rev Bit Total 
 BROT.°/30m              -0.50:  Build Rotating 
 BS  .in                  8.50:  Bit Size 
 BSZ .in                  8.50:  Bit Size 
 BTPL.psig              370.00:  Bit Press Loss 
 CABU.                      No:  Customer Abuse 
 CGEO.      Behruz Shahbaliyev:  Customer Geo 
 COMM.                     Tªl:  Run Comments 1 
 TCS .hr                140.08:  Time Ciculation Ended 
 CV  .mps                 3.00:  Crit Velocity 
 CVMX.mps                 3.20:  Max Crit Veloc 
 DD1 .            Musa Ahmadov:  Direct Drillr 1 
 DD2 .           Hamid Ahmadov:  Direct Drillr 2 
 DDSV.               Geo-Pilot:  DD Service 
 DEFF.%                  98.40:  % Det Eff 
 DLRX.°/30m               3.40:  Dogleg Rot Max 
 DLSO.°/30m               1.45:  Dogleg Oriented 
 DLSX.°/30m               3.40:  Dogleg Str Max 
 DRET.      18.40.00 29-Aug-21:  Drill End Time 
 DRST.      21.00.00 20-Aug-21:  Drill Start Tim 
 DTIM.hr                 69.47:  Time Drilling 
 EDEP.m                5084.50:  End Depth 
 ENG1.      Artemiy Matviyanov:  Engineer 1 
 ENG2.         Almaz Almadatov:  Engineer 2 
 ETIM.      18.40.00 29-Aug-21:  End Time 
 FLOI.gpm               500.00:  Flow In 
 FLON.gpm               400.00:  Flow In Min 
 FLOS.cptm                0.00:  Fluid Loss 
 FLOX.gpm               500.00:  Flow In Max 
 DFT .        Mineral Oil Base:  Mud Type 
 HFLO.                      No:  High Flow 
 HPRE.                      No:  High Pressure 
 HTEM.                      No:  High Temp 
 HYDO.m                   1.80:  Hydro Offset 
 IFIN.deg                25.62:  Inc, Final 
 IMAX.deg                48.69:  Inc Max 
 IMIN.deg                24.01:  Inc Min 
 IMND.m                4962.57:  Inc Min Depth 
 IMXD.m                4119.01:  Inc Max Depth 
 JARR.                      No:  Jarring 
 LETM.      18.40.00 29-Aug-21:  Log End Time 
 LOST.hr                     0:  Lost Rig Time 
 LSTM.      21.00.00 20-Aug-21:  Log Start Time 
 MDCL.ppm             41500.00:  Mud Chlorides 
 MDES.     Inversion Oil/Synthetic:  Mud Desc 
 DFD .sg                  1.56:  Mud Density 
 MDMN.sg                  1.56:  Dens Mud Min 
 MDMX.sg                  1.56:  Dens Mud Max 
 MOIL.                      70:  Run Mud Oil % 
 MOWR.                   70:30:  Run Mud OWR 
 MSND.                     0.2:  Run Mud Sand % 
 MSOL.                    23.3:  Run Mud Solids% 
 DFV .spqt               78.00:  Mud Viscosity 
 MWOD.in                  6.75:  MWD Tool OD 
 MWSI.                      No:  Serv Intrp, MWD 
 OTIM.hr                218.30:  Time Operating 
 PCON.           Look Like New:  Pad Condition 
 PMAX.psia            11015.30:  Press Op, Max 
 PV  .cP                 38.00:  Mud PV 
 RUN .                     300:  Run Number 
 ROPA.m/hr               15.00:  ROP Avg 
 ROPN.m/hr                9.00:  ROP Min 
 ROPX.m/hr               17.00:  ROP Max 
 RPMA.rpm               120.00:  RPM Surface Avg 
 RPMN.rpm                90.00:  RPM Surface Min 
 RPMX.rpm               140.00:  RPM Surface Max 
 RRUN.                     300:  Rig Run Number 
 RTIM.hr                 31.53:  Time Reaming 
 SAZI.deg               331.64:  Azm, Start 
 SDEP.m                4127.00:  Start Depth 
 SIDD.                      No:  Serv Intrp, DD 
 SINC.deg                48.43:  Inc, Start 
 SPPA.psig             5830.00:  SPP Avg 
 SPPN.psig             5600.00:  SPP Min 
 SPPX.psig             5900.00:  SPP Max 
 STIM.      21.00.00 20-Aug-21:  Start Time 
 SVCS.                 DD, MWD:  Services 
 SVER.                    9.20:  Sperry Version 
 TDAT.m                 957.50:  Tot Depth Attmp 
 TDDF.                      No:  Trip for DD 
 TDLG.m                 957.50:  Tot Depth Loggd 
 TFF .                      No:  Trip for Fail 
 TQAA.f-kp               15.00:  Torque Abs Avg 
 TQAN.f-kp               12.00:  Torque Abs Min 
 TQAX.f-kp               19.00:  Torque Abs Max 
 TRRT.°/30m              -3.40:  Turn Rotating 
 MRT .                  EWR-M5:  Maximum Recorded Temperature 
 TTMX.degC              100.00:  Max Tool Temp 
 VS01.                90639251:  Virtual Str1 SN 
 VS02.                90634715:  Virtual Str2 SN 
 VS03.                90652479:  Virtual Str3 SN 
 VS04.                90642262:  Virtual Str4 SN 
 WBMN.klb                 0.00:  WOB Min 
 WITN.           Murad Guliyev:  Customer Rep 
 WITN.          Yashar Gaziyev:  Customer Rep 2 
 WOBA.klb                 9.00:  WOB Avg 
 WOBX.klb                12.00:  WOB Max 
 YP  .lhf2               30.00:  Yield Point 
~Curve Information Block
#MNEM.UNIT                 API CODE     Curve Description
#---------               -----------    ---------------------------
 TIME.HHMMSS            00 000 000 000:  GT Time & Date
 GTDEPTH.m              00 000 000 000:  GT Depth
 GTPQH.psia             00 000 000 000:  GT HR Quartz Pressure
 GTTQ.degC              00 000 000 000:  GT Quartz Temperature
 GTTN.NONE              00 000 000 000:  GT Test Number
 GTET.sec               00 000 000 000:  GT Elapsed Test Time
 GTTVD.m                00 000 000 000:  GT True Vertical Depth
#Other Information
#
#WARRANTY: Halliburton will use its best efforts to furnish customers with 
#accurate information and interpretations that are part of, and incident to, the services 
#provided.  However, Halliburton cannot and does not warrant the accuracy 
#or correctness of such information and interpretations.  Under no circumstances should any 
#such information or interpretation be relied upon as the sole basis for any drilling, 
#completion, production, or financial decision or any procedure involving any risk to the 
#safety of any drilling venture, drilling rig or its crew or any other third party.  The 
#Customer has full responsibility for all drilling, completion and production operation.  
#Halliburton makes no representations or warranties, either expressed or 
#implied, including, but not limited to, the implied warranties of merchantability or fitness 
#for a particular purpose, with respect to the services rendered.  In no event will 
#Halliburton be liable for failure to obtain any particular results or for 
#any damages, including, but not limited to, indirect, special or consequential damages, 
#resulting from the use of any information or interpretation provided by Halliburton.
#
~A           TIME           GTDEPTH  GTPQH  GTTQ  GTTN   GTET   GTTVD  
# ...
   22:18:00.183.27-Aug-2021 4635.80 4238.74 82.38 24.00 361.64 3009.39
   22:18:00.383.27-Aug-2021 4635.80 4240.73 82.38 24.00 361.84 3009.39
   22:18:00.583.27-Aug-2021 4635.80 4242.73 82.38 24.00 362.04 3009.39
   22:18:00.783.27-Aug-2021 4635.80 4242.73 82.38 24.00 362.24 3009.39
   22:18:00.983.27-Aug-2021 4635.80 4246.78 82.38 24.00 362.44 3009.39
   22:18:01.183.27-Aug-2021 4635.80 4248.90 82.38 24.00 362.64 3009.39
   22:18:01.383.27-Aug-2021 4635.80 4250.99 82.38 24.00 362.84 3009.39
   22:18:01.583.27-Aug-2021 4635.80 4253.10 82.38 24.00 363.04 3009.39
   22:18:01.783.27-Aug-2021 4635.80 4253.10 82.38 24.00 363.24 3009.39
   22:18:01.983.27-Aug-2021 4635.80 4257.23 82.38 24.00 363.44 3009.39
   22:18:02.183.27-Aug-2021 4635.80 4259.24 82.38 24.00 363.64 3009.39
   22:18:02.383.27-Aug-2021 4635.80 4259.91 82.38 24.00 363.84 3009.39
   22:18:02.583.27-Aug-2021 4635.80 4261.88 82.38 24.00 364.04 3009.39
   22:18:02.783.27-Aug-2021 4635.80 4261.88 82.38 24.00 364.24 3009.39
   22:18:02.983.27-Aug-2021 4635.80 4265.14 82.38 24.00 364.44 3009.39
   22:18:03.183.27-Aug-2021 4635.80 4266.17 82.38 24.00 364.64 3009.39
   22:18:03.383.27-Aug-2021 4635.80 4268.12 82.38 24.00 364.84 3009.39
   22:18:03.583.27-Aug-2021 4635.80 4269.55 82.38 24.00 365.04 3009.39
   22:18:03.783.27-Aug-2021 4635.80 4269.55 82.38 24.00 365.24 3009.39
   22:18:03.983.27-Aug-2021 4635.80 4273.06 82.38 24.00 365.44 3009.39
   22:18:04.183.27-Aug-2021 4635.80 4274.80 82.38 24.00 365.64 3009.39
   22:18:04.383.27-Aug-2021 4635.80 4275.85 82.38 24.00 365.84 3009.39
   22:18:04.583.27-Aug-2021 4635.80 4277.76 82.38 24.00 366.04 3009.39
   22:18:04.783.27-Aug-2021 4635.80 4277.76 82.38 24.00 366.24 3009.39
   22:18:04.983.27-Aug-2021 4635.80 4281.30 82.38 24.00 366.44 3009.39
   22:18:05.183.27-Aug-2021 4635.80 4283.19 82.38 24.00 366.64 3009.39
   22:18:05.383.27-Aug-2021 4635.80 4284.96 82.38 24.00 366.84 3009.39
   22:18:05.583.27-Aug-2021 4635.80 4286.14 82.38 24.00 367.04 3009.39
   22:18:05.783.27-Aug-2021 4635.80 4286.14 82.38 24.00 367.24 3009.39
   22:18:05.983.27-Aug-2021 4635.80 4286.14 82.38 24.00 367.44 3009.39
   22:18:06.183.27-Aug-2021 4635.80 4291.47 82.38 24.00 367.64 3009.39
   22:18:06.383.27-Aug-2021 4635.80 4293.09 82.38 24.00 367.84 3009.39
   22:18:06.583.27-Aug-2021 4635.80 4294.60 82.38 24.00 368.04 3009.39
   22:18:06.783.27-Aug-2021 4635.80 4294.60 82.38 24.00 368.24 3009.39
   22:18:06.983.27-Aug-2021 4635.80 4298.15 82.38 24.00 368.44 3009.39
   22:18:07.183.27-Aug-2021 4635.80 4299.99 82.38 24.00 368.64 3009.39
   22:18:07.383.27-Aug-2021 4635.80 4301.79 82.38 24.00 368.84 3009.39
   22:18:07.583.27-Aug-2021 4635.80 4303.58 82.38 24.00 369.04 3009.39
   22:18:07.784.27-Aug-2021 4635.80 4303.58 82.38 24.00 369.24 3009.39
   22:18:07.984.27-Aug-2021 4635.80 4307.13 82.38 24.00 369.44 3009.39
   22:18:08.184.27-Aug-2021 4635.80 4308.91 82.38 24.00 369.64 3009.39
   22:18:08.384.27-Aug-2021 4635.80 4310.68 82.38 24.00 369.84 3009.39
   22:18:08.584.27-Aug-2021 4635.80 4311.33 82.38 24.00 370.04 3009.39
   22:18:08.784.27-Aug-2021 4635.80 4311.33 82.38 24.00 370.24 3009.39
   22:18:08.984.27-Aug-2021 4635.80 4314.71 82.38 24.00 370.44 3009.39
   22:18:09.184.27-Aug-2021 4635.80 4316.29 82.38 24.00 370.64 3009.39
   22:18:09.384.27-Aug-2021 4635.80 4318.03 82.38 24.00 370.84 3009.39
   22:18:09.584.27-Aug-2021 4635.80 4319.79 82.38 24.00 371.04 3009.39
   22:18:09.784.27-Aug-2021 4635.80 4319.79 82.38 24.00 371.24 3009.39
   22:18:09.984.27-Aug-2021 4635.80 4323.01 82.38 24.00 371.44 3009.39
   22:18:10.184.27-Aug-2021 4635.80 4324.40 82.38 24.00 371.64 3009.39
   22:18:10.384.27-Aug-2021 4635.80 4325.66 82.38 24.00 371.84 3009.39
   22:18:10.584.27-Aug-2021 4635.80 4327.17 82.38 24.00 372.04 3009.39
   22:18:10.784.27-Aug-2021 4635.80 4327.17 82.38 24.00 372.24 3009.39
   22:18:10.984.27-Aug-2021 4635.80 4330.42 82.38 24.00 372.44 3009.39
   22:18:11.184.27-Aug-2021 4635.80 4332.09 82.38 24.00 372.64 3009.39
   22:18:11.384.27-Aug-2021 4635.80 4333.74 82.38 24.00 372.84 3009.39
   22:18:11.584.27-Aug-2021 4635.80 4335.38 82.38 24.00 373.04 3009.39
   22:18:11.784.27-Aug-2021 4635.80 4335.38 82.38 24.00 373.24 3009.39
   22:18:11.984.27-Aug-2021 4635.80 4337.40 82.38 24.00 373.44 3009.39
   22:18:12.184.27-Aug-2021 4635.80 4339.08 82.38 24.00 373.64 3009.39
   22:18:12.384.27-Aug-2021 4635.80 4340.41 82.38 24.00 373.84 3009.39
   22:18:12.584.27-Aug-2021 4635.80 4341.98 82.38 24.00 374.04 3009.39
   22:18:12.784.27-Aug-2021 4635.80 4341.98 82.38 24.00 374.24 3009.39
   22:18:12.984.27-Aug-2021 4635.80 4345.19 82.38 24.00 374.44 3009.39
   22:18:13.184.27-Aug-2021 4635.80 4345.61 82.38 24.00 374.64 3009.39
   22:18:13.384.27-Aug-2021 4635.80 4347.70 82.38 24.00 374.84 3009.39
   22:18:13.584.27-Aug-2021 4635.80 4348.69 82.38 24.00 375.04 3009.39
   22:18:13.784.27-Aug-2021 4635.80 4348.69 82.38 24.00 375.24 3009.39
   22:18:13.984.27-Aug-2021 4635.80 4350.89 82.38 24.00 375.44 3009.39
   22:18:14.184.27-Aug-2021 4635.80 4352.76 82.38 24.00 375.64 3009.39
   22:18:14.384.27-Aug-2021 4635.80 4353.76 82.38 24.00 375.84 3009.39
   22:18:14.584.27-Aug-2021 4635.80 4354.96 82.38 24.00 376.04 3009.39
   22:18:14.784.27-Aug-2021 4635.80 4354.96 82.38 24.00 376.24 3009.39
   22:18:14.984.27-Aug-2021 4635.80 4357.51 82.38 24.00 376.44 3009.39
   22:18:15.184.27-Aug-2021 4635.80 4358.86 82.38 24.00 376.64 3009.39
   22:18:15.384.27-Aug-2021 4635.80 4359.63 82.38 24.00 376.84 3009.39
   22:18:15.584.27-Aug-2021 4635.80 4361.39 82.38 24.00 377.04 3009.39
   22:18:15.784.27-Aug-2021 4635.80 4361.39 82.38 24.00 377.24 3009.39
   22:18:15.984.27-Aug-2021 4635.80 4364.70 82.38 24.00 377.44 3009.39
   22:18:16.184.27-Aug-2021 4635.80 4415.49 82.38 24.00 377.64 3009.39
   22:18:16.384.27-Aug-2021 4635.80 4541.13 82.38 24.00 377.84 3009.39
   22:18:16.584.27-Aug-2021 4635.80 6286.10 82.38 24.00 378.04 3009.39
   22:18:16.784.27-Aug-2021 4635.80 6286.10 82.38 24.00 378.24 3009.39
   22:18:16.984.27-Aug-2021 4635.80 7195.42 82.38 24.00 378.44 3009.39
   22:18:17.184.27-Aug-2021 4635.80 7195.31 82.38 24.00 378.64 3009.39
   22:18:17.384.27-Aug-2021 4635.80 7195.60 82.38 24.00 378.84 3009.39
   22:18:17.585.27-Aug-2021 4635.80 7195.77 82.38 24.00 379.04 3009.39
   22:18:17.785.27-Aug-2021 4635.80 7195.77 82.38 24.00 379.24 3009.39
   22:18:17.985.27-Aug-2021 4635.80 7196.43 82.38 24.00 379.44 3009.39
   22:18:18.185.27-Aug-2021 4635.80 7196.99 82.38 24.00 379.64 3009.39
   22:18:18.385.27-Aug-2021 4635.80 7197.42 82.39 24.00 379.84 3009.39
   22:18:18.585.27-Aug-2021 4635.80 7201.87 82.39 24.00 380.04 3009.39
   22:18:18.785.27-Aug-2021 4635.80 7201.87 82.39 24.00 380.24 3009.39
   22:18:18.985.27-Aug-2021 4635.80 7199.50 82.39 24.00 380.44 3009.39
   22:18:19.185.27-Aug-2021 4635.80 7199.98 82.39 24.00 380.64 3009.39
   22:18:19.385.27-Aug-2021 4635.80 7199.98 82.39 24.00 380.84 3009.39
   22:18:19.585.27-Aug-2021 4635.80 7201.04 82.40 24.00 381.04 3009.39
   22:18:19.785.27-Aug-2021 4635.80 7201.04 82.40 24.00 381.24 3009.39
   22:18:19.985.27-Aug-2021 4635.80 7200.79 82.40 24.00 381.44 3009.39
   22:18:20.185.27-Aug-2021 4635.80 7200.89 82.40 24.00 381.64 3009.39
   22:18:20.385.27-Aug-2021 4635.80 7201.12 82.41 24.00 381.84 3009.39
   22:18:20.585.27-Aug-2021 4635.80 7201.28 82.41 24.00 382.04 3009.39
   22:18:20.785.27-Aug-2021 4635.80 7201.28 82.41 24.00 382.24 3009.39
   22:18:20.985.27-Aug-2021 4635.80 7201.32 82.41 24.00 382.44 3009.39
   22:18:21.185.27-Aug-2021 4635.80 7201.48 82.41 24.00 382.64 3009.39
   22:18:21.385.27-Aug-2021 4635.80 7201.58 82.42 24.00 382.84 3009.39
   22:18:21.585.27-Aug-2021 4635.80 7201.69 82.42 24.00 383.04 3009.39
   22:18:21.785.27-Aug-2021 4635.80 7201.69 82.42 24.00 383.24 3009.39
   22:18:21.985.27-Aug-2021 4635.80 7200.81 82.42 24.00 383.44 3009.39
   22:18:22.185.27-Aug-2021 4635.80 7202.75 82.42 24.00 383.64 3009.39
   22:18:22.385.27-Aug-2021 4635.80 7202.19 82.42 24.00 383.84 3009.39
   22:18:22.585.27-Aug-2021 4635.80 7203.18 82.43 24.00 384.04 3009.39
