~Version Information
 VERS.                  2.0:   CWLS log ASCII Standard -VERSION 2.0
 WRAP.                   NO:   One line per depth step
~Well Information Block
#MNEM.UNIT     VALUE/NAME     DESCRIPTION
#---------     -----------    ---------------------------
 STRT.S             15:52:10 27-Aug-21: START TIME 15:52:10 27-Aug-21
 STOP.S             15:59:26 27-Aug-21: STOP TIME  15:59:26 27-Aug-21
 STEP.S                   0.00: STEP TIME
 NULL.                 -999.25: NULL VALUE
 DFWT.                        :  DIST FWL TEXT
 DFST.                        :  DIST FSL TEXT
 DMF .             Drill Floor:  DRILL MEAS FROM
 STIM.      20.00.00 17-Aug-21:  START TIME
 DATE.      19.00.00 29-Aug-21:  END TIME
 SPUD.               15-Aug-21:  SPUD DATE
 NREF.                    Grid:  NORTH REFERENCE
 HPTY.       Minimum Curvature:  HOLE POS TYPE
 DMOD.             Drill Model:  DRILL MOD DESC
 SVYD.                  Survey:  SURVEY DESC
 ILTD.               Lithology:  INTERP LTH DESC
 FTOP.          Formation Tops:  FORM TOPS DESC
 RIG .              East Azeri:  RIG NAME
 PDAT.          Mean Sea Level:  PERMANENT DATUM
 FLD .                     ACG:  FIELD NAME
 SON .        AZ-XX-0907180857:  JOB NUMBER
 CTRY.              Azerbaijan:  COUNTRY NAME
 WELL.                    D23x:  WELL NAME
 SRVC.     Turan Drilling and Engineering:  CONTRACTOR
 COMP.     BP Exploration (Caspian Sea) Ltd.:  COMPANY
 UWI .            /AZE00000214:  UNIQUE WELL IDENTIFIER
 API .            /AZE00000214:  API NUMBER
 MDS .        Operator Entered:  MAG DATA SOURCE
 BASE.              Azerbaijan:  LOGGING EQUIPMENT BASE LOCATION
 REGN.                   EESSA:  REGION
 PROV.                    Baku:  PROVINCE
 STAT.                    Baku:  STATE NAME
 MWDS.                    Baku:  MWD SHOP
 DOE .                     N/A:  DOE NUMBER
 DCON.         Sperry Drilling:  DIRECTNL CONTR
 UNIT.                     N/A:  LOGGING EQUIPMENT ID
 WTYP.                Deviated:  WELL TYPE
 CNTY.                        :  COUNTY
 LOC .                        :  LOCATION
 LMF .             Drill Floor:  LOG MEASURED FROM
 TVDS.m                  43.60:  TVDSS CORRECTN
 LATI.deg                40.02:  LATITUDE
 LONG.deg                51.45:  LONGITUDE
 WHNS.m                  -7.04:  WELL HEAD N/S
 WHEW.m                  -0.67:  WELL HEAD E/W
 UTMX.m              538762.90:  UTM X
 UTMY.m             4431871.34:  UTM Y
 DFWL.m                   0.00:  DISTANCE FWL
 DFSL.m                   0.00:  DISTANCE FSL
 SDEP.m                4127.00:  START DEPTH
 TDD .m                5084.50:  TOTAL DEPTH (DRILLER)
 VSDR.deg               140.47:  VERT SEC DIRECT
 GVFD.g                   1.00:  GRAVITY FIELD
 MFLD.nT              50362.00:  MAGNETIC FIELD
 MDIP.deg                59.48:  MAGNETIC DIP
 MDEC.deg                 6.47:  MAGNETIC DECL
 GRDC.deg                 0.31:  GRID CORRECTION
 AZTC.deg                 6.16:  AZM TOTAL CORR
 EPD .m                   0.00:  ELEVATION
 EGL .m                   0.00:  GROUND ELEVATION
 WDMS.m                 151.80:  WD ELEV
 APD .m                  43.60:  DEPTH ABOVE PD
 DEP .m                4092.57:  DEPTH
 AGAP.m                  43.60:  AIR GAP
 VSEW.m                  -0.67:  VERT SEC E/W
 VSNS.m                  -7.04:  VERT SEC N/S
 EKB .m                  43.60:  KB ELEVATION
 EDF .m                  43.60:  DF ELEVATION
 TDL .m                 957.50:  TOTAL DEPTH (LOGGER)
 VSC .                       0:  VS TO CLOSURE
 MAGU.                 1851413:  MAGUTM CHECKSUM
~Parameter Information Block
#MNEM.UNIT       Value        Description
#---------     -----------    ---------------------------
 AV  .mps                 1.50:  Ann Velocity 
 AVMX.mps                 2.00:  Max Ann Veloc 
 AZIF.deg               184.66:  Azm, Final 
 BHAT.        Rotary Steerable:  BHA Type 
 BREV.rev               300.00:  Rev Bit Total 
 BROT.°/30m              -0.50:  Build Rotating 
 BS  .in                  8.50:  Bit Size 
 BSZ .in                  8.50:  Bit Size 
 BTPL.psig              370.00:  Bit Press Loss 
 CABU.                      No:  Customer Abuse 
 CGEO.      Behruz Shahbaliyev:  Customer Geo 
 COMM.                     Ìu:  Run Comments 1 
 TCS .hr                140.08:  Time Ciculation Ended 
 CV  .mps                 3.00:  Crit Velocity 
 CVMX.mps                 3.20:  Max Crit Veloc 
 DD1 .            Musa Ahmadov:  Direct Drillr 1 
 DD2 .           Hamid Ahmadov:  Direct Drillr 2 
 DDSV.               Geo-Pilot:  DD Service 
 DEFF.%                  98.40:  % Det Eff 
 DLRX.°/30m               3.40:  Dogleg Rot Max 
 DLSO.°/30m               1.45:  Dogleg Oriented 
 DLSX.°/30m               3.40:  Dogleg Str Max 
 DRET.      18.40.00 29-Aug-21:  Drill End Time 
 DRST.      21.00.00 20-Aug-21:  Drill Start Tim 
 DTIM.hr                 69.47:  Time Drilling 
 EDEP.m                5084.50:  End Depth 
 ENG1.      Artemiy Matviyanov:  Engineer 1 
 ENG2.         Almaz Almadatov:  Engineer 2 
 ETIM.      18.40.00 29-Aug-21:  End Time 
 FLOI.gpm               500.00:  Flow In 
 FLON.gpm               400.00:  Flow In Min 
 FLOS.cptm                0.00:  Fluid Loss 
 FLOX.gpm               500.00:  Flow In Max 
 DFT .        Mineral Oil Base:  Mud Type 
 HFLO.                      No:  High Flow 
 HPRE.                      No:  High Pressure 
 HTEM.                      No:  High Temp 
 HYDO.m                   1.80:  Hydro Offset 
 IFIN.deg                25.62:  Inc, Final 
 IMAX.deg                48.69:  Inc Max 
 IMIN.deg                24.01:  Inc Min 
 IMND.m                4962.57:  Inc Min Depth 
 IMXD.m                4119.01:  Inc Max Depth 
 JARR.                      No:  Jarring 
 LETM.      18.40.00 29-Aug-21:  Log End Time 
 LOST.hr                     0:  Lost Rig Time 
 LSTM.      21.00.00 20-Aug-21:  Log Start Time 
 MDCL.ppm             41500.00:  Mud Chlorides 
 MDES.     Inversion Oil/Synthetic:  Mud Desc 
 DFD .sg                  1.56:  Mud Density 
 MDMN.sg                  1.56:  Dens Mud Min 
 MDMX.sg                  1.56:  Dens Mud Max 
 MOIL.                      70:  Run Mud Oil % 
 MOWR.                   70:30:  Run Mud OWR 
 MSND.                     0.2:  Run Mud Sand % 
 MSOL.                    23.3:  Run Mud Solids% 
 DFV .spqt               78.00:  Mud Viscosity 
 MWOD.in                  6.75:  MWD Tool OD 
 MWSI.                      No:  Serv Intrp, MWD 
 OTIM.hr                218.30:  Time Operating 
 PCON.           Look Like New:  Pad Condition 
 PMAX.psia            11015.30:  Press Op, Max 
 PV  .cP                 38.00:  Mud PV 
 RUN .                     300:  Run Number 
 ROPA.m/hr               15.00:  ROP Avg 
 ROPN.m/hr                9.00:  ROP Min 
 ROPX.m/hr               17.00:  ROP Max 
 RPMA.rpm               120.00:  RPM Surface Avg 
 RPMN.rpm                90.00:  RPM Surface Min 
 RPMX.rpm               140.00:  RPM Surface Max 
 RRUN.                     300:  Rig Run Number 
 RTIM.hr                 31.53:  Time Reaming 
 SAZI.deg               331.64:  Azm, Start 
 SDEP.m                4127.00:  Start Depth 
 SIDD.                      No:  Serv Intrp, DD 
 SINC.deg                48.43:  Inc, Start 
 SPPA.psig             5830.00:  SPP Avg 
 SPPN.psig             5600.00:  SPP Min 
 SPPX.psig             5900.00:  SPP Max 
 STIM.      21.00.00 20-Aug-21:  Start Time 
 SVCS.                 DD, MWD:  Services 
 SVER.                    9.20:  Sperry Version 
 TDAT.m                 957.50:  Tot Depth Attmp 
 TDDF.                      No:  Trip for DD 
 TDLG.m                 957.50:  Tot Depth Loggd 
 TFF .                      No:  Trip for Fail 
 TQAA.f-kp               15.00:  Torque Abs Avg 
 TQAN.f-kp               12.00:  Torque Abs Min 
 TQAX.f-kp               19.00:  Torque Abs Max 
 TRRT.°/30m              -3.40:  Turn Rotating 
 MRT .                  EWR-M5:  Maximum Recorded Temperature 
 TTMX.degC              100.00:  Max Tool Temp 
 VS01.                90639251:  Virtual Str1 SN 
 VS02.                90634715:  Virtual Str2 SN 
 VS03.                90652479:  Virtual Str3 SN 
 VS04.                90642262:  Virtual Str4 SN 
 WBMN.klb                 0.00:  WOB Min 
 WITN.           Murad Guliyev:  Customer Rep 
 WITN.          Yashar Gaziyev:  Customer Rep 2 
 WOBA.klb                 9.00:  WOB Avg 
 WOBX.klb                12.00:  WOB Max 
 YP  .lhf2               30.00:  Yield Point 
~Curve Information Block
#MNEM.UNIT                 API CODE     Curve Description
#---------               -----------    ---------------------------
 TIME.HHMMSS            00 000 000 000:  GT Time & Date
 GTDEPTH.m              00 000 000 000:  GT Depth
 GTPQH.psia             00 000 000 000:  GT HR Quartz Pressure
 GTTQ.degC              00 000 000 000:  GT Quartz Temperature
 GTTN.NONE              00 000 000 000:  GT Test Number
 GTET.sec               00 000 000 000:  GT Elapsed Test Time
 GTTVD.m                00 000 000 000:  GT True Vertical Depth
#Other Information
#
#WARRANTY: Halliburton will use its best efforts to furnish customers with 
#accurate information and interpretations that are part of, and incident to, the services 
#provided.  However, Halliburton cannot and does not warrant the accuracy 
#or correctness of such information and interpretations.  Under no circumstances should any 
#such information or interpretation be relied upon as the sole basis for any drilling, 
#completion, production, or financial decision or any procedure involving any risk to the 
#safety of any drilling venture, drilling rig or its crew or any other third party.  The 
#Customer has full responsibility for all drilling, completion and production operation.  
#Halliburton makes no representations or warranties, either expressed or 
#implied, including, but not limited to, the implied warranties of merchantability or fitness 
#for a particular purpose, with respect to the services rendered.  In no event will 
#Halliburton be liable for failure to obtain any particular results or for 
#any damages, including, but not limited to, indirect, special or consequential damages, 
#resulting from the use of any information or interpretation provided by Halliburton.
#
~A           TIME           GTDEPTH  GTPQH  GTTQ  GTTN   GTET   GTTVD  
# ...
   15:53:41.315.27-Aug-2021 4817.00 5229.87 83.63 16.00  90.54 3173.43
   15:53:41.515.27-Aug-2021 4817.00 5230.07 83.63 16.00  90.74 3173.43
   15:53:41.716.27-Aug-2021 4817.00 5230.10 83.63 16.00  90.94 3173.43
   15:53:41.916.27-Aug-2021 4817.00 5229.91 83.63 16.00  91.14 3173.43
   15:53:42.116.27-Aug-2021 4817.00 5229.91 83.63 16.00  91.35 3173.43
   15:53:42.317.27-Aug-2021 4817.00 5229.85 83.63 16.00  91.55 3173.43
   15:53:42.517.27-Aug-2021 4817.00 5229.90 83.63 16.00  91.75 3173.43
   15:53:42.717.27-Aug-2021 4817.00 5229.99 83.63 16.00  91.95 3173.43
   15:53:42.918.27-Aug-2021 4817.00 5229.96 83.63 16.00  92.15 3173.43
   15:53:43.118.27-Aug-2021 4817.00 5229.96 83.63 16.00  92.35 3173.43
   15:53:43.318.27-Aug-2021 4817.00 5229.85 83.63 16.00  92.55 3173.43
   15:53:43.518.27-Aug-2021 4817.00 5229.86 83.63 16.00  92.75 3173.43
   15:53:43.719.27-Aug-2021 4817.00 5230.06 83.63 16.00  92.95 3173.43
   15:53:43.919.27-Aug-2021 4817.00 5229.73 83.63 16.00  93.15 3173.43
   15:53:44.119.27-Aug-2021 4817.00 5229.73 83.63 16.00  93.35 3173.43
   15:53:44.320.27-Aug-2021 4817.00 5229.81 83.63 16.00  93.55 3173.43
   15:53:44.520.27-Aug-2021 4817.00 5229.84 83.63 16.00  93.75 3173.43
   15:53:44.720.27-Aug-2021 4817.00 5229.83 83.63 16.00  93.95 3173.43
   15:53:44.921.27-Aug-2021 4817.00 5229.86 83.63 16.00  94.15 3173.43
   15:53:45.121.27-Aug-2021 4817.00 5229.86 83.63 16.00  94.35 3173.43
   15:53:45.321.27-Aug-2021 4817.00 5229.90 83.63 16.00  94.55 3173.43
   15:53:45.522.27-Aug-2021 4817.00 5229.91 83.63 16.00  94.75 3173.43
   15:53:45.722.27-Aug-2021 4817.00 5229.91 83.63 16.00  94.95 3173.43
   15:53:45.922.27-Aug-2021 4817.00 5229.93 83.63 16.00  95.15 3173.43
   15:53:46.123.27-Aug-2021 4817.00 5229.93 83.63 16.00  95.35 3173.43
   15:53:46.323.27-Aug-2021 4817.00 5229.94 83.63 16.00  95.55 3173.43
   15:53:46.523.27-Aug-2021 4817.00 5229.94 83.63 16.00  95.75 3173.43
   15:53:46.724.27-Aug-2021 4817.00 5229.94 83.63 16.00  95.95 3173.43
   15:53:46.924.27-Aug-2021 4817.00 5229.84 83.63 16.00  96.15 3173.43
   15:53:47.124.27-Aug-2021 4817.00 5229.84 83.63 16.00  96.35 3173.43
   15:53:47.325.27-Aug-2021 4817.00 5229.84 83.63 16.00  96.55 3173.43
   15:53:47.525.27-Aug-2021 4817.00 5229.83 83.63 16.00  96.75 3173.43
   15:53:47.725.27-Aug-2021 4817.00 5229.86 83.63 16.00  96.95 3173.43
   15:53:47.925.27-Aug-2021 4817.00 5229.84 83.63 16.00  97.15 3173.43
   15:53:48.126.27-Aug-2021 4817.00 5229.84 83.63 16.00  97.35 3173.43
   15:53:48.326.27-Aug-2021 4817.00 5229.88 83.63 16.00  97.56 3173.43
   15:53:48.526.27-Aug-2021 4817.00 5229.91 83.63 16.00  97.76 3173.43
   15:53:48.727.27-Aug-2021 4817.00 5229.92 83.63 16.00  97.96 3173.43
   15:53:48.927.27-Aug-2021 4817.00 5229.94 83.63 16.00  98.16 3173.43
   15:53:49.127.27-Aug-2021 4817.00 5229.94 83.63 16.00  98.36 3173.43
   15:53:49.328.27-Aug-2021 4817.00 5229.94 83.63 16.00  98.56 3173.43
   15:53:49.528.27-Aug-2021 4817.00 5229.95 83.63 16.00  98.76 3173.43
   15:53:49.728.27-Aug-2021 4817.00 5229.94 83.63 16.00  98.96 3173.43
   15:53:49.929.27-Aug-2021 4817.00 5229.96 83.63 16.00  99.16 3173.43
   15:53:50.129.27-Aug-2021 4817.00 5229.96 83.63 16.00  99.36 3173.43
   15:53:50.329.27-Aug-2021 4817.00 5229.87 83.63 16.00  99.56 3173.43
   15:53:50.530.27-Aug-2021 4817.00 5229.86 83.63 16.00  99.76 3173.43
   15:53:50.730.27-Aug-2021 4817.00 5229.80 83.63 16.00  99.96 3173.43
   15:53:50.930.27-Aug-2021 4817.00 5229.83 83.63 16.00 100.16 3173.43
   15:53:51.131.27-Aug-2021 4817.00 5229.83 83.63 16.00 100.36 3173.43
   15:53:51.331.27-Aug-2021 4817.00 5230.14 83.63 16.00 100.56 3173.43
   15:53:51.531.27-Aug-2021 4817.00 5229.84 83.63 16.00 100.76 3173.43
   15:53:51.732.27-Aug-2021 4817.00 5229.87 83.63 16.00 100.96 3173.43
   15:53:51.932.27-Aug-2021 4817.00 5229.82 83.63 16.00 101.16 3173.43
   15:53:52.132.27-Aug-2021 4817.00 5229.82 83.63 16.00 101.36 3173.43
   15:53:52.332.27-Aug-2021 4817.00 5230.11 83.63 16.00 101.56 3173.43
   15:53:52.533.27-Aug-2021 4817.00 5229.69 83.63 16.00 101.76 3173.43
   15:53:52.733.27-Aug-2021 4817.00 5229.84 83.63 16.00 101.96 3173.43
   15:53:52.933.27-Aug-2021 4817.00 5229.83 83.63 16.00 102.16 3173.43
   15:53:53.134.27-Aug-2021 4817.00 5229.83 83.63 16.00 102.36 3173.43
   15:53:53.334.27-Aug-2021 4817.00 5229.66 83.63 16.00 102.56 3173.43
   15:53:53.534.27-Aug-2021 4817.00 5229.81 83.63 16.00 102.76 3173.43
   15:53:53.735.27-Aug-2021 4817.00 5229.83 83.63 16.00 102.96 3173.43
   15:53:53.935.27-Aug-2021 4817.00 5229.83 83.63 16.00 103.16 3173.43
   15:53:54.135.27-Aug-2021 4817.00 5229.83 83.63 16.00 103.36 3173.43
   15:53:54.336.27-Aug-2021 4817.00 5229.82 83.63 16.00 103.56 3173.43
   15:53:54.536.27-Aug-2021 4817.00 5229.84 83.63 16.00 103.76 3173.43
   15:53:54.736.27-Aug-2021 4817.00 5229.86 83.63 16.00 103.97 3173.43
   15:53:54.937.27-Aug-2021 4817.00 5229.85 83.63 16.00 104.17 3173.43
   15:53:55.137.27-Aug-2021 4817.00 5229.85 83.63 16.00 104.37 3173.43
   15:53:55.337.27-Aug-2021 4817.00 5229.87 83.63 16.00 104.57 3173.43
   15:53:55.538.27-Aug-2021 4817.00 5229.88 83.63 16.00 104.77 3173.43
   15:53:55.738.27-Aug-2021 4817.00 5229.88 83.63 16.00 104.97 3173.43
   15:53:55.938.27-Aug-2021 4817.00 5229.89 83.63 16.00 105.17 3173.43
   15:53:56.139.27-Aug-2021 4817.00 5229.89 83.63 16.00 105.37 3173.43
   15:53:56.339.27-Aug-2021 4817.00 5229.83 83.63 16.00 105.57 3173.43
   15:53:56.539.27-Aug-2021 4817.00 5229.97 83.63 16.00 105.77 3173.43
   15:53:56.739.27-Aug-2021 4817.00 5229.81 83.63 16.00 105.97 3173.43
   15:53:56.940.27-Aug-2021 4817.00 5229.83 83.63 16.00 106.17 3173.43
   15:53:57.140.27-Aug-2021 4817.00 5229.83 83.63 16.00 106.37 3173.43
   15:53:57.340.27-Aug-2021 4817.00 5229.83 83.63 16.00 106.57 3173.43
   15:53:57.541.27-Aug-2021 4817.00 5229.82 83.63 16.00 106.77 3173.43
   15:53:57.741.27-Aug-2021 4817.00 5229.85 83.63 16.00 106.97 3173.43
   15:53:57.941.27-Aug-2021 4817.00 5229.86 83.63 16.00 107.17 3173.43
   15:53:58.142.27-Aug-2021 4817.00 5229.86 83.63 16.00 107.37 3173.43
   15:53:58.342.27-Aug-2021 4817.00 5229.88 83.63 16.00 107.57 3173.43
   15:53:58.542.27-Aug-2021 4817.00 5229.89 83.63 16.00 107.77 3173.43
   15:53:58.743.27-Aug-2021 4817.00 5229.89 83.63 16.00 107.97 3173.43
   15:53:58.943.27-Aug-2021 4817.00 5229.89 83.63 16.00 108.17 3173.43
   15:53:59.143.27-Aug-2021 4817.00 5229.89 83.63 16.00 108.37 3173.43
   15:53:59.344.27-Aug-2021 4817.00 5229.90 83.63 16.00 108.57 3173.43
   15:53:59.544.27-Aug-2021 4817.00 5229.87 83.63 16.00 108.77 3173.43
   15:53:59.744.27-Aug-2021 4817.00 5229.86 83.63 16.00 108.97 3173.43
   15:53:59.945.27-Aug-2021 4817.00 5229.96 83.63 16.00 109.17 3173.43
   15:54:00.145.27-Aug-2021 4817.00 5229.96 83.63 16.00 109.37 3173.43
   15:54:00.345.27-Aug-2021 4817.00 5229.83 83.63 16.00 109.57 3173.43
   15:54:00.546.27-Aug-2021 4817.00 5229.78 83.63 16.00 109.77 3173.43
   15:54:00.746.27-Aug-2021 4817.00 5229.85 83.63 16.00 109.97 3173.43
   15:54:00.946.27-Aug-2021 4817.00 5229.95 83.63 16.00 110.18 3173.43
   15:54:01.146.27-Aug-2021 4817.00 5229.95 83.63 16.00 110.38 3173.43
   15:54:01.347.27-Aug-2021 4817.00 5229.83 83.63 16.00 110.58 3173.43
   15:54:01.547.27-Aug-2021 4817.00 5229.79 83.63 16.00 110.78 3173.43
   15:54:01.747.27-Aug-2021 4817.00 5229.83 83.63 16.00 110.98 3173.43
   15:54:01.948.27-Aug-2021 4817.00 5229.94 83.63 16.00 111.18 3173.43
   15:54:02.148.27-Aug-2021 4817.00 5229.94 83.63 16.00 111.38 3173.43
   15:54:02.348.27-Aug-2021 4817.00 5229.86 83.63 16.00 111.58 3173.43
   15:54:02.549.27-Aug-2021 4817.00 5229.78 83.63 16.00 111.78 3173.43
   15:54:02.749.27-Aug-2021 4817.00 5229.85 83.63 16.00 111.98 3173.43
   15:54:02.949.27-Aug-2021 4817.00 5229.88 83.63 16.00 112.18 3173.43
   15:54:03.150.27-Aug-2021 4817.00 5229.88 83.63 16.00 112.38 3173.43
   15:54:03.350.27-Aug-2021 4817.00 5229.91 83.63 16.00 112.58 3173.43
   15:54:03.550.27-Aug-2021 4817.00 5229.77 83.63 16.00 112.78 3173.43
   15:54:03.751.27-Aug-2021 4817.00 5229.80 83.63 16.00 112.98 3173.43
