~Version Information
 VERS.                  2.0:   CWLS log ASCII Standard -VERSION 2.0
 WRAP.                   NO:   One line per depth step
~Well Information Block
#MNEM.UNIT     VALUE/NAME     DESCRIPTION
#---------     -----------    ---------------------------
 STRT.S             22:57:07 27-Aug-21: START TIME 22:57:07 27-Aug-21
 STOP.S             23:04:14 27-Aug-21: STOP TIME  23:04:14 27-Aug-21
 STEP.S                   0.00: STEP TIME
 NULL.                 -999.25: NULL VALUE
 DFWT.                        :  DIST FWL TEXT
 DFST.                        :  DIST FSL TEXT
 DMF .             Drill Floor:  DRILL MEAS FROM
 STIM.      20.00.00 17-Aug-21:  START TIME
 DATE.      19.00.00 29-Aug-21:  END TIME
 SPUD.               15-Aug-21:  SPUD DATE
 NREF.                    Grid:  NORTH REFERENCE
 HPTY.       Minimum Curvature:  HOLE POS TYPE
 DMOD.             Drill Model:  DRILL MOD DESC
 SVYD.                  Survey:  SURVEY DESC
 ILTD.               Lithology:  INTERP LTH DESC
 FTOP.          Formation Tops:  FORM TOPS DESC
 RIG .              East Azeri:  RIG NAME
 PDAT.          Mean Sea Level:  PERMANENT DATUM
 FLD .                     ACG:  FIELD NAME
 SON .        AZ-XX-0907180857:  JOB NUMBER
 CTRY.              Azerbaijan:  COUNTRY NAME
 WELL.                    D23x:  WELL NAME
 SRVC.     Turan Drilling and Engineering:  CONTRACTOR
 COMP.     BP Exploration (Caspian Sea) Ltd.:  COMPANY
 UWI .            /AZE00000214:  UNIQUE WELL IDENTIFIER
 API .            /AZE00000214:  API NUMBER
 MDS .        Operator Entered:  MAG DATA SOURCE
 BASE.              Azerbaijan:  LOGGING EQUIPMENT BASE LOCATION
 REGN.                   EESSA:  REGION
 PROV.                    Baku:  PROVINCE
 STAT.                    Baku:  STATE NAME
 MWDS.                    Baku:  MWD SHOP
 DOE .                     N/A:  DOE NUMBER
 DCON.         Sperry Drilling:  DIRECTNL CONTR
 UNIT.                     N/A:  LOGGING EQUIPMENT ID
 WTYP.                Deviated:  WELL TYPE
 CNTY.                        :  COUNTY
 LOC .                        :  LOCATION
 LMF .             Drill Floor:  LOG MEASURED FROM
 TVDS.m                  43.60:  TVDSS CORRECTN
 LATI.deg                40.02:  LATITUDE
 LONG.deg                51.45:  LONGITUDE
 WHNS.m                  -7.04:  WELL HEAD N/S
 WHEW.m                  -0.67:  WELL HEAD E/W
 UTMX.m              538762.90:  UTM X
 UTMY.m             4431871.34:  UTM Y
 DFWL.m                   0.00:  DISTANCE FWL
 DFSL.m                   0.00:  DISTANCE FSL
 SDEP.m                4127.00:  START DEPTH
 TDD .m                5084.50:  TOTAL DEPTH (DRILLER)
 VSDR.deg               140.47:  VERT SEC DIRECT
 GVFD.g                   1.00:  GRAVITY FIELD
 MFLD.nT              50362.00:  MAGNETIC FIELD
 MDIP.deg                59.48:  MAGNETIC DIP
 MDEC.deg                 6.47:  MAGNETIC DECL
 GRDC.deg                 0.31:  GRID CORRECTION
 AZTC.deg                 6.16:  AZM TOTAL CORR
 EPD .m                   0.00:  ELEVATION
 EGL .m                   0.00:  GROUND ELEVATION
 WDMS.m                 151.80:  WD ELEV
 APD .m                  43.60:  DEPTH ABOVE PD
 DEP .m                4092.57:  DEPTH
 AGAP.m                  43.60:  AIR GAP
 VSEW.m                  -0.67:  VERT SEC E/W
 VSNS.m                  -7.04:  VERT SEC N/S
 EKB .m                  43.60:  KB ELEVATION
 EDF .m                  43.60:  DF ELEVATION
 TDL .m                 957.50:  TOTAL DEPTH (LOGGER)
 VSC .                       0:  VS TO CLOSURE
 MAGU.                 1851413:  MAGUTM CHECKSUM
~Parameter Information Block
#MNEM.UNIT       Value        Description
#---------     -----------    ---------------------------
 AV  .mps                 1.50:  Ann Velocity 
 AVMX.mps                 2.00:  Max Ann Veloc 
 AZIF.deg               184.66:  Azm, Final 
 BHAT.        Rotary Steerable:  BHA Type 
 BREV.rev               300.00:  Rev Bit Total 
 BROT.°/30m              -0.50:  Build Rotating 
 BS  .in                  8.50:  Bit Size 
 BSZ .in                  8.50:  Bit Size 
 BTPL.psig              370.00:  Bit Press Loss 
 CABU.                      No:  Customer Abuse 
 CGEO.      Behruz Shahbaliyev:  Customer Geo 
 TCS .hr                140.08:  Time Ciculation Ended 
 CV  .mps                 3.00:  Crit Velocity 
 CVMX.mps                 3.20:  Max Crit Veloc 
 DD1 .            Musa Ahmadov:  Direct Drillr 1 
 DD2 .           Hamid Ahmadov:  Direct Drillr 2 
 DDSV.               Geo-Pilot:  DD Service 
 DEFF.%                  98.40:  % Det Eff 
 DLRX.°/30m               3.40:  Dogleg Rot Max 
 DLSO.°/30m               1.45:  Dogleg Oriented 
 DLSX.°/30m               3.40:  Dogleg Str Max 
 DRET.      18.40.00 29-Aug-21:  Drill End Time 
 DRST.      21.00.00 20-Aug-21:  Drill Start Tim 
 DTIM.hr                 69.47:  Time Drilling 
 EDEP.m                5084.50:  End Depth 
 ENG1.      Artemiy Matviyanov:  Engineer 1 
 ENG2.         Almaz Almadatov:  Engineer 2 
 ETIM.      18.40.00 29-Aug-21:  End Time 
 FLOI.gpm               500.00:  Flow In 
 FLON.gpm               400.00:  Flow In Min 
 FLOS.cptm                0.00:  Fluid Loss 
 FLOX.gpm               500.00:  Flow In Max 
 DFT .        Mineral Oil Base:  Mud Type 
 HFLO.                      No:  High Flow 
 HPRE.                      No:  High Pressure 
 HTEM.                      No:  High Temp 
 HYDO.m                   1.80:  Hydro Offset 
 IFIN.deg                25.62:  Inc, Final 
 IMAX.deg                48.69:  Inc Max 
 IMIN.deg                24.01:  Inc Min 
 IMND.m                4962.57:  Inc Min Depth 
 IMXD.m                4119.01:  Inc Max Depth 
 JARR.                      No:  Jarring 
 LETM.      18.40.00 29-Aug-21:  Log End Time 
 LOST.hr                     0:  Lost Rig Time 
 LSTM.      21.00.00 20-Aug-21:  Log Start Time 
 MDCL.ppm             41500.00:  Mud Chlorides 
 MDES.     Inversion Oil/Synthetic:  Mud Desc 
 DFD .sg                  1.56:  Mud Density 
 MDMN.sg                  1.56:  Dens Mud Min 
 MDMX.sg                  1.56:  Dens Mud Max 
 MOIL.                      70:  Run Mud Oil % 
 MOWR.                   70:30:  Run Mud OWR 
 MSND.                     0.2:  Run Mud Sand % 
 MSOL.                    23.3:  Run Mud Solids% 
 DFV .spqt               78.00:  Mud Viscosity 
 MWOD.in                  6.75:  MWD Tool OD 
 MWSI.                      No:  Serv Intrp, MWD 
 OTIM.hr                218.30:  Time Operating 
 PCON.           Look Like New:  Pad Condition 
 PMAX.psia            11015.30:  Press Op, Max 
 PV  .cP                 38.00:  Mud PV 
 RUN .                     300:  Run Number 
 ROPA.m/hr               15.00:  ROP Avg 
 ROPN.m/hr                9.00:  ROP Min 
 ROPX.m/hr               17.00:  ROP Max 
 RPMA.rpm               120.00:  RPM Surface Avg 
 RPMN.rpm                90.00:  RPM Surface Min 
 RPMX.rpm               140.00:  RPM Surface Max 
 RRUN.                     300:  Rig Run Number 
 RTIM.hr                 31.53:  Time Reaming 
 SAZI.deg               331.64:  Azm, Start 
 SDEP.m                4127.00:  Start Depth 
 SIDD.                      No:  Serv Intrp, DD 
 SINC.deg                48.43:  Inc, Start 
 SPPA.psig             5830.00:  SPP Avg 
 SPPN.psig             5600.00:  SPP Min 
 SPPX.psig             5900.00:  SPP Max 
 STIM.      21.00.00 20-Aug-21:  Start Time 
 SVCS.                 DD, MWD:  Services 
 SVER.                    9.20:  Sperry Version 
 TDAT.m                 957.50:  Tot Depth Attmp 
 TDDF.                      No:  Trip for DD 
 TDLG.m                 957.50:  Tot Depth Loggd 
 TFF .                      No:  Trip for Fail 
 TQAA.f-kp               15.00:  Torque Abs Avg 
 TQAN.f-kp               12.00:  Torque Abs Min 
 TQAX.f-kp               19.00:  Torque Abs Max 
 TRRT.°/30m              -3.40:  Turn Rotating 
 MRT .                  EWR-M5:  Maximum Recorded Temperature 
 TTMX.degC              100.00:  Max Tool Temp 
 VS01.                90639251:  Virtual Str1 SN 
 VS02.                90634715:  Virtual Str2 SN 
 VS03.                90652479:  Virtual Str3 SN 
 VS04.                90642262:  Virtual Str4 SN 
 WBMN.klb                 0.00:  WOB Min 
 WITN.           Murad Guliyev:  Customer Rep 
 WITN.          Yashar Gaziyev:  Customer Rep 2 
 WOBA.klb                 9.00:  WOB Avg 
 WOBX.klb                12.00:  WOB Max 
 YP  .lhf2               30.00:  Yield Point 
~Curve Information Block
#MNEM.UNIT                 API CODE     Curve Description
#---------               -----------    ---------------------------
 TIME.HHMMSS            00 000 000 000:  GT Time & Date
 GTDEPTH.m              00 000 000 000:  GT Depth
 GTPQH.psia             00 000 000 000:  GT HR Quartz Pressure
 GTTQ.degC              00 000 000 000:  GT Quartz Temperature
 GTTN.NONE              00 000 000 000:  GT Test Number
 GTET.sec               00 000 000 000:  GT Elapsed Test Time
 GTTVD.m                00 000 000 000:  GT True Vertical Depth
#Other Information
#
#WARRANTY: Halliburton will use its best efforts to furnish customers with 
#accurate information and interpretations that are part of, and incident to, the services 
#provided.  However, Halliburton cannot and does not warrant the accuracy 
#or correctness of such information and interpretations.  Under no circumstances should any 
#such information or interpretation be relied upon as the sole basis for any drilling, 
#completion, production, or financial decision or any procedure involving any risk to the 
#safety of any drilling venture, drilling rig or its crew or any other third party.  The 
#Customer has full responsibility for all drilling, completion and production operation.  
#Halliburton makes no representations or warranties, either expressed or 
#implied, including, but not limited to, the implied warranties of merchantability or fitness 
#for a particular purpose, with respect to the services rendered.  In no event will 
#Halliburton be liable for failure to obtain any particular results or for 
#any damages, including, but not limited to, indirect, special or consequential damages, 
#resulting from the use of any information or interpretation provided by Halliburton.
#
~A           TIME           GTDEPTH  GTPQH  GTTQ  GTTN   GTET   GTTVD  
# ...
   23:01:16.448.27-Aug-2021 4636.60 4500.87 82.23 25.00 248.63 3010.11
   23:01:16.648.27-Aug-2021 4636.60 4501.53 82.23 25.00 248.83 3010.11
   23:01:16.848.27-Aug-2021 4636.60 4501.42 82.23 25.00 249.03 3010.11
   23:01:17.048.27-Aug-2021 4636.60 4501.42 82.23 25.00 249.23 3010.11
   23:01:17.248.27-Aug-2021 4636.60 4501.37 82.23 25.00 249.43 3010.11
   23:01:17.448.27-Aug-2021 4636.60 4501.36 82.23 25.00 249.63 3010.11
   23:01:17.648.27-Aug-2021 4636.60 4501.35 82.23 25.00 249.83 3010.11
   23:01:17.848.27-Aug-2021 4636.60 4500.71 82.23 25.00 250.03 3010.11
   23:01:18.048.27-Aug-2021 4636.60 4500.71 82.23 25.00 250.23 3010.11
   23:01:18.248.27-Aug-2021 4636.60 4501.42 82.23 25.00 250.43 3010.11
   23:01:18.448.27-Aug-2021 4636.60 4501.40 82.23 25.00 250.63 3010.11
   23:01:18.648.27-Aug-2021 4636.60 4501.37 82.23 25.00 250.83 3010.11
   23:01:18.848.27-Aug-2021 4636.60 4501.37 82.23 25.00 251.03 3010.11
   23:01:19.048.27-Aug-2021 4636.60 4501.37 82.23 25.00 251.23 3010.11
   23:01:19.248.27-Aug-2021 4636.60 4501.35 82.23 25.00 251.43 3010.11
   23:01:19.448.27-Aug-2021 4636.60 4501.35 82.23 25.00 251.63 3010.11
   23:01:19.648.27-Aug-2021 4636.60 4501.35 82.23 25.00 251.83 3010.11
   23:01:19.848.27-Aug-2021 4636.60 4501.35 82.23 25.00 252.03 3010.11
   23:01:20.049.27-Aug-2021 4636.60 4501.35 82.23 25.00 252.23 3010.11
   23:01:20.249.27-Aug-2021 4636.60 4501.34 82.23 25.00 252.43 3010.11
   23:01:20.449.27-Aug-2021 4636.60 4501.34 82.23 25.00 252.63 3010.11
   23:01:20.649.27-Aug-2021 4636.60 4501.34 82.23 25.00 252.83 3010.11
   23:01:20.849.27-Aug-2021 4636.60 4501.34 82.23 25.00 253.03 3010.11
   23:01:21.049.27-Aug-2021 4636.60 4501.34 82.23 25.00 253.23 3010.11
   23:01:21.249.27-Aug-2021 4636.60 4501.42 82.23 25.00 253.43 3010.11
   23:01:21.449.27-Aug-2021 4636.60 4501.38 82.23 25.00 253.63 3010.11
   23:01:21.649.27-Aug-2021 4636.60 4501.37 82.23 25.00 253.83 3010.11
   23:01:21.849.27-Aug-2021 4636.60 4501.36 82.23 25.00 254.03 3010.11
   23:01:22.049.27-Aug-2021 4636.60 4501.36 82.23 25.00 254.23 3010.11
   23:01:22.249.27-Aug-2021 4636.60 4501.35 82.23 25.00 254.43 3010.11
   23:01:22.449.27-Aug-2021 4636.60 4501.35 82.23 25.00 254.63 3010.11
   23:01:22.649.27-Aug-2021 4636.60 4501.35 82.23 25.00 254.83 3010.11
   23:01:22.849.27-Aug-2021 4636.60 4501.35 82.23 25.00 255.03 3010.11
   23:01:23.049.27-Aug-2021 4636.60 4501.35 82.23 25.00 255.23 3010.11
   23:01:23.249.27-Aug-2021 4636.60 4501.34 82.23 25.00 255.43 3010.11
   23:01:23.449.27-Aug-2021 4636.60 4501.34 82.23 25.00 255.63 3010.11
   23:01:23.649.27-Aug-2021 4636.60 4501.34 82.23 25.00 255.83 3010.11
   23:01:23.849.27-Aug-2021 4636.60 4501.33 82.23 25.00 256.03 3010.11
   23:01:24.049.27-Aug-2021 4636.60 4501.33 82.23 25.00 256.23 3010.11
   23:01:24.249.27-Aug-2021 4636.60 4501.03 82.23 25.00 256.43 3010.11
   23:01:24.449.27-Aug-2021 4636.60 4501.31 82.23 25.00 256.63 3010.11
   23:01:24.649.27-Aug-2021 4636.60 4501.42 82.23 25.00 256.83 3010.11
   23:01:24.849.27-Aug-2021 4636.60 4501.40 82.23 25.00 257.03 3010.11
   23:01:25.049.27-Aug-2021 4636.60 4501.40 82.23 25.00 257.23 3010.11
   23:01:25.249.27-Aug-2021 4636.60 4501.38 82.23 25.00 257.43 3010.11
   23:01:25.449.27-Aug-2021 4636.60 4500.85 82.23 25.00 257.63 3010.11
   23:01:25.649.27-Aug-2021 4636.60 4501.55 82.23 25.00 257.83 3010.11
   23:01:25.849.27-Aug-2021 4636.60 4501.42 82.23 25.00 258.03 3010.11
   23:01:26.049.27-Aug-2021 4636.60 4501.42 82.23 25.00 258.23 3010.11
   23:01:26.249.27-Aug-2021 4636.60 4501.38 82.23 25.00 258.43 3010.11
   23:01:26.449.27-Aug-2021 4636.60 4500.74 82.23 25.00 258.63 3010.11
   23:01:26.649.27-Aug-2021 4636.60 4501.66 82.23 25.00 258.83 3010.11
   23:01:26.849.27-Aug-2021 4636.60 4501.46 82.23 25.00 259.03 3010.11
   23:01:27.049.27-Aug-2021 4636.60 4501.46 82.23 25.00 259.23 3010.11
   23:01:27.249.27-Aug-2021 4636.60 4501.40 82.23 25.00 259.43 3010.11
   23:01:27.449.27-Aug-2021 4636.60 4501.40 82.23 25.00 259.63 3010.11
   23:01:27.649.27-Aug-2021 4636.60 4501.37 82.23 25.00 259.83 3010.11
   23:01:27.849.27-Aug-2021 4636.60 4501.07 82.23 25.00 260.03 3010.11
   23:01:28.049.27-Aug-2021 4636.60 4501.07 82.23 25.00 260.23 3010.11
   23:01:28.249.27-Aug-2021 4636.60 4501.43 82.23 25.00 260.43 3010.11
   23:01:28.449.27-Aug-2021 4636.60 4501.40 82.23 25.00 260.63 3010.11
   23:01:28.649.27-Aug-2021 4636.60 4501.39 82.23 25.00 260.83 3010.11
   23:01:28.849.27-Aug-2021 4636.60 4501.40 82.23 25.00 261.03 3010.11
   23:01:29.049.27-Aug-2021 4636.60 4501.40 82.23 25.00 261.23 3010.11
   23:01:29.249.27-Aug-2021 4636.60 4501.36 82.23 25.00 261.43 3010.11
   23:01:29.449.27-Aug-2021 4636.60 4501.35 82.23 25.00 261.63 3010.11
   23:01:29.649.27-Aug-2021 4636.60 4501.35 82.23 25.00 261.83 3010.11
   23:01:29.850.27-Aug-2021 4636.60 4501.36 82.23 25.00 262.03 3010.11
   23:01:30.050.27-Aug-2021 4636.60 4501.36 82.23 25.00 262.23 3010.11
   23:01:30.250.27-Aug-2021 4636.60 4501.35 82.23 25.00 262.43 3010.11
   23:01:30.450.27-Aug-2021 4636.60 4501.35 82.23 25.00 262.63 3010.11
   23:01:30.650.27-Aug-2021 4636.60 4501.35 82.23 25.00 262.83 3010.11
   23:01:30.850.27-Aug-2021 4636.60 4501.35 82.23 25.00 263.03 3010.11
   23:01:31.050.27-Aug-2021 4636.60 4501.35 82.23 25.00 263.23 3010.11
   23:01:31.250.27-Aug-2021 4636.60 4452.75 82.23 25.00 263.43 3010.11
   23:01:31.450.27-Aug-2021 4636.60 4125.86 82.23 25.00 263.63 3010.11
   23:01:31.650.27-Aug-2021 4636.60 3931.30 82.23 25.00 263.83 3010.11
   23:01:31.850.27-Aug-2021 4636.60 3847.01 82.23 25.00 264.03 3010.11
   23:01:32.050.27-Aug-2021 4636.60 3847.01 82.23 25.00 264.23 3010.11
   23:01:32.250.27-Aug-2021 4636.60 3812.38 82.23 25.00 264.43 3010.11
   23:01:32.450.27-Aug-2021 4636.60 3805.84 82.23 25.00 264.63 3010.11
   23:01:32.650.27-Aug-2021 4636.60 3804.86 82.23 25.00 264.83 3010.11
   23:01:32.850.27-Aug-2021 4636.60 3799.10 82.23 25.00 265.03 3010.11
   23:01:33.050.27-Aug-2021 4636.60 3799.10 82.23 25.00 265.23 3010.11
   23:01:33.250.27-Aug-2021 4636.60 3807.27 82.23 25.00 265.43 3010.11
   23:01:33.450.27-Aug-2021 4636.60 3808.70 82.22 25.00 265.63 3010.11
   23:01:33.650.27-Aug-2021 4636.60 3803.82 82.22 25.00 265.83 3010.11
   23:01:33.850.27-Aug-2021 4636.60 3802.51 82.22 25.00 266.03 3010.11
   23:01:34.050.27-Aug-2021 4636.60 3802.51 82.22 25.00 266.23 3010.11
   23:01:34.250.27-Aug-2021 4636.60 3798.98 82.22 25.00 266.43 3010.11
   23:01:34.450.27-Aug-2021 4636.60 3800.51 82.22 25.00 266.63 3010.11
   23:01:34.650.27-Aug-2021 4636.60 3800.67 82.22 25.00 266.83 3010.11
   23:01:34.850.27-Aug-2021 4636.60 3804.18 82.22 25.00 267.03 3010.11
   23:01:35.050.27-Aug-2021 4636.60 3804.18 82.22 25.00 267.23 3010.11
   23:01:35.250.27-Aug-2021 4636.60 3797.83 82.22 25.00 267.43 3010.11
   23:01:35.450.27-Aug-2021 4636.60 3794.04 82.22 25.00 267.63 3010.11
   23:01:35.650.27-Aug-2021 4636.60 3796.35 82.22 25.00 267.83 3010.11
   23:01:35.850.27-Aug-2021 4636.60 3814.67 82.22 25.00 268.03 3010.11
   23:01:36.050.27-Aug-2021 4636.60 3814.67 82.22 25.00 268.23 3010.11
   23:01:36.250.27-Aug-2021 4636.60 3844.62 82.22 25.00 268.43 3010.11
   23:01:36.450.27-Aug-2021 4636.60 3861.39 82.22 25.00 268.63 3010.11
   23:01:36.650.27-Aug-2021 4636.60 3876.68 82.22 25.00 268.83 3010.11
   23:01:36.850.27-Aug-2021 4636.60 3900.88 82.22 25.00 269.03 3010.11
   23:01:37.050.27-Aug-2021 4636.60 3900.88 82.22 25.00 269.23 3010.11
   23:01:37.250.27-Aug-2021 4636.60 3928.33 82.21 25.00 269.43 3010.11
   23:01:37.450.27-Aug-2021 4636.60 3949.17 82.21 25.00 269.63 3010.11
   23:01:37.650.27-Aug-2021 4636.60 3945.72 82.21 25.00 269.83 3010.11
   23:01:37.850.27-Aug-2021 4636.60 3926.92 82.21 25.00 270.03 3010.11
   23:01:38.050.27-Aug-2021 4636.60 3926.92 82.21 25.00 270.23 3010.11
   23:01:38.250.27-Aug-2021 4636.60 3903.50 82.21 25.00 270.43 3010.11
   23:01:38.450.27-Aug-2021 4636.60 3900.21 82.21 25.00 270.63 3010.11
   23:01:38.650.27-Aug-2021 4636.60 3894.77 82.21 25.00 270.83 3010.11
   23:01:38.850.27-Aug-2021 4636.60 3886.37 82.21 25.00 271.03 3010.11
